{"last_updated":1743678561,"ttl":60,"version":"2.2","data":{"bikes":[{"bike_id":"ab5ab03f-1540-473f-bce5-bfeb9cf9d7f5","system_id":"levelo_inurba_marseille","lat":43.25112,"lon":5.40317,"is_reserved":false,"is_disabled":false,"rental_uris":{"android":"levelo://app?vid=ab5ab03f-1540-473f-bce5-bfeb9cf9d7f5","ios":"levelo://app?vid=ab5ab03f-1540-473f-bce5-bfeb9cf9d7f5"},"vehicle_type_id":"4","last_reported":1743678562,"current_range_meters":2800,"station_id":"ce4bhlh2rcd13ifvqgig","pricing_plan_id":"cebpf4jnsgd1na2vs0mg"},{"bike_id":"41460ad0-f7f9-4d29-a943-9fbca4e1f0bc","system_id":"levelo_inurba_marseille","lat":43.31719,"lon":5.42393,"is_reserved":false,"is_disabled":false,"rental_uris":{"android":"levelo://app?vid=41460ad0-f7f9-4d29-a943-9fbca4e1f0bc","ios":"levelo://app?vid=41460ad0-f7f9-4d29-a943-9fbca4e1f0bc"},"vehicle_type_id":"4","last_reported":1743678562,"current_range_meters":2800,"station_id":"ce4bhp92rcd13ifvqhbg","pricing_plan_id":"cebpf4jnsgd1na2vs0mg"},{"bike_id":"16e3b6df-f33d-4b0c-96e0-07b8fdb892cd","system_id":"levelo_inurba_marseille","lat":43.28168,"lon":5.4262,"is_reserved":false,"is_disabled":false,"rental_uris":{"android":"levelo://app?vid=16e3b6df-f33d-4b0c-96e0-07b8fdb892cd","ios":"levelo://app?vid=16e3b6df-f33d-4b0c-96e0-07b8fdb892cd"},"vehicle_type_id":"4","last_reported":1743678562,"current_range_meters":3200,"station_id":"ce4bhnh2rcd13ifvqgug","pricing_plan_id":"cebpf4jnsgd1na2vs0mg"},{"bike_id":"77e51a0a-d591-44ba-a433-c6a61d7d66ee","system_id":"levelo_inurba_marseille","lat":43.28482,"lon":5.3842,"is_reserved":false,"is_disabled":false,"rental_uris":{"android":"levelo://app?vid=77e51a0a-d591-44ba-a433-c6a61d7d66ee","ios":"levelo://app?vid=77e51a0a-d591-44ba-a433-c6a61d7d66ee"},"vehicle_type_id":"4","last_reported":1743678562,"current_range_meters":3200,"station_id":"ce4bh512rcd13ifvqe3g","pricing_plan_id":"cebpf4jnsgd1na2vs0mg"},{"bike_id":"f96ad9e2-c10f-4d40-84a7-fd1752ede24d","system_id":"levelo_inurba_marseille","lat":43.28615,"lon":5.35107,"is_reserved":false,"is_disabled":false,"rental_uris":{"android":"levelo://app?vid=f96ad9e2-c10f-4d40-84a7-fd1752ede24d","ios":"levelo://app?vid=f96ad9e2-c10f-4d40-84a7-fd1752ede24d"},"vehicle_type_id":"4","last_reported":1743678562,"current_range_meters":3600,"station_id":"ce4bhch2rcd13ifvqeug","pricing_plan_id":"cebpf4jnsgd1na2vs0mg"},{"bike_id":"9acb9bcb-2946-4388-976c-0e2c0ff233cf","system_id":"levelo_inurba_marseille","lat":43.28934,"lon":5.3842,"is_reserved":false,"is_disabled":false,"rental_uris":{"android":"levelo://app?vid=9acb9bcb-2946-4388-976c-0e2c0ff233cf","ios":"levelo://app?vid=9acb9bcb-2946-4388-976c-0e2c0ff233cf"},"vehicle_type_id":"4","last_reported":1743678562,"current_range_meters":4000,"station_id":"ce4bh612rcd13ifvqe6g","pricing_plan_id":"cebpf4jnsgd1na2vs0mg"},{"bike_id":"48302313-0890-44fb-97d4-f7f3b5d44fd5","system_id":"levelo_inurba_marseille","lat":43.33131,"lon":5.39972,"is_reserved":false,"is_disabled":false,"rental_uris":{"android":"levelo://app?vid=48302313-0890-44fb-97d4-f7f3b5d44fd5","ios":"levelo://app?vid=48302313-0890-44fb-97d4-f7f3b5d44fd5"},"vehicle_type_id":"4","last_reported":1743678562,"current_range_meters":4000,"station_id":"","pricing_plan_id":"cebpf4jnsgd1na2vs0mg"},{"bike_id":"4341ad2f-9136-4f93-a484-4f7b37861328","system_id":"levelo_inurba_marseille","lat":43.30953,"lon":5.3903,"is_reserved":false,"is_disabled":false,"rental_uris":{"android":"levelo://app?vid=4341ad2f-9136-4f93-a484-4f7b37861328","ios":"levelo://app?vid=4341ad2f-9136-4f93-a484-4f7b37861328"},"vehicle_type_id":"4","last_reported":1743678562,"current_range_meters":4000,"station_id":"ce4bgup2rcd13ifvqco0","pricing_plan_id":"cebpf4jnsgd1na2vs0mg"},{"bike_id":"1109ecb0-5680-407e-9ecf-d8c04773af66","system_id":"levelo_inurba_marseille","lat":43.29195,"lon":5.36076,"is_reserved":false,"is_disabled":false,"rental_uris":{"android":"levelo://app?vid=1109ecb0-5680-407e-9ecf-d8c04773af66","ios":"levelo://app?vid=1109ecb0-5680-407e-9ecf-d8c04773af66"},"vehicle_type_id":"4","last_reported":1743678562,"current_range_meters":4000,"station_id":"ce4bhbh2rcd13ifvqeqg","pricing_plan_id":"cebpf4jnsgd1na2vs0mg"},{"bike_id":"9512eb50-9090-4b5d-9851-901f70e5428f","system_id":"levelo_inurba_marseille","lat":43.27419,"lon":5.39414,"is_reserved":false,"is_disabled":false,"rental_uris":{"android":"levelo://app?vid=9512eb50-9090-4b5d-9851-901f70e5428f","ios":"levelo://app?vid=9512eb50-9090-4b5d-9851-901f70e5428f"},"vehicle_type_id":"4","last_reported":1743678562,"current_range_meters":4400,"station_id":"ce4bhdp2rcd13ifvqf20","pricing_plan_id":"cebpf4jnsgd1na2vs0mg"},{"bike_id":"de66f069-4686-4c41-9577-ab3d692da3f7","system_id":"levelo_inurba_marseille","lat":43.337444,"lon":5.374475,"is_reserved":false,"is_disabled":false,"rental_uris":{"android":"levelo://app?vid=de66f069-4686-4c41-9577-ab3d692da3f7","ios":"levelo://app?vid=de66f069-4686-4c41-9577-ab3d692da3f7"},"vehicle_type_id":"4","last_reported":1743678562,"current_range_meters":4400,"station_id":"","pricing_plan_id":"cebpf4jnsgd1na2vs0mg"},{"bike_id":"056b18c3-d5e0-483a-9281-406d5af51326","system_id":"levelo_inurba_marseille","lat":43.28274,"lon":5.35057,"is_reserved":false,"is_disabled":false,"rental_uris":{"android":"levelo://app?vid=056b18c3-d5e0-483a-9281-406d5af51326","ios":"levelo://app?vid=056b18c3-d5e0-483a-9281-406d5af51326"},"vehicle_type_id":"4","last_reported":1743678562,"current_range_meters":4400,"station_id":"ce4bhbp2rcd13ifvqerg","pricing_plan_id":"cebpf4jnsgd1na2vs0mg"},{"bike_id":"6a0a39e5-63d7-4022-98e6-60b3d36ac732","system_id":"levelo_inurba_marseille","lat":43.28453,"lon":5.35891,"is_reserved":false,"is_disabled":false,"rental_uris":{"android":"levelo://app?vid=6a0a39e5-63d7-4022-98e6-60b3d36ac732","ios":"levelo://app?vid=6a0a39e5-63d7-4022-98e6-60b3d36ac732"},"vehicle_type_id":"4","last_reported":1743678562,"current_range_meters":4000,"station_id":"ce4bhah2rcd13ifvqei0","pricing_plan_id":"cebpf4jnsgd1na2vs0mg"},{"bike_id":"85d52ac0-4bee-4257-89a0-86469614f9c1","system_id":"levelo_inurba_marseille","lat":43.28078,"lon":5.39648,"is_reserved":false,"is_disabled":false,"rental_uris":{"android":"levelo://app?vid=85d52ac0-4bee-4257-89a0-86469614f9c1","ios":"levelo://app?vid=85d52ac0-4bee-4257-89a0-86469614f9c1"},"vehicle_type_id":"4","last_reported":1743678562,"current_range_meters":4800,"station_id":"ce4bho12rcd13ifvqh2g","pricing_plan_id":"cebpf4jnsgd1na2vs0mg"},{"bike_id":"39c94d58-86dd-4c73-88fa-10ad22a1d6b2","system_id":"levelo_inurba_marseille","lat":43.2314,"lon":5.43714,"is_reserved":false,"is_disabled":false,"rental_uris":{"android":"levelo://app?vid=39c94d58-86dd-4c73-88fa-10ad22a1d6b2","ios":"levelo://app?vid=39c94d58-86dd-4c73-88fa-10ad22a1d6b2"},"vehicle_type_id":"4","last_reported":1743678562,"current_range_meters":4800,"station_id":"ce4bhmp2rcd13ifvqgog","pricing_plan_id":"cebpf4jnsgd1na2vs0mg"},{"bike_id":"2cf61775-cb21-4b86-a7af-7925ef8f8bd8","system_id":"levelo_inurba_marseille","lat":43.22936,"lon":5.35378,"is_reserved":false,"is_disabled":false,"rental_uris":{"android":"levelo://app?vid=2cf61775-cb21-4b86-a7af-7925ef8f8bd8","ios":"levelo://app?vid=2cf61775-cb21-4b86-a7af-7925ef8f8bd8"},"vehicle_type_id":"4","last_reported":1743678562,"current_range_meters":4800,"station_id":"cpo3532slgdg3j2ikp40","pricing_plan_id":"cebpf4jnsgd1na2vs0mg"},{"bike_id":"3e5329f3-c0cd-422c-afb1-2f46242590da","system_id":"levelo_inurba_marseille","lat":43.319161,"lon":5.375549,"is_reserved":false,"is_disabled":false,"rental_uris":{"android":"levelo://app?vid=3e5329f3-c0cd-422c-afb1-2f46242590da","ios":"levelo://app?vid=3e5329f3-c0cd-422c-afb1-2f46242590da"},"vehicle_type_id":"4","last_reported":1743678562,"current_range_meters":4800,"station_id":"","pricing_plan_id":"cebpf4jnsgd1na2vs0mg"},{"bike_id":"4f1c00e5-a79d-4f0b-ab4e-3bd2b06e7d2e","system_id":"levelo_inurba_marseille","lat":43.23055,"lon":5.355,"is_reserved":false,"is_disabled":false,"rental_uris":{"android":"levelo://app?vid=4f1c00e5-a79d-4f0b-ab4e-3bd2b06e7d2e","ios":"levelo://app?vid=4f1c00e5-a79d-4f0b-ab4e-3bd2b06e7d2e"},"vehicle_type_id":"4","last_reported":1743678562,"current_range_meters":4800,"station_id":"cpo3342slgdg3j2ifvpg","pricing_plan_id":"cebpf4jnsgd1na2vs0mg"},{"bike_id":"38aea306-ed22-4087-8bd2-06551e10901e","system_id":"levelo_inurba_marseille","lat":43.265594,"lon":5.372787,"is_reserved":false,"is_disabled":false,"rental_uris":{"android":"levelo://app?vid=38aea306-ed22-4087-8bd2-06551e10901e","ios":"levelo://app?vid=38aea306-ed22-4087-8bd2-06551e10901e"},"vehicle_type_id":"4","last_reported":1743678562,"current_range_meters":4800,"station_id":"ce4bhg12rcd13ifvqf70","pricing_plan_id":"cebpf4jnsgd1na2vs0mg"},{"bike_id":"12b5e061-2678-473f-9ed7-3d823c808278","system_id":"levelo_inurba_marseille","lat":43.24396,"lon":5.37059,"is_reserved":false,"is_disabled":false,"rental_uris":{"android":"levelo://app?vid=12b5e061-2678-473f-9ed7-3d823c808278","ios":"levelo://app?vid=12b5e061-2678-473f-9ed7-3d823c808278"},"vehicle_type_id":"4","last_reported":1743678562,"current_range_meters":5600,"station_id":"ce4bhhh2rcd13ifvqfk0","pricing_plan_id":"cebpf4jnsgd1na2vs0mg"},{"bike_id":"f55695a6-b65f-4a30-99ab-94b2bfa63268","system_id":"levelo_inurba_marseille","lat":43.23207,"lon":5.35533,"is_reserved":false,"is_disabled":false,"rental_uris":{"android":"levelo://app?vid=f55695a6-b65f-4a30-99ab-94b2bfa63268","ios":"levelo://app?vid=f55695a6-b65f-4a30-99ab-94b2bfa63268"},"vehicle_type_id":"4","last_reported":1743678562,"current_range_meters":5600,"station_id":"ce4bhu92rcd13ifvqi70","pricing_plan_id":"cebpf4jnsgd1na2vs0mg"},{"bike_id":"14350ce3-21c1-4205-94f6-3870d6252324","system_id":"levelo_inurba_marseille","lat":43.24371,"lon":5.37055,"is_reserved":false,"is_disabled":false,"rental_uris":{"android":"levelo://app?vid=14350ce3-21c1-4205-94f6-3870d6252324","ios":"levelo://app?vid=14350ce3-21c1-4205-94f6-3870d6252324"},"vehicle_type_id":"4","last_reported":1743678562,"current_range_meters":5600,"station_id":"ce4bhhh2rcd13ifvqfk0","pricing_plan_id":"cebpf4jnsgd1na2vs0mg"},{"bike_id":"101ee90b-f857-4a50-8b85-491d1b3d5efc","system_id":"levelo_inurba_marseille","lat":43.23205,"lon":5.35548,"is_reserved":false,"is_disabled":false,"rental_uris":{"android":"levelo://app?vid=101ee90b-f857-4a50-8b85-491d1b3d5efc","ios":"levelo://app?vid=101ee90b-f857-4a50-8b85-491d1b3d5efc"},"vehicle_type_id":"4","last_reported":1743678562,"current_range_meters":5600,"station_id":"ce4bhu92rcd13ifvqi70","pricing_plan_id":"cebpf4jnsgd1na2vs0mg"},{"bike_id":"d157a8ac-f1ea-480a-a1ee-9ac00962bb01","system_id":"levelo_inurba_marseille","lat":43.29548,"lon":5.42287,"is_reserved":false,"is_disabled":false,"rental_uris":{"android":"levelo://app?vid=d157a8ac-f1ea-480a-a1ee-9ac00962bb01","ios":"levelo://app?vid=d157a8ac-f1ea-480a-a1ee-9ac00962bb01"},"vehicle_type_id":"4","last_reported":1743678562,"current_range_meters":6000,"station_id":"ce4bhph2rcd13ifvqhdg","pricing_plan_id":"cebpf4jnsgd1na2vs0mg"},{"bike_id":"eb1723e2-7d01-4cf0-ad22-71299ca2c61c","system_id":"levelo_inurba_marseille","lat":43.29305,"lon":5.37184,"is_reserved":false,"is_disabled":true,"rental_uris":{"android":"levelo://app?vid=eb1723e2-7d01-4cf0-ad22-71299ca2c61c","ios":"levelo://app?vid=eb1723e2-7d01-4cf0-ad22-71299ca2c61c"},"vehicle_type_id":"4","last_reported":1743678562,"current_range_meters":6400,"station_id":"ce4bgh92rcd13ifvqb40","pricing_plan_id":"cebpf4jnsgd1na2vs0mg"},{"bike_id":"360cab47-25e6-4fa7-bbe9-54b9eeb6ff4b","system_id":"levelo_inurba_marseille","lat":43.262193,"lon":5.374313,"is_reserved":false,"is_disabled":false,"rental_uris":{"android":"levelo://app?vid=360cab47-25e6-4fa7-bbe9-54b9eeb6ff4b","ios":"levelo://app?vid=360cab47-25e6-4fa7-bbe9-54b9eeb6ff4b"},"vehicle_type_id":"4","last_reported":1743678562,"current_range_meters":6400,"station_id":"ce4bhgp2rcd13ifvqfc0","pricing_plan_id":"cebpf4jnsgd1na2vs0mg"},{"bike_id":"c493c483-943a-4324-92b5-4926e5cf7171","system_id":"levelo_inurba_marseille","lat":43.23195,"lon":5.39993,"is_reserved":false,"is_disabled":false,"rental_uris":{"android":"levelo://app?vid=c493c483-943a-4324-92b5-4926e5cf7171","ios":"levelo://app?vid=c493c483-943a-4324-92b5-4926e5cf7171"},"vehicle_type_id":"4","last_reported":1743678562,"current_range_meters":6400,"station_id":"ce4bhn12rcd13ifvqgqg","pricing_plan_id":"cebpf4jnsgd1na2vs0mg"},{"bike_id":"b80ee275-2592-4659-b2e9-175feb839700","system_id":"levelo_inurba_marseille","lat":43.232,"lon":5.3554,"is_reserved":false,"is_disabled":false,"rental_uris":{"android":"levelo://app?vid=b80ee275-2592-4659-b2e9-175feb839700","ios":"levelo://app?vid=b80ee275-2592-4659-b2e9-175feb839700"},"vehicle_type_id":"4","last_reported":1743678562,"current_range_meters":6400,"station_id":"ce4bhu92rcd13ifvqi70","pricing_plan_id":"cebpf4jnsgd1na2vs0mg"},{"bike_id":"7bc507c4-187b-4cb2-a5ef-07322f924baf","system_id":"levelo_inurba_marseille","lat":43.22921,"lon":5.35392,"is_reserved":false,"is_disabled":false,"rental_uris":{"android":"levelo://app?vid=7bc507c4-187b-4cb2-a5ef-07322f924baf","ios":"levelo://app?vid=7bc507c4-187b-4cb2-a5ef-07322f924baf"},"vehicle_type_id":"4","last_reported":1743678562,"current_range_meters":6400,"station_id":"cpo3532slgdg3j2ikp40","pricing_plan_id":"cebpf4jnsgd1na2vs0mg"},{"bike_id":"3ec2c359-b070-4d67-9acc-61323d185820","system_id":"levelo_inurba_marseille","lat":43.28721,"lon":5.37942,"is_reserved":false,"is_disabled":false,"rental_uris":{"android":"levelo://app?vid=3ec2c359-b070-4d67-9acc-61323d185820","ios":"levelo://app?vid=3ec2c359-b070-4d67-9acc-61323d185820"},"vehicle_type_id":"4","last_reported":1743678562,"current_range_meters":3200,"station_id":"ce4bh9p2rcd13ifvqec0","pricing_plan_id":"cebpf4jnsgd1na2vs0mg"},{"bike_id":"cd15225a-3809-4f11-848d-0b054244a307","system_id":"levelo_inurba_marseille","lat":43.3124,"lon":5.36856,"is_reserved":false,"is_disabled":false,"rental_uris":{"android":"levelo://app?vid=cd15225a-3809-4f11-848d-0b054244a307","ios":"levelo://app?vid=cd15225a-3809-4f11-848d-0b054244a307"},"vehicle_type_id":"4","last_reported":1743678562,"current_range_meters":6400,"station_id":"ce4bgl92rcd13ifvqbq0","pricing_plan_id":"cebpf4jnsgd1na2vs0mg"},{"bike_id":"8056fae5-7334-4c2d-9e0d-b7df89809c99","system_id":"levelo_inurba_marseille","lat":43.29294,"lon":5.37448,"is_reserved":false,"is_disabled":false,"rental_uris":{"android":"levelo://app?vid=8056fae5-7334-4c2d-9e0d-b7df89809c99","ios":"levelo://app?vid=8056fae5-7334-4c2d-9e0d-b7df89809c99"},"vehicle_type_id":"4","last_reported":1743678562,"current_range_meters":6800,"station_id":"ce4bgi12rcd13ifvqb70","pricing_plan_id":"cebpf4jnsgd1na2vs0mg"},{"bike_id":"2d955c44-1490-4f62-b3a2-a2812fc2f09f","system_id":"levelo_inurba_marseille","lat":43.26065,"lon":5.39395,"is_reserved":false,"is_disabled":false,"rental_uris":{"android":"levelo://app?vid=2d955c44-1490-4f62-b3a2-a2812fc2f09f","ios":"levelo://app?vid=2d955c44-1490-4f62-b3a2-a2812fc2f09f"},"vehicle_type_id":"4","last_reported":1743678562,"current_range_meters":6400,"station_id":"ce4bhh92rcd13ifvqfj0","pricing_plan_id":"cebpf4jnsgd1na2vs0mg"},{"bike_id":"379ec373-ea35-482b-944b-543dbdc38d6a","system_id":"levelo_inurba_marseille","lat":43.29193,"lon":5.35802,"is_reserved":false,"is_disabled":false,"rental_uris":{"android":"levelo://app?vid=379ec373-ea35-482b-944b-543dbdc38d6a","ios":"levelo://app?vid=379ec373-ea35-482b-944b-543dbdc38d6a"},"vehicle_type_id":"4","last_reported":1743678562,"current_range_meters":6800,"station_id":"ce4bhb12rcd13ifvqel0","pricing_plan_id":"cebpf4jnsgd1na2vs0mg"},{"bike_id":"91eadaaa-ffd1-4510-8577-e4c439079504","system_id":"levelo_inurba_marseille","lat":43.26552,"lon":5.37288,"is_reserved":false,"is_disabled":false,"rental_uris":{"android":"levelo://app?vid=91eadaaa-ffd1-4510-8577-e4c439079504","ios":"levelo://app?vid=91eadaaa-ffd1-4510-8577-e4c439079504"},"vehicle_type_id":"4","last_reported":1743678562,"current_range_meters":6800,"station_id":"ce4bhg12rcd13ifvqf70","pricing_plan_id":"cebpf4jnsgd1na2vs0mg"},{"bike_id":"1e56f8b0-0569-43fd-956b-7c3d45c8ba02","system_id":"levelo_inurba_marseille","lat":43.29332,"lon":5.4114,"is_reserved":false,"is_disabled":false,"rental_uris":{"android":"levelo://app?vid=1e56f8b0-0569-43fd-956b-7c3d45c8ba02","ios":"levelo://app?vid=1e56f8b0-0569-43fd-956b-7c3d45c8ba02"},"vehicle_type_id":"4","last_reported":1743678562,"current_range_meters":6800,"station_id":"","pricing_plan_id":"cebpf4jnsgd1na2vs0mg"},{"bike_id":"fe147b08-794f-4cc8-a62c-e589ca5791a1","system_id":"levelo_inurba_marseille","lat":43.25933,"lon":5.4091,"is_reserved":false,"is_disabled":false,"rental_uris":{"android":"levelo://app?vid=fe147b08-794f-4cc8-a62c-e589ca5791a1","ios":"levelo://app?vid=fe147b08-794f-4cc8-a62c-e589ca5791a1"},"vehicle_type_id":"4","last_reported":1743678562,"current_range_meters":6800,"station_id":"ce4bhm92rcd13ifvqglg","pricing_plan_id":"cebpf4jnsgd1na2vs0mg"},{"bike_id":"d53777c8-71ae-4227-ab5d-b5d248512007","system_id":"levelo_inurba_marseille","lat":43.23145,"lon":5.43723,"is_reserved":false,"is_disabled":false,"rental_uris":{"android":"levelo://app?vid=d53777c8-71ae-4227-ab5d-b5d248512007","ios":"levelo://app?vid=d53777c8-71ae-4227-ab5d-b5d248512007"},"vehicle_type_id":"4","last_reported":1743678562,"current_range_meters":6800,"station_id":"ce4bhmp2rcd13ifvqgog","pricing_plan_id":"cebpf4jnsgd1na2vs0mg"},{"bike_id":"04556df8-715f-45d8-b288-9c8fd51282f9","system_id":"levelo_inurba_marseille","lat":43.23188,"lon":5.35542,"is_reserved":false,"is_disabled":false,"rental_uris":{"android":"levelo://app?vid=04556df8-715f-45d8-b288-9c8fd51282f9","ios":"levelo://app?vid=04556df8-715f-45d8-b288-9c8fd51282f9"},"vehicle_type_id":"4","last_reported":1743678562,"current_range_meters":7200,"station_id":"ce4bhu92rcd13ifvqi70","pricing_plan_id":"cebpf4jnsgd1na2vs0mg"},{"bike_id":"988a4b2a-1fca-4561-9342-57ad8b6adb1c","system_id":"levelo_inurba_marseille","lat":43.22921,"lon":5.35382,"is_reserved":false,"is_disabled":false,"rental_uris":{"android":"levelo://app?vid=988a4b2a-1fca-4561-9342-57ad8b6adb1c","ios":"levelo://app?vid=988a4b2a-1fca-4561-9342-57ad8b6adb1c"},"vehicle_type_id":"4","last_reported":1743678562,"current_range_meters":7200,"station_id":"cpo3532slgdg3j2ikp40","pricing_plan_id":"cebpf4jnsgd1na2vs0mg"},{"bike_id":"3b948fbe-ea54-4e7f-8a80-214f816bc66c","system_id":"levelo_inurba_marseille","lat":43.24169,"lon":5.39731,"is_reserved":false,"is_disabled":false,"rental_uris":{"android":"levelo://app?vid=3b948fbe-ea54-4e7f-8a80-214f816bc66c","ios":"levelo://app?vid=3b948fbe-ea54-4e7f-8a80-214f816bc66c"},"vehicle_type_id":"4","last_reported":1743678562,"current_range_meters":7200,"station_id":"ce4bhn12rcd13ifvqgpg","pricing_plan_id":"cebpf4jnsgd1na2vs0mg"},{"bike_id":"3d3566de-da92-45f6-a9ce-b9cf9009067c","system_id":"levelo_inurba_marseille","lat":43.27653,"lon":5.38874,"is_reserved":false,"is_disabled":false,"rental_uris":{"android":"levelo://app?vid=3d3566de-da92-45f6-a9ce-b9cf9009067c","ios":"levelo://app?vid=3d3566de-da92-45f6-a9ce-b9cf9009067c"},"vehicle_type_id":"4","last_reported":1743678562,"current_range_meters":7200,"station_id":"ce4bhi12rcd13ifvqfo0","pricing_plan_id":"cebpf4jnsgd1na2vs0mg"},{"bike_id":"e7b14aec-0e7a-4f02-acf4-c91264c0f0be","system_id":"levelo_inurba_marseille","lat":43.28617,"lon":5.35102,"is_reserved":false,"is_disabled":false,"rental_uris":{"android":"levelo://app?vid=e7b14aec-0e7a-4f02-acf4-c91264c0f0be","ios":"levelo://app?vid=e7b14aec-0e7a-4f02-acf4-c91264c0f0be"},"vehicle_type_id":"4","last_reported":1743678562,"current_range_meters":7200,"station_id":"ce4bhch2rcd13ifvqeug","pricing_plan_id":"cebpf4jnsgd1na2vs0mg"},{"bike_id":"a112ce08-6f4e-41f2-873e-94895f2e1506","system_id":"levelo_inurba_marseille","lat":43.27593,"lon":5.39007,"is_reserved":false,"is_disabled":true,"rental_uris":{"android":"levelo://app?vid=a112ce08-6f4e-41f2-873e-94895f2e1506","ios":"levelo://app?vid=a112ce08-6f4e-41f2-873e-94895f2e1506"},"vehicle_type_id":"4","last_reported":1743678562,"current_range_meters":7200,"station_id":"ce4bhi12rcd13ifvqfo0","pricing_plan_id":"cebpf4jnsgd1na2vs0mg"},{"bike_id":"05f613f6-c91e-4b85-9f58-7470d57bd4fe","system_id":"levelo_inurba_marseille","lat":43.3149,"lon":5.37267,"is_reserved":false,"is_disabled":true,"rental_uris":{"android":"levelo://app?vid=05f613f6-c91e-4b85-9f58-7470d57bd4fe","ios":"levelo://app?vid=05f613f6-c91e-4b85-9f58-7470d57bd4fe"},"vehicle_type_id":"4","last_reported":1743678562,"current_range_meters":7200,"station_id":"ce4bgt12rcd13ifvqcd0","pricing_plan_id":"cebpf4jnsgd1na2vs0mg"},{"bike_id":"cac85c15-3bb7-47ec-b160-55671fed8c53","system_id":"levelo_inurba_marseille","lat":43.31497,"lon":5.37303,"is_reserved":false,"is_disabled":false,"rental_uris":{"android":"levelo://app?vid=cac85c15-3bb7-47ec-b160-55671fed8c53","ios":"levelo://app?vid=cac85c15-3bb7-47ec-b160-55671fed8c53"},"vehicle_type_id":"4","last_reported":1743678562,"current_range_meters":7200,"station_id":"ce4bgt12rcd13ifvqcd0","pricing_plan_id":"cebpf4jnsgd1na2vs0mg"},{"bike_id":"eae1c1f9-7db0-41d8-acdc-37132416b428","system_id":"levelo_inurba_marseille","lat":43.27424,"lon":5.39415,"is_reserved":false,"is_disabled":false,"rental_uris":{"android":"levelo://app?vid=eae1c1f9-7db0-41d8-acdc-37132416b428","ios":"levelo://app?vid=eae1c1f9-7db0-41d8-acdc-37132416b428"},"vehicle_type_id":"4","last_reported":1743678562,"current_range_meters":7200,"station_id":"ce4bhdp2rcd13ifvqf20","pricing_plan_id":"cebpf4jnsgd1na2vs0mg"},{"bike_id":"546380d0-0813-4737-817f-a21e056e8d2e","system_id":"levelo_inurba_marseille","lat":43.32368,"lon":5.36751,"is_reserved":false,"is_disabled":false,"rental_uris":{"android":"levelo://app?vid=546380d0-0813-4737-817f-a21e056e8d2e","ios":"levelo://app?vid=546380d0-0813-4737-817f-a21e056e8d2e"},"vehicle_type_id":"4","last_reported":1743678562,"current_range_meters":7200,"station_id":"ce4bhsh2rcd13ifvqi2g","pricing_plan_id":"cebpf4jnsgd1na2vs0mg"},{"bike_id":"2e77cd53-d83e-4492-b283-959b682aa846","system_id":"levelo_inurba_marseille","lat":43.2872,"lon":5.36091,"is_reserved":false,"is_disabled":false,"rental_uris":{"android":"levelo://app?vid=2e77cd53-d83e-4492-b283-959b682aa846","ios":"levelo://app?vid=2e77cd53-d83e-4492-b283-959b682aa846"},"vehicle_type_id":"4","last_reported":1743678562,"current_range_meters":7200,"station_id":"cki0cbj6b192h4jlfktg","pricing_plan_id":"cebpf4jnsgd1na2vs0mg"},{"bike_id":"7c408ae1-47f0-46ed-95a5-74a894459a08","system_id":"levelo_inurba_marseille","lat":43.28939,"lon":5.36621,"is_reserved":false,"is_disabled":false,"rental_uris":{"android":"levelo://app?vid=7c408ae1-47f0-46ed-95a5-74a894459a08","ios":"levelo://app?vid=7c408ae1-47f0-46ed-95a5-74a894459a08"},"vehicle_type_id":"4","last_reported":1743678562,"current_range_meters":0,"station_id":"ce4bhap2rcd13ifvqek0","pricing_plan_id":"cebpf4jnsgd1na2vs0mg"},{"bike_id":"9e898bf6-7c3b-46f2-b158-f8c5de38c9db","system_id":"levelo_inurba_marseille","lat":43.24087,"lon":5.37756,"is_reserved":false,"is_disabled":false,"rental_uris":{"android":"levelo://app?vid=9e898bf6-7c3b-46f2-b158-f8c5de38c9db","ios":"levelo://app?vid=9e898bf6-7c3b-46f2-b158-f8c5de38c9db"},"vehicle_type_id":"4","last_reported":1743678562,"current_range_meters":7200,"station_id":"ce4bhnp2rcd13ifvqgvg","pricing_plan_id":"cebpf4jnsgd1na2vs0mg"},{"bike_id":"2e1d0491-8046-4a1c-910c-6d230f4ca468","system_id":"levelo_inurba_marseille","lat":43.30682,"lon":5.37371,"is_reserved":false,"is_disabled":false,"rental_uris":{"android":"levelo://app?vid=2e1d0491-8046-4a1c-910c-6d230f4ca468","ios":"levelo://app?vid=2e1d0491-8046-4a1c-910c-6d230f4ca468"},"vehicle_type_id":"4","last_reported":1743678562,"current_range_meters":7200,"station_id":"","pricing_plan_id":"cebpf4jnsgd1na2vs0mg"},{"bike_id":"f87e996c-206a-47d9-8697-84a2d463fdc3","system_id":"levelo_inurba_marseille","lat":43.23192,"lon":5.35551,"is_reserved":false,"is_disabled":false,"rental_uris":{"android":"levelo://app?vid=f87e996c-206a-47d9-8697-84a2d463fdc3","ios":"levelo://app?vid=f87e996c-206a-47d9-8697-84a2d463fdc3"},"vehicle_type_id":"4","last_reported":1743678562,"current_range_meters":8000,"station_id":"ce4bhu92rcd13ifvqi70","pricing_plan_id":"cebpf4jnsgd1na2vs0mg"},{"bike_id":"0cb34a6e-ef9d-4baa-8377-5233e86e7cf6","system_id":"levelo_inurba_marseille","lat":43.28666,"lon":5.38667,"is_reserved":false,"is_disabled":false,"rental_uris":{"android":"levelo://app?vid=0cb34a6e-ef9d-4baa-8377-5233e86e7cf6","ios":"levelo://app?vid=0cb34a6e-ef9d-4baa-8377-5233e86e7cf6"},"vehicle_type_id":"4","last_reported":1743678562,"current_range_meters":8000,"station_id":"ce4bh492rcd13ifvqdug","pricing_plan_id":"cebpf4jnsgd1na2vs0mg"},{"bike_id":"3945780b-3464-4b52-8543-cf05282ae10d","system_id":"levelo_inurba_marseille","lat":43.31235,"lon":5.3686,"is_reserved":false,"is_disabled":false,"rental_uris":{"android":"levelo://app?vid=3945780b-3464-4b52-8543-cf05282ae10d","ios":"levelo://app?vid=3945780b-3464-4b52-8543-cf05282ae10d"},"vehicle_type_id":"4","last_reported":1743678562,"current_range_meters":8000,"station_id":"ce4bgl92rcd13ifvqbq0","pricing_plan_id":"cebpf4jnsgd1na2vs0mg"},{"bike_id":"58e66669-53ab-4d39-8504-5d085a462eeb","system_id":"levelo_inurba_marseille","lat":43.25938,"lon":5.40898,"is_reserved":false,"is_disabled":false,"rental_uris":{"android":"levelo://app?vid=58e66669-53ab-4d39-8504-5d085a462eeb","ios":"levelo://app?vid=58e66669-53ab-4d39-8504-5d085a462eeb"},"vehicle_type_id":"4","last_reported":1743678562,"current_range_meters":8000,"station_id":"ce4bhm92rcd13ifvqglg","pricing_plan_id":"cebpf4jnsgd1na2vs0mg"},{"bike_id":"ae3dc814-9220-43c9-ba79-d796beccc97c","system_id":"levelo_inurba_marseille","lat":43.30537,"lon":5.3655,"is_reserved":false,"is_disabled":false,"rental_uris":{"android":"levelo://app?vid=ae3dc814-9220-43c9-ba79-d796beccc97c","ios":"levelo://app?vid=ae3dc814-9220-43c9-ba79-d796beccc97c"},"vehicle_type_id":"4","last_reported":1743678562,"current_range_meters":8000,"station_id":"ce4bgs12rcd13ifvqcag","pricing_plan_id":"cebpf4jnsgd1na2vs0mg"},{"bike_id":"c8c097cc-00f2-49a0-9238-138b03cf8284","system_id":"levelo_inurba_marseille","lat":43.23152,"lon":5.43718,"is_reserved":false,"is_disabled":false,"rental_uris":{"android":"levelo://app?vid=c8c097cc-00f2-49a0-9238-138b03cf8284","ios":"levelo://app?vid=c8c097cc-00f2-49a0-9238-138b03cf8284"},"vehicle_type_id":"4","last_reported":1743678562,"current_range_meters":8000,"station_id":"ce4bhmp2rcd13ifvqgog","pricing_plan_id":"cebpf4jnsgd1na2vs0mg"},{"bike_id":"85674205-1522-42b3-b44d-00b977c2bdbd","system_id":"levelo_inurba_marseille","lat":43.28982,"lon":5.37836,"is_reserved":false,"is_disabled":false,"rental_uris":{"android":"levelo://app?vid=85674205-1522-42b3-b44d-00b977c2bdbd","ios":"levelo://app?vid=85674205-1522-42b3-b44d-00b977c2bdbd"},"vehicle_type_id":"4","last_reported":1743678562,"current_range_meters":8000,"station_id":"ce4bh9p2rcd13ifvqed0","pricing_plan_id":"cebpf4jnsgd1na2vs0mg"},{"bike_id":"1331c791-6775-4642-afd5-40465ecccfa5","system_id":"levelo_inurba_marseille","lat":43.24037,"lon":5.37712,"is_reserved":false,"is_disabled":false,"rental_uris":{"android":"levelo://app?vid=1331c791-6775-4642-afd5-40465ecccfa5","ios":"levelo://app?vid=1331c791-6775-4642-afd5-40465ecccfa5"},"vehicle_type_id":"4","last_reported":1743678562,"current_range_meters":8000,"station_id":"","pricing_plan_id":"cebpf4jnsgd1na2vs0mg"},{"bike_id":"ecac53c7-1761-431e-93a5-c1352259aa2f","system_id":"levelo_inurba_marseille","lat":43.28952,"lon":5.46539,"is_reserved":false,"is_disabled":false,"rental_uris":{"android":"levelo://app?vid=ecac53c7-1761-431e-93a5-c1352259aa2f","ios":"levelo://app?vid=ecac53c7-1761-431e-93a5-c1352259aa2f"},"vehicle_type_id":"4","last_reported":1743678562,"current_range_meters":8400,"station_id":"","pricing_plan_id":"cebpf4jnsgd1na2vs0mg"},{"bike_id":"32a978e0-d0c2-43d4-9b03-19a5c41c27de","system_id":"levelo_inurba_marseille","lat":43.31075,"lon":5.3832,"is_reserved":false,"is_disabled":true,"rental_uris":{"android":"levelo://app?vid=32a978e0-d0c2-43d4-9b03-19a5c41c27de","ios":"levelo://app?vid=32a978e0-d0c2-43d4-9b03-19a5c41c27de"},"vehicle_type_id":"4","last_reported":1743678562,"current_range_meters":8400,"station_id":"ce4bgv92rcd13ifvqcr0","pricing_plan_id":"cebpf4jnsgd1na2vs0mg"},{"bike_id":"806f15f5-826d-41fe-94bf-7198bfd375b1","system_id":"levelo_inurba_marseille","lat":43.23161,"lon":5.43721,"is_reserved":false,"is_disabled":false,"rental_uris":{"android":"levelo://app?vid=806f15f5-826d-41fe-94bf-7198bfd375b1","ios":"levelo://app?vid=806f15f5-826d-41fe-94bf-7198bfd375b1"},"vehicle_type_id":"4","last_reported":1743678562,"current_range_meters":8400,"station_id":"ce4bhmp2rcd13ifvqgog","pricing_plan_id":"cebpf4jnsgd1na2vs0mg"},{"bike_id":"4efe08bc-3ed4-4dd1-ad00-43917e8a6048","system_id":"levelo_inurba_marseille","lat":43.28125,"lon":5.37823,"is_reserved":false,"is_disabled":false,"rental_uris":{"android":"levelo://app?vid=4efe08bc-3ed4-4dd1-ad00-43917e8a6048","ios":"levelo://app?vid=4efe08bc-3ed4-4dd1-ad00-43917e8a6048"},"vehicle_type_id":"4","last_reported":1743678562,"current_range_meters":8400,"station_id":"ce4bha12rcd13ifvqee0","pricing_plan_id":"cebpf4jnsgd1na2vs0mg"},{"bike_id":"00494d44-decb-4e3e-ac8d-277c101e244d","system_id":"levelo_inurba_marseille","lat":43.26948,"lon":5.38627,"is_reserved":false,"is_disabled":false,"rental_uris":{"android":"levelo://app?vid=00494d44-decb-4e3e-ac8d-277c101e244d","ios":"levelo://app?vid=00494d44-decb-4e3e-ac8d-277c101e244d"},"vehicle_type_id":"4","last_reported":1743678562,"current_range_meters":8000,"station_id":"ce4bhh92rcd13ifvqfh0","pricing_plan_id":"cebpf4jnsgd1na2vs0mg"},{"bike_id":"b6c83da9-b3c4-4843-9a1d-36871e12515b","system_id":"levelo_inurba_marseille","lat":43.26117,"lon":5.41473,"is_reserved":false,"is_disabled":false,"rental_uris":{"android":"levelo://app?vid=b6c83da9-b3c4-4843-9a1d-36871e12515b","ios":"levelo://app?vid=b6c83da9-b3c4-4843-9a1d-36871e12515b"},"vehicle_type_id":"4","last_reported":1743678562,"current_range_meters":8400,"station_id":"","pricing_plan_id":"cebpf4jnsgd1na2vs0mg"},{"bike_id":"75dae32f-059a-4b5b-a5e8-963c6eda2f66","system_id":"levelo_inurba_marseille","lat":43.27511,"lon":5.41014,"is_reserved":false,"is_disabled":false,"rental_uris":{"android":"levelo://app?vid=75dae32f-059a-4b5b-a5e8-963c6eda2f66","ios":"levelo://app?vid=75dae32f-059a-4b5b-a5e8-963c6eda2f66"},"vehicle_type_id":"4","last_reported":1743678562,"current_range_meters":8400,"station_id":"","pricing_plan_id":"cebpf4jnsgd1na2vs0mg"},{"bike_id":"075edf3b-0fb1-4af8-97ff-a07dd5bd04e3","system_id":"levelo_inurba_marseille","lat":43.30463,"lon":5.37913,"is_reserved":false,"is_disabled":false,"rental_uris":{"android":"levelo://app?vid=075edf3b-0fb1-4af8-97ff-a07dd5bd04e3","ios":"levelo://app?vid=075edf3b-0fb1-4af8-97ff-a07dd5bd04e3"},"vehicle_type_id":"4","last_reported":1743678562,"current_range_meters":8400,"station_id":"ce4bh392rcd13ifvqdl0","pricing_plan_id":"cebpf4jnsgd1na2vs0mg"},{"bike_id":"3374421a-949f-40b6-870f-59a2d8ba0de4","system_id":"levelo_inurba_marseille","lat":43.24164,"lon":5.3639,"is_reserved":false,"is_disabled":false,"rental_uris":{"android":"levelo://app?vid=3374421a-949f-40b6-870f-59a2d8ba0de4","ios":"levelo://app?vid=3374421a-949f-40b6-870f-59a2d8ba0de4"},"vehicle_type_id":"4","last_reported":1743678562,"current_range_meters":8800,"station_id":"cpo36qri1sfpv3e86is0","pricing_plan_id":"cebpf4jnsgd1na2vs0mg"},{"bike_id":"c2e6881a-04a3-4a38-9cc0-75cacf165e78","system_id":"levelo_inurba_marseille","lat":43.28832,"lon":5.364645,"is_reserved":false,"is_disabled":false,"rental_uris":{"android":"levelo://app?vid=c2e6881a-04a3-4a38-9cc0-75cacf165e78","ios":"levelo://app?vid=c2e6881a-04a3-4a38-9cc0-75cacf165e78"},"vehicle_type_id":"4","last_reported":1743678562,"current_range_meters":8800,"station_id":"","pricing_plan_id":"cebpf4jnsgd1na2vs0mg"},{"bike_id":"b5fa61b4-55c0-4d0f-b518-f0583e71aca3","system_id":"levelo_inurba_marseille","lat":43.2293,"lon":5.35377,"is_reserved":false,"is_disabled":false,"rental_uris":{"android":"levelo://app?vid=b5fa61b4-55c0-4d0f-b518-f0583e71aca3","ios":"levelo://app?vid=b5fa61b4-55c0-4d0f-b518-f0583e71aca3"},"vehicle_type_id":"4","last_reported":1743678562,"current_range_meters":8800,"station_id":"cpo3532slgdg3j2ikp40","pricing_plan_id":"cebpf4jnsgd1na2vs0mg"},{"bike_id":"e53f9db2-d75c-4594-8157-2926a2062b6f","system_id":"levelo_inurba_marseille","lat":43.28438,"lon":5.39187,"is_reserved":false,"is_disabled":false,"rental_uris":{"android":"levelo://app?vid=e53f9db2-d75c-4594-8157-2926a2062b6f","ios":"levelo://app?vid=e53f9db2-d75c-4594-8157-2926a2062b6f"},"vehicle_type_id":"4","last_reported":1743678562,"current_range_meters":8400,"station_id":"ce4bhoh2rcd13ifvqh5g","pricing_plan_id":"cebpf4jnsgd1na2vs0mg"},{"bike_id":"61da1036-90fb-4e6f-ad89-ef7fc71db220","system_id":"levelo_inurba_marseille","lat":43.26556,"lon":5.37283,"is_reserved":false,"is_disabled":false,"rental_uris":{"android":"levelo://app?vid=61da1036-90fb-4e6f-ad89-ef7fc71db220","ios":"levelo://app?vid=61da1036-90fb-4e6f-ad89-ef7fc71db220"},"vehicle_type_id":"4","last_reported":1743678562,"current_range_meters":8800,"station_id":"ce4bhg12rcd13ifvqf70","pricing_plan_id":"cebpf4jnsgd1na2vs0mg"},{"bike_id":"6b901243-5970-4d41-950d-b84f98e2f80e","system_id":"levelo_inurba_marseille","lat":43.29257,"lon":5.37612,"is_reserved":false,"is_disabled":false,"rental_uris":{"android":"levelo://app?vid=6b901243-5970-4d41-950d-b84f98e2f80e","ios":"levelo://app?vid=6b901243-5970-4d41-950d-b84f98e2f80e"},"vehicle_type_id":"4","last_reported":1743678562,"current_range_meters":8800,"station_id":"ce4bgi12rcd13ifvqb80","pricing_plan_id":"cebpf4jnsgd1na2vs0mg"},{"bike_id":"948792c1-8eb6-40bb-91ad-8eeaea4ee537","system_id":"levelo_inurba_marseille","lat":43.23178,"lon":5.39986,"is_reserved":false,"is_disabled":false,"rental_uris":{"android":"levelo://app?vid=948792c1-8eb6-40bb-91ad-8eeaea4ee537","ios":"levelo://app?vid=948792c1-8eb6-40bb-91ad-8eeaea4ee537"},"vehicle_type_id":"4","last_reported":1743678562,"current_range_meters":8800,"station_id":"ce4bhn12rcd13ifvqgqg","pricing_plan_id":"cebpf4jnsgd1na2vs0mg"},{"bike_id":"e1b03b21-5eb0-483c-b4ac-ea8a29304382","system_id":"levelo_inurba_marseille","lat":43.23078,"lon":5.35502,"is_reserved":false,"is_disabled":false,"rental_uris":{"android":"levelo://app?vid=e1b03b21-5eb0-483c-b4ac-ea8a29304382","ios":"levelo://app?vid=e1b03b21-5eb0-483c-b4ac-ea8a29304382"},"vehicle_type_id":"4","last_reported":1743678562,"current_range_meters":9200,"station_id":"cpo3342slgdg3j2ifvpg","pricing_plan_id":"cebpf4jnsgd1na2vs0mg"},{"bike_id":"7fb6d04d-8e9a-442f-b6b9-ef0288b1ea09","system_id":"levelo_inurba_marseille","lat":43.29598,"lon":5.381,"is_reserved":false,"is_disabled":false,"rental_uris":{"android":"levelo://app?vid=7fb6d04d-8e9a-442f-b6b9-ef0288b1ea09","ios":"levelo://app?vid=7fb6d04d-8e9a-442f-b6b9-ef0288b1ea09"},"vehicle_type_id":"4","last_reported":1743678562,"current_range_meters":9200,"station_id":"ce4bgl12rcd13ifvqbo0","pricing_plan_id":"cebpf4jnsgd1na2vs0mg"},{"bike_id":"686c59f0-9a89-41be-a5f8-719799c0b1d9","system_id":"levelo_inurba_marseille","lat":43.30536,"lon":5.36696,"is_reserved":false,"is_disabled":false,"rental_uris":{"android":"levelo://app?vid=686c59f0-9a89-41be-a5f8-719799c0b1d9","ios":"levelo://app?vid=686c59f0-9a89-41be-a5f8-719799c0b1d9"},"vehicle_type_id":"4","last_reported":1743678562,"current_range_meters":9200,"station_id":"ce4bgrp2rcd13ifvqc9g","pricing_plan_id":"cebpf4jnsgd1na2vs0mg"},{"bike_id":"92626952-b526-423f-8a52-3525546dcfa0","system_id":"levelo_inurba_marseille","lat":43.24652,"lon":5.38888,"is_reserved":false,"is_disabled":false,"rental_uris":{"android":"levelo://app?vid=92626952-b526-423f-8a52-3525546dcfa0","ios":"levelo://app?vid=92626952-b526-423f-8a52-3525546dcfa0"},"vehicle_type_id":"4","last_reported":1743678562,"current_range_meters":9200,"station_id":"ce4bhg12rcd13ifvqf60","pricing_plan_id":"cebpf4jnsgd1na2vs0mg"},{"bike_id":"30e35e66-b619-4fd9-b182-3085dd44858f","system_id":"levelo_inurba_marseille","lat":43.270477,"lon":5.402637,"is_reserved":false,"is_disabled":false,"rental_uris":{"android":"levelo://app?vid=30e35e66-b619-4fd9-b182-3085dd44858f","ios":"levelo://app?vid=30e35e66-b619-4fd9-b182-3085dd44858f"},"vehicle_type_id":"4","last_reported":1743678562,"current_range_meters":9200,"station_id":"ce4bhk92rcd13ifvqgc0","pricing_plan_id":"cebpf4jnsgd1na2vs0mg"},{"bike_id":"6b02b711-eb6f-4812-adce-25ec0fa8daa8","system_id":"levelo_inurba_marseille","lat":43.246639,"lon":5.381612,"is_reserved":false,"is_disabled":false,"rental_uris":{"android":"levelo://app?vid=6b02b711-eb6f-4812-adce-25ec0fa8daa8","ios":"levelo://app?vid=6b02b711-eb6f-4812-adce-25ec0fa8daa8"},"vehicle_type_id":"4","last_reported":1743678562,"current_range_meters":9200,"station_id":"ce4bhih2rcd13ifvqfr0","pricing_plan_id":"cebpf4jnsgd1na2vs0mg"},{"bike_id":"4a8d215f-728c-4424-bfbf-5faa62888e2d","system_id":"levelo_inurba_marseille","lat":43.295101,"lon":5.394076,"is_reserved":false,"is_disabled":true,"rental_uris":{"android":"levelo://app?vid=4a8d215f-728c-4424-bfbf-5faa62888e2d","ios":"levelo://app?vid=4a8d215f-728c-4424-bfbf-5faa62888e2d"},"vehicle_type_id":"4","last_reported":1743678562,"current_range_meters":9200,"station_id":"ce4bh292rcd13ifvqdf0","pricing_plan_id":"cebpf4jnsgd1na2vs0mg"},{"bike_id":"b46cf917-7b60-4c51-922a-006647a2ddf8","system_id":"levelo_inurba_marseille","lat":43.28074,"lon":5.39641,"is_reserved":false,"is_disabled":false,"rental_uris":{"android":"levelo://app?vid=b46cf917-7b60-4c51-922a-006647a2ddf8","ios":"levelo://app?vid=b46cf917-7b60-4c51-922a-006647a2ddf8"},"vehicle_type_id":"4","last_reported":1743678562,"current_range_meters":9600,"station_id":"ce4bho12rcd13ifvqh2g","pricing_plan_id":"cebpf4jnsgd1na2vs0mg"},{"bike_id":"cd83c8ac-ed09-4369-9279-b6f36f2bbd3c","system_id":"levelo_inurba_marseille","lat":43.30803,"lon":5.38223,"is_reserved":false,"is_disabled":false,"rental_uris":{"android":"levelo://app?vid=cd83c8ac-ed09-4369-9279-b6f36f2bbd3c","ios":"levelo://app?vid=cd83c8ac-ed09-4369-9279-b6f36f2bbd3c"},"vehicle_type_id":"4","last_reported":1743678562,"current_range_meters":9600,"station_id":"","pricing_plan_id":"cebpf4jnsgd1na2vs0mg"},{"bike_id":"efde05d4-0e5a-40f6-99fd-1f754b8690cd","system_id":"levelo_inurba_marseille","lat":43.29938,"lon":5.36557,"is_reserved":false,"is_disabled":false,"rental_uris":{"android":"levelo://app?vid=efde05d4-0e5a-40f6-99fd-1f754b8690cd","ios":"levelo://app?vid=efde05d4-0e5a-40f6-99fd-1f754b8690cd"},"vehicle_type_id":"4","last_reported":1743678562,"current_range_meters":9600,"station_id":"ce4bgm92rcd13ifvqbr0","pricing_plan_id":"cebpf4jnsgd1na2vs0mg"},{"bike_id":"7d49898d-4c6e-4131-9fdb-37de62f2c79c","system_id":"levelo_inurba_marseille","lat":43.28891,"lon":5.3714,"is_reserved":false,"is_disabled":false,"rental_uris":{"android":"levelo://app?vid=7d49898d-4c6e-4131-9fdb-37de62f2c79c","ios":"levelo://app?vid=7d49898d-4c6e-4131-9fdb-37de62f2c79c"},"vehicle_type_id":"4","last_reported":1743678562,"current_range_meters":9600,"station_id":"","pricing_plan_id":"cebpf4jnsgd1na2vs0mg"},{"bike_id":"7912ca64-5b9c-44bc-a370-2bd329c33381","system_id":"levelo_inurba_marseille","lat":43.29042,"lon":5.39961,"is_reserved":false,"is_disabled":false,"rental_uris":{"android":"levelo://app?vid=7912ca64-5b9c-44bc-a370-2bd329c33381","ios":"levelo://app?vid=7912ca64-5b9c-44bc-a370-2bd329c33381"},"vehicle_type_id":"4","last_reported":1743678562,"current_range_meters":6800,"station_id":"ce4bh392rcd13ifvqdm0","pricing_plan_id":"cebpf4jnsgd1na2vs0mg"},{"bike_id":"87ebaa08-417c-4e4c-9c6c-0870e96c7115","system_id":"levelo_inurba_marseille","lat":43.25008,"lon":5.38912,"is_reserved":false,"is_disabled":false,"rental_uris":{"android":"levelo://app?vid=87ebaa08-417c-4e4c-9c6c-0870e96c7115","ios":"levelo://app?vid=87ebaa08-417c-4e4c-9c6c-0870e96c7115"},"vehicle_type_id":"4","last_reported":1743678562,"current_range_meters":9600,"station_id":"ce4bhgp2rcd13ifvqfd0","pricing_plan_id":"cebpf4jnsgd1na2vs0mg"},{"bike_id":"d192c992-6413-4c6c-a794-95f3b097172c","system_id":"levelo_inurba_marseille","lat":43.27941,"lon":5.41047,"is_reserved":false,"is_disabled":false,"rental_uris":{"android":"levelo://app?vid=d192c992-6413-4c6c-a794-95f3b097172c","ios":"levelo://app?vid=d192c992-6413-4c6c-a794-95f3b097172c"},"vehicle_type_id":"4","last_reported":1743678562,"current_range_meters":9600,"station_id":"ce4bhnp2rcd13ifvqh0g","pricing_plan_id":"cebpf4jnsgd1na2vs0mg"},{"bike_id":"6b04b6c2-6bd5-4038-ac04-8cb37928e09c","system_id":"levelo_inurba_marseille","lat":43.30327,"lon":5.40438,"is_reserved":false,"is_disabled":false,"rental_uris":{"android":"levelo://app?vid=6b04b6c2-6bd5-4038-ac04-8cb37928e09c","ios":"levelo://app?vid=6b04b6c2-6bd5-4038-ac04-8cb37928e09c"},"vehicle_type_id":"4","last_reported":1743678562,"current_range_meters":10000,"station_id":"ce4bh012rcd13ifvqd10","pricing_plan_id":"cebpf4jnsgd1na2vs0mg"},{"bike_id":"6b53d01e-77c7-4299-99ae-dda20d28569d","system_id":"levelo_inurba_marseille","lat":43.2795,"lon":5.38709,"is_reserved":false,"is_disabled":false,"rental_uris":{"android":"levelo://app?vid=6b53d01e-77c7-4299-99ae-dda20d28569d","ios":"levelo://app?vid=6b53d01e-77c7-4299-99ae-dda20d28569d"},"vehicle_type_id":"4","last_reported":1743678562,"current_range_meters":10000,"station_id":"ce4bhg12rcd13ifvqf80","pricing_plan_id":"cebpf4jnsgd1na2vs0mg"},{"bike_id":"8073569a-23c7-45b8-b854-282c3d0a58a5","system_id":"levelo_inurba_marseille","lat":43.28148,"lon":5.42635,"is_reserved":false,"is_disabled":false,"rental_uris":{"android":"levelo://app?vid=8073569a-23c7-45b8-b854-282c3d0a58a5","ios":"levelo://app?vid=8073569a-23c7-45b8-b854-282c3d0a58a5"},"vehicle_type_id":"4","last_reported":1743678562,"current_range_meters":10800,"station_id":"ce4bhnh2rcd13ifvqgug","pricing_plan_id":"cebpf4jnsgd1na2vs0mg"},{"bike_id":"929aa6ab-d61d-4fac-9ce0-4667602e1f8f","system_id":"levelo_inurba_marseille","lat":43.33025,"lon":5.39033,"is_reserved":false,"is_disabled":false,"rental_uris":{"android":"levelo://app?vid=929aa6ab-d61d-4fac-9ce0-4667602e1f8f","ios":"levelo://app?vid=929aa6ab-d61d-4fac-9ce0-4667602e1f8f"},"vehicle_type_id":"4","last_reported":1743678562,"current_range_meters":10000,"station_id":"ce4bhr92rcd13ifvqhrg","pricing_plan_id":"cebpf4jnsgd1na2vs0mg"},{"bike_id":"f1730bb2-6473-4ecb-b2e3-cda4ec8fab05","system_id":"levelo_inurba_marseille","lat":43.31114,"lon":5.37766,"is_reserved":false,"is_disabled":false,"rental_uris":{"android":"levelo://app?vid=f1730bb2-6473-4ecb-b2e3-cda4ec8fab05","ios":"levelo://app?vid=f1730bb2-6473-4ecb-b2e3-cda4ec8fab05"},"vehicle_type_id":"4","last_reported":1743678562,"current_range_meters":10000,"station_id":"ce4bgt92rcd13ifvqcg0","pricing_plan_id":"cebpf4jnsgd1na2vs0mg"},{"bike_id":"e412e1c3-25ff-4ec8-bcb2-79ac5b3e5c95","system_id":"levelo_inurba_marseille","lat":43.23154,"lon":5.43718,"is_reserved":false,"is_disabled":false,"rental_uris":{"android":"levelo://app?vid=e412e1c3-25ff-4ec8-bcb2-79ac5b3e5c95","ios":"levelo://app?vid=e412e1c3-25ff-4ec8-bcb2-79ac5b3e5c95"},"vehicle_type_id":"4","last_reported":1743678562,"current_range_meters":10000,"station_id":"ce4bhmp2rcd13ifvqgog","pricing_plan_id":"cebpf4jnsgd1na2vs0mg"},{"bike_id":"8084a1e5-3eb2-4a07-82e8-309719c1a80e","system_id":"levelo_inurba_marseille","lat":43.26222,"lon":5.40456,"is_reserved":false,"is_disabled":false,"rental_uris":{"android":"levelo://app?vid=8084a1e5-3eb2-4a07-82e8-309719c1a80e","ios":"levelo://app?vid=8084a1e5-3eb2-4a07-82e8-309719c1a80e"},"vehicle_type_id":"4","last_reported":1743678562,"current_range_meters":10000,"station_id":"ce4bhmh2rcd13ifvqgmg","pricing_plan_id":"cebpf4jnsgd1na2vs0mg"},{"bike_id":"f1a494cf-0f77-4789-a167-f30ea06c96c8","system_id":"levelo_inurba_marseille","lat":43.30311,"lon":5.39214,"is_reserved":false,"is_disabled":false,"rental_uris":{"android":"levelo://app?vid=f1a494cf-0f77-4789-a167-f30ea06c96c8","ios":"levelo://app?vid=f1a494cf-0f77-4789-a167-f30ea06c96c8"},"vehicle_type_id":"4","last_reported":1743678562,"current_range_meters":10000,"station_id":"ce4bgkh2rcd13ifvqbk0","pricing_plan_id":"cebpf4jnsgd1na2vs0mg"},{"bike_id":"7a8785fb-d69b-4298-bee3-bb25f339a778","system_id":"levelo_inurba_marseille","lat":43.29976,"lon":5.38486,"is_reserved":false,"is_disabled":false,"rental_uris":{"android":"levelo://app?vid=7a8785fb-d69b-4298-bee3-bb25f339a778","ios":"levelo://app?vid=7a8785fb-d69b-4298-bee3-bb25f339a778"},"vehicle_type_id":"4","last_reported":1743678562,"current_range_meters":10000,"station_id":"ce4bgj92rcd13ifvqbd0","pricing_plan_id":"cebpf4jnsgd1na2vs0mg"},{"bike_id":"22bcfedc-fd1a-42ef-b4ce-f8cb0c81bc99","system_id":"levelo_inurba_marseille","lat":43.30143,"lon":5.38778,"is_reserved":false,"is_disabled":true,"rental_uris":{"android":"levelo://app?vid=22bcfedc-fd1a-42ef-b4ce-f8cb0c81bc99","ios":"levelo://app?vid=22bcfedc-fd1a-42ef-b4ce-f8cb0c81bc99"},"vehicle_type_id":"4","last_reported":1743678562,"current_range_meters":10000,"station_id":"ce4bghh2rcd13ifvqb60","pricing_plan_id":"cebpf4jnsgd1na2vs0mg"},{"bike_id":"2523466f-0624-4abe-920b-fd86b3eae654","system_id":"levelo_inurba_marseille","lat":43.23144,"lon":5.43715,"is_reserved":false,"is_disabled":false,"rental_uris":{"android":"levelo://app?vid=2523466f-0624-4abe-920b-fd86b3eae654","ios":"levelo://app?vid=2523466f-0624-4abe-920b-fd86b3eae654"},"vehicle_type_id":"4","last_reported":1743678562,"current_range_meters":10000,"station_id":"ce4bhmp2rcd13ifvqgog","pricing_plan_id":"cebpf4jnsgd1na2vs0mg"},{"bike_id":"74157fd8-0597-409e-9f68-969f3d916f32","system_id":"levelo_inurba_marseille","lat":43.25581,"lon":5.38225,"is_reserved":false,"is_disabled":false,"rental_uris":{"android":"levelo://app?vid=74157fd8-0597-409e-9f68-969f3d916f32","ios":"levelo://app?vid=74157fd8-0597-409e-9f68-969f3d916f32"},"vehicle_type_id":"4","last_reported":1743678562,"current_range_meters":10000,"station_id":"ce4bhih2rcd13ifvqfs0","pricing_plan_id":"cebpf4jnsgd1na2vs0mg"},{"bike_id":"96358b86-edd6-47bd-8cdc-7d4ebef66ea1","system_id":"levelo_inurba_marseille","lat":43.270649,"lon":5.42273,"is_reserved":false,"is_disabled":false,"rental_uris":{"android":"levelo://app?vid=96358b86-edd6-47bd-8cdc-7d4ebef66ea1","ios":"levelo://app?vid=96358b86-edd6-47bd-8cdc-7d4ebef66ea1"},"vehicle_type_id":"4","last_reported":1743678562,"current_range_meters":10000,"station_id":"ce4bhk92rcd13ifvqgb0","pricing_plan_id":"cebpf4jnsgd1na2vs0mg"},{"bike_id":"6c51a2a4-1207-41d6-8962-c4f070bd2bd2","system_id":"levelo_inurba_marseille","lat":43.27079,"lon":5.42262,"is_reserved":false,"is_disabled":false,"rental_uris":{"android":"levelo://app?vid=6c51a2a4-1207-41d6-8962-c4f070bd2bd2","ios":"levelo://app?vid=6c51a2a4-1207-41d6-8962-c4f070bd2bd2"},"vehicle_type_id":"4","last_reported":1743678562,"current_range_meters":10000,"station_id":"ce4bhk92rcd13ifvqgb0","pricing_plan_id":"cebpf4jnsgd1na2vs0mg"},{"bike_id":"809fcddd-ea17-4d1c-9afd-834badd9b3e4","system_id":"levelo_inurba_marseille","lat":43.29154,"lon":5.37149,"is_reserved":false,"is_disabled":false,"rental_uris":{"android":"levelo://app?vid=809fcddd-ea17-4d1c-9afd-834badd9b3e4","ios":"levelo://app?vid=809fcddd-ea17-4d1c-9afd-834badd9b3e4"},"vehicle_type_id":"4","last_reported":1743678562,"current_range_meters":10800,"station_id":"ce4bha92rcd13ifvqeh0","pricing_plan_id":"cebpf4jnsgd1na2vs0mg"},{"bike_id":"48005087-0cf9-4525-9fc9-09c83ee91872","system_id":"levelo_inurba_marseille","lat":43.24174,"lon":5.39689,"is_reserved":false,"is_disabled":false,"rental_uris":{"android":"levelo://app?vid=48005087-0cf9-4525-9fc9-09c83ee91872","ios":"levelo://app?vid=48005087-0cf9-4525-9fc9-09c83ee91872"},"vehicle_type_id":"4","last_reported":1743678562,"current_range_meters":10800,"station_id":"ce4bhn12rcd13ifvqgpg","pricing_plan_id":"cebpf4jnsgd1na2vs0mg"},{"bike_id":"692f3245-71a2-4a5e-be47-09d1b72325ea","system_id":"levelo_inurba_marseille","lat":43.30535,"lon":5.36552,"is_reserved":false,"is_disabled":false,"rental_uris":{"android":"levelo://app?vid=692f3245-71a2-4a5e-be47-09d1b72325ea","ios":"levelo://app?vid=692f3245-71a2-4a5e-be47-09d1b72325ea"},"vehicle_type_id":"4","last_reported":1743678562,"current_range_meters":10800,"station_id":"ce4bgs12rcd13ifvqcag","pricing_plan_id":"cebpf4jnsgd1na2vs0mg"},{"bike_id":"2635283e-ffd4-4c1f-b9e8-1b146ac4c8cc","system_id":"levelo_inurba_marseille","lat":43.30206,"lon":5.41918,"is_reserved":false,"is_disabled":false,"rental_uris":{"android":"levelo://app?vid=2635283e-ffd4-4c1f-b9e8-1b146ac4c8cc","ios":"levelo://app?vid=2635283e-ffd4-4c1f-b9e8-1b146ac4c8cc"},"vehicle_type_id":"4","last_reported":1743678562,"current_range_meters":10800,"station_id":"","pricing_plan_id":"cebpf4jnsgd1na2vs0mg"},{"bike_id":"e6f02e74-383c-4bae-b8c4-037430863270","system_id":"levelo_inurba_marseille","lat":43.230663,"lon":5.354858,"is_reserved":false,"is_disabled":false,"rental_uris":{"android":"levelo://app?vid=e6f02e74-383c-4bae-b8c4-037430863270","ios":"levelo://app?vid=e6f02e74-383c-4bae-b8c4-037430863270"},"vehicle_type_id":"4","last_reported":1743678562,"current_range_meters":10800,"station_id":"cpo3342slgdg3j2ifvpg","pricing_plan_id":"cebpf4jnsgd1na2vs0mg"},{"bike_id":"02b529db-18e7-4fe1-8d79-6dde7fc396bc","system_id":"levelo_inurba_marseille","lat":43.3035,"lon":5.4043,"is_reserved":false,"is_disabled":false,"rental_uris":{"android":"levelo://app?vid=02b529db-18e7-4fe1-8d79-6dde7fc396bc","ios":"levelo://app?vid=02b529db-18e7-4fe1-8d79-6dde7fc396bc"},"vehicle_type_id":"4","last_reported":1743678562,"current_range_meters":11200,"station_id":"ce4bh012rcd13ifvqd10","pricing_plan_id":"cebpf4jnsgd1na2vs0mg"},{"bike_id":"829b4c0d-a826-49ac-a8fc-a7d9fd3851e5","system_id":"levelo_inurba_marseille","lat":43.30311,"lon":5.36888,"is_reserved":false,"is_disabled":false,"rental_uris":{"android":"levelo://app?vid=829b4c0d-a826-49ac-a8fc-a7d9fd3851e5","ios":"levelo://app?vid=829b4c0d-a826-49ac-a8fc-a7d9fd3851e5"},"vehicle_type_id":"4","last_reported":1743678562,"current_range_meters":11200,"station_id":"ce4bgqh2rcd13ifvqc5g","pricing_plan_id":"cebpf4jnsgd1na2vs0mg"},{"bike_id":"c1c63035-c83b-4419-8cbf-133778d95125","system_id":"levelo_inurba_marseille","lat":43.29785,"lon":5.3936,"is_reserved":false,"is_disabled":true,"rental_uris":{"android":"levelo://app?vid=c1c63035-c83b-4419-8cbf-133778d95125","ios":"levelo://app?vid=c1c63035-c83b-4419-8cbf-133778d95125"},"vehicle_type_id":"4","last_reported":1743678562,"current_range_meters":11200,"station_id":"chh1huq6cuj3fo74tm60","pricing_plan_id":"cebpf4jnsgd1na2vs0mg"},{"bike_id":"c13336a2-47ce-488c-b5b6-77c01a3ac1d1","system_id":"levelo_inurba_marseille","lat":43.31893,"lon":5.40735,"is_reserved":false,"is_disabled":true,"rental_uris":{"android":"levelo://app?vid=c13336a2-47ce-488c-b5b6-77c01a3ac1d1","ios":"levelo://app?vid=c13336a2-47ce-488c-b5b6-77c01a3ac1d1"},"vehicle_type_id":"4","last_reported":1743678562,"current_range_meters":11200,"station_id":"ce4bhq12rcd13ifvqhig","pricing_plan_id":"cebpf4jnsgd1na2vs0mg"},{"bike_id":"70e5b39f-29e3-4ea9-aa83-5a60a8eec6f8","system_id":"levelo_inurba_marseille","lat":43.25049,"lon":5.41688,"is_reserved":false,"is_disabled":false,"rental_uris":{"android":"levelo://app?vid=70e5b39f-29e3-4ea9-aa83-5a60a8eec6f8","ios":"levelo://app?vid=70e5b39f-29e3-4ea9-aa83-5a60a8eec6f8"},"vehicle_type_id":"4","last_reported":1743678562,"current_range_meters":11200,"station_id":"","pricing_plan_id":"cebpf4jnsgd1na2vs0mg"},{"bike_id":"b672fb25-95a9-4ba6-868f-de9ccfea37ac","system_id":"levelo_inurba_marseille","lat":43.30304,"lon":5.39218,"is_reserved":false,"is_disabled":true,"rental_uris":{"android":"levelo://app?vid=b672fb25-95a9-4ba6-868f-de9ccfea37ac","ios":"levelo://app?vid=b672fb25-95a9-4ba6-868f-de9ccfea37ac"},"vehicle_type_id":"4","last_reported":1743678562,"current_range_meters":11600,"station_id":"ce4bgkh2rcd13ifvqbk0","pricing_plan_id":"cebpf4jnsgd1na2vs0mg"},{"bike_id":"e887e1b0-3e28-4312-9fbe-6970a3a27c4a","system_id":"levelo_inurba_marseille","lat":43.25929,"lon":5.40895,"is_reserved":false,"is_disabled":false,"rental_uris":{"android":"levelo://app?vid=e887e1b0-3e28-4312-9fbe-6970a3a27c4a","ios":"levelo://app?vid=e887e1b0-3e28-4312-9fbe-6970a3a27c4a"},"vehicle_type_id":"4","last_reported":1743678562,"current_range_meters":11600,"station_id":"ce4bhm92rcd13ifvqglg","pricing_plan_id":"cebpf4jnsgd1na2vs0mg"},{"bike_id":"d2a9c8d5-6f1a-4cf5-9fa3-a5dbab8b5880","system_id":"levelo_inurba_marseille","lat":43.29588,"lon":5.36746,"is_reserved":false,"is_disabled":false,"rental_uris":{"android":"levelo://app?vid=d2a9c8d5-6f1a-4cf5-9fa3-a5dbab8b5880","ios":"levelo://app?vid=d2a9c8d5-6f1a-4cf5-9fa3-a5dbab8b5880"},"vehicle_type_id":"4","last_reported":1743678562,"current_range_meters":11600,"station_id":"ce4bgph2rcd13ifvqc2g","pricing_plan_id":"cebpf4jnsgd1na2vs0mg"},{"bike_id":"6cd0b091-af9b-420b-b917-bff2022c1680","system_id":"levelo_inurba_marseille","lat":43.27934,"lon":5.38697,"is_reserved":false,"is_disabled":true,"rental_uris":{"android":"levelo://app?vid=6cd0b091-af9b-420b-b917-bff2022c1680","ios":"levelo://app?vid=6cd0b091-af9b-420b-b917-bff2022c1680"},"vehicle_type_id":"4","last_reported":1743678562,"current_range_meters":11600,"station_id":"","pricing_plan_id":"cebpf4jnsgd1na2vs0mg"},{"bike_id":"e3a29d38-a611-4b12-87ef-2fb8a21c41d5","system_id":"levelo_inurba_marseille","lat":43.22846,"lon":5.35391,"is_reserved":false,"is_disabled":false,"rental_uris":{"android":"levelo://app?vid=e3a29d38-a611-4b12-87ef-2fb8a21c41d5","ios":"levelo://app?vid=e3a29d38-a611-4b12-87ef-2fb8a21c41d5"},"vehicle_type_id":"4","last_reported":1743678562,"current_range_meters":11600,"station_id":"cpo3532slgdg3j2ikp40","pricing_plan_id":"cebpf4jnsgd1na2vs0mg"},{"bike_id":"2e0b3982-3d35-40dd-8175-b65cece61dc3","system_id":"levelo_inurba_marseille","lat":43.29887,"lon":5.38908,"is_reserved":false,"is_disabled":false,"rental_uris":{"android":"levelo://app?vid=2e0b3982-3d35-40dd-8175-b65cece61dc3","ios":"levelo://app?vid=2e0b3982-3d35-40dd-8175-b65cece61dc3"},"vehicle_type_id":"4","last_reported":1743678562,"current_range_meters":11600,"station_id":"ce4bh392rcd13ifvqdl0","pricing_plan_id":"cebpf4jnsgd1na2vs0mg"},{"bike_id":"b4062aa4-f3da-460d-bee8-ce488c56ebfb","system_id":"levelo_inurba_marseille","lat":43.30544,"lon":5.36527,"is_reserved":false,"is_disabled":false,"rental_uris":{"android":"levelo://app?vid=b4062aa4-f3da-460d-bee8-ce488c56ebfb","ios":"levelo://app?vid=b4062aa4-f3da-460d-bee8-ce488c56ebfb"},"vehicle_type_id":"4","last_reported":1743678562,"current_range_meters":11600,"station_id":"ce4bgs12rcd13ifvqcag","pricing_plan_id":"cebpf4jnsgd1na2vs0mg"},{"bike_id":"98847de7-687c-4ef8-a254-674858bb3263","system_id":"levelo_inurba_marseille","lat":43.299663,"lon":5.37169,"is_reserved":false,"is_disabled":false,"rental_uris":{"android":"levelo://app?vid=98847de7-687c-4ef8-a254-674858bb3263","ios":"levelo://app?vid=98847de7-687c-4ef8-a254-674858bb3263"},"vehicle_type_id":"4","last_reported":1743678562,"current_range_meters":11600,"station_id":"ce4bgr92rcd13ifvqc7g","pricing_plan_id":"cebpf4jnsgd1na2vs0mg"},{"bike_id":"03621e27-7737-4553-a20f-2f2e0e6120b9","system_id":"levelo_inurba_marseille","lat":43.2622,"lon":5.40458,"is_reserved":false,"is_disabled":false,"rental_uris":{"android":"levelo://app?vid=03621e27-7737-4553-a20f-2f2e0e6120b9","ios":"levelo://app?vid=03621e27-7737-4553-a20f-2f2e0e6120b9"},"vehicle_type_id":"4","last_reported":1743678562,"current_range_meters":12000,"station_id":"ce4bhmh2rcd13ifvqgmg","pricing_plan_id":"cebpf4jnsgd1na2vs0mg"},{"bike_id":"b96d7db0-32b9-459b-ba63-9c88e94dbb5c","system_id":"levelo_inurba_marseille","lat":43.29003,"lon":5.35608,"is_reserved":false,"is_disabled":false,"rental_uris":{"android":"levelo://app?vid=b96d7db0-32b9-459b-ba63-9c88e94dbb5c","ios":"levelo://app?vid=b96d7db0-32b9-459b-ba63-9c88e94dbb5c"},"vehicle_type_id":"4","last_reported":1743678562,"current_range_meters":12000,"station_id":"ce4bhb92rcd13ifvqen0","pricing_plan_id":"cebpf4jnsgd1na2vs0mg"},{"bike_id":"bb32f878-4758-4574-b0bc-f6150889fb77","system_id":"levelo_inurba_marseille","lat":43.28721,"lon":5.37937,"is_reserved":false,"is_disabled":false,"rental_uris":{"android":"levelo://app?vid=bb32f878-4758-4574-b0bc-f6150889fb77","ios":"levelo://app?vid=bb32f878-4758-4574-b0bc-f6150889fb77"},"vehicle_type_id":"4","last_reported":1743678562,"current_range_meters":9600,"station_id":"ce4bh9p2rcd13ifvqec0","pricing_plan_id":"cebpf4jnsgd1na2vs0mg"},{"bike_id":"58c5cd47-b7be-44dd-b9fe-078a800ba446","system_id":"levelo_inurba_marseille","lat":43.30893,"lon":5.37192,"is_reserved":false,"is_disabled":false,"rental_uris":{"android":"levelo://app?vid=58c5cd47-b7be-44dd-b9fe-078a800ba446","ios":"levelo://app?vid=58c5cd47-b7be-44dd-b9fe-078a800ba446"},"vehicle_type_id":"4","last_reported":1743678562,"current_range_meters":11600,"station_id":"ce4bguh2rcd13ifvqckg","pricing_plan_id":"cebpf4jnsgd1na2vs0mg"},{"bike_id":"f8c62789-a6b7-4539-b99c-e6c73b69ae5e","system_id":"levelo_inurba_marseille","lat":43.30334,"lon":5.40424,"is_reserved":false,"is_disabled":true,"rental_uris":{"android":"levelo://app?vid=f8c62789-a6b7-4539-b99c-e6c73b69ae5e","ios":"levelo://app?vid=f8c62789-a6b7-4539-b99c-e6c73b69ae5e"},"vehicle_type_id":"4","last_reported":1743678562,"current_range_meters":12000,"station_id":"ce4bh012rcd13ifvqd10","pricing_plan_id":"cebpf4jnsgd1na2vs0mg"},{"bike_id":"0fb44b61-4a8d-49f8-8a94-856d5ca01915","system_id":"levelo_inurba_marseille","lat":43.29097,"lon":5.38114,"is_reserved":false,"is_disabled":false,"rental_uris":{"android":"levelo://app?vid=0fb44b61-4a8d-49f8-8a94-856d5ca01915","ios":"levelo://app?vid=0fb44b61-4a8d-49f8-8a94-856d5ca01915"},"vehicle_type_id":"4","last_reported":1743678562,"current_range_meters":12000,"station_id":"ce4bh512rcd13ifvqe2g","pricing_plan_id":"cebpf4jnsgd1na2vs0mg"},{"bike_id":"4f82a6fa-5d69-4db4-b714-e9d8fc12900f","system_id":"levelo_inurba_marseille","lat":43.26794,"lon":5.39403,"is_reserved":false,"is_disabled":false,"rental_uris":{"android":"levelo://app?vid=4f82a6fa-5d69-4db4-b714-e9d8fc12900f","ios":"levelo://app?vid=4f82a6fa-5d69-4db4-b714-e9d8fc12900f"},"vehicle_type_id":"4","last_reported":1743678562,"current_range_meters":11600,"station_id":"ce4bhh12rcd13ifvqfg0","pricing_plan_id":"cebpf4jnsgd1na2vs0mg"},{"bike_id":"5cbf7671-158b-4d03-9a17-dc431e7b5a3c","system_id":"levelo_inurba_marseille","lat":43.29527,"lon":5.38539,"is_reserved":false,"is_disabled":false,"rental_uris":{"android":"levelo://app?vid=5cbf7671-158b-4d03-9a17-dc431e7b5a3c","ios":"levelo://app?vid=5cbf7671-158b-4d03-9a17-dc431e7b5a3c"},"vehicle_type_id":"4","last_reported":1743678562,"current_range_meters":12000,"station_id":"ce4bgih2rcd13ifvqba0","pricing_plan_id":"cebpf4jnsgd1na2vs0mg"},{"bike_id":"efddeda7-6eb2-4c14-868d-fa0ce0b35ef3","system_id":"levelo_inurba_marseille","lat":43.31294,"lon":5.38297,"is_reserved":false,"is_disabled":false,"rental_uris":{"android":"levelo://app?vid=efddeda7-6eb2-4c14-868d-fa0ce0b35ef3","ios":"levelo://app?vid=efddeda7-6eb2-4c14-868d-fa0ce0b35ef3"},"vehicle_type_id":"4","last_reported":1743678562,"current_range_meters":12000,"station_id":"","pricing_plan_id":"cebpf4jnsgd1na2vs0mg"},{"bike_id":"1bd4c5e9-3479-4a34-bfb9-e556a3bbe8ed","system_id":"levelo_inurba_marseille","lat":43.23063,"lon":5.35488,"is_reserved":false,"is_disabled":false,"rental_uris":{"android":"levelo://app?vid=1bd4c5e9-3479-4a34-bfb9-e556a3bbe8ed","ios":"levelo://app?vid=1bd4c5e9-3479-4a34-bfb9-e556a3bbe8ed"},"vehicle_type_id":"4","last_reported":1743678562,"current_range_meters":12000,"station_id":"cpo3342slgdg3j2ifvpg","pricing_plan_id":"cebpf4jnsgd1na2vs0mg"},{"bike_id":"8e4581a0-ac48-45f0-8881-72e126b8df71","system_id":"levelo_inurba_marseille","lat":43.31281,"lon":5.36891,"is_reserved":false,"is_disabled":false,"rental_uris":{"android":"levelo://app?vid=8e4581a0-ac48-45f0-8881-72e126b8df71","ios":"levelo://app?vid=8e4581a0-ac48-45f0-8881-72e126b8df71"},"vehicle_type_id":"4","last_reported":1743678562,"current_range_meters":12000,"station_id":"","pricing_plan_id":"cebpf4jnsgd1na2vs0mg"},{"bike_id":"e24f6b3c-11be-4b25-9a91-eb2deb18d362","system_id":"levelo_inurba_marseille","lat":43.30527,"lon":5.38416,"is_reserved":false,"is_disabled":false,"rental_uris":{"android":"levelo://app?vid=e24f6b3c-11be-4b25-9a91-eb2deb18d362","ios":"levelo://app?vid=e24f6b3c-11be-4b25-9a91-eb2deb18d362"},"vehicle_type_id":"4","last_reported":1743678562,"current_range_meters":12000,"station_id":"ce4bgg92rcd13ifvqb30","pricing_plan_id":"cebpf4jnsgd1na2vs0mg"},{"bike_id":"79cec216-5589-4c2c-a991-bd5b638e3af0","system_id":"levelo_inurba_marseille","lat":43.28696,"lon":5.39973,"is_reserved":false,"is_disabled":false,"rental_uris":{"android":"levelo://app?vid=79cec216-5589-4c2c-a991-bd5b638e3af0","ios":"levelo://app?vid=79cec216-5589-4c2c-a991-bd5b638e3af0"},"vehicle_type_id":"4","last_reported":1743678562,"current_range_meters":12400,"station_id":"ce4bho92rcd13ifvqh3g","pricing_plan_id":"cebpf4jnsgd1na2vs0mg"},{"bike_id":"3b631a22-51c6-4809-9423-b5168f1d490d","system_id":"levelo_inurba_marseille","lat":43.26202,"lon":5.37452,"is_reserved":false,"is_disabled":false,"rental_uris":{"android":"levelo://app?vid=3b631a22-51c6-4809-9423-b5168f1d490d","ios":"levelo://app?vid=3b631a22-51c6-4809-9423-b5168f1d490d"},"vehicle_type_id":"4","last_reported":1743678562,"current_range_meters":12400,"station_id":"ce4bhgp2rcd13ifvqfc0","pricing_plan_id":"cebpf4jnsgd1na2vs0mg"},{"bike_id":"9ada3385-2eea-446a-95da-f8740519d0e3","system_id":"levelo_inurba_marseille","lat":43.24115,"lon":5.3768,"is_reserved":false,"is_disabled":false,"rental_uris":{"android":"levelo://app?vid=9ada3385-2eea-446a-95da-f8740519d0e3","ios":"levelo://app?vid=9ada3385-2eea-446a-95da-f8740519d0e3"},"vehicle_type_id":"4","last_reported":1743678562,"current_range_meters":12400,"station_id":"","pricing_plan_id":"cebpf4jnsgd1na2vs0mg"},{"bike_id":"7f44e39d-6495-4b71-9edf-2758927d2eb6","system_id":"levelo_inurba_marseille","lat":43.28728,"lon":5.37928,"is_reserved":false,"is_disabled":false,"rental_uris":{"android":"levelo://app?vid=7f44e39d-6495-4b71-9edf-2758927d2eb6","ios":"levelo://app?vid=7f44e39d-6495-4b71-9edf-2758927d2eb6"},"vehicle_type_id":"4","last_reported":1743678562,"current_range_meters":12400,"station_id":"ce4bh9p2rcd13ifvqec0","pricing_plan_id":"cebpf4jnsgd1na2vs0mg"},{"bike_id":"49cec815-b37d-4999-b020-0c8b8910aca1","system_id":"levelo_inurba_marseille","lat":43.26961,"lon":5.38634,"is_reserved":false,"is_disabled":false,"rental_uris":{"android":"levelo://app?vid=49cec815-b37d-4999-b020-0c8b8910aca1","ios":"levelo://app?vid=49cec815-b37d-4999-b020-0c8b8910aca1"},"vehicle_type_id":"4","last_reported":1743678562,"current_range_meters":12000,"station_id":"ce4bhh92rcd13ifvqfh0","pricing_plan_id":"cebpf4jnsgd1na2vs0mg"},{"bike_id":"f6bd48ca-490c-403f-ba54-859cabc59f02","system_id":"levelo_inurba_marseille","lat":43.2992,"lon":5.37452,"is_reserved":false,"is_disabled":true,"rental_uris":{"android":"levelo://app?vid=f6bd48ca-490c-403f-ba54-859cabc59f02","ios":"levelo://app?vid=f6bd48ca-490c-403f-ba54-859cabc59f02"},"vehicle_type_id":"4","last_reported":1743678562,"current_range_meters":12800,"station_id":"ce4bgjh2rcd13ifvqbg0","pricing_plan_id":"cebpf4jnsgd1na2vs0mg"},{"bike_id":"6cb0884f-aba9-44e8-92f3-61aacc7d15b0","system_id":"levelo_inurba_marseille","lat":43.2583,"lon":5.39417,"is_reserved":false,"is_disabled":false,"rental_uris":{"android":"levelo://app?vid=6cb0884f-aba9-44e8-92f3-61aacc7d15b0","ios":"levelo://app?vid=6cb0884f-aba9-44e8-92f3-61aacc7d15b0"},"vehicle_type_id":"4","last_reported":1743678562,"current_range_meters":12800,"station_id":"ce4bhip2rcd13ifvqft0","pricing_plan_id":"cebpf4jnsgd1na2vs0mg"},{"bike_id":"49790022-729f-4a3f-9ab3-73fdfee1798b","system_id":"levelo_inurba_marseille","lat":43.29298,"lon":5.37457,"is_reserved":false,"is_disabled":false,"rental_uris":{"android":"levelo://app?vid=49790022-729f-4a3f-9ab3-73fdfee1798b","ios":"levelo://app?vid=49790022-729f-4a3f-9ab3-73fdfee1798b"},"vehicle_type_id":"4","last_reported":1743678562,"current_range_meters":12800,"station_id":"ce4bgi12rcd13ifvqb70","pricing_plan_id":"cebpf4jnsgd1na2vs0mg"},{"bike_id":"a4db2d14-cce8-446b-818a-41595b107c30","system_id":"levelo_inurba_marseille","lat":43.28453,"lon":5.35887,"is_reserved":false,"is_disabled":false,"rental_uris":{"android":"levelo://app?vid=a4db2d14-cce8-446b-818a-41595b107c30","ios":"levelo://app?vid=a4db2d14-cce8-446b-818a-41595b107c30"},"vehicle_type_id":"4","last_reported":1743678562,"current_range_meters":12800,"station_id":"ce4bhah2rcd13ifvqei0","pricing_plan_id":"cebpf4jnsgd1na2vs0mg"},{"bike_id":"caf1b957-71f5-44e7-849c-22f9515c7ed6","system_id":"levelo_inurba_marseille","lat":43.2408,"lon":5.37753,"is_reserved":false,"is_disabled":false,"rental_uris":{"android":"levelo://app?vid=caf1b957-71f5-44e7-849c-22f9515c7ed6","ios":"levelo://app?vid=caf1b957-71f5-44e7-849c-22f9515c7ed6"},"vehicle_type_id":"4","last_reported":1743678562,"current_range_meters":13600,"station_id":"ce4bhnp2rcd13ifvqgvg","pricing_plan_id":"cebpf4jnsgd1na2vs0mg"},{"bike_id":"841946bd-6940-4794-9af4-41cbe287891a","system_id":"levelo_inurba_marseille","lat":43.27373,"lon":5.3626,"is_reserved":false,"is_disabled":false,"rental_uris":{"android":"levelo://app?vid=841946bd-6940-4794-9af4-41cbe287891a","ios":"levelo://app?vid=841946bd-6940-4794-9af4-41cbe287891a"},"vehicle_type_id":"4","last_reported":1743678562,"current_range_meters":13600,"station_id":"ce4bhbh2rcd13ifvqeo0","pricing_plan_id":"cebpf4jnsgd1na2vs0mg"},{"bike_id":"63139285-137c-4e8d-8e95-6c2a275f8333","system_id":"levelo_inurba_marseille","lat":43.32152,"lon":5.36799,"is_reserved":false,"is_disabled":false,"rental_uris":{"android":"levelo://app?vid=63139285-137c-4e8d-8e95-6c2a275f8333","ios":"levelo://app?vid=63139285-137c-4e8d-8e95-6c2a275f8333"},"vehicle_type_id":"4","last_reported":1743678562,"current_range_meters":13600,"station_id":"ce4bhrh2rcd13ifvqhug","pricing_plan_id":"cebpf4jnsgd1na2vs0mg"},{"bike_id":"ccec8fbe-21c5-45df-857c-c678660c3dae","system_id":"levelo_inurba_marseille","lat":43.24666,"lon":5.38167,"is_reserved":false,"is_disabled":false,"rental_uris":{"android":"levelo://app?vid=ccec8fbe-21c5-45df-857c-c678660c3dae","ios":"levelo://app?vid=ccec8fbe-21c5-45df-857c-c678660c3dae"},"vehicle_type_id":"4","last_reported":1743678562,"current_range_meters":13600,"station_id":"ce4bhih2rcd13ifvqfr0","pricing_plan_id":"cebpf4jnsgd1na2vs0mg"},{"bike_id":"d5efcd13-9084-4a44-95bc-d0283a96f497","system_id":"levelo_inurba_marseille","lat":43.25728,"lon":5.41096,"is_reserved":false,"is_disabled":false,"rental_uris":{"android":"levelo://app?vid=d5efcd13-9084-4a44-95bc-d0283a96f497","ios":"levelo://app?vid=d5efcd13-9084-4a44-95bc-d0283a96f497"},"vehicle_type_id":"4","last_reported":1743678562,"current_range_meters":13600,"station_id":"ce4bhkp2rcd13ifvqgd0","pricing_plan_id":"cebpf4jnsgd1na2vs0mg"},{"bike_id":"22b8702c-0dfe-451a-841a-e968657038a3","system_id":"levelo_inurba_marseille","lat":43.3248,"lon":5.36564,"is_reserved":false,"is_disabled":false,"rental_uris":{"android":"levelo://app?vid=22b8702c-0dfe-451a-841a-e968657038a3","ios":"levelo://app?vid=22b8702c-0dfe-451a-841a-e968657038a3"},"vehicle_type_id":"4","last_reported":1743678562,"current_range_meters":14000,"station_id":"ce4bhs12rcd13ifvqhvg","pricing_plan_id":"cebpf4jnsgd1na2vs0mg"},{"bike_id":"68b181a5-a833-4fae-b513-878de5b8bc62","system_id":"levelo_inurba_marseille","lat":43.28718,"lon":5.37383,"is_reserved":false,"is_disabled":false,"rental_uris":{"android":"levelo://app?vid=68b181a5-a833-4fae-b513-878de5b8bc62","ios":"levelo://app?vid=68b181a5-a833-4fae-b513-878de5b8bc62"},"vehicle_type_id":"4","last_reported":1743678562,"current_range_meters":14000,"station_id":"ce4bh3p2rcd13ifvqdq0","pricing_plan_id":"cebpf4jnsgd1na2vs0mg"},{"bike_id":"5f46717b-05d1-4f34-a220-8087932d755b","system_id":"levelo_inurba_marseille","lat":43.30096,"lon":5.36949,"is_reserved":false,"is_disabled":false,"rental_uris":{"android":"levelo://app?vid=5f46717b-05d1-4f34-a220-8087932d755b","ios":"levelo://app?vid=5f46717b-05d1-4f34-a220-8087932d755b"},"vehicle_type_id":"4","last_reported":1743678562,"current_range_meters":14000,"station_id":"","pricing_plan_id":"cebpf4jnsgd1na2vs0mg"},{"bike_id":"0aa69f03-0878-4038-837b-a34d05729b70","system_id":"levelo_inurba_marseille","lat":43.30541,"lon":5.36687,"is_reserved":false,"is_disabled":false,"rental_uris":{"android":"levelo://app?vid=0aa69f03-0878-4038-837b-a34d05729b70","ios":"levelo://app?vid=0aa69f03-0878-4038-837b-a34d05729b70"},"vehicle_type_id":"4","last_reported":1743678562,"current_range_meters":14400,"station_id":"ce4bgrp2rcd13ifvqc9g","pricing_plan_id":"cebpf4jnsgd1na2vs0mg"},{"bike_id":"4d775317-af6b-42c1-bbd3-79ac15e3ba54","system_id":"levelo_inurba_marseille","lat":43.25864,"lon":5.39898,"is_reserved":false,"is_disabled":false,"rental_uris":{"android":"levelo://app?vid=4d775317-af6b-42c1-bbd3-79ac15e3ba54","ios":"levelo://app?vid=4d775317-af6b-42c1-bbd3-79ac15e3ba54"},"vehicle_type_id":"4","last_reported":1743678562,"current_range_meters":14000,"station_id":"ce4bhl92rcd13ifvqghg","pricing_plan_id":"cebpf4jnsgd1na2vs0mg"},{"bike_id":"21b65b62-2684-4fc7-8920-573a961d7a1b","system_id":"levelo_inurba_marseille","lat":43.28271,"lon":5.35056,"is_reserved":false,"is_disabled":false,"rental_uris":{"android":"levelo://app?vid=21b65b62-2684-4fc7-8920-573a961d7a1b","ios":"levelo://app?vid=21b65b62-2684-4fc7-8920-573a961d7a1b"},"vehicle_type_id":"4","last_reported":1743678562,"current_range_meters":14400,"station_id":"ce4bhbp2rcd13ifvqerg","pricing_plan_id":"cebpf4jnsgd1na2vs0mg"},{"bike_id":"a6303451-5b45-435c-bf0e-748f94cc010d","system_id":"levelo_inurba_marseille","lat":43.231956,"lon":5.355449,"is_reserved":false,"is_disabled":false,"rental_uris":{"android":"levelo://app?vid=a6303451-5b45-435c-bf0e-748f94cc010d","ios":"levelo://app?vid=a6303451-5b45-435c-bf0e-748f94cc010d"},"vehicle_type_id":"4","last_reported":1743678562,"current_range_meters":14400,"station_id":"ce4bhu92rcd13ifvqi70","pricing_plan_id":"cebpf4jnsgd1na2vs0mg"},{"bike_id":"f1e5f20d-e5bb-4349-9a72-f7ab8a004414","system_id":"levelo_inurba_marseille","lat":43.30328,"lon":5.40424,"is_reserved":false,"is_disabled":true,"rental_uris":{"android":"levelo://app?vid=f1e5f20d-e5bb-4349-9a72-f7ab8a004414","ios":"levelo://app?vid=f1e5f20d-e5bb-4349-9a72-f7ab8a004414"},"vehicle_type_id":"4","last_reported":1743678562,"current_range_meters":14400,"station_id":"ce4bh012rcd13ifvqd10","pricing_plan_id":"cebpf4jnsgd1na2vs0mg"},{"bike_id":"2c5d9f5c-24e7-4d93-acd5-e4d1eb93775c","system_id":"levelo_inurba_marseille","lat":43.28477,"lon":5.38428,"is_reserved":false,"is_disabled":false,"rental_uris":{"android":"levelo://app?vid=2c5d9f5c-24e7-4d93-acd5-e4d1eb93775c","ios":"levelo://app?vid=2c5d9f5c-24e7-4d93-acd5-e4d1eb93775c"},"vehicle_type_id":"4","last_reported":1743678562,"current_range_meters":14800,"station_id":"ce4bh512rcd13ifvqe3g","pricing_plan_id":"cebpf4jnsgd1na2vs0mg"},{"bike_id":"e9947125-e4b1-4977-bee9-fb031515997e","system_id":"levelo_inurba_marseille","lat":43.24547,"lon":5.39515,"is_reserved":false,"is_disabled":false,"rental_uris":{"android":"levelo://app?vid=e9947125-e4b1-4977-bee9-fb031515997e","ios":"levelo://app?vid=e9947125-e4b1-4977-bee9-fb031515997e"},"vehicle_type_id":"4","last_reported":1743678562,"current_range_meters":14800,"station_id":"ce4bhlp2rcd13ifvqgjg","pricing_plan_id":"cebpf4jnsgd1na2vs0mg"},{"bike_id":"4c6c26e9-c2c0-42ca-bbad-340608c64a5a","system_id":"levelo_inurba_marseille","lat":43.313615,"lon":5.367098,"is_reserved":false,"is_disabled":false,"rental_uris":{"android":"levelo://app?vid=4c6c26e9-c2c0-42ca-bbad-340608c64a5a","ios":"levelo://app?vid=4c6c26e9-c2c0-42ca-bbad-340608c64a5a"},"vehicle_type_id":"4","last_reported":1743678562,"current_range_meters":14800,"station_id":"ce4bgr92rcd13ifvqc6g","pricing_plan_id":"cebpf4jnsgd1na2vs0mg"},{"bike_id":"6c49c931-313c-467a-b8c2-23eb987d0fe4","system_id":"levelo_inurba_marseille","lat":43.25872,"lon":5.39892,"is_reserved":false,"is_disabled":false,"rental_uris":{"android":"levelo://app?vid=6c49c931-313c-467a-b8c2-23eb987d0fe4","ios":"levelo://app?vid=6c49c931-313c-467a-b8c2-23eb987d0fe4"},"vehicle_type_id":"4","last_reported":1743678562,"current_range_meters":14800,"station_id":"ce4bhl92rcd13ifvqghg","pricing_plan_id":"cebpf4jnsgd1na2vs0mg"},{"bike_id":"e4d6b32d-4ad2-47e6-a84f-f704aead913a","system_id":"levelo_inurba_marseille","lat":43.29985,"lon":5.38495,"is_reserved":false,"is_disabled":false,"rental_uris":{"android":"levelo://app?vid=e4d6b32d-4ad2-47e6-a84f-f704aead913a","ios":"levelo://app?vid=e4d6b32d-4ad2-47e6-a84f-f704aead913a"},"vehicle_type_id":"4","last_reported":1743678562,"current_range_meters":14800,"station_id":"ce4bgj92rcd13ifvqbd0","pricing_plan_id":"cebpf4jnsgd1na2vs0mg"},{"bike_id":"0da307f0-a737-4f3f-8786-4dd451d57e79","system_id":"levelo_inurba_marseille","lat":43.3087,"lon":5.36732,"is_reserved":false,"is_disabled":false,"rental_uris":{"android":"levelo://app?vid=0da307f0-a737-4f3f-8786-4dd451d57e79","ios":"levelo://app?vid=0da307f0-a737-4f3f-8786-4dd451d57e79"},"vehicle_type_id":"4","last_reported":1743678562,"current_range_meters":15200,"station_id":"","pricing_plan_id":"cebpf4jnsgd1na2vs0mg"},{"bike_id":"76eea2b6-255c-4e22-8e6e-b4c14eb350e3","system_id":"levelo_inurba_marseille","lat":43.30472,"lon":5.37909,"is_reserved":false,"is_disabled":false,"rental_uris":{"android":"levelo://app?vid=76eea2b6-255c-4e22-8e6e-b4c14eb350e3","ios":"levelo://app?vid=76eea2b6-255c-4e22-8e6e-b4c14eb350e3"},"vehicle_type_id":"4","last_reported":1743678562,"current_range_meters":13600,"station_id":"ce4bgup2rcd13ifvqcn0","pricing_plan_id":"cebpf4jnsgd1na2vs0mg"},{"bike_id":"aec1835b-b1c2-4d79-8cb1-519de1bfa037","system_id":"levelo_inurba_marseille","lat":43.25933,"lon":5.40907,"is_reserved":false,"is_disabled":false,"rental_uris":{"android":"levelo://app?vid=aec1835b-b1c2-4d79-8cb1-519de1bfa037","ios":"levelo://app?vid=aec1835b-b1c2-4d79-8cb1-519de1bfa037"},"vehicle_type_id":"4","last_reported":1743678562,"current_range_meters":15200,"station_id":"ce4bhm92rcd13ifvqglg","pricing_plan_id":"cebpf4jnsgd1na2vs0mg"},{"bike_id":"8ab04e8f-c432-41cc-b5c5-8fe666f18f9d","system_id":"levelo_inurba_marseille","lat":43.30531,"lon":5.36715,"is_reserved":false,"is_disabled":false,"rental_uris":{"android":"levelo://app?vid=8ab04e8f-c432-41cc-b5c5-8fe666f18f9d","ios":"levelo://app?vid=8ab04e8f-c432-41cc-b5c5-8fe666f18f9d"},"vehicle_type_id":"4","last_reported":1743678562,"current_range_meters":15200,"station_id":"ce4bgrp2rcd13ifvqc9g","pricing_plan_id":"cebpf4jnsgd1na2vs0mg"},{"bike_id":"69c0db05-6ded-4dc6-9720-2452c83c1020","system_id":"levelo_inurba_marseille","lat":43.24568,"lon":5.37404,"is_reserved":false,"is_disabled":false,"rental_uris":{"android":"levelo://app?vid=69c0db05-6ded-4dc6-9720-2452c83c1020","ios":"levelo://app?vid=69c0db05-6ded-4dc6-9720-2452c83c1020"},"vehicle_type_id":"4","last_reported":1743678562,"current_range_meters":15200,"station_id":"","pricing_plan_id":"cebpf4jnsgd1na2vs0mg"},{"bike_id":"9da9a3e5-bb23-411f-9aa9-34c4bc12210d","system_id":"levelo_inurba_marseille","lat":43.2987,"lon":5.39736,"is_reserved":false,"is_disabled":false,"rental_uris":{"android":"levelo://app?vid=9da9a3e5-bb23-411f-9aa9-34c4bc12210d","ios":"levelo://app?vid=9da9a3e5-bb23-411f-9aa9-34c4bc12210d"},"vehicle_type_id":"4","last_reported":1743678562,"current_range_meters":15200,"station_id":"ce4bh0h2rcd13ifvqd50","pricing_plan_id":"cebpf4jnsgd1na2vs0mg"},{"bike_id":"a9f0a4d3-572c-42d8-8f8f-aaf3f6d71d0f","system_id":"levelo_inurba_marseille","lat":43.28571,"lon":5.39489,"is_reserved":false,"is_disabled":false,"rental_uris":{"android":"levelo://app?vid=a9f0a4d3-572c-42d8-8f8f-aaf3f6d71d0f","ios":"levelo://app?vid=a9f0a4d3-572c-42d8-8f8f-aaf3f6d71d0f"},"vehicle_type_id":"4","last_reported":1743678562,"current_range_meters":15200,"station_id":"ce4bh292rcd13ifvqdg0","pricing_plan_id":"cebpf4jnsgd1na2vs0mg"},{"bike_id":"7ad8a68a-ea04-4d57-80c9-9243a3880044","system_id":"levelo_inurba_marseille","lat":43.26554,"lon":5.37282,"is_reserved":false,"is_disabled":false,"rental_uris":{"android":"levelo://app?vid=7ad8a68a-ea04-4d57-80c9-9243a3880044","ios":"levelo://app?vid=7ad8a68a-ea04-4d57-80c9-9243a3880044"},"vehicle_type_id":"4","last_reported":1743678562,"current_range_meters":15200,"station_id":"ce4bhg12rcd13ifvqf70","pricing_plan_id":"cebpf4jnsgd1na2vs0mg"},{"bike_id":"38580da8-fe8e-4d29-8803-a288ff771b54","system_id":"levelo_inurba_marseille","lat":43.29255,"lon":5.37623,"is_reserved":false,"is_disabled":false,"rental_uris":{"android":"levelo://app?vid=38580da8-fe8e-4d29-8803-a288ff771b54","ios":"levelo://app?vid=38580da8-fe8e-4d29-8803-a288ff771b54"},"vehicle_type_id":"4","last_reported":1743678562,"current_range_meters":16000,"station_id":"ce4bgi12rcd13ifvqb80","pricing_plan_id":"cebpf4jnsgd1na2vs0mg"},{"bike_id":"416dbf46-c3b6-4144-a79a-c09d4af88311","system_id":"levelo_inurba_marseille","lat":43.30537,"lon":5.36705,"is_reserved":false,"is_disabled":false,"rental_uris":{"android":"levelo://app?vid=416dbf46-c3b6-4144-a79a-c09d4af88311","ios":"levelo://app?vid=416dbf46-c3b6-4144-a79a-c09d4af88311"},"vehicle_type_id":"4","last_reported":1743678562,"current_range_meters":16000,"station_id":"ce4bgrp2rcd13ifvqc9g","pricing_plan_id":"cebpf4jnsgd1na2vs0mg"},{"bike_id":"761c86e1-56d9-4778-afe9-09ca449008f1","system_id":"levelo_inurba_marseille","lat":43.30464,"lon":5.37911,"is_reserved":false,"is_disabled":false,"rental_uris":{"android":"levelo://app?vid=761c86e1-56d9-4778-afe9-09ca449008f1","ios":"levelo://app?vid=761c86e1-56d9-4778-afe9-09ca449008f1"},"vehicle_type_id":"4","last_reported":1743678562,"current_range_meters":16000,"station_id":"ce4bgup2rcd13ifvqcn0","pricing_plan_id":"cebpf4jnsgd1na2vs0mg"},{"bike_id":"65c86302-8ef0-46f4-ab6e-bac7149a2865","system_id":"levelo_inurba_marseille","lat":43.32112,"lon":5.36784,"is_reserved":false,"is_disabled":false,"rental_uris":{"android":"levelo://app?vid=65c86302-8ef0-46f4-ab6e-bac7149a2865","ios":"levelo://app?vid=65c86302-8ef0-46f4-ab6e-bac7149a2865"},"vehicle_type_id":"4","last_reported":1743678562,"current_range_meters":16000,"station_id":"ce4bhrh2rcd13ifvqhug","pricing_plan_id":"cebpf4jnsgd1na2vs0mg"},{"bike_id":"c6dbfbad-c5e4-4444-9b15-94527aba01a5","system_id":"levelo_inurba_marseille","lat":43.30506,"lon":5.36516,"is_reserved":false,"is_disabled":true,"rental_uris":{"android":"levelo://app?vid=c6dbfbad-c5e4-4444-9b15-94527aba01a5","ios":"levelo://app?vid=c6dbfbad-c5e4-4444-9b15-94527aba01a5"},"vehicle_type_id":"4","last_reported":1743678562,"current_range_meters":16000,"station_id":"","pricing_plan_id":"cebpf4jnsgd1na2vs0mg"},{"bike_id":"10dba690-16cc-4e3a-8cf1-837f9f6eb283","system_id":"levelo_inurba_marseille","lat":43.3014,"lon":5.37414,"is_reserved":false,"is_disabled":false,"rental_uris":{"android":"levelo://app?vid=10dba690-16cc-4e3a-8cf1-837f9f6eb283","ios":"levelo://app?vid=10dba690-16cc-4e3a-8cf1-837f9f6eb283"},"vehicle_type_id":"4","last_reported":1743678562,"current_range_meters":16000,"station_id":"ce4bgs92rcd13ifvqcc0","pricing_plan_id":"cebpf4jnsgd1na2vs0mg"},{"bike_id":"fb348b09-6abb-47a4-a266-91f2eeaee291","system_id":"levelo_inurba_marseille","lat":43.32109,"lon":5.36766,"is_reserved":false,"is_disabled":false,"rental_uris":{"android":"levelo://app?vid=fb348b09-6abb-47a4-a266-91f2eeaee291","ios":"levelo://app?vid=fb348b09-6abb-47a4-a266-91f2eeaee291"},"vehicle_type_id":"4","last_reported":1743678562,"current_range_meters":16400,"station_id":"ce4bhrh2rcd13ifvqhug","pricing_plan_id":"cebpf4jnsgd1na2vs0mg"},{"bike_id":"0df0e7a9-81b2-41f8-8fc9-9278b36af5a7","system_id":"levelo_inurba_marseille","lat":43.25099,"lon":5.39515,"is_reserved":false,"is_disabled":false,"rental_uris":{"android":"levelo://app?vid=0df0e7a9-81b2-41f8-8fc9-9278b36af5a7","ios":"levelo://app?vid=0df0e7a9-81b2-41f8-8fc9-9278b36af5a7"},"vehicle_type_id":"4","last_reported":1743678562,"current_range_meters":16800,"station_id":"ce4bhm12rcd13ifvqgkg","pricing_plan_id":"cebpf4jnsgd1na2vs0mg"},{"bike_id":"22af6541-f209-45fd-a5f1-594c85447292","system_id":"levelo_inurba_marseille","lat":43.29974,"lon":5.38491,"is_reserved":false,"is_disabled":false,"rental_uris":{"android":"levelo://app?vid=22af6541-f209-45fd-a5f1-594c85447292","ios":"levelo://app?vid=22af6541-f209-45fd-a5f1-594c85447292"},"vehicle_type_id":"4","last_reported":1743678562,"current_range_meters":16400,"station_id":"ce4bgj92rcd13ifvqbd0","pricing_plan_id":"cebpf4jnsgd1na2vs0mg"},{"bike_id":"9d7b4579-2f49-4625-9d98-42fe0dd225fc","system_id":"levelo_inurba_marseille","lat":43.3021,"lon":5.41902,"is_reserved":false,"is_disabled":false,"rental_uris":{"android":"levelo://app?vid=9d7b4579-2f49-4625-9d98-42fe0dd225fc","ios":"levelo://app?vid=9d7b4579-2f49-4625-9d98-42fe0dd225fc"},"vehicle_type_id":"4","last_reported":1743678562,"current_range_meters":16400,"station_id":"","pricing_plan_id":"cebpf4jnsgd1na2vs0mg"},{"bike_id":"5373ddc4-4afa-4015-9291-0ab5823358a0","system_id":"levelo_inurba_marseille","lat":43.29199,"lon":5.35801,"is_reserved":false,"is_disabled":false,"rental_uris":{"android":"levelo://app?vid=5373ddc4-4afa-4015-9291-0ab5823358a0","ios":"levelo://app?vid=5373ddc4-4afa-4015-9291-0ab5823358a0"},"vehicle_type_id":"4","last_reported":1743678562,"current_range_meters":16400,"station_id":"ce4bhb12rcd13ifvqel0","pricing_plan_id":"cebpf4jnsgd1na2vs0mg"},{"bike_id":"c0e36771-dbe7-477f-9122-f8476f7b7779","system_id":"levelo_inurba_marseille","lat":43.32368,"lon":5.36768,"is_reserved":false,"is_disabled":false,"rental_uris":{"android":"levelo://app?vid=c0e36771-dbe7-477f-9122-f8476f7b7779","ios":"levelo://app?vid=c0e36771-dbe7-477f-9122-f8476f7b7779"},"vehicle_type_id":"4","last_reported":1743678562,"current_range_meters":16400,"station_id":"ce4bhsh2rcd13ifvqi2g","pricing_plan_id":"cebpf4jnsgd1na2vs0mg"},{"bike_id":"16e30be1-6821-4531-b2d3-8709a32f4f02","system_id":"levelo_inurba_marseille","lat":43.30464,"lon":5.37905,"is_reserved":false,"is_disabled":false,"rental_uris":{"android":"levelo://app?vid=16e30be1-6821-4531-b2d3-8709a32f4f02","ios":"levelo://app?vid=16e30be1-6821-4531-b2d3-8709a32f4f02"},"vehicle_type_id":"4","last_reported":1743678562,"current_range_meters":16400,"station_id":"ce4bgup2rcd13ifvqcn0","pricing_plan_id":"cebpf4jnsgd1na2vs0mg"},{"bike_id":"955338a0-012b-4e84-861b-8757cf81f287","system_id":"levelo_inurba_marseille","lat":43.22914,"lon":5.3539,"is_reserved":false,"is_disabled":false,"rental_uris":{"android":"levelo://app?vid=955338a0-012b-4e84-861b-8757cf81f287","ios":"levelo://app?vid=955338a0-012b-4e84-861b-8757cf81f287"},"vehicle_type_id":"4","last_reported":1743678562,"current_range_meters":16800,"station_id":"cpo3532slgdg3j2ikp40","pricing_plan_id":"cebpf4jnsgd1na2vs0mg"},{"bike_id":"b25c9f9e-1abb-4fdb-9444-0b50a77ef96a","system_id":"levelo_inurba_marseille","lat":43.29552,"lon":5.4228,"is_reserved":false,"is_disabled":false,"rental_uris":{"android":"levelo://app?vid=b25c9f9e-1abb-4fdb-9444-0b50a77ef96a","ios":"levelo://app?vid=b25c9f9e-1abb-4fdb-9444-0b50a77ef96a"},"vehicle_type_id":"4","last_reported":1743678562,"current_range_meters":16400,"station_id":"ce4bhph2rcd13ifvqhdg","pricing_plan_id":"cebpf4jnsgd1na2vs0mg"},{"bike_id":"e6b69cd2-f965-4a12-9e02-6f28a269f9f9","system_id":"levelo_inurba_marseille","lat":43.23063,"lon":5.35503,"is_reserved":false,"is_disabled":false,"rental_uris":{"android":"levelo://app?vid=e6b69cd2-f965-4a12-9e02-6f28a269f9f9","ios":"levelo://app?vid=e6b69cd2-f965-4a12-9e02-6f28a269f9f9"},"vehicle_type_id":"4","last_reported":1743678562,"current_range_meters":16800,"station_id":"cpo3342slgdg3j2ifvpg","pricing_plan_id":"cebpf4jnsgd1na2vs0mg"},{"bike_id":"b2f4490f-edf0-49ca-9d34-1b76be892ddc","system_id":"levelo_inurba_marseille","lat":43.26236,"lon":5.4046,"is_reserved":false,"is_disabled":false,"rental_uris":{"android":"levelo://app?vid=b2f4490f-edf0-49ca-9d34-1b76be892ddc","ios":"levelo://app?vid=b2f4490f-edf0-49ca-9d34-1b76be892ddc"},"vehicle_type_id":"4","last_reported":1743678562,"current_range_meters":16800,"station_id":"ce4bhmh2rcd13ifvqgmg","pricing_plan_id":"cebpf4jnsgd1na2vs0mg"},{"bike_id":"fb4cfac6-d54b-4f49-96fe-f3cb5cad9b95","system_id":"levelo_inurba_marseille","lat":43.30521,"lon":5.36527,"is_reserved":false,"is_disabled":false,"rental_uris":{"android":"levelo://app?vid=fb4cfac6-d54b-4f49-96fe-f3cb5cad9b95","ios":"levelo://app?vid=fb4cfac6-d54b-4f49-96fe-f3cb5cad9b95"},"vehicle_type_id":"4","last_reported":1743678562,"current_range_meters":16800,"station_id":"ce4bgs12rcd13ifvqcag","pricing_plan_id":"cebpf4jnsgd1na2vs0mg"},{"bike_id":"8c911214-36b5-4c9c-9dc2-4c69bff4aa28","system_id":"levelo_inurba_marseille","lat":43.28998,"lon":5.38627,"is_reserved":false,"is_disabled":false,"rental_uris":{"android":"levelo://app?vid=8c911214-36b5-4c9c-9dc2-4c69bff4aa28","ios":"levelo://app?vid=8c911214-36b5-4c9c-9dc2-4c69bff4aa28"},"vehicle_type_id":"4","last_reported":1743678562,"current_range_meters":16800,"station_id":"ce4bh4p2rcd13ifvqe0g","pricing_plan_id":"cebpf4jnsgd1na2vs0mg"},{"bike_id":"229ba492-02d9-4033-b935-7f43b75a8976","system_id":"levelo_inurba_marseille","lat":43.30593,"lon":5.36498,"is_reserved":false,"is_disabled":false,"rental_uris":{"android":"levelo://app?vid=229ba492-02d9-4033-b935-7f43b75a8976","ios":"levelo://app?vid=229ba492-02d9-4033-b935-7f43b75a8976"},"vehicle_type_id":"4","last_reported":1743678562,"current_range_meters":16800,"station_id":"ce4bgs12rcd13ifvqcag","pricing_plan_id":"cebpf4jnsgd1na2vs0mg"},{"bike_id":"4caff8e0-340c-490f-8a5a-b26f15704f76","system_id":"levelo_inurba_marseille","lat":43.28577,"lon":5.3841,"is_reserved":false,"is_disabled":false,"rental_uris":{"android":"levelo://app?vid=4caff8e0-340c-490f-8a5a-b26f15704f76","ios":"levelo://app?vid=4caff8e0-340c-490f-8a5a-b26f15704f76"},"vehicle_type_id":"4","last_reported":1743678562,"current_range_meters":17200,"station_id":"","pricing_plan_id":"cebpf4jnsgd1na2vs0mg"},{"bike_id":"4bc3510e-a77a-4147-b9e1-23b23b2f7e9f","system_id":"levelo_inurba_marseille","lat":43.30321,"lon":5.36897,"is_reserved":false,"is_disabled":false,"rental_uris":{"android":"levelo://app?vid=4bc3510e-a77a-4147-b9e1-23b23b2f7e9f","ios":"levelo://app?vid=4bc3510e-a77a-4147-b9e1-23b23b2f7e9f"},"vehicle_type_id":"4","last_reported":1743678562,"current_range_meters":17200,"station_id":"ce4bgqh2rcd13ifvqc5g","pricing_plan_id":"cebpf4jnsgd1na2vs0mg"},{"bike_id":"c088800d-3b18-47cb-b8ed-d94fd50f23a7","system_id":"levelo_inurba_marseille","lat":43.29526,"lon":5.39049,"is_reserved":false,"is_disabled":false,"rental_uris":{"android":"levelo://app?vid=c088800d-3b18-47cb-b8ed-d94fd50f23a7","ios":"levelo://app?vid=c088800d-3b18-47cb-b8ed-d94fd50f23a7"},"vehicle_type_id":"4","last_reported":1743678562,"current_range_meters":17200,"station_id":"ce4bh3p2rcd13ifvqdp0","pricing_plan_id":"cebpf4jnsgd1na2vs0mg"},{"bike_id":"e8eca314-9223-46e2-854b-bc81555c08d4","system_id":"levelo_inurba_marseille","lat":43.30629,"lon":5.36574,"is_reserved":false,"is_disabled":false,"rental_uris":{"android":"levelo://app?vid=e8eca314-9223-46e2-854b-bc81555c08d4","ios":"levelo://app?vid=e8eca314-9223-46e2-854b-bc81555c08d4"},"vehicle_type_id":"4","last_reported":1743678562,"current_range_meters":17200,"station_id":"ce4bgrp2rcd13ifvqc9g","pricing_plan_id":"cebpf4jnsgd1na2vs0mg"},{"bike_id":"08f359ba-b561-4a7d-83dd-5490c9924838","system_id":"levelo_inurba_marseille","lat":43.29588,"lon":5.37489,"is_reserved":false,"is_disabled":true,"rental_uris":{"android":"levelo://app?vid=08f359ba-b561-4a7d-83dd-5490c9924838","ios":"levelo://app?vid=08f359ba-b561-4a7d-83dd-5490c9924838"},"vehicle_type_id":"4","last_reported":1743678562,"current_range_meters":17200,"station_id":"ce4bgh92rcd13ifvqb50","pricing_plan_id":"cebpf4jnsgd1na2vs0mg"},{"bike_id":"f5d7baaf-c3b6-4714-ade1-a7553acc3f6e","system_id":"levelo_inurba_marseille","lat":43.30485,"lon":5.41719,"is_reserved":false,"is_disabled":false,"rental_uris":{"android":"levelo://app?vid=f5d7baaf-c3b6-4714-ade1-a7553acc3f6e","ios":"levelo://app?vid=f5d7baaf-c3b6-4714-ade1-a7553acc3f6e"},"vehicle_type_id":"4","last_reported":1743678562,"current_range_meters":17200,"station_id":"","pricing_plan_id":"cebpf4jnsgd1na2vs0mg"},{"bike_id":"19224d95-e048-4cbb-8884-43e0e6b3db9b","system_id":"levelo_inurba_marseille","lat":43.29881,"lon":5.39747,"is_reserved":false,"is_disabled":true,"rental_uris":{"android":"levelo://app?vid=19224d95-e048-4cbb-8884-43e0e6b3db9b","ios":"levelo://app?vid=19224d95-e048-4cbb-8884-43e0e6b3db9b"},"vehicle_type_id":"4","last_reported":1743678562,"current_range_meters":17200,"station_id":"ce4bh0h2rcd13ifvqd50","pricing_plan_id":"cebpf4jnsgd1na2vs0mg"},{"bike_id":"3f3be9f2-c03b-47d7-b99c-80cbc5c7567a","system_id":"levelo_inurba_marseille","lat":43.2657,"lon":5.39003,"is_reserved":false,"is_disabled":false,"rental_uris":{"android":"levelo://app?vid=3f3be9f2-c03b-47d7-b99c-80cbc5c7567a","ios":"levelo://app?vid=3f3be9f2-c03b-47d7-b99c-80cbc5c7567a"},"vehicle_type_id":"4","last_reported":1743678562,"current_range_meters":17200,"station_id":"ce4bhe12rcd13ifvqf30","pricing_plan_id":"cebpf4jnsgd1na2vs0mg"},{"bike_id":"50ea9822-f4ab-4713-8a66-0a3bc17f2961","system_id":"levelo_inurba_marseille","lat":43.304308,"lon":5.38897,"is_reserved":false,"is_disabled":false,"rental_uris":{"android":"levelo://app?vid=50ea9822-f4ab-4713-8a66-0a3bc17f2961","ios":"levelo://app?vid=50ea9822-f4ab-4713-8a66-0a3bc17f2961"},"vehicle_type_id":"4","last_reported":1743678562,"current_range_meters":17200,"station_id":"ce4bgip2rcd13ifvqbb0","pricing_plan_id":"cebpf4jnsgd1na2vs0mg"},{"bike_id":"0b9665f6-10e1-4423-aded-262bb8614235","system_id":"levelo_inurba_marseille","lat":43.27433,"lon":5.39393,"is_reserved":false,"is_disabled":false,"rental_uris":{"android":"levelo://app?vid=0b9665f6-10e1-4423-aded-262bb8614235","ios":"levelo://app?vid=0b9665f6-10e1-4423-aded-262bb8614235"},"vehicle_type_id":"4","last_reported":1743678562,"current_range_meters":17200,"station_id":"ce4bhdp2rcd13ifvqf20","pricing_plan_id":"cebpf4jnsgd1na2vs0mg"},{"bike_id":"2b3a7a5d-2e3b-46bd-a1f6-9bd096c5f58d","system_id":"levelo_inurba_marseille","lat":43.26226,"lon":5.4045,"is_reserved":false,"is_disabled":false,"rental_uris":{"android":"levelo://app?vid=2b3a7a5d-2e3b-46bd-a1f6-9bd096c5f58d","ios":"levelo://app?vid=2b3a7a5d-2e3b-46bd-a1f6-9bd096c5f58d"},"vehicle_type_id":"4","last_reported":1743678562,"current_range_meters":17600,"station_id":"ce4bhmh2rcd13ifvqgmg","pricing_plan_id":"cebpf4jnsgd1na2vs0mg"},{"bike_id":"8ccf70e2-ab78-4cc8-a0a7-9506b44dd07b","system_id":"levelo_inurba_marseille","lat":43.27362,"lon":5.42413,"is_reserved":false,"is_disabled":false,"rental_uris":{"android":"levelo://app?vid=8ccf70e2-ab78-4cc8-a0a7-9506b44dd07b","ios":"levelo://app?vid=8ccf70e2-ab78-4cc8-a0a7-9506b44dd07b"},"vehicle_type_id":"4","last_reported":1743678562,"current_range_meters":17600,"station_id":"","pricing_plan_id":"cebpf4jnsgd1na2vs0mg"},{"bike_id":"414a8a4d-0dbc-43bc-b3de-6b50dfd8f45a","system_id":"levelo_inurba_marseille","lat":43.30952,"lon":5.36821,"is_reserved":false,"is_disabled":false,"rental_uris":{"android":"levelo://app?vid=414a8a4d-0dbc-43bc-b3de-6b50dfd8f45a","ios":"levelo://app?vid=414a8a4d-0dbc-43bc-b3de-6b50dfd8f45a"},"vehicle_type_id":"4","last_reported":1743678562,"current_range_meters":17600,"station_id":"","pricing_plan_id":"cebpf4jnsgd1na2vs0mg"},{"bike_id":"b54c83db-6ab6-495f-a888-0f6eacdb9ec0","system_id":"levelo_inurba_marseille","lat":43.31995,"lon":5.38138,"is_reserved":false,"is_disabled":false,"rental_uris":{"android":"levelo://app?vid=b54c83db-6ab6-495f-a888-0f6eacdb9ec0","ios":"levelo://app?vid=b54c83db-6ab6-495f-a888-0f6eacdb9ec0"},"vehicle_type_id":"4","last_reported":1743678562,"current_range_meters":17600,"station_id":"ce4bhr12rcd13ifvqhpg","pricing_plan_id":"cebpf4jnsgd1na2vs0mg"},{"bike_id":"0ddde6b8-0881-44bb-aa7b-31adc8f1bbaf","system_id":"levelo_inurba_marseille","lat":43.30572,"lon":5.36536,"is_reserved":false,"is_disabled":false,"rental_uris":{"android":"levelo://app?vid=0ddde6b8-0881-44bb-aa7b-31adc8f1bbaf","ios":"levelo://app?vid=0ddde6b8-0881-44bb-aa7b-31adc8f1bbaf"},"vehicle_type_id":"4","last_reported":1743678562,"current_range_meters":17600,"station_id":"ce4bgs12rcd13ifvqcag","pricing_plan_id":"cebpf4jnsgd1na2vs0mg"},{"bike_id":"84a7a785-5392-42bc-8088-fb903bcc7f5c","system_id":"levelo_inurba_marseille","lat":43.23067,"lon":5.35492,"is_reserved":false,"is_disabled":false,"rental_uris":{"android":"levelo://app?vid=84a7a785-5392-42bc-8088-fb903bcc7f5c","ios":"levelo://app?vid=84a7a785-5392-42bc-8088-fb903bcc7f5c"},"vehicle_type_id":"4","last_reported":1743678562,"current_range_meters":17600,"station_id":"cpo3342slgdg3j2ifvpg","pricing_plan_id":"cebpf4jnsgd1na2vs0mg"},{"bike_id":"d81c816e-5991-473f-a308-770a24deedde","system_id":"levelo_inurba_marseille","lat":43.3135,"lon":5.36708,"is_reserved":false,"is_disabled":true,"rental_uris":{"android":"levelo://app?vid=d81c816e-5991-473f-a308-770a24deedde","ios":"levelo://app?vid=d81c816e-5991-473f-a308-770a24deedde"},"vehicle_type_id":"4","last_reported":1743678562,"current_range_meters":17600,"station_id":"ce4bgr92rcd13ifvqc6g","pricing_plan_id":"cebpf4jnsgd1na2vs0mg"},{"bike_id":"a43f4572-7c57-46ee-8d96-a6774c3cba9d","system_id":"levelo_inurba_marseille","lat":43.2293,"lon":5.35372,"is_reserved":false,"is_disabled":false,"rental_uris":{"android":"levelo://app?vid=a43f4572-7c57-46ee-8d96-a6774c3cba9d","ios":"levelo://app?vid=a43f4572-7c57-46ee-8d96-a6774c3cba9d"},"vehicle_type_id":"4","last_reported":1743678562,"current_range_meters":17600,"station_id":"cpo3532slgdg3j2ikp40","pricing_plan_id":"cebpf4jnsgd1na2vs0mg"},{"bike_id":"7763f7b3-b47f-44f0-a3ce-d9aca15810b3","system_id":"levelo_inurba_marseille","lat":43.22939,"lon":5.35377,"is_reserved":false,"is_disabled":false,"rental_uris":{"android":"levelo://app?vid=7763f7b3-b47f-44f0-a3ce-d9aca15810b3","ios":"levelo://app?vid=7763f7b3-b47f-44f0-a3ce-d9aca15810b3"},"vehicle_type_id":"4","last_reported":1743678562,"current_range_meters":17600,"station_id":"cpo3532slgdg3j2ikp40","pricing_plan_id":"cebpf4jnsgd1na2vs0mg"},{"bike_id":"a93e4caf-806c-424d-8a53-cd56ac1e308a","system_id":"levelo_inurba_marseille","lat":43.31704,"lon":5.37724,"is_reserved":false,"is_disabled":false,"rental_uris":{"android":"levelo://app?vid=a93e4caf-806c-424d-8a53-cd56ac1e308a","ios":"levelo://app?vid=a93e4caf-806c-424d-8a53-cd56ac1e308a"},"vehicle_type_id":"4","last_reported":1743678562,"current_range_meters":17600,"station_id":"ce4bgth2rcd13ifvqch0","pricing_plan_id":"cebpf4jnsgd1na2vs0mg"},{"bike_id":"8b7ab987-1a63-45d2-a9ee-e6bc0b756ad5","system_id":"levelo_inurba_marseille","lat":43.24081,"lon":5.37743,"is_reserved":false,"is_disabled":false,"rental_uris":{"android":"levelo://app?vid=8b7ab987-1a63-45d2-a9ee-e6bc0b756ad5","ios":"levelo://app?vid=8b7ab987-1a63-45d2-a9ee-e6bc0b756ad5"},"vehicle_type_id":"4","last_reported":1743678562,"current_range_meters":18000,"station_id":"ce4bhnp2rcd13ifvqgvg","pricing_plan_id":"cebpf4jnsgd1na2vs0mg"},{"bike_id":"15662b66-210d-4a7f-954a-668aed91fffd","system_id":"levelo_inurba_marseille","lat":43.30281,"lon":5.37708,"is_reserved":false,"is_disabled":false,"rental_uris":{"android":"levelo://app?vid=15662b66-210d-4a7f-954a-668aed91fffd","ios":"levelo://app?vid=15662b66-210d-4a7f-954a-668aed91fffd"},"vehicle_type_id":"4","last_reported":1743678562,"current_range_meters":19200,"station_id":"ce4bguh2rcd13ifvqcj0","pricing_plan_id":"cebpf4jnsgd1na2vs0mg"},{"bike_id":"a6410534-1085-4042-a384-16797b1d5d96","system_id":"levelo_inurba_marseille","lat":43.27963,"lon":5.38732,"is_reserved":false,"is_disabled":false,"rental_uris":{"android":"levelo://app?vid=a6410534-1085-4042-a384-16797b1d5d96","ios":"levelo://app?vid=a6410534-1085-4042-a384-16797b1d5d96"},"vehicle_type_id":"4","last_reported":1743678562,"current_range_meters":18000,"station_id":"ce4bhg12rcd13ifvqf80","pricing_plan_id":"cebpf4jnsgd1na2vs0mg"},{"bike_id":"a887b646-1107-49bc-9d83-6a6ae8bfb92a","system_id":"levelo_inurba_marseille","lat":43.3127,"lon":5.40169,"is_reserved":false,"is_disabled":false,"rental_uris":{"android":"levelo://app?vid=a887b646-1107-49bc-9d83-6a6ae8bfb92a","ios":"levelo://app?vid=a887b646-1107-49bc-9d83-6a6ae8bfb92a"},"vehicle_type_id":"4","last_reported":1743678562,"current_range_meters":18000,"station_id":"ce4bh092rcd13ifvqd30","pricing_plan_id":"cebpf4jnsgd1na2vs0mg"},{"bike_id":"451f1620-f041-4d74-92b5-0d005d964b01","system_id":"levelo_inurba_marseille","lat":43.27027,"lon":5.36434,"is_reserved":false,"is_disabled":false,"rental_uris":{"android":"levelo://app?vid=451f1620-f041-4d74-92b5-0d005d964b01","ios":"levelo://app?vid=451f1620-f041-4d74-92b5-0d005d964b01"},"vehicle_type_id":"4","last_reported":1743678562,"current_range_meters":20800,"station_id":"ce4bhbh2rcd13ifvqeo0","pricing_plan_id":"cebpf4jnsgd1na2vs0mg"},{"bike_id":"79455f63-866c-4305-b7fd-1b053ccd7ef2","system_id":"levelo_inurba_marseille","lat":43.29883,"lon":5.38902,"is_reserved":false,"is_disabled":false,"rental_uris":{"android":"levelo://app?vid=79455f63-866c-4305-b7fd-1b053ccd7ef2","ios":"levelo://app?vid=79455f63-866c-4305-b7fd-1b053ccd7ef2"},"vehicle_type_id":"4","last_reported":1743678562,"current_range_meters":18000,"station_id":"ce4bh392rcd13ifvqdl0","pricing_plan_id":"cebpf4jnsgd1na2vs0mg"},{"bike_id":"1e095e95-f8b6-4578-b256-7d5e3545b34d","system_id":"levelo_inurba_marseille","lat":43.29813,"lon":5.40407,"is_reserved":false,"is_disabled":false,"rental_uris":{"android":"levelo://app?vid=1e095e95-f8b6-4578-b256-7d5e3545b34d","ios":"levelo://app?vid=1e095e95-f8b6-4578-b256-7d5e3545b34d"},"vehicle_type_id":"4","last_reported":1743678562,"current_range_meters":18000,"station_id":"ce4bh112rcd13ifvqd90","pricing_plan_id":"cebpf4jnsgd1na2vs0mg"},{"bike_id":"e961b6b8-c46a-4b11-b8a0-23649ce71d81","system_id":"levelo_inurba_marseille","lat":43.23062,"lon":5.3548,"is_reserved":false,"is_disabled":false,"rental_uris":{"android":"levelo://app?vid=e961b6b8-c46a-4b11-b8a0-23649ce71d81","ios":"levelo://app?vid=e961b6b8-c46a-4b11-b8a0-23649ce71d81"},"vehicle_type_id":"4","last_reported":1743678562,"current_range_meters":18000,"station_id":"cpo3342slgdg3j2ifvpg","pricing_plan_id":"cebpf4jnsgd1na2vs0mg"},{"bike_id":"ee2780ca-b9dc-4db9-a954-30174e0eb630","system_id":"levelo_inurba_marseille","lat":43.32546,"lon":5.41418,"is_reserved":false,"is_disabled":false,"rental_uris":{"android":"levelo://app?vid=ee2780ca-b9dc-4db9-a954-30174e0eb630","ios":"levelo://app?vid=ee2780ca-b9dc-4db9-a954-30174e0eb630"},"vehicle_type_id":"4","last_reported":1743678562,"current_range_meters":18800,"station_id":"ce4bhq12rcd13ifvqhhg","pricing_plan_id":"cebpf4jnsgd1na2vs0mg"},{"bike_id":"73ab49c7-2736-4004-af80-f0651f663cea","system_id":"levelo_inurba_marseille","lat":43.29891,"lon":5.38898,"is_reserved":false,"is_disabled":false,"rental_uris":{"android":"levelo://app?vid=73ab49c7-2736-4004-af80-f0651f663cea","ios":"levelo://app?vid=73ab49c7-2736-4004-af80-f0651f663cea"},"vehicle_type_id":"4","last_reported":1743678562,"current_range_meters":18800,"station_id":"ce4bh392rcd13ifvqdl0","pricing_plan_id":"cebpf4jnsgd1na2vs0mg"},{"bike_id":"a16361a9-6879-446d-914b-03d1bbbc6e4e","system_id":"levelo_inurba_marseille","lat":43.330227,"lon":5.390373,"is_reserved":false,"is_disabled":false,"rental_uris":{"android":"levelo://app?vid=a16361a9-6879-446d-914b-03d1bbbc6e4e","ios":"levelo://app?vid=a16361a9-6879-446d-914b-03d1bbbc6e4e"},"vehicle_type_id":"4","last_reported":1743678562,"current_range_meters":18800,"station_id":"ce4bhr92rcd13ifvqhrg","pricing_plan_id":"cebpf4jnsgd1na2vs0mg"},{"bike_id":"0cce366f-8f9b-4fe6-b562-11a65584b986","system_id":"levelo_inurba_marseille","lat":43.29421,"lon":5.38616,"is_reserved":false,"is_disabled":false,"rental_uris":{"android":"levelo://app?vid=0cce366f-8f9b-4fe6-b562-11a65584b986","ios":"levelo://app?vid=0cce366f-8f9b-4fe6-b562-11a65584b986"},"vehicle_type_id":"4","last_reported":1743678562,"current_range_meters":18800,"station_id":"ce4bh2h2rcd13ifvqdh0","pricing_plan_id":"cebpf4jnsgd1na2vs0mg"},