{"last_updated":1707757569,"ttl":30,"version":"2.2","data":{"bikes":[{"bike_id":"7d83e8dd-6f47-44cf-b569-ed13d7eec78d","system_id":"levelo_inurba_marseille","lat":43.31341,"lon":5.367098,"is_reserved":false,"is_disabled":false,"rental_uris":{"android":"levelo://app?vid=7d83e8dd-6f47-44cf-b569-ed13d7eec78d","ios":"levelo://app?vid=7d83e8dd-6f47-44cf-b569-ed13d7eec78d"},"vehicle_type_id":"4","last_reported":1707757569,"current_range_meters":8800,"station_id":"ce4bgr92rcd13ifvqc6g","pricing_plan_id":"free"},{"bike_id":"39792d5f-4f63-4cd3-80b4-09b220ef02f2","system_id":"levelo_inurba_marseille","lat":43.31341,"lon":5.367098,"is_reserved":false,"is_disabled":false,"rental_uris":{"android":"levelo://app?vid=39792d5f-4f63-4cd3-80b4-09b220ef02f2","ios":"levelo://app?vid=39792d5f-4f63-4cd3-80b4-09b220ef02f2"},"vehicle_type_id":"4","last_reported":1707757569,"current_range_meters":19200,"station_id":"ce4bgr92rcd13ifvqc6g","pricing_plan_id":"free"},{"bike_id":"a36aea46-d878-4f87-92d2-4d077786bab4","system_id":"levelo_inurba_marseille","lat":43.31341,"lon":5.367098,"is_reserved":false,"is_disabled":false,"rental_uris":{"android":"levelo://app?vid=a36aea46-d878-4f87-92d2-4d077786bab4","ios":"levelo://app?vid=a36aea46-d878-4f87-92d2-4d077786bab4"},"vehicle_type_id":"4","last_reported":1707757569,"current_range_meters":12800,"station_id":"ce4bgr92rcd13ifvqc6g","pricing_plan_id":"free"},{"bike_id":"bf47ff3e-5a7e-4f28-8830-dd25d5a2dc37","system_id":"levelo_inurba_marseille","lat":43.31341,"lon":5.367098,"is_reserved":false,"is_disabled":false,"rental_uris":{"android":"levelo://app?vid=bf47ff3e-5a7e-4f28-8830-dd25d5a2dc37","ios":"levelo://app?vid=bf47ff3e-5a7e-4f28-8830-dd25d5a2dc37"},"vehicle_type_id":"4","last_reported":1707757569,"current_range_meters":11200,"station_id":"ce4bgr92rcd13ifvqc6g","pricing_plan_id":"free"},{"bike_id":"26c5340a-3283-4561-a1cb-207b9ece5bbd","system_id":"levelo_inurba_marseille","lat":43.31341,"lon":5.367098,"is_reserved":false,"is_disabled":false,"rental_uris":{"android":"levelo://app?vid=26c5340a-3283-4561-a1cb-207b9ece5bbd","ios":"levelo://app?vid=26c5340a-3283-4561-a1cb-207b9ece5bbd"},"vehicle_type_id":"4","last_reported":1707757569,"current_range_meters":13200,"station_id":"ce4bgr92rcd13ifvqc6g","pricing_plan_id":"free"},{"bike_id":"192af473-efae-409a-b6b3-a09f2f15b282","system_id":"levelo_inurba_marseille","lat":43.31231,"lon":5.3686,"is_reserved":false,"is_disabled":false,"rental_uris":{"android":"levelo://app?vid=192af473-efae-409a-b6b3-a09f2f15b282","ios":"levelo://app?vid=192af473-efae-409a-b6b3-a09f2f15b282"},"vehicle_type_id":"4","last_reported":1707757569,"current_range_meters":23600,"station_id":"ce4bgl92rcd13ifvqbq0","pricing_plan_id":"free"},{"bike_id":"828036da-c22a-46c0-b4b9-d708d7ccc25a","system_id":"levelo_inurba_marseille","lat":43.312239,"lon":5.368562,"is_reserved":false,"is_disabled":false,"rental_uris":{"android":"levelo://app?vid=828036da-c22a-46c0-b4b9-d708d7ccc25a","ios":"levelo://app?vid=828036da-c22a-46c0-b4b9-d708d7ccc25a"},"vehicle_type_id":"4","last_reported":1707757569,"current_range_meters":7600,"station_id":"ce4bgl92rcd13ifvqbq0","pricing_plan_id":"free"},{"bike_id":"b4a2c746-b8f4-4abd-88c1-84dfd0db3e4f","system_id":"levelo_inurba_marseille","lat":43.312239,"lon":5.368562,"is_reserved":false,"is_disabled":false,"rental_uris":{"android":"levelo://app?vid=b4a2c746-b8f4-4abd-88c1-84dfd0db3e4f","ios":"levelo://app?vid=b4a2c746-b8f4-4abd-88c1-84dfd0db3e4f"},"vehicle_type_id":"4","last_reported":1707757569,"current_range_meters":12800,"station_id":"ce4bgl92rcd13ifvqbq0","pricing_plan_id":"free"},{"bike_id":"aab14d10-d7d2-4858-b855-777687e970b8","system_id":"levelo_inurba_marseille","lat":43.309076,"lon":5.368465,"is_reserved":false,"is_disabled":false,"rental_uris":{"android":"levelo://app?vid=aab14d10-d7d2-4858-b855-777687e970b8","ios":"levelo://app?vid=aab14d10-d7d2-4858-b855-777687e970b8"},"vehicle_type_id":"4","last_reported":1707757569,"current_range_meters":24400,"station_id":"ce4bgn92rcd13ifvqbvg","pricing_plan_id":"free"},{"bike_id":"4053f415-6a9d-4f91-a1cc-d85e45c4aa02","system_id":"levelo_inurba_marseille","lat":43.309076,"lon":5.368465,"is_reserved":false,"is_disabled":false,"rental_uris":{"android":"levelo://app?vid=4053f415-6a9d-4f91-a1cc-d85e45c4aa02","ios":"levelo://app?vid=4053f415-6a9d-4f91-a1cc-d85e45c4aa02"},"vehicle_type_id":"4","last_reported":1707757569,"current_range_meters":15600,"station_id":"ce4bgn92rcd13ifvqbvg","pricing_plan_id":"free"},{"bike_id":"a4e69983-7d8d-4789-8cbb-ae02cc8e466d","system_id":"levelo_inurba_marseille","lat":43.309076,"lon":5.368465,"is_reserved":false,"is_disabled":false,"rental_uris":{"android":"levelo://app?vid=a4e69983-7d8d-4789-8cbb-ae02cc8e466d","ios":"levelo://app?vid=a4e69983-7d8d-4789-8cbb-ae02cc8e466d"},"vehicle_type_id":"4","last_reported":1707757569,"current_range_meters":24000,"station_id":"ce4bgn92rcd13ifvqbvg","pricing_plan_id":"free"},{"bike_id":"f5586c59-080e-43a3-adaf-be18dd6fac09","system_id":"levelo_inurba_marseille","lat":43.309112,"lon":5.36855,"is_reserved":false,"is_disabled":false,"rental_uris":{"android":"levelo://app?vid=f5586c59-080e-43a3-adaf-be18dd6fac09","ios":"levelo://app?vid=f5586c59-080e-43a3-adaf-be18dd6fac09"},"vehicle_type_id":"4","last_reported":1707757569,"current_range_meters":20000,"station_id":"ce4bgn92rcd13ifvqbvg","pricing_plan_id":"free"},{"bike_id":"f0f62cd0-faff-4cd0-a96a-477aa0c27952","system_id":"levelo_inurba_marseille","lat":43.309076,"lon":5.368465,"is_reserved":false,"is_disabled":false,"rental_uris":{"android":"levelo://app?vid=f0f62cd0-faff-4cd0-a96a-477aa0c27952","ios":"levelo://app?vid=f0f62cd0-faff-4cd0-a96a-477aa0c27952"},"vehicle_type_id":"4","last_reported":1707757569,"current_range_meters":31200,"station_id":"ce4bgn92rcd13ifvqbvg","pricing_plan_id":"free"},{"bike_id":"14f54057-0730-49f0-92b8-5ca028d7d014","system_id":"levelo_inurba_marseille","lat":43.309076,"lon":5.368465,"is_reserved":false,"is_disabled":false,"rental_uris":{"android":"levelo://app?vid=14f54057-0730-49f0-92b8-5ca028d7d014","ios":"levelo://app?vid=14f54057-0730-49f0-92b8-5ca028d7d014"},"vehicle_type_id":"4","last_reported":1707757569,"current_range_meters":6800,"station_id":"ce4bgn92rcd13ifvqbvg","pricing_plan_id":"free"},{"bike_id":"66315f1d-5d63-4ea6-986b-78bca1772490","system_id":"levelo_inurba_marseille","lat":43.30907,"lon":5.3685,"is_reserved":false,"is_disabled":false,"rental_uris":{"android":"levelo://app?vid=66315f1d-5d63-4ea6-986b-78bca1772490","ios":"levelo://app?vid=66315f1d-5d63-4ea6-986b-78bca1772490"},"vehicle_type_id":"4","last_reported":1707757569,"current_range_meters":23600,"station_id":"ce4bgn92rcd13ifvqbvg","pricing_plan_id":"free"},{"bike_id":"72e4f120-cba2-4ccb-be8b-45417465108f","system_id":"levelo_inurba_marseille","lat":43.309076,"lon":5.368465,"is_reserved":false,"is_disabled":false,"rental_uris":{"android":"levelo://app?vid=72e4f120-cba2-4ccb-be8b-45417465108f","ios":"levelo://app?vid=72e4f120-cba2-4ccb-be8b-45417465108f"},"vehicle_type_id":"4","last_reported":1707757569,"current_range_meters":23600,"station_id":"ce4bgn92rcd13ifvqbvg","pricing_plan_id":"free"},{"bike_id":"d6ab4ccb-e190-4941-8655-73c91cdd6a8b","system_id":"levelo_inurba_marseille","lat":43.30903,"lon":5.36855,"is_reserved":false,"is_disabled":false,"rental_uris":{"android":"levelo://app?vid=d6ab4ccb-e190-4941-8655-73c91cdd6a8b","ios":"levelo://app?vid=d6ab4ccb-e190-4941-8655-73c91cdd6a8b"},"vehicle_type_id":"4","last_reported":1707757569,"current_range_meters":19600,"station_id":"ce4bgn92rcd13ifvqbvg","pricing_plan_id":"free"},{"bike_id":"4beff0cc-9da2-41f5-ade6-e22a42c78db8","system_id":"levelo_inurba_marseille","lat":43.314811,"lon":5.373103,"is_reserved":false,"is_disabled":false,"rental_uris":{"android":"levelo://app?vid=4beff0cc-9da2-41f5-ade6-e22a42c78db8","ios":"levelo://app?vid=4beff0cc-9da2-41f5-ade6-e22a42c78db8"},"vehicle_type_id":"4","last_reported":1707757569,"current_range_meters":28000,"station_id":"ce4bgt12rcd13ifvqcd0","pricing_plan_id":"free"},{"bike_id":"2010ed57-e782-4e7a-aec8-e4d267d56457","system_id":"levelo_inurba_marseille","lat":43.314811,"lon":5.373103,"is_reserved":false,"is_disabled":false,"rental_uris":{"android":"levelo://app?vid=2010ed57-e782-4e7a-aec8-e4d267d56457","ios":"levelo://app?vid=2010ed57-e782-4e7a-aec8-e4d267d56457"},"vehicle_type_id":"4","last_reported":1707757569,"current_range_meters":0,"station_id":"ce4bgt12rcd13ifvqcd0","pricing_plan_id":"free"},{"bike_id":"0d912201-a889-466a-9565-4d49ed42ef04","system_id":"levelo_inurba_marseille","lat":43.314811,"lon":5.373103,"is_reserved":false,"is_disabled":false,"rental_uris":{"android":"levelo://app?vid=0d912201-a889-466a-9565-4d49ed42ef04","ios":"levelo://app?vid=0d912201-a889-466a-9565-4d49ed42ef04"},"vehicle_type_id":"4","last_reported":1707757569,"current_range_meters":25200,"station_id":"ce4bgt12rcd13ifvqcd0","pricing_plan_id":"free"},{"bike_id":"1f8f060c-b497-4313-a965-991bcbb4b5fc","system_id":"levelo_inurba_marseille","lat":43.30909,"lon":5.37177,"is_reserved":false,"is_disabled":false,"rental_uris":{"android":"levelo://app?vid=1f8f060c-b497-4313-a965-991bcbb4b5fc","ios":"levelo://app?vid=1f8f060c-b497-4313-a965-991bcbb4b5fc"},"vehicle_type_id":"4","last_reported":1707757569,"current_range_meters":22000,"station_id":"ce4bguh2rcd13ifvqckg","pricing_plan_id":"free"},{"bike_id":"9cb4264a-6141-44fa-8b3b-f4868c4c01d1","system_id":"levelo_inurba_marseille","lat":43.309039,"lon":5.371797,"is_reserved":false,"is_disabled":false,"rental_uris":{"android":"levelo://app?vid=9cb4264a-6141-44fa-8b3b-f4868c4c01d1","ios":"levelo://app?vid=9cb4264a-6141-44fa-8b3b-f4868c4c01d1"},"vehicle_type_id":"4","last_reported":1707757569,"current_range_meters":15200,"station_id":"ce4bguh2rcd13ifvqckg","pricing_plan_id":"free"},{"bike_id":"6cf18d35-13fe-44a3-b856-09e910d8799d","system_id":"levelo_inurba_marseille","lat":43.309039,"lon":5.371797,"is_reserved":false,"is_disabled":false,"rental_uris":{"android":"levelo://app?vid=6cf18d35-13fe-44a3-b856-09e910d8799d","ios":"levelo://app?vid=6cf18d35-13fe-44a3-b856-09e910d8799d"},"vehicle_type_id":"4","last_reported":1707757569,"current_range_meters":18400,"station_id":"ce4bguh2rcd13ifvqckg","pricing_plan_id":"free"},{"bike_id":"1032494c-14e4-4c51-8e7f-8a432a4eac5a","system_id":"levelo_inurba_marseille","lat":43.309039,"lon":5.371797,"is_reserved":false,"is_disabled":false,"rental_uris":{"android":"levelo://app?vid=1032494c-14e4-4c51-8e7f-8a432a4eac5a","ios":"levelo://app?vid=1032494c-14e4-4c51-8e7f-8a432a4eac5a"},"vehicle_type_id":"4","last_reported":1707757569,"current_range_meters":0,"station_id":"ce4bguh2rcd13ifvqckg","pricing_plan_id":"free"},{"bike_id":"e0a6a67d-9999-48cd-a941-b6e597a462ae","system_id":"levelo_inurba_marseille","lat":43.309039,"lon":5.371797,"is_reserved":false,"is_disabled":false,"rental_uris":{"android":"levelo://app?vid=e0a6a67d-9999-48cd-a941-b6e597a462ae","ios":"levelo://app?vid=e0a6a67d-9999-48cd-a941-b6e597a462ae"},"vehicle_type_id":"4","last_reported":1707757569,"current_range_meters":28000,"station_id":"ce4bguh2rcd13ifvqckg","pricing_plan_id":"free"},{"bike_id":"2d35c42b-bc80-4b73-af79-625d2a4d1e16","system_id":"levelo_inurba_marseille","lat":43.309039,"lon":5.371797,"is_reserved":false,"is_disabled":false,"rental_uris":{"android":"levelo://app?vid=2d35c42b-bc80-4b73-af79-625d2a4d1e16","ios":"levelo://app?vid=2d35c42b-bc80-4b73-af79-625d2a4d1e16"},"vehicle_type_id":"4","last_reported":1707757569,"current_range_meters":10000,"station_id":"ce4bguh2rcd13ifvqckg","pricing_plan_id":"free"},{"bike_id":"1b7060fa-8d50-425c-8744-67e2560db471","system_id":"levelo_inurba_marseille","lat":43.309034,"lon":5.371783,"is_reserved":false,"is_disabled":false,"rental_uris":{"android":"levelo://app?vid=1b7060fa-8d50-425c-8744-67e2560db471","ios":"levelo://app?vid=1b7060fa-8d50-425c-8744-67e2560db471"},"vehicle_type_id":"4","last_reported":1707757569,"current_range_meters":22400,"station_id":"ce4bguh2rcd13ifvqckg","pricing_plan_id":"free"},{"bike_id":"293b9144-4727-4bfc-ba08-349e3ab7346b","system_id":"levelo_inurba_marseille","lat":43.30553,"lon":5.36565,"is_reserved":false,"is_disabled":false,"rental_uris":{"android":"levelo://app?vid=293b9144-4727-4bfc-ba08-349e3ab7346b","ios":"levelo://app?vid=293b9144-4727-4bfc-ba08-349e3ab7346b"},"vehicle_type_id":"4","last_reported":1707757569,"current_range_meters":8400,"station_id":"ce4bgs12rcd13ifvqcag","pricing_plan_id":"free"},{"bike_id":"e0c45724-8466-47dd-9cda-5e8dbe386bfb","system_id":"levelo_inurba_marseille","lat":43.305551,"lon":5.365364,"is_reserved":false,"is_disabled":false,"rental_uris":{"android":"levelo://app?vid=e0c45724-8466-47dd-9cda-5e8dbe386bfb","ios":"levelo://app?vid=e0c45724-8466-47dd-9cda-5e8dbe386bfb"},"vehicle_type_id":"4","last_reported":1707757569,"current_range_meters":19200,"station_id":"ce4bgs12rcd13ifvqcag","pricing_plan_id":"free"},{"bike_id":"06722222-2227-48ee-944e-a9a70054e6e5","system_id":"levelo_inurba_marseille","lat":43.305712,"lon":5.365641,"is_reserved":false,"is_disabled":false,"rental_uris":{"android":"levelo://app?vid=06722222-2227-48ee-944e-a9a70054e6e5","ios":"levelo://app?vid=06722222-2227-48ee-944e-a9a70054e6e5"},"vehicle_type_id":"4","last_reported":1707757569,"current_range_meters":27200,"station_id":"ce4bgs12rcd13ifvqcag","pricing_plan_id":"free"},{"bike_id":"f24f4239-db0f-4a77-a022-59a9b4ecc9c1","system_id":"levelo_inurba_marseille","lat":43.305538,"lon":5.365324,"is_reserved":false,"is_disabled":false,"rental_uris":{"android":"levelo://app?vid=f24f4239-db0f-4a77-a022-59a9b4ecc9c1","ios":"levelo://app?vid=f24f4239-db0f-4a77-a022-59a9b4ecc9c1"},"vehicle_type_id":"4","last_reported":1707757569,"current_range_meters":31200,"station_id":"ce4bgs12rcd13ifvqcag","pricing_plan_id":"free"},{"bike_id":"e748d9d4-fa5f-46ed-97ef-e12618e3b8da","system_id":"levelo_inurba_marseille","lat":43.30547,"lon":5.365402,"is_reserved":false,"is_disabled":false,"rental_uris":{"android":"levelo://app?vid=e748d9d4-fa5f-46ed-97ef-e12618e3b8da","ios":"levelo://app?vid=e748d9d4-fa5f-46ed-97ef-e12618e3b8da"},"vehicle_type_id":"4","last_reported":1707757569,"current_range_meters":30800,"station_id":"ce4bgs12rcd13ifvqcag","pricing_plan_id":"free"},{"bike_id":"c3a5ef66-1e07-4656-8d31-e13222f4f090","system_id":"levelo_inurba_marseille","lat":43.305368,"lon":5.367343,"is_reserved":false,"is_disabled":false,"rental_uris":{"android":"levelo://app?vid=c3a5ef66-1e07-4656-8d31-e13222f4f090","ios":"levelo://app?vid=c3a5ef66-1e07-4656-8d31-e13222f4f090"},"vehicle_type_id":"4","last_reported":1707757569,"current_range_meters":0,"station_id":"ce4bgrp2rcd13ifvqc9g","pricing_plan_id":"free"},{"bike_id":"fa0d1c9c-a516-40a1-b1a3-2b716130d6ee","system_id":"levelo_inurba_marseille","lat":43.305706,"lon":5.365654,"is_reserved":false,"is_disabled":false,"rental_uris":{"android":"levelo://app?vid=fa0d1c9c-a516-40a1-b1a3-2b716130d6ee","ios":"levelo://app?vid=fa0d1c9c-a516-40a1-b1a3-2b716130d6ee"},"vehicle_type_id":"4","last_reported":1707757569,"current_range_meters":27600,"station_id":"ce4bgs12rcd13ifvqcag","pricing_plan_id":"free"},{"bike_id":"cd81efcc-e166-4572-b4f1-3560f7e8d0fe","system_id":"levelo_inurba_marseille","lat":43.305706,"lon":5.365654,"is_reserved":false,"is_disabled":false,"rental_uris":{"android":"levelo://app?vid=cd81efcc-e166-4572-b4f1-3560f7e8d0fe","ios":"levelo://app?vid=cd81efcc-e166-4572-b4f1-3560f7e8d0fe"},"vehicle_type_id":"4","last_reported":1707757569,"current_range_meters":27600,"station_id":"ce4bgs12rcd13ifvqcag","pricing_plan_id":"free"},{"bike_id":"c3bd1649-6807-4edb-a210-e3d5c9574f95","system_id":"levelo_inurba_marseille","lat":43.305989,"lon":5.37225,"is_reserved":false,"is_disabled":false,"rental_uris":{"android":"levelo://app?vid=c3bd1649-6807-4edb-a210-e3d5c9574f95","ios":"levelo://app?vid=c3bd1649-6807-4edb-a210-e3d5c9574f95"},"vehicle_type_id":"4","last_reported":1707757569,"current_range_meters":22400,"station_id":"ce4bgqh2rcd13ifvqc4g","pricing_plan_id":"free"},{"bike_id":"abe3580e-3e5e-49f5-bead-e6fc6f0bd9cf","system_id":"levelo_inurba_marseille","lat":43.311131,"lon":5.377651,"is_reserved":false,"is_disabled":false,"rental_uris":{"android":"levelo://app?vid=abe3580e-3e5e-49f5-bead-e6fc6f0bd9cf","ios":"levelo://app?vid=abe3580e-3e5e-49f5-bead-e6fc6f0bd9cf"},"vehicle_type_id":"4","last_reported":1707757569,"current_range_meters":20000,"station_id":"ce4bgt92rcd13ifvqcg0","pricing_plan_id":"free"},{"bike_id":"d29eabf5-b29b-49eb-8d3f-5973d6c496ee","system_id":"levelo_inurba_marseille","lat":43.307945,"lon":5.376487,"is_reserved":false,"is_disabled":false,"rental_uris":{"android":"levelo://app?vid=d29eabf5-b29b-49eb-8d3f-5973d6c496ee","ios":"levelo://app?vid=d29eabf5-b29b-49eb-8d3f-5973d6c496ee"},"vehicle_type_id":"4","last_reported":1707757569,"current_range_meters":12800,"station_id":"ce4bgv92rcd13ifvqcq0","pricing_plan_id":"free"},{"bike_id":"7d8fcf81-e52c-4dfe-a037-e4a90858c98f","system_id":"levelo_inurba_marseille","lat":43.307945,"lon":5.376487,"is_reserved":false,"is_disabled":false,"rental_uris":{"android":"levelo://app?vid=7d8fcf81-e52c-4dfe-a037-e4a90858c98f","ios":"levelo://app?vid=7d8fcf81-e52c-4dfe-a037-e4a90858c98f"},"vehicle_type_id":"4","last_reported":1707757569,"current_range_meters":25200,"station_id":"ce4bgv92rcd13ifvqcq0","pricing_plan_id":"free"},{"bike_id":"e573342d-df16-45d3-ab28-b3402956c863","system_id":"levelo_inurba_marseille","lat":43.307945,"lon":5.376487,"is_reserved":false,"is_disabled":false,"rental_uris":{"android":"levelo://app?vid=e573342d-df16-45d3-ab28-b3402956c863","ios":"levelo://app?vid=e573342d-df16-45d3-ab28-b3402956c863"},"vehicle_type_id":"4","last_reported":1707757569,"current_range_meters":4000,"station_id":"ce4bgv92rcd13ifvqcq0","pricing_plan_id":"free"},{"bike_id":"9bf6125c-f02b-4a09-ba8b-2d3ea0ee63bf","system_id":"levelo_inurba_marseille","lat":43.307945,"lon":5.376487,"is_reserved":false,"is_disabled":false,"rental_uris":{"android":"levelo://app?vid=9bf6125c-f02b-4a09-ba8b-2d3ea0ee63bf","ios":"levelo://app?vid=9bf6125c-f02b-4a09-ba8b-2d3ea0ee63bf"},"vehicle_type_id":"4","last_reported":1707757569,"current_range_meters":4400,"station_id":"ce4bgv92rcd13ifvqcq0","pricing_plan_id":"free"},{"bike_id":"b2a8f271-585a-4398-a168-c632fe91b126","system_id":"levelo_inurba_marseille","lat":43.307945,"lon":5.376487,"is_reserved":false,"is_disabled":false,"rental_uris":{"android":"levelo://app?vid=b2a8f271-585a-4398-a168-c632fe91b126","ios":"levelo://app?vid=b2a8f271-585a-4398-a168-c632fe91b126"},"vehicle_type_id":"4","last_reported":1707757569,"current_range_meters":14800,"station_id":"ce4bgv92rcd13ifvqcq0","pricing_plan_id":"free"},{"bike_id":"78c00163-2d37-4085-a6a4-26f2c06f8616","system_id":"levelo_inurba_marseille","lat":43.307945,"lon":5.376487,"is_reserved":false,"is_disabled":false,"rental_uris":{"android":"levelo://app?vid=78c00163-2d37-4085-a6a4-26f2c06f8616","ios":"levelo://app?vid=78c00163-2d37-4085-a6a4-26f2c06f8616"},"vehicle_type_id":"4","last_reported":1707757569,"current_range_meters":14000,"station_id":"ce4bgv92rcd13ifvqcq0","pricing_plan_id":"free"},{"bike_id":"9a525516-b250-4705-b9fd-52b1016ae2b8","system_id":"levelo_inurba_marseille","lat":43.317075,"lon":5.377367,"is_reserved":false,"is_disabled":false,"rental_uris":{"android":"levelo://app?vid=9a525516-b250-4705-b9fd-52b1016ae2b8","ios":"levelo://app?vid=9a525516-b250-4705-b9fd-52b1016ae2b8"},"vehicle_type_id":"4","last_reported":1707757569,"current_range_meters":8000,"station_id":"ce4bgth2rcd13ifvqch0","pricing_plan_id":"free"},{"bike_id":"1d35b594-82dc-4c63-8c2a-5a6f605778b7","system_id":"levelo_inurba_marseille","lat":43.317075,"lon":5.377367,"is_reserved":false,"is_disabled":false,"rental_uris":{"android":"levelo://app?vid=1d35b594-82dc-4c63-8c2a-5a6f605778b7","ios":"levelo://app?vid=1d35b594-82dc-4c63-8c2a-5a6f605778b7"},"vehicle_type_id":"4","last_reported":1707757569,"current_range_meters":17600,"station_id":"ce4bgth2rcd13ifvqch0","pricing_plan_id":"free"},{"bike_id":"3ef00240-31df-4be9-bfe9-27658bdcd6d5","system_id":"levelo_inurba_marseille","lat":43.317075,"lon":5.377367,"is_reserved":false,"is_disabled":false,"rental_uris":{"android":"levelo://app?vid=3ef00240-31df-4be9-bfe9-27658bdcd6d5","ios":"levelo://app?vid=3ef00240-31df-4be9-bfe9-27658bdcd6d5"},"vehicle_type_id":"4","last_reported":1707757569,"current_range_meters":19200,"station_id":"ce4bgth2rcd13ifvqch0","pricing_plan_id":"free"},{"bike_id":"6c7eb289-c43e-402b-a39b-aeff7faf73e6","system_id":"levelo_inurba_marseille","lat":43.32174,"lon":5.368573,"is_reserved":false,"is_disabled":false,"rental_uris":{"android":"levelo://app?vid=6c7eb289-c43e-402b-a39b-aeff7faf73e6","ios":"levelo://app?vid=6c7eb289-c43e-402b-a39b-aeff7faf73e6"},"vehicle_type_id":"4","last_reported":1707757569,"current_range_meters":1600,"station_id":"","pricing_plan_id":"free"},{"bike_id":"54ed32f1-fb83-4b4b-984f-6e7263190313","system_id":"levelo_inurba_marseille","lat":43.315293,"lon":5.380349,"is_reserved":false,"is_disabled":false,"rental_uris":{"android":"levelo://app?vid=54ed32f1-fb83-4b4b-984f-6e7263190313","ios":"levelo://app?vid=54ed32f1-fb83-4b4b-984f-6e7263190313"},"vehicle_type_id":"4","last_reported":1707757569,"current_range_meters":16800,"station_id":"ce4bhsp2rcd13ifvqi50","pricing_plan_id":"free"},{"bike_id":"dca02982-a8ca-4f8f-99aa-c4c50c3dc6cf","system_id":"levelo_inurba_marseille","lat":43.32273,"lon":5.36961,"is_reserved":false,"is_disabled":false,"rental_uris":{"android":"levelo://app?vid=dca02982-a8ca-4f8f-99aa-c4c50c3dc6cf","ios":"levelo://app?vid=dca02982-a8ca-4f8f-99aa-c4c50c3dc6cf"},"vehicle_type_id":"4","last_reported":1707757569,"current_range_meters":14000,"station_id":"","pricing_plan_id":"free"},{"bike_id":"b2ce4270-eca6-4432-9dba-eb210c5dfa38","system_id":"levelo_inurba_marseille","lat":43.308012,"lon":5.381511,"is_reserved":false,"is_disabled":false,"rental_uris":{"android":"levelo://app?vid=b2ce4270-eca6-4432-9dba-eb210c5dfa38","ios":"levelo://app?vid=b2ce4270-eca6-4432-9dba-eb210c5dfa38"},"vehicle_type_id":"4","last_reported":1707757569,"current_range_meters":24000,"station_id":"ce4bgt12rcd13ifvqce0","pricing_plan_id":"free"},{"bike_id":"28b5c407-ad4b-4217-9b5e-5773fe1dbe1b","system_id":"levelo_inurba_marseille","lat":43.304606,"lon":5.379026,"is_reserved":false,"is_disabled":false,"rental_uris":{"android":"levelo://app?vid=28b5c407-ad4b-4217-9b5e-5773fe1dbe1b","ios":"levelo://app?vid=28b5c407-ad4b-4217-9b5e-5773fe1dbe1b"},"vehicle_type_id":"4","last_reported":1707757569,"current_range_meters":3600,"station_id":"ce4bgup2rcd13ifvqcn0","pricing_plan_id":"free"},{"bike_id":"4734e5fa-f40d-4d83-a47a-07baff96c693","system_id":"levelo_inurba_marseille","lat":43.304606,"lon":5.379026,"is_reserved":false,"is_disabled":false,"rental_uris":{"android":"levelo://app?vid=4734e5fa-f40d-4d83-a47a-07baff96c693","ios":"levelo://app?vid=4734e5fa-f40d-4d83-a47a-07baff96c693"},"vehicle_type_id":"4","last_reported":1707757569,"current_range_meters":21600,"station_id":"ce4bgup2rcd13ifvqcn0","pricing_plan_id":"free"},{"bike_id":"590ee889-343c-479a-b452-fabb5db42631","system_id":"levelo_inurba_marseille","lat":43.304606,"lon":5.379026,"is_reserved":false,"is_disabled":false,"rental_uris":{"android":"levelo://app?vid=590ee889-343c-479a-b452-fabb5db42631","ios":"levelo://app?vid=590ee889-343c-479a-b452-fabb5db42631"},"vehicle_type_id":"4","last_reported":1707757569,"current_range_meters":8800,"station_id":"ce4bgup2rcd13ifvqcn0","pricing_plan_id":"free"},{"bike_id":"97f71f75-d414-4d74-9636-20377fab8590","system_id":"levelo_inurba_marseille","lat":43.324771,"lon":5.36557,"is_reserved":false,"is_disabled":false,"rental_uris":{"android":"levelo://app?vid=97f71f75-d414-4d74-9636-20377fab8590","ios":"levelo://app?vid=97f71f75-d414-4d74-9636-20377fab8590"},"vehicle_type_id":"4","last_reported":1707757569,"current_range_meters":3200,"station_id":"ce4bhs12rcd13ifvqhvg","pricing_plan_id":"free"},{"bike_id":"69cb55af-7504-4844-8e40-e45dc0e2fd19","system_id":"levelo_inurba_marseille","lat":43.324771,"lon":5.36557,"is_reserved":false,"is_disabled":false,"rental_uris":{"android":"levelo://app?vid=69cb55af-7504-4844-8e40-e45dc0e2fd19","ios":"levelo://app?vid=69cb55af-7504-4844-8e40-e45dc0e2fd19"},"vehicle_type_id":"4","last_reported":1707757569,"current_range_meters":1600,"station_id":"ce4bhs12rcd13ifvqhvg","pricing_plan_id":"free"},{"bike_id":"f5885159-f59e-45cd-9eb9-320053e20e59","system_id":"levelo_inurba_marseille","lat":43.324771,"lon":5.36557,"is_reserved":false,"is_disabled":false,"rental_uris":{"android":"levelo://app?vid=f5885159-f59e-45cd-9eb9-320053e20e59","ios":"levelo://app?vid=f5885159-f59e-45cd-9eb9-320053e20e59"},"vehicle_type_id":"4","last_reported":1707757569,"current_range_meters":14800,"station_id":"ce4bhs12rcd13ifvqhvg","pricing_plan_id":"free"},{"bike_id":"a34a2f83-cbcd-4c60-acc0-2f59774cd82e","system_id":"levelo_inurba_marseille","lat":43.324771,"lon":5.36557,"is_reserved":false,"is_disabled":false,"rental_uris":{"android":"levelo://app?vid=a34a2f83-cbcd-4c60-acc0-2f59774cd82e","ios":"levelo://app?vid=a34a2f83-cbcd-4c60-acc0-2f59774cd82e"},"vehicle_type_id":"4","last_reported":1707757569,"current_range_meters":5600,"station_id":"ce4bhs12rcd13ifvqhvg","pricing_plan_id":"free"},{"bike_id":"fd5b19b7-13cb-4f46-add9-52b8dceabe63","system_id":"levelo_inurba_marseille","lat":43.310804,"lon":5.38359,"is_reserved":false,"is_disabled":false,"rental_uris":{"android":"levelo://app?vid=fd5b19b7-13cb-4f46-add9-52b8dceabe63","ios":"levelo://app?vid=fd5b19b7-13cb-4f46-add9-52b8dceabe63"},"vehicle_type_id":"4","last_reported":1707757569,"current_range_meters":10400,"station_id":"ce4bgv92rcd13ifvqcr0","pricing_plan_id":"free"},{"bike_id":"2948052e-0c0b-455a-a7bb-14a9d1c30258","system_id":"levelo_inurba_marseille","lat":43.301429,"lon":5.37413,"is_reserved":false,"is_disabled":false,"rental_uris":{"android":"levelo://app?vid=2948052e-0c0b-455a-a7bb-14a9d1c30258","ios":"levelo://app?vid=2948052e-0c0b-455a-a7bb-14a9d1c30258"},"vehicle_type_id":"4","last_reported":1707757569,"current_range_meters":0,"station_id":"ce4bgs92rcd13ifvqcc0","pricing_plan_id":"free"},{"bike_id":"2c22e086-344d-466d-9a29-400a3159186e","system_id":"levelo_inurba_marseille","lat":43.319962,"lon":5.381539,"is_reserved":false,"is_disabled":false,"rental_uris":{"android":"levelo://app?vid=2c22e086-344d-466d-9a29-400a3159186e","ios":"levelo://app?vid=2c22e086-344d-466d-9a29-400a3159186e"},"vehicle_type_id":"4","last_reported":1707757569,"current_range_meters":12400,"station_id":"ce4bhr12rcd13ifvqhpg","pricing_plan_id":"free"},{"bike_id":"68ea133a-6c8c-4500-8dbf-a6144f869869","system_id":"levelo_inurba_marseille","lat":43.32002,"lon":5.3817,"is_reserved":false,"is_disabled":false,"rental_uris":{"android":"levelo://app?vid=68ea133a-6c8c-4500-8dbf-a6144f869869","ios":"levelo://app?vid=68ea133a-6c8c-4500-8dbf-a6144f869869"},"vehicle_type_id":"4","last_reported":1707757569,"current_range_meters":0,"station_id":"ce4bhr12rcd13ifvqhpg","pricing_plan_id":"free"},{"bike_id":"eef421ab-b8b4-44b0-8692-6f744b0dfa34","system_id":"levelo_inurba_marseille","lat":43.32,"lon":5.38173,"is_reserved":false,"is_disabled":false,"rental_uris":{"android":"levelo://app?vid=eef421ab-b8b4-44b0-8692-6f744b0dfa34","ios":"levelo://app?vid=eef421ab-b8b4-44b0-8692-6f744b0dfa34"},"vehicle_type_id":"4","last_reported":1707757569,"current_range_meters":17600,"station_id":"ce4bhr12rcd13ifvqhpg","pricing_plan_id":"free"},{"bike_id":"8ffc8bb3-ce08-4f61-9076-879539f718aa","system_id":"levelo_inurba_marseille","lat":43.299222,"lon":5.365554,"is_reserved":false,"is_disabled":false,"rental_uris":{"android":"levelo://app?vid=8ffc8bb3-ce08-4f61-9076-879539f718aa","ios":"levelo://app?vid=8ffc8bb3-ce08-4f61-9076-879539f718aa"},"vehicle_type_id":"4","last_reported":1707757569,"current_range_meters":5600,"station_id":"ce4bgm92rcd13ifvqbr0","pricing_plan_id":"free"},{"bike_id":"4966cd3e-e296-4ca3-9443-c774728a44c1","system_id":"levelo_inurba_marseille","lat":43.299724,"lon":5.371829,"is_reserved":false,"is_disabled":false,"rental_uris":{"android":"levelo://app?vid=4966cd3e-e296-4ca3-9443-c774728a44c1","ios":"levelo://app?vid=4966cd3e-e296-4ca3-9443-c774728a44c1"},"vehicle_type_id":"4","last_reported":1707757569,"current_range_meters":4800,"station_id":"ce4bgr92rcd13ifvqc7g","pricing_plan_id":"free"},{"bike_id":"6fc294ed-164c-4009-b978-75051a2d7cd4","system_id":"levelo_inurba_marseille","lat":43.299222,"lon":5.365554,"is_reserved":false,"is_disabled":false,"rental_uris":{"android":"levelo://app?vid=6fc294ed-164c-4009-b978-75051a2d7cd4","ios":"levelo://app?vid=6fc294ed-164c-4009-b978-75051a2d7cd4"},"vehicle_type_id":"4","last_reported":1707757569,"current_range_meters":22400,"station_id":"ce4bgm92rcd13ifvqbr0","pricing_plan_id":"free"},{"bike_id":"c2861f4f-1ecd-4568-bda3-c498cc273888","system_id":"levelo_inurba_marseille","lat":43.299222,"lon":5.365554,"is_reserved":false,"is_disabled":false,"rental_uris":{"android":"levelo://app?vid=c2861f4f-1ecd-4568-bda3-c498cc273888","ios":"levelo://app?vid=c2861f4f-1ecd-4568-bda3-c498cc273888"},"vehicle_type_id":"4","last_reported":1707757569,"current_range_meters":19200,"station_id":"ce4bgm92rcd13ifvqbr0","pricing_plan_id":"free"},{"bike_id":"a40ea1a6-9f6f-499d-98ff-983a5ae65ce9","system_id":"levelo_inurba_marseille","lat":43.299222,"lon":5.365554,"is_reserved":false,"is_disabled":false,"rental_uris":{"android":"levelo://app?vid=a40ea1a6-9f6f-499d-98ff-983a5ae65ce9","ios":"levelo://app?vid=a40ea1a6-9f6f-499d-98ff-983a5ae65ce9"},"vehicle_type_id":"4","last_reported":1707757569,"current_range_meters":23600,"station_id":"ce4bgm92rcd13ifvqbr0","pricing_plan_id":"free"},{"bike_id":"3e7e1748-ed0c-465a-b1f8-17e45577f603","system_id":"levelo_inurba_marseille","lat":43.2986,"lon":5.36282,"is_reserved":false,"is_disabled":false,"rental_uris":{"android":"levelo://app?vid=3e7e1748-ed0c-465a-b1f8-17e45577f603","ios":"levelo://app?vid=3e7e1748-ed0c-465a-b1f8-17e45577f603"},"vehicle_type_id":"4","last_reported":1707757569,"current_range_meters":14000,"station_id":"ce4bgpp2rcd13ifvqc3g","pricing_plan_id":"free"},{"bike_id":"09865e3e-6cc3-40e6-a372-462f648b8751","system_id":"levelo_inurba_marseille","lat":43.298433,"lon":5.362774,"is_reserved":false,"is_disabled":false,"rental_uris":{"android":"levelo://app?vid=09865e3e-6cc3-40e6-a372-462f648b8751","ios":"levelo://app?vid=09865e3e-6cc3-40e6-a372-462f648b8751"},"vehicle_type_id":"4","last_reported":1707757569,"current_range_meters":25600,"station_id":"ce4bgpp2rcd13ifvqc3g","pricing_plan_id":"free"},{"bike_id":"5a8fa001-e3bf-4287-9f59-de66fa4179c0","system_id":"levelo_inurba_marseille","lat":43.31159,"lon":5.38692,"is_reserved":false,"is_disabled":false,"rental_uris":{"android":"levelo://app?vid=5a8fa001-e3bf-4287-9f59-de66fa4179c0","ios":"levelo://app?vid=5a8fa001-e3bf-4287-9f59-de66fa4179c0"},"vehicle_type_id":"4","last_reported":1707757569,"current_range_meters":19600,"station_id":"ce4bgv12rcd13ifvqcp0","pricing_plan_id":"free"},{"bike_id":"a0bd544d-ead4-45e7-ba1e-c8e419436ad7","system_id":"levelo_inurba_marseille","lat":43.298433,"lon":5.362774,"is_reserved":false,"is_disabled":false,"rental_uris":{"android":"levelo://app?vid=a0bd544d-ead4-45e7-ba1e-c8e419436ad7","ios":"levelo://app?vid=a0bd544d-ead4-45e7-ba1e-c8e419436ad7"},"vehicle_type_id":"4","last_reported":1707757569,"current_range_meters":9200,"station_id":"ce4bgpp2rcd13ifvqc3g","pricing_plan_id":"free"},{"bike_id":"3d2c8571-8f88-4083-a0a8-5e6b6401d89f","system_id":"levelo_inurba_marseille","lat":43.299243,"lon":5.374807,"is_reserved":false,"is_disabled":false,"rental_uris":{"android":"levelo://app?vid=3d2c8571-8f88-4083-a0a8-5e6b6401d89f","ios":"levelo://app?vid=3d2c8571-8f88-4083-a0a8-5e6b6401d89f"},"vehicle_type_id":"4","last_reported":1707757569,"current_range_meters":14800,"station_id":"ce4bgjh2rcd13ifvqbg0","pricing_plan_id":"free"},{"bike_id":"12b7e094-67be-4877-b1e8-d18a4a589129","system_id":"levelo_inurba_marseille","lat":43.311828,"lon":5.387209,"is_reserved":false,"is_disabled":false,"rental_uris":{"android":"levelo://app?vid=12b7e094-67be-4877-b1e8-d18a4a589129","ios":"levelo://app?vid=12b7e094-67be-4877-b1e8-d18a4a589129"},"vehicle_type_id":"4","last_reported":1707757569,"current_range_meters":16800,"station_id":"ce4bgv12rcd13ifvqcp0","pricing_plan_id":"free"},{"bike_id":"5e6fe3e2-51f7-43c7-954c-9f7bfd7b9b02","system_id":"levelo_inurba_marseille","lat":43.31176,"lon":5.38724,"is_reserved":false,"is_disabled":false,"rental_uris":{"android":"levelo://app?vid=5e6fe3e2-51f7-43c7-954c-9f7bfd7b9b02","ios":"levelo://app?vid=5e6fe3e2-51f7-43c7-954c-9f7bfd7b9b02"},"vehicle_type_id":"4","last_reported":1707757569,"current_range_meters":0,"station_id":"ce4bgv12rcd13ifvqcp0","pricing_plan_id":"free"},{"bike_id":"f3b6ab71-c33d-4e4a-a6cd-ca02e2cf926c","system_id":"levelo_inurba_marseille","lat":43.297794,"lon":5.370888,"is_reserved":false,"is_disabled":false,"rental_uris":{"android":"levelo://app?vid=f3b6ab71-c33d-4e4a-a6cd-ca02e2cf926c","ios":"levelo://app?vid=f3b6ab71-c33d-4e4a-a6cd-ca02e2cf926c"},"vehicle_type_id":"4","last_reported":1707757569,"current_range_meters":24000,"station_id":"ce4bgop2rcd13ifvqc1g","pricing_plan_id":"free"},{"bike_id":"47c84d16-0c5c-437f-8d61-06eb42a4fce1","system_id":"levelo_inurba_marseille","lat":43.297794,"lon":5.370888,"is_reserved":false,"is_disabled":false,"rental_uris":{"android":"levelo://app?vid=47c84d16-0c5c-437f-8d61-06eb42a4fce1","ios":"levelo://app?vid=47c84d16-0c5c-437f-8d61-06eb42a4fce1"},"vehicle_type_id":"4","last_reported":1707757569,"current_range_meters":1200,"station_id":"ce4bgop2rcd13ifvqc1g","pricing_plan_id":"free"},{"bike_id":"527b6507-a86f-47b7-9c36-9aeccc7f6780","system_id":"levelo_inurba_marseille","lat":43.32288,"lon":5.382587,"is_reserved":false,"is_disabled":false,"rental_uris":{"android":"levelo://app?vid=527b6507-a86f-47b7-9c36-9aeccc7f6780","ios":"levelo://app?vid=527b6507-a86f-47b7-9c36-9aeccc7f6780"},"vehicle_type_id":"4","last_reported":1707757569,"current_range_meters":28400,"station_id":"ce4bhr12rcd13ifvqhqg","pricing_plan_id":"free"},{"bike_id":"e5750477-e3f2-40a2-b1f6-91d5216398f6","system_id":"levelo_inurba_marseille","lat":43.322872,"lon":5.382756,"is_reserved":false,"is_disabled":false,"rental_uris":{"android":"levelo://app?vid=e5750477-e3f2-40a2-b1f6-91d5216398f6","ios":"levelo://app?vid=e5750477-e3f2-40a2-b1f6-91d5216398f6"},"vehicle_type_id":"4","last_reported":1707757569,"current_range_meters":23600,"station_id":"ce4bhr12rcd13ifvqhqg","pricing_plan_id":"free"},{"bike_id":"1a584bd8-d11f-429e-88a7-aaed7dc1afb6","system_id":"levelo_inurba_marseille","lat":43.322872,"lon":5.382756,"is_reserved":false,"is_disabled":false,"rental_uris":{"android":"levelo://app?vid=1a584bd8-d11f-429e-88a7-aaed7dc1afb6","ios":"levelo://app?vid=1a584bd8-d11f-429e-88a7-aaed7dc1afb6"},"vehicle_type_id":"4","last_reported":1707757569,"current_range_meters":27200,"station_id":"ce4bhr12rcd13ifvqhqg","pricing_plan_id":"free"},{"bike_id":"d16915ab-365b-49c0-8e2e-1059f74f084d","system_id":"levelo_inurba_marseille","lat":43.322872,"lon":5.382756,"is_reserved":false,"is_disabled":false,"rental_uris":{"android":"levelo://app?vid=d16915ab-365b-49c0-8e2e-1059f74f084d","ios":"levelo://app?vid=d16915ab-365b-49c0-8e2e-1059f74f084d"},"vehicle_type_id":"4","last_reported":1707757569,"current_range_meters":23200,"station_id":"ce4bhr12rcd13ifvqhqg","pricing_plan_id":"free"},{"bike_id":"c3332315-777e-4af8-b68a-18a46d9c4f28","system_id":"levelo_inurba_marseille","lat":43.322872,"lon":5.382756,"is_reserved":false,"is_disabled":false,"rental_uris":{"android":"levelo://app?vid=c3332315-777e-4af8-b68a-18a46d9c4f28","ios":"levelo://app?vid=c3332315-777e-4af8-b68a-18a46d9c4f28"},"vehicle_type_id":"4","last_reported":1707757569,"current_range_meters":28400,"station_id":"ce4bhr12rcd13ifvqhqg","pricing_plan_id":"free"},{"bike_id":"c780842c-e95f-47ff-a149-ed36c8a413db","system_id":"levelo_inurba_marseille","lat":43.322817,"lon":5.382786,"is_reserved":false,"is_disabled":false,"rental_uris":{"android":"levelo://app?vid=c780842c-e95f-47ff-a149-ed36c8a413db","ios":"levelo://app?vid=c780842c-e95f-47ff-a149-ed36c8a413db"},"vehicle_type_id":"4","last_reported":1707757569,"current_range_meters":30800,"station_id":"ce4bhr12rcd13ifvqhqg","pricing_plan_id":"free"},{"bike_id":"7c59bca1-a347-4cb9-b145-64f6481277fc","system_id":"levelo_inurba_marseille","lat":43.322872,"lon":5.382756,"is_reserved":false,"is_disabled":false,"rental_uris":{"android":"levelo://app?vid=7c59bca1-a347-4cb9-b145-64f6481277fc","ios":"levelo://app?vid=7c59bca1-a347-4cb9-b145-64f6481277fc"},"vehicle_type_id":"4","last_reported":1707757569,"current_range_meters":30800,"station_id":"ce4bhr12rcd13ifvqhqg","pricing_plan_id":"free"},{"bike_id":"33170a3c-d249-42cf-a23e-db8cbeecfd39","system_id":"levelo_inurba_marseille","lat":43.3229,"lon":5.38281,"is_reserved":false,"is_disabled":false,"rental_uris":{"android":"levelo://app?vid=33170a3c-d249-42cf-a23e-db8cbeecfd39","ios":"levelo://app?vid=33170a3c-d249-42cf-a23e-db8cbeecfd39"},"vehicle_type_id":"4","last_reported":1707757569,"current_range_meters":10400,"station_id":"ce4bhr12rcd13ifvqhqg","pricing_plan_id":"free"},{"bike_id":"a44933ef-03a0-4282-9ff6-bcc91878fda0","system_id":"levelo_inurba_marseille","lat":43.32823,"lon":5.36683,"is_reserved":false,"is_disabled":false,"rental_uris":{"android":"levelo://app?vid=a44933ef-03a0-4282-9ff6-bcc91878fda0","ios":"levelo://app?vid=a44933ef-03a0-4282-9ff6-bcc91878fda0"},"vehicle_type_id":"4","last_reported":1707757569,"current_range_meters":7600,"station_id":"ce4bhs92rcd13ifvqi0g","pricing_plan_id":"free"},{"bike_id":"de562f14-ffaa-41a8-9815-6c8ff06728a2","system_id":"levelo_inurba_marseille","lat":43.328259,"lon":5.366824,"is_reserved":false,"is_disabled":false,"rental_uris":{"android":"levelo://app?vid=de562f14-ffaa-41a8-9815-6c8ff06728a2","ios":"levelo://app?vid=de562f14-ffaa-41a8-9815-6c8ff06728a2"},"vehicle_type_id":"4","last_reported":1707757569,"current_range_meters":18400,"station_id":"ce4bhs92rcd13ifvqi0g","pricing_plan_id":"free"},{"bike_id":"d22a27f5-091b-42fa-941c-6e99819fca0e","system_id":"levelo_inurba_marseille","lat":43.328267,"lon":5.366838,"is_reserved":false,"is_disabled":false,"rental_uris":{"android":"levelo://app?vid=d22a27f5-091b-42fa-941c-6e99819fca0e","ios":"levelo://app?vid=d22a27f5-091b-42fa-941c-6e99819fca0e"},"vehicle_type_id":"4","last_reported":1707757569,"current_range_meters":18000,"station_id":"ce4bhs92rcd13ifvqi0g","pricing_plan_id":"free"},{"bike_id":"0cf06903-45ed-4c06-866c-98b66b380890","system_id":"levelo_inurba_marseille","lat":43.32827,"lon":5.36679,"is_reserved":false,"is_disabled":false,"rental_uris":{"android":"levelo://app?vid=0cf06903-45ed-4c06-866c-98b66b380890","ios":"levelo://app?vid=0cf06903-45ed-4c06-866c-98b66b380890"},"vehicle_type_id":"4","last_reported":1707757569,"current_range_meters":21200,"station_id":"ce4bhs92rcd13ifvqi0g","pricing_plan_id":"free"},{"bike_id":"b17262ff-d7fc-4ef8-92b0-4128905d7cdd","system_id":"levelo_inurba_marseille","lat":43.32828,"lon":5.36689,"is_reserved":false,"is_disabled":false,"rental_uris":{"android":"levelo://app?vid=b17262ff-d7fc-4ef8-92b0-4128905d7cdd","ios":"levelo://app?vid=b17262ff-d7fc-4ef8-92b0-4128905d7cdd"},"vehicle_type_id":"4","last_reported":1707757569,"current_range_meters":26000,"station_id":"ce4bhs92rcd13ifvqi0g","pricing_plan_id":"free"},{"bike_id":"03730dd5-0a88-4239-8528-528347df93a2","system_id":"levelo_inurba_marseille","lat":43.328371,"lon":5.366909,"is_reserved":false,"is_disabled":false,"rental_uris":{"android":"levelo://app?vid=03730dd5-0a88-4239-8528-528347df93a2","ios":"levelo://app?vid=03730dd5-0a88-4239-8528-528347df93a2"},"vehicle_type_id":"4","last_reported":1707757569,"current_range_meters":6800,"station_id":"ce4bhs92rcd13ifvqi0g","pricing_plan_id":"free"},{"bike_id":"d7fb2c06-e97d-437a-9eb9-d8da8314c700","system_id":"levelo_inurba_marseille","lat":43.328281,"lon":5.366776,"is_reserved":false,"is_disabled":false,"rental_uris":{"android":"levelo://app?vid=d7fb2c06-e97d-437a-9eb9-d8da8314c700","ios":"levelo://app?vid=d7fb2c06-e97d-437a-9eb9-d8da8314c700"},"vehicle_type_id":"4","last_reported":1707757569,"current_range_meters":2800,"station_id":"ce4bhs92rcd13ifvqi0g","pricing_plan_id":"free"},{"bike_id":"6a3c4286-d135-47b6-b7e6-099bebcaa564","system_id":"levelo_inurba_marseille","lat":43.328371,"lon":5.366912,"is_reserved":false,"is_disabled":false,"rental_uris":{"android":"levelo://app?vid=6a3c4286-d135-47b6-b7e6-099bebcaa564","ios":"levelo://app?vid=6a3c4286-d135-47b6-b7e6-099bebcaa564"},"vehicle_type_id":"4","last_reported":1707757569,"current_range_meters":29600,"station_id":"ce4bhs92rcd13ifvqi0g","pricing_plan_id":"free"},{"bike_id":"cc4e0fd6-d1d5-4220-802a-0600345a85b5","system_id":"levelo_inurba_marseille","lat":43.328371,"lon":5.366912,"is_reserved":false,"is_disabled":false,"rental_uris":{"android":"levelo://app?vid=cc4e0fd6-d1d5-4220-802a-0600345a85b5","ios":"levelo://app?vid=cc4e0fd6-d1d5-4220-802a-0600345a85b5"},"vehicle_type_id":"4","last_reported":1707757569,"current_range_meters":22800,"station_id":"ce4bhs92rcd13ifvqi0g","pricing_plan_id":"free"},{"bike_id":"9f2ae0bd-3169-4a49-a743-1f928b2ea94c","system_id":"levelo_inurba_marseille","lat":43.328371,"lon":5.366909,"is_reserved":false,"is_disabled":false,"rental_uris":{"android":"levelo://app?vid=9f2ae0bd-3169-4a49-a743-1f928b2ea94c","ios":"levelo://app?vid=9f2ae0bd-3169-4a49-a743-1f928b2ea94c"},"vehicle_type_id":"4","last_reported":1707757569,"current_range_meters":8000,"station_id":"ce4bhs92rcd13ifvqi0g","pricing_plan_id":"free"},{"bike_id":"1f8bcc96-199c-401e-a00d-ac34b60c808b","system_id":"levelo_inurba_marseille","lat":43.328371,"lon":5.366912,"is_reserved":false,"is_disabled":false,"rental_uris":{"android":"levelo://app?vid=1f8bcc96-199c-401e-a00d-ac34b60c808b","ios":"levelo://app?vid=1f8bcc96-199c-401e-a00d-ac34b60c808b"},"vehicle_type_id":"4","last_reported":1707757569,"current_range_meters":4400,"station_id":"ce4bhs92rcd13ifvqi0g","pricing_plan_id":"free"},{"bike_id":"a22b4351-89df-44ce-a9c5-b5aa3919be44","system_id":"levelo_inurba_marseille","lat":43.32832,"lon":5.366864,"is_reserved":false,"is_disabled":false,"rental_uris":{"android":"levelo://app?vid=a22b4351-89df-44ce-a9c5-b5aa3919be44","ios":"levelo://app?vid=a22b4351-89df-44ce-a9c5-b5aa3919be44"},"vehicle_type_id":"4","last_reported":1707757569,"current_range_meters":24400,"station_id":"ce4bhs92rcd13ifvqi0g","pricing_plan_id":"free"},{"bike_id":"bb8a6e60-e94b-4c45-b0b0-fb2191bb0edf","system_id":"levelo_inurba_marseille","lat":43.297163,"lon":5.365866,"is_reserved":false,"is_disabled":false,"rental_uris":{"android":"levelo://app?vid=bb8a6e60-e94b-4c45-b0b0-fb2191bb0edf","ios":"levelo://app?vid=bb8a6e60-e94b-4c45-b0b0-fb2191bb0edf"},"vehicle_type_id":"4","last_reported":1707757569,"current_range_meters":5600,"station_id":"ce4bgn12rcd13ifvqbt0","pricing_plan_id":"free"},{"bike_id":"f9328847-93f3-477c-b3c4-058f938086b7","system_id":"levelo_inurba_marseille","lat":43.32833,"lon":5.36695,"is_reserved":false,"is_disabled":false,"rental_uris":{"android":"levelo://app?vid=f9328847-93f3-477c-b3c4-058f938086b7","ios":"levelo://app?vid=f9328847-93f3-477c-b3c4-058f938086b7"},"vehicle_type_id":"4","last_reported":1707757569,"current_range_meters":14400,"station_id":"ce4bhs92rcd13ifvqi0g","pricing_plan_id":"free"},{"bike_id":"6999e336-b5dd-44ca-9b7f-232462b76e41","system_id":"levelo_inurba_marseille","lat":43.328371,"lon":5.366909,"is_reserved":false,"is_disabled":false,"rental_uris":{"android":"levelo://app?vid=6999e336-b5dd-44ca-9b7f-232462b76e41","ios":"levelo://app?vid=6999e336-b5dd-44ca-9b7f-232462b76e41"},"vehicle_type_id":"4","last_reported":1707757569,"current_range_meters":6000,"station_id":"ce4bhs92rcd13ifvqi0g","pricing_plan_id":"free"},{"bike_id":"6efdf75a-59db-4683-9096-a599d89573b4","system_id":"levelo_inurba_marseille","lat":43.328371,"lon":5.366912,"is_reserved":false,"is_disabled":false,"rental_uris":{"android":"levelo://app?vid=6efdf75a-59db-4683-9096-a599d89573b4","ios":"levelo://app?vid=6efdf75a-59db-4683-9096-a599d89573b4"},"vehicle_type_id":"4","last_reported":1707757569,"current_range_meters":25200,"station_id":"ce4bhs92rcd13ifvqi0g","pricing_plan_id":"free"},{"bike_id":"fef25c85-243d-4b0f-9096-d62da3e76c8d","system_id":"levelo_inurba_marseille","lat":43.297163,"lon":5.365866,"is_reserved":false,"is_disabled":false,"rental_uris":{"android":"levelo://app?vid=fef25c85-243d-4b0f-9096-d62da3e76c8d","ios":"levelo://app?vid=fef25c85-243d-4b0f-9096-d62da3e76c8d"},"vehicle_type_id":"4","last_reported":1707757569,"current_range_meters":30800,"station_id":"ce4bgn12rcd13ifvqbt0","pricing_plan_id":"free"},{"bike_id":"4d7648e5-ea98-414a-b980-dfd307a703c3","system_id":"levelo_inurba_marseille","lat":43.297163,"lon":5.365866,"is_reserved":false,"is_disabled":false,"rental_uris":{"android":"levelo://app?vid=4d7648e5-ea98-414a-b980-dfd307a703c3","ios":"levelo://app?vid=4d7648e5-ea98-414a-b980-dfd307a703c3"},"vehicle_type_id":"4","last_reported":1707757569,"current_range_meters":15200,"station_id":"ce4bgn12rcd13ifvqbt0","pricing_plan_id":"free"},{"bike_id":"08f24208-3ca6-4442-ac6b-981acd7276ef","system_id":"levelo_inurba_marseille","lat":43.29708,"lon":5.36606,"is_reserved":false,"is_disabled":false,"rental_uris":{"android":"levelo://app?vid=08f24208-3ca6-4442-ac6b-981acd7276ef","ios":"levelo://app?vid=08f24208-3ca6-4442-ac6b-981acd7276ef"},"vehicle_type_id":"4","last_reported":1707757569,"current_range_meters":14800,"station_id":"","pricing_plan_id":"free"},{"bike_id":"f3c4db42-824e-411a-aca8-157595b7c6fb","system_id":"levelo_inurba_marseille","lat":43.297163,"lon":5.365866,"is_reserved":false,"is_disabled":false,"rental_uris":{"android":"levelo://app?vid=f3c4db42-824e-411a-aca8-157595b7c6fb","ios":"levelo://app?vid=f3c4db42-824e-411a-aca8-157595b7c6fb"},"vehicle_type_id":"4","last_reported":1707757569,"current_range_meters":15600,"station_id":"ce4bgn12rcd13ifvqbt0","pricing_plan_id":"free"},{"bike_id":"775b0cc4-75f5-45ec-90d3-5eeb8947fc2e","system_id":"levelo_inurba_marseille","lat":43.297163,"lon":5.365866,"is_reserved":false,"is_disabled":false,"rental_uris":{"android":"levelo://app?vid=775b0cc4-75f5-45ec-90d3-5eeb8947fc2e","ios":"levelo://app?vid=775b0cc4-75f5-45ec-90d3-5eeb8947fc2e"},"vehicle_type_id":"4","last_reported":1707757569,"current_range_meters":1200,"station_id":"ce4bgn12rcd13ifvqbt0","pricing_plan_id":"free"},{"bike_id":"37231bc1-9db3-43e3-a166-043302d90d0a","system_id":"levelo_inurba_marseille","lat":43.297163,"lon":5.365866,"is_reserved":false,"is_disabled":false,"rental_uris":{"android":"levelo://app?vid=37231bc1-9db3-43e3-a166-043302d90d0a","ios":"levelo://app?vid=37231bc1-9db3-43e3-a166-043302d90d0a"},"vehicle_type_id":"4","last_reported":1707757569,"current_range_meters":14000,"station_id":"ce4bgn12rcd13ifvqbt0","pricing_plan_id":"free"},{"bike_id":"063bf703-cfed-4ebf-b871-935a10b7e149","system_id":"levelo_inurba_marseille","lat":43.321861,"lon":5.385482,"is_reserved":false,"is_disabled":false,"rental_uris":{"android":"levelo://app?vid=063bf703-cfed-4ebf-b871-935a10b7e149","ios":"levelo://app?vid=063bf703-cfed-4ebf-b871-935a10b7e149"},"vehicle_type_id":"4","last_reported":1707757569,"current_range_meters":23600,"station_id":"","pricing_plan_id":"free"},{"bike_id":"432347fb-9fe2-4e55-8653-5861a145de53","system_id":"levelo_inurba_marseille","lat":43.2968,"lon":5.37291,"is_reserved":false,"is_disabled":false,"rental_uris":{"android":"levelo://app?vid=432347fb-9fe2-4e55-8653-5861a145de53","ios":"levelo://app?vid=432347fb-9fe2-4e55-8653-5861a145de53"},"vehicle_type_id":"4","last_reported":1707757569,"current_range_meters":2000,"station_id":"ce4bgk12rcd13ifvqbj0","pricing_plan_id":"free"},{"bike_id":"e84ff4d2-8c0e-476b-b55a-37d3bdd50b55","system_id":"levelo_inurba_marseille","lat":43.29617,"lon":5.36786,"is_reserved":false,"is_disabled":false,"rental_uris":{"android":"levelo://app?vid=e84ff4d2-8c0e-476b-b55a-37d3bdd50b55","ios":"levelo://app?vid=e84ff4d2-8c0e-476b-b55a-37d3bdd50b55"},"vehicle_type_id":"4","last_reported":1707757569,"current_range_meters":10400,"station_id":"","pricing_plan_id":"free"},{"bike_id":"cd978159-552c-4038-92dc-9a096a6e3b1a","system_id":"levelo_inurba_marseille","lat":43.296129,"lon":5.370777,"is_reserved":false,"is_disabled":false,"rental_uris":{"android":"levelo://app?vid=cd978159-552c-4038-92dc-9a096a6e3b1a","ios":"levelo://app?vid=cd978159-552c-4038-92dc-9a096a6e3b1a"},"vehicle_type_id":"4","last_reported":1707757569,"current_range_meters":30400,"station_id":"ce4bgnh2rcd13ifvqc0g","pricing_plan_id":"free"},{"bike_id":"bf47a91a-de9a-405f-8f9d-550a7ab15fe0","system_id":"levelo_inurba_marseille","lat":43.296131,"lon":5.370791,"is_reserved":false,"is_disabled":false,"rental_uris":{"android":"levelo://app?vid=bf47a91a-de9a-405f-8f9d-550a7ab15fe0","ios":"levelo://app?vid=bf47a91a-de9a-405f-8f9d-550a7ab15fe0"},"vehicle_type_id":"4","last_reported":1707757569,"current_range_meters":20000,"station_id":"ce4bgnh2rcd13ifvqc0g","pricing_plan_id":"free"},{"bike_id":"d211e66b-4131-4422-96a8-2d1763d67e93","system_id":"levelo_inurba_marseille","lat":43.29573,"lon":5.367355,"is_reserved":false,"is_disabled":false,"rental_uris":{"android":"levelo://app?vid=d211e66b-4131-4422-96a8-2d1763d67e93","ios":"levelo://app?vid=d211e66b-4131-4422-96a8-2d1763d67e93"},"vehicle_type_id":"4","last_reported":1707757569,"current_range_meters":14000,"station_id":"ce4bgph2rcd13ifvqc2g","pricing_plan_id":"free"},{"bike_id":"65e816cc-6627-4647-a946-9e19beadb6e7","system_id":"levelo_inurba_marseille","lat":43.299028,"lon":5.381509,"is_reserved":false,"is_disabled":false,"rental_uris":{"android":"levelo://app?vid=65e816cc-6627-4647-a946-9e19beadb6e7","ios":"levelo://app?vid=65e816cc-6627-4647-a946-9e19beadb6e7"},"vehicle_type_id":"4","last_reported":1707757569,"current_range_meters":24400,"station_id":"ce4bgj12rcd13ifvqbc0","pricing_plan_id":"free"},{"bike_id":"5f8b892a-d059-42c8-aced-4b9ca0020572","system_id":"levelo_inurba_marseille","lat":43.309589,"lon":5.390258,"is_reserved":false,"is_disabled":false,"rental_uris":{"android":"levelo://app?vid=5f8b892a-d059-42c8-aced-4b9ca0020572","ios":"levelo://app?vid=5f8b892a-d059-42c8-aced-4b9ca0020572"},"vehicle_type_id":"4","last_reported":1707757569,"current_range_meters":13200,"station_id":"ce4bgup2rcd13ifvqco0","pricing_plan_id":"free"},{"bike_id":"444a8774-a1f0-4a4b-adf8-5462643f0076","system_id":"levelo_inurba_marseille","lat":43.309589,"lon":5.390258,"is_reserved":false,"is_disabled":false,"rental_uris":{"android":"levelo://app?vid=444a8774-a1f0-4a4b-adf8-5462643f0076","ios":"levelo://app?vid=444a8774-a1f0-4a4b-adf8-5462643f0076"},"vehicle_type_id":"4","last_reported":1707757569,"current_range_meters":6800,"station_id":"ce4bgup2rcd13ifvqco0","pricing_plan_id":"free"},{"bike_id":"09008396-4df0-421d-b3bd-c071bc61ca03","system_id":"levelo_inurba_marseille","lat":43.31758,"lon":5.39014,"is_reserved":false,"is_disabled":false,"rental_uris":{"android":"levelo://app?vid=09008396-4df0-421d-b3bd-c071bc61ca03","ios":"levelo://app?vid=09008396-4df0-421d-b3bd-c071bc61ca03"},"vehicle_type_id":"4","last_reported":1707757569,"current_range_meters":21600,"station_id":"ce4bhqp2rcd13ifvqhng","pricing_plan_id":"free"},{"bike_id":"7f7fc01e-1952-4bab-afa7-dcf3990c799a","system_id":"levelo_inurba_marseille","lat":43.317557,"lon":5.390173,"is_reserved":false,"is_disabled":false,"rental_uris":{"android":"levelo://app?vid=7f7fc01e-1952-4bab-afa7-dcf3990c799a","ios":"levelo://app?vid=7f7fc01e-1952-4bab-afa7-dcf3990c799a"},"vehicle_type_id":"4","last_reported":1707757569,"current_range_meters":28000,"station_id":"ce4bhqp2rcd13ifvqhng","pricing_plan_id":"free"},{"bike_id":"e4fb8bdb-2f12-40c5-8bb7-c44304f6c093","system_id":"levelo_inurba_marseille","lat":43.31757,"lon":5.39017,"is_reserved":false,"is_disabled":false,"rental_uris":{"android":"levelo://app?vid=e4fb8bdb-2f12-40c5-8bb7-c44304f6c093","ios":"levelo://app?vid=e4fb8bdb-2f12-40c5-8bb7-c44304f6c093"},"vehicle_type_id":"4","last_reported":1707757569,"current_range_meters":23200,"station_id":"ce4bhqp2rcd13ifvqhng","pricing_plan_id":"free"},{"bike_id":"d316055b-b4e1-4300-a152-12db6201596f","system_id":"levelo_inurba_marseille","lat":43.317546,"lon":5.390194,"is_reserved":false,"is_disabled":false,"rental_uris":{"android":"levelo://app?vid=d316055b-b4e1-4300-a152-12db6201596f","ios":"levelo://app?vid=d316055b-b4e1-4300-a152-12db6201596f"},"vehicle_type_id":"4","last_reported":1707757569,"current_range_meters":31200,"station_id":"ce4bhqp2rcd13ifvqhng","pricing_plan_id":"free"},{"bike_id":"6117291f-19d4-409c-be16-ea2c0d5a38af","system_id":"levelo_inurba_marseille","lat":43.317557,"lon":5.390173,"is_reserved":false,"is_disabled":false,"rental_uris":{"android":"levelo://app?vid=6117291f-19d4-409c-be16-ea2c0d5a38af","ios":"levelo://app?vid=6117291f-19d4-409c-be16-ea2c0d5a38af"},"vehicle_type_id":"4","last_reported":1707757569,"current_range_meters":9600,"station_id":"ce4bhqp2rcd13ifvqhng","pricing_plan_id":"free"},{"bike_id":"6c13b8a6-6de2-4cb8-90a3-ca30e8c1dab5","system_id":"levelo_inurba_marseille","lat":43.31756,"lon":5.3902,"is_reserved":false,"is_disabled":false,"rental_uris":{"android":"levelo://app?vid=6c13b8a6-6de2-4cb8-90a3-ca30e8c1dab5","ios":"levelo://app?vid=6c13b8a6-6de2-4cb8-90a3-ca30e8c1dab5"},"vehicle_type_id":"4","last_reported":1707757569,"current_range_meters":17200,"station_id":"ce4bhqp2rcd13ifvqhng","pricing_plan_id":"free"},{"bike_id":"6fea3049-e166-4c62-ae45-118f599bb1bd","system_id":"levelo_inurba_marseille","lat":43.317557,"lon":5.390173,"is_reserved":false,"is_disabled":false,"rental_uris":{"android":"levelo://app?vid=6fea3049-e166-4c62-ae45-118f599bb1bd","ios":"levelo://app?vid=6fea3049-e166-4c62-ae45-118f599bb1bd"},"vehicle_type_id":"4","last_reported":1707757569,"current_range_meters":28400,"station_id":"ce4bhqp2rcd13ifvqhng","pricing_plan_id":"free"},{"bike_id":"f718d9c2-6fb8-4585-9684-c2b2826090ae","system_id":"levelo_inurba_marseille","lat":43.317568,"lon":5.390229,"is_reserved":false,"is_disabled":false,"rental_uris":{"android":"levelo://app?vid=f718d9c2-6fb8-4585-9684-c2b2826090ae","ios":"levelo://app?vid=f718d9c2-6fb8-4585-9684-c2b2826090ae"},"vehicle_type_id":"4","last_reported":1707757569,"current_range_meters":31200,"station_id":"ce4bhqp2rcd13ifvqhng","pricing_plan_id":"free"},{"bike_id":"ae061628-d0e8-4f47-baa7-f7a69ec2ad4d","system_id":"levelo_inurba_marseille","lat":43.298037,"lon":5.381066,"is_reserved":false,"is_disabled":false,"rental_uris":{"android":"levelo://app?vid=ae061628-d0e8-4f47-baa7-f7a69ec2ad4d","ios":"levelo://app?vid=ae061628-d0e8-4f47-baa7-f7a69ec2ad4d"},"vehicle_type_id":"4","last_reported":1707757569,"current_range_meters":24000,"station_id":"ce4bgip2rcd13ifvqbb0","pricing_plan_id":"free"},{"bike_id":"8cbac526-9d12-4373-a1a8-fa4efe30b178","system_id":"levelo_inurba_marseille","lat":43.298037,"lon":5.381066,"is_reserved":false,"is_disabled":false,"rental_uris":{"android":"levelo://app?vid=8cbac526-9d12-4373-a1a8-fa4efe30b178","ios":"levelo://app?vid=8cbac526-9d12-4373-a1a8-fa4efe30b178"},"vehicle_type_id":"4","last_reported":1707757569,"current_range_meters":20000,"station_id":"ce4bgip2rcd13ifvqbb0","pricing_plan_id":"free"},{"bike_id":"9f829b30-bb48-4289-82e3-94776f300dd5","system_id":"levelo_inurba_marseille","lat":43.296277,"lon":5.377108,"is_reserved":false,"is_disabled":false,"rental_uris":{"android":"levelo://app?vid=9f829b30-bb48-4289-82e3-94776f300dd5","ios":"levelo://app?vid=9f829b30-bb48-4289-82e3-94776f300dd5"},"vehicle_type_id":"4","last_reported":1707757569,"current_range_meters":8000,"station_id":"ce4bgi92rcd13ifvqb90","pricing_plan_id":"free"},{"bike_id":"ebbdea08-a4f6-4612-ab4f-84c4f0c8c0a6","system_id":"levelo_inurba_marseille","lat":43.304278,"lon":5.388868,"is_reserved":false,"is_disabled":false,"rental_uris":{"android":"levelo://app?vid=ebbdea08-a4f6-4612-ab4f-84c4f0c8c0a6","ios":"levelo://app?vid=ebbdea08-a4f6-4612-ab4f-84c4f0c8c0a6"},"vehicle_type_id":"4","last_reported":1707757569,"current_range_meters":12800,"station_id":"ce4bgk12rcd13ifvqbi0","pricing_plan_id":"free"},{"bike_id":"1b108e26-639e-4e40-8c13-b0553de05a36","system_id":"levelo_inurba_marseille","lat":43.304274,"lon":5.388873,"is_reserved":false,"is_disabled":false,"rental_uris":{"android":"levelo://app?vid=1b108e26-639e-4e40-8c13-b0553de05a36","ios":"levelo://app?vid=1b108e26-639e-4e40-8c13-b0553de05a36"},"vehicle_type_id":"4","last_reported":1707757569,"current_range_meters":5200,"station_id":"ce4bgk12rcd13ifvqbi0","pricing_plan_id":"free"},{"bike_id":"c86a420c-f5ed-4fc1-bbe7-ca13ca49db7d","system_id":"levelo_inurba_marseille","lat":43.296277,"lon":5.377108,"is_reserved":false,"is_disabled":false,"rental_uris":{"android":"levelo://app?vid=c86a420c-f5ed-4fc1-bbe7-ca13ca49db7d","ios":"levelo://app?vid=c86a420c-f5ed-4fc1-bbe7-ca13ca49db7d"},"vehicle_type_id":"4","last_reported":1707757569,"current_range_meters":0,"station_id":"ce4bgi92rcd13ifvqb90","pricing_plan_id":"free"},{"bike_id":"caafd370-6e2e-4dd7-a17c-c5b3a2b84698","system_id":"levelo_inurba_marseille","lat":43.296263,"lon":5.377094,"is_reserved":false,"is_disabled":false,"rental_uris":{"android":"levelo://app?vid=caafd370-6e2e-4dd7-a17c-c5b3a2b84698","ios":"levelo://app?vid=caafd370-6e2e-4dd7-a17c-c5b3a2b84698"},"vehicle_type_id":"4","last_reported":1707757569,"current_range_meters":8800,"station_id":"ce4bgi92rcd13ifvqb90","pricing_plan_id":"free"},{"bike_id":"10a60017-8159-40d9-bc6e-98b48f58fb94","system_id":"levelo_inurba_marseille","lat":43.299717,"lon":5.384845,"is_reserved":false,"is_disabled":false,"rental_uris":{"android":"levelo://app?vid=10a60017-8159-40d9-bc6e-98b48f58fb94","ios":"levelo://app?vid=10a60017-8159-40d9-bc6e-98b48f58fb94"},"vehicle_type_id":"4","last_reported":1707757569,"current_range_meters":18000,"station_id":"ce4bgj92rcd13ifvqbd0","pricing_plan_id":"free"},{"bike_id":"198bb90d-d6ad-4d22-a2c1-48c33814d4a0","system_id":"levelo_inurba_marseille","lat":43.299707,"lon":5.384859,"is_reserved":false,"is_disabled":false,"rental_uris":{"android":"levelo://app?vid=198bb90d-d6ad-4d22-a2c1-48c33814d4a0","ios":"levelo://app?vid=198bb90d-d6ad-4d22-a2c1-48c33814d4a0"},"vehicle_type_id":"4","last_reported":1707757569,"current_range_meters":16000,"station_id":"ce4bgj92rcd13ifvqbd0","pricing_plan_id":"free"},{"bike_id":"3dc45d45-51ab-4772-ba95-52ce7f920f4f","system_id":"levelo_inurba_marseille","lat":43.299724,"lon":5.384848,"is_reserved":false,"is_disabled":false,"rental_uris":{"android":"levelo://app?vid=3dc45d45-51ab-4772-ba95-52ce7f920f4f","ios":"levelo://app?vid=3dc45d45-51ab-4772-ba95-52ce7f920f4f"},"vehicle_type_id":"4","last_reported":1707757569,"current_range_meters":31200,"station_id":"ce4bgj92rcd13ifvqbd0","pricing_plan_id":"free"},{"bike_id":"3765937f-6ba0-47fe-9fd8-84d5de1e9321","system_id":"levelo_inurba_marseille","lat":43.32368,"lon":5.38881,"is_reserved":false,"is_disabled":false,"rental_uris":{"android":"levelo://app?vid=3765937f-6ba0-47fe-9fd8-84d5de1e9321","ios":"levelo://app?vid=3765937f-6ba0-47fe-9fd8-84d5de1e9321"},"vehicle_type_id":"4","last_reported":1707757569,"current_range_meters":13600,"station_id":"ce4bhqp2rcd13ifvqhog","pricing_plan_id":"free"},{"bike_id":"3a32260d-96a3-4b93-9fb4-5455d590c1b8","system_id":"levelo_inurba_marseille","lat":43.32367,"lon":5.388836,"is_reserved":false,"is_disabled":false,"rental_uris":{"android":"levelo://app?vid=3a32260d-96a3-4b93-9fb4-5455d590c1b8","ios":"levelo://app?vid=3a32260d-96a3-4b93-9fb4-5455d590c1b8"},"vehicle_type_id":"4","last_reported":1707757569,"current_range_meters":30800,"station_id":"ce4bhqp2rcd13ifvqhog","pricing_plan_id":"free"},{"bike_id":"2c4295cd-2950-4e06-b368-4db3ee3e7e12","system_id":"levelo_inurba_marseille","lat":43.29602,"lon":5.381084,"is_reserved":false,"is_disabled":false,"rental_uris":{"android":"levelo://app?vid=2c4295cd-2950-4e06-b368-4db3ee3e7e12","ios":"levelo://app?vid=2c4295cd-2950-4e06-b368-4db3ee3e7e12"},"vehicle_type_id":"4","last_reported":1707757569,"current_range_meters":11200,"station_id":"ce4bgl12rcd13ifvqbo0","pricing_plan_id":"free"},{"bike_id":"a31e0e8d-c47a-43cb-9a5b-4a04a547aac3","system_id":"levelo_inurba_marseille","lat":43.29601,"lon":5.381084,"is_reserved":false,"is_disabled":false,"rental_uris":{"android":"levelo://app?vid=a31e0e8d-c47a-43cb-9a5b-4a04a547aac3","ios":"levelo://app?vid=a31e0e8d-c47a-43cb-9a5b-4a04a547aac3"},"vehicle_type_id":"4","last_reported":1707757569,"current_range_meters":0,"station_id":"ce4bgl12rcd13ifvqbo0","pricing_plan_id":"free"},{"bike_id":"42115bc4-fdf9-44e1-8b86-887d646966f6","system_id":"levelo_inurba_marseille","lat":43.293009,"lon":5.374584,"is_reserved":false,"is_disabled":false,"rental_uris":{"android":"levelo://app?vid=42115bc4-fdf9-44e1-8b86-887d646966f6","ios":"levelo://app?vid=42115bc4-fdf9-44e1-8b86-887d646966f6"},"vehicle_type_id":"4","last_reported":1707757569,"current_range_meters":16000,"station_id":"ce4bgi12rcd13ifvqb70","pricing_plan_id":"free"},{"bike_id":"7199bc24-e9e3-41c9-aea9-d697a9bd6328","system_id":"levelo_inurba_marseille","lat":43.305994,"lon":5.393687,"is_reserved":false,"is_disabled":false,"rental_uris":{"android":"levelo://app?vid=7199bc24-e9e3-41c9-aea9-d697a9bd6328","ios":"levelo://app?vid=7199bc24-e9e3-41c9-aea9-d697a9bd6328"},"vehicle_type_id":"4","last_reported":1707757569,"current_range_meters":8400,"station_id":"ce4bh0p2rcd13ifvqd80","pricing_plan_id":"free"},{"bike_id":"132ed3c7-9cc3-4a6c-a1ef-6bac333ce1f4","system_id":"levelo_inurba_marseille","lat":43.305994,"lon":5.393687,"is_reserved":false,"is_disabled":false,"rental_uris":{"android":"levelo://app?vid=132ed3c7-9cc3-4a6c-a1ef-6bac333ce1f4","ios":"levelo://app?vid=132ed3c7-9cc3-4a6c-a1ef-6bac333ce1f4"},"vehicle_type_id":"4","last_reported":1707757569,"current_range_meters":16800,"station_id":"ce4bh0p2rcd13ifvqd80","pricing_plan_id":"free"},{"bike_id":"08251815-0d2c-4d26-bf2e-748af03b1a34","system_id":"levelo_inurba_marseille","lat":43.303002,"lon":5.392142,"is_reserved":false,"is_disabled":false,"rental_uris":{"android":"levelo://app?vid=08251815-0d2c-4d26-bf2e-748af03b1a34","ios":"levelo://app?vid=08251815-0d2c-4d26-bf2e-748af03b1a34"},"vehicle_type_id":"4","last_reported":1707757569,"current_range_meters":6000,"station_id":"ce4bgkh2rcd13ifvqbk0","pricing_plan_id":"free"},{"bike_id":"92443eb8-79d7-419a-b596-8c8b3cc76208","system_id":"levelo_inurba_marseille","lat":43.298764,"lon":5.388973,"is_reserved":false,"is_disabled":false,"rental_uris":{"android":"levelo://app?vid=92443eb8-79d7-419a-b596-8c8b3cc76208","ios":"levelo://app?vid=92443eb8-79d7-419a-b596-8c8b3cc76208"},"vehicle_type_id":"4","last_reported":1707757569,"current_range_meters":5200,"station_id":"ce4bh392rcd13ifvqdl0","pricing_plan_id":"free"},{"bike_id":"7bc307ef-d5a7-4105-9a83-b4407d51da2e","system_id":"levelo_inurba_marseille","lat":43.3008,"lon":5.39105,"is_reserved":false,"is_disabled":false,"rental_uris":{"android":"levelo://app?vid=7bc307ef-d5a7-4105-9a83-b4407d51da2e","ios":"levelo://app?vid=7bc307ef-d5a7-4105-9a83-b4407d51da2e"},"vehicle_type_id":"4","last_reported":1707757569,"current_range_meters":20000,"station_id":"ce4bh192rcd13ifvqdb0","pricing_plan_id":"free"},{"bike_id":"f4718744-67bd-4be7-b226-758585c39e20","system_id":"levelo_inurba_marseille","lat":43.291994,"lon":5.357886,"is_reserved":false,"is_disabled":false,"rental_uris":{"android":"levelo://app?vid=f4718744-67bd-4be7-b226-758585c39e20","ios":"levelo://app?vid=f4718744-67bd-4be7-b226-758585c39e20"},"vehicle_type_id":"4","last_reported":1707757569,"current_range_meters":0,"station_id":"ce4bhb12rcd13ifvqel0","pricing_plan_id":"free"},{"bike_id":"dfb5f068-28bd-4b2a-a7d3-d799b53b47c1","system_id":"levelo_inurba_marseille","lat":43.309038,"lon":5.396546,"is_reserved":false,"is_disabled":false,"rental_uris":{"android":"levelo://app?vid=dfb5f068-28bd-4b2a-a7d3-d799b53b47c1","ios":"levelo://app?vid=dfb5f068-28bd-4b2a-a7d3-d799b53b47c1"},"vehicle_type_id":"4","last_reported":1707757569,"current_range_meters":22800,"station_id":"ce4bh012rcd13ifvqcv0","pricing_plan_id":"free"},{"bike_id":"3ab03f50-f756-4ad7-b3d6-7c574439eb12","system_id":"levelo_inurba_marseille","lat":43.313291,"lon":5.396838,"is_reserved":false,"is_disabled":false,"rental_uris":{"android":"levelo://app?vid=3ab03f50-f756-4ad7-b3d6-7c574439eb12","ios":"levelo://app?vid=3ab03f50-f756-4ad7-b3d6-7c574439eb12"},"vehicle_type_id":"4","last_reported":1707757569,"current_range_meters":27200,"station_id":"ce4bgvp2rcd13ifvqcu0","pricing_plan_id":"free"},{"bike_id":"6c96b1b3-2a30-45ff-a5ab-a0f1e90aa5bc","system_id":"levelo_inurba_marseille","lat":43.313291,"lon":5.396838,"is_reserved":false,"is_disabled":false,"rental_uris":{"android":"levelo://app?vid=6c96b1b3-2a30-45ff-a5ab-a0f1e90aa5bc","ios":"levelo://app?vid=6c96b1b3-2a30-45ff-a5ab-a0f1e90aa5bc"},"vehicle_type_id":"4","last_reported":1707757569,"current_range_meters":14000,"station_id":"ce4bgvp2rcd13ifvqcu0","pricing_plan_id":"free"},{"bike_id":"4b092013-47d9-45fc-acb8-f119516240d6","system_id":"levelo_inurba_marseille","lat":43.309038,"lon":5.396546,"is_reserved":false,"is_disabled":false,"rental_uris":{"android":"levelo://app?vid=4b092013-47d9-45fc-acb8-f119516240d6","ios":"levelo://app?vid=4b092013-47d9-45fc-acb8-f119516240d6"},"vehicle_type_id":"4","last_reported":1707757569,"current_range_meters":10400,"station_id":"ce4bh012rcd13ifvqcv0","pricing_plan_id":"free"},{"bike_id":"6715e287-b114-42ea-a85e-ab6138c38819","system_id":"levelo_inurba_marseille","lat":43.29529,"lon":5.385581,"is_reserved":false,"is_disabled":false,"rental_uris":{"android":"levelo://app?vid=6715e287-b114-42ea-a85e-ab6138c38819","ios":"levelo://app?vid=6715e287-b114-42ea-a85e-ab6138c38819"},"vehicle_type_id":"4","last_reported":1707757569,"current_range_meters":8800,"station_id":"ce4bgih2rcd13ifvqba0","pricing_plan_id":"free"},{"bike_id":"e9fa192c-adbc-4ec7-bcf8-dcd663e2a8df","system_id":"levelo_inurba_marseille","lat":43.29529,"lon":5.385581,"is_reserved":false,"is_disabled":false,"rental_uris":{"android":"levelo://app?vid=e9fa192c-adbc-4ec7-bcf8-dcd663e2a8df","ios":"levelo://app?vid=e9fa192c-adbc-4ec7-bcf8-dcd663e2a8df"},"vehicle_type_id":"4","last_reported":1707757569,"current_range_meters":6400,"station_id":"ce4bgih2rcd13ifvqba0","pricing_plan_id":"free"},{"bike_id":"4b7ae8ab-4144-4055-9e30-fded6a97883f","system_id":"levelo_inurba_marseille","lat":43.29529,"lon":5.385581,"is_reserved":false,"is_disabled":false,"rental_uris":{"android":"levelo://app?vid=4b7ae8ab-4144-4055-9e30-fded6a97883f","ios":"levelo://app?vid=4b7ae8ab-4144-4055-9e30-fded6a97883f"},"vehicle_type_id":"4","last_reported":1707757569,"current_range_meters":28400,"station_id":"ce4bgih2rcd13ifvqba0","pricing_plan_id":"free"},{"bike_id":"46b28c06-c48f-422d-ac0c-f0a898f140d4","system_id":"levelo_inurba_marseille","lat":43.293259,"lon":5.371586,"is_reserved":false,"is_disabled":false,"rental_uris":{"android":"levelo://app?vid=46b28c06-c48f-422d-ac0c-f0a898f140d4","ios":"levelo://app?vid=46b28c06-c48f-422d-ac0c-f0a898f140d4"},"vehicle_type_id":"4","last_reported":1707757569,"current_range_meters":31200,"station_id":"ce4bgh92rcd13ifvqb40","pricing_plan_id":"free"},{"bike_id":"8942716c-78b3-4dd2-a1a3-530c47a0fd2b","system_id":"levelo_inurba_marseille","lat":43.290779,"lon":5.371482,"is_reserved":false,"is_disabled":false,"rental_uris":{"android":"levelo://app?vid=8942716c-78b3-4dd2-a1a3-530c47a0fd2b","ios":"levelo://app?vid=8942716c-78b3-4dd2-a1a3-530c47a0fd2b"},"vehicle_type_id":"4","last_reported":1707757569,"current_range_meters":5200,"station_id":"ce4bh5p2rcd13ifvqe4g","pricing_plan_id":"free"},{"bike_id":"da6aea14-c575-4bf0-a0d2-b7d846db7917","system_id":"levelo_inurba_marseille","lat":43.290779,"lon":5.371482,"is_reserved":false,"is_disabled":false,"rental_uris":{"android":"levelo://app?vid=da6aea14-c575-4bf0-a0d2-b7d846db7917","ios":"levelo://app?vid=da6aea14-c575-4bf0-a0d2-b7d846db7917"},"vehicle_type_id":"4","last_reported":1707757569,"current_range_meters":6400,"station_id":"ce4bh5p2rcd13ifvqe4g","pricing_plan_id":"free"},{"bike_id":"d6a3a7e7-3ddc-4abe-8fca-8ce263560649","system_id":"levelo_inurba_marseille","lat":43.29529,"lon":5.385581,"is_reserved":false,"is_disabled":false,"rental_uris":{"android":"levelo://app?vid=d6a3a7e7-3ddc-4abe-8fca-8ce263560649","ios":"levelo://app?vid=d6a3a7e7-3ddc-4abe-8fca-8ce263560649"},"vehicle_type_id":"4","last_reported":1707757569,"current_range_meters":10400,"station_id":"ce4bgih2rcd13ifvqba0","pricing_plan_id":"free"},{"bike_id":"6a2227a2-bdda-427c-a665-170ececbf762","system_id":"levelo_inurba_marseille","lat":43.286591,"lon":5.363346,"is_reserved":false,"is_disabled":false,"rental_uris":{"android":"levelo://app?vid=6a2227a2-bdda-427c-a665-170ececbf762","ios":"levelo://app?vid=6a2227a2-bdda-427c-a665-170ececbf762"},"vehicle_type_id":"4","last_reported":1707757569,"current_range_meters":28000,"station_id":"ce4bhah2rcd13ifvqej0","pricing_plan_id":"free"},{"bike_id":"bf5cc05e-a786-44d4-9202-8045906b89db","system_id":"levelo_inurba_marseille","lat":43.29438,"lon":5.38532,"is_reserved":false,"is_disabled":false,"rental_uris":{"android":"levelo://app?vid=bf5cc05e-a786-44d4-9202-8045906b89db","ios":"levelo://app?vid=bf5cc05e-a786-44d4-9202-8045906b89db"},"vehicle_type_id":"4","last_reported":1707757569,"current_range_meters":20400,"station_id":"ce4bh2h2rcd13ifvqdh0","pricing_plan_id":"free"},{"bike_id":"b5d7fd72-6714-4efc-a261-8ebaea6305ba","system_id":"levelo_inurba_marseille","lat":43.29419,"lon":5.38624,"is_reserved":false,"is_disabled":false,"rental_uris":{"android":"levelo://app?vid=b5d7fd72-6714-4efc-a261-8ebaea6305ba","ios":"levelo://app?vid=b5d7fd72-6714-4efc-a261-8ebaea6305ba"},"vehicle_type_id":"4","last_reported":1707757569,"current_range_meters":26800,"station_id":"ce4bh2h2rcd13ifvqdh0","pricing_plan_id":"free"},{"bike_id":"b2dcf93d-82c8-4315-9ac2-48810f28b5da","system_id":"levelo_inurba_marseille","lat":43.29419,"lon":5.38624,"is_reserved":false,"is_disabled":false,"rental_uris":{"android":"levelo://app?vid=b2dcf93d-82c8-4315-9ac2-48810f28b5da","ios":"levelo://app?vid=b2dcf93d-82c8-4315-9ac2-48810f28b5da"},"vehicle_type_id":"4","last_reported":1707757569,"current_range_meters":6800,"station_id":"ce4bh2h2rcd13ifvqdh0","pricing_plan_id":"free"},{"bike_id":"f5ecc7a0-8349-48c5-a034-fdf471630b69","system_id":"levelo_inurba_marseille","lat":43.29417,"lon":5.38623,"is_reserved":false,"is_disabled":false,"rental_uris":{"android":"levelo://app?vid=f5ecc7a0-8349-48c5-a034-fdf471630b69","ios":"levelo://app?vid=f5ecc7a0-8349-48c5-a034-fdf471630b69"},"vehicle_type_id":"4","last_reported":1707757569,"current_range_meters":28400,"station_id":"ce4bh2h2rcd13ifvqdh0","pricing_plan_id":"free"},{"bike_id":"a797dc31-9c74-4397-bd15-1562871a95b8","system_id":"levelo_inurba_marseille","lat":43.294162,"lon":5.386292,"is_reserved":false,"is_disabled":false,"rental_uris":{"android":"levelo://app?vid=a797dc31-9c74-4397-bd15-1562871a95b8","ios":"levelo://app?vid=a797dc31-9c74-4397-bd15-1562871a95b8"},"vehicle_type_id":"4","last_reported":1707757569,"current_range_meters":22000,"station_id":"ce4bh2h2rcd13ifvqdh0","pricing_plan_id":"free"},{"bike_id":"6b0abfb7-ad61-4385-bd18-2cbefb39fe07","system_id":"levelo_inurba_marseille","lat":43.294162,"lon":5.386292,"is_reserved":false,"is_disabled":false,"rental_uris":{"android":"levelo://app?vid=6b0abfb7-ad61-4385-bd18-2cbefb39fe07","ios":"levelo://app?vid=6b0abfb7-ad61-4385-bd18-2cbefb39fe07"},"vehicle_type_id":"4","last_reported":1707757569,"current_range_meters":16400,"station_id":"ce4bh2h2rcd13ifvqdh0","pricing_plan_id":"free"},{"bike_id":"81caefe7-ab86-44b7-bf28-dcd8c832db24","system_id":"levelo_inurba_marseille","lat":43.294153,"lon":5.386305,"is_reserved":false,"is_disabled":false,"rental_uris":{"android":"levelo://app?vid=81caefe7-ab86-44b7-bf28-dcd8c832db24","ios":"levelo://app?vid=81caefe7-ab86-44b7-bf28-dcd8c832db24"},"vehicle_type_id":"4","last_reported":1707757569,"current_range_meters":16400,"station_id":"ce4bh2h2rcd13ifvqdh0","pricing_plan_id":"free"},{"bike_id":"1a49a51f-6e27-4513-a478-c45b661382af","system_id":"levelo_inurba_marseille","lat":43.289468,"lon":5.363719,"is_reserved":false,"is_disabled":false,"rental_uris":{"android":"levelo://app?vid=1a49a51f-6e27-4513-a478-c45b661382af","ios":"levelo://app?vid=1a49a51f-6e27-4513-a478-c45b661382af"},"vehicle_type_id":"4","last_reported":1707757569,"current_range_meters":25600,"station_id":"ce4bhc92rcd13ifvqetg","pricing_plan_id":"free"},{"bike_id":"4cace85f-ef43-4ab0-af8f-10aa2ec76b56","system_id":"levelo_inurba_marseille","lat":43.294162,"lon":5.386292,"is_reserved":false,"is_disabled":false,"rental_uris":{"android":"levelo://app?vid=4cace85f-ef43-4ab0-af8f-10aa2ec76b56","ios":"levelo://app?vid=4cace85f-ef43-4ab0-af8f-10aa2ec76b56"},"vehicle_type_id":"4","last_reported":1707757569,"current_range_meters":15600,"station_id":"ce4bh2h2rcd13ifvqdh0","pricing_plan_id":"free"},{"bike_id":"a3d1ac02-a8a0-42ef-a034-cf99528af008","system_id":"levelo_inurba_marseille","lat":43.289468,"lon":5.363719,"is_reserved":false,"is_disabled":false,"rental_uris":{"android":"levelo://app?vid=a3d1ac02-a8a0-42ef-a034-cf99528af008","ios":"levelo://app?vid=a3d1ac02-a8a0-42ef-a034-cf99528af008"},"vehicle_type_id":"4","last_reported":1707757569,"current_range_meters":24000,"station_id":"ce4bhc92rcd13ifvqetg","pricing_plan_id":"free"},{"bike_id":"a60068b9-2d0a-4a4d-a3b8-92ef448b0db6","system_id":"levelo_inurba_marseille","lat":43.28936,"lon":5.36641,"is_reserved":false,"is_disabled":false,"rental_uris":{"android":"levelo://app?vid=a60068b9-2d0a-4a4d-a3b8-92ef448b0db6","ios":"levelo://app?vid=a60068b9-2d0a-4a4d-a3b8-92ef448b0db6"},"vehicle_type_id":"4","last_reported":1707757569,"current_range_meters":19600,"station_id":"ce4bhap2rcd13ifvqek0","pricing_plan_id":"free"},{"bike_id":"02a5acd7-5948-443d-8939-4531069fd7c9","system_id":"levelo_inurba_marseille","lat":43.289468,"lon":5.363719,"is_reserved":false,"is_disabled":false,"rental_uris":{"android":"levelo://app?vid=02a5acd7-5948-443d-8939-4531069fd7c9","ios":"levelo://app?vid=02a5acd7-5948-443d-8939-4531069fd7c9"},"vehicle_type_id":"4","last_reported":1707757569,"current_range_meters":21600,"station_id":"ce4bhc92rcd13ifvqetg","pricing_plan_id":"free"},{"bike_id":"74ff8ce8-11a4-4cd0-bd9d-1b361cd9cbe5","system_id":"levelo_inurba_marseille","lat":43.292644,"lon":5.384257,"is_reserved":false,"is_disabled":false,"rental_uris":{"android":"levelo://app?vid=74ff8ce8-11a4-4cd0-bd9d-1b361cd9cbe5","ios":"levelo://app?vid=74ff8ce8-11a4-4cd0-bd9d-1b361cd9cbe5"},"vehicle_type_id":"4","last_reported":1707757569,"current_range_meters":12800,"station_id":"ce4bh692rcd13ifvqea0","pricing_plan_id":"free"},{"bike_id":"93f1a990-8799-4f37-bc49-6a09601e0595","system_id":"levelo_inurba_marseille","lat":43.292642,"lon":5.384254,"is_reserved":false,"is_disabled":false,"rental_uris":{"android":"levelo://app?vid=93f1a990-8799-4f37-bc49-6a09601e0595","ios":"levelo://app?vid=93f1a990-8799-4f37-bc49-6a09601e0595"},"vehicle_type_id":"4","last_reported":1707757569,"current_range_meters":13600,"station_id":"ce4bh692rcd13ifvqea0","pricing_plan_id":"free"},{"bike_id":"452e71aa-9a4e-43ea-909d-1d3ee8565852","system_id":"levelo_inurba_marseille","lat":43.292644,"lon":5.384257,"is_reserved":false,"is_disabled":false,"rental_uris":{"android":"levelo://app?vid=452e71aa-9a4e-43ea-909d-1d3ee8565852","ios":"levelo://app?vid=452e71aa-9a4e-43ea-909d-1d3ee8565852"},"vehicle_type_id":"4","last_reported":1707757569,"current_range_meters":16000,"station_id":"ce4bh692rcd13ifvqea0","pricing_plan_id":"free"},{"bike_id":"ceac0e2c-3c0b-4c9d-92cb-0995352cca8b","system_id":"levelo_inurba_marseille","lat":43.292644,"lon":5.384257,"is_reserved":false,"is_disabled":false,"rental_uris":{"android":"levelo://app?vid=ceac0e2c-3c0b-4c9d-92cb-0995352cca8b","ios":"levelo://app?vid=ceac0e2c-3c0b-4c9d-92cb-0995352cca8b"},"vehicle_type_id":"4","last_reported":1707757569,"current_range_meters":11600,"station_id":"ce4bh692rcd13ifvqea0","pricing_plan_id":"free"},{"bike_id":"60139519-e258-467d-9df2-1d24fea92879","system_id":"levelo_inurba_marseille","lat":43.290103,"lon":5.356114,"is_reserved":false,"is_disabled":false,"rental_uris":{"android":"levelo://app?vid=60139519-e258-467d-9df2-1d24fea92879","ios":"levelo://app?vid=60139519-e258-467d-9df2-1d24fea92879"},"vehicle_type_id":"4","last_reported":1707757569,"current_range_meters":0,"station_id":"ce4bhb92rcd13ifvqen0","pricing_plan_id":"free"},{"bike_id":"9acd2260-74aa-4094-a976-b32c93ae09f5","system_id":"levelo_inurba_marseille","lat":43.290995,"lon":5.381361,"is_reserved":false,"is_disabled":false,"rental_uris":{"android":"levelo://app?vid=9acd2260-74aa-4094-a976-b32c93ae09f5","ios":"levelo://app?vid=9acd2260-74aa-4094-a976-b32c93ae09f5"},"vehicle_type_id":"4","last_reported":1707757569,"current_range_meters":4000,"station_id":"ce4bh512rcd13ifvqe2g","pricing_plan_id":"free"},{"bike_id":"1acbf3f4-c4c7-49c7-b733-91765e370cb2","system_id":"levelo_inurba_marseille","lat":43.290094,"lon":5.381264,"is_reserved":false,"is_disabled":false,"rental_uris":{"android":"levelo://app?vid=1acbf3f4-c4c7-49c7-b733-91765e370cb2","ios":"levelo://app?vid=1acbf3f4-c4c7-49c7-b733-91765e370cb2"},"vehicle_type_id":"4","last_reported":1707757569,"current_range_meters":26800,"station_id":"ce4bh4p2rcd13ifvqe1g","pricing_plan_id":"free"},{"bike_id":"e188b560-3b2e-4b11-bedc-3083ce0b7f32","system_id":"levelo_inurba_marseille","lat":43.295169,"lon":5.390426,"is_reserved":false,"is_disabled":false,"rental_uris":{"android":"levelo://app?vid=e188b560-3b2e-4b11-bedc-3083ce0b7f32","ios":"levelo://app?vid=e188b560-3b2e-4b11-bedc-3083ce0b7f32"},"vehicle_type_id":"4","last_reported":1707757569,"current_range_meters":31200,"station_id":"ce4bh3p2rcd13ifvqdp0","pricing_plan_id":"free"},{"bike_id":"ba7895df-fdf0-43d4-b40a-e7e64d29137d","system_id":"levelo_inurba_marseille","lat":43.33015,"lon":5.39042,"is_reserved":false,"is_disabled":false,"rental_uris":{"android":"levelo://app?vid=ba7895df-fdf0-43d4-b40a-e7e64d29137d","ios":"levelo://app?vid=ba7895df-fdf0-43d4-b40a-e7e64d29137d"},"vehicle_type_id":"4","last_reported":1707757569,"current_range_meters":20000,"station_id":"ce4bhr92rcd13ifvqhrg","pricing_plan_id":"free"},{"bike_id":"885d22c6-50bb-4b62-9e03-bc76c977b16d","system_id":"levelo_inurba_marseille","lat":43.330442,"lon":5.389148,"is_reserved":false,"is_disabled":false,"rental_uris":{"android":"levelo://app?vid=885d22c6-50bb-4b62-9e03-bc76c977b16d","ios":"levelo://app?vid=885d22c6-50bb-4b62-9e03-bc76c977b16d"},"vehicle_type_id":"4","last_reported":1707757569,"current_range_meters":1200,"station_id":"ce4bhr92rcd13ifvqhrg","pricing_plan_id":"free"},{"bike_id":"c1b36393-798b-4504-88b3-a7646b8a5044","system_id":"levelo_inurba_marseille","lat":43.330179,"lon":5.39041,"is_reserved":false,"is_disabled":false,"rental_uris":{"android":"levelo://app?vid=c1b36393-798b-4504-88b3-a7646b8a5044","ios":"levelo://app?vid=c1b36393-798b-4504-88b3-a7646b8a5044"},"vehicle_type_id":"4","last_reported":1707757569,"current_range_meters":13600,"station_id":"ce4bhr92rcd13ifvqhrg","pricing_plan_id":"free"},{"bike_id":"5808e810-d387-4fbf-9289-14ca727d9b15","system_id":"levelo_inurba_marseille","lat":43.33026,"lon":5.39035,"is_reserved":false,"is_disabled":false,"rental_uris":{"android":"levelo://app?vid=5808e810-d387-4fbf-9289-14ca727d9b15","ios":"levelo://app?vid=5808e810-d387-4fbf-9289-14ca727d9b15"},"vehicle_type_id":"4","last_reported":1707757569,"current_range_meters":5600,"station_id":"ce4bhr92rcd13ifvqhrg","pricing_plan_id":"free"},{"bike_id":"ee1d06f2-edcb-44d3-8e2e-df8be3cfa85f","system_id":"levelo_inurba_marseille","lat":43.330442,"lon":5.389148,"is_reserved":false,"is_disabled":false,"rental_uris":{"android":"levelo://app?vid=ee1d06f2-edcb-44d3-8e2e-df8be3cfa85f","ios":"levelo://app?vid=ee1d06f2-edcb-44d3-8e2e-df8be3cfa85f"},"vehicle_type_id":"4","last_reported":1707757569,"current_range_meters":31200,"station_id":"ce4bhr92rcd13ifvqhrg","pricing_plan_id":"free"},{"bike_id":"6143b246-3fa0-4c50-967f-81b19f2106fa","system_id":"levelo_inurba_marseille","lat":43.330442,"lon":5.389148,"is_reserved":false,"is_disabled":false,"rental_uris":{"android":"levelo://app?vid=6143b246-3fa0-4c50-967f-81b19f2106fa","ios":"levelo://app?vid=6143b246-3fa0-4c50-967f-81b19f2106fa"},"vehicle_type_id":"4","last_reported":1707757569,"current_range_meters":31200,"station_id":"ce4bhr92rcd13ifvqhrg","pricing_plan_id":"free"},{"bike_id":"22252934-0b69-4c38-8c74-cff61eb3be93","system_id":"levelo_inurba_marseille","lat":43.330442,"lon":5.389148,"is_reserved":false,"is_disabled":false,"rental_uris":{"android":"levelo://app?vid=22252934-0b69-4c38-8c74-cff61eb3be93","ios":"levelo://app?vid=22252934-0b69-4c38-8c74-cff61eb3be93"},"vehicle_type_id":"4","last_reported":1707757569,"current_range_meters":18400,"station_id":"ce4bhr92rcd13ifvqhrg","pricing_plan_id":"free"},{"bike_id":"89f2ac45-7ea3-442c-a8f4-2c9024b6da95","system_id":"levelo_inurba_marseille","lat":43.33022,"lon":5.39043,"is_reserved":false,"is_disabled":false,"rental_uris":{"android":"levelo://app?vid=89f2ac45-7ea3-442c-a8f4-2c9024b6da95","ios":"levelo://app?vid=89f2ac45-7ea3-442c-a8f4-2c9024b6da95"},"vehicle_type_id":"4","last_reported":1707757569,"current_range_meters":23200,"station_id":"ce4bhr92rcd13ifvqhrg","pricing_plan_id":"free"},{"bike_id":"48576542-91f0-4bfa-9a8b-79195c60b528","system_id":"levelo_inurba_marseille","lat":43.33023,"lon":5.39042,"is_reserved":false,"is_disabled":false,"rental_uris":{"android":"levelo://app?vid=48576542-91f0-4bfa-9a8b-79195c60b528","ios":"levelo://app?vid=48576542-91f0-4bfa-9a8b-79195c60b528"},"vehicle_type_id":"4","last_reported":1707757569,"current_range_meters":20000,"station_id":"ce4bhr92rcd13ifvqhrg","pricing_plan_id":"free"},{"bike_id":"84c612fa-d1d7-4abf-9a85-0f2fae371c35","system_id":"levelo_inurba_marseille","lat":43.330442,"lon":5.389148,"is_reserved":false,"is_disabled":false,"rental_uris":{"android":"levelo://app?vid=84c612fa-d1d7-4abf-9a85-0f2fae371c35","ios":"levelo://app?vid=84c612fa-d1d7-4abf-9a85-0f2fae371c35"},"vehicle_type_id":"4","last_reported":1707757569,"current_range_meters":30000,"station_id":"ce4bhr92rcd13ifvqhrg","pricing_plan_id":"free"},{"bike_id":"03dfe2c2-0096-449c-bdb8-91c0e76ad904","system_id":"levelo_inurba_marseille","lat":43.330442,"lon":5.389148,"is_reserved":false,"is_disabled":false,"rental_uris":{"android":"levelo://app?vid=03dfe2c2-0096-449c-bdb8-91c0e76ad904","ios":"levelo://app?vid=03dfe2c2-0096-449c-bdb8-91c0e76ad904"},"vehicle_type_id":"4","last_reported":1707757569,"current_range_meters":26000,"station_id":"ce4bhr92rcd13ifvqhrg","pricing_plan_id":"free"},{"bike_id":"ca21e58c-40c8-4549-92f0-c57d86be085e","system_id":"levelo_inurba_marseille","lat":43.33019,"lon":5.39048,"is_reserved":false,"is_disabled":false,"rental_uris":{"android":"levelo://app?vid=ca21e58c-40c8-4549-92f0-c57d86be085e","ios":"levelo://app?vid=ca21e58c-40c8-4549-92f0-c57d86be085e"},"vehicle_type_id":"4","last_reported":1707757569,"current_range_meters":10000,"station_id":"ce4bhr92rcd13ifvqhrg","pricing_plan_id":"free"},{"bike_id":"af602cc9-8fce-4b81-9eea-85339194e55b","system_id":"levelo_inurba_marseille","lat":43.330442,"lon":5.389148,"is_reserved":false,"is_disabled":false,"rental_uris":{"android":"levelo://app?vid=af602cc9-8fce-4b81-9eea-85339194e55b","ios":"levelo://app?vid=af602cc9-8fce-4b81-9eea-85339194e55b"},"vehicle_type_id":"4","last_reported":1707757569,"current_range_meters":17200,"station_id":"ce4bhr92rcd13ifvqhrg","pricing_plan_id":"free"},{"bike_id":"b4c77a84-9e62-4a6d-b8d6-bb89dc72d115","system_id":"levelo_inurba_marseille","lat":43.330442,"lon":5.389148,"is_reserved":false,"is_disabled":false,"rental_uris":{"android":"levelo://app?vid=b4c77a84-9e62-4a6d-b8d6-bb89dc72d115","ios":"levelo://app?vid=b4c77a84-9e62-4a6d-b8d6-bb89dc72d115"},"vehicle_type_id":"4","last_reported":1707757569,"current_range_meters":5600,"station_id":"ce4bhr92rcd13ifvqhrg","pricing_plan_id":"free"},{"bike_id":"fb59313b-33b2-4dd7-864d-5eb20fc48a98","system_id":"levelo_inurba_marseille","lat":43.330227,"lon":5.39045,"is_reserved":false,"is_disabled":false,"rental_uris":{"android":"levelo://app?vid=fb59313b-33b2-4dd7-864d-5eb20fc48a98","ios":"levelo://app?vid=fb59313b-33b2-4dd7-864d-5eb20fc48a98"},"vehicle_type_id":"4","last_reported":1707757569,"current_range_meters":10800,"station_id":"ce4bhr92rcd13ifvqhrg","pricing_plan_id":"free"},{"bike_id":"d5324380-1f69-47da-a05a-321eace675e2","system_id":"levelo_inurba_marseille","lat":43.3302,"lon":5.3905,"is_reserved":false,"is_disabled":false,"rental_uris":{"android":"levelo://app?vid=d5324380-1f69-47da-a05a-321eace675e2","ios":"levelo://app?vid=d5324380-1f69-47da-a05a-321eace675e2"},"vehicle_type_id":"4","last_reported":1707757569,"current_range_meters":27200,"station_id":"ce4bhr92rcd13ifvqhrg","pricing_plan_id":"free"},{"bike_id":"0bb73f05-5a6b-4f46-8db9-cff4df97225c","system_id":"levelo_inurba_marseille","lat":43.330442,"lon":5.389148,"is_reserved":false,"is_disabled":false,"rental_uris":{"android":"levelo://app?vid=0bb73f05-5a6b-4f46-8db9-cff4df97225c","ios":"levelo://app?vid=0bb73f05-5a6b-4f46-8db9-cff4df97225c"},"vehicle_type_id":"4","last_reported":1707757569,"current_range_meters":7200,"station_id":"ce4bhr92rcd13ifvqhrg","pricing_plan_id":"free"},{"bike_id":"e92320c6-2076-4aee-8416-475298b6461d","system_id":"levelo_inurba_marseille","lat":43.33024,"lon":5.39046,"is_reserved":false,"is_disabled":false,"rental_uris":{"android":"levelo://app?vid=e92320c6-2076-4aee-8416-475298b6461d","ios":"levelo://app?vid=e92320c6-2076-4aee-8416-475298b6461d"},"vehicle_type_id":"4","last_reported":1707757569,"current_range_meters":12400,"station_id":"ce4bhr92rcd13ifvqhrg","pricing_plan_id":"free"},{"bike_id":"a1b335bd-6bb5-40cf-b551-fa5db7238f80","system_id":"levelo_inurba_marseille","lat":43.29032,"lon":5.38139,"is_reserved":false,"is_disabled":false,"rental_uris":{"android":"levelo://app?vid=a1b335bd-6bb5-40cf-b551-fa5db7238f80","ios":"levelo://app?vid=a1b335bd-6bb5-40cf-b551-fa5db7238f80"},"vehicle_type_id":"4","last_reported":1707757569,"current_range_meters":25200,"station_id":"ce4bh4p2rcd13ifvqe1g","pricing_plan_id":"free"},{"bike_id":"75b7c74c-388f-44e3-9b33-9997a4ae7f07","system_id":"levelo_inurba_marseille","lat":43.2901,"lon":5.381269,"is_reserved":false,"is_disabled":false,"rental_uris":{"android":"levelo://app?vid=75b7c74c-388f-44e3-9b33-9997a4ae7f07","ios":"levelo://app?vid=75b7c74c-388f-44e3-9b33-9997a4ae7f07"},"vehicle_type_id":"4","last_reported":1707757569,"current_range_meters":14000,"station_id":"ce4bh4p2rcd13ifvqe1g","pricing_plan_id":"free"},{"bike_id":"037eec35-626b-4a31-b677-a27c64bdf65e","system_id":"levelo_inurba_marseille","lat":43.33734,"lon":5.37427,"is_reserved":false,"is_disabled":false,"rental_uris":{"android":"levelo://app?vid=037eec35-626b-4a31-b677-a27c64bdf65e","ios":"levelo://app?vid=037eec35-626b-4a31-b677-a27c64bdf65e"},"vehicle_type_id":"4","last_reported":1707757569,"current_range_meters":16000,"station_id":"","pricing_plan_id":"free"},{"bike_id":"0eca0225-21aa-4cf8-985e-2e126476595a","system_id":"levelo_inurba_marseille","lat":43.309371,"lon":5.401449,"is_reserved":false,"is_disabled":false,"rental_uris":{"android":"levelo://app?vid=0eca0225-21aa-4cf8-985e-2e126476595a","ios":"levelo://app?vid=0eca0225-21aa-4cf8-985e-2e126476595a"},"vehicle_type_id":"4","last_reported":1707757569,"current_range_meters":24400,"station_id":"ce4bgvp2rcd13ifvqct0","pricing_plan_id":"free"},{"bike_id":"d9f8a5f3-5bc4-4a97-81de-34c8f3072320","system_id":"levelo_inurba_marseille","lat":43.312775,"lon":5.401722,"is_reserved":false,"is_disabled":false,"rental_uris":{"android":"levelo://app?vid=d9f8a5f3-5bc4-4a97-81de-34c8f3072320","ios":"levelo://app?vid=d9f8a5f3-5bc4-4a97-81de-34c8f3072320"},"vehicle_type_id":"4","last_reported":1707757569,"current_range_meters":17200,"station_id":"ce4bh092rcd13ifvqd30","pricing_plan_id":"free"},{"bike_id":"b4361e8d-d5af-4f8a-ac3f-5055a8982c1c","system_id":"levelo_inurba_marseille","lat":43.3127,"lon":5.40175,"is_reserved":false,"is_disabled":false,"rental_uris":{"android":"levelo://app?vid=b4361e8d-d5af-4f8a-ac3f-5055a8982c1c","ios":"levelo://app?vid=b4361e8d-d5af-4f8a-ac3f-5055a8982c1c"},"vehicle_type_id":"4","last_reported":1707757569,"current_range_meters":0,"station_id":"ce4bh092rcd13ifvqd30","pricing_plan_id":"free"},{"bike_id":"701780f7-c3df-480b-94d0-d600a919d3f3","system_id":"levelo_inurba_marseille","lat":43.30926,"lon":5.40142,"is_reserved":false,"is_disabled":false,"rental_uris":{"android":"levelo://app?vid=701780f7-c3df-480b-94d0-d600a919d3f3","ios":"levelo://app?vid=701780f7-c3df-480b-94d0-d600a919d3f3"},"vehicle_type_id":"4","last_reported":1707757569,"current_range_meters":0,"station_id":"ce4bgvp2rcd13ifvqct0","pricing_plan_id":"free"},{"bike_id":"6bd28faa-8afa-4166-95b1-4aeb0e000ea5","system_id":"levelo_inurba_marseille","lat":43.309371,"lon":5.401449,"is_reserved":false,"is_disabled":false,"rental_uris":{"android":"levelo://app?vid=6bd28faa-8afa-4166-95b1-4aeb0e000ea5","ios":"levelo://app?vid=6bd28faa-8afa-4166-95b1-4aeb0e000ea5"},"vehicle_type_id":"4","last_reported":1707757569,"current_range_meters":17200,"station_id":"ce4bgvp2rcd13ifvqct0","pricing_plan_id":"free"},{"bike_id":"8b52166f-edc7-4d5d-a519-f6de410f8d4f","system_id":"levelo_inurba_marseille","lat":43.309371,"lon":5.401449,"is_reserved":false,"is_disabled":false,"rental_uris":{"android":"levelo://app?vid=8b52166f-edc7-4d5d-a519-f6de410f8d4f","ios":"levelo://app?vid=8b52166f-edc7-4d5d-a519-f6de410f8d4f"},"vehicle_type_id":"4","last_reported":1707757569,"current_range_meters":16000,"station_id":"ce4bgvp2rcd13ifvqct0","pricing_plan_id":"free"},{"bike_id":"f152c38d-c73c-489d-b2e3-0f7601b80f1e","system_id":"levelo_inurba_marseille","lat":43.33753,"lon":5.37462,"is_reserved":false,"is_disabled":false,"rental_uris":{"android":"levelo://app?vid=f152c38d-c73c-489d-b2e3-0f7601b80f1e","ios":"levelo://app?vid=f152c38d-c73c-489d-b2e3-0f7601b80f1e"},"vehicle_type_id":"4","last_reported":1707757569,"current_range_meters":29200,"station_id":"","pricing_plan_id":"free"},{"bike_id":"0fe8f7bd-007c-4f36-9e87-3cf657602f6f","system_id":"levelo_inurba_marseille","lat":43.288303,"lon":5.35681,"is_reserved":false,"is_disabled":false,"rental_uris":{"android":"levelo://app?vid=0fe8f7bd-007c-4f36-9e87-3cf657602f6f","ios":"levelo://app?vid=0fe8f7bd-007c-4f36-9e87-3cf657602f6f"},"vehicle_type_id":"4","last_reported":1707757569,"current_range_meters":6400,"station_id":"","pricing_plan_id":"free"},{"bike_id":"a6bfc4d1-7e98-448d-945b-7235cd1aca20","system_id":"levelo_inurba_marseille","lat":43.3065,"lon":5.40108,"is_reserved":false,"is_disabled":false,"rental_uris":{"android":"levelo://app?vid=a6bfc4d1-7e98-448d-945b-7235cd1aca20","ios":"levelo://app?vid=a6bfc4d1-7e98-448d-945b-7235cd1aca20"},"vehicle_type_id":"4","last_reported":1707757569,"current_range_meters":20400,"station_id":"ce4bh112rcd13ifvqda0","pricing_plan_id":"free"},{"bike_id":"7357d9a8-aa08-44b8-86c6-6b392b43f3bd","system_id":"levelo_inurba_marseille","lat":43.30642,"lon":5.401031,"is_reserved":false,"is_disabled":false,"rental_uris":{"android":"levelo://app?vid=7357d9a8-aa08-44b8-86c6-6b392b43f3bd","ios":"levelo://app?vid=7357d9a8-aa08-44b8-86c6-6b392b43f3bd"},"vehicle_type_id":"4","last_reported":1707757569,"current_range_meters":24400,"station_id":"ce4bh112rcd13ifvqda0","pricing_plan_id":"free"},{"bike_id":"7019af75-83f5-4f67-95aa-9919bb6bd3dc","system_id":"levelo_inurba_marseille","lat":43.306412,"lon":5.401035,"is_reserved":false,"is_disabled":false,"rental_uris":{"android":"levelo://app?vid=7019af75-83f5-4f67-95aa-9919bb6bd3dc","ios":"levelo://app?vid=7019af75-83f5-4f67-95aa-9919bb6bd3dc"},"vehicle_type_id":"4","last_reported":1707757569,"current_range_meters":12000,"station_id":"ce4bh112rcd13ifvqda0","pricing_plan_id":"free"},{"bike_id":"8d6845fd-dc51-4f3d-9074-d8aaaf57488f","system_id":"levelo_inurba_marseille","lat":43.306412,"lon":5.401035,"is_reserved":false,"is_disabled":false,"rental_uris":{"android":"levelo://app?vid=8d6845fd-dc51-4f3d-9074-d8aaaf57488f","ios":"levelo://app?vid=8d6845fd-dc51-4f3d-9074-d8aaaf57488f"},"vehicle_type_id":"4","last_reported":1707757569,"current_range_meters":5600,"station_id":"ce4bh112rcd13ifvqda0","pricing_plan_id":"free"},{"bike_id":"0a079e20-494f-4aa0-9f57-36a6693c930f","system_id":"levelo_inurba_marseille","lat":43.301117,"lon":5.398795,"is_reserved":false,"is_disabled":false,"rental_uris":{"android":"levelo://app?vid=0a079e20-494f-4aa0-9f57-36a6693c930f","ios":"levelo://app?vid=0a079e20-494f-4aa0-9f57-36a6693c930f"},"vehicle_type_id":"4","last_reported":1707757569,"current_range_meters":15200,"station_id":"ce4bh0h2rcd13ifvqd40","pricing_plan_id":"free"},{"bike_id":"2c757c89-1dd5-49ad-b5a9-d68e64b20cf2","system_id":"levelo_inurba_marseille","lat":43.301117,"lon":5.398795,"is_reserved":false,"is_disabled":false,"rental_uris":{"android":"levelo://app?vid=2c757c89-1dd5-49ad-b5a9-d68e64b20cf2","ios":"levelo://app?vid=2c757c89-1dd5-49ad-b5a9-d68e64b20cf2"},"vehicle_type_id":"4","last_reported":1707757569,"current_range_meters":4800,"station_id":"ce4bh0h2rcd13ifvqd40","pricing_plan_id":"free"},{"bike_id":"80b63db4-290b-446b-adcb-5e6437c586b3","system_id":"levelo_inurba_marseille","lat":43.301117,"lon":5.398795,"is_reserved":false,"is_disabled":false,"rental_uris":{"android":"levelo://app?vid=80b63db4-290b-446b-adcb-5e6437c586b3","ios":"levelo://app?vid=80b63db4-290b-446b-adcb-5e6437c586b3"},"vehicle_type_id":"4","last_reported":1707757569,"current_range_meters":13200,"station_id":"ce4bh0h2rcd13ifvqd40","pricing_plan_id":"free"},{"bike_id":"2fa822bc-94a2-404e-8d4d-33661a239021","system_id":"levelo_inurba_marseille","lat":43.301117,"lon":5.398795,"is_reserved":false,"is_disabled":false,"rental_uris":{"android":"levelo://app?vid=2fa822bc-94a2-404e-8d4d-33661a239021","ios":"levelo://app?vid=2fa822bc-94a2-404e-8d4d-33661a239021"},"vehicle_type_id":"4","last_reported":1707757569,"current_range_meters":29200,"station_id":"ce4bh0h2rcd13ifvqd40","pricing_plan_id":"free"},{"bike_id":"feb159d4-d9c2-44ed-89c9-61846656018d","system_id":"levelo_inurba_marseille","lat":43.30129,"lon":5.39866,"is_reserved":false,"is_disabled":false,"rental_uris":{"android":"levelo://app?vid=feb159d4-d9c2-44ed-89c9-61846656018d","ios":"levelo://app?vid=feb159d4-d9c2-44ed-89c9-61846656018d"},"vehicle_type_id":"4","last_reported":1707757569,"current_range_meters":0,"station_id":"ce4bh0h2rcd13ifvqd40","pricing_plan_id":"free"},{"bike_id":"7185adcd-6d5c-4248-8634-01d84c6623ae","system_id":"levelo_inurba_marseille","lat":43.30121,"lon":5.39869,"is_reserved":false,"is_disabled":false,"rental_uris":{"android":"levelo://app?vid=7185adcd-6d5c-4248-8634-01d84c6623ae","ios":"levelo://app?vid=7185adcd-6d5c-4248-8634-01d84c6623ae"},"vehicle_type_id":"4","last_reported":1707757569,"current_range_meters":31200,"station_id":"ce4bh0h2rcd13ifvqd40","pricing_plan_id":"free"},{"bike_id":"ecbdfe8d-daaf-40c1-8e3b-5dc7f91025d5","system_id":"levelo_inurba_marseille","lat":43.301117,"lon":5.398795,"is_reserved":false,"is_disabled":false,"rental_uris":{"android":"levelo://app?vid=ecbdfe8d-daaf-40c1-8e3b-5dc7f91025d5","ios":"levelo://app?vid=ecbdfe8d-daaf-40c1-8e3b-5dc7f91025d5"},"vehicle_type_id":"4","last_reported":1707757569,"current_range_meters":30400,"station_id":"ce4bh0h2rcd13ifvqd40","pricing_plan_id":"free"},{"bike_id":"905f81ba-164d-416a-b353-d3eb6132b4de","system_id":"levelo_inurba_marseille","lat":43.30134,"lon":5.3988,"is_reserved":false,"is_disabled":false,"rental_uris":{"android":"levelo://app?vid=905f81ba-164d-416a-b353-d3eb6132b4de","ios":"levelo://app?vid=905f81ba-164d-416a-b353-d3eb6132b4de"},"vehicle_type_id":"4","last_reported":1707757569,"current_range_meters":31200,"station_id":"ce4bh0h2rcd13ifvqd40","pricing_plan_id":"free"},{"bike_id":"e5d01b9e-a538-414e-bb14-b762e3ca1f95","system_id":"levelo_inurba_marseille","lat":43.290785,"lon":5.385791,"is_reserved":false,"is_disabled":false,"rental_uris":{"android":"levelo://app?vid=e5d01b9e-a538-414e-bb14-b762e3ca1f95","ios":"levelo://app?vid=e5d01b9e-a538-414e-bb14-b762e3ca1f95"},"vehicle_type_id":"4","last_reported":1707757569,"current_range_meters":0,"station_id":"ce4bh4p2rcd13ifvqe0g","pricing_plan_id":"free"},{"bike_id":"c119ecad-04f9-4864-b85d-ef1cfbbe450c","system_id":"levelo_inurba_marseille","lat":43.28727,"lon":5.36078,"is_reserved":false,"is_disabled":false,"rental_uris":{"android":"levelo://app?vid=c119ecad-04f9-4864-b85d-ef1cfbbe450c","ios":"levelo://app?vid=c119ecad-04f9-4864-b85d-ef1cfbbe450c"},"vehicle_type_id":"4","last_reported":1707757569,"current_range_meters":4400,"station_id":"cki0cbj6b192h4jlfktg","pricing_plan_id":"free"},{"bike_id":"1ab76997-dd7f-4901-ab19-062027abe26b","system_id":"levelo_inurba_marseille","lat":43.286591,"lon":5.363346,"is_reserved":false,"is_disabled":false,"rental_uris":{"android":"levelo://app?vid=1ab76997-dd7f-4901-ab19-062027abe26b","ios":"levelo://app?vid=1ab76997-dd7f-4901-ab19-062027abe26b"},"vehicle_type_id":"4","last_reported":1707757569,"current_range_meters":11600,"station_id":"ce4bhah2rcd13ifvqej0","pricing_plan_id":"free"},{"bike_id":"1ac67171-bc2c-428d-8b5f-b0d92c9bea19","system_id":"levelo_inurba_marseille","lat":43.286591,"lon":5.363346,"is_reserved":false,"is_disabled":false,"rental_uris":{"android":"levelo://app?vid=1ac67171-bc2c-428d-8b5f-b0d92c9bea19","ios":"levelo://app?vid=1ac67171-bc2c-428d-8b5f-b0d92c9bea19"},"vehicle_type_id":"4","last_reported":1707757569,"current_range_meters":9200,"station_id":"ce4bhah2rcd13ifvqej0","pricing_plan_id":"free"},{"bike_id":"285c9801-aa1d-4593-85dd-ab70d4350c57","system_id":"levelo_inurba_marseille","lat":43.286593,"lon":5.363346,"is_reserved":false,"is_disabled":false,"rental_uris":{"android":"levelo://app?vid=285c9801-aa1d-4593-85dd-ab70d4350c57","ios":"levelo://app?vid=285c9801-aa1d-4593-85dd-ab70d4350c57"},"vehicle_type_id":"4","last_reported":1707757569,"current_range_meters":19200,"station_id":"ce4bhah2rcd13ifvqej0","pricing_plan_id":"free"},{"bike_id":"23ac5dc4-ecb7-4b7c-871a-af6e15fb1a2e","system_id":"levelo_inurba_marseille","lat":43.298681,"lon":5.397225,"is_reserved":false,"is_disabled":false,"rental_uris":{"android":"levelo://app?vid=23ac5dc4-ecb7-4b7c-871a-af6e15fb1a2e","ios":"levelo://app?vid=23ac5dc4-ecb7-4b7c-871a-af6e15fb1a2e"},"vehicle_type_id":"4","last_reported":1707757569,"current_range_meters":4000,"station_id":"ce4bh0h2rcd13ifvqd50","pricing_plan_id":"free"},{"bike_id":"60fe7410-3d34-4042-aa72-504ba5aac3e3","system_id":"levelo_inurba_marseille","lat":43.286961,"lon":5.373785,"is_reserved":false,"is_disabled":false,"rental_uris":{"android":"levelo://app?vid=60fe7410-3d34-4042-aa72-504ba5aac3e3","ios":"levelo://app?vid=60fe7410-3d34-4042-aa72-504ba5aac3e3"},"vehicle_type_id":"4","last_reported":1707757569,"current_range_meters":13600,"station_id":"ce4bh3p2rcd13ifvqdq0","pricing_plan_id":"free"},{"bike_id":"1385c3b2-54c4-44b9-8ac4-08cf1091c4c2","system_id":"levelo_inurba_marseille","lat":43.286961,"lon":5.373785,"is_reserved":false,"is_disabled":false,"rental_uris":{"android":"levelo://app?vid=1385c3b2-54c4-44b9-8ac4-08cf1091c4c2","ios":"levelo://app?vid=1385c3b2-54c4-44b9-8ac4-08cf1091c4c2"},"vehicle_type_id":"4","last_reported":1707757569,"current_range_meters":12400,"station_id":"ce4bh3p2rcd13ifvqdq0","pricing_plan_id":"free"},{"bike_id":"1bb8a7db-1dde-4f97-bd2c-01d0f98c2860","system_id":"levelo_inurba_marseille","lat":43.286961,"lon":5.373785,"is_reserved":false,"is_disabled":false,"rental_uris":{"android":"levelo://app?vid=1bb8a7db-1dde-4f97-bd2c-01d0f98c2860","ios":"levelo://app?vid=1bb8a7db-1dde-4f97-bd2c-01d0f98c2860"},"vehicle_type_id":"4","last_reported":1707757569,"current_range_meters":14800,"station_id":"ce4bh3p2rcd13ifvqdq0","pricing_plan_id":"free"},