{"last_updated":1769886805,"ttl":60,"version":"2.2","data":{"bikes":[{"bike_id":"0720249e-09c0-4379-97be-d516b12d0cb4","system_id":"levelo_inurba_marseille","lat":43.31896,"lon":5.36737,"is_reserved":false,"is_disabled":false,"rental_uris":{"android":"levelo://app?vid=0720249e-09c0-4379-97be-d516b12d0cb4","ios":"levelo://app?vid=0720249e-09c0-4379-97be-d516b12d0cb4"},"vehicle_type_id":"4","last_reported":1769886806,"current_range_meters":2800,"station_id":"","pricing_plan_id":"cebpf4jnsgd1na2vs0mg"},{"bike_id":"493ee9e2-2390-41a2-8e87-685563d9ba91","system_id":"levelo_inurba_marseille","lat":43.30886,"lon":5.39641,"is_reserved":false,"is_disabled":false,"rental_uris":{"android":"levelo://app?vid=493ee9e2-2390-41a2-8e87-685563d9ba91","ios":"levelo://app?vid=493ee9e2-2390-41a2-8e87-685563d9ba91"},"vehicle_type_id":"4","last_reported":1769886806,"current_range_meters":2800,"station_id":"ce4bh012rcd13ifvqcv0","pricing_plan_id":"cebpf4jnsgd1na2vs0mg"},{"bike_id":"2626a307-09e6-4806-8747-64c64cf9b162","system_id":"levelo_inurba_marseille","lat":43.2446,"lon":5.42554,"is_reserved":false,"is_disabled":false,"rental_uris":{"android":"levelo://app?vid=2626a307-09e6-4806-8747-64c64cf9b162","ios":"levelo://app?vid=2626a307-09e6-4806-8747-64c64cf9b162"},"vehicle_type_id":"4","last_reported":1769886806,"current_range_meters":2800,"station_id":"st_d4a3vfp97mjs738cd8kg","pricing_plan_id":"cebpf4jnsgd1na2vs0mg"},{"bike_id":"a8ebc4dd-fdf2-4ba5-a349-8fdd6cb1a783","system_id":"levelo_inurba_marseille","lat":43.29912,"lon":5.38139,"is_reserved":false,"is_disabled":false,"rental_uris":{"android":"levelo://app?vid=a8ebc4dd-fdf2-4ba5-a349-8fdd6cb1a783","ios":"levelo://app?vid=a8ebc4dd-fdf2-4ba5-a349-8fdd6cb1a783"},"vehicle_type_id":"4","last_reported":1769886806,"current_range_meters":2800,"station_id":"ce4bgj12rcd13ifvqbc0","pricing_plan_id":"cebpf4jnsgd1na2vs0mg"},{"bike_id":"21335747-3add-49bb-95b9-081d777d30db","system_id":"levelo_inurba_marseille","lat":43.23177,"lon":5.4,"is_reserved":false,"is_disabled":false,"rental_uris":{"android":"levelo://app?vid=21335747-3add-49bb-95b9-081d777d30db","ios":"levelo://app?vid=21335747-3add-49bb-95b9-081d777d30db"},"vehicle_type_id":"4","last_reported":1769886806,"current_range_meters":2800,"station_id":"ce4bhn12rcd13ifvqgqg","pricing_plan_id":"cebpf4jnsgd1na2vs0mg"},{"bike_id":"87ed54f3-52d3-4a5e-9657-a65252ddca08","system_id":"levelo_inurba_marseille","lat":43.31183,"lon":5.38698,"is_reserved":false,"is_disabled":false,"rental_uris":{"android":"levelo://app?vid=87ed54f3-52d3-4a5e-9657-a65252ddca08","ios":"levelo://app?vid=87ed54f3-52d3-4a5e-9657-a65252ddca08"},"vehicle_type_id":"4","last_reported":1769886806,"current_range_meters":2800,"station_id":"ce4bgv12rcd13ifvqcp0","pricing_plan_id":"cebpf4jnsgd1na2vs0mg"},{"bike_id":"3060190c-6cec-4949-9b3b-06b5462b964e","system_id":"levelo_inurba_marseille","lat":43.23208,"lon":5.35546,"is_reserved":false,"is_disabled":false,"rental_uris":{"android":"levelo://app?vid=3060190c-6cec-4949-9b3b-06b5462b964e","ios":"levelo://app?vid=3060190c-6cec-4949-9b3b-06b5462b964e"},"vehicle_type_id":"4","last_reported":1769886806,"current_range_meters":2800,"station_id":"ce4bhu92rcd13ifvqi70","pricing_plan_id":"cebpf4jnsgd1na2vs0mg"},{"bike_id":"be59a1fa-fcbd-4f35-ac1f-ae4c97b5126c","system_id":"levelo_inurba_marseille","lat":43.21759,"lon":5.34635,"is_reserved":false,"is_disabled":false,"rental_uris":{"android":"levelo://app?vid=be59a1fa-fcbd-4f35-ac1f-ae4c97b5126c","ios":"levelo://app?vid=be59a1fa-fcbd-4f35-ac1f-ae4c97b5126c"},"vehicle_type_id":"4","last_reported":1769886806,"current_range_meters":2800,"station_id":"st_cvj6r9ubvosntc0bgbag","pricing_plan_id":"cebpf4jnsgd1na2vs0mg"},{"bike_id":"67dde3a5-6719-400f-9754-ba07b063d126","system_id":"levelo_inurba_marseille","lat":43.22568,"lon":5.41636,"is_reserved":false,"is_disabled":false,"rental_uris":{"android":"levelo://app?vid=67dde3a5-6719-400f-9754-ba07b063d126","ios":"levelo://app?vid=67dde3a5-6719-400f-9754-ba07b063d126"},"vehicle_type_id":"4","last_reported":1769886806,"current_range_meters":3200,"station_id":"st_d2o4gvlbi1j2169b742g","pricing_plan_id":"cebpf4jnsgd1na2vs0mg"},{"bike_id":"1e768992-55e7-4d55-8893-f866fd6efb43","system_id":"levelo_inurba_marseille","lat":43.26565,"lon":5.40313,"is_reserved":false,"is_disabled":false,"rental_uris":{"android":"levelo://app?vid=1e768992-55e7-4d55-8893-f866fd6efb43","ios":"levelo://app?vid=1e768992-55e7-4d55-8893-f866fd6efb43"},"vehicle_type_id":"4","last_reported":1769886806,"current_range_meters":3200,"station_id":"ce4bhmp2rcd13ifvqgng","pricing_plan_id":"cebpf4jnsgd1na2vs0mg"},{"bike_id":"ed49719e-ebdf-4e11-bee6-46418a0b21a1","system_id":"levelo_inurba_marseille","lat":43.25865,"lon":5.39902,"is_reserved":false,"is_disabled":false,"rental_uris":{"android":"levelo://app?vid=ed49719e-ebdf-4e11-bee6-46418a0b21a1","ios":"levelo://app?vid=ed49719e-ebdf-4e11-bee6-46418a0b21a1"},"vehicle_type_id":"4","last_reported":1769886806,"current_range_meters":3200,"station_id":"ce4bhl92rcd13ifvqghg","pricing_plan_id":"cebpf4jnsgd1na2vs0mg"},{"bike_id":"94842764-1da0-47c3-981d-a8a494b1c082","system_id":"levelo_inurba_marseille","lat":43.24628,"lon":5.38916,"is_reserved":false,"is_disabled":false,"rental_uris":{"android":"levelo://app?vid=94842764-1da0-47c3-981d-a8a494b1c082","ios":"levelo://app?vid=94842764-1da0-47c3-981d-a8a494b1c082"},"vehicle_type_id":"4","last_reported":1769886806,"current_range_meters":3200,"station_id":"ce4bhg12rcd13ifvqf60","pricing_plan_id":"cebpf4jnsgd1na2vs0mg"},{"bike_id":"d278f49b-79cb-49d4-9147-2a87ca70efd2","system_id":"levelo_inurba_marseille","lat":43.24645,"lon":5.38897,"is_reserved":false,"is_disabled":false,"rental_uris":{"android":"levelo://app?vid=d278f49b-79cb-49d4-9147-2a87ca70efd2","ios":"levelo://app?vid=d278f49b-79cb-49d4-9147-2a87ca70efd2"},"vehicle_type_id":"4","last_reported":1769886806,"current_range_meters":3200,"station_id":"ce4bhg12rcd13ifvqf60","pricing_plan_id":"cebpf4jnsgd1na2vs0mg"},{"bike_id":"f8861002-c2d1-4382-86d1-5d946b173330","system_id":"levelo_inurba_marseille","lat":43.21746,"lon":5.34593,"is_reserved":false,"is_disabled":false,"rental_uris":{"android":"levelo://app?vid=f8861002-c2d1-4382-86d1-5d946b173330","ios":"levelo://app?vid=f8861002-c2d1-4382-86d1-5d946b173330"},"vehicle_type_id":"4","last_reported":1769886806,"current_range_meters":3600,"station_id":"st_cvj6r9ubvosntc0bgbag","pricing_plan_id":"cebpf4jnsgd1na2vs0mg"},{"bike_id":"3a795183-32ba-4ad0-9275-1ac3f252a81b","system_id":"levelo_inurba_marseille","lat":43.27984,"lon":5.41652,"is_reserved":false,"is_disabled":false,"rental_uris":{"android":"levelo://app?vid=3a795183-32ba-4ad0-9275-1ac3f252a81b","ios":"levelo://app?vid=3a795183-32ba-4ad0-9275-1ac3f252a81b"},"vehicle_type_id":"4","last_reported":1769886806,"current_range_meters":3600,"station_id":"ce4bho12rcd13ifvqh1g","pricing_plan_id":"cebpf4jnsgd1na2vs0mg"},{"bike_id":"a7de27ea-8634-4ae6-a2ec-1856a5abc228","system_id":"levelo_inurba_marseille","lat":43.22927,"lon":5.35373,"is_reserved":false,"is_disabled":false,"rental_uris":{"android":"levelo://app?vid=a7de27ea-8634-4ae6-a2ec-1856a5abc228","ios":"levelo://app?vid=a7de27ea-8634-4ae6-a2ec-1856a5abc228"},"vehicle_type_id":"4","last_reported":1769886806,"current_range_meters":3600,"station_id":"cpo3532slgdg3j2ikp40","pricing_plan_id":"cebpf4jnsgd1na2vs0mg"},{"bike_id":"cc3cfa52-86a4-4529-bc22-f797aba0641d","system_id":"levelo_inurba_marseille","lat":43.31195,"lon":5.37724,"is_reserved":false,"is_disabled":false,"rental_uris":{"android":"levelo://app?vid=cc3cfa52-86a4-4529-bc22-f797aba0641d","ios":"levelo://app?vid=cc3cfa52-86a4-4529-bc22-f797aba0641d"},"vehicle_type_id":"4","last_reported":1769886806,"current_range_meters":3600,"station_id":"ce4bgt92rcd13ifvqcg0","pricing_plan_id":"cebpf4jnsgd1na2vs0mg"},{"bike_id":"e6335036-d9eb-4959-92c1-38947a38d32b","system_id":"levelo_inurba_marseille","lat":43.27996,"lon":5.40004,"is_reserved":false,"is_disabled":false,"rental_uris":{"android":"levelo://app?vid=e6335036-d9eb-4959-92c1-38947a38d32b","ios":"levelo://app?vid=e6335036-d9eb-4959-92c1-38947a38d32b"},"vehicle_type_id":"4","last_reported":1769886806,"current_range_meters":3600,"station_id":"ce4bho92rcd13ifvqh4g","pricing_plan_id":"cebpf4jnsgd1na2vs0mg"},{"bike_id":"c2029e8e-62e9-40bd-90c8-2d85b607b409","system_id":"levelo_inurba_marseille","lat":43.29757,"lon":5.4278,"is_reserved":false,"is_disabled":false,"rental_uris":{"android":"levelo://app?vid=c2029e8e-62e9-40bd-90c8-2d85b607b409","ios":"levelo://app?vid=c2029e8e-62e9-40bd-90c8-2d85b607b409"},"vehicle_type_id":"4","last_reported":1769886806,"current_range_meters":4000,"station_id":"st_d3md5207bmas73dh9klg","pricing_plan_id":"cebpf4jnsgd1na2vs0mg"},{"bike_id":"b864ecbc-5a09-445e-bbfb-ad118d8a3cb3","system_id":"levelo_inurba_marseille","lat":43.29755,"lon":5.42783,"is_reserved":false,"is_disabled":false,"rental_uris":{"android":"levelo://app?vid=b864ecbc-5a09-445e-bbfb-ad118d8a3cb3","ios":"levelo://app?vid=b864ecbc-5a09-445e-bbfb-ad118d8a3cb3"},"vehicle_type_id":"4","last_reported":1769886806,"current_range_meters":4000,"station_id":"st_d3md5207bmas73dh9klg","pricing_plan_id":"cebpf4jnsgd1na2vs0mg"},{"bike_id":"3c07e8db-1d64-4b7a-879d-8b774c3d7e0c","system_id":"levelo_inurba_marseille","lat":43.27376,"lon":5.36255,"is_reserved":false,"is_disabled":false,"rental_uris":{"android":"levelo://app?vid=3c07e8db-1d64-4b7a-879d-8b774c3d7e0c","ios":"levelo://app?vid=3c07e8db-1d64-4b7a-879d-8b774c3d7e0c"},"vehicle_type_id":"4","last_reported":1769886806,"current_range_meters":4000,"station_id":"ce4bhbh2rcd13ifvqeo0","pricing_plan_id":"cebpf4jnsgd1na2vs0mg"},{"bike_id":"facf5c8d-7adf-4b26-81c3-f2dd54937001","system_id":"levelo_inurba_marseille","lat":43.22542,"lon":5.34833,"is_reserved":false,"is_disabled":false,"rental_uris":{"android":"levelo://app?vid=facf5c8d-7adf-4b26-81c3-f2dd54937001","ios":"levelo://app?vid=facf5c8d-7adf-4b26-81c3-f2dd54937001"},"vehicle_type_id":"4","last_reported":1769886806,"current_range_meters":4000,"station_id":"st_cvj5dfep6f1abm77gieg","pricing_plan_id":"cebpf4jnsgd1na2vs0mg"},{"bike_id":"efd45514-040f-4cba-9edb-5baa313499c1","system_id":"levelo_inurba_marseille","lat":43.26788,"lon":5.39409,"is_reserved":false,"is_disabled":false,"rental_uris":{"android":"levelo://app?vid=efd45514-040f-4cba-9edb-5baa313499c1","ios":"levelo://app?vid=efd45514-040f-4cba-9edb-5baa313499c1"},"vehicle_type_id":"4","last_reported":1769886806,"current_range_meters":4000,"station_id":"ce4bhh12rcd13ifvqfg0","pricing_plan_id":"cebpf4jnsgd1na2vs0mg"},{"bike_id":"97cd5e3e-9242-4d1a-bf92-abba63d9cb46","system_id":"levelo_inurba_marseille","lat":43.28019,"lon":5.36931,"is_reserved":false,"is_disabled":false,"rental_uris":{"android":"levelo://app?vid=97cd5e3e-9242-4d1a-bf92-abba63d9cb46","ios":"levelo://app?vid=97cd5e3e-9242-4d1a-bf92-abba63d9cb46"},"vehicle_type_id":"4","last_reported":1769886806,"current_range_meters":4000,"station_id":"ce4bha12rcd13ifvqef0","pricing_plan_id":"cebpf4jnsgd1na2vs0mg"},{"bike_id":"b3808154-86af-47d0-966c-f1cc0984587d","system_id":"levelo_inurba_marseille","lat":43.33768,"lon":5.37472,"is_reserved":false,"is_disabled":false,"rental_uris":{"android":"levelo://app?vid=b3808154-86af-47d0-966c-f1cc0984587d","ios":"levelo://app?vid=b3808154-86af-47d0-966c-f1cc0984587d"},"vehicle_type_id":"4","last_reported":1769886806,"current_range_meters":4000,"station_id":"","pricing_plan_id":"cebpf4jnsgd1na2vs0mg"},{"bike_id":"62689d47-c48d-4328-a880-92e5c2c23c08","system_id":"levelo_inurba_marseille","lat":43.2841,"lon":5.37522,"is_reserved":false,"is_disabled":false,"rental_uris":{"android":"levelo://app?vid=62689d47-c48d-4328-a880-92e5c2c23c08","ios":"levelo://app?vid=62689d47-c48d-4328-a880-92e5c2c23c08"},"vehicle_type_id":"4","last_reported":1769886806,"current_range_meters":4400,"station_id":"ce4bh412rcd13ifvqds0","pricing_plan_id":"cebpf4jnsgd1na2vs0mg"},{"bike_id":"66c76971-021f-497e-8d79-ee99d65fdb67","system_id":"levelo_inurba_marseille","lat":43.2557,"lon":5.38245,"is_reserved":false,"is_disabled":false,"rental_uris":{"android":"levelo://app?vid=66c76971-021f-497e-8d79-ee99d65fdb67","ios":"levelo://app?vid=66c76971-021f-497e-8d79-ee99d65fdb67"},"vehicle_type_id":"4","last_reported":1769886806,"current_range_meters":4400,"station_id":"ce4bhih2rcd13ifvqfs0","pricing_plan_id":"cebpf4jnsgd1na2vs0mg"},{"bike_id":"4578bb0a-a496-4315-9e86-5a0c2df65bd4","system_id":"levelo_inurba_marseille","lat":43.24665,"lon":5.38148,"is_reserved":false,"is_disabled":false,"rental_uris":{"android":"levelo://app?vid=4578bb0a-a496-4315-9e86-5a0c2df65bd4","ios":"levelo://app?vid=4578bb0a-a496-4315-9e86-5a0c2df65bd4"},"vehicle_type_id":"4","last_reported":1769886806,"current_range_meters":4400,"station_id":"ce4bhih2rcd13ifvqfr0","pricing_plan_id":"cebpf4jnsgd1na2vs0mg"},{"bike_id":"d57877dd-bf49-46b8-a311-0229d9330d0c","system_id":"levelo_inurba_marseille","lat":43.30731,"lon":5.42453,"is_reserved":false,"is_disabled":false,"rental_uris":{"android":"levelo://app?vid=d57877dd-bf49-46b8-a311-0229d9330d0c","ios":"levelo://app?vid=d57877dd-bf49-46b8-a311-0229d9330d0c"},"vehicle_type_id":"4","last_reported":1769886806,"current_range_meters":4400,"station_id":"st_cvj6ca6bvosntc0bfgr0","pricing_plan_id":"cebpf4jnsgd1na2vs0mg"},{"bike_id":"7dfd9af7-42a2-4fcb-818c-1bb662998548","system_id":"levelo_inurba_marseille","lat":43.28514,"lon":5.38458,"is_reserved":false,"is_disabled":false,"rental_uris":{"android":"levelo://app?vid=7dfd9af7-42a2-4fcb-818c-1bb662998548","ios":"levelo://app?vid=7dfd9af7-42a2-4fcb-818c-1bb662998548"},"vehicle_type_id":"4","last_reported":1769886806,"current_range_meters":4400,"station_id":"","pricing_plan_id":"cebpf4jnsgd1na2vs0mg"},{"bike_id":"2946e9db-ff58-4a52-8078-31c354acf915","system_id":"levelo_inurba_marseille","lat":43.24718,"lon":5.38163,"is_reserved":false,"is_disabled":false,"rental_uris":{"android":"levelo://app?vid=2946e9db-ff58-4a52-8078-31c354acf915","ios":"levelo://app?vid=2946e9db-ff58-4a52-8078-31c354acf915"},"vehicle_type_id":"4","last_reported":1769886806,"current_range_meters":4400,"station_id":"","pricing_plan_id":"cebpf4jnsgd1na2vs0mg"},{"bike_id":"1ae2d96d-59b0-469c-b070-5c6aa648ad29","system_id":"levelo_inurba_marseille","lat":43.24173,"lon":5.36415,"is_reserved":false,"is_disabled":false,"rental_uris":{"android":"levelo://app?vid=1ae2d96d-59b0-469c-b070-5c6aa648ad29","ios":"levelo://app?vid=1ae2d96d-59b0-469c-b070-5c6aa648ad29"},"vehicle_type_id":"4","last_reported":1769886806,"current_range_meters":4400,"station_id":"cpo36qri1sfpv3e86is0","pricing_plan_id":"cebpf4jnsgd1na2vs0mg"},{"bike_id":"d0f0a797-6459-4f9d-ad91-61257735c0b0","system_id":"levelo_inurba_marseille","lat":43.2841,"lon":5.37504,"is_reserved":false,"is_disabled":false,"rental_uris":{"android":"levelo://app?vid=d0f0a797-6459-4f9d-ad91-61257735c0b0","ios":"levelo://app?vid=d0f0a797-6459-4f9d-ad91-61257735c0b0"},"vehicle_type_id":"4","last_reported":1769886806,"current_range_meters":4800,"station_id":"ce4bh412rcd13ifvqds0","pricing_plan_id":"cebpf4jnsgd1na2vs0mg"},{"bike_id":"b8538ea1-5c66-4a72-881d-32abab5c79f9","system_id":"levelo_inurba_marseille","lat":43.24175,"lon":5.39697,"is_reserved":false,"is_disabled":false,"rental_uris":{"android":"levelo://app?vid=b8538ea1-5c66-4a72-881d-32abab5c79f9","ios":"levelo://app?vid=b8538ea1-5c66-4a72-881d-32abab5c79f9"},"vehicle_type_id":"4","last_reported":1769886806,"current_range_meters":4800,"station_id":"ce4bhn12rcd13ifvqgpg","pricing_plan_id":"cebpf4jnsgd1na2vs0mg"},{"bike_id":"e0529776-2176-417f-8dfc-c2549a882463","system_id":"levelo_inurba_marseille","lat":43.28105,"lon":5.37858,"is_reserved":false,"is_disabled":false,"rental_uris":{"android":"levelo://app?vid=e0529776-2176-417f-8dfc-c2549a882463","ios":"levelo://app?vid=e0529776-2176-417f-8dfc-c2549a882463"},"vehicle_type_id":"4","last_reported":1769886806,"current_range_meters":4800,"station_id":"ce4bha12rcd13ifvqee0","pricing_plan_id":"cebpf4jnsgd1na2vs0mg"},{"bike_id":"baf248f9-5742-46ff-b3e8-5fa5e1b7ff48","system_id":"levelo_inurba_marseille","lat":43.30238,"lon":5.40026,"is_reserved":false,"is_disabled":true,"rental_uris":{"android":"levelo://app?vid=baf248f9-5742-46ff-b3e8-5fa5e1b7ff48","ios":"levelo://app?vid=baf248f9-5742-46ff-b3e8-5fa5e1b7ff48"},"vehicle_type_id":"4","last_reported":1769886806,"current_range_meters":4800,"station_id":"","pricing_plan_id":"cebpf4jnsgd1na2vs0mg"},{"bike_id":"a633dcb8-69cc-416a-ac75-271c195c29ed","system_id":"levelo_inurba_marseille","lat":43.25504,"lon":5.37647,"is_reserved":false,"is_disabled":false,"rental_uris":{"android":"levelo://app?vid=a633dcb8-69cc-416a-ac75-271c195c29ed","ios":"levelo://app?vid=a633dcb8-69cc-416a-ac75-271c195c29ed"},"vehicle_type_id":"4","last_reported":1769886806,"current_range_meters":4800,"station_id":"ce4bhh12rcd13ifvqff0","pricing_plan_id":"cebpf4jnsgd1na2vs0mg"},{"bike_id":"57a24675-eacf-447b-b4d7-4910ab25f751","system_id":"levelo_inurba_marseille","lat":43.27361,"lon":5.36239,"is_reserved":false,"is_disabled":false,"rental_uris":{"android":"levelo://app?vid=57a24675-eacf-447b-b4d7-4910ab25f751","ios":"levelo://app?vid=57a24675-eacf-447b-b4d7-4910ab25f751"},"vehicle_type_id":"4","last_reported":1769886806,"current_range_meters":4800,"station_id":"ce4bhbh2rcd13ifvqeo0","pricing_plan_id":"cebpf4jnsgd1na2vs0mg"},{"bike_id":"69bd550d-bae4-47b4-8ea1-fdf2613d9cd6","system_id":"levelo_inurba_marseille","lat":43.2396,"lon":5.36629,"is_reserved":false,"is_disabled":false,"rental_uris":{"android":"levelo://app?vid=69bd550d-bae4-47b4-8ea1-fdf2613d9cd6","ios":"levelo://app?vid=69bd550d-bae4-47b4-8ea1-fdf2613d9cd6"},"vehicle_type_id":"4","last_reported":1769886806,"current_range_meters":4800,"station_id":"ce4bhi12rcd13ifvqfp0","pricing_plan_id":"cebpf4jnsgd1na2vs0mg"},{"bike_id":"e703e95b-29d0-45e1-801b-f3b45a83114a","system_id":"levelo_inurba_marseille","lat":43.29206,"lon":5.39987,"is_reserved":false,"is_disabled":false,"rental_uris":{"android":"levelo://app?vid=e703e95b-29d0-45e1-801b-f3b45a83114a","ios":"levelo://app?vid=e703e95b-29d0-45e1-801b-f3b45a83114a"},"vehicle_type_id":"4","last_reported":1769886806,"current_range_meters":4800,"station_id":"","pricing_plan_id":"cebpf4jnsgd1na2vs0mg"},{"bike_id":"f933f76a-a04f-4d19-a84b-598d7a8cec6c","system_id":"levelo_inurba_marseille","lat":43.29401,"lon":5.37854,"is_reserved":false,"is_disabled":false,"rental_uris":{"android":"levelo://app?vid=f933f76a-a04f-4d19-a84b-598d7a8cec6c","ios":"levelo://app?vid=f933f76a-a04f-4d19-a84b-598d7a8cec6c"},"vehicle_type_id":"4","last_reported":1769886806,"current_range_meters":4800,"station_id":"ce4bgjh2rcd13ifvqbf0","pricing_plan_id":"cebpf4jnsgd1na2vs0mg"},{"bike_id":"b98bcdfd-abd9-4de1-85fe-a3f97350d459","system_id":"levelo_inurba_marseille","lat":43.3171,"lon":5.4241,"is_reserved":false,"is_disabled":false,"rental_uris":{"android":"levelo://app?vid=b98bcdfd-abd9-4de1-85fe-a3f97350d459","ios":"levelo://app?vid=b98bcdfd-abd9-4de1-85fe-a3f97350d459"},"vehicle_type_id":"4","last_reported":1769886806,"current_range_meters":4800,"station_id":"ce4bhp92rcd13ifvqhbg","pricing_plan_id":"cebpf4jnsgd1na2vs0mg"},{"bike_id":"daabb4b2-63e3-4bdd-84e8-1ee47954f299","system_id":"levelo_inurba_marseille","lat":43.32479,"lon":5.36563,"is_reserved":false,"is_disabled":false,"rental_uris":{"android":"levelo://app?vid=daabb4b2-63e3-4bdd-84e8-1ee47954f299","ios":"levelo://app?vid=daabb4b2-63e3-4bdd-84e8-1ee47954f299"},"vehicle_type_id":"4","last_reported":1769886806,"current_range_meters":4800,"station_id":"ce4bhs12rcd13ifvqhvg","pricing_plan_id":"cebpf4jnsgd1na2vs0mg"},{"bike_id":"69184fd2-1b26-4261-85aa-0cda5c977369","system_id":"levelo_inurba_marseille","lat":43.30377,"lon":5.42481,"is_reserved":false,"is_disabled":false,"rental_uris":{"android":"levelo://app?vid=69184fd2-1b26-4261-85aa-0cda5c977369","ios":"levelo://app?vid=69184fd2-1b26-4261-85aa-0cda5c977369"},"vehicle_type_id":"4","last_reported":1769886806,"current_range_meters":4800,"station_id":"ce4bhoh2rcd13ifvqh6g","pricing_plan_id":"cebpf4jnsgd1na2vs0mg"},{"bike_id":"2118e989-9bd5-4208-aef3-62860e5c21cf","system_id":"levelo_inurba_marseille","lat":43.29762,"lon":5.37643,"is_reserved":false,"is_disabled":false,"rental_uris":{"android":"levelo://app?vid=2118e989-9bd5-4208-aef3-62860e5c21cf","ios":"levelo://app?vid=2118e989-9bd5-4208-aef3-62860e5c21cf"},"vehicle_type_id":"4","last_reported":1769886806,"current_range_meters":4800,"station_id":"","pricing_plan_id":"cebpf4jnsgd1na2vs0mg"},{"bike_id":"a1e4eb31-711a-4b2b-936e-7870d6609b6c","system_id":"levelo_inurba_marseille","lat":43.28374,"lon":5.38644,"is_reserved":false,"is_disabled":false,"rental_uris":{"android":"levelo://app?vid=a1e4eb31-711a-4b2b-936e-7870d6609b6c","ios":"levelo://app?vid=a1e4eb31-711a-4b2b-936e-7870d6609b6c"},"vehicle_type_id":"4","last_reported":1769886806,"current_range_meters":4800,"station_id":"ce4bh492rcd13ifvqdvg","pricing_plan_id":"cebpf4jnsgd1na2vs0mg"},{"bike_id":"169e268b-5fcc-439a-85a8-5d0f835d65db","system_id":"levelo_inurba_marseille","lat":43.25472,"lon":5.37637,"is_reserved":false,"is_disabled":false,"rental_uris":{"android":"levelo://app?vid=169e268b-5fcc-439a-85a8-5d0f835d65db","ios":"levelo://app?vid=169e268b-5fcc-439a-85a8-5d0f835d65db"},"vehicle_type_id":"4","last_reported":1769886806,"current_range_meters":5600,"station_id":"ce4bhh12rcd13ifvqff0","pricing_plan_id":"cebpf4jnsgd1na2vs0mg"},{"bike_id":"9ea50bad-0329-4ce7-bb1b-0c14d81fc6e4","system_id":"levelo_inurba_marseille","lat":43.24647,"lon":5.43143,"is_reserved":false,"is_disabled":false,"rental_uris":{"android":"levelo://app?vid=9ea50bad-0329-4ce7-bb1b-0c14d81fc6e4","ios":"levelo://app?vid=9ea50bad-0329-4ce7-bb1b-0c14d81fc6e4"},"vehicle_type_id":"4","last_reported":1769886806,"current_range_meters":5600,"station_id":"st_d2m6c4gdas8pm72e190g","pricing_plan_id":"cebpf4jnsgd1na2vs0mg"},{"bike_id":"90717d58-a322-438b-926d-ee255aa382bf","system_id":"levelo_inurba_marseille","lat":43.23796,"lon":5.36582,"is_reserved":false,"is_disabled":false,"rental_uris":{"android":"levelo://app?vid=90717d58-a322-438b-926d-ee255aa382bf","ios":"levelo://app?vid=90717d58-a322-438b-926d-ee255aa382bf"},"vehicle_type_id":"4","last_reported":1769886806,"current_range_meters":5600,"station_id":"st_d3nk18o9ro0c73en2l3g","pricing_plan_id":"cebpf4jnsgd1na2vs0mg"},{"bike_id":"a05a1194-9aba-4a99-bcb1-8c23f303eefe","system_id":"levelo_inurba_marseille","lat":43.29909,"lon":5.38145,"is_reserved":false,"is_disabled":false,"rental_uris":{"android":"levelo://app?vid=a05a1194-9aba-4a99-bcb1-8c23f303eefe","ios":"levelo://app?vid=a05a1194-9aba-4a99-bcb1-8c23f303eefe"},"vehicle_type_id":"4","last_reported":1769886806,"current_range_meters":5600,"station_id":"ce4bgj12rcd13ifvqbc0","pricing_plan_id":"cebpf4jnsgd1na2vs0mg"},{"bike_id":"88ea2826-5a59-4791-ad65-c26267e33131","system_id":"levelo_inurba_marseille","lat":43.29034,"lon":5.38658,"is_reserved":false,"is_disabled":false,"rental_uris":{"android":"levelo://app?vid=88ea2826-5a59-4791-ad65-c26267e33131","ios":"levelo://app?vid=88ea2826-5a59-4791-ad65-c26267e33131"},"vehicle_type_id":"4","last_reported":1769886806,"current_range_meters":5600,"station_id":"ce4bh4p2rcd13ifvqe0g","pricing_plan_id":"cebpf4jnsgd1na2vs0mg"},{"bike_id":"f955b312-f85f-4776-bb87-c1f9bceb8274","system_id":"levelo_inurba_marseille","lat":43.22555,"lon":5.41633,"is_reserved":false,"is_disabled":false,"rental_uris":{"android":"levelo://app?vid=f955b312-f85f-4776-bb87-c1f9bceb8274","ios":"levelo://app?vid=f955b312-f85f-4776-bb87-c1f9bceb8274"},"vehicle_type_id":"4","last_reported":1769886806,"current_range_meters":5600,"station_id":"st_d2o4gvlbi1j2169b742g","pricing_plan_id":"cebpf4jnsgd1na2vs0mg"},{"bike_id":"8d188f9d-fdcb-410f-afd4-c72876609968","system_id":"levelo_inurba_marseille","lat":43.2465,"lon":5.38893,"is_reserved":false,"is_disabled":false,"rental_uris":{"android":"levelo://app?vid=8d188f9d-fdcb-410f-afd4-c72876609968","ios":"levelo://app?vid=8d188f9d-fdcb-410f-afd4-c72876609968"},"vehicle_type_id":"4","last_reported":1769886806,"current_range_meters":5600,"station_id":"ce4bhg12rcd13ifvqf60","pricing_plan_id":"cebpf4jnsgd1na2vs0mg"},{"bike_id":"da430813-1e4c-4d0a-b07d-976b86d0c6c6","system_id":"levelo_inurba_marseille","lat":43.2533,"lon":5.42171,"is_reserved":false,"is_disabled":false,"rental_uris":{"android":"levelo://app?vid=da430813-1e4c-4d0a-b07d-976b86d0c6c6","ios":"levelo://app?vid=da430813-1e4c-4d0a-b07d-976b86d0c6c6"},"vehicle_type_id":"4","last_reported":1769886806,"current_range_meters":5600,"station_id":"st_d2m65c5bi1j21697t3ng","pricing_plan_id":"cebpf4jnsgd1na2vs0mg"},{"bike_id":"f0ea49d1-63ac-46e7-b1b5-b303b1947686","system_id":"levelo_inurba_marseille","lat":43.28698,"lon":5.39985,"is_reserved":false,"is_disabled":false,"rental_uris":{"android":"levelo://app?vid=f0ea49d1-63ac-46e7-b1b5-b303b1947686","ios":"levelo://app?vid=f0ea49d1-63ac-46e7-b1b5-b303b1947686"},"vehicle_type_id":"4","last_reported":1769886806,"current_range_meters":5600,"station_id":"ce4bho92rcd13ifvqh3g","pricing_plan_id":"cebpf4jnsgd1na2vs0mg"},{"bike_id":"0d5b16e7-e10f-4749-b6e0-dea831f5862f","system_id":"levelo_inurba_marseille","lat":43.23956,"lon":5.36622,"is_reserved":false,"is_disabled":false,"rental_uris":{"android":"levelo://app?vid=0d5b16e7-e10f-4749-b6e0-dea831f5862f","ios":"levelo://app?vid=0d5b16e7-e10f-4749-b6e0-dea831f5862f"},"vehicle_type_id":"4","last_reported":1769886806,"current_range_meters":5600,"station_id":"ce4bhi12rcd13ifvqfp0","pricing_plan_id":"cebpf4jnsgd1na2vs0mg"},{"bike_id":"a10fd5ac-f488-49bb-9865-a9b9fcb4d879","system_id":"levelo_inurba_marseille","lat":43.32386,"lon":5.37438,"is_reserved":false,"is_disabled":false,"rental_uris":{"android":"levelo://app?vid=a10fd5ac-f488-49bb-9865-a9b9fcb4d879","ios":"levelo://app?vid=a10fd5ac-f488-49bb-9865-a9b9fcb4d879"},"vehicle_type_id":"4","last_reported":1769886806,"current_range_meters":6000,"station_id":"","pricing_plan_id":"cebpf4jnsgd1na2vs0mg"},{"bike_id":"f99c0e56-a861-4817-a5cc-7aa9138a394f","system_id":"levelo_inurba_marseille","lat":43.27061,"lon":5.38305,"is_reserved":false,"is_disabled":false,"rental_uris":{"android":"levelo://app?vid=f99c0e56-a861-4817-a5cc-7aa9138a394f","ios":"levelo://app?vid=f99c0e56-a861-4817-a5cc-7aa9138a394f"},"vehicle_type_id":"4","last_reported":1769886806,"current_range_meters":6000,"station_id":"st_d3n2fo6cfp8s73cte1j0","pricing_plan_id":"cebpf4jnsgd1na2vs0mg"},{"bike_id":"55e12a44-5227-40a5-8cea-0722c92ca3fa","system_id":"levelo_inurba_marseille","lat":43.28611,"lon":5.35101,"is_reserved":false,"is_disabled":false,"rental_uris":{"android":"levelo://app?vid=55e12a44-5227-40a5-8cea-0722c92ca3fa","ios":"levelo://app?vid=55e12a44-5227-40a5-8cea-0722c92ca3fa"},"vehicle_type_id":"4","last_reported":1769886806,"current_range_meters":6000,"station_id":"ce4bhch2rcd13ifvqeug","pricing_plan_id":"cebpf4jnsgd1na2vs0mg"},{"bike_id":"4595ff20-cd5f-40a2-9916-565fabad111c","system_id":"levelo_inurba_marseille","lat":43.29266,"lon":5.38427,"is_reserved":false,"is_disabled":false,"rental_uris":{"android":"levelo://app?vid=4595ff20-cd5f-40a2-9916-565fabad111c","ios":"levelo://app?vid=4595ff20-cd5f-40a2-9916-565fabad111c"},"vehicle_type_id":"4","last_reported":1769886806,"current_range_meters":6000,"station_id":"ce4bh692rcd13ifvqea0","pricing_plan_id":"cebpf4jnsgd1na2vs0mg"},{"bike_id":"40b84c98-bff3-4e44-a706-18e163112d97","system_id":"levelo_inurba_marseille","lat":43.29964,"lon":5.37166,"is_reserved":false,"is_disabled":false,"rental_uris":{"android":"levelo://app?vid=40b84c98-bff3-4e44-a706-18e163112d97","ios":"levelo://app?vid=40b84c98-bff3-4e44-a706-18e163112d97"},"vehicle_type_id":"4","last_reported":1769886806,"current_range_meters":6000,"station_id":"ce4bgr92rcd13ifvqc7g","pricing_plan_id":"cebpf4jnsgd1na2vs0mg"},{"bike_id":"3609c2a4-1b5f-4ae5-b441-bc3b23fde7e3","system_id":"levelo_inurba_marseille","lat":43.29164,"lon":5.37155,"is_reserved":false,"is_disabled":false,"rental_uris":{"android":"levelo://app?vid=3609c2a4-1b5f-4ae5-b441-bc3b23fde7e3","ios":"levelo://app?vid=3609c2a4-1b5f-4ae5-b441-bc3b23fde7e3"},"vehicle_type_id":"4","last_reported":1769886806,"current_range_meters":6000,"station_id":"ce4bha92rcd13ifvqeh0","pricing_plan_id":"cebpf4jnsgd1na2vs0mg"},{"bike_id":"4561b101-df9b-4a07-8c08-785ae7c91c29","system_id":"levelo_inurba_marseille","lat":43.30027,"lon":5.38384,"is_reserved":false,"is_disabled":false,"rental_uris":{"android":"levelo://app?vid=4561b101-df9b-4a07-8c08-785ae7c91c29","ios":"levelo://app?vid=4561b101-df9b-4a07-8c08-785ae7c91c29"},"vehicle_type_id":"4","last_reported":1769886806,"current_range_meters":6000,"station_id":"","pricing_plan_id":"cebpf4jnsgd1na2vs0mg"},{"bike_id":"f86b395c-f97a-4792-a517-fbf066695753","system_id":"levelo_inurba_marseille","lat":43.23198,"lon":5.35545,"is_reserved":false,"is_disabled":false,"rental_uris":{"android":"levelo://app?vid=f86b395c-f97a-4792-a517-fbf066695753","ios":"levelo://app?vid=f86b395c-f97a-4792-a517-fbf066695753"},"vehicle_type_id":"4","last_reported":1769886806,"current_range_meters":6000,"station_id":"ce4bhu92rcd13ifvqi70","pricing_plan_id":"cebpf4jnsgd1na2vs0mg"},{"bike_id":"24463bdf-362a-44c7-a065-1582958089af","system_id":"levelo_inurba_marseille","lat":43.30192,"lon":5.39458,"is_reserved":false,"is_disabled":false,"rental_uris":{"android":"levelo://app?vid=24463bdf-362a-44c7-a065-1582958089af","ios":"levelo://app?vid=24463bdf-362a-44c7-a065-1582958089af"},"vehicle_type_id":"4","last_reported":1769886806,"current_range_meters":6000,"station_id":"ce4bh0p2rcd13ifvqd70","pricing_plan_id":"cebpf4jnsgd1na2vs0mg"},{"bike_id":"667f7189-0ff0-4468-a821-96f30d95245d","system_id":"levelo_inurba_marseille","lat":43.29906,"lon":5.43649,"is_reserved":false,"is_disabled":false,"rental_uris":{"android":"levelo://app?vid=667f7189-0ff0-4468-a821-96f30d95245d","ios":"levelo://app?vid=667f7189-0ff0-4468-a821-96f30d95245d"},"vehicle_type_id":"4","last_reported":1769886806,"current_range_meters":6400,"station_id":"ce4bhpp2rcd13ifvqhfg","pricing_plan_id":"cebpf4jnsgd1na2vs0mg"},{"bike_id":"bbe42b46-8d2e-4999-94f2-3d9da457f280","system_id":"levelo_inurba_marseille","lat":43.3017,"lon":5.38063,"is_reserved":false,"is_disabled":false,"rental_uris":{"android":"levelo://app?vid=bbe42b46-8d2e-4999-94f2-3d9da457f280","ios":"levelo://app?vid=bbe42b46-8d2e-4999-94f2-3d9da457f280"},"vehicle_type_id":"4","last_reported":1769886806,"current_range_meters":6400,"station_id":"ce4bgjp2rcd13ifvqbh0","pricing_plan_id":"cebpf4jnsgd1na2vs0mg"},{"bike_id":"7a4412cf-c498-4121-be46-049419c026d4","system_id":"levelo_inurba_marseille","lat":43.27943,"lon":5.41035,"is_reserved":false,"is_disabled":false,"rental_uris":{"android":"levelo://app?vid=7a4412cf-c498-4121-be46-049419c026d4","ios":"levelo://app?vid=7a4412cf-c498-4121-be46-049419c026d4"},"vehicle_type_id":"4","last_reported":1769886806,"current_range_meters":6400,"station_id":"ce4bhnp2rcd13ifvqh0g","pricing_plan_id":"cebpf4jnsgd1na2vs0mg"},{"bike_id":"880586ef-6fbd-48f3-a326-6ebac57e39cd","system_id":"levelo_inurba_marseille","lat":43.25513,"lon":5.37642,"is_reserved":false,"is_disabled":false,"rental_uris":{"android":"levelo://app?vid=880586ef-6fbd-48f3-a326-6ebac57e39cd","ios":"levelo://app?vid=880586ef-6fbd-48f3-a326-6ebac57e39cd"},"vehicle_type_id":"4","last_reported":1769886806,"current_range_meters":6400,"station_id":"ce4bhh12rcd13ifvqff0","pricing_plan_id":"cebpf4jnsgd1na2vs0mg"},{"bike_id":"0fa8fafe-2680-41a4-95b1-88881925a052","system_id":"levelo_inurba_marseille","lat":43.30732,"lon":5.42433,"is_reserved":false,"is_disabled":false,"rental_uris":{"android":"levelo://app?vid=0fa8fafe-2680-41a4-95b1-88881925a052","ios":"levelo://app?vid=0fa8fafe-2680-41a4-95b1-88881925a052"},"vehicle_type_id":"4","last_reported":1769886806,"current_range_meters":6400,"station_id":"st_cvj6ca6bvosntc0bfgr0","pricing_plan_id":"cebpf4jnsgd1na2vs0mg"},{"bike_id":"0b5940d7-1ca8-42d9-bb5c-cb53b6826b27","system_id":"levelo_inurba_marseille","lat":43.27966,"lon":5.38703,"is_reserved":false,"is_disabled":false,"rental_uris":{"android":"levelo://app?vid=0b5940d7-1ca8-42d9-bb5c-cb53b6826b27","ios":"levelo://app?vid=0b5940d7-1ca8-42d9-bb5c-cb53b6826b27"},"vehicle_type_id":"4","last_reported":1769886806,"current_range_meters":6400,"station_id":"ce4bhg12rcd13ifvqf80","pricing_plan_id":"cebpf4jnsgd1na2vs0mg"},{"bike_id":"0e04e9c5-b4f0-4cdb-beb2-46317c8e77e0","system_id":"levelo_inurba_marseille","lat":43.21737,"lon":5.34609,"is_reserved":false,"is_disabled":false,"rental_uris":{"android":"levelo://app?vid=0e04e9c5-b4f0-4cdb-beb2-46317c8e77e0","ios":"levelo://app?vid=0e04e9c5-b4f0-4cdb-beb2-46317c8e77e0"},"vehicle_type_id":"4","last_reported":1769886806,"current_range_meters":6400,"station_id":"st_cvj6r9ubvosntc0bgbag","pricing_plan_id":"cebpf4jnsgd1na2vs0mg"},{"bike_id":"fd0924a1-005f-4230-b4d1-6e8409283367","system_id":"levelo_inurba_marseille","lat":43.23064,"lon":5.35495,"is_reserved":false,"is_disabled":false,"rental_uris":{"android":"levelo://app?vid=fd0924a1-005f-4230-b4d1-6e8409283367","ios":"levelo://app?vid=fd0924a1-005f-4230-b4d1-6e8409283367"},"vehicle_type_id":"4","last_reported":1769886806,"current_range_meters":6400,"station_id":"cpo3342slgdg3j2ifvpg","pricing_plan_id":"cebpf4jnsgd1na2vs0mg"},{"bike_id":"7797dc2d-6e0b-483a-8264-6f6e91d913f9","system_id":"levelo_inurba_marseille","lat":43.28485,"lon":5.38407,"is_reserved":false,"is_disabled":false,"rental_uris":{"android":"levelo://app?vid=7797dc2d-6e0b-483a-8264-6f6e91d913f9","ios":"levelo://app?vid=7797dc2d-6e0b-483a-8264-6f6e91d913f9"},"vehicle_type_id":"4","last_reported":1769886806,"current_range_meters":6400,"station_id":"ce4bh512rcd13ifvqe3g","pricing_plan_id":"cebpf4jnsgd1na2vs0mg"},{"bike_id":"18a9cd35-a391-4204-9862-934b42050b06","system_id":"levelo_inurba_marseille","lat":43.257194,"lon":5.411182,"is_reserved":false,"is_disabled":false,"rental_uris":{"android":"levelo://app?vid=18a9cd35-a391-4204-9862-934b42050b06","ios":"levelo://app?vid=18a9cd35-a391-4204-9862-934b42050b06"},"vehicle_type_id":"4","last_reported":1769886806,"current_range_meters":6400,"station_id":"ce4bhkp2rcd13ifvqgd0","pricing_plan_id":"cebpf4jnsgd1na2vs0mg"},{"bike_id":"4cad1348-59d5-4475-bf02-9720c9be6205","system_id":"levelo_inurba_marseille","lat":43.23969,"lon":5.36601,"is_reserved":false,"is_disabled":false,"rental_uris":{"android":"levelo://app?vid=4cad1348-59d5-4475-bf02-9720c9be6205","ios":"levelo://app?vid=4cad1348-59d5-4475-bf02-9720c9be6205"},"vehicle_type_id":"4","last_reported":1769886806,"current_range_meters":6400,"station_id":"ce4bhi12rcd13ifvqfp0","pricing_plan_id":"cebpf4jnsgd1na2vs0mg"},{"bike_id":"469d38b9-ba6a-438b-bf97-d01594e6ffa6","system_id":"levelo_inurba_marseille","lat":43.26058,"lon":5.39398,"is_reserved":false,"is_disabled":false,"rental_uris":{"android":"levelo://app?vid=469d38b9-ba6a-438b-bf97-d01594e6ffa6","ios":"levelo://app?vid=469d38b9-ba6a-438b-bf97-d01594e6ffa6"},"vehicle_type_id":"4","last_reported":1769886806,"current_range_meters":6400,"station_id":"ce4bhh92rcd13ifvqfj0","pricing_plan_id":"cebpf4jnsgd1na2vs0mg"},{"bike_id":"a50bc2db-1bac-4d3d-8163-f0a0e3cd79f1","system_id":"levelo_inurba_marseille","lat":43.30885,"lon":5.37194,"is_reserved":false,"is_disabled":false,"rental_uris":{"android":"levelo://app?vid=a50bc2db-1bac-4d3d-8163-f0a0e3cd79f1","ios":"levelo://app?vid=a50bc2db-1bac-4d3d-8163-f0a0e3cd79f1"},"vehicle_type_id":"4","last_reported":1769886806,"current_range_meters":6400,"station_id":"ce4bguh2rcd13ifvqckg","pricing_plan_id":"cebpf4jnsgd1na2vs0mg"},{"bike_id":"039f2477-421a-45b6-a383-666f9c4eeddf","system_id":"levelo_inurba_marseille","lat":43.29257,"lon":5.38437,"is_reserved":false,"is_disabled":false,"rental_uris":{"android":"levelo://app?vid=039f2477-421a-45b6-a383-666f9c4eeddf","ios":"levelo://app?vid=039f2477-421a-45b6-a383-666f9c4eeddf"},"vehicle_type_id":"4","last_reported":1769886806,"current_range_meters":6400,"station_id":"ce4bh692rcd13ifvqea0","pricing_plan_id":"cebpf4jnsgd1na2vs0mg"},{"bike_id":"f4d6efa2-00bd-44bb-b3f9-95bebe7bedd2","system_id":"levelo_inurba_marseille","lat":43.30174,"lon":5.37926,"is_reserved":false,"is_disabled":false,"rental_uris":{"android":"levelo://app?vid=f4d6efa2-00bd-44bb-b3f9-95bebe7bedd2","ios":"levelo://app?vid=f4d6efa2-00bd-44bb-b3f9-95bebe7bedd2"},"vehicle_type_id":"4","last_reported":1769886806,"current_range_meters":6400,"station_id":"","pricing_plan_id":"cebpf4jnsgd1na2vs0mg"},{"bike_id":"1e6e9fcd-377f-4a83-a467-d5b81de873c8","system_id":"levelo_inurba_marseille","lat":43.28242,"lon":5.39063,"is_reserved":false,"is_disabled":false,"rental_uris":{"android":"levelo://app?vid=1e6e9fcd-377f-4a83-a467-d5b81de873c8","ios":"levelo://app?vid=1e6e9fcd-377f-4a83-a467-d5b81de873c8"},"vehicle_type_id":"4","last_reported":1769886806,"current_range_meters":6800,"station_id":"ce4bhn92rcd13ifvqgsg","pricing_plan_id":"cebpf4jnsgd1na2vs0mg"},{"bike_id":"e063da5b-4820-4962-b1c8-99eec874281e","system_id":"levelo_inurba_marseille","lat":43.23192,"lon":5.39978,"is_reserved":false,"is_disabled":true,"rental_uris":{"android":"levelo://app?vid=e063da5b-4820-4962-b1c8-99eec874281e","ios":"levelo://app?vid=e063da5b-4820-4962-b1c8-99eec874281e"},"vehicle_type_id":"4","last_reported":1769886806,"current_range_meters":6800,"station_id":"ce4bhn12rcd13ifvqgqg","pricing_plan_id":"cebpf4jnsgd1na2vs0mg"},{"bike_id":"8727b7bf-893c-49e2-99ec-1189ce4d2eef","system_id":"levelo_inurba_marseille","lat":43.2997,"lon":5.3716,"is_reserved":false,"is_disabled":false,"rental_uris":{"android":"levelo://app?vid=8727b7bf-893c-49e2-99ec-1189ce4d2eef","ios":"levelo://app?vid=8727b7bf-893c-49e2-99ec-1189ce4d2eef"},"vehicle_type_id":"4","last_reported":1769886806,"current_range_meters":6800,"station_id":"ce4bgr92rcd13ifvqc7g","pricing_plan_id":"cebpf4jnsgd1na2vs0mg"},{"bike_id":"93a91355-bf30-4000-bf05-ad7ea1e0e038","system_id":"levelo_inurba_marseille","lat":43.29308,"lon":5.37153,"is_reserved":false,"is_disabled":false,"rental_uris":{"android":"levelo://app?vid=93a91355-bf30-4000-bf05-ad7ea1e0e038","ios":"levelo://app?vid=93a91355-bf30-4000-bf05-ad7ea1e0e038"},"vehicle_type_id":"4","last_reported":1769886806,"current_range_meters":6800,"station_id":"ce4bgh92rcd13ifvqb40","pricing_plan_id":"cebpf4jnsgd1na2vs0mg"},{"bike_id":"6259a571-4c97-41bc-9e30-1f15710670c6","system_id":"levelo_inurba_marseille","lat":43.24709,"lon":5.40117,"is_reserved":false,"is_disabled":false,"rental_uris":{"android":"levelo://app?vid=6259a571-4c97-41bc-9e30-1f15710670c6","ios":"levelo://app?vid=6259a571-4c97-41bc-9e30-1f15710670c6"},"vehicle_type_id":"4","last_reported":1769886806,"current_range_meters":6800,"station_id":"","pricing_plan_id":"cebpf4jnsgd1na2vs0mg"},{"bike_id":"80e85d4a-6876-4a01-aa65-1d986fc27bc6","system_id":"levelo_inurba_marseille","lat":43.29268,"lon":5.38442,"is_reserved":false,"is_disabled":false,"rental_uris":{"android":"levelo://app?vid=80e85d4a-6876-4a01-aa65-1d986fc27bc6","ios":"levelo://app?vid=80e85d4a-6876-4a01-aa65-1d986fc27bc6"},"vehicle_type_id":"4","last_reported":1769886806,"current_range_meters":6800,"station_id":"ce4bh692rcd13ifvqea0","pricing_plan_id":"cebpf4jnsgd1na2vs0mg"},{"bike_id":"44bce6fc-6e2f-4ea3-9dfe-d3bb70c5a253","system_id":"levelo_inurba_marseille","lat":43.29996,"lon":5.37184,"is_reserved":false,"is_disabled":false,"rental_uris":{"android":"levelo://app?vid=44bce6fc-6e2f-4ea3-9dfe-d3bb70c5a253","ios":"levelo://app?vid=44bce6fc-6e2f-4ea3-9dfe-d3bb70c5a253"},"vehicle_type_id":"4","last_reported":1769886806,"current_range_meters":6800,"station_id":"ce4bgr92rcd13ifvqc7g","pricing_plan_id":"cebpf4jnsgd1na2vs0mg"},{"bike_id":"b559b272-5796-43b3-908a-ffbd6751cf49","system_id":"levelo_inurba_marseille","lat":43.24004,"lon":5.3669,"is_reserved":false,"is_disabled":false,"rental_uris":{"android":"levelo://app?vid=b559b272-5796-43b3-908a-ffbd6751cf49","ios":"levelo://app?vid=b559b272-5796-43b3-908a-ffbd6751cf49"},"vehicle_type_id":"4","last_reported":1769886806,"current_range_meters":6800,"station_id":"","pricing_plan_id":"cebpf4jnsgd1na2vs0mg"},{"bike_id":"bec9adc5-b234-40d6-82a5-6fe45c0e1bd0","system_id":"levelo_inurba_marseille","lat":43.29821,"lon":5.44057,"is_reserved":false,"is_disabled":false,"rental_uris":{"android":"levelo://app?vid=bec9adc5-b234-40d6-82a5-6fe45c0e1bd0","ios":"levelo://app?vid=bec9adc5-b234-40d6-82a5-6fe45c0e1bd0"},"vehicle_type_id":"4","last_reported":1769886806,"current_range_meters":6800,"station_id":"","pricing_plan_id":"cebpf4jnsgd1na2vs0mg"},{"bike_id":"a591b198-ffd8-42c1-96f8-07f7188eff82","system_id":"levelo_inurba_marseille","lat":43.2558,"lon":5.38238,"is_reserved":false,"is_disabled":false,"rental_uris":{"android":"levelo://app?vid=a591b198-ffd8-42c1-96f8-07f7188eff82","ios":"levelo://app?vid=a591b198-ffd8-42c1-96f8-07f7188eff82"},"vehicle_type_id":"4","last_reported":1769886806,"current_range_meters":7200,"station_id":"ce4bhih2rcd13ifvqfs0","pricing_plan_id":"cebpf4jnsgd1na2vs0mg"},{"bike_id":"51487434-2c5b-44ec-b6f1-b2d802fd5baf","system_id":"levelo_inurba_marseille","lat":43.295842,"lon":5.367472,"is_reserved":false,"is_disabled":false,"rental_uris":{"android":"levelo://app?vid=51487434-2c5b-44ec-b6f1-b2d802fd5baf","ios":"levelo://app?vid=51487434-2c5b-44ec-b6f1-b2d802fd5baf"},"vehicle_type_id":"4","last_reported":1769886806,"current_range_meters":7200,"station_id":"ce4bgph2rcd13ifvqc2g","pricing_plan_id":"cebpf4jnsgd1na2vs0mg"},{"bike_id":"318133aa-3b05-4452-b847-cf5a32021652","system_id":"levelo_inurba_marseille","lat":43.250916,"lon":5.395146,"is_reserved":false,"is_disabled":false,"rental_uris":{"android":"levelo://app?vid=318133aa-3b05-4452-b847-cf5a32021652","ios":"levelo://app?vid=318133aa-3b05-4452-b847-cf5a32021652"},"vehicle_type_id":"4","last_reported":1769886806,"current_range_meters":7200,"station_id":"ce4bhm12rcd13ifvqgkg","pricing_plan_id":"cebpf4jnsgd1na2vs0mg"},{"bike_id":"18d24a81-9b0c-4bd9-9c2a-fb9012b51e00","system_id":"levelo_inurba_marseille","lat":43.29294,"lon":5.37149,"is_reserved":false,"is_disabled":false,"rental_uris":{"android":"levelo://app?vid=18d24a81-9b0c-4bd9-9c2a-fb9012b51e00","ios":"levelo://app?vid=18d24a81-9b0c-4bd9-9c2a-fb9012b51e00"},"vehicle_type_id":"4","last_reported":1769886806,"current_range_meters":7200,"station_id":"ce4bgh92rcd13ifvqb40","pricing_plan_id":"cebpf4jnsgd1na2vs0mg"},{"bike_id":"775d6e7a-d0f8-4e7e-b1b9-2c666ff8cfd5","system_id":"levelo_inurba_marseille","lat":43.27838,"lon":5.39199,"is_reserved":false,"is_disabled":false,"rental_uris":{"android":"levelo://app?vid=775d6e7a-d0f8-4e7e-b1b9-2c666ff8cfd5","ios":"levelo://app?vid=775d6e7a-d0f8-4e7e-b1b9-2c666ff8cfd5"},"vehicle_type_id":"4","last_reported":1769886806,"current_range_meters":7200,"station_id":"ce4bhjp2rcd13ifvqga0","pricing_plan_id":"cebpf4jnsgd1na2vs0mg"},{"bike_id":"e4e9d2ba-c8a2-4555-8e45-60f970d466cd","system_id":"levelo_inurba_marseille","lat":43.29248,"lon":5.40134,"is_reserved":false,"is_disabled":false,"rental_uris":{"android":"levelo://app?vid=e4e9d2ba-c8a2-4555-8e45-60f970d466cd","ios":"levelo://app?vid=e4e9d2ba-c8a2-4555-8e45-60f970d466cd"},"vehicle_type_id":"4","last_reported":1769886806,"current_range_meters":7200,"station_id":"ce4bh312rcd13ifvqdk0","pricing_plan_id":"cebpf4jnsgd1na2vs0mg"},{"bike_id":"66ec8196-268a-4faf-a36d-a85b5d3dc8d1","system_id":"levelo_inurba_marseille","lat":43.295631,"lon":5.395888,"is_reserved":false,"is_disabled":false,"rental_uris":{"android":"levelo://app?vid=66ec8196-268a-4faf-a36d-a85b5d3dc8d1","ios":"levelo://app?vid=66ec8196-268a-4faf-a36d-a85b5d3dc8d1"},"vehicle_type_id":"4","last_reported":1769886806,"current_range_meters":7200,"station_id":"ce4bh292rcd13ifvqdf0","pricing_plan_id":"cebpf4jnsgd1na2vs0mg"},{"bike_id":"a4c4467a-de4f-4b56-8893-ebacb492a7a6","system_id":"levelo_inurba_marseille","lat":43.25322,"lon":5.42145,"is_reserved":false,"is_disabled":false,"rental_uris":{"android":"levelo://app?vid=a4c4467a-de4f-4b56-8893-ebacb492a7a6","ios":"levelo://app?vid=a4c4467a-de4f-4b56-8893-ebacb492a7a6"},"vehicle_type_id":"4","last_reported":1769886806,"current_range_meters":7200,"station_id":"st_d2m65c5bi1j21697t3ng","pricing_plan_id":"cebpf4jnsgd1na2vs0mg"},{"bike_id":"c35d9f93-604f-4132-899f-db518d79e668","system_id":"levelo_inurba_marseille","lat":43.3372,"lon":5.39185,"is_reserved":false,"is_disabled":false,"rental_uris":{"android":"levelo://app?vid=c35d9f93-604f-4132-899f-db518d79e668","ios":"levelo://app?vid=c35d9f93-604f-4132-899f-db518d79e668"},"vehicle_type_id":"4","last_reported":1769886806,"current_range_meters":7200,"station_id":"ce4bhr92rcd13ifvqhsg","pricing_plan_id":"cebpf4jnsgd1na2vs0mg"},{"bike_id":"5be20501-8e04-4673-9119-891aadf1acc1","system_id":"levelo_inurba_marseille","lat":43.28472,"lon":5.48402,"is_reserved":false,"is_disabled":false,"rental_uris":{"android":"levelo://app?vid=5be20501-8e04-4673-9119-891aadf1acc1","ios":"levelo://app?vid=5be20501-8e04-4673-9119-891aadf1acc1"},"vehicle_type_id":"4","last_reported":1769886806,"current_range_meters":7200,"station_id":"st_d3svhcjqgbts73a3dn0g","pricing_plan_id":"cebpf4jnsgd1na2vs0mg"},{"bike_id":"d1f05359-3c74-458f-9ff0-6c3e295c5b2a","system_id":"levelo_inurba_marseille","lat":43.29896,"lon":5.38914,"is_reserved":false,"is_disabled":false,"rental_uris":{"android":"levelo://app?vid=d1f05359-3c74-458f-9ff0-6c3e295c5b2a","ios":"levelo://app?vid=d1f05359-3c74-458f-9ff0-6c3e295c5b2a"},"vehicle_type_id":"4","last_reported":1769886806,"current_range_meters":7200,"station_id":"ce4bh392rcd13ifvqdl0","pricing_plan_id":"cebpf4jnsgd1na2vs0mg"},{"bike_id":"6d28136d-7094-4342-bc37-7fc27ef3d140","system_id":"levelo_inurba_marseille","lat":43.29566,"lon":5.37502,"is_reserved":false,"is_disabled":false,"rental_uris":{"android":"levelo://app?vid=6d28136d-7094-4342-bc37-7fc27ef3d140","ios":"levelo://app?vid=6d28136d-7094-4342-bc37-7fc27ef3d140"},"vehicle_type_id":"4","last_reported":1769886806,"current_range_meters":8000,"station_id":"ce4bgh92rcd13ifvqb50","pricing_plan_id":"cebpf4jnsgd1na2vs0mg"},{"bike_id":"eae001be-3b34-469f-b5f5-7615da95a4ed","system_id":"levelo_inurba_marseille","lat":43.27821,"lon":5.40712,"is_reserved":false,"is_disabled":false,"rental_uris":{"android":"levelo://app?vid=eae001be-3b34-469f-b5f5-7615da95a4ed","ios":"levelo://app?vid=eae001be-3b34-469f-b5f5-7615da95a4ed"},"vehicle_type_id":"4","last_reported":1769886806,"current_range_meters":8000,"station_id":"ce4bhnh2rcd13ifvqgtg","pricing_plan_id":"cebpf4jnsgd1na2vs0mg"},{"bike_id":"9b0b72ce-8292-47cd-b165-f4a28fe1cfff","system_id":"levelo_inurba_marseille","lat":43.284609,"lon":5.385341,"is_reserved":false,"is_disabled":true,"rental_uris":{"android":"levelo://app?vid=9b0b72ce-8292-47cd-b165-f4a28fe1cfff","ios":"levelo://app?vid=9b0b72ce-8292-47cd-b165-f4a28fe1cfff"},"vehicle_type_id":"4","last_reported":1769886806,"current_range_meters":8000,"station_id":"ce4bh8p2rcd13ifvqeb0","pricing_plan_id":"cebpf4jnsgd1na2vs0mg"},{"bike_id":"097d3826-f1ab-4ba6-b835-18323d7ef4d7","system_id":"levelo_inurba_marseille","lat":43.24559,"lon":5.39539,"is_reserved":false,"is_disabled":false,"rental_uris":{"android":"levelo://app?vid=097d3826-f1ab-4ba6-b835-18323d7ef4d7","ios":"levelo://app?vid=097d3826-f1ab-4ba6-b835-18323d7ef4d7"},"vehicle_type_id":"4","last_reported":1769886806,"current_range_meters":8000,"station_id":"ce4bhlp2rcd13ifvqgjg","pricing_plan_id":"cebpf4jnsgd1na2vs0mg"},{"bike_id":"774e6463-eaf7-42cb-a724-7374d678c979","system_id":"levelo_inurba_marseille","lat":43.31226,"lon":5.36845,"is_reserved":false,"is_disabled":false,"rental_uris":{"android":"levelo://app?vid=774e6463-eaf7-42cb-a724-7374d678c979","ios":"levelo://app?vid=774e6463-eaf7-42cb-a724-7374d678c979"},"vehicle_type_id":"4","last_reported":1769886806,"current_range_meters":8000,"station_id":"ce4bgl92rcd13ifvqbq0","pricing_plan_id":"cebpf4jnsgd1na2vs0mg"},{"bike_id":"a8f57f70-acfc-420e-90e9-80b5fb4e7a51","system_id":"levelo_inurba_marseille","lat":43.29631,"lon":5.37168,"is_reserved":false,"is_disabled":false,"rental_uris":{"android":"levelo://app?vid=a8f57f70-acfc-420e-90e9-80b5fb4e7a51","ios":"levelo://app?vid=a8f57f70-acfc-420e-90e9-80b5fb4e7a51"},"vehicle_type_id":"4","last_reported":1769886806,"current_range_meters":8000,"station_id":"ce4bgnh2rcd13ifvqc0g","pricing_plan_id":"cebpf4jnsgd1na2vs0mg"},{"bike_id":"9378c7cb-4c3a-475f-ba28-80a4781f7ffa","system_id":"levelo_inurba_marseille","lat":43.29766,"lon":5.4277,"is_reserved":false,"is_disabled":false,"rental_uris":{"android":"levelo://app?vid=9378c7cb-4c3a-475f-ba28-80a4781f7ffa","ios":"levelo://app?vid=9378c7cb-4c3a-475f-ba28-80a4781f7ffa"},"vehicle_type_id":"4","last_reported":1769886806,"current_range_meters":8000,"station_id":"st_d3md5207bmas73dh9klg","pricing_plan_id":"cebpf4jnsgd1na2vs0mg"},{"bike_id":"1b187523-973b-43bd-a56f-a5d6c41d569b","system_id":"levelo_inurba_marseille","lat":43.29814,"lon":5.44064,"is_reserved":false,"is_disabled":false,"rental_uris":{"android":"levelo://app?vid=1b187523-973b-43bd-a56f-a5d6c41d569b","ios":"levelo://app?vid=1b187523-973b-43bd-a56f-a5d6c41d569b"},"vehicle_type_id":"4","last_reported":1769886806,"current_range_meters":8000,"station_id":"st_d3jp68qikq2c7381ktn0","pricing_plan_id":"cebpf4jnsgd1na2vs0mg"},{"bike_id":"8488c8ab-7161-46af-8dd7-6638cf6a8dad","system_id":"levelo_inurba_marseille","lat":43.30308,"lon":5.36897,"is_reserved":false,"is_disabled":false,"rental_uris":{"android":"levelo://app?vid=8488c8ab-7161-46af-8dd7-6638cf6a8dad","ios":"levelo://app?vid=8488c8ab-7161-46af-8dd7-6638cf6a8dad"},"vehicle_type_id":"4","last_reported":1769886806,"current_range_meters":8000,"station_id":"ce4bgqh2rcd13ifvqc5g","pricing_plan_id":"cebpf4jnsgd1na2vs0mg"},{"bike_id":"b27a0d4f-f345-47b9-b9a8-196c40313931","system_id":"levelo_inurba_marseille","lat":43.28424,"lon":5.34983,"is_reserved":false,"is_disabled":false,"rental_uris":{"android":"levelo://app?vid=b27a0d4f-f345-47b9-b9a8-196c40313931","ios":"levelo://app?vid=b27a0d4f-f345-47b9-b9a8-196c40313931"},"vehicle_type_id":"4","last_reported":1769886806,"current_range_meters":8000,"station_id":"ce4bhbh2rcd13ifvqepg","pricing_plan_id":"cebpf4jnsgd1na2vs0mg"},{"bike_id":"9a1b8f0b-3171-4e8a-beb5-a6b91324ca2c","system_id":"levelo_inurba_marseille","lat":43.2721,"lon":5.39193,"is_reserved":false,"is_disabled":false,"rental_uris":{"android":"levelo://app?vid=9a1b8f0b-3171-4e8a-beb5-a6b91324ca2c","ios":"levelo://app?vid=9a1b8f0b-3171-4e8a-beb5-a6b91324ca2c"},"vehicle_type_id":"4","last_reported":1769886806,"current_range_meters":8000,"station_id":"ce4bhhp2rcd13ifvqfm0","pricing_plan_id":"cebpf4jnsgd1na2vs0mg"},{"bike_id":"ea996b6a-e4df-4475-a81a-600ad94271b6","system_id":"levelo_inurba_marseille","lat":43.30284,"lon":5.39793,"is_reserved":false,"is_disabled":false,"rental_uris":{"android":"levelo://app?vid=ea996b6a-e4df-4475-a81a-600ad94271b6","ios":"levelo://app?vid=ea996b6a-e4df-4475-a81a-600ad94271b6"},"vehicle_type_id":"4","last_reported":1769886806,"current_range_meters":8000,"station_id":"","pricing_plan_id":"cebpf4jnsgd1na2vs0mg"},{"bike_id":"d4d18011-2bf0-4a2b-a896-7a5c21af3b9d","system_id":"levelo_inurba_marseille","lat":43.28487,"lon":5.48392,"is_reserved":false,"is_disabled":false,"rental_uris":{"android":"levelo://app?vid=d4d18011-2bf0-4a2b-a896-7a5c21af3b9d","ios":"levelo://app?vid=d4d18011-2bf0-4a2b-a896-7a5c21af3b9d"},"vehicle_type_id":"4","last_reported":1769886806,"current_range_meters":8000,"station_id":"st_d3svhcjqgbts73a3dn0g","pricing_plan_id":"cebpf4jnsgd1na2vs0mg"},{"bike_id":"0e681b67-3fdf-40b6-b942-590e1536d0c5","system_id":"levelo_inurba_marseille","lat":43.244,"lon":5.37074,"is_reserved":false,"is_disabled":false,"rental_uris":{"android":"levelo://app?vid=0e681b67-3fdf-40b6-b942-590e1536d0c5","ios":"levelo://app?vid=0e681b67-3fdf-40b6-b942-590e1536d0c5"},"vehicle_type_id":"4","last_reported":1769886806,"current_range_meters":8000,"station_id":"ce4bhhh2rcd13ifvqfk0","pricing_plan_id":"cebpf4jnsgd1na2vs0mg"},{"bike_id":"75f03722-4ebb-46f7-a654-3944fc4bea0c","system_id":"levelo_inurba_marseille","lat":43.24467,"lon":5.42539,"is_reserved":false,"is_disabled":false,"rental_uris":{"android":"levelo://app?vid=75f03722-4ebb-46f7-a654-3944fc4bea0c","ios":"levelo://app?vid=75f03722-4ebb-46f7-a654-3944fc4bea0c"},"vehicle_type_id":"4","last_reported":1769886806,"current_range_meters":8000,"station_id":"st_d4a3vfp97mjs738cd8kg","pricing_plan_id":"cebpf4jnsgd1na2vs0mg"},{"bike_id":"d5e67bfe-03c5-4643-9903-6eac267b87da","system_id":"levelo_inurba_marseille","lat":43.24007,"lon":5.37813,"is_reserved":false,"is_disabled":false,"rental_uris":{"android":"levelo://app?vid=d5e67bfe-03c5-4643-9903-6eac267b87da","ios":"levelo://app?vid=d5e67bfe-03c5-4643-9903-6eac267b87da"},"vehicle_type_id":"4","last_reported":1769886806,"current_range_meters":8000,"station_id":"","pricing_plan_id":"cebpf4jnsgd1na2vs0mg"},{"bike_id":"12a2fd95-d1c0-4783-819e-a2120934d51e","system_id":"levelo_inurba_marseille","lat":43.23968,"lon":5.36631,"is_reserved":false,"is_disabled":false,"rental_uris":{"android":"levelo://app?vid=12a2fd95-d1c0-4783-819e-a2120934d51e","ios":"levelo://app?vid=12a2fd95-d1c0-4783-819e-a2120934d51e"},"vehicle_type_id":"4","last_reported":1769886806,"current_range_meters":8400,"station_id":"ce4bhi12rcd13ifvqfp0","pricing_plan_id":"cebpf4jnsgd1na2vs0mg"},{"bike_id":"055d8d39-c891-472e-8a0d-a9ee39d8b8c7","system_id":"levelo_inurba_marseille","lat":43.33138,"lon":5.3767,"is_reserved":false,"is_disabled":true,"rental_uris":{"android":"levelo://app?vid=055d8d39-c891-472e-8a0d-a9ee39d8b8c7","ios":"levelo://app?vid=055d8d39-c891-472e-8a0d-a9ee39d8b8c7"},"vehicle_type_id":"4","last_reported":1769886806,"current_range_meters":8400,"station_id":"st_d46cu089ee8s73dldbu0","pricing_plan_id":"cebpf4jnsgd1na2vs0mg"},{"bike_id":"0c5302b6-9a06-4dbf-847c-da0601a3aaae","system_id":"levelo_inurba_marseille","lat":43.28458,"lon":5.35601,"is_reserved":false,"is_disabled":false,"rental_uris":{"android":"levelo://app?vid=0c5302b6-9a06-4dbf-847c-da0601a3aaae","ios":"levelo://app?vid=0c5302b6-9a06-4dbf-847c-da0601a3aaae"},"vehicle_type_id":"4","last_reported":1769886806,"current_range_meters":8400,"station_id":"","pricing_plan_id":"cebpf4jnsgd1na2vs0mg"},{"bike_id":"4ae21097-68ff-4a44-bcb7-3e142e11d517","system_id":"levelo_inurba_marseille","lat":43.241679,"lon":5.364087,"is_reserved":false,"is_disabled":false,"rental_uris":{"android":"levelo://app?vid=4ae21097-68ff-4a44-bcb7-3e142e11d517","ios":"levelo://app?vid=4ae21097-68ff-4a44-bcb7-3e142e11d517"},"vehicle_type_id":"4","last_reported":1769886806,"current_range_meters":8400,"station_id":"cpo36qri1sfpv3e86is0","pricing_plan_id":"cebpf4jnsgd1na2vs0mg"},{"bike_id":"16fde6d1-f51a-48e7-a728-f69430b0136e","system_id":"levelo_inurba_marseille","lat":43.24393,"lon":5.37069,"is_reserved":false,"is_disabled":false,"rental_uris":{"android":"levelo://app?vid=16fde6d1-f51a-48e7-a728-f69430b0136e","ios":"levelo://app?vid=16fde6d1-f51a-48e7-a728-f69430b0136e"},"vehicle_type_id":"4","last_reported":1769886806,"current_range_meters":8400,"station_id":"ce4bhhh2rcd13ifvqfk0","pricing_plan_id":"cebpf4jnsgd1na2vs0mg"},{"bike_id":"7e4d0348-c090-4100-bdfd-53d3c76acb31","system_id":"levelo_inurba_marseille","lat":43.24813,"lon":5.37452,"is_reserved":false,"is_disabled":false,"rental_uris":{"android":"levelo://app?vid=7e4d0348-c090-4100-bdfd-53d3c76acb31","ios":"levelo://app?vid=7e4d0348-c090-4100-bdfd-53d3c76acb31"},"vehicle_type_id":"4","last_reported":1769886806,"current_range_meters":8400,"station_id":"ce4bhgh2rcd13ifvqfb0","pricing_plan_id":"cebpf4jnsgd1na2vs0mg"},{"bike_id":"7725ea14-335e-4d54-91ac-40d50e39e00e","system_id":"levelo_inurba_marseille","lat":43.23195,"lon":5.39976,"is_reserved":false,"is_disabled":false,"rental_uris":{"android":"levelo://app?vid=7725ea14-335e-4d54-91ac-40d50e39e00e","ios":"levelo://app?vid=7725ea14-335e-4d54-91ac-40d50e39e00e"},"vehicle_type_id":"4","last_reported":1769886806,"current_range_meters":8400,"station_id":"ce4bhn12rcd13ifvqgqg","pricing_plan_id":"cebpf4jnsgd1na2vs0mg"},{"bike_id":"bcd58453-c6d3-458d-8c23-f0e115fa2945","system_id":"levelo_inurba_marseille","lat":43.28864,"lon":5.4251,"is_reserved":false,"is_disabled":false,"rental_uris":{"android":"levelo://app?vid=bcd58453-c6d3-458d-8c23-f0e115fa2945","ios":"levelo://app?vid=bcd58453-c6d3-458d-8c23-f0e115fa2945"},"vehicle_type_id":"4","last_reported":1769886806,"current_range_meters":8400,"station_id":"st_d3b462108ojc7389ooeg","pricing_plan_id":"cebpf4jnsgd1na2vs0mg"},{"bike_id":"3a9d9d6b-764f-4558-a4a3-5611921af6a1","system_id":"levelo_inurba_marseille","lat":43.27933,"lon":5.41037,"is_reserved":false,"is_disabled":false,"rental_uris":{"android":"levelo://app?vid=3a9d9d6b-764f-4558-a4a3-5611921af6a1","ios":"levelo://app?vid=3a9d9d6b-764f-4558-a4a3-5611921af6a1"},"vehicle_type_id":"4","last_reported":1769886806,"current_range_meters":8400,"station_id":"ce4bhnp2rcd13ifvqh0g","pricing_plan_id":"cebpf4jnsgd1na2vs0mg"},{"bike_id":"ed4ca4f1-0e5c-433f-acef-820ba9f9831e","system_id":"levelo_inurba_marseille","lat":43.27075,"lon":5.42272,"is_reserved":false,"is_disabled":false,"rental_uris":{"android":"levelo://app?vid=ed4ca4f1-0e5c-433f-acef-820ba9f9831e","ios":"levelo://app?vid=ed4ca4f1-0e5c-433f-acef-820ba9f9831e"},"vehicle_type_id":"4","last_reported":1769886806,"current_range_meters":8400,"station_id":"ce4bhk92rcd13ifvqgb0","pricing_plan_id":"cebpf4jnsgd1na2vs0mg"},{"bike_id":"9a51c59d-9df1-4272-bf8a-962f7f317a04","system_id":"levelo_inurba_marseille","lat":43.25497,"lon":5.37641,"is_reserved":false,"is_disabled":false,"rental_uris":{"android":"levelo://app?vid=9a51c59d-9df1-4272-bf8a-962f7f317a04","ios":"levelo://app?vid=9a51c59d-9df1-4272-bf8a-962f7f317a04"},"vehicle_type_id":"4","last_reported":1769886806,"current_range_meters":8400,"station_id":"ce4bhh12rcd13ifvqff0","pricing_plan_id":"cebpf4jnsgd1na2vs0mg"},{"bike_id":"8a25a112-bffb-4bc9-b86f-e44087c71e58","system_id":"levelo_inurba_marseille","lat":43.28225,"lon":5.39052,"is_reserved":false,"is_disabled":false,"rental_uris":{"android":"levelo://app?vid=8a25a112-bffb-4bc9-b86f-e44087c71e58","ios":"levelo://app?vid=8a25a112-bffb-4bc9-b86f-e44087c71e58"},"vehicle_type_id":"4","last_reported":1769886806,"current_range_meters":8400,"station_id":"ce4bhn92rcd13ifvqgsg","pricing_plan_id":"cebpf4jnsgd1na2vs0mg"},{"bike_id":"e2bce0e5-c739-4939-9e60-5d1a18c005a4","system_id":"levelo_inurba_marseille","lat":43.27959,"lon":5.41043,"is_reserved":false,"is_disabled":false,"rental_uris":{"android":"levelo://app?vid=e2bce0e5-c739-4939-9e60-5d1a18c005a4","ios":"levelo://app?vid=e2bce0e5-c739-4939-9e60-5d1a18c005a4"},"vehicle_type_id":"4","last_reported":1769886806,"current_range_meters":8400,"station_id":"","pricing_plan_id":"cebpf4jnsgd1na2vs0mg"},{"bike_id":"74856cd2-f709-469e-b628-27ee18812e7c","system_id":"levelo_inurba_marseille","lat":43.28153,"lon":5.42632,"is_reserved":false,"is_disabled":false,"rental_uris":{"android":"levelo://app?vid=74856cd2-f709-469e-b628-27ee18812e7c","ios":"levelo://app?vid=74856cd2-f709-469e-b628-27ee18812e7c"},"vehicle_type_id":"4","last_reported":1769886806,"current_range_meters":8400,"station_id":"ce4bhnh2rcd13ifvqgug","pricing_plan_id":"cebpf4jnsgd1na2vs0mg"},{"bike_id":"65775a54-b2a4-44d6-a2fa-29d83bc5941c","system_id":"levelo_inurba_marseille","lat":43.30163,"lon":5.38093,"is_reserved":false,"is_disabled":false,"rental_uris":{"android":"levelo://app?vid=65775a54-b2a4-44d6-a2fa-29d83bc5941c","ios":"levelo://app?vid=65775a54-b2a4-44d6-a2fa-29d83bc5941c"},"vehicle_type_id":"4","last_reported":1769886806,"current_range_meters":8400,"station_id":"ce4bgjp2rcd13ifvqbh0","pricing_plan_id":"cebpf4jnsgd1na2vs0mg"},{"bike_id":"ad0ac156-a5bc-42da-9624-f1e97e4c3990","system_id":"levelo_inurba_marseille","lat":43.27994,"lon":5.40005,"is_reserved":false,"is_disabled":false,"rental_uris":{"android":"levelo://app?vid=ad0ac156-a5bc-42da-9624-f1e97e4c3990","ios":"levelo://app?vid=ad0ac156-a5bc-42da-9624-f1e97e4c3990"},"vehicle_type_id":"4","last_reported":1769886806,"current_range_meters":8400,"station_id":"ce4bho92rcd13ifvqh4g","pricing_plan_id":"cebpf4jnsgd1na2vs0mg"},{"bike_id":"d3215a18-ac25-47b2-bc57-dcaef897eb36","system_id":"levelo_inurba_marseille","lat":43.31404,"lon":5.38625,"is_reserved":false,"is_disabled":false,"rental_uris":{"android":"levelo://app?vid=d3215a18-ac25-47b2-bc57-dcaef897eb36","ios":"levelo://app?vid=d3215a18-ac25-47b2-bc57-dcaef897eb36"},"vehicle_type_id":"4","last_reported":1769886806,"current_range_meters":8800,"station_id":"","pricing_plan_id":"cebpf4jnsgd1na2vs0mg"},{"bike_id":"8999d26c-420d-4d01-819b-5bed6ba174a6","system_id":"levelo_inurba_marseille","lat":43.29886,"lon":5.38356,"is_reserved":false,"is_disabled":false,"rental_uris":{"android":"levelo://app?vid=8999d26c-420d-4d01-819b-5bed6ba174a6","ios":"levelo://app?vid=8999d26c-420d-4d01-819b-5bed6ba174a6"},"vehicle_type_id":"4","last_reported":1769886806,"current_range_meters":8800,"station_id":"","pricing_plan_id":"cebpf4jnsgd1na2vs0mg"},{"bike_id":"a0f4c4d9-b17d-4551-87f4-b3e192df9153","system_id":"levelo_inurba_marseille","lat":43.23038,"lon":5.35484,"is_reserved":false,"is_disabled":false,"rental_uris":{"android":"levelo://app?vid=a0f4c4d9-b17d-4551-87f4-b3e192df9153","ios":"levelo://app?vid=a0f4c4d9-b17d-4551-87f4-b3e192df9153"},"vehicle_type_id":"4","last_reported":1769886806,"current_range_meters":8800,"station_id":"cpo3342slgdg3j2ifvpg","pricing_plan_id":"cebpf4jnsgd1na2vs0mg"},{"bike_id":"1b85baa8-054d-452c-96ac-e14de5f87229","system_id":"levelo_inurba_marseille","lat":43.26566,"lon":5.40324,"is_reserved":false,"is_disabled":false,"rental_uris":{"android":"levelo://app?vid=1b85baa8-054d-452c-96ac-e14de5f87229","ios":"levelo://app?vid=1b85baa8-054d-452c-96ac-e14de5f87229"},"vehicle_type_id":"4","last_reported":1769886806,"current_range_meters":8800,"station_id":"ce4bhmp2rcd13ifvqgng","pricing_plan_id":"cebpf4jnsgd1na2vs0mg"},{"bike_id":"1cdce8d3-c523-4d89-8d8b-802fa91e5cb7","system_id":"levelo_inurba_marseille","lat":43.29948,"lon":5.36522,"is_reserved":false,"is_disabled":false,"rental_uris":{"android":"levelo://app?vid=1cdce8d3-c523-4d89-8d8b-802fa91e5cb7","ios":"levelo://app?vid=1cdce8d3-c523-4d89-8d8b-802fa91e5cb7"},"vehicle_type_id":"4","last_reported":1769886806,"current_range_meters":8800,"station_id":"ce4bgm92rcd13ifvqbr0","pricing_plan_id":"cebpf4jnsgd1na2vs0mg"},{"bike_id":"fb793f9e-27c8-4aa6-9e5b-d172f980944b","system_id":"levelo_inurba_marseille","lat":43.27953,"lon":5.41037,"is_reserved":false,"is_disabled":true,"rental_uris":{"android":"levelo://app?vid=fb793f9e-27c8-4aa6-9e5b-d172f980944b","ios":"levelo://app?vid=fb793f9e-27c8-4aa6-9e5b-d172f980944b"},"vehicle_type_id":"4","last_reported":1769886806,"current_range_meters":8800,"station_id":"ce4bhnp2rcd13ifvqh0g","pricing_plan_id":"cebpf4jnsgd1na2vs0mg"},{"bike_id":"15b4783f-966c-4f97-8878-41f925f60737","system_id":"levelo_inurba_marseille","lat":43.30208,"lon":5.39467,"is_reserved":false,"is_disabled":false,"rental_uris":{"android":"levelo://app?vid=15b4783f-966c-4f97-8878-41f925f60737","ios":"levelo://app?vid=15b4783f-966c-4f97-8878-41f925f60737"},"vehicle_type_id":"4","last_reported":1769886806,"current_range_meters":8800,"station_id":"ce4bh0p2rcd13ifvqd70","pricing_plan_id":"cebpf4jnsgd1na2vs0mg"},{"bike_id":"2c9d9ec4-87d2-4a0f-9375-615bf9c41c46","system_id":"levelo_inurba_marseille","lat":43.26185,"lon":5.3746,"is_reserved":false,"is_disabled":false,"rental_uris":{"android":"levelo://app?vid=2c9d9ec4-87d2-4a0f-9375-615bf9c41c46","ios":"levelo://app?vid=2c9d9ec4-87d2-4a0f-9375-615bf9c41c46"},"vehicle_type_id":"4","last_reported":1769886806,"current_range_meters":8800,"station_id":"ce4bhgp2rcd13ifvqfc0","pricing_plan_id":"cebpf4jnsgd1na2vs0mg"},{"bike_id":"f47b5364-d86e-414e-a4d7-612bcf40da53","system_id":"levelo_inurba_marseille","lat":43.241706,"lon":5.363968,"is_reserved":false,"is_disabled":false,"rental_uris":{"android":"levelo://app?vid=f47b5364-d86e-414e-a4d7-612bcf40da53","ios":"levelo://app?vid=f47b5364-d86e-414e-a4d7-612bcf40da53"},"vehicle_type_id":"4","last_reported":1769886806,"current_range_meters":8800,"station_id":"cpo36qri1sfpv3e86is0","pricing_plan_id":"cebpf4jnsgd1na2vs0mg"},{"bike_id":"e66c0050-63ae-4842-902f-7ed4f4ed8737","system_id":"levelo_inurba_marseille","lat":43.2253,"lon":5.4162,"is_reserved":false,"is_disabled":false,"rental_uris":{"android":"levelo://app?vid=e66c0050-63ae-4842-902f-7ed4f4ed8737","ios":"levelo://app?vid=e66c0050-63ae-4842-902f-7ed4f4ed8737"},"vehicle_type_id":"4","last_reported":1769886806,"current_range_meters":8800,"station_id":"st_d2o4gvlbi1j2169b742g","pricing_plan_id":"cebpf4jnsgd1na2vs0mg"},{"bike_id":"d0765df0-cc90-4cba-8b79-61ce95080b49","system_id":"levelo_inurba_marseille","lat":43.22571,"lon":5.41621,"is_reserved":false,"is_disabled":false,"rental_uris":{"android":"levelo://app?vid=d0765df0-cc90-4cba-8b79-61ce95080b49","ios":"levelo://app?vid=d0765df0-cc90-4cba-8b79-61ce95080b49"},"vehicle_type_id":"4","last_reported":1769886806,"current_range_meters":8800,"station_id":"st_d2o4gvlbi1j2169b742g","pricing_plan_id":"cebpf4jnsgd1na2vs0mg"},{"bike_id":"1b63f7c4-ca44-473d-a84e-87a7fc86675b","system_id":"levelo_inurba_marseille","lat":43.30171,"lon":5.39902,"is_reserved":false,"is_disabled":false,"rental_uris":{"android":"levelo://app?vid=1b63f7c4-ca44-473d-a84e-87a7fc86675b","ios":"levelo://app?vid=1b63f7c4-ca44-473d-a84e-87a7fc86675b"},"vehicle_type_id":"4","last_reported":1769886806,"current_range_meters":8800,"station_id":"","pricing_plan_id":"cebpf4jnsgd1na2vs0mg"},{"bike_id":"888525ee-b35b-43db-936d-002e3b93bbe2","system_id":"levelo_inurba_marseille","lat":43.27318,"lon":5.39094,"is_reserved":false,"is_disabled":false,"rental_uris":{"android":"levelo://app?vid=888525ee-b35b-43db-936d-002e3b93bbe2","ios":"levelo://app?vid=888525ee-b35b-43db-936d-002e3b93bbe2"},"vehicle_type_id":"4","last_reported":1769886806,"current_range_meters":8800,"station_id":"ce4bhgp2rcd13ifvqfe0","pricing_plan_id":"cebpf4jnsgd1na2vs0mg"},{"bike_id":"fd887aca-98e1-464f-84ac-e7817b808a75","system_id":"levelo_inurba_marseille","lat":43.2439,"lon":5.37052,"is_reserved":false,"is_disabled":false,"rental_uris":{"android":"levelo://app?vid=fd887aca-98e1-464f-84ac-e7817b808a75","ios":"levelo://app?vid=fd887aca-98e1-464f-84ac-e7817b808a75"},"vehicle_type_id":"4","last_reported":1769886806,"current_range_meters":8800,"station_id":"ce4bhhh2rcd13ifvqfk0","pricing_plan_id":"cebpf4jnsgd1na2vs0mg"},{"bike_id":"27727500-371c-4c0f-9936-b3e5d218633e","system_id":"levelo_inurba_marseille","lat":43.25503,"lon":5.3765,"is_reserved":false,"is_disabled":false,"rental_uris":{"android":"levelo://app?vid=27727500-371c-4c0f-9936-b3e5d218633e","ios":"levelo://app?vid=27727500-371c-4c0f-9936-b3e5d218633e"},"vehicle_type_id":"4","last_reported":1769886806,"current_range_meters":8800,"station_id":"ce4bhh12rcd13ifvqff0","pricing_plan_id":"cebpf4jnsgd1na2vs0mg"},{"bike_id":"b6aa1398-594b-4b16-935f-0f4d91531fa6","system_id":"levelo_inurba_marseille","lat":43.30294,"lon":5.37223,"is_reserved":false,"is_disabled":false,"rental_uris":{"android":"levelo://app?vid=b6aa1398-594b-4b16-935f-0f4d91531fa6","ios":"levelo://app?vid=b6aa1398-594b-4b16-935f-0f4d91531fa6"},"vehicle_type_id":"4","last_reported":1769886806,"current_range_meters":8800,"station_id":"","pricing_plan_id":"cebpf4jnsgd1na2vs0mg"},{"bike_id":"282b4c58-6430-4481-adf2-6fc926d2a7c4","system_id":"levelo_inurba_marseille","lat":43.23192,"lon":5.35589,"is_reserved":false,"is_disabled":false,"rental_uris":{"android":"levelo://app?vid=282b4c58-6430-4481-adf2-6fc926d2a7c4","ios":"levelo://app?vid=282b4c58-6430-4481-adf2-6fc926d2a7c4"},"vehicle_type_id":"4","last_reported":1769886806,"current_range_meters":8800,"station_id":"ce4bhu92rcd13ifvqi70","pricing_plan_id":"cebpf4jnsgd1na2vs0mg"},{"bike_id":"7cf56b5d-4513-486d-9216-3f938f14c405","system_id":"levelo_inurba_marseille","lat":43.243949,"lon":5.370663,"is_reserved":false,"is_disabled":false,"rental_uris":{"android":"levelo://app?vid=7cf56b5d-4513-486d-9216-3f938f14c405","ios":"levelo://app?vid=7cf56b5d-4513-486d-9216-3f938f14c405"},"vehicle_type_id":"4","last_reported":1769886806,"current_range_meters":8800,"station_id":"ce4bhhh2rcd13ifvqfk0","pricing_plan_id":"cebpf4jnsgd1na2vs0mg"},{"bike_id":"17f7a6ee-3ea2-47b2-a6b2-af428a254ad3","system_id":"levelo_inurba_marseille","lat":43.28617,"lon":5.35106,"is_reserved":false,"is_disabled":false,"rental_uris":{"android":"levelo://app?vid=17f7a6ee-3ea2-47b2-a6b2-af428a254ad3","ios":"levelo://app?vid=17f7a6ee-3ea2-47b2-a6b2-af428a254ad3"},"vehicle_type_id":"4","last_reported":1769886806,"current_range_meters":8800,"station_id":"ce4bhch2rcd13ifvqeug","pricing_plan_id":"cebpf4jnsgd1na2vs0mg"},{"bike_id":"984d051a-47d7-4d6c-a90c-41b0aa8855bb","system_id":"levelo_inurba_marseille","lat":43.32448,"lon":5.36569,"is_reserved":false,"is_disabled":false,"rental_uris":{"android":"levelo://app?vid=984d051a-47d7-4d6c-a90c-41b0aa8855bb","ios":"levelo://app?vid=984d051a-47d7-4d6c-a90c-41b0aa8855bb"},"vehicle_type_id":"4","last_reported":1769886806,"current_range_meters":8800,"station_id":"ce4bhs12rcd13ifvqhvg","pricing_plan_id":"cebpf4jnsgd1na2vs0mg"},{"bike_id":"837f081a-e646-4c00-93df-f959748be000","system_id":"levelo_inurba_marseille","lat":43.2466,"lon":5.38146,"is_reserved":false,"is_disabled":false,"rental_uris":{"android":"levelo://app?vid=837f081a-e646-4c00-93df-f959748be000","ios":"levelo://app?vid=837f081a-e646-4c00-93df-f959748be000"},"vehicle_type_id":"4","last_reported":1769886806,"current_range_meters":8800,"station_id":"ce4bhih2rcd13ifvqfr0","pricing_plan_id":"cebpf4jnsgd1na2vs0mg"},{"bike_id":"28394312-5d6a-47b2-bedc-1a3e291a0627","system_id":"levelo_inurba_marseille","lat":43.28414,"lon":5.37513,"is_reserved":false,"is_disabled":false,"rental_uris":{"android":"levelo://app?vid=28394312-5d6a-47b2-bedc-1a3e291a0627","ios":"levelo://app?vid=28394312-5d6a-47b2-bedc-1a3e291a0627"},"vehicle_type_id":"4","last_reported":1769886806,"current_range_meters":9200,"station_id":"ce4bh412rcd13ifvqds0","pricing_plan_id":"cebpf4jnsgd1na2vs0mg"},{"bike_id":"5b4c0c7a-c0c9-4273-96c2-faded5f9cc26","system_id":"levelo_inurba_marseille","lat":43.27945,"lon":5.41032,"is_reserved":false,"is_disabled":false,"rental_uris":{"android":"levelo://app?vid=5b4c0c7a-c0c9-4273-96c2-faded5f9cc26","ios":"levelo://app?vid=5b4c0c7a-c0c9-4273-96c2-faded5f9cc26"},"vehicle_type_id":"4","last_reported":1769886806,"current_range_meters":9200,"station_id":"ce4bhnp2rcd13ifvqh0g","pricing_plan_id":"cebpf4jnsgd1na2vs0mg"},{"bike_id":"cbfde2d3-df0a-49db-93c4-81c5397a2860","system_id":"levelo_inurba_marseille","lat":43.2952,"lon":5.37986,"is_reserved":false,"is_disabled":false,"rental_uris":{"android":"levelo://app?vid=cbfde2d3-df0a-49db-93c4-81c5397a2860","ios":"levelo://app?vid=cbfde2d3-df0a-49db-93c4-81c5397a2860"},"vehicle_type_id":"4","last_reported":1769886806,"current_range_meters":9200,"station_id":"","pricing_plan_id":"cebpf4jnsgd1na2vs0mg"},{"bike_id":"667a8115-c025-4bf7-9ff4-f5acd84dd723","system_id":"levelo_inurba_marseille","lat":43.29816,"lon":5.4406,"is_reserved":false,"is_disabled":false,"rental_uris":{"android":"levelo://app?vid=667a8115-c025-4bf7-9ff4-f5acd84dd723","ios":"levelo://app?vid=667a8115-c025-4bf7-9ff4-f5acd84dd723"},"vehicle_type_id":"4","last_reported":1769886806,"current_range_meters":9200,"station_id":"st_d3jp68qikq2c7381ktn0","pricing_plan_id":"cebpf4jnsgd1na2vs0mg"},{"bike_id":"9c85555e-ecc5-4b77-9721-4173af578739","system_id":"levelo_inurba_marseille","lat":43.32104,"lon":5.36811,"is_reserved":false,"is_disabled":false,"rental_uris":{"android":"levelo://app?vid=9c85555e-ecc5-4b77-9721-4173af578739","ios":"levelo://app?vid=9c85555e-ecc5-4b77-9721-4173af578739"},"vehicle_type_id":"4","last_reported":1769886806,"current_range_meters":9200,"station_id":"ce4bhrh2rcd13ifvqhug","pricing_plan_id":"cebpf4jnsgd1na2vs0mg"},{"bike_id":"f63ad825-b273-458f-bf2e-2ef630e3fede","system_id":"levelo_inurba_marseille","lat":43.22558,"lon":5.41608,"is_reserved":false,"is_disabled":false,"rental_uris":{"android":"levelo://app?vid=f63ad825-b273-458f-bf2e-2ef630e3fede","ios":"levelo://app?vid=f63ad825-b273-458f-bf2e-2ef630e3fede"},"vehicle_type_id":"4","last_reported":1769886806,"current_range_meters":9200,"station_id":"st_d2o4gvlbi1j2169b742g","pricing_plan_id":"cebpf4jnsgd1na2vs0mg"},{"bike_id":"a5fa5eb4-dba4-4657-ad87-40acdd8b2f31","system_id":"levelo_inurba_marseille","lat":43.31082,"lon":5.42432,"is_reserved":false,"is_disabled":false,"rental_uris":{"android":"levelo://app?vid=a5fa5eb4-dba4-4657-ad87-40acdd8b2f31","ios":"levelo://app?vid=a5fa5eb4-dba4-4657-ad87-40acdd8b2f31"},"vehicle_type_id":"4","last_reported":1769886806,"current_range_meters":9200,"station_id":"ce4bhp92rcd13ifvqhag","pricing_plan_id":"cebpf4jnsgd1na2vs0mg"},{"bike_id":"f973d1ec-f118-4c4f-8306-b65dfb7e2f13","system_id":"levelo_inurba_marseille","lat":43.28473,"lon":5.39063,"is_reserved":false,"is_disabled":false,"rental_uris":{"android":"levelo://app?vid=f973d1ec-f118-4c4f-8306-b65dfb7e2f13","ios":"levelo://app?vid=f973d1ec-f118-4c4f-8306-b65dfb7e2f13"},"vehicle_type_id":"4","last_reported":1769886806,"current_range_meters":9200,"station_id":"","pricing_plan_id":"cebpf4jnsgd1na2vs0mg"},{"bike_id":"38b77181-b3ce-4754-b533-7792bcc3267e","system_id":"levelo_inurba_marseille","lat":43.27363,"lon":5.36254,"is_reserved":false,"is_disabled":false,"rental_uris":{"android":"levelo://app?vid=38b77181-b3ce-4754-b533-7792bcc3267e","ios":"levelo://app?vid=38b77181-b3ce-4754-b533-7792bcc3267e"},"vehicle_type_id":"4","last_reported":1769886806,"current_range_meters":9200,"station_id":"ce4bhbh2rcd13ifvqeo0","pricing_plan_id":"cebpf4jnsgd1na2vs0mg"},{"bike_id":"767dc731-f365-45e9-b7a0-0144ed9ff9a5","system_id":"levelo_inurba_marseille","lat":43.31232,"lon":5.36865,"is_reserved":false,"is_disabled":false,"rental_uris":{"android":"levelo://app?vid=767dc731-f365-45e9-b7a0-0144ed9ff9a5","ios":"levelo://app?vid=767dc731-f365-45e9-b7a0-0144ed9ff9a5"},"vehicle_type_id":"4","last_reported":1769886806,"current_range_meters":9200,"station_id":"ce4bgl92rcd13ifvqbq0","pricing_plan_id":"cebpf4jnsgd1na2vs0mg"},{"bike_id":"17fc3ab7-00d3-4338-8e8f-dbb064ce858e","system_id":"levelo_inurba_marseille","lat":43.2907,"lon":5.37171,"is_reserved":false,"is_disabled":false,"rental_uris":{"android":"levelo://app?vid=17fc3ab7-00d3-4338-8e8f-dbb064ce858e","ios":"levelo://app?vid=17fc3ab7-00d3-4338-8e8f-dbb064ce858e"},"vehicle_type_id":"4","last_reported":1769886806,"current_range_meters":9200,"station_id":"ce4bh5p2rcd13ifvqe4g","pricing_plan_id":"cebpf4jnsgd1na2vs0mg"},{"bike_id":"0541ad53-c1bf-4cf5-876b-2a19fe47b261","system_id":"levelo_inurba_marseille","lat":43.32153,"lon":5.3684,"is_reserved":false,"is_disabled":false,"rental_uris":{"android":"levelo://app?vid=0541ad53-c1bf-4cf5-876b-2a19fe47b261","ios":"levelo://app?vid=0541ad53-c1bf-4cf5-876b-2a19fe47b261"},"vehicle_type_id":"4","last_reported":1769886806,"current_range_meters":9200,"station_id":"ce4bhrh2rcd13ifvqhug","pricing_plan_id":"cebpf4jnsgd1na2vs0mg"},{"bike_id":"14f8ce34-daf8-44d0-81d3-d2108ce5bb20","system_id":"levelo_inurba_marseille","lat":43.28496,"lon":5.3845,"is_reserved":false,"is_disabled":false,"rental_uris":{"android":"levelo://app?vid=14f8ce34-daf8-44d0-81d3-d2108ce5bb20","ios":"levelo://app?vid=14f8ce34-daf8-44d0-81d3-d2108ce5bb20"},"vehicle_type_id":"4","last_reported":1769886806,"current_range_meters":9200,"station_id":"ce4bh512rcd13ifvqe3g","pricing_plan_id":"cebpf4jnsgd1na2vs0mg"},{"bike_id":"72e53b59-71d2-47bd-a1a9-6fad9dcd4772","system_id":"levelo_inurba_marseille","lat":43.30588,"lon":5.39331,"is_reserved":false,"is_disabled":false,"rental_uris":{"android":"levelo://app?vid=72e53b59-71d2-47bd-a1a9-6fad9dcd4772","ios":"levelo://app?vid=72e53b59-71d2-47bd-a1a9-6fad9dcd4772"},"vehicle_type_id":"4","last_reported":1769886806,"current_range_meters":9200,"station_id":"ce4bh0p2rcd13ifvqd80","pricing_plan_id":"cebpf4jnsgd1na2vs0mg"},{"bike_id":"26bd2557-3046-4212-82fc-da1fdbd42b2c","system_id":"levelo_inurba_marseille","lat":43.337444,"lon":5.374475,"is_reserved":false,"is_disabled":false,"rental_uris":{"android":"levelo://app?vid=26bd2557-3046-4212-82fc-da1fdbd42b2c","ios":"levelo://app?vid=26bd2557-3046-4212-82fc-da1fdbd42b2c"},"vehicle_type_id":"4","last_reported":1769886806,"current_range_meters":9200,"station_id":"","pricing_plan_id":"cebpf4jnsgd1na2vs0mg"},{"bike_id":"76c8ffc5-960f-4bd7-a0d8-2cb88ef9b337","system_id":"levelo_inurba_marseille","lat":43.24799,"lon":5.37452,"is_reserved":false,"is_disabled":false,"rental_uris":{"android":"levelo://app?vid=76c8ffc5-960f-4bd7-a0d8-2cb88ef9b337","ios":"levelo://app?vid=76c8ffc5-960f-4bd7-a0d8-2cb88ef9b337"},"vehicle_type_id":"4","last_reported":1769886806,"current_range_meters":9200,"station_id":"ce4bhgh2rcd13ifvqfb0","pricing_plan_id":"cebpf4jnsgd1na2vs0mg"},{"bike_id":"78901578-512d-4116-8eb1-4a84e7d9708a","system_id":"levelo_inurba_marseille","lat":43.2511,"lon":5.40331,"is_reserved":false,"is_disabled":false,"rental_uris":{"android":"levelo://app?vid=78901578-512d-4116-8eb1-4a84e7d9708a","ios":"levelo://app?vid=78901578-512d-4116-8eb1-4a84e7d9708a"},"vehicle_type_id":"4","last_reported":1769886806,"current_range_meters":9200,"station_id":"ce4bhlh2rcd13ifvqgig","pricing_plan_id":"cebpf4jnsgd1na2vs0mg"},{"bike_id":"122bdd52-3f00-46e6-a5ab-dd9b888e1bc0","system_id":"levelo_inurba_marseille","lat":43.24202,"lon":5.39737,"is_reserved":false,"is_disabled":false,"rental_uris":{"android":"levelo://app?vid=122bdd52-3f00-46e6-a5ab-dd9b888e1bc0","ios":"levelo://app?vid=122bdd52-3f00-46e6-a5ab-dd9b888e1bc0"},"vehicle_type_id":"4","last_reported":1769886806,"current_range_meters":9200,"station_id":"ce4bhn12rcd13ifvqgpg","pricing_plan_id":"cebpf4jnsgd1na2vs0mg"},{"bike_id":"1e1e7ed4-99a9-4250-8b49-51293222a9d2","system_id":"levelo_inurba_marseille","lat":43.29297,"lon":5.3746,"is_reserved":false,"is_disabled":false,"rental_uris":{"android":"levelo://app?vid=1e1e7ed4-99a9-4250-8b49-51293222a9d2","ios":"levelo://app?vid=1e1e7ed4-99a9-4250-8b49-51293222a9d2"},"vehicle_type_id":"4","last_reported":1769886806,"current_range_meters":9200,"station_id":"ce4bgi12rcd13ifvqb70","pricing_plan_id":"cebpf4jnsgd1na2vs0mg"},{"bike_id":"fb24d3d1-fd60-4775-b723-157c13e8fff0","system_id":"levelo_inurba_marseille","lat":43.25509,"lon":5.37648,"is_reserved":false,"is_disabled":false,"rental_uris":{"android":"levelo://app?vid=fb24d3d1-fd60-4775-b723-157c13e8fff0","ios":"levelo://app?vid=fb24d3d1-fd60-4775-b723-157c13e8fff0"},"vehicle_type_id":"4","last_reported":1769886806,"current_range_meters":9200,"station_id":"ce4bhh12rcd13ifvqff0","pricing_plan_id":"cebpf4jnsgd1na2vs0mg"},{"bike_id":"75e7e0f4-e18b-4bc3-90c8-b9bce55601cb","system_id":"levelo_inurba_marseille","lat":43.25329,"lon":5.42156,"is_reserved":false,"is_disabled":false,"rental_uris":{"android":"levelo://app?vid=75e7e0f4-e18b-4bc3-90c8-b9bce55601cb","ios":"levelo://app?vid=75e7e0f4-e18b-4bc3-90c8-b9bce55601cb"},"vehicle_type_id":"4","last_reported":1769886806,"current_range_meters":9200,"station_id":"st_d2m65c5bi1j21697t3ng","pricing_plan_id":"cebpf4jnsgd1na2vs0mg"},{"bike_id":"ee39f90f-3222-4732-9961-b784c72f0999","system_id":"levelo_inurba_marseille","lat":43.23192,"lon":5.35545,"is_reserved":false,"is_disabled":false,"rental_uris":{"android":"levelo://app?vid=ee39f90f-3222-4732-9961-b784c72f0999","ios":"levelo://app?vid=ee39f90f-3222-4732-9961-b784c72f0999"},"vehicle_type_id":"4","last_reported":1769886806,"current_range_meters":9200,"station_id":"ce4bhu92rcd13ifvqi70","pricing_plan_id":"cebpf4jnsgd1na2vs0mg"},{"bike_id":"cda423b0-114c-4365-aeb1-89fb80c8de39","system_id":"levelo_inurba_marseille","lat":43.24804,"lon":5.37446,"is_reserved":false,"is_disabled":false,"rental_uris":{"android":"levelo://app?vid=cda423b0-114c-4365-aeb1-89fb80c8de39","ios":"levelo://app?vid=cda423b0-114c-4365-aeb1-89fb80c8de39"},"vehicle_type_id":"4","last_reported":1769886806,"current_range_meters":9600,"station_id":"ce4bhgh2rcd13ifvqfb0","pricing_plan_id":"cebpf4jnsgd1na2vs0mg"},{"bike_id":"0a1300ad-2f14-46b7-8956-d36a4a430b42","system_id":"levelo_inurba_marseille","lat":43.24802,"lon":5.37451,"is_reserved":false,"is_disabled":false,"rental_uris":{"android":"levelo://app?vid=0a1300ad-2f14-46b7-8956-d36a4a430b42","ios":"levelo://app?vid=0a1300ad-2f14-46b7-8956-d36a4a430b42"},"vehicle_type_id":"4","last_reported":1769886806,"current_range_meters":9600,"station_id":"ce4bhgh2rcd13ifvqfb0","pricing_plan_id":"cebpf4jnsgd1na2vs0mg"},{"bike_id":"251cf364-0fe0-4fa6-ba38-79e322b5f9a0","system_id":"levelo_inurba_marseille","lat":43.29526,"lon":5.3941,"is_reserved":false,"is_disabled":false,"rental_uris":{"android":"levelo://app?vid=251cf364-0fe0-4fa6-ba38-79e322b5f9a0","ios":"levelo://app?vid=251cf364-0fe0-4fa6-ba38-79e322b5f9a0"},"vehicle_type_id":"4","last_reported":1769886806,"current_range_meters":9600,"station_id":"ce4bh292rcd13ifvqdf0","pricing_plan_id":"cebpf4jnsgd1na2vs0mg"},{"bike_id":"3471e8e7-8da3-45e0-a561-cdc2e5b04adf","system_id":"levelo_inurba_marseille","lat":43.24639,"lon":5.43148,"is_reserved":false,"is_disabled":false,"rental_uris":{"android":"levelo://app?vid=3471e8e7-8da3-45e0-a561-cdc2e5b04adf","ios":"levelo://app?vid=3471e8e7-8da3-45e0-a561-cdc2e5b04adf"},"vehicle_type_id":"4","last_reported":1769886806,"current_range_meters":9600,"station_id":"st_d2m6c4gdas8pm72e190g","pricing_plan_id":"cebpf4jnsgd1na2vs0mg"},{"bike_id":"9c2cc992-186a-4b4e-a8c4-2416ec14609e","system_id":"levelo_inurba_marseille","lat":43.25861,"lon":5.399,"is_reserved":false,"is_disabled":false,"rental_uris":{"android":"levelo://app?vid=9c2cc992-186a-4b4e-a8c4-2416ec14609e","ios":"levelo://app?vid=9c2cc992-186a-4b4e-a8c4-2416ec14609e"},"vehicle_type_id":"4","last_reported":1769886806,"current_range_meters":9600,"station_id":"ce4bhl92rcd13ifvqghg","pricing_plan_id":"cebpf4jnsgd1na2vs0mg"},{"bike_id":"7296b1cd-b884-46fd-9da9-7b4b58614661","system_id":"levelo_inurba_marseille","lat":43.32361,"lon":5.36765,"is_reserved":false,"is_disabled":false,"rental_uris":{"android":"levelo://app?vid=7296b1cd-b884-46fd-9da9-7b4b58614661","ios":"levelo://app?vid=7296b1cd-b884-46fd-9da9-7b4b58614661"},"vehicle_type_id":"4","last_reported":1769886806,"current_range_meters":9600,"station_id":"ce4bhsh2rcd13ifvqi2g","pricing_plan_id":"cebpf4jnsgd1na2vs0mg"},{"bike_id":"d8ae7e69-6981-441e-ba5f-a9c08108182c","system_id":"levelo_inurba_marseille","lat":43.25475,"lon":5.37569,"is_reserved":false,"is_disabled":false,"rental_uris":{"android":"levelo://app?vid=d8ae7e69-6981-441e-ba5f-a9c08108182c","ios":"levelo://app?vid=d8ae7e69-6981-441e-ba5f-a9c08108182c"},"vehicle_type_id":"4","last_reported":1769886806,"current_range_meters":9600,"station_id":"","pricing_plan_id":"cebpf4jnsgd1na2vs0mg"},{"bike_id":"6ad1315f-8b08-4826-a0d1-84998d7933d2","system_id":"levelo_inurba_marseille","lat":43.3021,"lon":5.39467,"is_reserved":false,"is_disabled":false,"rental_uris":{"android":"levelo://app?vid=6ad1315f-8b08-4826-a0d1-84998d7933d2","ios":"levelo://app?vid=6ad1315f-8b08-4826-a0d1-84998d7933d2"},"vehicle_type_id":"4","last_reported":1769886806,"current_range_meters":9600,"station_id":"ce4bh0p2rcd13ifvqd70","pricing_plan_id":"cebpf4jnsgd1na2vs0mg"},{"bike_id":"45fad253-71bf-4f4c-8775-bdb67f25534c","system_id":"levelo_inurba_marseille","lat":43.26563,"lon":5.39037,"is_reserved":false,"is_disabled":false,"rental_uris":{"android":"levelo://app?vid=45fad253-71bf-4f4c-8775-bdb67f25534c","ios":"levelo://app?vid=45fad253-71bf-4f4c-8775-bdb67f25534c"},"vehicle_type_id":"4","last_reported":1769886806,"current_range_meters":9600,"station_id":"ce4bhe12rcd13ifvqf30","pricing_plan_id":"cebpf4jnsgd1na2vs0mg"},{"bike_id":"a934431b-941e-40dc-be7c-3e21d28e635c","system_id":"levelo_inurba_marseille","lat":43.30149,"lon":5.38946,"is_reserved":false,"is_disabled":false,"rental_uris":{"android":"levelo://app?vid=a934431b-941e-40dc-be7c-3e21d28e635c","ios":"levelo://app?vid=a934431b-941e-40dc-be7c-3e21d28e635c"},"vehicle_type_id":"4","last_reported":1769886806,"current_range_meters":9600,"station_id":"","pricing_plan_id":"cebpf4jnsgd1na2vs0mg"},{"bike_id":"b4fbeb64-1fb9-4178-ae15-4108561043c9","system_id":"levelo_inurba_marseille","lat":43.24661,"lon":5.3889,"is_reserved":false,"is_disabled":false,"rental_uris":{"android":"levelo://app?vid=b4fbeb64-1fb9-4178-ae15-4108561043c9","ios":"levelo://app?vid=b4fbeb64-1fb9-4178-ae15-4108561043c9"},"vehicle_type_id":"4","last_reported":1769886806,"current_range_meters":10000,"station_id":"ce4bhg12rcd13ifvqf60","pricing_plan_id":"cebpf4jnsgd1na2vs0mg"},{"bike_id":"87a354e2-aacd-4ec9-ade6-6f6c8860ce28","system_id":"levelo_inurba_marseille","lat":43.28039,"lon":5.36947,"is_reserved":false,"is_disabled":false,"rental_uris":{"android":"levelo://app?vid=87a354e2-aacd-4ec9-ade6-6f6c8860ce28","ios":"levelo://app?vid=87a354e2-aacd-4ec9-ade6-6f6c8860ce28"},"vehicle_type_id":"4","last_reported":1769886806,"current_range_meters":10000,"station_id":"ce4bha12rcd13ifvqef0","pricing_plan_id":"cebpf4jnsgd1na2vs0mg"},{"bike_id":"1b9e7bf5-f399-4b7a-935f-44d1badb48a9","system_id":"levelo_inurba_marseille","lat":43.292661,"lon":5.384371,"is_reserved":false,"is_disabled":false,"rental_uris":{"android":"levelo://app?vid=1b9e7bf5-f399-4b7a-935f-44d1badb48a9","ios":"levelo://app?vid=1b9e7bf5-f399-4b7a-935f-44d1badb48a9"},"vehicle_type_id":"4","last_reported":1769886806,"current_range_meters":10000,"station_id":"ce4bh3p2rcd13ifvqdp0","pricing_plan_id":"cebpf4jnsgd1na2vs0mg"},{"bike_id":"7538f3bc-c504-457b-8867-886447e19dda","system_id":"levelo_inurba_marseille","lat":43.280346,"lon":5.369462,"is_reserved":false,"is_disabled":false,"rental_uris":{"android":"levelo://app?vid=7538f3bc-c504-457b-8867-886447e19dda","ios":"levelo://app?vid=7538f3bc-c504-457b-8867-886447e19dda"},"vehicle_type_id":"4","last_reported":1769886806,"current_range_meters":10000,"station_id":"ce4bha12rcd13ifvqef0","pricing_plan_id":"cebpf4jnsgd1na2vs0mg"},{"bike_id":"6b68bd06-02fc-46d3-a60c-06258ba9ca62","system_id":"levelo_inurba_marseille","lat":43.29533,"lon":5.39042,"is_reserved":false,"is_disabled":false,"rental_uris":{"android":"levelo://app?vid=6b68bd06-02fc-46d3-a60c-06258ba9ca62","ios":"levelo://app?vid=6b68bd06-02fc-46d3-a60c-06258ba9ca62"},"vehicle_type_id":"4","last_reported":1769886806,"current_range_meters":10000,"station_id":"ce4bh3p2rcd13ifvqdp0","pricing_plan_id":"cebpf4jnsgd1na2vs0mg"},{"bike_id":"0cd606d8-a743-4e23-8561-bb2b111eb345","system_id":"levelo_inurba_marseille","lat":43.29973,"lon":5.38498,"is_reserved":false,"is_disabled":false,"rental_uris":{"android":"levelo://app?vid=0cd606d8-a743-4e23-8561-bb2b111eb345","ios":"levelo://app?vid=0cd606d8-a743-4e23-8561-bb2b111eb345"},"vehicle_type_id":"4","last_reported":1769886806,"current_range_meters":10000,"station_id":"ce4bgj92rcd13ifvqbd0","pricing_plan_id":"cebpf4jnsgd1na2vs0mg"},{"bike_id":"94dc4ea4-8afe-49be-8c24-144fdf1722a8","system_id":"levelo_inurba_marseille","lat":43.2455,"lon":5.39509,"is_reserved":false,"is_disabled":false,"rental_uris":{"android":"levelo://app?vid=94dc4ea4-8afe-49be-8c24-144fdf1722a8","ios":"levelo://app?vid=94dc4ea4-8afe-49be-8c24-144fdf1722a8"},"vehicle_type_id":"4","last_reported":1769886806,"current_range_meters":10000,"station_id":"ce4bhlp2rcd13ifvqgjg","pricing_plan_id":"cebpf4jnsgd1na2vs0mg"},{"bike_id":"d2ae1221-797e-4542-b4bd-d55104ad25da","system_id":"levelo_inurba_marseille","lat":43.21729,"lon":5.34629,"is_reserved":false,"is_disabled":false,"rental_uris":{"android":"levelo://app?vid=d2ae1221-797e-4542-b4bd-d55104ad25da","ios":"levelo://app?vid=d2ae1221-797e-4542-b4bd-d55104ad25da"},"vehicle_type_id":"4","last_reported":1769886806,"current_range_meters":10000,"station_id":"st_cvj6r9ubvosntc0bgbag","pricing_plan_id":"cebpf4jnsgd1na2vs0mg"},{"bike_id":"a9976113-461f-4068-baa6-28ae0013e332","system_id":"levelo_inurba_marseille","lat":43.25347,"lon":5.42164,"is_reserved":false,"is_disabled":false,"rental_uris":{"android":"levelo://app?vid=a9976113-461f-4068-baa6-28ae0013e332","ios":"levelo://app?vid=a9976113-461f-4068-baa6-28ae0013e332"},"vehicle_type_id":"4","last_reported":1769886806,"current_range_meters":10000,"station_id":"st_d2m65c5bi1j21697t3ng","pricing_plan_id":"cebpf4jnsgd1na2vs0mg"},{"bike_id":"187ef672-d9f0-4387-a63f-79cf391f780f","system_id":"levelo_inurba_marseille","lat":43.30133,"lon":5.38091,"is_reserved":false,"is_disabled":false,"rental_uris":{"android":"levelo://app?vid=187ef672-d9f0-4387-a63f-79cf391f780f","ios":"levelo://app?vid=187ef672-d9f0-4387-a63f-79cf391f780f"},"vehicle_type_id":"4","last_reported":1769886806,"current_range_meters":10000,"station_id":"ce4bgjp2rcd13ifvqbh0","pricing_plan_id":"cebpf4jnsgd1na2vs0mg"},{"bike_id":"4966b969-8e6a-4f73-a601-0ddcaa628412","system_id":"levelo_inurba_marseille","lat":43.28345,"lon":5.38104,"is_reserved":false,"is_disabled":false,"rental_uris":{"android":"levelo://app?vid=4966b969-8e6a-4f73-a601-0ddcaa628412","ios":"levelo://app?vid=4966b969-8e6a-4f73-a601-0ddcaa628412"},"vehicle_type_id":"4","last_reported":1769886806,"current_range_meters":10000,"station_id":"ce4bh412rcd13ifvqdr0","pricing_plan_id":"cebpf4jnsgd1na2vs0mg"},{"bike_id":"89da0557-2c6e-4998-90ca-afc2b5a8c88d","system_id":"levelo_inurba_marseille","lat":43.27948,"lon":5.4105,"is_reserved":false,"is_disabled":false,"rental_uris":{"android":"levelo://app?vid=89da0557-2c6e-4998-90ca-afc2b5a8c88d","ios":"levelo://app?vid=89da0557-2c6e-4998-90ca-afc2b5a8c88d"},"vehicle_type_id":"4","last_reported":1769886806,"current_range_meters":10000,"station_id":"ce4bhnp2rcd13ifvqh0g","pricing_plan_id":"cebpf4jnsgd1na2vs0mg"},{"bike_id":"a8e4783b-ca0a-4823-859b-9f02ab58cd4a","system_id":"levelo_inurba_marseille","lat":43.29289,"lon":5.36837,"is_reserved":false,"is_disabled":false,"rental_uris":{"android":"levelo://app?vid=a8e4783b-ca0a-4823-859b-9f02ab58cd4a","ios":"levelo://app?vid=a8e4783b-ca0a-4823-859b-9f02ab58cd4a"},"vehicle_type_id":"4","last_reported":1769886806,"current_range_meters":10000,"station_id":"ce4bhbp2rcd13ifvqesg","pricing_plan_id":"cebpf4jnsgd1na2vs0mg"},{"bike_id":"58982c61-2f00-4e02-b620-223b4d372a1d","system_id":"levelo_inurba_marseille","lat":43.25582,"lon":5.38244,"is_reserved":false,"is_disabled":false,"rental_uris":{"android":"levelo://app?vid=58982c61-2f00-4e02-b620-223b4d372a1d","ios":"levelo://app?vid=58982c61-2f00-4e02-b620-223b4d372a1d"},"vehicle_type_id":"4","last_reported":1769886806,"current_range_meters":10000,"station_id":"ce4bhih2rcd13ifvqfs0","pricing_plan_id":"cebpf4jnsgd1na2vs0mg"},{"bike_id":"967e1832-468e-48d4-b164-1bb5ff385d3e","system_id":"levelo_inurba_marseille","lat":43.24641,"lon":5.43147,"is_reserved":false,"is_disabled":false,"rental_uris":{"android":"levelo://app?vid=967e1832-468e-48d4-b164-1bb5ff385d3e","ios":"levelo://app?vid=967e1832-468e-48d4-b164-1bb5ff385d3e"},"vehicle_type_id":"4","last_reported":1769886806,"current_range_meters":10000,"station_id":"st_d2m6c4gdas8pm72e190g","pricing_plan_id":"cebpf4jnsgd1na2vs0mg"},{"bike_id":"973aa489-9bc1-4a2f-ba5f-d15e5b66e7a1","system_id":"levelo_inurba_marseille","lat":43.32476,"lon":5.36562,"is_reserved":false,"is_disabled":false,"rental_uris":{"android":"levelo://app?vid=973aa489-9bc1-4a2f-ba5f-d15e5b66e7a1","ios":"levelo://app?vid=973aa489-9bc1-4a2f-ba5f-d15e5b66e7a1"},"vehicle_type_id":"4","last_reported":1769886806,"current_range_meters":10000,"station_id":"ce4bhs12rcd13ifvqhvg","pricing_plan_id":"cebpf4jnsgd1na2vs0mg"},{"bike_id":"1cebbbab-ccb8-4cb4-b5c7-72632220ceca","system_id":"levelo_inurba_marseille","lat":43.30908,"lon":5.36855,"is_reserved":false,"is_disabled":false,"rental_uris":{"android":"levelo://app?vid=1cebbbab-ccb8-4cb4-b5c7-72632220ceca","ios":"levelo://app?vid=1cebbbab-ccb8-4cb4-b5c7-72632220ceca"},"vehicle_type_id":"4","last_reported":1769886806,"current_range_meters":10800,"station_id":"ce4bgn92rcd13ifvqbvg","pricing_plan_id":"cebpf4jnsgd1na2vs0mg"},{"bike_id":"a825a34e-c66c-4578-9dd4-68f63a09f21e","system_id":"levelo_inurba_marseille","lat":43.27372,"lon":5.36255,"is_reserved":false,"is_disabled":false,"rental_uris":{"android":"levelo://app?vid=a825a34e-c66c-4578-9dd4-68f63a09f21e","ios":"levelo://app?vid=a825a34e-c66c-4578-9dd4-68f63a09f21e"},"vehicle_type_id":"4","last_reported":1769886806,"current_range_meters":10800,"station_id":"ce4bhbh2rcd13ifvqeo0","pricing_plan_id":"cebpf4jnsgd1na2vs0mg"},{"bike_id":"d431d2dc-fe64-4d55-be3e-18b6291747e9","system_id":"levelo_inurba_marseille","lat":43.23059,"lon":5.35488,"is_reserved":false,"is_disabled":false,"rental_uris":{"android":"levelo://app?vid=d431d2dc-fe64-4d55-be3e-18b6291747e9","ios":"levelo://app?vid=d431d2dc-fe64-4d55-be3e-18b6291747e9"},"vehicle_type_id":"4","last_reported":1769886806,"current_range_meters":10800,"station_id":"cpo3342slgdg3j2ifvpg","pricing_plan_id":"cebpf4jnsgd1na2vs0mg"},{"bike_id":"33073528-1e22-401a-900c-0ca191a8c4cf","system_id":"levelo_inurba_marseille","lat":43.22563,"lon":5.41634,"is_reserved":false,"is_disabled":false,"rental_uris":{"android":"levelo://app?vid=33073528-1e22-401a-900c-0ca191a8c4cf","ios":"levelo://app?vid=33073528-1e22-401a-900c-0ca191a8c4cf"},"vehicle_type_id":"4","last_reported":1769886806,"current_range_meters":10800,"station_id":"st_d2o4gvlbi1j2169b742g","pricing_plan_id":"cebpf4jnsgd1na2vs0mg"},{"bike_id":"93e60425-8aae-4f4b-b447-57ef8147db67","system_id":"levelo_inurba_marseille","lat":43.28482,"lon":5.48405,"is_reserved":false,"is_disabled":false,"rental_uris":{"android":"levelo://app?vid=93e60425-8aae-4f4b-b447-57ef8147db67","ios":"levelo://app?vid=93e60425-8aae-4f4b-b447-57ef8147db67"},"vehicle_type_id":"4","last_reported":1769886806,"current_range_meters":10800,"station_id":"st_d3svhcjqgbts73a3dn0g","pricing_plan_id":"cebpf4jnsgd1na2vs0mg"},{"bike_id":"5e1c4385-fefc-40d8-9043-9539df7efdd8","system_id":"levelo_inurba_marseille","lat":43.337444,"lon":5.374475,"is_reserved":false,"is_disabled":false,"rental_uris":{"android":"levelo://app?vid=5e1c4385-fefc-40d8-9043-9539df7efdd8","ios":"levelo://app?vid=5e1c4385-fefc-40d8-9043-9539df7efdd8"},"vehicle_type_id":"4","last_reported":1769886806,"current_range_meters":10800,"station_id":"ce4bhbp2rcd13ifvqesg","pricing_plan_id":"cebpf4jnsgd1na2vs0mg"},{"bike_id":"51eab2a0-bbce-4076-b07b-81a2a6961542","system_id":"levelo_inurba_marseille","lat":43.28731,"lon":5.36083,"is_reserved":false,"is_disabled":false,"rental_uris":{"android":"levelo://app?vid=51eab2a0-bbce-4076-b07b-81a2a6961542","ios":"levelo://app?vid=51eab2a0-bbce-4076-b07b-81a2a6961542"},"vehicle_type_id":"4","last_reported":1769886806,"current_range_meters":10800,"station_id":"cki0cbj6b192h4jlfktg","pricing_plan_id":"cebpf4jnsgd1na2vs0mg"},{"bike_id":"4c50b102-00aa-40e2-83bd-5e90d2e54b17","system_id":"levelo_inurba_marseille","lat":43.27995,"lon":5.39999,"is_reserved":false,"is_disabled":false,"rental_uris":{"android":"levelo://app?vid=4c50b102-00aa-40e2-83bd-5e90d2e54b17","ios":"levelo://app?vid=4c50b102-00aa-40e2-83bd-5e90d2e54b17"},"vehicle_type_id":"4","last_reported":1769886806,"current_range_meters":10800,"station_id":"ce4bho92rcd13ifvqh4g","pricing_plan_id":"cebpf4jnsgd1na2vs0mg"},{"bike_id":"4ad2da66-d00a-4006-af72-87c62567c87f","system_id":"levelo_inurba_marseille","lat":43.31034,"lon":5.38595,"is_reserved":false,"is_disabled":false,"rental_uris":{"android":"levelo://app?vid=4ad2da66-d00a-4006-af72-87c62567c87f","ios":"levelo://app?vid=4ad2da66-d00a-4006-af72-87c62567c87f"},"vehicle_type_id":"4","last_reported":1769886806,"current_range_meters":10800,"station_id":"","pricing_plan_id":"cebpf4jnsgd1na2vs0mg"},{"bike_id":"3bdfdbfd-4a2c-4cef-a1ef-828fe31f005e","system_id":"levelo_inurba_marseille","lat":43.241679,"lon":5.363943,"is_reserved":false,"is_disabled":false,"rental_uris":{"android":"levelo://app?vid=3bdfdbfd-4a2c-4cef-a1ef-828fe31f005e","ios":"levelo://app?vid=3bdfdbfd-4a2c-4cef-a1ef-828fe31f005e"},"vehicle_type_id":"4","last_reported":1769886806,"current_range_meters":10800,"station_id":"cpo36qri1sfpv3e86is0","pricing_plan_id":"cebpf4jnsgd1na2vs0mg"},{"bike_id":"c2b8c71c-77a8-44db-a697-7f0f0501de71","system_id":"levelo_inurba_marseille","lat":43.29984,"lon":5.37163,"is_reserved":false,"is_disabled":false,"rental_uris":{"android":"levelo://app?vid=c2b8c71c-77a8-44db-a697-7f0f0501de71","ios":"levelo://app?vid=c2b8c71c-77a8-44db-a697-7f0f0501de71"},"vehicle_type_id":"4","last_reported":1769886806,"current_range_meters":10800,"station_id":"ce4bgr92rcd13ifvqc7g","pricing_plan_id":"cebpf4jnsgd1na2vs0mg"},{"bike_id":"8955a00b-cb7d-4c6b-bd4d-640663902a3f","system_id":"levelo_inurba_marseille","lat":43.29586,"lon":5.38155,"is_reserved":false,"is_disabled":false,"rental_uris":{"android":"levelo://app?vid=8955a00b-cb7d-4c6b-bd4d-640663902a3f","ios":"levelo://app?vid=8955a00b-cb7d-4c6b-bd4d-640663902a3f"},"vehicle_type_id":"4","last_reported":1769886806,"current_range_meters":10800,"station_id":"ce4bgl12rcd13ifvqbo0","pricing_plan_id":"cebpf4jnsgd1na2vs0mg"},{"bike_id":"0b595329-88a5-4dab-8a2c-b70bbda22e84","system_id":"levelo_inurba_marseille","lat":43.278922,"lon":5.410095,"is_reserved":false,"is_disabled":false,"rental_uris":{"android":"levelo://app?vid=0b595329-88a5-4dab-8a2c-b70bbda22e84","ios":"levelo://app?vid=0b595329-88a5-4dab-8a2c-b70bbda22e84"},"vehicle_type_id":"4","last_reported":1769886806,"current_range_meters":10800,"station_id":"ce4bh3h2rcd13ifvqdn0","pricing_plan_id":"cebpf4jnsgd1na2vs0mg"},{"bike_id":"e82f026f-90ce-4b16-9626-16e237d64f88","system_id":"levelo_inurba_marseille","lat":43.27961,"lon":5.4363,"is_reserved":false,"is_disabled":false,"rental_uris":{"android":"levelo://app?vid=e82f026f-90ce-4b16-9626-16e237d64f88","ios":"levelo://app?vid=e82f026f-90ce-4b16-9626-16e237d64f88"},"vehicle_type_id":"4","last_reported":1769886806,"current_range_meters":10800,"station_id":"","pricing_plan_id":"cebpf4jnsgd1na2vs0mg"},{"bike_id":"470737ff-422f-4be7-8794-8cf9b17ccaa0","system_id":"levelo_inurba_marseille","lat":43.27619,"lon":5.36102,"is_reserved":false,"is_disabled":false,"rental_uris":{"android":"levelo://app?vid=470737ff-422f-4be7-8794-8cf9b17ccaa0","ios":"levelo://app?vid=470737ff-422f-4be7-8794-8cf9b17ccaa0"},"vehicle_type_id":"4","last_reported":1769886806,"current_range_meters":10800,"station_id":"ce4bgj92rcd13ifvqbe0","pricing_plan_id":"cebpf4jnsgd1na2vs0mg"},{"bike_id":"958f0714-6a9a-47c8-9907-f7eeb1480f34","system_id":"levelo_inurba_marseille","lat":43.2318,"lon":5.399887,"is_reserved":false,"is_disabled":false,"rental_uris":{"android":"levelo://app?vid=958f0714-6a9a-47c8-9907-f7eeb1480f34","ios":"levelo://app?vid=958f0714-6a9a-47c8-9907-f7eeb1480f34"},"vehicle_type_id":"4","last_reported":1769886806,"current_range_meters":10800,"station_id":"ce4bhn12rcd13ifvqgqg","pricing_plan_id":"cebpf4jnsgd1na2vs0mg"},{"bike_id":"f1afd73d-ec70-4dba-ac5d-df0bb8cc8cb8","system_id":"levelo_inurba_marseille","lat":43.24634,"lon":5.43143,"is_reserved":false,"is_disabled":false,"rental_uris":{"android":"levelo://app?vid=f1afd73d-ec70-4dba-ac5d-df0bb8cc8cb8","ios":"levelo://app?vid=f1afd73d-ec70-4dba-ac5d-df0bb8cc8cb8"},"vehicle_type_id":"4","last_reported":1769886806,"current_range_meters":11200,"station_id":"st_d2m6c4gdas8pm72e190g","pricing_plan_id":"cebpf4jnsgd1na2vs0mg"},{"bike_id":"414c5a26-6221-4a83-a117-3d6e5b43843c","system_id":"levelo_inurba_marseille","lat":43.287016,"lon":5.373832,"is_reserved":false,"is_disabled":false,"rental_uris":{"android":"levelo://app?vid=414c5a26-6221-4a83-a117-3d6e5b43843c","ios":"levelo://app?vid=414c5a26-6221-4a83-a117-3d6e5b43843c"},"vehicle_type_id":"4","last_reported":1769886806,"current_range_meters":11200,"station_id":"ce4bh3p2rcd13ifvqdq0","pricing_plan_id":"cebpf4jnsgd1na2vs0mg"},{"bike_id":"d2ee53f1-49b6-44a6-a171-d364ff8162cf","system_id":"levelo_inurba_marseille","lat":43.334,"lon":5.43091,"is_reserved":false,"is_disabled":false,"rental_uris":{"android":"levelo://app?vid=d2ee53f1-49b6-44a6-a171-d364ff8162cf","ios":"levelo://app?vid=d2ee53f1-49b6-44a6-a171-d364ff8162cf"},"vehicle_type_id":"4","last_reported":1769886806,"current_range_meters":11200,"station_id":"","pricing_plan_id":"cebpf4jnsgd1na2vs0mg"},