{"last_updated":1703527711,"ttl":30,"version":"2.2","data":{"bikes":[{"bike_id":"481575b1-3467-4b2f-b4bc-19206f8e7c24","system_id":"levelo_inurba_marseille","lat":43.313391,"lon":5.36706,"is_reserved":false,"is_disabled":false,"rental_uris":{"android":"levelo://app?vid=481575b1-3467-4b2f-b4bc-19206f8e7c24","ios":"levelo://app?vid=481575b1-3467-4b2f-b4bc-19206f8e7c24"},"vehicle_type_id":"4","last_reported":1703527711,"current_range_meters":28800,"station_id":"ce4bgr92rcd13ifvqc6g","pricing_plan_id":"free"},{"bike_id":"2d535a4b-0684-4cbd-8717-6097262a8c0f","system_id":"levelo_inurba_marseille","lat":43.312239,"lon":5.368562,"is_reserved":false,"is_disabled":false,"rental_uris":{"android":"levelo://app?vid=2d535a4b-0684-4cbd-8717-6097262a8c0f","ios":"levelo://app?vid=2d535a4b-0684-4cbd-8717-6097262a8c0f"},"vehicle_type_id":"4","last_reported":1703527711,"current_range_meters":4000,"station_id":"ce4bgl92rcd13ifvqbq0","pricing_plan_id":"free"},{"bike_id":"b4015a2b-0616-4e76-9bb3-09cb4824a755","system_id":"levelo_inurba_marseille","lat":43.312239,"lon":5.368562,"is_reserved":false,"is_disabled":false,"rental_uris":{"android":"levelo://app?vid=b4015a2b-0616-4e76-9bb3-09cb4824a755","ios":"levelo://app?vid=b4015a2b-0616-4e76-9bb3-09cb4824a755"},"vehicle_type_id":"4","last_reported":1703527711,"current_range_meters":15600,"station_id":"ce4bgl92rcd13ifvqbq0","pricing_plan_id":"free"},{"bike_id":"0a7b266e-f723-40c2-b49b-d5d9ea60994e","system_id":"levelo_inurba_marseille","lat":43.314811,"lon":5.373104,"is_reserved":false,"is_disabled":false,"rental_uris":{"android":"levelo://app?vid=0a7b266e-f723-40c2-b49b-d5d9ea60994e","ios":"levelo://app?vid=0a7b266e-f723-40c2-b49b-d5d9ea60994e"},"vehicle_type_id":"4","last_reported":1703527711,"current_range_meters":12400,"station_id":"ce4bgt12rcd13ifvqcd0","pricing_plan_id":"free"},{"bike_id":"fc1f2613-2a88-45d3-a3ba-ff3b693eb8b1","system_id":"levelo_inurba_marseille","lat":43.314811,"lon":5.373103,"is_reserved":false,"is_disabled":false,"rental_uris":{"android":"levelo://app?vid=fc1f2613-2a88-45d3-a3ba-ff3b693eb8b1","ios":"levelo://app?vid=fc1f2613-2a88-45d3-a3ba-ff3b693eb8b1"},"vehicle_type_id":"4","last_reported":1703527711,"current_range_meters":19600,"station_id":"ce4bgt12rcd13ifvqcd0","pricing_plan_id":"free"},{"bike_id":"d2be49f4-d512-450f-80de-370a6da97420","system_id":"levelo_inurba_marseille","lat":43.318964,"lon":5.36877,"is_reserved":false,"is_disabled":false,"rental_uris":{"android":"levelo://app?vid=d2be49f4-d512-450f-80de-370a6da97420","ios":"levelo://app?vid=d2be49f4-d512-450f-80de-370a6da97420"},"vehicle_type_id":"4","last_reported":1703527711,"current_range_meters":9600,"station_id":"","pricing_plan_id":"free"},{"bike_id":"cc2f4e4f-2b28-4e84-be8f-32c8a171c9e1","system_id":"levelo_inurba_marseille","lat":43.31338,"lon":5.37621,"is_reserved":false,"is_disabled":false,"rental_uris":{"android":"levelo://app?vid=cc2f4e4f-2b28-4e84-be8f-32c8a171c9e1","ios":"levelo://app?vid=cc2f4e4f-2b28-4e84-be8f-32c8a171c9e1"},"vehicle_type_id":"4","last_reported":1703527711,"current_range_meters":27200,"station_id":"","pricing_plan_id":"free"},{"bike_id":"8fef822f-8c06-4395-beea-4d9578bdea4b","system_id":"levelo_inurba_marseille","lat":43.305368,"lon":5.367343,"is_reserved":false,"is_disabled":false,"rental_uris":{"android":"levelo://app?vid=8fef822f-8c06-4395-beea-4d9578bdea4b","ios":"levelo://app?vid=8fef822f-8c06-4395-beea-4d9578bdea4b"},"vehicle_type_id":"4","last_reported":1703527711,"current_range_meters":20400,"station_id":"ce4bgrp2rcd13ifvqc9g","pricing_plan_id":"free"},{"bike_id":"a05cf92b-6afb-4aa1-8199-baa62eb24219","system_id":"levelo_inurba_marseille","lat":43.305368,"lon":5.367343,"is_reserved":false,"is_disabled":false,"rental_uris":{"android":"levelo://app?vid=a05cf92b-6afb-4aa1-8199-baa62eb24219","ios":"levelo://app?vid=a05cf92b-6afb-4aa1-8199-baa62eb24219"},"vehicle_type_id":"4","last_reported":1703527711,"current_range_meters":16800,"station_id":"ce4bgrp2rcd13ifvqc9g","pricing_plan_id":"free"},{"bike_id":"a340cac0-9ac1-4379-8a88-c286b939ce44","system_id":"levelo_inurba_marseille","lat":43.305368,"lon":5.367343,"is_reserved":false,"is_disabled":false,"rental_uris":{"android":"levelo://app?vid=a340cac0-9ac1-4379-8a88-c286b939ce44","ios":"levelo://app?vid=a340cac0-9ac1-4379-8a88-c286b939ce44"},"vehicle_type_id":"4","last_reported":1703527711,"current_range_meters":4400,"station_id":"ce4bgrp2rcd13ifvqc9g","pricing_plan_id":"free"},{"bike_id":"4933251a-20f1-4a17-b9dd-cfd9683047a0","system_id":"levelo_inurba_marseille","lat":43.305368,"lon":5.367343,"is_reserved":false,"is_disabled":false,"rental_uris":{"android":"levelo://app?vid=4933251a-20f1-4a17-b9dd-cfd9683047a0","ios":"levelo://app?vid=4933251a-20f1-4a17-b9dd-cfd9683047a0"},"vehicle_type_id":"4","last_reported":1703527711,"current_range_meters":2000,"station_id":"ce4bgrp2rcd13ifvqc9g","pricing_plan_id":"free"},{"bike_id":"5b7f0eea-7b70-40cc-878a-c064a85fd8c4","system_id":"levelo_inurba_marseille","lat":43.30538,"lon":5.36703,"is_reserved":false,"is_disabled":false,"rental_uris":{"android":"levelo://app?vid=5b7f0eea-7b70-40cc-878a-c064a85fd8c4","ios":"levelo://app?vid=5b7f0eea-7b70-40cc-878a-c064a85fd8c4"},"vehicle_type_id":"4","last_reported":1703527711,"current_range_meters":26800,"station_id":"ce4bgrp2rcd13ifvqc9g","pricing_plan_id":"free"},{"bike_id":"ed0ee458-d167-4624-8c61-96e3c5ea9645","system_id":"levelo_inurba_marseille","lat":43.305706,"lon":5.365654,"is_reserved":false,"is_disabled":false,"rental_uris":{"android":"levelo://app?vid=ed0ee458-d167-4624-8c61-96e3c5ea9645","ios":"levelo://app?vid=ed0ee458-d167-4624-8c61-96e3c5ea9645"},"vehicle_type_id":"4","last_reported":1703527711,"current_range_meters":4800,"station_id":"ce4bgs12rcd13ifvqcag","pricing_plan_id":"free"},{"bike_id":"1a71022c-fdb5-4632-a425-38d7ef4f21e4","system_id":"levelo_inurba_marseille","lat":43.318369,"lon":5.373936,"is_reserved":false,"is_disabled":false,"rental_uris":{"android":"levelo://app?vid=1a71022c-fdb5-4632-a425-38d7ef4f21e4","ios":"levelo://app?vid=1a71022c-fdb5-4632-a425-38d7ef4f21e4"},"vehicle_type_id":"4","last_reported":1703527711,"current_range_meters":0,"station_id":"","pricing_plan_id":"free"},{"bike_id":"88aaa9a4-f2c6-4810-b201-9f531ea56ca6","system_id":"levelo_inurba_marseille","lat":43.305989,"lon":5.37225,"is_reserved":false,"is_disabled":false,"rental_uris":{"android":"levelo://app?vid=88aaa9a4-f2c6-4810-b201-9f531ea56ca6","ios":"levelo://app?vid=88aaa9a4-f2c6-4810-b201-9f531ea56ca6"},"vehicle_type_id":"4","last_reported":1703527711,"current_range_meters":19600,"station_id":"ce4bgqh2rcd13ifvqc4g","pricing_plan_id":"free"},{"bike_id":"fee30148-7d08-4a2b-a5b2-be38d31cb0c6","system_id":"levelo_inurba_marseille","lat":43.305989,"lon":5.37225,"is_reserved":false,"is_disabled":false,"rental_uris":{"android":"levelo://app?vid=fee30148-7d08-4a2b-a5b2-be38d31cb0c6","ios":"levelo://app?vid=fee30148-7d08-4a2b-a5b2-be38d31cb0c6"},"vehicle_type_id":"4","last_reported":1703527711,"current_range_meters":30000,"station_id":"ce4bgqh2rcd13ifvqc4g","pricing_plan_id":"free"},{"bike_id":"90ed8b8e-afc4-4b0f-a11d-5e93b62f94ca","system_id":"levelo_inurba_marseille","lat":43.305989,"lon":5.37225,"is_reserved":false,"is_disabled":false,"rental_uris":{"android":"levelo://app?vid=90ed8b8e-afc4-4b0f-a11d-5e93b62f94ca","ios":"levelo://app?vid=90ed8b8e-afc4-4b0f-a11d-5e93b62f94ca"},"vehicle_type_id":"4","last_reported":1703527711,"current_range_meters":6000,"station_id":"ce4bgqh2rcd13ifvqc4g","pricing_plan_id":"free"},{"bike_id":"d3de8212-6286-49a4-b0d3-fd02d927aba1","system_id":"levelo_inurba_marseille","lat":43.311125,"lon":5.377624,"is_reserved":false,"is_disabled":false,"rental_uris":{"android":"levelo://app?vid=d3de8212-6286-49a4-b0d3-fd02d927aba1","ios":"levelo://app?vid=d3de8212-6286-49a4-b0d3-fd02d927aba1"},"vehicle_type_id":"4","last_reported":1703527711,"current_range_meters":29200,"station_id":"ce4bgt92rcd13ifvqcg0","pricing_plan_id":"free"},{"bike_id":"9c0a7070-f843-4178-9889-659edeccc0a2","system_id":"levelo_inurba_marseille","lat":43.311125,"lon":5.377624,"is_reserved":false,"is_disabled":false,"rental_uris":{"android":"levelo://app?vid=9c0a7070-f843-4178-9889-659edeccc0a2","ios":"levelo://app?vid=9c0a7070-f843-4178-9889-659edeccc0a2"},"vehicle_type_id":"4","last_reported":1703527711,"current_range_meters":26400,"station_id":"ce4bgt92rcd13ifvqcg0","pricing_plan_id":"free"},{"bike_id":"2f92b6bd-e27f-4ff7-8dcc-1d30234e4d88","system_id":"levelo_inurba_marseille","lat":43.311125,"lon":5.377624,"is_reserved":false,"is_disabled":false,"rental_uris":{"android":"levelo://app?vid=2f92b6bd-e27f-4ff7-8dcc-1d30234e4d88","ios":"levelo://app?vid=2f92b6bd-e27f-4ff7-8dcc-1d30234e4d88"},"vehicle_type_id":"4","last_reported":1703527711,"current_range_meters":26000,"station_id":"ce4bgt92rcd13ifvqcg0","pricing_plan_id":"free"},{"bike_id":"f9b7b142-dae9-4c7f-a60e-059c4b240af6","system_id":"levelo_inurba_marseille","lat":43.311233,"lon":5.377735,"is_reserved":false,"is_disabled":false,"rental_uris":{"android":"levelo://app?vid=f9b7b142-dae9-4c7f-a60e-059c4b240af6","ios":"levelo://app?vid=f9b7b142-dae9-4c7f-a60e-059c4b240af6"},"vehicle_type_id":"4","last_reported":1703527711,"current_range_meters":16000,"station_id":"ce4bgt92rcd13ifvqcg0","pricing_plan_id":"free"},{"bike_id":"dad2b3ba-5a15-4984-be7b-83d42376f169","system_id":"levelo_inurba_marseille","lat":43.30304,"lon":5.368987,"is_reserved":false,"is_disabled":false,"rental_uris":{"android":"levelo://app?vid=dad2b3ba-5a15-4984-be7b-83d42376f169","ios":"levelo://app?vid=dad2b3ba-5a15-4984-be7b-83d42376f169"},"vehicle_type_id":"4","last_reported":1703527711,"current_range_meters":3600,"station_id":"ce4bgqh2rcd13ifvqc5g","pricing_plan_id":"free"},{"bike_id":"b74bf671-ca78-45f7-8b14-4576746b80ef","system_id":"levelo_inurba_marseille","lat":43.30304,"lon":5.368987,"is_reserved":false,"is_disabled":false,"rental_uris":{"android":"levelo://app?vid=b74bf671-ca78-45f7-8b14-4576746b80ef","ios":"levelo://app?vid=b74bf671-ca78-45f7-8b14-4576746b80ef"},"vehicle_type_id":"4","last_reported":1703527711,"current_range_meters":30800,"station_id":"ce4bgqh2rcd13ifvqc5g","pricing_plan_id":"free"},{"bike_id":"89b30584-7d8c-48ef-94c6-41545d16e9bb","system_id":"levelo_inurba_marseille","lat":43.30304,"lon":5.368987,"is_reserved":false,"is_disabled":false,"rental_uris":{"android":"levelo://app?vid=89b30584-7d8c-48ef-94c6-41545d16e9bb","ios":"levelo://app?vid=89b30584-7d8c-48ef-94c6-41545d16e9bb"},"vehicle_type_id":"4","last_reported":1703527711,"current_range_meters":19600,"station_id":"ce4bgqh2rcd13ifvqc5g","pricing_plan_id":"free"},{"bike_id":"b334b641-5a55-48a0-be70-983c0edde04a","system_id":"levelo_inurba_marseille","lat":43.303046,"lon":5.368981,"is_reserved":false,"is_disabled":false,"rental_uris":{"android":"levelo://app?vid=b334b641-5a55-48a0-be70-983c0edde04a","ios":"levelo://app?vid=b334b641-5a55-48a0-be70-983c0edde04a"},"vehicle_type_id":"4","last_reported":1703527711,"current_range_meters":28000,"station_id":"ce4bgqh2rcd13ifvqc5g","pricing_plan_id":"free"},{"bike_id":"e6eefbd8-ecea-42cb-8c7a-0640952ddaea","system_id":"levelo_inurba_marseille","lat":43.31778,"lon":5.37908,"is_reserved":false,"is_disabled":false,"rental_uris":{"android":"levelo://app?vid=e6eefbd8-ecea-42cb-8c7a-0640952ddaea","ios":"levelo://app?vid=e6eefbd8-ecea-42cb-8c7a-0640952ddaea"},"vehicle_type_id":"4","last_reported":1703527711,"current_range_meters":22800,"station_id":"","pricing_plan_id":"free"},{"bike_id":"cb3a5b50-bd45-4cb1-8451-60e21f370e19","system_id":"levelo_inurba_marseille","lat":43.301939,"lon":5.366286,"is_reserved":false,"is_disabled":false,"rental_uris":{"android":"levelo://app?vid=cb3a5b50-bd45-4cb1-8451-60e21f370e19","ios":"levelo://app?vid=cb3a5b50-bd45-4cb1-8451-60e21f370e19"},"vehicle_type_id":"4","last_reported":1703527711,"current_range_meters":17600,"station_id":"ce4bgrh2rcd13ifvqc8g","pricing_plan_id":"free"},{"bike_id":"6a3e3d28-1291-4d4b-bf7c-74834b7950d7","system_id":"levelo_inurba_marseille","lat":43.324771,"lon":5.36557,"is_reserved":false,"is_disabled":false,"rental_uris":{"android":"levelo://app?vid=6a3e3d28-1291-4d4b-bf7c-74834b7950d7","ios":"levelo://app?vid=6a3e3d28-1291-4d4b-bf7c-74834b7950d7"},"vehicle_type_id":"4","last_reported":1703527711,"current_range_meters":24800,"station_id":"ce4bhs12rcd13ifvqhvg","pricing_plan_id":"free"},{"bike_id":"f5c0e4d6-16bd-47eb-ba92-aa201d0984ce","system_id":"levelo_inurba_marseille","lat":43.324771,"lon":5.36557,"is_reserved":false,"is_disabled":false,"rental_uris":{"android":"levelo://app?vid=f5c0e4d6-16bd-47eb-ba92-aa201d0984ce","ios":"levelo://app?vid=f5c0e4d6-16bd-47eb-ba92-aa201d0984ce"},"vehicle_type_id":"4","last_reported":1703527711,"current_range_meters":7600,"station_id":"ce4bhs12rcd13ifvqhvg","pricing_plan_id":"free"},{"bike_id":"673afe24-13ca-4117-906e-0ada444292f1","system_id":"levelo_inurba_marseille","lat":43.324771,"lon":5.36557,"is_reserved":false,"is_disabled":false,"rental_uris":{"android":"levelo://app?vid=673afe24-13ca-4117-906e-0ada444292f1","ios":"levelo://app?vid=673afe24-13ca-4117-906e-0ada444292f1"},"vehicle_type_id":"4","last_reported":1703527711,"current_range_meters":25200,"station_id":"ce4bhs12rcd13ifvqhvg","pricing_plan_id":"free"},{"bike_id":"9011995a-6fb0-4e38-9a9b-bdcc1110a2a4","system_id":"levelo_inurba_marseille","lat":43.30377,"lon":5.37851,"is_reserved":false,"is_disabled":false,"rental_uris":{"android":"levelo://app?vid=9011995a-6fb0-4e38-9a9b-bdcc1110a2a4","ios":"levelo://app?vid=9011995a-6fb0-4e38-9a9b-bdcc1110a2a4"},"vehicle_type_id":"4","last_reported":1703527711,"current_range_meters":22400,"station_id":"ce4bgup2rcd13ifvqcn0","pricing_plan_id":"free"},{"bike_id":"9d21651b-6703-48db-8f64-2df20565c3bb","system_id":"levelo_inurba_marseille","lat":43.30272,"lon":5.376897,"is_reserved":false,"is_disabled":false,"rental_uris":{"android":"levelo://app?vid=9d21651b-6703-48db-8f64-2df20565c3bb","ios":"levelo://app?vid=9d21651b-6703-48db-8f64-2df20565c3bb"},"vehicle_type_id":"4","last_reported":1703527711,"current_range_meters":16000,"station_id":"ce4bguh2rcd13ifvqcj0","pricing_plan_id":"free"},{"bike_id":"70b0ad2a-6533-4324-9176-53aa3f1f6a7a","system_id":"levelo_inurba_marseille","lat":43.32,"lon":5.3814,"is_reserved":false,"is_disabled":false,"rental_uris":{"android":"levelo://app?vid=70b0ad2a-6533-4324-9176-53aa3f1f6a7a","ios":"levelo://app?vid=70b0ad2a-6533-4324-9176-53aa3f1f6a7a"},"vehicle_type_id":"4","last_reported":1703527711,"current_range_meters":6000,"station_id":"ce4bhr12rcd13ifvqhpg","pricing_plan_id":"free"},{"bike_id":"6cadaa56-5d90-470c-a0dc-ff3ad57fa748","system_id":"levelo_inurba_marseille","lat":43.313571,"lon":5.384829,"is_reserved":false,"is_disabled":false,"rental_uris":{"android":"levelo://app?vid=6cadaa56-5d90-470c-a0dc-ff3ad57fa748","ios":"levelo://app?vid=6cadaa56-5d90-470c-a0dc-ff3ad57fa748"},"vehicle_type_id":"4","last_reported":1703527711,"current_range_meters":26000,"station_id":"ce4bgt92rcd13ifvqcf0","pricing_plan_id":"free"},{"bike_id":"644e9374-a8cb-4157-9ac5-720e438022e4","system_id":"levelo_inurba_marseille","lat":43.299328,"lon":5.365378,"is_reserved":false,"is_disabled":false,"rental_uris":{"android":"levelo://app?vid=644e9374-a8cb-4157-9ac5-720e438022e4","ios":"levelo://app?vid=644e9374-a8cb-4157-9ac5-720e438022e4"},"vehicle_type_id":"4","last_reported":1703527711,"current_range_meters":14400,"station_id":"ce4bgm92rcd13ifvqbr0","pricing_plan_id":"free"},{"bike_id":"ab96af4a-dea2-445d-86c8-b091967ed0ee","system_id":"levelo_inurba_marseille","lat":43.311722,"lon":5.387247,"is_reserved":false,"is_disabled":false,"rental_uris":{"android":"levelo://app?vid=ab96af4a-dea2-445d-86c8-b091967ed0ee","ios":"levelo://app?vid=ab96af4a-dea2-445d-86c8-b091967ed0ee"},"vehicle_type_id":"4","last_reported":1703527711,"current_range_meters":5200,"station_id":"ce4bgv12rcd13ifvqcp0","pricing_plan_id":"free"},{"bike_id":"1bee77e9-eb5c-490e-b0eb-842b347d24dd","system_id":"levelo_inurba_marseille","lat":43.299243,"lon":5.374807,"is_reserved":false,"is_disabled":false,"rental_uris":{"android":"levelo://app?vid=1bee77e9-eb5c-490e-b0eb-842b347d24dd","ios":"levelo://app?vid=1bee77e9-eb5c-490e-b0eb-842b347d24dd"},"vehicle_type_id":"4","last_reported":1703527711,"current_range_meters":26000,"station_id":"ce4bgjh2rcd13ifvqbg0","pricing_plan_id":"free"},{"bike_id":"69b0077a-5b92-4c7e-9545-c269d4640714","system_id":"levelo_inurba_marseille","lat":43.299243,"lon":5.37481,"is_reserved":false,"is_disabled":false,"rental_uris":{"android":"levelo://app?vid=69b0077a-5b92-4c7e-9545-c269d4640714","ios":"levelo://app?vid=69b0077a-5b92-4c7e-9545-c269d4640714"},"vehicle_type_id":"4","last_reported":1703527711,"current_range_meters":15200,"station_id":"ce4bgjh2rcd13ifvqbg0","pricing_plan_id":"free"},{"bike_id":"b7c9965d-b68c-4e38-9540-fff6f9c239fb","system_id":"levelo_inurba_marseille","lat":43.311722,"lon":5.387247,"is_reserved":false,"is_disabled":false,"rental_uris":{"android":"levelo://app?vid=b7c9965d-b68c-4e38-9540-fff6f9c239fb","ios":"levelo://app?vid=b7c9965d-b68c-4e38-9540-fff6f9c239fb"},"vehicle_type_id":"4","last_reported":1703527711,"current_range_meters":7600,"station_id":"ce4bgv12rcd13ifvqcp0","pricing_plan_id":"free"},{"bike_id":"3540d652-83ee-4e54-82bb-c4527c65e1e6","system_id":"levelo_inurba_marseille","lat":43.299243,"lon":5.374807,"is_reserved":false,"is_disabled":false,"rental_uris":{"android":"levelo://app?vid=3540d652-83ee-4e54-82bb-c4527c65e1e6","ios":"levelo://app?vid=3540d652-83ee-4e54-82bb-c4527c65e1e6"},"vehicle_type_id":"4","last_reported":1703527711,"current_range_meters":25200,"station_id":"ce4bgjh2rcd13ifvqbg0","pricing_plan_id":"free"},{"bike_id":"916a3e4e-4291-4c30-a6ac-c0fab32214fa","system_id":"levelo_inurba_marseille","lat":43.299243,"lon":5.37481,"is_reserved":false,"is_disabled":false,"rental_uris":{"android":"levelo://app?vid=916a3e4e-4291-4c30-a6ac-c0fab32214fa","ios":"levelo://app?vid=916a3e4e-4291-4c30-a6ac-c0fab32214fa"},"vehicle_type_id":"4","last_reported":1703527711,"current_range_meters":4800,"station_id":"ce4bgjh2rcd13ifvqbg0","pricing_plan_id":"free"},{"bike_id":"61b567ed-19ba-4ef0-944d-7e34fe3eb7b0","system_id":"levelo_inurba_marseille","lat":43.311722,"lon":5.387247,"is_reserved":false,"is_disabled":false,"rental_uris":{"android":"levelo://app?vid=61b567ed-19ba-4ef0-944d-7e34fe3eb7b0","ios":"levelo://app?vid=61b567ed-19ba-4ef0-944d-7e34fe3eb7b0"},"vehicle_type_id":"4","last_reported":1703527711,"current_range_meters":20800,"station_id":"ce4bgv12rcd13ifvqcp0","pricing_plan_id":"free"},{"bike_id":"51714c4a-3132-4951-88ec-80e85fa125e8","system_id":"levelo_inurba_marseille","lat":43.32809,"lon":5.36686,"is_reserved":false,"is_disabled":false,"rental_uris":{"android":"levelo://app?vid=51714c4a-3132-4951-88ec-80e85fa125e8","ios":"levelo://app?vid=51714c4a-3132-4951-88ec-80e85fa125e8"},"vehicle_type_id":"4","last_reported":1703527711,"current_range_meters":9600,"station_id":"ce4bhs92rcd13ifvqi0g","pricing_plan_id":"free"},{"bike_id":"19d42bbe-b568-4d0a-affe-2c7823044edb","system_id":"levelo_inurba_marseille","lat":43.32826,"lon":5.36677,"is_reserved":false,"is_disabled":false,"rental_uris":{"android":"levelo://app?vid=19d42bbe-b568-4d0a-affe-2c7823044edb","ios":"levelo://app?vid=19d42bbe-b568-4d0a-affe-2c7823044edb"},"vehicle_type_id":"4","last_reported":1703527711,"current_range_meters":17200,"station_id":"ce4bhs92rcd13ifvqi0g","pricing_plan_id":"free"},{"bike_id":"de708f00-7118-4d7c-9021-d7dcbd798473","system_id":"levelo_inurba_marseille","lat":43.328371,"lon":5.366909,"is_reserved":false,"is_disabled":false,"rental_uris":{"android":"levelo://app?vid=de708f00-7118-4d7c-9021-d7dcbd798473","ios":"levelo://app?vid=de708f00-7118-4d7c-9021-d7dcbd798473"},"vehicle_type_id":"4","last_reported":1703527711,"current_range_meters":29200,"station_id":"ce4bhs92rcd13ifvqi0g","pricing_plan_id":"free"},{"bike_id":"0ea359f7-1aa4-4d04-af38-4990586453d2","system_id":"levelo_inurba_marseille","lat":43.328371,"lon":5.366909,"is_reserved":false,"is_disabled":false,"rental_uris":{"android":"levelo://app?vid=0ea359f7-1aa4-4d04-af38-4990586453d2","ios":"levelo://app?vid=0ea359f7-1aa4-4d04-af38-4990586453d2"},"vehicle_type_id":"4","last_reported":1703527711,"current_range_meters":20800,"station_id":"ce4bhs92rcd13ifvqi0g","pricing_plan_id":"free"},{"bike_id":"b22d5e96-ae51-458c-8279-1d308fe846b0","system_id":"levelo_inurba_marseille","lat":43.328371,"lon":5.366909,"is_reserved":false,"is_disabled":false,"rental_uris":{"android":"levelo://app?vid=b22d5e96-ae51-458c-8279-1d308fe846b0","ios":"levelo://app?vid=b22d5e96-ae51-458c-8279-1d308fe846b0"},"vehicle_type_id":"4","last_reported":1703527711,"current_range_meters":14400,"station_id":"ce4bhs92rcd13ifvqi0g","pricing_plan_id":"free"},{"bike_id":"6f67326a-1664-406f-9978-902e013e2357","system_id":"levelo_inurba_marseille","lat":43.328371,"lon":5.366909,"is_reserved":false,"is_disabled":false,"rental_uris":{"android":"levelo://app?vid=6f67326a-1664-406f-9978-902e013e2357","ios":"levelo://app?vid=6f67326a-1664-406f-9978-902e013e2357"},"vehicle_type_id":"4","last_reported":1703527711,"current_range_meters":14800,"station_id":"ce4bhs92rcd13ifvqi0g","pricing_plan_id":"free"},{"bike_id":"eba6867d-6d75-4354-b206-2059ecdc5071","system_id":"levelo_inurba_marseille","lat":43.328371,"lon":5.366909,"is_reserved":false,"is_disabled":false,"rental_uris":{"android":"levelo://app?vid=eba6867d-6d75-4354-b206-2059ecdc5071","ios":"levelo://app?vid=eba6867d-6d75-4354-b206-2059ecdc5071"},"vehicle_type_id":"4","last_reported":1703527711,"current_range_meters":10400,"station_id":"ce4bhs92rcd13ifvqi0g","pricing_plan_id":"free"},{"bike_id":"098d14f9-0ff6-4c3a-aca9-b52d7aa219f1","system_id":"levelo_inurba_marseille","lat":43.297163,"lon":5.365866,"is_reserved":false,"is_disabled":false,"rental_uris":{"android":"levelo://app?vid=098d14f9-0ff6-4c3a-aca9-b52d7aa219f1","ios":"levelo://app?vid=098d14f9-0ff6-4c3a-aca9-b52d7aa219f1"},"vehicle_type_id":"4","last_reported":1703527711,"current_range_meters":31200,"station_id":"ce4bgn12rcd13ifvqbt0","pricing_plan_id":"free"},{"bike_id":"0bb4153f-1504-485b-aa48-4570feec2be4","system_id":"levelo_inurba_marseille","lat":43.297163,"lon":5.365866,"is_reserved":false,"is_disabled":false,"rental_uris":{"android":"levelo://app?vid=0bb4153f-1504-485b-aa48-4570feec2be4","ios":"levelo://app?vid=0bb4153f-1504-485b-aa48-4570feec2be4"},"vehicle_type_id":"4","last_reported":1703527711,"current_range_meters":13200,"station_id":"ce4bgn12rcd13ifvqbt0","pricing_plan_id":"free"},{"bike_id":"a8e6e3d9-ce28-437e-9aa1-842db681aefa","system_id":"levelo_inurba_marseille","lat":43.2968,"lon":5.37291,"is_reserved":false,"is_disabled":false,"rental_uris":{"android":"levelo://app?vid=a8e6e3d9-ce28-437e-9aa1-842db681aefa","ios":"levelo://app?vid=a8e6e3d9-ce28-437e-9aa1-842db681aefa"},"vehicle_type_id":"4","last_reported":1703527711,"current_range_meters":27200,"station_id":"ce4bgk12rcd13ifvqbj0","pricing_plan_id":"free"},{"bike_id":"c4f67237-95e2-483b-8c3e-a34672fa5f5c","system_id":"levelo_inurba_marseille","lat":43.2968,"lon":5.37291,"is_reserved":false,"is_disabled":false,"rental_uris":{"android":"levelo://app?vid=c4f67237-95e2-483b-8c3e-a34672fa5f5c","ios":"levelo://app?vid=c4f67237-95e2-483b-8c3e-a34672fa5f5c"},"vehicle_type_id":"4","last_reported":1703527711,"current_range_meters":28800,"station_id":"ce4bgk12rcd13ifvqbj0","pricing_plan_id":"free"},{"bike_id":"921b424d-ad0d-4c7a-9d74-66e3a49bfa19","system_id":"levelo_inurba_marseille","lat":43.32934,"lon":5.36612,"is_reserved":false,"is_disabled":false,"rental_uris":{"android":"levelo://app?vid=921b424d-ad0d-4c7a-9d74-66e3a49bfa19","ios":"levelo://app?vid=921b424d-ad0d-4c7a-9d74-66e3a49bfa19"},"vehicle_type_id":"4","last_reported":1703527711,"current_range_meters":24000,"station_id":"","pricing_plan_id":"free"},{"bike_id":"ae28135b-eac3-483e-b61d-ae05e67609bd","system_id":"levelo_inurba_marseille","lat":43.29622,"lon":5.37153,"is_reserved":false,"is_disabled":false,"rental_uris":{"android":"levelo://app?vid=ae28135b-eac3-483e-b61d-ae05e67609bd","ios":"levelo://app?vid=ae28135b-eac3-483e-b61d-ae05e67609bd"},"vehicle_type_id":"4","last_reported":1703527711,"current_range_meters":24400,"station_id":"ce4bgnh2rcd13ifvqc0g","pricing_plan_id":"free"},{"bike_id":"168ff66e-d3f0-4405-8a42-4e492b51d94f","system_id":"levelo_inurba_marseille","lat":43.29573,"lon":5.367355,"is_reserved":false,"is_disabled":false,"rental_uris":{"android":"levelo://app?vid=168ff66e-d3f0-4405-8a42-4e492b51d94f","ios":"levelo://app?vid=168ff66e-d3f0-4405-8a42-4e492b51d94f"},"vehicle_type_id":"4","last_reported":1703527711,"current_range_meters":12400,"station_id":"ce4bgph2rcd13ifvqc2g","pricing_plan_id":"free"},{"bike_id":"354ffce4-4d20-46b6-8710-374dc9262f4a","system_id":"levelo_inurba_marseille","lat":43.296129,"lon":5.370777,"is_reserved":false,"is_disabled":false,"rental_uris":{"android":"levelo://app?vid=354ffce4-4d20-46b6-8710-374dc9262f4a","ios":"levelo://app?vid=354ffce4-4d20-46b6-8710-374dc9262f4a"},"vehicle_type_id":"4","last_reported":1703527711,"current_range_meters":25600,"station_id":"ce4bgnh2rcd13ifvqc0g","pricing_plan_id":"free"},{"bike_id":"8478c010-1d21-4be9-bb6a-dd0208a330a1","system_id":"levelo_inurba_marseille","lat":43.29573,"lon":5.367355,"is_reserved":false,"is_disabled":false,"rental_uris":{"android":"levelo://app?vid=8478c010-1d21-4be9-bb6a-dd0208a330a1","ios":"levelo://app?vid=8478c010-1d21-4be9-bb6a-dd0208a330a1"},"vehicle_type_id":"4","last_reported":1703527711,"current_range_meters":25200,"station_id":"ce4bgph2rcd13ifvqc2g","pricing_plan_id":"free"},{"bike_id":"06e957bd-df49-4d32-abc4-2e72cf631ab7","system_id":"levelo_inurba_marseille","lat":43.29573,"lon":5.367355,"is_reserved":false,"is_disabled":false,"rental_uris":{"android":"levelo://app?vid=06e957bd-df49-4d32-abc4-2e72cf631ab7","ios":"levelo://app?vid=06e957bd-df49-4d32-abc4-2e72cf631ab7"},"vehicle_type_id":"4","last_reported":1703527711,"current_range_meters":24400,"station_id":"ce4bgph2rcd13ifvqc2g","pricing_plan_id":"free"},{"bike_id":"506b2531-968e-48c0-968a-4013ec46a47d","system_id":"levelo_inurba_marseille","lat":43.299028,"lon":5.381509,"is_reserved":false,"is_disabled":false,"rental_uris":{"android":"levelo://app?vid=506b2531-968e-48c0-968a-4013ec46a47d","ios":"levelo://app?vid=506b2531-968e-48c0-968a-4013ec46a47d"},"vehicle_type_id":"4","last_reported":1703527711,"current_range_meters":21200,"station_id":"ce4bgj12rcd13ifvqbc0","pricing_plan_id":"free"},{"bike_id":"832e2173-c8ed-4c6f-a3b2-146af632aa3e","system_id":"levelo_inurba_marseille","lat":43.299028,"lon":5.381509,"is_reserved":false,"is_disabled":false,"rental_uris":{"android":"levelo://app?vid=832e2173-c8ed-4c6f-a3b2-146af632aa3e","ios":"levelo://app?vid=832e2173-c8ed-4c6f-a3b2-146af632aa3e"},"vehicle_type_id":"4","last_reported":1703527711,"current_range_meters":31200,"station_id":"ce4bgj12rcd13ifvqbc0","pricing_plan_id":"free"},{"bike_id":"db4fc9cb-ac06-4925-99de-2b3414c2fe18","system_id":"levelo_inurba_marseille","lat":43.304274,"lon":5.388873,"is_reserved":false,"is_disabled":false,"rental_uris":{"android":"levelo://app?vid=db4fc9cb-ac06-4925-99de-2b3414c2fe18","ios":"levelo://app?vid=db4fc9cb-ac06-4925-99de-2b3414c2fe18"},"vehicle_type_id":"4","last_reported":1703527711,"current_range_meters":28400,"station_id":"ce4bgk12rcd13ifvqbi0","pricing_plan_id":"free"},{"bike_id":"90d9cf58-1dc5-4d8a-824f-802a3b33bbc1","system_id":"levelo_inurba_marseille","lat":43.317561,"lon":5.390141,"is_reserved":false,"is_disabled":false,"rental_uris":{"android":"levelo://app?vid=90d9cf58-1dc5-4d8a-824f-802a3b33bbc1","ios":"levelo://app?vid=90d9cf58-1dc5-4d8a-824f-802a3b33bbc1"},"vehicle_type_id":"4","last_reported":1703527711,"current_range_meters":29200,"station_id":"ce4bhqp2rcd13ifvqhng","pricing_plan_id":"free"},{"bike_id":"610ac461-ef1a-4413-863c-296f2f791ecf","system_id":"levelo_inurba_marseille","lat":43.304274,"lon":5.388873,"is_reserved":false,"is_disabled":false,"rental_uris":{"android":"levelo://app?vid=610ac461-ef1a-4413-863c-296f2f791ecf","ios":"levelo://app?vid=610ac461-ef1a-4413-863c-296f2f791ecf"},"vehicle_type_id":"4","last_reported":1703527711,"current_range_meters":24400,"station_id":"ce4bgk12rcd13ifvqbi0","pricing_plan_id":"free"},{"bike_id":"02f09a89-f2be-4781-b1b2-3d3f90cae392","system_id":"levelo_inurba_marseille","lat":43.295279,"lon":5.375048,"is_reserved":false,"is_disabled":false,"rental_uris":{"android":"levelo://app?vid=02f09a89-f2be-4781-b1b2-3d3f90cae392","ios":"levelo://app?vid=02f09a89-f2be-4781-b1b2-3d3f90cae392"},"vehicle_type_id":"4","last_reported":1703527711,"current_range_meters":31200,"station_id":"ce4bgkp2rcd13ifvqbmg","pricing_plan_id":"free"},{"bike_id":"306045f5-4809-49b6-9a74-af38f86751a6","system_id":"levelo_inurba_marseille","lat":43.32367,"lon":5.388836,"is_reserved":false,"is_disabled":false,"rental_uris":{"android":"levelo://app?vid=306045f5-4809-49b6-9a74-af38f86751a6","ios":"levelo://app?vid=306045f5-4809-49b6-9a74-af38f86751a6"},"vehicle_type_id":"4","last_reported":1703527711,"current_range_meters":26400,"station_id":"ce4bhqp2rcd13ifvqhog","pricing_plan_id":"free"},{"bike_id":"f0f12ac5-1666-4a3a-a9a8-494990a6c085","system_id":"levelo_inurba_marseille","lat":43.32367,"lon":5.388836,"is_reserved":false,"is_disabled":false,"rental_uris":{"android":"levelo://app?vid=f0f12ac5-1666-4a3a-a9a8-494990a6c085","ios":"levelo://app?vid=f0f12ac5-1666-4a3a-a9a8-494990a6c085"},"vehicle_type_id":"4","last_reported":1703527711,"current_range_meters":20000,"station_id":"ce4bhqp2rcd13ifvqhog","pricing_plan_id":"free"},{"bike_id":"61d8c6de-c747-45dc-9a21-fecb9a7b4ab0","system_id":"levelo_inurba_marseille","lat":43.293259,"lon":5.371586,"is_reserved":false,"is_disabled":false,"rental_uris":{"android":"levelo://app?vid=61d8c6de-c747-45dc-9a21-fecb9a7b4ab0","ios":"levelo://app?vid=61d8c6de-c747-45dc-9a21-fecb9a7b4ab0"},"vehicle_type_id":"4","last_reported":1703527711,"current_range_meters":15200,"station_id":"ce4bgh92rcd13ifvqb40","pricing_plan_id":"free"},{"bike_id":"030d2fa3-310b-4963-800f-1cf053b25b8d","system_id":"levelo_inurba_marseille","lat":43.292749,"lon":5.368402,"is_reserved":false,"is_disabled":false,"rental_uris":{"android":"levelo://app?vid=030d2fa3-310b-4963-800f-1cf053b25b8d","ios":"levelo://app?vid=030d2fa3-310b-4963-800f-1cf053b25b8d"},"vehicle_type_id":"4","last_reported":1703527711,"current_range_meters":400,"station_id":"ce4bhbp2rcd13ifvqesg","pricing_plan_id":"free"},{"bike_id":"66090169-56d0-4327-ac4a-5a0739ff15e9","system_id":"levelo_inurba_marseille","lat":43.292749,"lon":5.368402,"is_reserved":false,"is_disabled":false,"rental_uris":{"android":"levelo://app?vid=66090169-56d0-4327-ac4a-5a0739ff15e9","ios":"levelo://app?vid=66090169-56d0-4327-ac4a-5a0739ff15e9"},"vehicle_type_id":"4","last_reported":1703527711,"current_range_meters":14800,"station_id":"ce4bhbp2rcd13ifvqesg","pricing_plan_id":"free"},{"bike_id":"06bd850f-eb79-4fca-bf70-822288b6fc83","system_id":"levelo_inurba_marseille","lat":43.292749,"lon":5.368402,"is_reserved":false,"is_disabled":false,"rental_uris":{"android":"levelo://app?vid=06bd850f-eb79-4fca-bf70-822288b6fc83","ios":"levelo://app?vid=06bd850f-eb79-4fca-bf70-822288b6fc83"},"vehicle_type_id":"4","last_reported":1703527711,"current_range_meters":7200,"station_id":"ce4bhbp2rcd13ifvqesg","pricing_plan_id":"free"},{"bike_id":"63bb6595-b77c-4990-8737-688f37945bfc","system_id":"levelo_inurba_marseille","lat":43.293259,"lon":5.371586,"is_reserved":false,"is_disabled":false,"rental_uris":{"android":"levelo://app?vid=63bb6595-b77c-4990-8737-688f37945bfc","ios":"levelo://app?vid=63bb6595-b77c-4990-8737-688f37945bfc"},"vehicle_type_id":"4","last_reported":1703527711,"current_range_meters":4800,"station_id":"ce4bgh92rcd13ifvqb40","pricing_plan_id":"free"},{"bike_id":"4d2763b8-5236-4d36-a485-5522b1a59298","system_id":"levelo_inurba_marseille","lat":43.292749,"lon":5.368402,"is_reserved":false,"is_disabled":false,"rental_uris":{"android":"levelo://app?vid=4d2763b8-5236-4d36-a485-5522b1a59298","ios":"levelo://app?vid=4d2763b8-5236-4d36-a485-5522b1a59298"},"vehicle_type_id":"4","last_reported":1703527711,"current_range_meters":13600,"station_id":"ce4bhbp2rcd13ifvqesg","pricing_plan_id":"free"},{"bike_id":"869220c2-3c4d-42bd-8111-6adec3acca9a","system_id":"levelo_inurba_marseille","lat":43.305994,"lon":5.393687,"is_reserved":false,"is_disabled":false,"rental_uris":{"android":"levelo://app?vid=869220c2-3c4d-42bd-8111-6adec3acca9a","ios":"levelo://app?vid=869220c2-3c4d-42bd-8111-6adec3acca9a"},"vehicle_type_id":"4","last_reported":1703527711,"current_range_meters":10800,"station_id":"ce4bh0p2rcd13ifvqd80","pricing_plan_id":"free"},{"bike_id":"4b5e2622-2241-45be-aeec-88aeebb5ac8e","system_id":"levelo_inurba_marseille","lat":43.293009,"lon":5.374584,"is_reserved":false,"is_disabled":false,"rental_uris":{"android":"levelo://app?vid=4b5e2622-2241-45be-aeec-88aeebb5ac8e","ios":"levelo://app?vid=4b5e2622-2241-45be-aeec-88aeebb5ac8e"},"vehicle_type_id":"4","last_reported":1703527711,"current_range_meters":24000,"station_id":"ce4bgi12rcd13ifvqb70","pricing_plan_id":"free"},{"bike_id":"6f76712c-2363-4888-b380-14b6f8fa9b11","system_id":"levelo_inurba_marseille","lat":43.302992,"lon":5.392136,"is_reserved":false,"is_disabled":false,"rental_uris":{"android":"levelo://app?vid=6f76712c-2363-4888-b380-14b6f8fa9b11","ios":"levelo://app?vid=6f76712c-2363-4888-b380-14b6f8fa9b11"},"vehicle_type_id":"4","last_reported":1703527711,"current_range_meters":18800,"station_id":"ce4bgkh2rcd13ifvqbk0","pricing_plan_id":"free"},{"bike_id":"51d8106f-b4f0-44ed-b54d-8d59c81acf35","system_id":"levelo_inurba_marseille","lat":43.303002,"lon":5.392142,"is_reserved":false,"is_disabled":false,"rental_uris":{"android":"levelo://app?vid=51d8106f-b4f0-44ed-b54d-8d59c81acf35","ios":"levelo://app?vid=51d8106f-b4f0-44ed-b54d-8d59c81acf35"},"vehicle_type_id":"4","last_reported":1703527711,"current_range_meters":5600,"station_id":"ce4bgkh2rcd13ifvqbk0","pricing_plan_id":"free"},{"bike_id":"c005c3ee-2eec-43c5-be7d-85a46ffdac97","system_id":"levelo_inurba_marseille","lat":43.302992,"lon":5.392136,"is_reserved":false,"is_disabled":false,"rental_uris":{"android":"levelo://app?vid=c005c3ee-2eec-43c5-be7d-85a46ffdac97","ios":"levelo://app?vid=c005c3ee-2eec-43c5-be7d-85a46ffdac97"},"vehicle_type_id":"4","last_reported":1703527711,"current_range_meters":20000,"station_id":"ce4bgkh2rcd13ifvqbk0","pricing_plan_id":"free"},{"bike_id":"f91cad2e-25f9-4ad9-aff9-d7c9be985c69","system_id":"levelo_inurba_marseille","lat":43.2936,"lon":5.37835,"is_reserved":false,"is_disabled":false,"rental_uris":{"android":"levelo://app?vid=f91cad2e-25f9-4ad9-aff9-d7c9be985c69","ios":"levelo://app?vid=f91cad2e-25f9-4ad9-aff9-d7c9be985c69"},"vehicle_type_id":"4","last_reported":1703527711,"current_range_meters":27600,"station_id":"ce4bgjh2rcd13ifvqbf0","pricing_plan_id":"free"},{"bike_id":"53c89897-f40c-465d-80c4-131e0ea7c3eb","system_id":"levelo_inurba_marseille","lat":43.302992,"lon":5.392136,"is_reserved":false,"is_disabled":false,"rental_uris":{"android":"levelo://app?vid=53c89897-f40c-465d-80c4-131e0ea7c3eb","ios":"levelo://app?vid=53c89897-f40c-465d-80c4-131e0ea7c3eb"},"vehicle_type_id":"4","last_reported":1703527711,"current_range_meters":400,"station_id":"ce4bgkh2rcd13ifvqbk0","pricing_plan_id":"free"},{"bike_id":"9cdd4d54-1f83-4598-bf2c-8d1a82d18eb6","system_id":"levelo_inurba_marseille","lat":43.300852,"lon":5.390859,"is_reserved":false,"is_disabled":false,"rental_uris":{"android":"levelo://app?vid=9cdd4d54-1f83-4598-bf2c-8d1a82d18eb6","ios":"levelo://app?vid=9cdd4d54-1f83-4598-bf2c-8d1a82d18eb6"},"vehicle_type_id":"4","last_reported":1703527711,"current_range_meters":9200,"station_id":"ce4bh192rcd13ifvqdb0","pricing_plan_id":"free"},{"bike_id":"71634296-c8ee-4d85-9410-35340e19d460","system_id":"levelo_inurba_marseille","lat":43.300852,"lon":5.390859,"is_reserved":false,"is_disabled":false,"rental_uris":{"android":"levelo://app?vid=71634296-c8ee-4d85-9410-35340e19d460","ios":"levelo://app?vid=71634296-c8ee-4d85-9410-35340e19d460"},"vehicle_type_id":"4","last_reported":1703527711,"current_range_meters":31200,"station_id":"ce4bh192rcd13ifvqdb0","pricing_plan_id":"free"},{"bike_id":"d8849233-8dc7-4818-8711-b19bbe612b97","system_id":"levelo_inurba_marseille","lat":43.2936,"lon":5.37835,"is_reserved":false,"is_disabled":false,"rental_uris":{"android":"levelo://app?vid=d8849233-8dc7-4818-8711-b19bbe612b97","ios":"levelo://app?vid=d8849233-8dc7-4818-8711-b19bbe612b97"},"vehicle_type_id":"4","last_reported":1703527711,"current_range_meters":31200,"station_id":"ce4bgjh2rcd13ifvqbf0","pricing_plan_id":"free"},{"bike_id":"68a5b0e3-30c8-4bcb-8b8d-308ced5c6687","system_id":"levelo_inurba_marseille","lat":43.292311,"lon":5.360731,"is_reserved":false,"is_disabled":false,"rental_uris":{"android":"levelo://app?vid=68a5b0e3-30c8-4bcb-8b8d-308ced5c6687","ios":"levelo://app?vid=68a5b0e3-30c8-4bcb-8b8d-308ced5c6687"},"vehicle_type_id":"4","last_reported":1703527711,"current_range_meters":28400,"station_id":"ce4bhbh2rcd13ifvqeqg","pricing_plan_id":"free"},{"bike_id":"c2ede81f-1b07-4dbb-a330-68523034310e","system_id":"levelo_inurba_marseille","lat":43.291696,"lon":5.371542,"is_reserved":false,"is_disabled":false,"rental_uris":{"android":"levelo://app?vid=c2ede81f-1b07-4dbb-a330-68523034310e","ios":"levelo://app?vid=c2ede81f-1b07-4dbb-a330-68523034310e"},"vehicle_type_id":"4","last_reported":1703527711,"current_range_meters":22000,"station_id":"ce4bha92rcd13ifvqeh0","pricing_plan_id":"free"},{"bike_id":"14b0e756-3030-4dd7-8b3e-0cb71c9b40c8","system_id":"levelo_inurba_marseille","lat":43.291964,"lon":5.359288,"is_reserved":false,"is_disabled":false,"rental_uris":{"android":"levelo://app?vid=14b0e756-3030-4dd7-8b3e-0cb71c9b40c8","ios":"levelo://app?vid=14b0e756-3030-4dd7-8b3e-0cb71c9b40c8"},"vehicle_type_id":"4","last_reported":1703527711,"current_range_meters":13200,"station_id":"","pricing_plan_id":"free"},{"bike_id":"49a5ff0e-e516-4196-9d57-a81a282d0de9","system_id":"levelo_inurba_marseille","lat":43.291994,"lon":5.357886,"is_reserved":false,"is_disabled":false,"rental_uris":{"android":"levelo://app?vid=49a5ff0e-e516-4196-9d57-a81a282d0de9","ios":"levelo://app?vid=49a5ff0e-e516-4196-9d57-a81a282d0de9"},"vehicle_type_id":"4","last_reported":1703527711,"current_range_meters":14800,"station_id":"ce4bhb12rcd13ifvqel0","pricing_plan_id":"free"},{"bike_id":"89bf1791-be67-48fb-ac43-0d7cb962ae97","system_id":"levelo_inurba_marseille","lat":43.313291,"lon":5.396838,"is_reserved":false,"is_disabled":false,"rental_uris":{"android":"levelo://app?vid=89bf1791-be67-48fb-ac43-0d7cb962ae97","ios":"levelo://app?vid=89bf1791-be67-48fb-ac43-0d7cb962ae97"},"vehicle_type_id":"4","last_reported":1703527711,"current_range_meters":16800,"station_id":"ce4bgvp2rcd13ifvqcu0","pricing_plan_id":"free"},{"bike_id":"3b6a2954-e5f3-459d-a612-236a61fd8a06","system_id":"levelo_inurba_marseille","lat":43.313291,"lon":5.396838,"is_reserved":false,"is_disabled":false,"rental_uris":{"android":"levelo://app?vid=3b6a2954-e5f3-459d-a612-236a61fd8a06","ios":"levelo://app?vid=3b6a2954-e5f3-459d-a612-236a61fd8a06"},"vehicle_type_id":"4","last_reported":1703527711,"current_range_meters":31600,"station_id":"ce4bgvp2rcd13ifvqcu0","pricing_plan_id":"free"},{"bike_id":"a09ebeed-7558-444f-95b7-aa722d223366","system_id":"levelo_inurba_marseille","lat":43.309047,"lon":5.396551,"is_reserved":false,"is_disabled":false,"rental_uris":{"android":"levelo://app?vid=a09ebeed-7558-444f-95b7-aa722d223366","ios":"levelo://app?vid=a09ebeed-7558-444f-95b7-aa722d223366"},"vehicle_type_id":"4","last_reported":1703527711,"current_range_meters":28800,"station_id":"ce4bh012rcd13ifvqcv0","pricing_plan_id":"free"},{"bike_id":"d6be5f96-df22-4835-9698-fce2e70b9c1a","system_id":"levelo_inurba_marseille","lat":43.313291,"lon":5.396838,"is_reserved":false,"is_disabled":false,"rental_uris":{"android":"levelo://app?vid=d6be5f96-df22-4835-9698-fce2e70b9c1a","ios":"levelo://app?vid=d6be5f96-df22-4835-9698-fce2e70b9c1a"},"vehicle_type_id":"4","last_reported":1703527711,"current_range_meters":25600,"station_id":"ce4bgvp2rcd13ifvqcu0","pricing_plan_id":"free"},{"bike_id":"5b23cfcf-e3f7-4476-a240-b688ce204afb","system_id":"levelo_inurba_marseille","lat":43.309038,"lon":5.396546,"is_reserved":false,"is_disabled":false,"rental_uris":{"android":"levelo://app?vid=5b23cfcf-e3f7-4476-a240-b688ce204afb","ios":"levelo://app?vid=5b23cfcf-e3f7-4476-a240-b688ce204afb"},"vehicle_type_id":"4","last_reported":1703527711,"current_range_meters":23600,"station_id":"ce4bh012rcd13ifvqcv0","pricing_plan_id":"free"},{"bike_id":"2050bbd9-9ea3-4674-a01e-c5ff6f9b8ab7","system_id":"levelo_inurba_marseille","lat":43.313291,"lon":5.396838,"is_reserved":false,"is_disabled":false,"rental_uris":{"android":"levelo://app?vid=2050bbd9-9ea3-4674-a01e-c5ff6f9b8ab7","ios":"levelo://app?vid=2050bbd9-9ea3-4674-a01e-c5ff6f9b8ab7"},"vehicle_type_id":"4","last_reported":1703527711,"current_range_meters":13600,"station_id":"ce4bgvp2rcd13ifvqcu0","pricing_plan_id":"free"},{"bike_id":"cbf87d32-5f9f-4e25-8d2a-c13a87fd1b81","system_id":"levelo_inurba_marseille","lat":43.309038,"lon":5.396546,"is_reserved":false,"is_disabled":false,"rental_uris":{"android":"levelo://app?vid=cbf87d32-5f9f-4e25-8d2a-c13a87fd1b81","ios":"levelo://app?vid=cbf87d32-5f9f-4e25-8d2a-c13a87fd1b81"},"vehicle_type_id":"4","last_reported":1703527711,"current_range_meters":24000,"station_id":"ce4bh012rcd13ifvqcv0","pricing_plan_id":"free"},{"bike_id":"03e32cbe-5393-440a-870a-77f5f867ef4f","system_id":"levelo_inurba_marseille","lat":43.309038,"lon":5.396546,"is_reserved":false,"is_disabled":false,"rental_uris":{"android":"levelo://app?vid=03e32cbe-5393-440a-870a-77f5f867ef4f","ios":"levelo://app?vid=03e32cbe-5393-440a-870a-77f5f867ef4f"},"vehicle_type_id":"4","last_reported":1703527711,"current_range_meters":18400,"station_id":"ce4bh012rcd13ifvqcv0","pricing_plan_id":"free"},{"bike_id":"a4894250-475a-4850-803d-b1f1e47758c8","system_id":"levelo_inurba_marseille","lat":43.308892,"lon":5.396615,"is_reserved":false,"is_disabled":false,"rental_uris":{"android":"levelo://app?vid=a4894250-475a-4850-803d-b1f1e47758c8","ios":"levelo://app?vid=a4894250-475a-4850-803d-b1f1e47758c8"},"vehicle_type_id":"4","last_reported":1703527711,"current_range_meters":29200,"station_id":"","pricing_plan_id":"free"},{"bike_id":"40ccd2b3-40be-4112-a24b-78c581c9abf0","system_id":"levelo_inurba_marseille","lat":43.29529,"lon":5.385581,"is_reserved":false,"is_disabled":false,"rental_uris":{"android":"levelo://app?vid=40ccd2b3-40be-4112-a24b-78c581c9abf0","ios":"levelo://app?vid=40ccd2b3-40be-4112-a24b-78c581c9abf0"},"vehicle_type_id":"4","last_reported":1703527711,"current_range_meters":27600,"station_id":"ce4bgih2rcd13ifvqba0","pricing_plan_id":"free"},{"bike_id":"74dade8c-a68e-4638-92da-28687af78ded","system_id":"levelo_inurba_marseille","lat":43.29529,"lon":5.385581,"is_reserved":false,"is_disabled":false,"rental_uris":{"android":"levelo://app?vid=74dade8c-a68e-4638-92da-28687af78ded","ios":"levelo://app?vid=74dade8c-a68e-4638-92da-28687af78ded"},"vehicle_type_id":"4","last_reported":1703527711,"current_range_meters":27600,"station_id":"ce4bgih2rcd13ifvqba0","pricing_plan_id":"free"},{"bike_id":"89867a69-c089-47be-910e-1c8a1d09a954","system_id":"levelo_inurba_marseille","lat":43.329126,"lon":5.388546,"is_reserved":false,"is_disabled":false,"rental_uris":{"android":"levelo://app?vid=89867a69-c089-47be-910e-1c8a1d09a954","ios":"levelo://app?vid=89867a69-c089-47be-910e-1c8a1d09a954"},"vehicle_type_id":"4","last_reported":1703527711,"current_range_meters":16800,"station_id":"","pricing_plan_id":"free"},{"bike_id":"b6efcbd6-54d1-4149-96bb-672c244a07a6","system_id":"levelo_inurba_marseille","lat":43.302008,"lon":5.394694,"is_reserved":false,"is_disabled":false,"rental_uris":{"android":"levelo://app?vid=b6efcbd6-54d1-4149-96bb-672c244a07a6","ios":"levelo://app?vid=b6efcbd6-54d1-4149-96bb-672c244a07a6"},"vehicle_type_id":"4","last_reported":1703527711,"current_range_meters":14000,"station_id":"ce4bh0p2rcd13ifvqd70","pricing_plan_id":"free"},{"bike_id":"cf97b9eb-f93c-4c37-a1f7-74593bd94667","system_id":"levelo_inurba_marseille","lat":43.290327,"lon":5.375711,"is_reserved":false,"is_disabled":false,"rental_uris":{"android":"levelo://app?vid=cf97b9eb-f93c-4c37-a1f7-74593bd94667","ios":"levelo://app?vid=cf97b9eb-f93c-4c37-a1f7-74593bd94667"},"vehicle_type_id":"4","last_reported":1703527711,"current_range_meters":27600,"station_id":"ce4bh692rcd13ifvqe90","pricing_plan_id":"free"},{"bike_id":"fe96498c-81a0-4d29-b1c0-056581ff8098","system_id":"levelo_inurba_marseille","lat":43.290327,"lon":5.375711,"is_reserved":false,"is_disabled":false,"rental_uris":{"android":"levelo://app?vid=fe96498c-81a0-4d29-b1c0-056581ff8098","ios":"levelo://app?vid=fe96498c-81a0-4d29-b1c0-056581ff8098"},"vehicle_type_id":"4","last_reported":1703527711,"current_range_meters":23600,"station_id":"ce4bh692rcd13ifvqe90","pricing_plan_id":"free"},{"bike_id":"014d9d29-b150-4a4c-b5a2-43f59cb024d0","system_id":"levelo_inurba_marseille","lat":43.294153,"lon":5.386305,"is_reserved":false,"is_disabled":false,"rental_uris":{"android":"levelo://app?vid=014d9d29-b150-4a4c-b5a2-43f59cb024d0","ios":"levelo://app?vid=014d9d29-b150-4a4c-b5a2-43f59cb024d0"},"vehicle_type_id":"4","last_reported":1703527711,"current_range_meters":26800,"station_id":"ce4bh2h2rcd13ifvqdh0","pricing_plan_id":"free"},{"bike_id":"006e85ab-d012-4a75-939a-bc2a54ba91e4","system_id":"levelo_inurba_marseille","lat":43.294162,"lon":5.386292,"is_reserved":false,"is_disabled":false,"rental_uris":{"android":"levelo://app?vid=006e85ab-d012-4a75-939a-bc2a54ba91e4","ios":"levelo://app?vid=006e85ab-d012-4a75-939a-bc2a54ba91e4"},"vehicle_type_id":"4","last_reported":1703527711,"current_range_meters":11200,"station_id":"ce4bh2h2rcd13ifvqdh0","pricing_plan_id":"free"},{"bike_id":"234d0f32-c8f0-4e65-8b43-29df15b6e85f","system_id":"levelo_inurba_marseille","lat":43.294162,"lon":5.386292,"is_reserved":false,"is_disabled":false,"rental_uris":{"android":"levelo://app?vid=234d0f32-c8f0-4e65-8b43-29df15b6e85f","ios":"levelo://app?vid=234d0f32-c8f0-4e65-8b43-29df15b6e85f"},"vehicle_type_id":"4","last_reported":1703527711,"current_range_meters":31600,"station_id":"ce4bh2h2rcd13ifvqdh0","pricing_plan_id":"free"},{"bike_id":"f64b2816-740f-4ed3-9c66-5f8302a4b6ad","system_id":"levelo_inurba_marseille","lat":43.289184,"lon":5.366408,"is_reserved":false,"is_disabled":false,"rental_uris":{"android":"levelo://app?vid=f64b2816-740f-4ed3-9c66-5f8302a4b6ad","ios":"levelo://app?vid=f64b2816-740f-4ed3-9c66-5f8302a4b6ad"},"vehicle_type_id":"4","last_reported":1703527711,"current_range_meters":18800,"station_id":"ce4bhap2rcd13ifvqek0","pricing_plan_id":"free"},{"bike_id":"62bf6474-2f5b-467a-9de4-44c81cb637ee","system_id":"levelo_inurba_marseille","lat":43.289184,"lon":5.366408,"is_reserved":false,"is_disabled":false,"rental_uris":{"android":"levelo://app?vid=62bf6474-2f5b-467a-9de4-44c81cb637ee","ios":"levelo://app?vid=62bf6474-2f5b-467a-9de4-44c81cb637ee"},"vehicle_type_id":"4","last_reported":1703527711,"current_range_meters":31200,"station_id":"ce4bhap2rcd13ifvqek0","pricing_plan_id":"free"},{"bike_id":"97ba2e97-6116-4a29-ba9d-47a0f6dd5782","system_id":"levelo_inurba_marseille","lat":43.289184,"lon":5.366408,"is_reserved":false,"is_disabled":false,"rental_uris":{"android":"levelo://app?vid=97ba2e97-6116-4a29-ba9d-47a0f6dd5782","ios":"levelo://app?vid=97ba2e97-6116-4a29-ba9d-47a0f6dd5782"},"vehicle_type_id":"4","last_reported":1703527711,"current_range_meters":30400,"station_id":"ce4bhap2rcd13ifvqek0","pricing_plan_id":"free"},{"bike_id":"d249d892-e6b1-457b-b5ac-1f8200a5ac45","system_id":"levelo_inurba_marseille","lat":43.289184,"lon":5.366408,"is_reserved":false,"is_disabled":false,"rental_uris":{"android":"levelo://app?vid=d249d892-e6b1-457b-b5ac-1f8200a5ac45","ios":"levelo://app?vid=d249d892-e6b1-457b-b5ac-1f8200a5ac45"},"vehicle_type_id":"4","last_reported":1703527711,"current_range_meters":30400,"station_id":"ce4bhap2rcd13ifvqek0","pricing_plan_id":"free"},{"bike_id":"74d6beb3-fc56-4893-9a26-8f3a7195b7d5","system_id":"levelo_inurba_marseille","lat":43.289184,"lon":5.366408,"is_reserved":false,"is_disabled":false,"rental_uris":{"android":"levelo://app?vid=74d6beb3-fc56-4893-9a26-8f3a7195b7d5","ios":"levelo://app?vid=74d6beb3-fc56-4893-9a26-8f3a7195b7d5"},"vehicle_type_id":"4","last_reported":1703527711,"current_range_meters":31200,"station_id":"ce4bhap2rcd13ifvqek0","pricing_plan_id":"free"},{"bike_id":"b62d23c3-441d-42b9-b2e5-56ac2b43c64f","system_id":"levelo_inurba_marseille","lat":43.289184,"lon":5.366408,"is_reserved":false,"is_disabled":false,"rental_uris":{"android":"levelo://app?vid=b62d23c3-441d-42b9-b2e5-56ac2b43c64f","ios":"levelo://app?vid=b62d23c3-441d-42b9-b2e5-56ac2b43c64f"},"vehicle_type_id":"4","last_reported":1703527711,"current_range_meters":28400,"station_id":"ce4bhap2rcd13ifvqek0","pricing_plan_id":"free"},{"bike_id":"cef236bf-5e5f-456f-85c7-ab3805e58122","system_id":"levelo_inurba_marseille","lat":43.292644,"lon":5.384257,"is_reserved":false,"is_disabled":false,"rental_uris":{"android":"levelo://app?vid=cef236bf-5e5f-456f-85c7-ab3805e58122","ios":"levelo://app?vid=cef236bf-5e5f-456f-85c7-ab3805e58122"},"vehicle_type_id":"4","last_reported":1703527711,"current_range_meters":27600,"station_id":"ce4bh692rcd13ifvqea0","pricing_plan_id":"free"},{"bike_id":"0c796245-0468-4d2d-a7ff-ee305d874b7c","system_id":"levelo_inurba_marseille","lat":43.292644,"lon":5.384257,"is_reserved":false,"is_disabled":false,"rental_uris":{"android":"levelo://app?vid=0c796245-0468-4d2d-a7ff-ee305d874b7c","ios":"levelo://app?vid=0c796245-0468-4d2d-a7ff-ee305d874b7c"},"vehicle_type_id":"4","last_reported":1703527711,"current_range_meters":19200,"station_id":"ce4bh692rcd13ifvqea0","pricing_plan_id":"free"},{"bike_id":"03342be2-5666-4997-b837-dc351b246f83","system_id":"levelo_inurba_marseille","lat":43.292644,"lon":5.384257,"is_reserved":false,"is_disabled":false,"rental_uris":{"android":"levelo://app?vid=03342be2-5666-4997-b837-dc351b246f83","ios":"levelo://app?vid=03342be2-5666-4997-b837-dc351b246f83"},"vehicle_type_id":"4","last_reported":1703527711,"current_range_meters":9200,"station_id":"ce4bh692rcd13ifvqea0","pricing_plan_id":"free"},{"bike_id":"5da14800-5fbb-4d66-8c76-71d3a6b4d215","system_id":"levelo_inurba_marseille","lat":43.292642,"lon":5.384254,"is_reserved":false,"is_disabled":false,"rental_uris":{"android":"levelo://app?vid=5da14800-5fbb-4d66-8c76-71d3a6b4d215","ios":"levelo://app?vid=5da14800-5fbb-4d66-8c76-71d3a6b4d215"},"vehicle_type_id":"4","last_reported":1703527711,"current_range_meters":22800,"station_id":"ce4bh692rcd13ifvqea0","pricing_plan_id":"free"},{"bike_id":"2852666f-d6fd-4635-a49e-c6604ed970e7","system_id":"levelo_inurba_marseille","lat":43.304296,"lon":5.397513,"is_reserved":false,"is_disabled":false,"rental_uris":{"android":"levelo://app?vid=2852666f-d6fd-4635-a49e-c6604ed970e7","ios":"levelo://app?vid=2852666f-d6fd-4635-a49e-c6604ed970e7"},"vehicle_type_id":"4","last_reported":1703527711,"current_range_meters":14800,"station_id":"ce4bh092rcd13ifvqd20","pricing_plan_id":"free"},{"bike_id":"af3356a1-a626-471d-a250-abba169c3409","system_id":"levelo_inurba_marseille","lat":43.290995,"lon":5.381361,"is_reserved":false,"is_disabled":false,"rental_uris":{"android":"levelo://app?vid=af3356a1-a626-471d-a250-abba169c3409","ios":"levelo://app?vid=af3356a1-a626-471d-a250-abba169c3409"},"vehicle_type_id":"4","last_reported":1703527711,"current_range_meters":11600,"station_id":"ce4bh512rcd13ifvqe2g","pricing_plan_id":"free"},{"bike_id":"0db56987-dddf-4735-af7e-a14d7a7365cd","system_id":"levelo_inurba_marseille","lat":43.290995,"lon":5.381361,"is_reserved":false,"is_disabled":false,"rental_uris":{"android":"levelo://app?vid=0db56987-dddf-4735-af7e-a14d7a7365cd","ios":"levelo://app?vid=0db56987-dddf-4735-af7e-a14d7a7365cd"},"vehicle_type_id":"4","last_reported":1703527711,"current_range_meters":28400,"station_id":"ce4bh512rcd13ifvqe2g","pricing_plan_id":"free"},{"bike_id":"4ac28f22-dcba-4116-9e3b-a1e232acf836","system_id":"levelo_inurba_marseille","lat":43.290103,"lon":5.356114,"is_reserved":false,"is_disabled":false,"rental_uris":{"android":"levelo://app?vid=4ac28f22-dcba-4116-9e3b-a1e232acf836","ios":"levelo://app?vid=4ac28f22-dcba-4116-9e3b-a1e232acf836"},"vehicle_type_id":"4","last_reported":1703527711,"current_range_meters":0,"station_id":"ce4bhb92rcd13ifvqen0","pricing_plan_id":"free"},{"bike_id":"22313407-9d09-435f-b158-10ab3c8b5aa7","system_id":"levelo_inurba_marseille","lat":43.29786,"lon":5.39335,"is_reserved":false,"is_disabled":false,"rental_uris":{"android":"levelo://app?vid=22313407-9d09-435f-b158-10ab3c8b5aa7","ios":"levelo://app?vid=22313407-9d09-435f-b158-10ab3c8b5aa7"},"vehicle_type_id":"4","last_reported":1703527711,"current_range_meters":29600,"station_id":"chh1huq6cuj3fo74tm60","pricing_plan_id":"free"},{"bike_id":"b0d92239-6d94-4af0-b5ef-d586938f7533","system_id":"levelo_inurba_marseille","lat":43.297815,"lon":5.393548,"is_reserved":false,"is_disabled":false,"rental_uris":{"android":"levelo://app?vid=b0d92239-6d94-4af0-b5ef-d586938f7533","ios":"levelo://app?vid=b0d92239-6d94-4af0-b5ef-d586938f7533"},"vehicle_type_id":"4","last_reported":1703527711,"current_range_meters":10000,"station_id":"chh1huq6cuj3fo74tm60","pricing_plan_id":"free"},{"bike_id":"bb83dc45-e053-4450-9e74-a139377979fd","system_id":"levelo_inurba_marseille","lat":43.297867,"lon":5.393441,"is_reserved":false,"is_disabled":false,"rental_uris":{"android":"levelo://app?vid=bb83dc45-e053-4450-9e74-a139377979fd","ios":"levelo://app?vid=bb83dc45-e053-4450-9e74-a139377979fd"},"vehicle_type_id":"4","last_reported":1703527711,"current_range_meters":9600,"station_id":"chh1huq6cuj3fo74tm60","pricing_plan_id":"free"},{"bike_id":"5d1bde58-2c7b-438a-bd37-7bc100df62bf","system_id":"levelo_inurba_marseille","lat":43.33024,"lon":5.39037,"is_reserved":false,"is_disabled":false,"rental_uris":{"android":"levelo://app?vid=5d1bde58-2c7b-438a-bd37-7bc100df62bf","ios":"levelo://app?vid=5d1bde58-2c7b-438a-bd37-7bc100df62bf"},"vehicle_type_id":"4","last_reported":1703527711,"current_range_meters":16400,"station_id":"","pricing_plan_id":"free"},{"bike_id":"bf6f8f15-edb1-4a8e-b258-0d5a6640ec0b","system_id":"levelo_inurba_marseille","lat":43.285856,"lon":5.350771,"is_reserved":false,"is_disabled":false,"rental_uris":{"android":"levelo://app?vid=bf6f8f15-edb1-4a8e-b258-0d5a6640ec0b","ios":"levelo://app?vid=bf6f8f15-edb1-4a8e-b258-0d5a6640ec0b"},"vehicle_type_id":"4","last_reported":1703527711,"current_range_meters":24800,"station_id":"ce4bhch2rcd13ifvqeug","pricing_plan_id":"free"},{"bike_id":"a01e8492-43df-4c15-87b4-86cf25f3ebdd","system_id":"levelo_inurba_marseille","lat":43.29028,"lon":5.38135,"is_reserved":false,"is_disabled":false,"rental_uris":{"android":"levelo://app?vid=a01e8492-43df-4c15-87b4-86cf25f3ebdd","ios":"levelo://app?vid=a01e8492-43df-4c15-87b4-86cf25f3ebdd"},"vehicle_type_id":"4","last_reported":1703527711,"current_range_meters":22800,"station_id":"ce4bh4p2rcd13ifvqe1g","pricing_plan_id":"free"},{"bike_id":"7244b12c-a4ed-4fcc-a53c-0222ae84e7e2","system_id":"levelo_inurba_marseille","lat":43.331184,"lon":5.389756,"is_reserved":false,"is_disabled":false,"rental_uris":{"android":"levelo://app?vid=7244b12c-a4ed-4fcc-a53c-0222ae84e7e2","ios":"levelo://app?vid=7244b12c-a4ed-4fcc-a53c-0222ae84e7e2"},"vehicle_type_id":"4","last_reported":1703527711,"current_range_meters":28800,"station_id":"","pricing_plan_id":"free"},{"bike_id":"4aac448d-ea19-4dee-b69b-8b32bd67559b","system_id":"levelo_inurba_marseille","lat":43.28856,"lon":5.358371,"is_reserved":false,"is_disabled":false,"rental_uris":{"android":"levelo://app?vid=4aac448d-ea19-4dee-b69b-8b32bd67559b","ios":"levelo://app?vid=4aac448d-ea19-4dee-b69b-8b32bd67559b"},"vehicle_type_id":"4","last_reported":1703527711,"current_range_meters":12400,"station_id":"ce4bhb12rcd13ifvqem0","pricing_plan_id":"free"},{"bike_id":"ac80e367-40f7-4b73-969a-5ea14c4e32df","system_id":"levelo_inurba_marseille","lat":43.28856,"lon":5.358371,"is_reserved":false,"is_disabled":false,"rental_uris":{"android":"levelo://app?vid=ac80e367-40f7-4b73-969a-5ea14c4e32df","ios":"levelo://app?vid=ac80e367-40f7-4b73-969a-5ea14c4e32df"},"vehicle_type_id":"4","last_reported":1703527711,"current_range_meters":12800,"station_id":"ce4bhb12rcd13ifvqem0","pricing_plan_id":"free"},{"bike_id":"0d9c8563-4a48-46d6-8f8a-ddb3e255587d","system_id":"levelo_inurba_marseille","lat":43.28856,"lon":5.358371,"is_reserved":false,"is_disabled":false,"rental_uris":{"android":"levelo://app?vid=0d9c8563-4a48-46d6-8f8a-ddb3e255587d","ios":"levelo://app?vid=0d9c8563-4a48-46d6-8f8a-ddb3e255587d"},"vehicle_type_id":"4","last_reported":1703527711,"current_range_meters":20000,"station_id":"ce4bhb12rcd13ifvqem0","pricing_plan_id":"free"},{"bike_id":"5dfb9a39-c58e-4b57-bbe1-da39b9ae7ab4","system_id":"levelo_inurba_marseille","lat":43.309371,"lon":5.401449,"is_reserved":false,"is_disabled":false,"rental_uris":{"android":"levelo://app?vid=5dfb9a39-c58e-4b57-bbe1-da39b9ae7ab4","ios":"levelo://app?vid=5dfb9a39-c58e-4b57-bbe1-da39b9ae7ab4"},"vehicle_type_id":"4","last_reported":1703527711,"current_range_meters":8400,"station_id":"ce4bgvp2rcd13ifvqct0","pricing_plan_id":"free"},{"bike_id":"45fdcf45-d358-48c6-b6a5-66fbcf99b05f","system_id":"levelo_inurba_marseille","lat":43.30642,"lon":5.401031,"is_reserved":false,"is_disabled":false,"rental_uris":{"android":"levelo://app?vid=45fdcf45-d358-48c6-b6a5-66fbcf99b05f","ios":"levelo://app?vid=45fdcf45-d358-48c6-b6a5-66fbcf99b05f"},"vehicle_type_id":"4","last_reported":1703527711,"current_range_meters":30000,"station_id":"ce4bh112rcd13ifvqda0","pricing_plan_id":"free"},{"bike_id":"1bed4697-9c3a-4be5-abda-fc05b52bdbeb","system_id":"levelo_inurba_marseille","lat":43.306412,"lon":5.401035,"is_reserved":false,"is_disabled":false,"rental_uris":{"android":"levelo://app?vid=1bed4697-9c3a-4be5-abda-fc05b52bdbeb","ios":"levelo://app?vid=1bed4697-9c3a-4be5-abda-fc05b52bdbeb"},"vehicle_type_id":"4","last_reported":1703527711,"current_range_meters":29200,"station_id":"ce4bh112rcd13ifvqda0","pricing_plan_id":"free"},{"bike_id":"1dc0891e-bdae-4471-9be5-e8ba59d42c01","system_id":"levelo_inurba_marseille","lat":43.28727,"lon":5.36078,"is_reserved":false,"is_disabled":false,"rental_uris":{"android":"levelo://app?vid=1dc0891e-bdae-4471-9be5-e8ba59d42c01","ios":"levelo://app?vid=1dc0891e-bdae-4471-9be5-e8ba59d42c01"},"vehicle_type_id":"4","last_reported":1703527711,"current_range_meters":27200,"station_id":"cki0cbj6b192h4jlfktg","pricing_plan_id":"free"},{"bike_id":"c8f0e4a5-7f6c-4526-acba-c35ceb17603a","system_id":"levelo_inurba_marseille","lat":43.286591,"lon":5.363346,"is_reserved":false,"is_disabled":false,"rental_uris":{"android":"levelo://app?vid=c8f0e4a5-7f6c-4526-acba-c35ceb17603a","ios":"levelo://app?vid=c8f0e4a5-7f6c-4526-acba-c35ceb17603a"},"vehicle_type_id":"4","last_reported":1703527711,"current_range_meters":18800,"station_id":"ce4bhah2rcd13ifvqej0","pricing_plan_id":"free"},{"bike_id":"a0a3f4c5-ed74-4b65-bca8-996a8b186d3d","system_id":"levelo_inurba_marseille","lat":43.286591,"lon":5.363346,"is_reserved":false,"is_disabled":false,"rental_uris":{"android":"levelo://app?vid=a0a3f4c5-ed74-4b65-bca8-996a8b186d3d","ios":"levelo://app?vid=a0a3f4c5-ed74-4b65-bca8-996a8b186d3d"},"vehicle_type_id":"4","last_reported":1703527711,"current_range_meters":8400,"station_id":"ce4bhah2rcd13ifvqej0","pricing_plan_id":"free"},{"bike_id":"cb16e91f-fcd3-4002-9bc1-c5e06fdb5ae4","system_id":"levelo_inurba_marseille","lat":43.286591,"lon":5.363346,"is_reserved":false,"is_disabled":false,"rental_uris":{"android":"levelo://app?vid=cb16e91f-fcd3-4002-9bc1-c5e06fdb5ae4","ios":"levelo://app?vid=cb16e91f-fcd3-4002-9bc1-c5e06fdb5ae4"},"vehicle_type_id":"4","last_reported":1703527711,"current_range_meters":24800,"station_id":"ce4bhah2rcd13ifvqej0","pricing_plan_id":"free"},{"bike_id":"790ac815-6fb3-4772-9fb6-1d8b35d6fe27","system_id":"levelo_inurba_marseille","lat":43.286961,"lon":5.373785,"is_reserved":false,"is_disabled":false,"rental_uris":{"android":"levelo://app?vid=790ac815-6fb3-4772-9fb6-1d8b35d6fe27","ios":"levelo://app?vid=790ac815-6fb3-4772-9fb6-1d8b35d6fe27"},"vehicle_type_id":"4","last_reported":1703527711,"current_range_meters":31200,"station_id":"ce4bh3p2rcd13ifvqdq0","pricing_plan_id":"free"},{"bike_id":"2cd0b997-866d-4aea-8ad1-d95c2cf63a5f","system_id":"levelo_inurba_marseille","lat":43.286591,"lon":5.363346,"is_reserved":false,"is_disabled":false,"rental_uris":{"android":"levelo://app?vid=2cd0b997-866d-4aea-8ad1-d95c2cf63a5f","ios":"levelo://app?vid=2cd0b997-866d-4aea-8ad1-d95c2cf63a5f"},"vehicle_type_id":"4","last_reported":1703527711,"current_range_meters":22400,"station_id":"ce4bhah2rcd13ifvqej0","pricing_plan_id":"free"},{"bike_id":"4c73b77b-19bd-43ef-a3ea-8d96fd96cd22","system_id":"levelo_inurba_marseille","lat":43.29876,"lon":5.39735,"is_reserved":false,"is_disabled":false,"rental_uris":{"android":"levelo://app?vid=4c73b77b-19bd-43ef-a3ea-8d96fd96cd22","ios":"levelo://app?vid=4c73b77b-19bd-43ef-a3ea-8d96fd96cd22"},"vehicle_type_id":"4","last_reported":1703527711,"current_range_meters":13600,"station_id":"ce4bh0h2rcd13ifvqd50","pricing_plan_id":"free"},{"bike_id":"f3fe71bd-8862-46b4-8fc9-672eb5d99d9f","system_id":"levelo_inurba_marseille","lat":43.286961,"lon":5.373785,"is_reserved":false,"is_disabled":false,"rental_uris":{"android":"levelo://app?vid=f3fe71bd-8862-46b4-8fc9-672eb5d99d9f","ios":"levelo://app?vid=f3fe71bd-8862-46b4-8fc9-672eb5d99d9f"},"vehicle_type_id":"4","last_reported":1703527711,"current_range_meters":18400,"station_id":"ce4bh3p2rcd13ifvqdq0","pricing_plan_id":"free"},{"bike_id":"5cec7219-3179-478d-88a9-b421f1110c27","system_id":"levelo_inurba_marseille","lat":43.29512,"lon":5.39393,"is_reserved":false,"is_disabled":false,"rental_uris":{"android":"levelo://app?vid=5cec7219-3179-478d-88a9-b421f1110c27","ios":"levelo://app?vid=5cec7219-3179-478d-88a9-b421f1110c27"},"vehicle_type_id":"4","last_reported":1703527711,"current_range_meters":30000,"station_id":"ce4bh292rcd13ifvqdf0","pricing_plan_id":"free"},{"bike_id":"d33065ad-1118-43db-ba53-d839adeacdee","system_id":"levelo_inurba_marseille","lat":43.29516,"lon":5.394,"is_reserved":false,"is_disabled":false,"rental_uris":{"android":"levelo://app?vid=d33065ad-1118-43db-ba53-d839adeacdee","ios":"levelo://app?vid=d33065ad-1118-43db-ba53-d839adeacdee"},"vehicle_type_id":"4","last_reported":1703527711,"current_range_meters":400,"station_id":"ce4bh292rcd13ifvqdf0","pricing_plan_id":"free"},{"bike_id":"6f48802a-aabd-4cbf-92b7-90c8ca1b4c16","system_id":"levelo_inurba_marseille","lat":43.290345,"lon":5.38646,"is_reserved":false,"is_disabled":false,"rental_uris":{"android":"levelo://app?vid=6f48802a-aabd-4cbf-92b7-90c8ca1b4c16","ios":"levelo://app?vid=6f48802a-aabd-4cbf-92b7-90c8ca1b4c16"},"vehicle_type_id":"4","last_reported":1703527711,"current_range_meters":30000,"station_id":"ce4bh4p2rcd13ifvqe0g","pricing_plan_id":"free"},{"bike_id":"137bbfc5-9177-4077-99a9-f5aca3ded894","system_id":"levelo_inurba_marseille","lat":43.290345,"lon":5.38646,"is_reserved":false,"is_disabled":false,"rental_uris":{"android":"levelo://app?vid=137bbfc5-9177-4077-99a9-f5aca3ded894","ios":"levelo://app?vid=137bbfc5-9177-4077-99a9-f5aca3ded894"},"vehicle_type_id":"4","last_reported":1703527711,"current_range_meters":29600,"station_id":"ce4bh4p2rcd13ifvqe0g","pricing_plan_id":"free"},{"bike_id":"3a701e08-c466-4781-8707-9f780bbbc941","system_id":"levelo_inurba_marseille","lat":43.290345,"lon":5.38646,"is_reserved":false,"is_disabled":false,"rental_uris":{"android":"levelo://app?vid=3a701e08-c466-4781-8707-9f780bbbc941","ios":"levelo://app?vid=3a701e08-c466-4781-8707-9f780bbbc941"},"vehicle_type_id":"4","last_reported":1703527711,"current_range_meters":28000,"station_id":"ce4bh4p2rcd13ifvqe0g","pricing_plan_id":"free"},{"bike_id":"a4f81d61-acdb-444b-af8b-b6298de33ea6","system_id":"levelo_inurba_marseille","lat":43.290345,"lon":5.38646,"is_reserved":false,"is_disabled":false,"rental_uris":{"android":"levelo://app?vid=a4f81d61-acdb-444b-af8b-b6298de33ea6","ios":"levelo://app?vid=a4f81d61-acdb-444b-af8b-b6298de33ea6"},"vehicle_type_id":"4","last_reported":1703527711,"current_range_meters":25200,"station_id":"ce4bh4p2rcd13ifvqe0g","pricing_plan_id":"free"},{"bike_id":"9d25bbe6-6121-406d-8803-a340738149c8","system_id":"levelo_inurba_marseille","lat":43.289307,"lon":5.38406,"is_reserved":false,"is_disabled":false,"rental_uris":{"android":"levelo://app?vid=9d25bbe6-6121-406d-8803-a340738149c8","ios":"levelo://app?vid=9d25bbe6-6121-406d-8803-a340738149c8"},"vehicle_type_id":"4","last_reported":1703527711,"current_range_meters":25600,"station_id":"ce4bh612rcd13ifvqe6g","pricing_plan_id":"free"},{"bike_id":"52c029a7-64b7-4ecb-8d86-7dad3ee1d688","system_id":"levelo_inurba_marseille","lat":43.290336,"lon":5.386425,"is_reserved":false,"is_disabled":false,"rental_uris":{"android":"levelo://app?vid=52c029a7-64b7-4ecb-8d86-7dad3ee1d688","ios":"levelo://app?vid=52c029a7-64b7-4ecb-8d86-7dad3ee1d688"},"vehicle_type_id":"4","last_reported":1703527711,"current_range_meters":26400,"station_id":"ce4bh4p2rcd13ifvqe0g","pricing_plan_id":"free"},{"bike_id":"d59e8884-ab49-4eee-b8d1-c25f52a7bbc0","system_id":"levelo_inurba_marseille","lat":43.290345,"lon":5.38646,"is_reserved":false,"is_disabled":false,"rental_uris":{"android":"levelo://app?vid=d59e8884-ab49-4eee-b8d1-c25f52a7bbc0","ios":"levelo://app?vid=d59e8884-ab49-4eee-b8d1-c25f52a7bbc0"},"vehicle_type_id":"4","last_reported":1703527711,"current_range_meters":28800,"station_id":"ce4bh4p2rcd13ifvqe0g","pricing_plan_id":"free"},{"bike_id":"a0b03d8e-4166-4eac-aae3-14551c30d7f6","system_id":"levelo_inurba_marseille","lat":43.289307,"lon":5.38406,"is_reserved":false,"is_disabled":false,"rental_uris":{"android":"levelo://app?vid=a0b03d8e-4166-4eac-aae3-14551c30d7f6","ios":"levelo://app?vid=a0b03d8e-4166-4eac-aae3-14551c30d7f6"},"vehicle_type_id":"4","last_reported":1703527711,"current_range_meters":21200,"station_id":"ce4bh612rcd13ifvqe6g","pricing_plan_id":"free"},{"bike_id":"58287bc2-f798-447f-98f0-1feb0986d5f9","system_id":"levelo_inurba_marseille","lat":43.289307,"lon":5.38406,"is_reserved":false,"is_disabled":false,"rental_uris":{"android":"levelo://app?vid=58287bc2-f798-447f-98f0-1feb0986d5f9","ios":"levelo://app?vid=58287bc2-f798-447f-98f0-1feb0986d5f9"},"vehicle_type_id":"4","last_reported":1703527711,"current_range_meters":9200,"station_id":"ce4bh612rcd13ifvqe6g","pricing_plan_id":"free"},{"bike_id":"69043c95-7f11-44e3-9d9e-48493c9210d8","system_id":"levelo_inurba_marseille","lat":43.289307,"lon":5.38406,"is_reserved":false,"is_disabled":false,"rental_uris":{"android":"levelo://app?vid=69043c95-7f11-44e3-9d9e-48493c9210d8","ios":"levelo://app?vid=69043c95-7f11-44e3-9d9e-48493c9210d8"},"vehicle_type_id":"4","last_reported":1703527711,"current_range_meters":30800,"station_id":"ce4bh612rcd13ifvqe6g","pricing_plan_id":"free"},{"bike_id":"6eb8d9bf-bb36-4f48-939a-2a05e59dc9ed","system_id":"levelo_inurba_marseille","lat":43.289307,"lon":5.38406,"is_reserved":false,"is_disabled":false,"rental_uris":{"android":"levelo://app?vid=6eb8d9bf-bb36-4f48-939a-2a05e59dc9ed","ios":"levelo://app?vid=6eb8d9bf-bb36-4f48-939a-2a05e59dc9ed"},"vehicle_type_id":"4","last_reported":1703527711,"current_range_meters":3200,"station_id":"ce4bh612rcd13ifvqe6g","pricing_plan_id":"free"},{"bike_id":"cafa0778-a2eb-4a92-92cb-ece4aa84c9c8","system_id":"levelo_inurba_marseille","lat":43.302759,"lon":5.400793,"is_reserved":false,"is_disabled":false,"rental_uris":{"android":"levelo://app?vid=cafa0778-a2eb-4a92-92cb-ece4aa84c9c8","ios":"levelo://app?vid=cafa0778-a2eb-4a92-92cb-ece4aa84c9c8"},"vehicle_type_id":"4","last_reported":1703527711,"current_range_meters":2800,"station_id":"ce4bgvh2rcd13ifvqcs0","pricing_plan_id":"free"},{"bike_id":"1c9e15db-de56-460a-8d90-c09411b07c32","system_id":"levelo_inurba_marseille","lat":43.286108,"lon":5.370595,"is_reserved":false,"is_disabled":false,"rental_uris":{"android":"levelo://app?vid=1c9e15db-de56-460a-8d90-c09411b07c32","ios":"levelo://app?vid=1c9e15db-de56-460a-8d90-c09411b07c32"},"vehicle_type_id":"4","last_reported":1703527711,"current_range_meters":9600,"station_id":"ce4bht12rcd13ifvqi60","pricing_plan_id":"free"},{"bike_id":"b269c749-19b3-457a-9f11-021ccc443c55","system_id":"levelo_inurba_marseille","lat":43.286039,"lon":5.370679,"is_reserved":false,"is_disabled":false,"rental_uris":{"android":"levelo://app?vid=b269c749-19b3-457a-9f11-021ccc443c55","ios":"levelo://app?vid=b269c749-19b3-457a-9f11-021ccc443c55"},"vehicle_type_id":"4","last_reported":1703527711,"current_range_meters":7200,"station_id":"ce4bht12rcd13ifvqi60","pricing_plan_id":"free"},{"bike_id":"96032c65-ad05-4627-9655-b64d1764d84b","system_id":"levelo_inurba_marseille","lat":43.28606,"lon":5.37062,"is_reserved":false,"is_disabled":false,"rental_uris":{"android":"levelo://app?vid=96032c65-ad05-4627-9655-b64d1764d84b","ios":"levelo://app?vid=96032c65-ad05-4627-9655-b64d1764d84b"},"vehicle_type_id":"4","last_reported":1703527711,"current_range_meters":7200,"station_id":"ce4bht12rcd13ifvqi60","pricing_plan_id":"free"},{"bike_id":"0ade99fb-20fc-423b-a697-58876a6bf0b1","system_id":"levelo_inurba_marseille","lat":43.287098,"lon":5.379438,"is_reserved":false,"is_disabled":false,"rental_uris":{"android":"levelo://app?vid=0ade99fb-20fc-423b-a697-58876a6bf0b1","ios":"levelo://app?vid=0ade99fb-20fc-423b-a697-58876a6bf0b1"},"vehicle_type_id":"4","last_reported":1703527711,"current_range_meters":21200,"station_id":"ce4bh9p2rcd13ifvqec0","pricing_plan_id":"free"},{"bike_id":"8614bd4c-c99f-4d9b-852b-5cbf48eb90fb","system_id":"levelo_inurba_marseille","lat":43.316828,"lon":5.404723,"is_reserved":false,"is_disabled":false,"rental_uris":{"android":"levelo://app?vid=8614bd4c-c99f-4d9b-852b-5cbf48eb90fb","ios":"levelo://app?vid=8614bd4c-c99f-4d9b-852b-5cbf48eb90fb"},"vehicle_type_id":"4","last_reported":1703527711,"current_range_meters":20800,"station_id":"ce4bh012rcd13ifvqd00","pricing_plan_id":"free"},{"bike_id":"10cebbf1-af0e-4a22-9946-79b30eaf225b","system_id":"levelo_inurba_marseille","lat":43.316821,"lon":5.404737,"is_reserved":false,"is_disabled":false,"rental_uris":{"android":"levelo://app?vid=10cebbf1-af0e-4a22-9946-79b30eaf225b","ios":"levelo://app?vid=10cebbf1-af0e-4a22-9946-79b30eaf225b"},"vehicle_type_id":"4","last_reported":1703527711,"current_range_meters":12800,"station_id":"ce4bh012rcd13ifvqd00","pricing_plan_id":"free"},{"bike_id":"fd301e13-d2d3-45f3-93a4-330a192375d9","system_id":"levelo_inurba_marseille","lat":43.316907,"lon":5.40472,"is_reserved":false,"is_disabled":false,"rental_uris":{"android":"levelo://app?vid=fd301e13-d2d3-45f3-93a4-330a192375d9","ios":"levelo://app?vid=fd301e13-d2d3-45f3-93a4-330a192375d9"},"vehicle_type_id":"4","last_reported":1703527711,"current_range_meters":19600,"station_id":"","pricing_plan_id":"free"},{"bike_id":"9da4e2c0-85e0-48e8-84ca-a8131ebea362","system_id":"levelo_inurba_marseille","lat":43.316828,"lon":5.404723,"is_reserved":false,"is_disabled":false,"rental_uris":{"android":"levelo://app?vid=9da4e2c0-85e0-48e8-84ca-a8131ebea362","ios":"levelo://app?vid=9da4e2c0-85e0-48e8-84ca-a8131ebea362"},"vehicle_type_id":"4","last_reported":1703527711,"current_range_meters":28000,"station_id":"ce4bh012rcd13ifvqd00","pricing_plan_id":"free"},{"bike_id":"9ad96d54-48bf-429c-8d34-3af05c4421cb","system_id":"levelo_inurba_marseille","lat":43.291994,"lon":5.392907,"is_reserved":false,"is_disabled":false,"rental_uris":{"android":"levelo://app?vid=9ad96d54-48bf-429c-8d34-3af05c4421cb","ios":"levelo://app?vid=9ad96d54-48bf-429c-8d34-3af05c4421cb"},"vehicle_type_id":"4","last_reported":1703527711,"current_range_meters":28800,"station_id":"ce4bh192rcd13ifvqdd0","pricing_plan_id":"free"},{"bike_id":"7f6daaf6-8c88-4ae4-8839-35343aa252fd","system_id":"levelo_inurba_marseille","lat":43.291994,"lon":5.392907,"is_reserved":false,"is_disabled":false,"rental_uris":{"android":"levelo://app?vid=7f6daaf6-8c88-4ae4-8839-35343aa252fd","ios":"levelo://app?vid=7f6daaf6-8c88-4ae4-8839-35343aa252fd"},"vehicle_type_id":"4","last_reported":1703527711,"current_range_meters":31200,"station_id":"ce4bh192rcd13ifvqdd0","pricing_plan_id":"free"},{"bike_id":"eaeca32f-cc6f-44c9-9d82-17efc22cd62b","system_id":"levelo_inurba_marseille","lat":43.291994,"lon":5.392907,"is_reserved":false,"is_disabled":false,"rental_uris":{"android":"levelo://app?vid=eaeca32f-cc6f-44c9-9d82-17efc22cd62b","ios":"levelo://app?vid=eaeca32f-cc6f-44c9-9d82-17efc22cd62b"},"vehicle_type_id":"4","last_reported":1703527711,"current_range_meters":29200,"station_id":"ce4bh192rcd13ifvqdd0","pricing_plan_id":"free"},{"bike_id":"e2adfa7c-882e-48a1-9ee4-b36e6186ebbf","system_id":"levelo_inurba_marseille","lat":43.330912,"lon":5.396935,"is_reserved":false,"is_disabled":false,"rental_uris":{"android":"levelo://app?vid=e2adfa7c-882e-48a1-9ee4-b36e6186ebbf","ios":"levelo://app?vid=e2adfa7c-882e-48a1-9ee4-b36e6186ebbf"},"vehicle_type_id":"4","last_reported":1703527711,"current_range_meters":6000,"station_id":"","pricing_plan_id":"free"},{"bike_id":"51eec71c-463f-418e-9bd6-304a5d8198e4","system_id":"levelo_inurba_marseille","lat":43.284538,"lon":5.358657,"is_reserved":false,"is_disabled":false,"rental_uris":{"android":"levelo://app?vid=51eec71c-463f-418e-9bd6-304a5d8198e4","ios":"levelo://app?vid=51eec71c-463f-418e-9bd6-304a5d8198e4"},"vehicle_type_id":"4","last_reported":1703527711,"current_range_meters":25200,"station_id":"ce4bhah2rcd13ifvqei0","pricing_plan_id":"free"},{"bike_id":"6fce6cf9-3857-4ce7-8dd8-c8d6febadb9e","system_id":"levelo_inurba_marseille","lat":43.284538,"lon":5.358657,"is_reserved":false,"is_disabled":false,"rental_uris":{"android":"levelo://app?vid=6fce6cf9-3857-4ce7-8dd8-c8d6febadb9e","ios":"levelo://app?vid=6fce6cf9-3857-4ce7-8dd8-c8d6febadb9e"},"vehicle_type_id":"4","last_reported":1703527711,"current_range_meters":31200,"station_id":"ce4bhah2rcd13ifvqei0","pricing_plan_id":"free"},{"bike_id":"25f31d95-b191-4186-84b3-b832805f9068","system_id":"levelo_inurba_marseille","lat":43.284538,"lon":5.358657,"is_reserved":false,"is_disabled":false,"rental_uris":{"android":"levelo://app?vid=25f31d95-b191-4186-84b3-b832805f9068","ios":"levelo://app?vid=25f31d95-b191-4186-84b3-b832805f9068"},"vehicle_type_id":"4","last_reported":1703527711,"current_range_meters":27200,"station_id":"ce4bhah2rcd13ifvqei0","pricing_plan_id":"free"},{"bike_id":"fbcd6f70-0756-4675-acb3-7efc3adc3d5d","system_id":"levelo_inurba_marseille","lat":43.284534,"lon":5.358662,"is_reserved":false,"is_disabled":false,"rental_uris":{"android":"levelo://app?vid=fbcd6f70-0756-4675-acb3-7efc3adc3d5d","ios":"levelo://app?vid=fbcd6f70-0756-4675-acb3-7efc3adc3d5d"},"vehicle_type_id":"4","last_reported":1703527711,"current_range_meters":18000,"station_id":"ce4bhah2rcd13ifvqei0","pricing_plan_id":"free"},{"bike_id":"70a7a43c-b0db-43c7-80a3-33cfd4da5a4d","system_id":"levelo_inurba_marseille","lat":43.294314,"lon":5.397498,"is_reserved":false,"is_disabled":false,"rental_uris":{"android":"levelo://app?vid=70a7a43c-b0db-43c7-80a3-33cfd4da5a4d","ios":"levelo://app?vid=70a7a43c-b0db-43c7-80a3-33cfd4da5a4d"},"vehicle_type_id":"4","last_reported":1703527711,"current_range_meters":20800,"station_id":"ce4bh3h2rcd13ifvqdo0","pricing_plan_id":"free"},{"bike_id":"b2013312-be5a-4c8f-b57c-017064bc1207","system_id":"levelo_inurba_marseille","lat":43.294314,"lon":5.397498,"is_reserved":false,"is_disabled":false,"rental_uris":{"android":"levelo://app?vid=b2013312-be5a-4c8f-b57c-017064bc1207","ios":"levelo://app?vid=b2013312-be5a-4c8f-b57c-017064bc1207"},"vehicle_type_id":"4","last_reported":1703527711,"current_range_meters":26000,"station_id":"ce4bh3h2rcd13ifvqdo0","pricing_plan_id":"free"},{"bike_id":"739a8e6f-1442-437a-9f38-ede859472acd","system_id":"levelo_inurba_marseille","lat":43.285856,"lon":5.350771,"is_reserved":false,"is_disabled":false,"rental_uris":{"android":"levelo://app?vid=739a8e6f-1442-437a-9f38-ede859472acd","ios":"levelo://app?vid=739a8e6f-1442-437a-9f38-ede859472acd"},"vehicle_type_id":"4","last_reported":1703527711,"current_range_meters":30400,"station_id":"ce4bhch2rcd13ifvqeug","pricing_plan_id":"free"},{"bike_id":"071e9080-017c-47ba-9b7a-55a13db0cbd4","system_id":"levelo_inurba_marseille","lat":43.285856,"lon":5.350771,"is_reserved":false,"is_disabled":false,"rental_uris":{"android":"levelo://app?vid=071e9080-017c-47ba-9b7a-55a13db0cbd4","ios":"levelo://app?vid=071e9080-017c-47ba-9b7a-55a13db0cbd4"},"vehicle_type_id":"4","last_reported":1703527711,"current_range_meters":13600,"station_id":"ce4bhch2rcd13ifvqeug","pricing_plan_id":"free"},{"bike_id":"ffd4e012-c9b7-4b4a-9bae-4f1b4e06135d","system_id":"levelo_inurba_marseille","lat":43.285848,"lon":5.350787,"is_reserved":false,"is_disabled":false,"rental_uris":{"android":"levelo://app?vid=ffd4e012-c9b7-4b4a-9bae-4f1b4e06135d","ios":"levelo://app?vid=ffd4e012-c9b7-4b4a-9bae-4f1b4e06135d"},"vehicle_type_id":"4","last_reported":1703527711,"current_range_meters":13200,"station_id":"ce4bhch2rcd13ifvqeug","pricing_plan_id":"free"},{"bike_id":"bcb850ea-4558-48f8-884b-17064076fc95","system_id":"levelo_inurba_marseille","lat":43.283998,"lon":5.375062,"is_reserved":false,"is_disabled":false,"rental_uris":{"android":"levelo://app?vid=bcb850ea-4558-48f8-884b-17064076fc95","ios":"levelo://app?vid=bcb850ea-4558-48f8-884b-17064076fc95"},"vehicle_type_id":"4","last_reported":1703527711,"current_range_meters":20000,"station_id":"ce4bh412rcd13ifvqds0","pricing_plan_id":"free"},{"bike_id":"4b388e93-8359-494a-93e7-a691dd1edc09","system_id":"levelo_inurba_marseille","lat":43.331726,"lon":5.397308,"is_reserved":false,"is_disabled":false,"rental_uris":{"android":"levelo://app?vid=4b388e93-8359-494a-93e7-a691dd1edc09","ios":"levelo://app?vid=4b388e93-8359-494a-93e7-a691dd1edc09"},"vehicle_type_id":"4","last_reported":1703527711,"current_range_meters":28000,"station_id":"","pricing_plan_id":"free"},{"bike_id":"bdc90deb-ee84-4059-a9d5-d8c0dea7f16a","system_id":"levelo_inurba_marseille","lat":43.283998,"lon":5.375062,"is_reserved":false,"is_disabled":false,"rental_uris":{"android":"levelo://app?vid=bdc90deb-ee84-4059-a9d5-d8c0dea7f16a","ios":"levelo://app?vid=bdc90deb-ee84-4059-a9d5-d8c0dea7f16a"},"vehicle_type_id":"4","last_reported":1703527711,"current_range_meters":6400,"station_id":"ce4bh412rcd13ifvqds0","pricing_plan_id":"free"},{"bike_id":"8202f3d3-9e4b-4efc-ba33-9b4c62477dfd","system_id":"levelo_inurba_marseille","lat":43.295713,"lon":5.399639,"is_reserved":false,"is_disabled":false,"rental_uris":{"android":"levelo://app?vid=8202f3d3-9e4b-4efc-ba33-9b4c62477dfd","ios":"levelo://app?vid=8202f3d3-9e4b-4efc-ba33-9b4c62477dfd"},"vehicle_type_id":"4","last_reported":1703527711,"current_range_meters":31200,"station_id":"ce4bh312rcd13ifvqdj0","pricing_plan_id":"free"},{"bike_id":"e485450b-2736-4f4c-b94b-0da5a69b88aa","system_id":"levelo_inurba_marseille","lat":43.33195,"lon":5.39738,"is_reserved":false,"is_disabled":false,"rental_uris":{"android":"levelo://app?vid=e485450b-2736-4f4c-b94b-0da5a69b88aa","ios":"levelo://app?vid=e485450b-2736-4f4c-b94b-0da5a69b88aa"},"vehicle_type_id":"4","last_reported":1703527711,"current_range_meters":24000,"station_id":"","pricing_plan_id":"free"},{"bike_id":"039ceecd-3506-4419-ad48-bf31b196e9b3","system_id":"levelo_inurba_marseille","lat":43.283998,"lon":5.375062,"is_reserved":false,"is_disabled":false,"rental_uris":{"android":"levelo://app?vid=039ceecd-3506-4419-ad48-bf31b196e9b3","ios":"levelo://app?vid=039ceecd-3506-4419-ad48-bf31b196e9b3"},"vehicle_type_id":"4","last_reported":1703527711,"current_range_meters":22800,"station_id":"ce4bh412rcd13ifvqds0","pricing_plan_id":"free"},{"bike_id":"c6eab5ed-b7bc-4b80-bdfb-69af7c070bbe","system_id":"levelo_inurba_marseille","lat":43.286595,"lon":5.386795,"is_reserved":false,"is_disabled":false,"rental_uris":{"android":"levelo://app?vid=c6eab5ed-b7bc-4b80-bdfb-69af7c070bbe","ios":"levelo://app?vid=c6eab5ed-b7bc-4b80-bdfb-69af7c070bbe"},"vehicle_type_id":"4","last_reported":1703527711,"current_range_meters":2400,"station_id":"ce4bh492rcd13ifvqdug","pricing_plan_id":"free"},{"bike_id":"d3f87648-fa46-4e0f-85a3-39f063b748e0","system_id":"levelo_inurba_marseille","lat":43.333888,"lon":5.396516,"is_reserved":false,"is_disabled":false,"rental_uris":{"android":"levelo://app?vid=d3f87648-fa46-4e0f-85a3-39f063b748e0","ios":"levelo://app?vid=d3f87648-fa46-4e0f-85a3-39f063b748e0"},"vehicle_type_id":"4","last_reported":1703527711,"current_range_meters":28400,"station_id":"","pricing_plan_id":"free"},{"bike_id":"ff6ebe2d-10e0-4bee-8d5b-0d34d0573673","system_id":"levelo_inurba_marseille","lat":43.337132,"lon":5.391637,"is_reserved":false,"is_disabled":false,"rental_uris":{"android":"levelo://app?vid=ff6ebe2d-10e0-4bee-8d5b-0d34d0573673","ios":"levelo://app?vid=ff6ebe2d-10e0-4bee-8d5b-0d34d0573673"},"vehicle_type_id":"4","last_reported":1703527711,"current_range_meters":21600,"station_id":"ce4bhr92rcd13ifvqhsg","pricing_plan_id":"free"},{"bike_id":"9960fa43-3a3b-4d5b-8fe2-258b49d47b49","system_id":"levelo_inurba_marseille","lat":43.323464,"lon":5.406297,"is_reserved":false,"is_disabled":false,"rental_uris":{"android":"levelo://app?vid=9960fa43-3a3b-4d5b-8fe2-258b49d47b49","ios":"levelo://app?vid=9960fa43-3a3b-4d5b-8fe2-258b49d47b49"},"vehicle_type_id":"4","last_reported":1703527711,"current_range_meters":28000,"station_id":"ce4bhq92rcd13ifvqhjg","pricing_plan_id":"free"},{"bike_id":"54f77560-de57-4c6c-bb6e-e0d1c095fd06","system_id":"levelo_inurba_marseille","lat":43.28464,"lon":5.38412,"is_reserved":false,"is_disabled":false,"rental_uris":{"android":"levelo://app?vid=54f77560-de57-4c6c-bb6e-e0d1c095fd06","ios":"levelo://app?vid=54f77560-de57-4c6c-bb6e-e0d1c095fd06"},"vehicle_type_id":"4","last_reported":1703527711,"current_range_meters":28000,"station_id":"ce4bh512rcd13ifvqe3g","pricing_plan_id":"free"},{"bike_id":"41b5e56d-ee83-4803-b772-b112f8fb4146","system_id":"levelo_inurba_marseille","lat":43.284793,"lon":5.384119,"is_reserved":false,"is_disabled":false,"rental_uris":{"android":"levelo://app?vid=41b5e56d-ee83-4803-b772-b112f8fb4146","ios":"levelo://app?vid=41b5e56d-ee83-4803-b772-b112f8fb4146"},"vehicle_type_id":"4","last_reported":1703527711,"current_range_meters":25600,"station_id":"ce4bh512rcd13ifvqe3g","pricing_plan_id":"free"},{"bike_id":"2a3a5683-0cb3-465f-91bd-6af4800fe40f","system_id":"levelo_inurba_marseille","lat":43.297946,"lon":5.404063,"is_reserved":false,"is_disabled":false,"rental_uris":{"android":"levelo://app?vid=2a3a5683-0cb3-465f-91bd-6af4800fe40f","ios":"levelo://app?vid=2a3a5683-0cb3-465f-91bd-6af4800fe40f"},"vehicle_type_id":"4","last_reported":1703527711,"current_range_meters":20000,"station_id":"ce4bh112rcd13ifvqd90","pricing_plan_id":"free"},{"bike_id":"947337ad-8e07-4f0c-baac-ef42a7c1a269","system_id":"levelo_inurba_marseille","lat":43.283494,"lon":5.380945,"is_reserved":false,"is_disabled":false,"rental_uris":{"android":"levelo://app?vid=947337ad-8e07-4f0c-baac-ef42a7c1a269","ios":"levelo://app?vid=947337ad-8e07-4f0c-baac-ef42a7c1a269"},"vehicle_type_id":"4","last_reported":1703527711,"current_range_meters":2400,"station_id":"ce4bh412rcd13ifvqdr0","pricing_plan_id":"free"},{"bike_id":"bf86c90a-0600-4359-a385-15fab19554b3","system_id":"levelo_inurba_marseille","lat":43.283494,"lon":5.380945,"is_reserved":false,"is_disabled":false,"rental_uris":{"android":"levelo://app?vid=bf86c90a-0600-4359-a385-15fab19554b3","ios":"levelo://app?vid=bf86c90a-0600-4359-a385-15fab19554b3"},"vehicle_type_id":"4","last_reported":1703527711,"current_range_meters":4800,"station_id":"ce4bh412rcd13ifvqdr0","pricing_plan_id":"free"},{"bike_id":"e2a16736-3cc4-4259-856f-03c539c03e76","system_id":"levelo_inurba_marseille","lat":43.283494,"lon":5.380945,"is_reserved":false,"is_disabled":false,"rental_uris":{"android":"levelo://app?vid=e2a16736-3cc4-4259-856f-03c539c03e76","ios":"levelo://app?vid=e2a16736-3cc4-4259-856f-03c539c03e76"},"vehicle_type_id":"4","last_reported":1703527711,"current_range_meters":21600,"station_id":"ce4bh412rcd13ifvqdr0","pricing_plan_id":"free"},{"bike_id":"e5070973-444d-464e-9d66-16b1f5babe6f","system_id":"levelo_inurba_marseille","lat":43.283498,"lon":5.380948,"is_reserved":false,"is_disabled":false,"rental_uris":{"android":"levelo://app?vid=e5070973-444d-464e-9d66-16b1f5babe6f","ios":"levelo://app?vid=e5070973-444d-464e-9d66-16b1f5babe6f"},"vehicle_type_id":"4","last_reported":1703527711,"current_range_meters":30000,"station_id":"ce4bh412rcd13ifvqdr0","pricing_plan_id":"free"},{"bike_id":"23f42c90-f703-4dcb-9a0b-9ef346f75e5f","system_id":"levelo_inurba_marseille","lat":43.292724,"lon":5.401131,"is_reserved":false,"is_disabled":false,"rental_uris":{"android":"levelo://app?vid=23f42c90-f703-4dcb-9a0b-9ef346f75e5f","ios":"levelo://app?vid=23f42c90-f703-4dcb-9a0b-9ef346f75e5f"},"vehicle_type_id":"4","last_reported":1703527711,"current_range_meters":22000,"station_id":"ce4bh312rcd13ifvqdk0","pricing_plan_id":"free"},{"bike_id":"11fd9f96-630f-4fbd-ab0c-0f4b36a8af04","system_id":"levelo_inurba_marseille","lat":43.28039,"lon":5.369297,"is_reserved":false,"is_disabled":false,"rental_uris":{"android":"levelo://app?vid=11fd9f96-630f-4fbd-ab0c-0f4b36a8af04","ios":"levelo://app?vid=11fd9f96-630f-4fbd-ab0c-0f4b36a8af04"},"vehicle_type_id":"4","last_reported":1703527711,"current_range_meters":10800,"station_id":"ce4bha12rcd13ifvqef0","pricing_plan_id":"free"},{"bike_id":"330ecc5c-b51a-4c66-b975-e6a7866433a6","system_id":"levelo_inurba_marseille","lat":43.28039,"lon":5.369297,"is_reserved":false,"is_disabled":false,"rental_uris":{"android":"levelo://app?vid=330ecc5c-b51a-4c66-b975-e6a7866433a6","ios":"levelo://app?vid=330ecc5c-b51a-4c66-b975-e6a7866433a6"},"vehicle_type_id":"4","last_reported":1703527711,"current_range_meters":30800,"station_id":"ce4bha12rcd13ifvqef0","pricing_plan_id":"free"},{"bike_id":"e255a3ce-c410-4c31-a818-1d9fb6e27cd5","system_id":"levelo_inurba_marseille","lat":43.28039,"lon":5.369297,"is_reserved":false,"is_disabled":false,"rental_uris":{"android":"levelo://app?vid=e255a3ce-c410-4c31-a818-1d9fb6e27cd5","ios":"levelo://app?vid=e255a3ce-c410-4c31-a818-1d9fb6e27cd5"},"vehicle_type_id":"4","last_reported":1703527711,"current_range_meters":28000,"station_id":"ce4bha12rcd13ifvqef0","pricing_plan_id":"free"},{"bike_id":"d1bfdd36-9f35-4aa3-8f60-0e938f2e8f74","system_id":"levelo_inurba_marseille","lat":43.29041,"lon":5.399634,"is_reserved":false,"is_disabled":false,"rental_uris":{"android":"levelo://app?vid=d1bfdd36-9f35-4aa3-8f60-0e938f2e8f74","ios":"levelo://app?vid=d1bfdd36-9f35-4aa3-8f60-0e938f2e8f74"},"vehicle_type_id":"4","last_reported":1703527711,"current_range_meters":22800,"station_id":"ce4bh392rcd13ifvqdm0","pricing_plan_id":"free"},{"bike_id":"553e18cd-1f68-46c0-83c2-9bcb3e5d7688","system_id":"levelo_inurba_marseille","lat":43.283502,"lon":5.386471,"is_reserved":false,"is_disabled":false,"rental_uris":{"android":"levelo://app?vid=553e18cd-1f68-46c0-83c2-9bcb3e5d7688","ios":"levelo://app?vid=553e18cd-1f68-46c0-83c2-9bcb3e5d7688"},"vehicle_type_id":"4","last_reported":1703527711,"current_range_meters":18800,"station_id":"ce4bh492rcd13ifvqdvg","pricing_plan_id":"free"},{"bike_id":"bf4a4ac1-b52b-4277-91b9-d8f359ce72ae","system_id":"levelo_inurba_marseille","lat":43.296263,"lon":5.40601,"is_reserved":false,"is_disabled":false,"rental_uris":{"android":"levelo://app?vid=bf4a4ac1-b52b-4277-91b9-d8f359ce72ae","ios":"levelo://app?vid=bf4a4ac1-b52b-4277-91b9-d8f359ce72ae"},"vehicle_type_id":"4","last_reported":1703527711,"current_range_meters":20400,"station_id":"ce4bh0h2rcd13ifvqd60","pricing_plan_id":"free"},{"bike_id":"c8a60e82-3aa3-4d1b-aaad-6cd1c7b2d919","system_id":"levelo_inurba_marseille","lat":43.296263,"lon":5.40601,"is_reserved":false,"is_disabled":false,"rental_uris":{"android":"levelo://app?vid=c8a60e82-3aa3-4d1b-aaad-6cd1c7b2d919","ios":"levelo://app?vid=c8a60e82-3aa3-4d1b-aaad-6cd1c7b2d919"},"vehicle_type_id":"4","last_reported":1703527711,"current_range_meters":21200,"station_id":"ce4bh0h2rcd13ifvqd60","pricing_plan_id":"free"},{"bike_id":"c69da85f-d187-4101-86b1-31b5d6fb5e75","system_id":"levelo_inurba_marseille","lat":43.296263,"lon":5.40601,"is_reserved":false,"is_disabled":false,"rental_uris":{"android":"levelo://app?vid=c69da85f-d187-4101-86b1-31b5d6fb5e75","ios":"levelo://app?vid=c69da85f-d187-4101-86b1-31b5d6fb5e75"},"vehicle_type_id":"4","last_reported":1703527711,"current_range_meters":30800,"station_id":"ce4bh0h2rcd13ifvqd60","pricing_plan_id":"free"},{"bike_id":"8d2021fa-288b-42bf-939b-e82ba633c6ba","system_id":"levelo_inurba_marseille","lat":43.284462,"lon":5.392121,"is_reserved":false,"is_disabled":false,"rental_uris":{"android":"levelo://app?vid=8d2021fa-288b-42bf-939b-e82ba633c6ba","ios":"levelo://app?vid=8d2021fa-288b-42bf-939b-e82ba633c6ba"},"vehicle_type_id":"4","last_reported":1703527711,"current_range_meters":29600,"station_id":"ce4bhoh2rcd13ifvqh5g","pricing_plan_id":"free"},{"bike_id":"386b6e80-ff1e-45a3-8fe6-96e070e7707f","system_id":"levelo_inurba_marseille","lat":43.28573,"lon":5.394992,"is_reserved":false,"is_disabled":false,"rental_uris":{"android":"levelo://app?vid=386b6e80-ff1e-45a3-8fe6-96e070e7707f","ios":"levelo://app?vid=386b6e80-ff1e-45a3-8fe6-96e070e7707f"},"vehicle_type_id":"4","last_reported":1703527711,"current_range_meters":27600,"station_id":"ce4bh292rcd13ifvqdg0","pricing_plan_id":"free"},{"bike_id":"a761166b-dccd-4f80-a7dd-20b28377f7ed","system_id":"levelo_inurba_marseille","lat":43.304188,"lon":5.412904,"is_reserved":false,"is_disabled":false,"rental_uris":{"android":"levelo://app?vid=a761166b-dccd-4f80-a7dd-20b28377f7ed","ios":"levelo://app?vid=a761166b-dccd-4f80-a7dd-20b28377f7ed"},"vehicle_type_id":"4","last_reported":1703527711,"current_range_meters":26800,"station_id":"ce4bhop2rcd13ifvqh8g","pricing_plan_id":"free"},{"bike_id":"6f3c2158-6bc3-4c87-b963-41df600fd8bf","system_id":"levelo_inurba_marseille","lat":43.287154,"lon":5.399979,"is_reserved":false,"is_disabled":false,"rental_uris":{"android":"levelo://app?vid=6f3c2158-6bc3-4c87-b963-41df600fd8bf","ios":"levelo://app?vid=6f3c2158-6bc3-4c87-b963-41df600fd8bf"},"vehicle_type_id":"4","last_reported":1703527711,"current_range_meters":24800,"station_id":"ce4bho92rcd13ifvqh3g","pricing_plan_id":"free"},{"bike_id":"718dbe2e-ed74-431a-a7df-fe085e29c7e7","system_id":"levelo_inurba_marseille","lat":43.287154,"lon":5.399979,"is_reserved":false,"is_disabled":false,"rental_uris":{"android":"levelo://app?vid=718dbe2e-ed74-431a-a7df-fe085e29c7e7","ios":"levelo://app?vid=718dbe2e-ed74-431a-a7df-fe085e29c7e7"},"vehicle_type_id":"4","last_reported":1703527711,"current_range_meters":18800,"station_id":"ce4bho92rcd13ifvqh3g","pricing_plan_id":"free"},{"bike_id":"94e0b362-e115-460f-a39a-ef14e9953cd7","system_id":"levelo_inurba_marseille","lat":43.32077,"lon":5.41532,"is_reserved":false,"is_disabled":false,"rental_uris":{"android":"levelo://app?vid=94e0b362-e115-460f-a39a-ef14e9953cd7","ios":"levelo://app?vid=94e0b362-e115-460f-a39a-ef14e9953cd7"},"vehicle_type_id":"4","last_reported":1703527711,"current_range_meters":26400,"station_id":"ce4bhq92rcd13ifvqhkg","pricing_plan_id":"free"},{"bike_id":"34158c04-90ab-44ff-844e-fe8c6866438b","system_id":"levelo_inurba_marseille","lat":43.299577,"lon":5.413277,"is_reserved":false,"is_disabled":false,"rental_uris":{"android":"levelo://app?vid=34158c04-90ab-44ff-844e-fe8c6866438b","ios":"levelo://app?vid=34158c04-90ab-44ff-844e-fe8c6866438b"},"vehicle_type_id":"4","last_reported":1703527711,"current_range_meters":30000,"station_id":"ce4bhp12rcd13ifvqh9g","pricing_plan_id":"free"},{"bike_id":"8dc1a192-1b6f-467a-861b-d4c6f7601906","system_id":"levelo_inurba_marseille","lat":43.299579,"lon":5.413255,"is_reserved":false,"is_disabled":false,"rental_uris":{"android":"levelo://app?vid=8dc1a192-1b6f-467a-861b-d4c6f7601906","ios":"levelo://app?vid=8dc1a192-1b6f-467a-861b-d4c6f7601906"},"vehicle_type_id":"4","last_reported":1703527711,"current_range_meters":30000,"station_id":"ce4bhp12rcd13ifvqh9g","pricing_plan_id":"free"},{"bike_id":"2950f92c-3e43-4204-b7ae-3f0ac182f86d","system_id":"levelo_inurba_marseille","lat":43.279742,"lon":5.38744,"is_reserved":false,"is_disabled":false,"rental_uris":{"android":"levelo://app?vid=2950f92c-3e43-4204-b7ae-3f0ac182f86d","ios":"levelo://app?vid=2950f92c-3e43-4204-b7ae-3f0ac182f86d"},"vehicle_type_id":"4","last_reported":1703527711,"current_range_meters":29600,"station_id":"ce4bhg12rcd13ifvqf80","pricing_plan_id":"free"},{"bike_id":"07e99560-3267-420a-a42e-15bfc2074f58","system_id":"levelo_inurba_marseille","lat":43.279742,"lon":5.38744,"is_reserved":false,"is_disabled":false,"rental_uris":{"android":"levelo://app?vid=07e99560-3267-420a-a42e-15bfc2074f58","ios":"levelo://app?vid=07e99560-3267-420a-a42e-15bfc2074f58"},"vehicle_type_id":"4","last_reported":1703527711,"current_range_meters":28000,"station_id":"ce4bhg12rcd13ifvqf80","pricing_plan_id":"free"},{"bike_id":"f5d929fb-c387-465d-aef2-24817c2d013b","system_id":"levelo_inurba_marseille","lat":43.27943,"lon":5.38687,"is_reserved":false,"is_disabled":false,"rental_uris":{"android":"levelo://app?vid=f5d929fb-c387-465d-aef2-24817c2d013b","ios":"levelo://app?vid=f5d929fb-c387-465d-aef2-24817c2d013b"},"vehicle_type_id":"4","last_reported":1703527711,"current_range_meters":21600,"station_id":"ce4bhg12rcd13ifvqf80","pricing_plan_id":"free"},{"bike_id":"54ce0568-7f24-41f4-ae21-407a8bd96189","system_id":"levelo_inurba_marseille","lat":43.279742,"lon":5.38744,"is_reserved":false,"is_disabled":false,"rental_uris":{"android":"levelo://app?vid=54ce0568-7f24-41f4-ae21-407a8bd96189","ios":"levelo://app?vid=54ce0568-7f24-41f4-ae21-407a8bd96189"},"vehicle_type_id":"4","last_reported":1703527711,"current_range_meters":5200,"station_id":"ce4bhg12rcd13ifvqf80","pricing_plan_id":"free"},{"bike_id":"49e520e1-7c90-48f7-b38c-c853e4beed6a","system_id":"levelo_inurba_marseille","lat":43.325243,"lon":5.414326,"is_reserved":false,"is_disabled":false,"rental_uris":{"android":"levelo://app?vid=49e520e1-7c90-48f7-b38c-c853e4beed6a","ios":"levelo://app?vid=49e520e1-7c90-48f7-b38c-c853e4beed6a"},"vehicle_type_id":"4","last_reported":1703527711,"current_range_meters":24000,"station_id":"ce4bhq12rcd13ifvqhhg","pricing_plan_id":"free"},{"bike_id":"2316e8ee-f386-464a-852e-eabe92d886b0","system_id":"levelo_inurba_marseille","lat":43.27618,"lon":5.361009,"is_reserved":false,"is_disabled":false,"rental_uris":{"android":"levelo://app?vid=2316e8ee-f386-464a-852e-eabe92d886b0","ios":"levelo://app?vid=2316e8ee-f386-464a-852e-eabe92d886b0"},"vehicle_type_id":"4","last_reported":1703527711,"current_range_meters":25600,"station_id":"ce4bgj92rcd13ifvqbe0","pricing_plan_id":"free"},{"bike_id":"143a6b6a-65da-44af-ba7e-91189f646f24","system_id":"levelo_inurba_marseille","lat":43.280784,"lon":5.396622,"is_reserved":false,"is_disabled":false,"rental_uris":{"android":"levelo://app?vid=143a6b6a-65da-44af-ba7e-91189f646f24","ios":"levelo://app?vid=143a6b6a-65da-44af-ba7e-91189f646f24"},"vehicle_type_id":"4","last_reported":1703527711,"current_range_meters":27200,"station_id":"ce4bho12rcd13ifvqh2g","pricing_plan_id":"free"},{"bike_id":"921ed6c5-ef26-40fb-b950-d9f07fbc2ffa","system_id":"levelo_inurba_marseille","lat":43.279775,"lon":5.39493,"is_reserved":false,"is_disabled":false,"rental_uris":{"android":"levelo://app?vid=921ed6c5-ef26-40fb-b950-d9f07fbc2ffa","ios":"levelo://app?vid=921ed6c5-ef26-40fb-b950-d9f07fbc2ffa"},"vehicle_type_id":"4","last_reported":1703527711,"current_range_meters":18000,"station_id":"","pricing_plan_id":"free"},{"bike_id":"bcffbcd5-af93-4066-a732-ead51a32af0a","system_id":"levelo_inurba_marseille","lat":43.30358,"lon":5.41878,"is_reserved":false,"is_disabled":false,"rental_uris":{"android":"levelo://app?vid=bcffbcd5-af93-4066-a732-ead51a32af0a","ios":"levelo://app?vid=bcffbcd5-af93-4066-a732-ead51a32af0a"},"vehicle_type_id":"4","last_reported":1703527711,"current_range_meters":16400,"station_id":"ce4bhop2rcd13ifvqh7g","pricing_plan_id":"free"},{"bike_id":"986a7138-ad86-4d7e-ad8c-82cd647ebfaf","system_id":"levelo_inurba_marseille","lat":43.275625,"lon":5.384392,"is_reserved":false,"is_disabled":false,"rental_uris":{"android":"levelo://app?vid=986a7138-ad86-4d7e-ad8c-82cd647ebfaf","ios":"levelo://app?vid=986a7138-ad86-4d7e-ad8c-82cd647ebfaf"},"vehicle_type_id":"4","last_reported":1703527711,"current_range_meters":30400,"station_id":"ce4bhh92rcd13ifvqfi0","pricing_plan_id":"free"},{"bike_id":"2dc2ff66-bbde-495f-a5b0-3943049902b0","system_id":"levelo_inurba_marseille","lat":43.275625,"lon":5.384392,"is_reserved":false,"is_disabled":false,"rental_uris":{"android":"levelo://app?vid=2dc2ff66-bbde-495f-a5b0-3943049902b0","ios":"levelo://app?vid=2dc2ff66-bbde-495f-a5b0-3943049902b0"},"vehicle_type_id":"4","last_reported":1703527711,"current_range_meters":24400,"station_id":"ce4bhh92rcd13ifvqfi0","pricing_plan_id":"free"},{"bike_id":"8be13a60-cf84-41e8-a9c8-06fcbbc5bd7e","system_id":"levelo_inurba_marseille","lat":43.336134,"lon":5.410341,"is_reserved":false,"is_disabled":false,"rental_uris":{"android":"levelo://app?vid=8be13a60-cf84-41e8-a9c8-06fcbbc5bd7e","ios":"levelo://app?vid=8be13a60-cf84-41e8-a9c8-06fcbbc5bd7e"},"vehicle_type_id":"4","last_reported":1703527711,"current_range_meters":17200,"station_id":"ce4bhqh2rcd13ifvqhmg","pricing_plan_id":"free"},{"bike_id":"dddd7a57-2e99-44e9-b1cb-046df443171b","system_id":"levelo_inurba_marseille","lat":43.276769,"lon":5.388787,"is_reserved":false,"is_disabled":false,"rental_uris":{"android":"levelo://app?vid=dddd7a57-2e99-44e9-b1cb-046df443171b","ios":"levelo://app?vid=dddd7a57-2e99-44e9-b1cb-046df443171b"},"vehicle_type_id":"4","last_reported":1703527711,"current_range_meters":1200,"station_id":"ce4bhi12rcd13ifvqfo0","pricing_plan_id":"free"},{"bike_id":"eb51b661-ba13-43bd-85e6-a7023e7be15c","system_id":"levelo_inurba_marseille","lat":43.275625,"lon":5.384392,"is_reserved":false,"is_disabled":false,"rental_uris":{"android":"levelo://app?vid=eb51b661-ba13-43bd-85e6-a7023e7be15c","ios":"levelo://app?vid=eb51b661-ba13-43bd-85e6-a7023e7be15c"},"vehicle_type_id":"4","last_reported":1703527711,"current_range_meters":18400,"station_id":"ce4bhh92rcd13ifvqfi0","pricing_plan_id":"free"},{"bike_id":"99bbe78a-d4b7-40a9-9664-8def3f6e180f","system_id":"levelo_inurba_marseille","lat":43.276769,"lon":5.388787,"is_reserved":false,"is_disabled":false,"rental_uris":{"android":"levelo://app?vid=99bbe78a-d4b7-40a9-9664-8def3f6e180f","ios":"levelo://app?vid=99bbe78a-d4b7-40a9-9664-8def3f6e180f"},"vehicle_type_id":"4","last_reported":1703527711,"current_range_meters":14400,"station_id":"ce4bhi12rcd13ifvqfo0","pricing_plan_id":"free"},{"bike_id":"c75be205-52fb-4959-aef4-f012827bb749","system_id":"levelo_inurba_marseille","lat":43.276771,"lon":5.388799,"is_reserved":false,"is_disabled":false,"rental_uris":{"android":"levelo://app?vid=c75be205-52fb-4959-aef4-f012827bb749","ios":"levelo://app?vid=c75be205-52fb-4959-aef4-f012827bb749"},"vehicle_type_id":"4","last_reported":1703527711,"current_range_meters":25200,"station_id":"ce4bhi12rcd13ifvqfo0","pricing_plan_id":"free"},{"bike_id":"25b52a7b-d9d9-480b-a8db-b714a5248317","system_id":"levelo_inurba_marseille","lat":43.276771,"lon":5.388799,"is_reserved":false,"is_disabled":false,"rental_uris":{"android":"levelo://app?vid=25b52a7b-d9d9-480b-a8db-b714a5248317","ios":"levelo://app?vid=25b52a7b-d9d9-480b-a8db-b714a5248317"},"vehicle_type_id":"4","last_reported":1703527711,"current_range_meters":28400,"station_id":"ce4bhi12rcd13ifvqfo0","pricing_plan_id":"free"},