{"last_updated":1734009682,"ttl":60,"version":"2.2","data":{"bikes":[{"bike_id":"f273d2db-9d28-4c2f-99d9-9f030249d630","system_id":"levelo_inurba_marseille","lat":43.24072,"lon":5.37746,"is_reserved":false,"is_disabled":false,"rental_uris":{"android":"levelo://app?vid=f273d2db-9d28-4c2f-99d9-9f030249d630","ios":"levelo://app?vid=f273d2db-9d28-4c2f-99d9-9f030249d630"},"vehicle_type_id":"4","last_reported":1734009682,"current_range_meters":28400,"station_id":"ce4bhnp2rcd13ifvqgvg","pricing_plan_id":"cebpf4jnsgd1na2vs0mg"},{"bike_id":"1f447326-1135-42f9-8e10-d34b7c59e3cb","system_id":"levelo_inurba_marseille","lat":43.29253,"lon":5.40158,"is_reserved":false,"is_disabled":false,"rental_uris":{"android":"levelo://app?vid=1f447326-1135-42f9-8e10-d34b7c59e3cb","ios":"levelo://app?vid=1f447326-1135-42f9-8e10-d34b7c59e3cb"},"vehicle_type_id":"4","last_reported":1734009682,"current_range_meters":30800,"station_id":"ce4bh312rcd13ifvqdk0","pricing_plan_id":"cebpf4jnsgd1na2vs0mg"},{"bike_id":"60e9ed68-c2d5-4fcc-b1fe-df98992a2ea5","system_id":"levelo_inurba_marseille","lat":43.30764,"lon":5.36837,"is_reserved":false,"is_disabled":true,"rental_uris":{"android":"levelo://app?vid=60e9ed68-c2d5-4fcc-b1fe-df98992a2ea5","ios":"levelo://app?vid=60e9ed68-c2d5-4fcc-b1fe-df98992a2ea5"},"vehicle_type_id":"4","last_reported":1734009682,"current_range_meters":0,"station_id":"","pricing_plan_id":"cebpf4jnsgd1na2vs0mg"},{"bike_id":"70264841-f3db-4034-846f-0a3a10327c9a","system_id":"levelo_inurba_marseille","lat":43.25596,"lon":5.38247,"is_reserved":false,"is_disabled":false,"rental_uris":{"android":"levelo://app?vid=70264841-f3db-4034-846f-0a3a10327c9a","ios":"levelo://app?vid=70264841-f3db-4034-846f-0a3a10327c9a"},"vehicle_type_id":"4","last_reported":1734009682,"current_range_meters":17200,"station_id":"ce4bhih2rcd13ifvqfs0","pricing_plan_id":"cebpf4jnsgd1na2vs0mg"},{"bike_id":"b266efff-3a14-4d1a-a25a-c68ad062a1f4","system_id":"levelo_inurba_marseille","lat":43.24147,"lon":5.36437,"is_reserved":false,"is_disabled":false,"rental_uris":{"android":"levelo://app?vid=b266efff-3a14-4d1a-a25a-c68ad062a1f4","ios":"levelo://app?vid=b266efff-3a14-4d1a-a25a-c68ad062a1f4"},"vehicle_type_id":"4","last_reported":1734009682,"current_range_meters":38800,"station_id":"cpo36qri1sfpv3e86is0","pricing_plan_id":"cebpf4jnsgd1na2vs0mg"},{"bike_id":"f2676ae1-aa79-4ab9-8ade-6a25f90c5540","system_id":"levelo_inurba_marseille","lat":43.25939,"lon":5.40895,"is_reserved":false,"is_disabled":false,"rental_uris":{"android":"levelo://app?vid=f2676ae1-aa79-4ab9-8ade-6a25f90c5540","ios":"levelo://app?vid=f2676ae1-aa79-4ab9-8ade-6a25f90c5540"},"vehicle_type_id":"4","last_reported":1734009682,"current_range_meters":29600,"station_id":"ce4bhm92rcd13ifvqglg","pricing_plan_id":"cebpf4jnsgd1na2vs0mg"},{"bike_id":"5713c77b-743b-422a-ab8b-d60a69f66c07","system_id":"levelo_inurba_marseille","lat":43.34138,"lon":5.40901,"is_reserved":false,"is_disabled":false,"rental_uris":{"android":"levelo://app?vid=5713c77b-743b-422a-ab8b-d60a69f66c07","ios":"levelo://app?vid=5713c77b-743b-422a-ab8b-d60a69f66c07"},"vehicle_type_id":"4","last_reported":1734009682,"current_range_meters":22400,"station_id":"ce4bhqh2rcd13ifvqhlg","pricing_plan_id":"cebpf4jnsgd1na2vs0mg"},{"bike_id":"56127cd7-ce49-431b-9dfd-4883c6d4ec11","system_id":"levelo_inurba_marseille","lat":43.24074,"lon":5.37742,"is_reserved":false,"is_disabled":false,"rental_uris":{"android":"levelo://app?vid=56127cd7-ce49-431b-9dfd-4883c6d4ec11","ios":"levelo://app?vid=56127cd7-ce49-431b-9dfd-4883c6d4ec11"},"vehicle_type_id":"4","last_reported":1734009682,"current_range_meters":8000,"station_id":"ce4bhnp2rcd13ifvqgvg","pricing_plan_id":"cebpf4jnsgd1na2vs0mg"},{"bike_id":"17f34c20-e69f-48fc-b14f-195e9256d1dd","system_id":"levelo_inurba_marseille","lat":43.32533,"lon":5.41433,"is_reserved":false,"is_disabled":false,"rental_uris":{"android":"levelo://app?vid=17f34c20-e69f-48fc-b14f-195e9256d1dd","ios":"levelo://app?vid=17f34c20-e69f-48fc-b14f-195e9256d1dd"},"vehicle_type_id":"4","last_reported":1734009682,"current_range_meters":16000,"station_id":"ce4bhq12rcd13ifvqhhg","pricing_plan_id":"cebpf4jnsgd1na2vs0mg"},{"bike_id":"fb886c68-9c54-4ccd-b964-6489edb35b3a","system_id":"levelo_inurba_marseille","lat":43.26919,"lon":5.38938,"is_reserved":false,"is_disabled":true,"rental_uris":{"android":"levelo://app?vid=fb886c68-9c54-4ccd-b964-6489edb35b3a","ios":"levelo://app?vid=fb886c68-9c54-4ccd-b964-6489edb35b3a"},"vehicle_type_id":"4","last_reported":1734009682,"current_range_meters":38800,"station_id":"ce4bhhh2rcd13ifvqfl0","pricing_plan_id":"cebpf4jnsgd1na2vs0mg"},{"bike_id":"980f96eb-32c9-4906-98f6-c44dbf4c84a1","system_id":"levelo_inurba_marseille","lat":43.27455,"lon":5.40073,"is_reserved":false,"is_disabled":true,"rental_uris":{"android":"levelo://app?vid=980f96eb-32c9-4906-98f6-c44dbf4c84a1","ios":"levelo://app?vid=980f96eb-32c9-4906-98f6-c44dbf4c84a1"},"vehicle_type_id":"4","last_reported":1734009682,"current_range_meters":0,"station_id":"","pricing_plan_id":"cebpf4jnsgd1na2vs0mg"},{"bike_id":"7a362e7c-a7d7-4a33-862d-f20cd6faf41f","system_id":"levelo_inurba_marseille","lat":43.30167,"lon":5.36661,"is_reserved":false,"is_disabled":false,"rental_uris":{"android":"levelo://app?vid=7a362e7c-a7d7-4a33-862d-f20cd6faf41f","ios":"levelo://app?vid=7a362e7c-a7d7-4a33-862d-f20cd6faf41f"},"vehicle_type_id":"4","last_reported":1734009682,"current_range_meters":38800,"station_id":"ce4bgrh2rcd13ifvqc8g","pricing_plan_id":"cebpf4jnsgd1na2vs0mg"},{"bike_id":"085ba84f-e336-4367-86fd-6cf9edabe6f1","system_id":"levelo_inurba_marseille","lat":43.31334,"lon":5.36711,"is_reserved":false,"is_disabled":false,"rental_uris":{"android":"levelo://app?vid=085ba84f-e336-4367-86fd-6cf9edabe6f1","ios":"levelo://app?vid=085ba84f-e336-4367-86fd-6cf9edabe6f1"},"vehicle_type_id":"4","last_reported":1734009682,"current_range_meters":36400,"station_id":"ce4bgr92rcd13ifvqc6g","pricing_plan_id":"cebpf4jnsgd1na2vs0mg"},{"bike_id":"ef19f8b5-b60b-46bc-bfd1-c11da63b03b1","system_id":"levelo_inurba_marseille","lat":43.3132,"lon":5.36738,"is_reserved":false,"is_disabled":false,"rental_uris":{"android":"levelo://app?vid=ef19f8b5-b60b-46bc-bfd1-c11da63b03b1","ios":"levelo://app?vid=ef19f8b5-b60b-46bc-bfd1-c11da63b03b1"},"vehicle_type_id":"4","last_reported":1734009682,"current_range_meters":33600,"station_id":"ce4bgr92rcd13ifvqc6g","pricing_plan_id":"cebpf4jnsgd1na2vs0mg"},{"bike_id":"a66f1635-6cd4-4ab5-95cb-acc1d5dfbaef","system_id":"levelo_inurba_marseille","lat":43.26054,"lon":5.39397,"is_reserved":false,"is_disabled":false,"rental_uris":{"android":"levelo://app?vid=a66f1635-6cd4-4ab5-95cb-acc1d5dfbaef","ios":"levelo://app?vid=a66f1635-6cd4-4ab5-95cb-acc1d5dfbaef"},"vehicle_type_id":"4","last_reported":1734009682,"current_range_meters":38800,"station_id":"ce4bhh92rcd13ifvqfj0","pricing_plan_id":"cebpf4jnsgd1na2vs0mg"},{"bike_id":"3894f342-34f8-44c7-9bea-45962870fb6a","system_id":"levelo_inurba_marseille","lat":43.28615,"lon":5.3511,"is_reserved":false,"is_disabled":true,"rental_uris":{"android":"levelo://app?vid=3894f342-34f8-44c7-9bea-45962870fb6a","ios":"levelo://app?vid=3894f342-34f8-44c7-9bea-45962870fb6a"},"vehicle_type_id":"4","last_reported":1734009682,"current_range_meters":0,"station_id":"ce4bhch2rcd13ifvqeug","pricing_plan_id":"cebpf4jnsgd1na2vs0mg"},{"bike_id":"4c109a3e-8eb8-47b2-af75-9937aaf3d8f8","system_id":"levelo_inurba_marseille","lat":43.2439,"lon":5.37061,"is_reserved":false,"is_disabled":false,"rental_uris":{"android":"levelo://app?vid=4c109a3e-8eb8-47b2-af75-9937aaf3d8f8","ios":"levelo://app?vid=4c109a3e-8eb8-47b2-af75-9937aaf3d8f8"},"vehicle_type_id":"4","last_reported":1734009682,"current_range_meters":18000,"station_id":"ce4bhhh2rcd13ifvqfk0","pricing_plan_id":"cebpf4jnsgd1na2vs0mg"},{"bike_id":"de55c0b8-904b-4ae3-9188-31ee3748c6ac","system_id":"levelo_inurba_marseille","lat":43.27984,"lon":5.4166,"is_reserved":false,"is_disabled":false,"rental_uris":{"android":"levelo://app?vid=de55c0b8-904b-4ae3-9188-31ee3748c6ac","ios":"levelo://app?vid=de55c0b8-904b-4ae3-9188-31ee3748c6ac"},"vehicle_type_id":"4","last_reported":1734009682,"current_range_meters":38800,"station_id":"ce4bho12rcd13ifvqh1g","pricing_plan_id":"cebpf4jnsgd1na2vs0mg"},{"bike_id":"a118724e-099d-4517-9529-bc6e47cefa3a","system_id":"levelo_inurba_marseille","lat":43.30545,"lon":5.36537,"is_reserved":false,"is_disabled":false,"rental_uris":{"android":"levelo://app?vid=a118724e-099d-4517-9529-bc6e47cefa3a","ios":"levelo://app?vid=a118724e-099d-4517-9529-bc6e47cefa3a"},"vehicle_type_id":"4","last_reported":1734009682,"current_range_meters":30000,"station_id":"ce4bgs12rcd13ifvqcag","pricing_plan_id":"cebpf4jnsgd1na2vs0mg"},{"bike_id":"05254c4d-d69d-474b-be97-4a7e875c19a2","system_id":"levelo_inurba_marseille","lat":43.30427,"lon":5.38887,"is_reserved":false,"is_disabled":false,"rental_uris":{"android":"levelo://app?vid=05254c4d-d69d-474b-be97-4a7e875c19a2","ios":"levelo://app?vid=05254c4d-d69d-474b-be97-4a7e875c19a2"},"vehicle_type_id":"4","last_reported":1734009682,"current_range_meters":6400,"station_id":"ce4bgk12rcd13ifvqbi0","pricing_plan_id":"cebpf4jnsgd1na2vs0mg"},{"bike_id":"956866e0-6ca6-44d7-883c-ea6f43ee4bf6","system_id":"levelo_inurba_marseille","lat":43.27071,"lon":5.40272,"is_reserved":false,"is_disabled":false,"rental_uris":{"android":"levelo://app?vid=956866e0-6ca6-44d7-883c-ea6f43ee4bf6","ios":"levelo://app?vid=956866e0-6ca6-44d7-883c-ea6f43ee4bf6"},"vehicle_type_id":"4","last_reported":1734009682,"current_range_meters":16400,"station_id":"ce4bhk92rcd13ifvqgc0","pricing_plan_id":"cebpf4jnsgd1na2vs0mg"},{"bike_id":"1301c2fd-c7ff-4e18-9e0a-494e4e9bcdd5","system_id":"levelo_inurba_marseille","lat":43.30531,"lon":5.3655,"is_reserved":false,"is_disabled":false,"rental_uris":{"android":"levelo://app?vid=1301c2fd-c7ff-4e18-9e0a-494e4e9bcdd5","ios":"levelo://app?vid=1301c2fd-c7ff-4e18-9e0a-494e4e9bcdd5"},"vehicle_type_id":"4","last_reported":1734009682,"current_range_meters":38800,"station_id":"ce4bgs12rcd13ifvqcag","pricing_plan_id":"cebpf4jnsgd1na2vs0mg"},{"bike_id":"2c6dcf6c-7928-45a4-8b50-97a04c23e05d","system_id":"levelo_inurba_marseille","lat":43.28717,"lon":5.3794,"is_reserved":false,"is_disabled":false,"rental_uris":{"android":"levelo://app?vid=2c6dcf6c-7928-45a4-8b50-97a04c23e05d","ios":"levelo://app?vid=2c6dcf6c-7928-45a4-8b50-97a04c23e05d"},"vehicle_type_id":"4","last_reported":1734009682,"current_range_meters":36000,"station_id":"ce4bh9p2rcd13ifvqec0","pricing_plan_id":"cebpf4jnsgd1na2vs0mg"},{"bike_id":"261b0357-e0b1-42ce-8f50-dcefca210477","system_id":"levelo_inurba_marseille","lat":43.30182,"lon":5.36621,"is_reserved":false,"is_disabled":false,"rental_uris":{"android":"levelo://app?vid=261b0357-e0b1-42ce-8f50-dcefca210477","ios":"levelo://app?vid=261b0357-e0b1-42ce-8f50-dcefca210477"},"vehicle_type_id":"4","last_reported":1734009682,"current_range_meters":39200,"station_id":"ce4bgrh2rcd13ifvqc8g","pricing_plan_id":"cebpf4jnsgd1na2vs0mg"},{"bike_id":"8a267d32-3974-4408-bbfb-fa3d841d58ec","system_id":"levelo_inurba_marseille","lat":43.30594,"lon":5.39354,"is_reserved":false,"is_disabled":false,"rental_uris":{"android":"levelo://app?vid=8a267d32-3974-4408-bbfb-fa3d841d58ec","ios":"levelo://app?vid=8a267d32-3974-4408-bbfb-fa3d841d58ec"},"vehicle_type_id":"4","last_reported":1734009682,"current_range_meters":12000,"station_id":"ce4bh0p2rcd13ifvqd80","pricing_plan_id":"cebpf4jnsgd1na2vs0mg"},{"bike_id":"9eb40a6f-19ce-4240-83b4-f1d8c0b9fe0f","system_id":"levelo_inurba_marseille","lat":43.27502,"lon":5.42451,"is_reserved":false,"is_disabled":false,"rental_uris":{"android":"levelo://app?vid=9eb40a6f-19ce-4240-83b4-f1d8c0b9fe0f","ios":"levelo://app?vid=9eb40a6f-19ce-4240-83b4-f1d8c0b9fe0f"},"vehicle_type_id":"4","last_reported":1734009682,"current_range_meters":26800,"station_id":"ce4bhn92rcd13ifvqgrg","pricing_plan_id":"cebpf4jnsgd1na2vs0mg"},{"bike_id":"36272bbc-2413-4d65-9f8d-f8eaf63041c0","system_id":"levelo_inurba_marseille","lat":43.27074,"lon":5.40254,"is_reserved":false,"is_disabled":false,"rental_uris":{"android":"levelo://app?vid=36272bbc-2413-4d65-9f8d-f8eaf63041c0","ios":"levelo://app?vid=36272bbc-2413-4d65-9f8d-f8eaf63041c0"},"vehicle_type_id":"4","last_reported":1734009682,"current_range_meters":24400,"station_id":"ce4bhk92rcd13ifvqgc0","pricing_plan_id":"cebpf4jnsgd1na2vs0mg"},{"bike_id":"889820bf-4afd-4c2d-aa86-7a33e41a8aa7","system_id":"levelo_inurba_marseille","lat":43.27417,"lon":5.39418,"is_reserved":false,"is_disabled":false,"rental_uris":{"android":"levelo://app?vid=889820bf-4afd-4c2d-aa86-7a33e41a8aa7","ios":"levelo://app?vid=889820bf-4afd-4c2d-aa86-7a33e41a8aa7"},"vehicle_type_id":"4","last_reported":1734009682,"current_range_meters":36800,"station_id":"ce4bhdp2rcd13ifvqf20","pricing_plan_id":"cebpf4jnsgd1na2vs0mg"},{"bike_id":"80f66b82-54aa-4843-b64e-91d3afce4948","system_id":"levelo_inurba_marseille","lat":43.31206,"lon":5.36865,"is_reserved":false,"is_disabled":true,"rental_uris":{"android":"levelo://app?vid=80f66b82-54aa-4843-b64e-91d3afce4948","ios":"levelo://app?vid=80f66b82-54aa-4843-b64e-91d3afce4948"},"vehicle_type_id":"4","last_reported":1734009682,"current_range_meters":32800,"station_id":"ce4bgl92rcd13ifvqbq0","pricing_plan_id":"cebpf4jnsgd1na2vs0mg"},{"bike_id":"01947e0e-69af-4482-be9d-b176c3310e24","system_id":"levelo_inurba_marseille","lat":43.28374,"lon":5.38625,"is_reserved":false,"is_disabled":false,"rental_uris":{"android":"levelo://app?vid=01947e0e-69af-4482-be9d-b176c3310e24","ios":"levelo://app?vid=01947e0e-69af-4482-be9d-b176c3310e24"},"vehicle_type_id":"4","last_reported":1734009682,"current_range_meters":24800,"station_id":"ce4bh492rcd13ifvqdvg","pricing_plan_id":"cebpf4jnsgd1na2vs0mg"},{"bike_id":"6f1f67dd-3819-41c5-9d6f-1d18f56b4408","system_id":"levelo_inurba_marseille","lat":43.30926,"lon":5.40151,"is_reserved":false,"is_disabled":false,"rental_uris":{"android":"levelo://app?vid=6f1f67dd-3819-41c5-9d6f-1d18f56b4408","ios":"levelo://app?vid=6f1f67dd-3819-41c5-9d6f-1d18f56b4408"},"vehicle_type_id":"4","last_reported":1734009682,"current_range_meters":29600,"station_id":"ce4bgvp2rcd13ifvqct0","pricing_plan_id":"cebpf4jnsgd1na2vs0mg"},{"bike_id":"7fb1b46b-ba89-45b0-8a59-e527dc62029c","system_id":"levelo_inurba_marseille","lat":43.28395,"lon":5.37533,"is_reserved":false,"is_disabled":false,"rental_uris":{"android":"levelo://app?vid=7fb1b46b-ba89-45b0-8a59-e527dc62029c","ios":"levelo://app?vid=7fb1b46b-ba89-45b0-8a59-e527dc62029c"},"vehicle_type_id":"4","last_reported":1734009682,"current_range_meters":28800,"station_id":"ce4bh412rcd13ifvqds0","pricing_plan_id":"cebpf4jnsgd1na2vs0mg"},{"bike_id":"3a56946e-b571-4f0a-89c3-228266a44430","system_id":"levelo_inurba_marseille","lat":43.26597,"lon":5.38971,"is_reserved":false,"is_disabled":true,"rental_uris":{"android":"levelo://app?vid=3a56946e-b571-4f0a-89c3-228266a44430","ios":"levelo://app?vid=3a56946e-b571-4f0a-89c3-228266a44430"},"vehicle_type_id":"4","last_reported":1734009682,"current_range_meters":3200,"station_id":"","pricing_plan_id":"cebpf4jnsgd1na2vs0mg"},{"bike_id":"a7f580ed-51b4-4313-a41e-537f7413d4cc","system_id":"levelo_inurba_marseille","lat":43.27064,"lon":5.40257,"is_reserved":false,"is_disabled":false,"rental_uris":{"android":"levelo://app?vid=a7f580ed-51b4-4313-a41e-537f7413d4cc","ios":"levelo://app?vid=a7f580ed-51b4-4313-a41e-537f7413d4cc"},"vehicle_type_id":"4","last_reported":1734009682,"current_range_meters":36000,"station_id":"ce4bhk92rcd13ifvqgc0","pricing_plan_id":"cebpf4jnsgd1na2vs0mg"},{"bike_id":"09788ff8-330e-44c6-be21-d1f73956b9a9","system_id":"levelo_inurba_marseille","lat":43.33606,"lon":5.41033,"is_reserved":false,"is_disabled":false,"rental_uris":{"android":"levelo://app?vid=09788ff8-330e-44c6-be21-d1f73956b9a9","ios":"levelo://app?vid=09788ff8-330e-44c6-be21-d1f73956b9a9"},"vehicle_type_id":"4","last_reported":1734009682,"current_range_meters":6400,"station_id":"ce4bhqh2rcd13ifvqhmg","pricing_plan_id":"cebpf4jnsgd1na2vs0mg"},{"bike_id":"6b29723c-028d-4b12-9bd0-87f837b2148e","system_id":"levelo_inurba_marseille","lat":43.26031,"lon":5.3755,"is_reserved":false,"is_disabled":false,"rental_uris":{"android":"levelo://app?vid=6b29723c-028d-4b12-9bd0-87f837b2148e","ios":"levelo://app?vid=6b29723c-028d-4b12-9bd0-87f837b2148e"},"vehicle_type_id":"4","last_reported":1734009682,"current_range_meters":38800,"station_id":"ce4bhgh2rcd13ifvqfa0","pricing_plan_id":"cebpf4jnsgd1na2vs0mg"},{"bike_id":"0cfe1b49-841e-49d5-a48e-bf56e9474e91","system_id":"levelo_inurba_marseille","lat":43.28609,"lon":5.3708,"is_reserved":false,"is_disabled":false,"rental_uris":{"android":"levelo://app?vid=0cfe1b49-841e-49d5-a48e-bf56e9474e91","ios":"levelo://app?vid=0cfe1b49-841e-49d5-a48e-bf56e9474e91"},"vehicle_type_id":"4","last_reported":1734009682,"current_range_meters":36800,"station_id":"ce4bht12rcd13ifvqi60","pricing_plan_id":"cebpf4jnsgd1na2vs0mg"},{"bike_id":"a630a704-fa3e-4efb-b2a8-055a38018ef2","system_id":"levelo_inurba_marseille","lat":43.31704,"lon":5.37781,"is_reserved":false,"is_disabled":false,"rental_uris":{"android":"levelo://app?vid=a630a704-fa3e-4efb-b2a8-055a38018ef2","ios":"levelo://app?vid=a630a704-fa3e-4efb-b2a8-055a38018ef2"},"vehicle_type_id":"4","last_reported":1734009682,"current_range_meters":39200,"station_id":"ce4bgth2rcd13ifvqch0","pricing_plan_id":"cebpf4jnsgd1na2vs0mg"},{"bike_id":"d8d871ae-b775-4833-9ccf-28177905d672","system_id":"levelo_inurba_marseille","lat":43.29761,"lon":5.37105,"is_reserved":false,"is_disabled":false,"rental_uris":{"android":"levelo://app?vid=d8d871ae-b775-4833-9ccf-28177905d672","ios":"levelo://app?vid=d8d871ae-b775-4833-9ccf-28177905d672"},"vehicle_type_id":"4","last_reported":1734009682,"current_range_meters":39200,"station_id":"ce4bgop2rcd13ifvqc1g","pricing_plan_id":"cebpf4jnsgd1na2vs0mg"},{"bike_id":"b48393f7-94a4-47a4-a1f3-b893ed0d8cf1","system_id":"levelo_inurba_marseille","lat":43.25939,"lon":5.40908,"is_reserved":false,"is_disabled":false,"rental_uris":{"android":"levelo://app?vid=b48393f7-94a4-47a4-a1f3-b893ed0d8cf1","ios":"levelo://app?vid=b48393f7-94a4-47a4-a1f3-b893ed0d8cf1"},"vehicle_type_id":"4","last_reported":1734009682,"current_range_meters":16800,"station_id":"ce4bhm92rcd13ifvqglg","pricing_plan_id":"cebpf4jnsgd1na2vs0mg"},{"bike_id":"90bcd5e3-5c2c-4aba-b6e7-6ea4927f76ff","system_id":"levelo_inurba_marseille","lat":43.29673,"lon":5.37303,"is_reserved":false,"is_disabled":false,"rental_uris":{"android":"levelo://app?vid=90bcd5e3-5c2c-4aba-b6e7-6ea4927f76ff","ios":"levelo://app?vid=90bcd5e3-5c2c-4aba-b6e7-6ea4927f76ff"},"vehicle_type_id":"4","last_reported":1734009682,"current_range_meters":38800,"station_id":"ce4bgk12rcd13ifvqbj0","pricing_plan_id":"cebpf4jnsgd1na2vs0mg"},{"bike_id":"2631f4d1-9f04-4d9a-b451-c4494314862c","system_id":"levelo_inurba_marseille","lat":43.26565,"lon":5.39014,"is_reserved":false,"is_disabled":false,"rental_uris":{"android":"levelo://app?vid=2631f4d1-9f04-4d9a-b451-c4494314862c","ios":"levelo://app?vid=2631f4d1-9f04-4d9a-b451-c4494314862c"},"vehicle_type_id":"4","last_reported":1734009682,"current_range_meters":37600,"station_id":"ce4bhe12rcd13ifvqf30","pricing_plan_id":"cebpf4jnsgd1na2vs0mg"},{"bike_id":"4552534d-00b9-4142-9baa-7b817acd308f","system_id":"levelo_inurba_marseille","lat":43.32479,"lon":5.3658,"is_reserved":false,"is_disabled":false,"rental_uris":{"android":"levelo://app?vid=4552534d-00b9-4142-9baa-7b817acd308f","ios":"levelo://app?vid=4552534d-00b9-4142-9baa-7b817acd308f"},"vehicle_type_id":"4","last_reported":1734009682,"current_range_meters":28400,"station_id":"ce4bhs12rcd13ifvqhvg","pricing_plan_id":"cebpf4jnsgd1na2vs0mg"},{"bike_id":"11933e04-d81a-4d25-aa83-cc295172b3a1","system_id":"levelo_inurba_marseille","lat":43.25409,"lon":5.38279,"is_reserved":false,"is_disabled":true,"rental_uris":{"android":"levelo://app?vid=11933e04-d81a-4d25-aa83-cc295172b3a1","ios":"levelo://app?vid=11933e04-d81a-4d25-aa83-cc295172b3a1"},"vehicle_type_id":"4","last_reported":1734009682,"current_range_meters":30000,"station_id":"","pricing_plan_id":"cebpf4jnsgd1na2vs0mg"},{"bike_id":"97c5cdf1-5409-48ef-b0e2-df7f208e5c46","system_id":"levelo_inurba_marseille","lat":43.27057,"lon":5.40267,"is_reserved":false,"is_disabled":false,"rental_uris":{"android":"levelo://app?vid=97c5cdf1-5409-48ef-b0e2-df7f208e5c46","ios":"levelo://app?vid=97c5cdf1-5409-48ef-b0e2-df7f208e5c46"},"vehicle_type_id":"4","last_reported":1734009682,"current_range_meters":28000,"station_id":"ce4bhk92rcd13ifvqgc0","pricing_plan_id":"cebpf4jnsgd1na2vs0mg"},{"bike_id":"d4268e8a-3fbd-478c-94b1-1dfcde6e1196","system_id":"levelo_inurba_marseille","lat":43.30948,"lon":5.39033,"is_reserved":false,"is_disabled":false,"rental_uris":{"android":"levelo://app?vid=d4268e8a-3fbd-478c-94b1-1dfcde6e1196","ios":"levelo://app?vid=d4268e8a-3fbd-478c-94b1-1dfcde6e1196"},"vehicle_type_id":"4","last_reported":1734009682,"current_range_meters":28400,"station_id":"ce4bgup2rcd13ifvqco0","pricing_plan_id":"cebpf4jnsgd1na2vs0mg"},{"bike_id":"c4412eb7-fc32-4912-a812-6e15b96bb2e2","system_id":"levelo_inurba_marseille","lat":43.27899,"lon":5.38021,"is_reserved":false,"is_disabled":false,"rental_uris":{"android":"levelo://app?vid=c4412eb7-fc32-4912-a812-6e15b96bb2e2","ios":"levelo://app?vid=c4412eb7-fc32-4912-a812-6e15b96bb2e2"},"vehicle_type_id":"4","last_reported":1734009682,"current_range_meters":38400,"station_id":"ce4bhf92rcd13ifvqf50","pricing_plan_id":"cebpf4jnsgd1na2vs0mg"},{"bike_id":"21559104-aa95-4db5-8345-263c9f7c3638","system_id":"levelo_inurba_marseille","lat":43.27207,"lon":5.39178,"is_reserved":false,"is_disabled":false,"rental_uris":{"android":"levelo://app?vid=21559104-aa95-4db5-8345-263c9f7c3638","ios":"levelo://app?vid=21559104-aa95-4db5-8345-263c9f7c3638"},"vehicle_type_id":"4","last_reported":1734009682,"current_range_meters":18800,"station_id":"ce4bhhp2rcd13ifvqfm0","pricing_plan_id":"cebpf4jnsgd1na2vs0mg"},{"bike_id":"30b7f7b0-cffb-44e8-9e23-86428fe1183d","system_id":"levelo_inurba_marseille","lat":43.23048,"lon":5.35505,"is_reserved":false,"is_disabled":false,"rental_uris":{"android":"levelo://app?vid=30b7f7b0-cffb-44e8-9e23-86428fe1183d","ios":"levelo://app?vid=30b7f7b0-cffb-44e8-9e23-86428fe1183d"},"vehicle_type_id":"4","last_reported":1734009682,"current_range_meters":8400,"station_id":"cpo3342slgdg3j2ifvpg","pricing_plan_id":"cebpf4jnsgd1na2vs0mg"},{"bike_id":"6af13618-4365-4d73-921a-aee3b3e1b285","system_id":"levelo_inurba_marseille","lat":43.26691,"lon":5.382688,"is_reserved":false,"is_disabled":false,"rental_uris":{"android":"levelo://app?vid=6af13618-4365-4d73-921a-aee3b3e1b285","ios":"levelo://app?vid=6af13618-4365-4d73-921a-aee3b3e1b285"},"vehicle_type_id":"4","last_reported":1734009682,"current_range_meters":32800,"station_id":"ce4bhg92rcd13ifvqf90","pricing_plan_id":"cebpf4jnsgd1na2vs0mg"},{"bike_id":"f8b49a8b-76af-4c34-a445-4719a4b98693","system_id":"levelo_inurba_marseille","lat":43.3227,"lon":5.38291,"is_reserved":false,"is_disabled":false,"rental_uris":{"android":"levelo://app?vid=f8b49a8b-76af-4c34-a445-4719a4b98693","ios":"levelo://app?vid=f8b49a8b-76af-4c34-a445-4719a4b98693"},"vehicle_type_id":"4","last_reported":1734009682,"current_range_meters":38000,"station_id":"ce4bhr12rcd13ifvqhqg","pricing_plan_id":"cebpf4jnsgd1na2vs0mg"},{"bike_id":"302f543c-4369-40d9-baa7-901915e518d9","system_id":"levelo_inurba_marseille","lat":43.25874,"lon":5.39899,"is_reserved":false,"is_disabled":false,"rental_uris":{"android":"levelo://app?vid=302f543c-4369-40d9-baa7-901915e518d9","ios":"levelo://app?vid=302f543c-4369-40d9-baa7-901915e518d9"},"vehicle_type_id":"4","last_reported":1734009682,"current_range_meters":38800,"station_id":"ce4bhl92rcd13ifvqghg","pricing_plan_id":"cebpf4jnsgd1na2vs0mg"},{"bike_id":"b1ce2296-6581-4a2e-89a7-62f8ec7ace0b","system_id":"levelo_inurba_marseille","lat":43.29921,"lon":5.37455,"is_reserved":false,"is_disabled":false,"rental_uris":{"android":"levelo://app?vid=b1ce2296-6581-4a2e-89a7-62f8ec7ace0b","ios":"levelo://app?vid=b1ce2296-6581-4a2e-89a7-62f8ec7ace0b"},"vehicle_type_id":"4","last_reported":1734009682,"current_range_meters":38800,"station_id":"ce4bgjh2rcd13ifvqbg0","pricing_plan_id":"cebpf4jnsgd1na2vs0mg"},{"bike_id":"dd28bc87-aedf-45fd-b982-6aee62487677","system_id":"levelo_inurba_marseille","lat":43.26554,"lon":5.37286,"is_reserved":false,"is_disabled":false,"rental_uris":{"android":"levelo://app?vid=dd28bc87-aedf-45fd-b982-6aee62487677","ios":"levelo://app?vid=dd28bc87-aedf-45fd-b982-6aee62487677"},"vehicle_type_id":"4","last_reported":1734009682,"current_range_meters":12800,"station_id":"ce4bhg12rcd13ifvqf70","pricing_plan_id":"cebpf4jnsgd1na2vs0mg"},{"bike_id":"a3fda043-f05d-4908-ae4e-c00a999806bd","system_id":"levelo_inurba_marseille","lat":43.2979,"lon":5.38109,"is_reserved":false,"is_disabled":false,"rental_uris":{"android":"levelo://app?vid=a3fda043-f05d-4908-ae4e-c00a999806bd","ios":"levelo://app?vid=a3fda043-f05d-4908-ae4e-c00a999806bd"},"vehicle_type_id":"4","last_reported":1734009682,"current_range_meters":16000,"station_id":"ce4bgip2rcd13ifvqbb0","pricing_plan_id":"cebpf4jnsgd1na2vs0mg"},{"bike_id":"38be23f3-2117-4b68-8daa-edbad697b6c1","system_id":"levelo_inurba_marseille","lat":43.24074,"lon":5.37755,"is_reserved":false,"is_disabled":false,"rental_uris":{"android":"levelo://app?vid=38be23f3-2117-4b68-8daa-edbad697b6c1","ios":"levelo://app?vid=38be23f3-2117-4b68-8daa-edbad697b6c1"},"vehicle_type_id":"4","last_reported":1734009682,"current_range_meters":38800,"station_id":"ce4bhnp2rcd13ifvqgvg","pricing_plan_id":"cebpf4jnsgd1na2vs0mg"},{"bike_id":"3cc49aec-0146-4bd6-8ced-13dc2b354f47","system_id":"levelo_inurba_marseille","lat":43.23182,"lon":5.39983,"is_reserved":false,"is_disabled":true,"rental_uris":{"android":"levelo://app?vid=3cc49aec-0146-4bd6-8ced-13dc2b354f47","ios":"levelo://app?vid=3cc49aec-0146-4bd6-8ced-13dc2b354f47"},"vehicle_type_id":"4","last_reported":1734009682,"current_range_meters":2000,"station_id":"ce4bhn12rcd13ifvqgqg","pricing_plan_id":"cebpf4jnsgd1na2vs0mg"},{"bike_id":"469af40f-4139-4893-813c-d29ed8bcbe57","system_id":"levelo_inurba_marseille","lat":43.28705,"lon":5.39985,"is_reserved":false,"is_disabled":false,"rental_uris":{"android":"levelo://app?vid=469af40f-4139-4893-813c-d29ed8bcbe57","ios":"levelo://app?vid=469af40f-4139-4893-813c-d29ed8bcbe57"},"vehicle_type_id":"4","last_reported":1734009682,"current_range_meters":38800,"station_id":"ce4bho92rcd13ifvqh3g","pricing_plan_id":"cebpf4jnsgd1na2vs0mg"},{"bike_id":"b327d689-fa6e-4e20-9318-a04c545278a0","system_id":"levelo_inurba_marseille","lat":43.30313,"lon":5.40454,"is_reserved":false,"is_disabled":false,"rental_uris":{"android":"levelo://app?vid=b327d689-fa6e-4e20-9318-a04c545278a0","ios":"levelo://app?vid=b327d689-fa6e-4e20-9318-a04c545278a0"},"vehicle_type_id":"4","last_reported":1734009682,"current_range_meters":38800,"station_id":"ce4bh012rcd13ifvqd10","pricing_plan_id":"cebpf4jnsgd1na2vs0mg"},{"bike_id":"dd9a6575-2f8b-45fc-bebf-c2e321fbf935","system_id":"levelo_inurba_marseille","lat":43.28704,"lon":5.37932,"is_reserved":false,"is_disabled":false,"rental_uris":{"android":"levelo://app?vid=dd9a6575-2f8b-45fc-bebf-c2e321fbf935","ios":"levelo://app?vid=dd9a6575-2f8b-45fc-bebf-c2e321fbf935"},"vehicle_type_id":"4","last_reported":1734009682,"current_range_meters":37600,"station_id":"ce4bh9p2rcd13ifvqec0","pricing_plan_id":"cebpf4jnsgd1na2vs0mg"},{"bike_id":"3db0ac72-f7ca-43da-87d2-d713eba0d1a3","system_id":"levelo_inurba_marseille","lat":43.29617,"lon":5.40594,"is_reserved":false,"is_disabled":false,"rental_uris":{"android":"levelo://app?vid=3db0ac72-f7ca-43da-87d2-d713eba0d1a3","ios":"levelo://app?vid=3db0ac72-f7ca-43da-87d2-d713eba0d1a3"},"vehicle_type_id":"4","last_reported":1734009682,"current_range_meters":38800,"station_id":"ce4bh0h2rcd13ifvqd60","pricing_plan_id":"cebpf4jnsgd1na2vs0mg"},{"bike_id":"cbd45e06-5528-4c23-ba4a-ae1fc08312e8","system_id":"levelo_inurba_marseille","lat":43.28437,"lon":5.392,"is_reserved":false,"is_disabled":false,"rental_uris":{"android":"levelo://app?vid=cbd45e06-5528-4c23-ba4a-ae1fc08312e8","ios":"levelo://app?vid=cbd45e06-5528-4c23-ba4a-ae1fc08312e8"},"vehicle_type_id":"4","last_reported":1734009682,"current_range_meters":38000,"station_id":"ce4bhoh2rcd13ifvqh5g","pricing_plan_id":"cebpf4jnsgd1na2vs0mg"},{"bike_id":"4e17aa1e-a2e4-4084-a5f8-5dfad000b845","system_id":"levelo_inurba_marseille","lat":43.30541,"lon":5.36543,"is_reserved":false,"is_disabled":false,"rental_uris":{"android":"levelo://app?vid=4e17aa1e-a2e4-4084-a5f8-5dfad000b845","ios":"levelo://app?vid=4e17aa1e-a2e4-4084-a5f8-5dfad000b845"},"vehicle_type_id":"4","last_reported":1734009682,"current_range_meters":27600,"station_id":"ce4bgs12rcd13ifvqcag","pricing_plan_id":"cebpf4jnsgd1na2vs0mg"},{"bike_id":"6b7da9da-7ed8-4376-8377-8274a75ba481","system_id":"levelo_inurba_marseille","lat":43.26706,"lon":5.40262,"is_reserved":false,"is_disabled":true,"rental_uris":{"android":"levelo://app?vid=6b7da9da-7ed8-4376-8377-8274a75ba481","ios":"levelo://app?vid=6b7da9da-7ed8-4376-8377-8274a75ba481"},"vehicle_type_id":"4","last_reported":1734009682,"current_range_meters":36800,"station_id":"","pricing_plan_id":"cebpf4jnsgd1na2vs0mg"},{"bike_id":"db85ab62-4338-45de-a0b2-db388a982da4","system_id":"levelo_inurba_marseille","lat":43.33722,"lon":5.39192,"is_reserved":false,"is_disabled":false,"rental_uris":{"android":"levelo://app?vid=db85ab62-4338-45de-a0b2-db388a982da4","ios":"levelo://app?vid=db85ab62-4338-45de-a0b2-db388a982da4"},"vehicle_type_id":"4","last_reported":1734009682,"current_range_meters":24800,"station_id":"ce4bhr92rcd13ifvqhsg","pricing_plan_id":"cebpf4jnsgd1na2vs0mg"},{"bike_id":"af67ac53-ba21-4ff0-8334-95679e9ff2cc","system_id":"levelo_inurba_marseille","lat":43.278805,"lon":5.388003,"is_reserved":false,"is_disabled":true,"rental_uris":{"android":"levelo://app?vid=af67ac53-ba21-4ff0-8334-95679e9ff2cc","ios":"levelo://app?vid=af67ac53-ba21-4ff0-8334-95679e9ff2cc"},"vehicle_type_id":"4","last_reported":1734009682,"current_range_meters":0,"station_id":"","pricing_plan_id":"cebpf4jnsgd1na2vs0mg"},{"bike_id":"cad498c4-d891-4694-8525-834bb3978ab4","system_id":"levelo_inurba_marseille","lat":43.28569,"lon":5.39503,"is_reserved":false,"is_disabled":false,"rental_uris":{"android":"levelo://app?vid=cad498c4-d891-4694-8525-834bb3978ab4","ios":"levelo://app?vid=cad498c4-d891-4694-8525-834bb3978ab4"},"vehicle_type_id":"4","last_reported":1734009682,"current_range_meters":19200,"station_id":"ce4bh292rcd13ifvqdg0","pricing_plan_id":"cebpf4jnsgd1na2vs0mg"},{"bike_id":"d75d047d-3f18-4f42-926d-5793de16cb5d","system_id":"levelo_inurba_marseille","lat":43.24645,"lon":5.38904,"is_reserved":false,"is_disabled":false,"rental_uris":{"android":"levelo://app?vid=d75d047d-3f18-4f42-926d-5793de16cb5d","ios":"levelo://app?vid=d75d047d-3f18-4f42-926d-5793de16cb5d"},"vehicle_type_id":"4","last_reported":1734009682,"current_range_meters":28800,"station_id":"ce4bhg12rcd13ifvqf60","pricing_plan_id":"cebpf4jnsgd1na2vs0mg"},{"bike_id":"82f216ae-f68b-44da-bb8e-e5eaafd8ce84","system_id":"levelo_inurba_marseille","lat":43.24057,"lon":5.37759,"is_reserved":false,"is_disabled":false,"rental_uris":{"android":"levelo://app?vid=82f216ae-f68b-44da-bb8e-e5eaafd8ce84","ios":"levelo://app?vid=82f216ae-f68b-44da-bb8e-e5eaafd8ce84"},"vehicle_type_id":"4","last_reported":1734009682,"current_range_meters":24000,"station_id":"ce4bhnp2rcd13ifvqgvg","pricing_plan_id":"cebpf4jnsgd1na2vs0mg"},{"bike_id":"7ef45229-fbca-4cca-a535-4cadf84a8816","system_id":"levelo_inurba_marseille","lat":43.24056,"lon":5.37768,"is_reserved":false,"is_disabled":false,"rental_uris":{"android":"levelo://app?vid=7ef45229-fbca-4cca-a535-4cadf84a8816","ios":"levelo://app?vid=7ef45229-fbca-4cca-a535-4cadf84a8816"},"vehicle_type_id":"4","last_reported":1734009682,"current_range_meters":24400,"station_id":"ce4bhnp2rcd13ifvqgvg","pricing_plan_id":"cebpf4jnsgd1na2vs0mg"},{"bike_id":"746cf22e-fb32-4549-9200-3558ee866b54","system_id":"levelo_inurba_marseille","lat":43.30538,"lon":5.36536,"is_reserved":false,"is_disabled":false,"rental_uris":{"android":"levelo://app?vid=746cf22e-fb32-4549-9200-3558ee866b54","ios":"levelo://app?vid=746cf22e-fb32-4549-9200-3558ee866b54"},"vehicle_type_id":"4","last_reported":1734009682,"current_range_meters":33200,"station_id":"ce4bgs12rcd13ifvqcag","pricing_plan_id":"cebpf4jnsgd1na2vs0mg"},{"bike_id":"01656b7c-6c0d-489d-8b61-0515e0ffea05","system_id":"levelo_inurba_marseille","lat":43.28941,"lon":5.36625,"is_reserved":false,"is_disabled":false,"rental_uris":{"android":"levelo://app?vid=01656b7c-6c0d-489d-8b61-0515e0ffea05","ios":"levelo://app?vid=01656b7c-6c0d-489d-8b61-0515e0ffea05"},"vehicle_type_id":"4","last_reported":1734009682,"current_range_meters":38800,"station_id":"ce4bhap2rcd13ifvqek0","pricing_plan_id":"cebpf4jnsgd1na2vs0mg"},{"bike_id":"f8a2bd8e-0796-445d-a525-a55268d4e958","system_id":"levelo_inurba_marseille","lat":43.2706,"lon":5.40262,"is_reserved":false,"is_disabled":false,"rental_uris":{"android":"levelo://app?vid=f8a2bd8e-0796-445d-a525-a55268d4e958","ios":"levelo://app?vid=f8a2bd8e-0796-445d-a525-a55268d4e958"},"vehicle_type_id":"4","last_reported":1734009682,"current_range_meters":18800,"station_id":"ce4bhk92rcd13ifvqgc0","pricing_plan_id":"cebpf4jnsgd1na2vs0mg"},{"bike_id":"f1d8b590-9753-47f5-b75d-374cb47d1972","system_id":"levelo_inurba_marseille","lat":43.30537,"lon":5.36534,"is_reserved":false,"is_disabled":false,"rental_uris":{"android":"levelo://app?vid=f1d8b590-9753-47f5-b75d-374cb47d1972","ios":"levelo://app?vid=f1d8b590-9753-47f5-b75d-374cb47d1972"},"vehicle_type_id":"4","last_reported":1734009682,"current_range_meters":37600,"station_id":"ce4bgs12rcd13ifvqcag","pricing_plan_id":"cebpf4jnsgd1na2vs0mg"},{"bike_id":"377f8031-a7eb-4354-9f9f-df033b1bd897","system_id":"levelo_inurba_marseille","lat":43.30138,"lon":5.39842,"is_reserved":false,"is_disabled":false,"rental_uris":{"android":"levelo://app?vid=377f8031-a7eb-4354-9f9f-df033b1bd897","ios":"levelo://app?vid=377f8031-a7eb-4354-9f9f-df033b1bd897"},"vehicle_type_id":"4","last_reported":1734009682,"current_range_meters":20000,"station_id":"ce4bh0h2rcd13ifvqd40","pricing_plan_id":"cebpf4jnsgd1na2vs0mg"},{"bike_id":"b9a10e51-75c4-4981-9e55-dd49e2473600","system_id":"levelo_inurba_marseille","lat":43.29193,"lon":5.35819,"is_reserved":false,"is_disabled":false,"rental_uris":{"android":"levelo://app?vid=b9a10e51-75c4-4981-9e55-dd49e2473600","ios":"levelo://app?vid=b9a10e51-75c4-4981-9e55-dd49e2473600"},"vehicle_type_id":"4","last_reported":1734009682,"current_range_meters":9200,"station_id":"ce4bhb12rcd13ifvqel0","pricing_plan_id":"cebpf4jnsgd1na2vs0mg"},{"bike_id":"026a9d6b-6384-47c4-b51c-88c7d59b81b4","system_id":"levelo_inurba_marseille","lat":43.28473,"lon":5.38436,"is_reserved":false,"is_disabled":false,"rental_uris":{"android":"levelo://app?vid=026a9d6b-6384-47c4-b51c-88c7d59b81b4","ios":"levelo://app?vid=026a9d6b-6384-47c4-b51c-88c7d59b81b4"},"vehicle_type_id":"4","last_reported":1734009682,"current_range_meters":36400,"station_id":"ce4bh512rcd13ifvqe3g","pricing_plan_id":"cebpf4jnsgd1na2vs0mg"},{"bike_id":"870e6636-b21e-471c-863d-86dd369d4305","system_id":"levelo_inurba_marseille","lat":43.2693,"lon":5.40257,"is_reserved":false,"is_disabled":false,"rental_uris":{"android":"levelo://app?vid=870e6636-b21e-471c-863d-86dd369d4305","ios":"levelo://app?vid=870e6636-b21e-471c-863d-86dd369d4305"},"vehicle_type_id":"4","last_reported":1734009682,"current_range_meters":38800,"station_id":"cjm6bp8fraef2m0cb0m0","pricing_plan_id":"cebpf4jnsgd1na2vs0mg"},{"bike_id":"f2f70828-c0e0-4752-89fa-1aab0c5d8a74","system_id":"levelo_inurba_marseille","lat":43.27222,"lon":5.39181,"is_reserved":false,"is_disabled":true,"rental_uris":{"android":"levelo://app?vid=f2f70828-c0e0-4752-89fa-1aab0c5d8a74","ios":"levelo://app?vid=f2f70828-c0e0-4752-89fa-1aab0c5d8a74"},"vehicle_type_id":"4","last_reported":1734009682,"current_range_meters":36800,"station_id":"ce4bhhp2rcd13ifvqfm0","pricing_plan_id":"cebpf4jnsgd1na2vs0mg"},{"bike_id":"63086f4b-bac5-44a6-9e4e-fdc7e0f9367c","system_id":"levelo_inurba_marseille","lat":43.2844,"lon":5.39201,"is_reserved":false,"is_disabled":false,"rental_uris":{"android":"levelo://app?vid=63086f4b-bac5-44a6-9e4e-fdc7e0f9367c","ios":"levelo://app?vid=63086f4b-bac5-44a6-9e4e-fdc7e0f9367c"},"vehicle_type_id":"4","last_reported":1734009682,"current_range_meters":36000,"station_id":"ce4bhoh2rcd13ifvqh5g","pricing_plan_id":"cebpf4jnsgd1na2vs0mg"},{"bike_id":"5c9687d2-55ca-4bb0-9fc5-0529c0eb193e","system_id":"levelo_inurba_marseille","lat":43.29279,"lon":5.40124,"is_reserved":false,"is_disabled":false,"rental_uris":{"android":"levelo://app?vid=5c9687d2-55ca-4bb0-9fc5-0529c0eb193e","ios":"levelo://app?vid=5c9687d2-55ca-4bb0-9fc5-0529c0eb193e"},"vehicle_type_id":"4","last_reported":1734009682,"current_range_meters":33200,"station_id":"ce4bh312rcd13ifvqdk0","pricing_plan_id":"cebpf4jnsgd1na2vs0mg"},{"bike_id":"806b8197-3855-4c23-aa72-a8373f875665","system_id":"levelo_inurba_marseille","lat":43.29036,"lon":5.37563,"is_reserved":false,"is_disabled":false,"rental_uris":{"android":"levelo://app?vid=806b8197-3855-4c23-aa72-a8373f875665","ios":"levelo://app?vid=806b8197-3855-4c23-aa72-a8373f875665"},"vehicle_type_id":"4","last_reported":1734009682,"current_range_meters":33600,"station_id":"ce4bh692rcd13ifvqe90","pricing_plan_id":"cebpf4jnsgd1na2vs0mg"},{"bike_id":"88fd6081-e8a1-4b8c-a88f-ce6e40a6b4bf","system_id":"levelo_inurba_marseille","lat":43.26809,"lon":5.40275,"is_reserved":false,"is_disabled":true,"rental_uris":{"android":"levelo://app?vid=88fd6081-e8a1-4b8c-a88f-ce6e40a6b4bf","ios":"levelo://app?vid=88fd6081-e8a1-4b8c-a88f-ce6e40a6b4bf"},"vehicle_type_id":"4","last_reported":1734009682,"current_range_meters":0,"station_id":"ce501612rcd8frsf0b60","pricing_plan_id":"cebpf4jnsgd1na2vs0mg"},{"bike_id":"a65c9e86-52cb-41ea-81b1-d7f0a36a85c8","system_id":"levelo_inurba_marseille","lat":43.29786,"lon":5.38127,"is_reserved":false,"is_disabled":false,"rental_uris":{"android":"levelo://app?vid=a65c9e86-52cb-41ea-81b1-d7f0a36a85c8","ios":"levelo://app?vid=a65c9e86-52cb-41ea-81b1-d7f0a36a85c8"},"vehicle_type_id":"4","last_reported":1734009682,"current_range_meters":26800,"station_id":"ce4bgip2rcd13ifvqbb0","pricing_plan_id":"cebpf4jnsgd1na2vs0mg"},{"bike_id":"f1f46d21-304f-45cb-947d-8b6456de5f10","system_id":"levelo_inurba_marseille","lat":43.2622,"lon":5.37452,"is_reserved":false,"is_disabled":false,"rental_uris":{"android":"levelo://app?vid=f1f46d21-304f-45cb-947d-8b6456de5f10","ios":"levelo://app?vid=f1f46d21-304f-45cb-947d-8b6456de5f10"},"vehicle_type_id":"4","last_reported":1734009682,"current_range_meters":18800,"station_id":"ce4bhgp2rcd13ifvqfc0","pricing_plan_id":"cebpf4jnsgd1na2vs0mg"},{"bike_id":"cb290ba2-164f-46ba-ab9f-4dc9f90ba225","system_id":"levelo_inurba_marseille","lat":43.26568,"lon":5.39018,"is_reserved":false,"is_disabled":false,"rental_uris":{"android":"levelo://app?vid=cb290ba2-164f-46ba-ab9f-4dc9f90ba225","ios":"levelo://app?vid=cb290ba2-164f-46ba-ab9f-4dc9f90ba225"},"vehicle_type_id":"4","last_reported":1734009682,"current_range_meters":9200,"station_id":"ce4bhe12rcd13ifvqf30","pricing_plan_id":"cebpf4jnsgd1na2vs0mg"},{"bike_id":"a7c6d16f-a704-4140-a83d-f971f9523d20","system_id":"levelo_inurba_marseille","lat":43.25112,"lon":5.40323,"is_reserved":false,"is_disabled":false,"rental_uris":{"android":"levelo://app?vid=a7c6d16f-a704-4140-a83d-f971f9523d20","ios":"levelo://app?vid=a7c6d16f-a704-4140-a83d-f971f9523d20"},"vehicle_type_id":"4","last_reported":1734009682,"current_range_meters":3600,"station_id":"ce4bhlh2rcd13ifvqgig","pricing_plan_id":"cebpf4jnsgd1na2vs0mg"},{"bike_id":"18449eca-7cd4-4637-aad8-d740a9109818","system_id":"levelo_inurba_marseille","lat":43.26803,"lon":5.40275,"is_reserved":false,"is_disabled":false,"rental_uris":{"android":"levelo://app?vid=18449eca-7cd4-4637-aad8-d740a9109818","ios":"levelo://app?vid=18449eca-7cd4-4637-aad8-d740a9109818"},"vehicle_type_id":"4","last_reported":1734009682,"current_range_meters":38800,"station_id":"ce501612rcd8frsf0b60","pricing_plan_id":"cebpf4jnsgd1na2vs0mg"},{"bike_id":"36a0f318-ffb4-458a-894f-e9900d7ffdd6","system_id":"levelo_inurba_marseille","lat":43.26556,"lon":5.37285,"is_reserved":false,"is_disabled":false,"rental_uris":{"android":"levelo://app?vid=36a0f318-ffb4-458a-894f-e9900d7ffdd6","ios":"levelo://app?vid=36a0f318-ffb4-458a-894f-e9900d7ffdd6"},"vehicle_type_id":"4","last_reported":1734009682,"current_range_meters":38800,"station_id":"ce4bhg12rcd13ifvqf70","pricing_plan_id":"cebpf4jnsgd1na2vs0mg"},{"bike_id":"9f59f892-069b-4e04-9fca-167860a220e8","system_id":"levelo_inurba_marseille","lat":43.32275,"lon":5.39032,"is_reserved":false,"is_disabled":false,"rental_uris":{"android":"levelo://app?vid=9f59f892-069b-4e04-9fca-167860a220e8","ios":"levelo://app?vid=9f59f892-069b-4e04-9fca-167860a220e8"},"vehicle_type_id":"4","last_reported":1734009682,"current_range_meters":17600,"station_id":"","pricing_plan_id":"cebpf4jnsgd1na2vs0mg"},{"bike_id":"3d91e3c5-7cef-4a6b-b72c-1f72f9823e2d","system_id":"levelo_inurba_marseille","lat":43.30524,"lon":5.36538,"is_reserved":false,"is_disabled":false,"rental_uris":{"android":"levelo://app?vid=3d91e3c5-7cef-4a6b-b72c-1f72f9823e2d","ios":"levelo://app?vid=3d91e3c5-7cef-4a6b-b72c-1f72f9823e2d"},"vehicle_type_id":"4","last_reported":1734009682,"current_range_meters":5600,"station_id":"ce4bgs12rcd13ifvqcag","pricing_plan_id":"cebpf4jnsgd1na2vs0mg"},{"bike_id":"1344a52c-f7c6-4cc2-abe0-2e816ae45891","system_id":"levelo_inurba_marseille","lat":43.30138,"lon":5.37424,"is_reserved":false,"is_disabled":false,"rental_uris":{"android":"levelo://app?vid=1344a52c-f7c6-4cc2-abe0-2e816ae45891","ios":"levelo://app?vid=1344a52c-f7c6-4cc2-abe0-2e816ae45891"},"vehicle_type_id":"4","last_reported":1734009682,"current_range_meters":12400,"station_id":"ce4bgs92rcd13ifvqcc0","pricing_plan_id":"cebpf4jnsgd1na2vs0mg"},{"bike_id":"f507f0ee-c835-4333-8681-f090fa01c551","system_id":"levelo_inurba_marseille","lat":43.28346,"lon":5.38112,"is_reserved":false,"is_disabled":false,"rental_uris":{"android":"levelo://app?vid=f507f0ee-c835-4333-8681-f090fa01c551","ios":"levelo://app?vid=f507f0ee-c835-4333-8681-f090fa01c551"},"vehicle_type_id":"4","last_reported":1734009682,"current_range_meters":3200,"station_id":"ce4bh412rcd13ifvqdr0","pricing_plan_id":"cebpf4jnsgd1na2vs0mg"},{"bike_id":"53e14b4a-061d-47e0-9d41-ff9b1a6d0a08","system_id":"levelo_inurba_marseille","lat":43.29821,"lon":5.3629,"is_reserved":false,"is_disabled":false,"rental_uris":{"android":"levelo://app?vid=53e14b4a-061d-47e0-9d41-ff9b1a6d0a08","ios":"levelo://app?vid=53e14b4a-061d-47e0-9d41-ff9b1a6d0a08"},"vehicle_type_id":"4","last_reported":1734009682,"current_range_meters":27200,"station_id":"ce4bgpp2rcd13ifvqc3g","pricing_plan_id":"cebpf4jnsgd1na2vs0mg"},{"bike_id":"3c34b185-bebc-4eb0-b376-5a9b2b4ef3ba","system_id":"levelo_inurba_marseille","lat":43.30916,"lon":5.36859,"is_reserved":false,"is_disabled":true,"rental_uris":{"android":"levelo://app?vid=3c34b185-bebc-4eb0-b376-5a9b2b4ef3ba","ios":"levelo://app?vid=3c34b185-bebc-4eb0-b376-5a9b2b4ef3ba"},"vehicle_type_id":"4","last_reported":1734009682,"current_range_meters":2000,"station_id":"ce4bgn92rcd13ifvqbvg","pricing_plan_id":"cebpf4jnsgd1na2vs0mg"},{"bike_id":"f498b2a6-737a-406e-9b8d-c2c1f329c05f","system_id":"levelo_inurba_marseille","lat":43.24395,"lon":5.3706,"is_reserved":false,"is_disabled":false,"rental_uris":{"android":"levelo://app?vid=f498b2a6-737a-406e-9b8d-c2c1f329c05f","ios":"levelo://app?vid=f498b2a6-737a-406e-9b8d-c2c1f329c05f"},"vehicle_type_id":"4","last_reported":1734009682,"current_range_meters":38800,"station_id":"ce4bhhh2rcd13ifvqfk0","pricing_plan_id":"cebpf4jnsgd1na2vs0mg"},{"bike_id":"51a23920-7cdf-4d51-b7c2-1cd80ed13bac","system_id":"levelo_inurba_marseille","lat":43.287,"lon":5.37943,"is_reserved":false,"is_disabled":false,"rental_uris":{"android":"levelo://app?vid=51a23920-7cdf-4d51-b7c2-1cd80ed13bac","ios":"levelo://app?vid=51a23920-7cdf-4d51-b7c2-1cd80ed13bac"},"vehicle_type_id":"4","last_reported":1734009682,"current_range_meters":36800,"station_id":"ce4bh9p2rcd13ifvqec0","pricing_plan_id":"cebpf4jnsgd1na2vs0mg"},{"bike_id":"55b90ab8-ad6e-4330-b578-7b6440304b5c","system_id":"levelo_inurba_marseille","lat":43.26179,"lon":5.3747,"is_reserved":false,"is_disabled":false,"rental_uris":{"android":"levelo://app?vid=55b90ab8-ad6e-4330-b578-7b6440304b5c","ios":"levelo://app?vid=55b90ab8-ad6e-4330-b578-7b6440304b5c"},"vehicle_type_id":"4","last_reported":1734009682,"current_range_meters":38800,"station_id":"ce4bhgp2rcd13ifvqfc0","pricing_plan_id":"cebpf4jnsgd1na2vs0mg"},{"bike_id":"5a3f78a5-cf96-469b-87bd-85261cc7b028","system_id":"levelo_inurba_marseille","lat":43.29628,"lon":5.37175,"is_reserved":false,"is_disabled":false,"rental_uris":{"android":"levelo://app?vid=5a3f78a5-cf96-469b-87bd-85261cc7b028","ios":"levelo://app?vid=5a3f78a5-cf96-469b-87bd-85261cc7b028"},"vehicle_type_id":"4","last_reported":1734009682,"current_range_meters":7200,"station_id":"ce4bgnh2rcd13ifvqc0g","pricing_plan_id":"cebpf4jnsgd1na2vs0mg"},{"bike_id":"85fc7ebc-e1ee-4e0e-81f6-502ecea0cb12","system_id":"levelo_inurba_marseille","lat":43.33018,"lon":5.39043,"is_reserved":false,"is_disabled":false,"rental_uris":{"android":"levelo://app?vid=85fc7ebc-e1ee-4e0e-81f6-502ecea0cb12","ios":"levelo://app?vid=85fc7ebc-e1ee-4e0e-81f6-502ecea0cb12"},"vehicle_type_id":"4","last_reported":1734009682,"current_range_meters":34800,"station_id":"ce4bhr92rcd13ifvqhrg","pricing_plan_id":"cebpf4jnsgd1na2vs0mg"},{"bike_id":"e966d2c7-c9e1-4cb1-9a39-6325607b0be4","system_id":"levelo_inurba_marseille","lat":43.337444,"lon":5.374475,"is_reserved":false,"is_disabled":true,"rental_uris":{"android":"levelo://app?vid=e966d2c7-c9e1-4cb1-9a39-6325607b0be4","ios":"levelo://app?vid=e966d2c7-c9e1-4cb1-9a39-6325607b0be4"},"vehicle_type_id":"4","last_reported":1734009682,"current_range_meters":0,"station_id":"","pricing_plan_id":"cebpf4jnsgd1na2vs0mg"},{"bike_id":"28c060d5-4641-42c8-93ce-0f524a2f307a","system_id":"levelo_inurba_marseille","lat":43.299344,"lon":5.365556,"is_reserved":false,"is_disabled":false,"rental_uris":{"android":"levelo://app?vid=28c060d5-4641-42c8-93ce-0f524a2f307a","ios":"levelo://app?vid=28c060d5-4641-42c8-93ce-0f524a2f307a"},"vehicle_type_id":"4","last_reported":1734009682,"current_range_meters":22400,"station_id":"ce4bgm92rcd13ifvqbr0","pricing_plan_id":"cebpf4jnsgd1na2vs0mg"},{"bike_id":"08f6dfd2-5a55-4565-9eb0-3f7235020a27","system_id":"levelo_inurba_marseille","lat":43.24552,"lon":5.39534,"is_reserved":false,"is_disabled":false,"rental_uris":{"android":"levelo://app?vid=08f6dfd2-5a55-4565-9eb0-3f7235020a27","ios":"levelo://app?vid=08f6dfd2-5a55-4565-9eb0-3f7235020a27"},"vehicle_type_id":"4","last_reported":1734009682,"current_range_meters":28400,"station_id":"ce4bhlp2rcd13ifvqgjg","pricing_plan_id":"cebpf4jnsgd1na2vs0mg"},{"bike_id":"6bc7401a-ad66-4e4d-bfd6-a954bc5b40c0","system_id":"levelo_inurba_marseille","lat":43.337527,"lon":5.37441,"is_reserved":false,"is_disabled":false,"rental_uris":{"android":"levelo://app?vid=6bc7401a-ad66-4e4d-bfd6-a954bc5b40c0","ios":"levelo://app?vid=6bc7401a-ad66-4e4d-bfd6-a954bc5b40c0"},"vehicle_type_id":"4","last_reported":1734009682,"current_range_meters":34800,"station_id":"","pricing_plan_id":"cebpf4jnsgd1na2vs0mg"},{"bike_id":"7a0c7b41-8e30-4863-aec8-72b38eb82b71","system_id":"levelo_inurba_marseille","lat":43.28839,"lon":5.35866,"is_reserved":false,"is_disabled":false,"rental_uris":{"android":"levelo://app?vid=7a0c7b41-8e30-4863-aec8-72b38eb82b71","ios":"levelo://app?vid=7a0c7b41-8e30-4863-aec8-72b38eb82b71"},"vehicle_type_id":"4","last_reported":1734009682,"current_range_meters":36000,"station_id":"ce4bhb12rcd13ifvqem0","pricing_plan_id":"cebpf4jnsgd1na2vs0mg"},{"bike_id":"f0a4f587-2333-4a7a-8819-09121e495e1b","system_id":"levelo_inurba_marseille","lat":43.22923,"lon":5.3539,"is_reserved":false,"is_disabled":false,"rental_uris":{"android":"levelo://app?vid=f0a4f587-2333-4a7a-8819-09121e495e1b","ios":"levelo://app?vid=f0a4f587-2333-4a7a-8819-09121e495e1b"},"vehicle_type_id":"4","last_reported":1734009682,"current_range_meters":8800,"station_id":"cpo3532slgdg3j2ikp40","pricing_plan_id":"cebpf4jnsgd1na2vs0mg"},{"bike_id":"ba6fe419-774c-4091-895e-a76421491481","system_id":"levelo_inurba_marseille","lat":43.23145,"lon":5.43711,"is_reserved":false,"is_disabled":true,"rental_uris":{"android":"levelo://app?vid=ba6fe419-774c-4091-895e-a76421491481","ios":"levelo://app?vid=ba6fe419-774c-4091-895e-a76421491481"},"vehicle_type_id":"4","last_reported":1734009682,"current_range_meters":18000,"station_id":"ce4bhmp2rcd13ifvqgog","pricing_plan_id":"cebpf4jnsgd1na2vs0mg"},{"bike_id":"45354006-86f9-4c5e-b2eb-5597a60e305f","system_id":"levelo_inurba_marseille","lat":43.29026,"lon":5.3865,"is_reserved":false,"is_disabled":false,"rental_uris":{"android":"levelo://app?vid=45354006-86f9-4c5e-b2eb-5597a60e305f","ios":"levelo://app?vid=45354006-86f9-4c5e-b2eb-5597a60e305f"},"vehicle_type_id":"4","last_reported":1734009682,"current_range_meters":32000,"station_id":"ce4bh4p2rcd13ifvqe0g","pricing_plan_id":"cebpf4jnsgd1na2vs0mg"},{"bike_id":"c0ac8c32-1e35-489c-9ada-c98ba4d09509","system_id":"levelo_inurba_marseille","lat":43.27317,"lon":5.390749,"is_reserved":false,"is_disabled":false,"rental_uris":{"android":"levelo://app?vid=c0ac8c32-1e35-489c-9ada-c98ba4d09509","ios":"levelo://app?vid=c0ac8c32-1e35-489c-9ada-c98ba4d09509"},"vehicle_type_id":"4","last_reported":1734009682,"current_range_meters":38800,"station_id":"ce4bhgp2rcd13ifvqfe0","pricing_plan_id":"cebpf4jnsgd1na2vs0mg"},{"bike_id":"e2b090ff-7c7f-4d4a-8f5b-c317e750043e","system_id":"levelo_inurba_marseille","lat":43.27067,"lon":5.42282,"is_reserved":false,"is_disabled":true,"rental_uris":{"android":"levelo://app?vid=e2b090ff-7c7f-4d4a-8f5b-c317e750043e","ios":"levelo://app?vid=e2b090ff-7c7f-4d4a-8f5b-c317e750043e"},"vehicle_type_id":"4","last_reported":1734009682,"current_range_meters":0,"station_id":"ce4bhk92rcd13ifvqgb0","pricing_plan_id":"cebpf4jnsgd1na2vs0mg"},{"bike_id":"1802c294-deb8-4890-b7ca-3e995fd26543","system_id":"levelo_inurba_marseille","lat":43.27086,"lon":5.42286,"is_reserved":false,"is_disabled":false,"rental_uris":{"android":"levelo://app?vid=1802c294-deb8-4890-b7ca-3e995fd26543","ios":"levelo://app?vid=1802c294-deb8-4890-b7ca-3e995fd26543"},"vehicle_type_id":"4","last_reported":1734009682,"current_range_meters":32000,"station_id":"ce4bhk92rcd13ifvqgb0","pricing_plan_id":"cebpf4jnsgd1na2vs0mg"},{"bike_id":"238ff95d-9969-45fa-adae-8e4e377806b2","system_id":"levelo_inurba_marseille","lat":43.31109,"lon":5.37781,"is_reserved":false,"is_disabled":false,"rental_uris":{"android":"levelo://app?vid=238ff95d-9969-45fa-adae-8e4e377806b2","ios":"levelo://app?vid=238ff95d-9969-45fa-adae-8e4e377806b2"},"vehicle_type_id":"4","last_reported":1734009682,"current_range_meters":7200,"station_id":"ce4bgt92rcd13ifvqcg0","pricing_plan_id":"cebpf4jnsgd1na2vs0mg"},{"bike_id":"0bdd4a61-716d-4066-97ea-befa22791450","system_id":"levelo_inurba_marseille","lat":43.30429,"lon":5.39746,"is_reserved":false,"is_disabled":false,"rental_uris":{"android":"levelo://app?vid=0bdd4a61-716d-4066-97ea-befa22791450","ios":"levelo://app?vid=0bdd4a61-716d-4066-97ea-befa22791450"},"vehicle_type_id":"4","last_reported":1734009682,"current_range_meters":38800,"station_id":"ce4bh092rcd13ifvqd20","pricing_plan_id":"cebpf4jnsgd1na2vs0mg"},{"bike_id":"468c58c5-5827-4bfd-bc9e-6c81460e547c","system_id":"levelo_inurba_marseille","lat":43.28934,"lon":5.36403,"is_reserved":false,"is_disabled":false,"rental_uris":{"android":"levelo://app?vid=468c58c5-5827-4bfd-bc9e-6c81460e547c","ios":"levelo://app?vid=468c58c5-5827-4bfd-bc9e-6c81460e547c"},"vehicle_type_id":"4","last_reported":1734009682,"current_range_meters":28400,"station_id":"ce4bhc92rcd13ifvqetg","pricing_plan_id":"cebpf4jnsgd1na2vs0mg"},{"bike_id":"8bce4d14-97e1-4732-8b97-92aecbbe2473","system_id":"levelo_inurba_marseille","lat":43.24081,"lon":5.37747,"is_reserved":false,"is_disabled":false,"rental_uris":{"android":"levelo://app?vid=8bce4d14-97e1-4732-8b97-92aecbbe2473","ios":"levelo://app?vid=8bce4d14-97e1-4732-8b97-92aecbbe2473"},"vehicle_type_id":"4","last_reported":1734009682,"current_range_meters":6000,"station_id":"ce4bhnp2rcd13ifvqgvg","pricing_plan_id":"cebpf4jnsgd1na2vs0mg"},{"bike_id":"886c6ddd-f2db-4f1d-a04c-6128017a69e9","system_id":"levelo_inurba_marseille","lat":43.27819,"lon":5.39213,"is_reserved":false,"is_disabled":false,"rental_uris":{"android":"levelo://app?vid=886c6ddd-f2db-4f1d-a04c-6128017a69e9","ios":"levelo://app?vid=886c6ddd-f2db-4f1d-a04c-6128017a69e9"},"vehicle_type_id":"4","last_reported":1734009682,"current_range_meters":35200,"station_id":"ce4bhjp2rcd13ifvqga0","pricing_plan_id":"cebpf4jnsgd1na2vs0mg"},{"bike_id":"097a41bf-6635-41a6-b7a7-1173cae29ada","system_id":"levelo_inurba_marseille","lat":43.22928,"lon":5.35378,"is_reserved":false,"is_disabled":false,"rental_uris":{"android":"levelo://app?vid=097a41bf-6635-41a6-b7a7-1173cae29ada","ios":"levelo://app?vid=097a41bf-6635-41a6-b7a7-1173cae29ada"},"vehicle_type_id":"4","last_reported":1734009682,"current_range_meters":38800,"station_id":"cpo3532slgdg3j2ikp40","pricing_plan_id":"cebpf4jnsgd1na2vs0mg"},{"bike_id":"4d5881bc-1b66-4424-9cca-37b7d62f3c7f","system_id":"levelo_inurba_marseille","lat":43.29933,"lon":5.38487,"is_reserved":false,"is_disabled":false,"rental_uris":{"android":"levelo://app?vid=4d5881bc-1b66-4424-9cca-37b7d62f3c7f","ios":"levelo://app?vid=4d5881bc-1b66-4424-9cca-37b7d62f3c7f"},"vehicle_type_id":"4","last_reported":1734009682,"current_range_meters":38000,"station_id":"ce4bgj92rcd13ifvqbd0","pricing_plan_id":"cebpf4jnsgd1na2vs0mg"},{"bike_id":"1055b2fd-2ac3-4d9b-8a0a-a2c2cd342d6e","system_id":"levelo_inurba_marseille","lat":43.30926,"lon":5.36841,"is_reserved":false,"is_disabled":false,"rental_uris":{"android":"levelo://app?vid=1055b2fd-2ac3-4d9b-8a0a-a2c2cd342d6e","ios":"levelo://app?vid=1055b2fd-2ac3-4d9b-8a0a-a2c2cd342d6e"},"vehicle_type_id":"4","last_reported":1734009682,"current_range_meters":17600,"station_id":"ce4bgn92rcd13ifvqbvg","pricing_plan_id":"cebpf4jnsgd1na2vs0mg"},{"bike_id":"0b0a4dcf-5c03-4a58-b411-c57a212d6d03","system_id":"levelo_inurba_marseille","lat":43.29349,"lon":5.37864,"is_reserved":false,"is_disabled":false,"rental_uris":{"android":"levelo://app?vid=0b0a4dcf-5c03-4a58-b411-c57a212d6d03","ios":"levelo://app?vid=0b0a4dcf-5c03-4a58-b411-c57a212d6d03"},"vehicle_type_id":"4","last_reported":1734009682,"current_range_meters":30400,"station_id":"ce4bgjh2rcd13ifvqbf0","pricing_plan_id":"cebpf4jnsgd1na2vs0mg"},{"bike_id":"d34ff4a9-910d-464d-8063-a4c2b3dd98a0","system_id":"levelo_inurba_marseille","lat":43.25108,"lon":5.40325,"is_reserved":false,"is_disabled":false,"rental_uris":{"android":"levelo://app?vid=d34ff4a9-910d-464d-8063-a4c2b3dd98a0","ios":"levelo://app?vid=d34ff4a9-910d-464d-8063-a4c2b3dd98a0"},"vehicle_type_id":"4","last_reported":1734009682,"current_range_meters":22800,"station_id":"ce4bhlh2rcd13ifvqgig","pricing_plan_id":"cebpf4jnsgd1na2vs0mg"},{"bike_id":"89a55bf1-70dc-454d-bd0f-fd0d256382a1","system_id":"levelo_inurba_marseille","lat":43.30949,"lon":5.39039,"is_reserved":false,"is_disabled":false,"rental_uris":{"android":"levelo://app?vid=89a55bf1-70dc-454d-bd0f-fd0d256382a1","ios":"levelo://app?vid=89a55bf1-70dc-454d-bd0f-fd0d256382a1"},"vehicle_type_id":"4","last_reported":1734009682,"current_range_meters":6400,"station_id":"ce4bgup2rcd13ifvqco0","pricing_plan_id":"cebpf4jnsgd1na2vs0mg"},{"bike_id":"974b97e2-bcc2-4cc6-9a27-fa36d632b303","system_id":"levelo_inurba_marseille","lat":43.29956,"lon":5.37171,"is_reserved":false,"is_disabled":false,"rental_uris":{"android":"levelo://app?vid=974b97e2-bcc2-4cc6-9a27-fa36d632b303","ios":"levelo://app?vid=974b97e2-bcc2-4cc6-9a27-fa36d632b303"},"vehicle_type_id":"4","last_reported":1734009682,"current_range_meters":21600,"station_id":"ce4bgr92rcd13ifvqc7g","pricing_plan_id":"cebpf4jnsgd1na2vs0mg"},{"bike_id":"5f6181a7-d93e-487e-9159-65c14d65a512","system_id":"levelo_inurba_marseille","lat":43.29032,"lon":5.38665,"is_reserved":false,"is_disabled":false,"rental_uris":{"android":"levelo://app?vid=5f6181a7-d93e-487e-9159-65c14d65a512","ios":"levelo://app?vid=5f6181a7-d93e-487e-9159-65c14d65a512"},"vehicle_type_id":"4","last_reported":1734009682,"current_range_meters":32000,"station_id":"ce4bh4p2rcd13ifvqe0g","pricing_plan_id":"cebpf4jnsgd1na2vs0mg"},{"bike_id":"784a293f-2e5e-42aa-869d-5c6f2d45c286","system_id":"levelo_inurba_marseille","lat":43.2886,"lon":5.3932,"is_reserved":false,"is_disabled":false,"rental_uris":{"android":"levelo://app?vid=784a293f-2e5e-42aa-869d-5c6f2d45c286","ios":"levelo://app?vid=784a293f-2e5e-42aa-869d-5c6f2d45c286"},"vehicle_type_id":"4","last_reported":1734009682,"current_range_meters":28800,"station_id":"ce4bh2p2rcd13ifvqdi0","pricing_plan_id":"cebpf4jnsgd1na2vs0mg"},{"bike_id":"dbf212a4-5c61-42a2-9fb0-64e326737fba","system_id":"levelo_inurba_marseille","lat":43.25579,"lon":5.38227,"is_reserved":false,"is_disabled":false,"rental_uris":{"android":"levelo://app?vid=dbf212a4-5c61-42a2-9fb0-64e326737fba","ios":"levelo://app?vid=dbf212a4-5c61-42a2-9fb0-64e326737fba"},"vehicle_type_id":"4","last_reported":1734009682,"current_range_meters":34000,"station_id":"ce4bhih2rcd13ifvqfs0","pricing_plan_id":"cebpf4jnsgd1na2vs0mg"},{"bike_id":"6e931689-44cf-4d0a-b45f-82bf83115d36","system_id":"levelo_inurba_marseille","lat":43.301804,"lon":5.366136,"is_reserved":false,"is_disabled":false,"rental_uris":{"android":"levelo://app?vid=6e931689-44cf-4d0a-b45f-82bf83115d36","ios":"levelo://app?vid=6e931689-44cf-4d0a-b45f-82bf83115d36"},"vehicle_type_id":"4","last_reported":1734009682,"current_range_meters":30000,"station_id":"ce4bgrh2rcd13ifvqc8g","pricing_plan_id":"cebpf4jnsgd1na2vs0mg"},{"bike_id":"f18a6be1-0ee4-4d2a-949d-b1183bbfd236","system_id":"levelo_inurba_marseille","lat":43.309849,"lon":5.379575,"is_reserved":false,"is_disabled":false,"rental_uris":{"android":"levelo://app?vid=f18a6be1-0ee4-4d2a-949d-b1183bbfd236","ios":"levelo://app?vid=f18a6be1-0ee4-4d2a-949d-b1183bbfd236"},"vehicle_type_id":"4","last_reported":1734009682,"current_range_meters":9600,"station_id":"","pricing_plan_id":"cebpf4jnsgd1na2vs0mg"},{"bike_id":"b90a39bd-dcab-49d2-80cd-23265352dde8","system_id":"levelo_inurba_marseille","lat":43.29221,"lon":5.3606,"is_reserved":false,"is_disabled":false,"rental_uris":{"android":"levelo://app?vid=b90a39bd-dcab-49d2-80cd-23265352dde8","ios":"levelo://app?vid=b90a39bd-dcab-49d2-80cd-23265352dde8"},"vehicle_type_id":"4","last_reported":1734009682,"current_range_meters":25200,"station_id":"ce4bhbh2rcd13ifvqeqg","pricing_plan_id":"cebpf4jnsgd1na2vs0mg"},{"bike_id":"af77a2c4-4f01-4eac-8bd5-698508bacd7c","system_id":"levelo_inurba_marseille","lat":43.2719,"lon":5.40998,"is_reserved":false,"is_disabled":false,"rental_uris":{"android":"levelo://app?vid=af77a2c4-4f01-4eac-8bd5-698508bacd7c","ios":"levelo://app?vid=af77a2c4-4f01-4eac-8bd5-698508bacd7c"},"vehicle_type_id":"4","last_reported":1734009682,"current_range_meters":18800,"station_id":"ce4bhl12rcd13ifvqgf0","pricing_plan_id":"cebpf4jnsgd1na2vs0mg"},{"bike_id":"ea92caf0-aa15-4169-8099-843c915ff015","system_id":"levelo_inurba_marseille","lat":43.2695,"lon":5.38634,"is_reserved":false,"is_disabled":false,"rental_uris":{"android":"levelo://app?vid=ea92caf0-aa15-4169-8099-843c915ff015","ios":"levelo://app?vid=ea92caf0-aa15-4169-8099-843c915ff015"},"vehicle_type_id":"4","last_reported":1734009682,"current_range_meters":32400,"station_id":"ce4bhh92rcd13ifvqfh0","pricing_plan_id":"cebpf4jnsgd1na2vs0mg"},{"bike_id":"e6451f2e-8e4c-4063-9b2c-380735098a98","system_id":"levelo_inurba_marseille","lat":43.25938,"lon":5.40905,"is_reserved":false,"is_disabled":true,"rental_uris":{"android":"levelo://app?vid=e6451f2e-8e4c-4063-9b2c-380735098a98","ios":"levelo://app?vid=e6451f2e-8e4c-4063-9b2c-380735098a98"},"vehicle_type_id":"4","last_reported":1734009682,"current_range_meters":1600,"station_id":"ce4bhm92rcd13ifvqglg","pricing_plan_id":"cebpf4jnsgd1na2vs0mg"},{"bike_id":"127c0d0c-feff-4dd8-b28b-0023208de9c2","system_id":"levelo_inurba_marseille","lat":43.26205,"lon":5.37449,"is_reserved":false,"is_disabled":false,"rental_uris":{"android":"levelo://app?vid=127c0d0c-feff-4dd8-b28b-0023208de9c2","ios":"levelo://app?vid=127c0d0c-feff-4dd8-b28b-0023208de9c2"},"vehicle_type_id":"4","last_reported":1734009682,"current_range_meters":38800,"station_id":"ce4bhgp2rcd13ifvqfc0","pricing_plan_id":"cebpf4jnsgd1na2vs0mg"},{"bike_id":"80fc4f35-2cbc-48bd-81dd-29f6639909e4","system_id":"levelo_inurba_marseille","lat":43.32364,"lon":5.38887,"is_reserved":false,"is_disabled":false,"rental_uris":{"android":"levelo://app?vid=80fc4f35-2cbc-48bd-81dd-29f6639909e4","ios":"levelo://app?vid=80fc4f35-2cbc-48bd-81dd-29f6639909e4"},"vehicle_type_id":"4","last_reported":1734009682,"current_range_meters":28400,"station_id":"ce4bhqp2rcd13ifvqhog","pricing_plan_id":"cebpf4jnsgd1na2vs0mg"},{"bike_id":"aa89412d-349e-46b6-830c-c48f0cdbbf55","system_id":"levelo_inurba_marseille","lat":43.2797,"lon":5.38687,"is_reserved":false,"is_disabled":false,"rental_uris":{"android":"levelo://app?vid=aa89412d-349e-46b6-830c-c48f0cdbbf55","ios":"levelo://app?vid=aa89412d-349e-46b6-830c-c48f0cdbbf55"},"vehicle_type_id":"4","last_reported":1734009682,"current_range_meters":5600,"station_id":"ce4bhg12rcd13ifvqf80","pricing_plan_id":"cebpf4jnsgd1na2vs0mg"},{"bike_id":"45550f67-f29c-49ba-873a-cbed74bef282","system_id":"levelo_inurba_marseille","lat":43.29972,"lon":5.38486,"is_reserved":false,"is_disabled":false,"rental_uris":{"android":"levelo://app?vid=45550f67-f29c-49ba-873a-cbed74bef282","ios":"levelo://app?vid=45550f67-f29c-49ba-873a-cbed74bef282"},"vehicle_type_id":"4","last_reported":1734009682,"current_range_meters":6800,"station_id":"ce4bgj92rcd13ifvqbd0","pricing_plan_id":"cebpf4jnsgd1na2vs0mg"},{"bike_id":"a66c4b95-337e-4b9a-950c-e8c8d8e7a3a1","system_id":"levelo_inurba_marseille","lat":43.324799,"lon":5.365716,"is_reserved":false,"is_disabled":true,"rental_uris":{"android":"levelo://app?vid=a66c4b95-337e-4b9a-950c-e8c8d8e7a3a1","ios":"levelo://app?vid=a66c4b95-337e-4b9a-950c-e8c8d8e7a3a1"},"vehicle_type_id":"4","last_reported":1734009682,"current_range_meters":0,"station_id":"","pricing_plan_id":"cebpf4jnsgd1na2vs0mg"},{"bike_id":"fbfd7f25-1840-4e70-8e83-725a8713bcdc","system_id":"levelo_inurba_marseille","lat":43.29708,"lon":5.37694,"is_reserved":false,"is_disabled":false,"rental_uris":{"android":"levelo://app?vid=fbfd7f25-1840-4e70-8e83-725a8713bcdc","ios":"levelo://app?vid=fbfd7f25-1840-4e70-8e83-725a8713bcdc"},"vehicle_type_id":"4","last_reported":1734009682,"current_range_meters":38800,"station_id":"ce4bgkh2rcd13ifvqbl0","pricing_plan_id":"cebpf4jnsgd1na2vs0mg"},{"bike_id":"3aa675bf-e140-4eb0-a03c-90dc1dbcecc3","system_id":"levelo_inurba_marseille","lat":43.31324,"lon":5.39691,"is_reserved":false,"is_disabled":false,"rental_uris":{"android":"levelo://app?vid=3aa675bf-e140-4eb0-a03c-90dc1dbcecc3","ios":"levelo://app?vid=3aa675bf-e140-4eb0-a03c-90dc1dbcecc3"},"vehicle_type_id":"4","last_reported":1734009682,"current_range_meters":38800,"station_id":"ce4bgvp2rcd13ifvqcu0","pricing_plan_id":"cebpf4jnsgd1na2vs0mg"},{"bike_id":"321fd520-305a-4bff-ae40-2c4ccb7ccf74","system_id":"levelo_inurba_marseille","lat":43.28999,"lon":5.38128,"is_reserved":false,"is_disabled":true,"rental_uris":{"android":"levelo://app?vid=321fd520-305a-4bff-ae40-2c4ccb7ccf74","ios":"levelo://app?vid=321fd520-305a-4bff-ae40-2c4ccb7ccf74"},"vehicle_type_id":"4","last_reported":1734009682,"current_range_meters":38400,"station_id":"ce4bh4p2rcd13ifvqe1g","pricing_plan_id":"cebpf4jnsgd1na2vs0mg"},{"bike_id":"52470908-7cb6-49c4-bc65-b252bf6ed0b0","system_id":"levelo_inurba_marseille","lat":43.29034,"lon":5.37571,"is_reserved":false,"is_disabled":false,"rental_uris":{"android":"levelo://app?vid=52470908-7cb6-49c4-bc65-b252bf6ed0b0","ios":"levelo://app?vid=52470908-7cb6-49c4-bc65-b252bf6ed0b0"},"vehicle_type_id":"4","last_reported":1734009682,"current_range_meters":19600,"station_id":"ce4bh692rcd13ifvqe90","pricing_plan_id":"cebpf4jnsgd1na2vs0mg"},{"bike_id":"4b4f7371-d930-4169-a3c9-fe334977930f","system_id":"levelo_inurba_marseille","lat":43.24089,"lon":5.37738,"is_reserved":false,"is_disabled":false,"rental_uris":{"android":"levelo://app?vid=4b4f7371-d930-4169-a3c9-fe334977930f","ios":"levelo://app?vid=4b4f7371-d930-4169-a3c9-fe334977930f"},"vehicle_type_id":"4","last_reported":1734009682,"current_range_meters":38000,"station_id":"ce4bhnp2rcd13ifvqgvg","pricing_plan_id":"cebpf4jnsgd1na2vs0mg"},{"bike_id":"bc4971c4-ad51-4dd9-8b20-661bacd6a10c","system_id":"levelo_inurba_marseille","lat":43.31155,"lon":5.38746,"is_reserved":false,"is_disabled":true,"rental_uris":{"android":"levelo://app?vid=bc4971c4-ad51-4dd9-8b20-661bacd6a10c","ios":"levelo://app?vid=bc4971c4-ad51-4dd9-8b20-661bacd6a10c"},"vehicle_type_id":"4","last_reported":1734009682,"current_range_meters":38800,"station_id":"ce4bgv12rcd13ifvqcp0","pricing_plan_id":"cebpf4jnsgd1na2vs0mg"},{"bike_id":"ca27f90d-04a5-455e-bfff-ce4a3e392a8b","system_id":"levelo_inurba_marseille","lat":43.308956,"lon":5.372016,"is_reserved":false,"is_disabled":false,"rental_uris":{"android":"levelo://app?vid=ca27f90d-04a5-455e-bfff-ce4a3e392a8b","ios":"levelo://app?vid=ca27f90d-04a5-455e-bfff-ce4a3e392a8b"},"vehicle_type_id":"4","last_reported":1734009682,"current_range_meters":36000,"station_id":"ce4bguh2rcd13ifvqckg","pricing_plan_id":"cebpf4jnsgd1na2vs0mg"},{"bike_id":"98d41972-836b-428e-89f3-6e81fb57618e","system_id":"levelo_inurba_marseille","lat":43.2751,"lon":5.42425,"is_reserved":false,"is_disabled":false,"rental_uris":{"android":"levelo://app?vid=98d41972-836b-428e-89f3-6e81fb57618e","ios":"levelo://app?vid=98d41972-836b-428e-89f3-6e81fb57618e"},"vehicle_type_id":"4","last_reported":1734009682,"current_range_meters":22400,"station_id":"ce4bhn92rcd13ifvqgrg","pricing_plan_id":"cebpf4jnsgd1na2vs0mg"},{"bike_id":"b28364cf-3764-46be-9e34-df111405ff85","system_id":"levelo_inurba_marseille","lat":43.32653,"lon":5.4099,"is_reserved":false,"is_disabled":false,"rental_uris":{"android":"levelo://app?vid=b28364cf-3764-46be-9e34-df111405ff85","ios":"levelo://app?vid=b28364cf-3764-46be-9e34-df111405ff85"},"vehicle_type_id":"4","last_reported":1734009682,"current_range_meters":36400,"station_id":"ce4bhpp2rcd13ifvqhgg","pricing_plan_id":"cebpf4jnsgd1na2vs0mg"},{"bike_id":"4f90ec24-0c90-4faf-8036-b4aa0ee6242b","system_id":"levelo_inurba_marseille","lat":43.30924,"lon":5.40156,"is_reserved":false,"is_disabled":false,"rental_uris":{"android":"levelo://app?vid=4f90ec24-0c90-4faf-8036-b4aa0ee6242b","ios":"levelo://app?vid=4f90ec24-0c90-4faf-8036-b4aa0ee6242b"},"vehicle_type_id":"4","last_reported":1734009682,"current_range_meters":30400,"station_id":"ce4bgvp2rcd13ifvqct0","pricing_plan_id":"cebpf4jnsgd1na2vs0mg"},{"bike_id":"cc66f151-2460-4bd1-9c55-81df03cdad0d","system_id":"levelo_inurba_marseille","lat":43.29978,"lon":5.36365,"is_reserved":false,"is_disabled":true,"rental_uris":{"android":"levelo://app?vid=cc66f151-2460-4bd1-9c55-81df03cdad0d","ios":"levelo://app?vid=cc66f151-2460-4bd1-9c55-81df03cdad0d"},"vehicle_type_id":"4","last_reported":1734009682,"current_range_meters":1200,"station_id":"","pricing_plan_id":"cebpf4jnsgd1na2vs0mg"},{"bike_id":"d3148480-0118-4460-90b5-07f095843da8","system_id":"levelo_inurba_marseille","lat":43.24676,"lon":5.38143,"is_reserved":false,"is_disabled":false,"rental_uris":{"android":"levelo://app?vid=d3148480-0118-4460-90b5-07f095843da8","ios":"levelo://app?vid=d3148480-0118-4460-90b5-07f095843da8"},"vehicle_type_id":"4","last_reported":1734009682,"current_range_meters":33600,"station_id":"ce4bhih2rcd13ifvqfr0","pricing_plan_id":"cebpf4jnsgd1na2vs0mg"},{"bike_id":"27dc3c01-a6a9-4e8e-b13b-a1619d3a93b5","system_id":"levelo_inurba_marseille","lat":43.28932,"lon":5.36616,"is_reserved":false,"is_disabled":false,"rental_uris":{"android":"levelo://app?vid=27dc3c01-a6a9-4e8e-b13b-a1619d3a93b5","ios":"levelo://app?vid=27dc3c01-a6a9-4e8e-b13b-a1619d3a93b5"},"vehicle_type_id":"4","last_reported":1734009682,"current_range_meters":38800,"station_id":"ce4bhap2rcd13ifvqek0","pricing_plan_id":"cebpf4jnsgd1na2vs0mg"},{"bike_id":"37a52849-c0e1-48b4-8940-e569590ca71d","system_id":"levelo_inurba_marseille","lat":43.2408,"lon":5.37754,"is_reserved":false,"is_disabled":false,"rental_uris":{"android":"levelo://app?vid=37a52849-c0e1-48b4-8940-e569590ca71d","ios":"levelo://app?vid=37a52849-c0e1-48b4-8940-e569590ca71d"},"vehicle_type_id":"4","last_reported":1734009682,"current_range_meters":14400,"station_id":"ce4bhnp2rcd13ifvqgvg","pricing_plan_id":"cebpf4jnsgd1na2vs0mg"},{"bike_id":"c7d60411-682a-4c3d-8aea-0c0b8fc638f1","system_id":"levelo_inurba_marseille","lat":43.32478,"lon":5.3656,"is_reserved":false,"is_disabled":false,"rental_uris":{"android":"levelo://app?vid=c7d60411-682a-4c3d-8aea-0c0b8fc638f1","ios":"levelo://app?vid=c7d60411-682a-4c3d-8aea-0c0b8fc638f1"},"vehicle_type_id":"4","last_reported":1734009682,"current_range_meters":12400,"station_id":"ce4bhs12rcd13ifvqhvg","pricing_plan_id":"cebpf4jnsgd1na2vs0mg"},{"bike_id":"7645416b-2fae-4275-9ff6-9a655acd89cf","system_id":"levelo_inurba_marseille","lat":43.29434,"lon":5.39729,"is_reserved":false,"is_disabled":false,"rental_uris":{"android":"levelo://app?vid=7645416b-2fae-4275-9ff6-9a655acd89cf","ios":"levelo://app?vid=7645416b-2fae-4275-9ff6-9a655acd89cf"},"vehicle_type_id":"4","last_reported":1734009682,"current_range_meters":24400,"station_id":"ce4bh3h2rcd13ifvqdo0","pricing_plan_id":"cebpf4jnsgd1na2vs0mg"},{"bike_id":"43da0f8d-3522-43da-b060-47d185bf0ce9","system_id":"levelo_inurba_marseille","lat":43.239708,"lon":5.366238,"is_reserved":false,"is_disabled":true,"rental_uris":{"android":"levelo://app?vid=43da0f8d-3522-43da-b060-47d185bf0ce9","ios":"levelo://app?vid=43da0f8d-3522-43da-b060-47d185bf0ce9"},"vehicle_type_id":"4","last_reported":1734009682,"current_range_meters":400,"station_id":"ce4bhi12rcd13ifvqfp0","pricing_plan_id":"cebpf4jnsgd1na2vs0mg"},{"bike_id":"797ab029-48a7-413b-96da-25691c662e7b","system_id":"levelo_inurba_marseille","lat":43.30599,"lon":5.39358,"is_reserved":false,"is_disabled":true,"rental_uris":{"android":"levelo://app?vid=797ab029-48a7-413b-96da-25691c662e7b","ios":"levelo://app?vid=797ab029-48a7-413b-96da-25691c662e7b"},"vehicle_type_id":"4","last_reported":1734009682,"current_range_meters":17200,"station_id":"ce4bh0p2rcd13ifvqd80","pricing_plan_id":"cebpf4jnsgd1na2vs0mg"},{"bike_id":"bbd8fa05-a068-4ba3-9ee1-d409945460ae","system_id":"levelo_inurba_marseille","lat":43.31752,"lon":5.39018,"is_reserved":false,"is_disabled":false,"rental_uris":{"android":"levelo://app?vid=bbd8fa05-a068-4ba3-9ee1-d409945460ae","ios":"levelo://app?vid=bbd8fa05-a068-4ba3-9ee1-d409945460ae"},"vehicle_type_id":"4","last_reported":1734009682,"current_range_meters":38400,"station_id":"ce4bhqp2rcd13ifvqhng","pricing_plan_id":"cebpf4jnsgd1na2vs0mg"},{"bike_id":"a8942e43-f3d6-46fd-8576-2cc6b2787f3e","system_id":"levelo_inurba_marseille","lat":43.33019,"lon":5.39043,"is_reserved":false,"is_disabled":false,"rental_uris":{"android":"levelo://app?vid=a8942e43-f3d6-46fd-8576-2cc6b2787f3e","ios":"levelo://app?vid=a8942e43-f3d6-46fd-8576-2cc6b2787f3e"},"vehicle_type_id":"4","last_reported":1734009682,"current_range_meters":24800,"station_id":"ce4bhr92rcd13ifvqhrg","pricing_plan_id":"cebpf4jnsgd1na2vs0mg"},{"bike_id":"d7bfcbca-88a1-44cf-adb4-f8cd44b0b9b1","system_id":"levelo_inurba_marseille","lat":43.29618,"lon":5.37158,"is_reserved":false,"is_disabled":false,"rental_uris":{"android":"levelo://app?vid=d7bfcbca-88a1-44cf-adb4-f8cd44b0b9b1","ios":"levelo://app?vid=d7bfcbca-88a1-44cf-adb4-f8cd44b0b9b1"},"vehicle_type_id":"4","last_reported":1734009682,"current_range_meters":37600,"station_id":"ce4bgnh2rcd13ifvqc0g","pricing_plan_id":"cebpf4jnsgd1na2vs0mg"},{"bike_id":"0b1fca49-fc15-4630-a889-cb302544174c","system_id":"levelo_inurba_marseille","lat":43.28706,"lon":5.37932,"is_reserved":false,"is_disabled":true,"rental_uris":{"android":"levelo://app?vid=0b1fca49-fc15-4630-a889-cb302544174c","ios":"levelo://app?vid=0b1fca49-fc15-4630-a889-cb302544174c"},"vehicle_type_id":"4","last_reported":1734009682,"current_range_meters":38800,"station_id":"ce4bh9p2rcd13ifvqec0","pricing_plan_id":"cebpf4jnsgd1na2vs0mg"},{"bike_id":"fcbe1a45-62ef-4798-a96a-86068998a082","system_id":"levelo_inurba_marseille","lat":43.24542,"lon":5.39526,"is_reserved":false,"is_disabled":false,"rental_uris":{"android":"levelo://app?vid=fcbe1a45-62ef-4798-a96a-86068998a082","ios":"levelo://app?vid=fcbe1a45-62ef-4798-a96a-86068998a082"},"vehicle_type_id":"4","last_reported":1734009682,"current_range_meters":31200,"station_id":"ce4bhlp2rcd13ifvqgjg","pricing_plan_id":"cebpf4jnsgd1na2vs0mg"},{"bike_id":"034e2d53-a8ec-4ee3-aeab-28c2f62547b1","system_id":"levelo_inurba_marseille","lat":43.24102,"lon":5.37709,"is_reserved":false,"is_disabled":false,"rental_uris":{"android":"levelo://app?vid=034e2d53-a8ec-4ee3-aeab-28c2f62547b1","ios":"levelo://app?vid=034e2d53-a8ec-4ee3-aeab-28c2f62547b1"},"vehicle_type_id":"4","last_reported":1734009682,"current_range_meters":33200,"station_id":"","pricing_plan_id":"cebpf4jnsgd1na2vs0mg"},{"bike_id":"48bf5ade-6617-4149-b507-7c4a9d6293ef","system_id":"levelo_inurba_marseille","lat":43.29534,"lon":5.39404,"is_reserved":false,"is_disabled":false,"rental_uris":{"android":"levelo://app?vid=48bf5ade-6617-4149-b507-7c4a9d6293ef","ios":"levelo://app?vid=48bf5ade-6617-4149-b507-7c4a9d6293ef"},"vehicle_type_id":"4","last_reported":1734009682,"current_range_meters":8000,"station_id":"ce4bh292rcd13ifvqdf0","pricing_plan_id":"cebpf4jnsgd1na2vs0mg"},{"bike_id":"547ee225-3bb9-4420-a73c-bc355b21e705","system_id":"levelo_inurba_marseille","lat":43.31328,"lon":5.39692,"is_reserved":false,"is_disabled":false,"rental_uris":{"android":"levelo://app?vid=547ee225-3bb9-4420-a73c-bc355b21e705","ios":"levelo://app?vid=547ee225-3bb9-4420-a73c-bc355b21e705"},"vehicle_type_id":"4","last_reported":1734009682,"current_range_meters":38400,"station_id":"ce4bgvp2rcd13ifvqcu0","pricing_plan_id":"cebpf4jnsgd1na2vs0mg"},{"bike_id":"126f893c-9fe0-41dd-ab04-60699d06b677","system_id":"levelo_inurba_marseille","lat":43.26952,"lon":5.38633,"is_reserved":false,"is_disabled":false,"rental_uris":{"android":"levelo://app?vid=126f893c-9fe0-41dd-ab04-60699d06b677","ios":"levelo://app?vid=126f893c-9fe0-41dd-ab04-60699d06b677"},"vehicle_type_id":"4","last_reported":1734009682,"current_range_meters":21600,"station_id":"ce4bhh92rcd13ifvqfh0","pricing_plan_id":"cebpf4jnsgd1na2vs0mg"},{"bike_id":"354c236b-7cf9-4151-8f12-acabe55641f2","system_id":"levelo_inurba_marseille","lat":43.28442,"lon":5.39184,"is_reserved":false,"is_disabled":false,"rental_uris":{"android":"levelo://app?vid=354c236b-7cf9-4151-8f12-acabe55641f2","ios":"levelo://app?vid=354c236b-7cf9-4151-8f12-acabe55641f2"},"vehicle_type_id":"4","last_reported":1734009682,"current_range_meters":33200,"station_id":"ce4bhoh2rcd13ifvqh5g","pricing_plan_id":"cebpf4jnsgd1na2vs0mg"},{"bike_id":"29dc6d3f-82a4-4889-bb50-4e0419348b7b","system_id":"levelo_inurba_marseille","lat":43.26955,"lon":5.3863,"is_reserved":false,"is_disabled":true,"rental_uris":{"android":"levelo://app?vid=29dc6d3f-82a4-4889-bb50-4e0419348b7b","ios":"levelo://app?vid=29dc6d3f-82a4-4889-bb50-4e0419348b7b"},"vehicle_type_id":"4","last_reported":1734009682,"current_range_meters":0,"station_id":"ce4bhh92rcd13ifvqfh0","pricing_plan_id":"cebpf4jnsgd1na2vs0mg"},{"bike_id":"fe7fc23e-4b18-49f2-a1b7-ea8c4778b642","system_id":"levelo_inurba_marseille","lat":43.29026,"lon":5.38114,"is_reserved":false,"is_disabled":false,"rental_uris":{"android":"levelo://app?vid=fe7fc23e-4b18-49f2-a1b7-ea8c4778b642","ios":"levelo://app?vid=fe7fc23e-4b18-49f2-a1b7-ea8c4778b642"},"vehicle_type_id":"4","last_reported":1734009682,"current_range_meters":14400,"station_id":"ce4bh4p2rcd13ifvqe1g","pricing_plan_id":"cebpf4jnsgd1na2vs0mg"},{"bike_id":"06f66dfc-67e3-46bb-8e23-90ef22aa2f49","system_id":"levelo_inurba_marseille","lat":43.33022,"lon":5.39039,"is_reserved":false,"is_disabled":false,"rental_uris":{"android":"levelo://app?vid=06f66dfc-67e3-46bb-8e23-90ef22aa2f49","ios":"levelo://app?vid=06f66dfc-67e3-46bb-8e23-90ef22aa2f49"},"vehicle_type_id":"4","last_reported":1734009682,"current_range_meters":28400,"station_id":"ce4bhr92rcd13ifvqhrg","pricing_plan_id":"cebpf4jnsgd1na2vs0mg"},{"bike_id":"4d3a41f5-959c-4dbb-9d11-8fbbf2d6345c","system_id":"levelo_inurba_marseille","lat":43.26943,"lon":5.38899,"is_reserved":false,"is_disabled":false,"rental_uris":{"android":"levelo://app?vid=4d3a41f5-959c-4dbb-9d11-8fbbf2d6345c","ios":"levelo://app?vid=4d3a41f5-959c-4dbb-9d11-8fbbf2d6345c"},"vehicle_type_id":"4","last_reported":1734009682,"current_range_meters":27200,"station_id":"ce4bhhh2rcd13ifvqfl0","pricing_plan_id":"cebpf4jnsgd1na2vs0mg"},{"bike_id":"0b95e5ee-1011-4a71-be2b-de57b5edad02","system_id":"levelo_inurba_marseille","lat":43.29917,"lon":5.3746,"is_reserved":false,"is_disabled":false,"rental_uris":{"android":"levelo://app?vid=0b95e5ee-1011-4a71-be2b-de57b5edad02","ios":"levelo://app?vid=0b95e5ee-1011-4a71-be2b-de57b5edad02"},"vehicle_type_id":"4","last_reported":1734009682,"current_range_meters":18000,"station_id":"ce4bgjh2rcd13ifvqbg0","pricing_plan_id":"cebpf4jnsgd1na2vs0mg"},{"bike_id":"a648cb11-d201-472f-985c-1caebce50f76","system_id":"levelo_inurba_marseille","lat":43.29362,"lon":5.37841,"is_reserved":false,"is_disabled":true,"rental_uris":{"android":"levelo://app?vid=a648cb11-d201-472f-985c-1caebce50f76","ios":"levelo://app?vid=a648cb11-d201-472f-985c-1caebce50f76"},"vehicle_type_id":"4","last_reported":1734009682,"current_range_meters":0,"station_id":"ce4bgjh2rcd13ifvqbf0","pricing_plan_id":"cebpf4jnsgd1na2vs0mg"},{"bike_id":"dd643bc6-5b37-42ec-9cd1-25f6f7772e52","system_id":"levelo_inurba_marseille","lat":43.31752,"lon":5.39025,"is_reserved":false,"is_disabled":true,"rental_uris":{"android":"levelo://app?vid=dd643bc6-5b37-42ec-9cd1-25f6f7772e52","ios":"levelo://app?vid=dd643bc6-5b37-42ec-9cd1-25f6f7772e52"},"vehicle_type_id":"4","last_reported":1734009682,"current_range_meters":38800,"station_id":"ce4bhqp2rcd13ifvqhng","pricing_plan_id":"cebpf4jnsgd1na2vs0mg"},{"bike_id":"f5a328d6-5258-4762-bac6-bf1eb3656810","system_id":"levelo_inurba_marseille","lat":43.26029,"lon":5.37564,"is_reserved":false,"is_disabled":false,"rental_uris":{"android":"levelo://app?vid=f5a328d6-5258-4762-bac6-bf1eb3656810","ios":"levelo://app?vid=f5a328d6-5258-4762-bac6-bf1eb3656810"},"vehicle_type_id":"4","last_reported":1734009682,"current_range_meters":38800,"station_id":"ce4bhgh2rcd13ifvqfa0","pricing_plan_id":"cebpf4jnsgd1na2vs0mg"},{"bike_id":"e738fcc8-c725-46f1-b7fe-8f522bd56ad4","system_id":"levelo_inurba_marseille","lat":43.22928,"lon":5.35375,"is_reserved":false,"is_disabled":false,"rental_uris":{"android":"levelo://app?vid=e738fcc8-c725-46f1-b7fe-8f522bd56ad4","ios":"levelo://app?vid=e738fcc8-c725-46f1-b7fe-8f522bd56ad4"},"vehicle_type_id":"4","last_reported":1734009682,"current_range_meters":8400,"station_id":"cpo3532slgdg3j2ikp40","pricing_plan_id":"cebpf4jnsgd1na2vs0mg"},{"bike_id":"eb9a9242-b969-4a0e-8e0d-2d122719e3fe","system_id":"levelo_inurba_marseille","lat":43.257189,"lon":5.411107,"is_reserved":false,"is_disabled":false,"rental_uris":{"android":"levelo://app?vid=eb9a9242-b969-4a0e-8e0d-2d122719e3fe","ios":"levelo://app?vid=eb9a9242-b969-4a0e-8e0d-2d122719e3fe"},"vehicle_type_id":"4","last_reported":1734009682,"current_range_meters":35600,"station_id":"ce4bhkp2rcd13ifvqgd0","pricing_plan_id":"cebpf4jnsgd1na2vs0mg"},{"bike_id":"5b23d32e-83d8-481d-be86-61949176e32b","system_id":"levelo_inurba_marseille","lat":43.26501,"lon":5.39043,"is_reserved":false,"is_disabled":false,"rental_uris":{"android":"levelo://app?vid=5b23d32e-83d8-481d-be86-61949176e32b","ios":"levelo://app?vid=5b23d32e-83d8-481d-be86-61949176e32b"},"vehicle_type_id":"4","last_reported":1734009682,"current_range_meters":38800,"station_id":"ce4bhe12rcd13ifvqf30","pricing_plan_id":"cebpf4jnsgd1na2vs0mg"},{"bike_id":"7965bd8b-65b9-4460-9e65-36f253ebc53b","system_id":"levelo_inurba_marseille","lat":43.32048,"lon":5.41514,"is_reserved":false,"is_disabled":false,"rental_uris":{"android":"levelo://app?vid=7965bd8b-65b9-4460-9e65-36f253ebc53b","ios":"levelo://app?vid=7965bd8b-65b9-4460-9e65-36f253ebc53b"},"vehicle_type_id":"4","last_reported":1734009682,"current_range_meters":27600,"station_id":"ce4bhq92rcd13ifvqhkg","pricing_plan_id":"cebpf4jnsgd1na2vs0mg"},{"bike_id":"8a939789-b594-464c-87bc-cdbd1182be3b","system_id":"levelo_inurba_marseille","lat":43.24542,"lon":5.39534,"is_reserved":false,"is_disabled":false,"rental_uris":{"android":"levelo://app?vid=8a939789-b594-464c-87bc-cdbd1182be3b","ios":"levelo://app?vid=8a939789-b594-464c-87bc-cdbd1182be3b"},"vehicle_type_id":"4","last_reported":1734009682,"current_range_meters":15200,"station_id":"ce4bhlp2rcd13ifvqgjg","pricing_plan_id":"cebpf4jnsgd1na2vs0mg"},{"bike_id":"467a8ed9-8f9d-4f9c-a7a2-b2a4bc21bd4a","system_id":"levelo_inurba_marseille","lat":43.24644,"lon":5.38913,"is_reserved":false,"is_disabled":false,"rental_uris":{"android":"levelo://app?vid=467a8ed9-8f9d-4f9c-a7a2-b2a4bc21bd4a","ios":"levelo://app?vid=467a8ed9-8f9d-4f9c-a7a2-b2a4bc21bd4a"},"vehicle_type_id":"4","last_reported":1734009682,"current_range_meters":36000,"station_id":"ce4bhg12rcd13ifvqf60","pricing_plan_id":"cebpf4jnsgd1na2vs0mg"},{"bike_id":"3f376398-b9b7-4419-aed9-9595c8c18ff6","system_id":"levelo_inurba_marseille","lat":43.29554,"lon":5.42295,"is_reserved":false,"is_disabled":false,"rental_uris":{"android":"levelo://app?vid=3f376398-b9b7-4419-aed9-9595c8c18ff6","ios":"levelo://app?vid=3f376398-b9b7-4419-aed9-9595c8c18ff6"},"vehicle_type_id":"4","last_reported":1734009682,"current_range_meters":24400,"station_id":"ce4bhph2rcd13ifvqhdg","pricing_plan_id":"cebpf4jnsgd1na2vs0mg"},{"bike_id":"a5589391-a7e4-412b-9a87-f917b2322580","system_id":"levelo_inurba_marseille","lat":43.23053,"lon":5.35489,"is_reserved":false,"is_disabled":false,"rental_uris":{"android":"levelo://app?vid=a5589391-a7e4-412b-9a87-f917b2322580","ios":"levelo://app?vid=a5589391-a7e4-412b-9a87-f917b2322580"},"vehicle_type_id":"4","last_reported":1734009682,"current_range_meters":14000,"station_id":"cpo3342slgdg3j2ifvpg","pricing_plan_id":"cebpf4jnsgd1na2vs0mg"},{"bike_id":"dc043602-1edc-4399-82bb-cf9410cad9ab","system_id":"levelo_inurba_marseille","lat":43.31274,"lon":5.40169,"is_reserved":false,"is_disabled":false,"rental_uris":{"android":"levelo://app?vid=dc043602-1edc-4399-82bb-cf9410cad9ab","ios":"levelo://app?vid=dc043602-1edc-4399-82bb-cf9410cad9ab"},"vehicle_type_id":"4","last_reported":1734009682,"current_range_meters":38800,"station_id":"ce4bh092rcd13ifvqd30","pricing_plan_id":"cebpf4jnsgd1na2vs0mg"},{"bike_id":"1ac25f57-d61f-4b3f-b565-480d33d7852d","system_id":"levelo_inurba_marseille","lat":43.29038,"lon":5.39981,"is_reserved":false,"is_disabled":true,"rental_uris":{"android":"levelo://app?vid=1ac25f57-d61f-4b3f-b565-480d33d7852d","ios":"levelo://app?vid=1ac25f57-d61f-4b3f-b565-480d33d7852d"},"vehicle_type_id":"4","last_reported":1734009682,"current_range_meters":0,"station_id":"ce4bh392rcd13ifvqdm0","pricing_plan_id":"cebpf4jnsgd1na2vs0mg"},{"bike_id":"4adbefe7-e022-4183-953c-b8d94d86066c","system_id":"levelo_inurba_marseille","lat":43.2984,"lon":5.36254,"is_reserved":false,"is_disabled":false,"rental_uris":{"android":"levelo://app?vid=4adbefe7-e022-4183-953c-b8d94d86066c","ios":"levelo://app?vid=4adbefe7-e022-4183-953c-b8d94d86066c"},"vehicle_type_id":"4","last_reported":1734009682,"current_range_meters":34000,"station_id":"ce4bgpp2rcd13ifvqc3g","pricing_plan_id":"cebpf4jnsgd1na2vs0mg"},{"bike_id":"146c18c0-2d54-4c53-8578-b97326fbb246","system_id":"levelo_inurba_marseille","lat":43.32489,"lon":5.36563,"is_reserved":false,"is_disabled":false,"rental_uris":{"android":"levelo://app?vid=146c18c0-2d54-4c53-8578-b97326fbb246","ios":"levelo://app?vid=146c18c0-2d54-4c53-8578-b97326fbb246"},"vehicle_type_id":"4","last_reported":1734009682,"current_range_meters":38800,"station_id":"ce4bhs12rcd13ifvqhvg","pricing_plan_id":"cebpf4jnsgd1na2vs0mg"},{"bike_id":"66efb656-e444-4859-a3f6-09b5953f73de","system_id":"levelo_inurba_marseille","lat":43.33733,"lon":5.37444,"is_reserved":false,"is_disabled":false,"rental_uris":{"android":"levelo://app?vid=66efb656-e444-4859-a3f6-09b5953f73de","ios":"levelo://app?vid=66efb656-e444-4859-a3f6-09b5953f73de"},"vehicle_type_id":"4","last_reported":1734009682,"current_range_meters":38800,"station_id":"","pricing_plan_id":"cebpf4jnsgd1na2vs0mg"},{"bike_id":"837ea001-3dca-43b1-bf44-3c63cdc8ec4f","system_id":"levelo_inurba_marseille","lat":43.24075,"lon":5.37751,"is_reserved":false,"is_disabled":false,"rental_uris":{"android":"levelo://app?vid=837ea001-3dca-43b1-bf44-3c63cdc8ec4f","ios":"levelo://app?vid=837ea001-3dca-43b1-bf44-3c63cdc8ec4f"},"vehicle_type_id":"4","last_reported":1734009682,"current_range_meters":39200,"station_id":"ce4bhnp2rcd13ifvqgvg","pricing_plan_id":"cebpf4jnsgd1na2vs0mg"},{"bike_id":"1edcb435-be97-41f8-aa8c-4a20808cef7c","system_id":"levelo_inurba_marseille","lat":43.26814,"lon":5.40257,"is_reserved":false,"is_disabled":false,"rental_uris":{"android":"levelo://app?vid=1edcb435-be97-41f8-aa8c-4a20808cef7c","ios":"levelo://app?vid=1edcb435-be97-41f8-aa8c-4a20808cef7c"},"vehicle_type_id":"4","last_reported":1734009682,"current_range_meters":8800,"station_id":"ce501612rcd8frsf0b60","pricing_plan_id":"cebpf4jnsgd1na2vs0mg"},{"bike_id":"10d9a998-b998-4d10-9e70-77a1ce1068b1","system_id":"levelo_inurba_marseille","lat":43.26215,"lon":5.37453,"is_reserved":false,"is_disabled":false,"rental_uris":{"android":"levelo://app?vid=10d9a998-b998-4d10-9e70-77a1ce1068b1","ios":"levelo://app?vid=10d9a998-b998-4d10-9e70-77a1ce1068b1"},"vehicle_type_id":"4","last_reported":1734009682,"current_range_meters":16400,"station_id":"ce4bhgp2rcd13ifvqfc0","pricing_plan_id":"cebpf4jnsgd1na2vs0mg"},{"bike_id":"43c11533-6c80-4707-8c5e-17176954a27e","system_id":"levelo_inurba_marseille","lat":43.26208,"lon":5.3744,"is_reserved":false,"is_disabled":false,"rental_uris":{"android":"levelo://app?vid=43c11533-6c80-4707-8c5e-17176954a27e","ios":"levelo://app?vid=43c11533-6c80-4707-8c5e-17176954a27e"},"vehicle_type_id":"4","last_reported":1734009682,"current_range_meters":32000,"station_id":"ce4bhgp2rcd13ifvqfc0","pricing_plan_id":"cebpf4jnsgd1na2vs0mg"},{"bike_id":"54238831-b2f8-4803-a465-8faa1bf52ffc","system_id":"levelo_inurba_marseille","lat":43.240858,"lon":5.377451,"is_reserved":false,"is_disabled":false,"rental_uris":{"android":"levelo://app?vid=54238831-b2f8-4803-a465-8faa1bf52ffc","ios":"levelo://app?vid=54238831-b2f8-4803-a465-8faa1bf52ffc"},"vehicle_type_id":"4","last_reported":1734009682,"current_range_meters":36800,"station_id":"ce4bhnp2rcd13ifvqgvg","pricing_plan_id":"cebpf4jnsgd1na2vs0mg"},{"bike_id":"61df4582-7c9f-489e-b7da-d6a0cfdcd7c7","system_id":"levelo_inurba_marseille","lat":43.28658,"lon":5.36354,"is_reserved":false,"is_disabled":true,"rental_uris":{"android":"levelo://app?vid=61df4582-7c9f-489e-b7da-d6a0cfdcd7c7","ios":"levelo://app?vid=61df4582-7c9f-489e-b7da-d6a0cfdcd7c7"},"vehicle_type_id":"4","last_reported":1734009682,"current_range_meters":0,"station_id":"ce4bhah2rcd13ifvqej0","pricing_plan_id":"cebpf4jnsgd1na2vs0mg"},{"bike_id":"ce2d5a89-227c-4f75-bc05-3aab94df068f","system_id":"levelo_inurba_marseille","lat":43.28929,"lon":5.36633,"is_reserved":false,"is_disabled":false,"rental_uris":{"android":"levelo://app?vid=ce2d5a89-227c-4f75-bc05-3aab94df068f","ios":"levelo://app?vid=ce2d5a89-227c-4f75-bc05-3aab94df068f"},"vehicle_type_id":"4","last_reported":1734009682,"current_range_meters":27200,"station_id":"ce4bhap2rcd13ifvqek0","pricing_plan_id":"cebpf4jnsgd1na2vs0mg"},{"bike_id":"c3a7ecdd-5659-4915-847f-1af1fee194ca","system_id":"levelo_inurba_marseille","lat":43.29843,"lon":5.36268,"is_reserved":false,"is_disabled":false,"rental_uris":{"android":"levelo://app?vid=c3a7ecdd-5659-4915-847f-1af1fee194ca","ios":"levelo://app?vid=c3a7ecdd-5659-4915-847f-1af1fee194ca"},"vehicle_type_id":"4","last_reported":1734009682,"current_range_meters":10800,"station_id":"ce4bgpp2rcd13ifvqc3g","pricing_plan_id":"cebpf4jnsgd1na2vs0mg"},{"bike_id":"ca3bf6a0-806c-4046-b219-bbea4c2ba646","system_id":"levelo_inurba_marseille","lat":43.23193,"lon":5.35555,"is_reserved":false,"is_disabled":false,"rental_uris":{"android":"levelo://app?vid=ca3bf6a0-806c-4046-b219-bbea4c2ba646","ios":"levelo://app?vid=ca3bf6a0-806c-4046-b219-bbea4c2ba646"},"vehicle_type_id":"4","last_reported":1734009682,"current_range_meters":39200,"station_id":"ce4bhu92rcd13ifvqi70","pricing_plan_id":"cebpf4jnsgd1na2vs0mg"},{"bike_id":"b2a8a79e-603a-48d9-a045-27cd420ed3c6","system_id":"levelo_inurba_marseille","lat":43.27493,"lon":5.4245,"is_reserved":false,"is_disabled":false,"rental_uris":{"android":"levelo://app?vid=b2a8a79e-603a-48d9-a045-27cd420ed3c6","ios":"levelo://app?vid=b2a8a79e-603a-48d9-a045-27cd420ed3c6"},"vehicle_type_id":"4","last_reported":1734009682,"current_range_meters":11600,"station_id":"ce4bhn92rcd13ifvqgrg","pricing_plan_id":"cebpf4jnsgd1na2vs0mg"},{"bike_id":"da88eb33-42f7-4259-87f0-28899729ee6e","system_id":"levelo_inurba_marseille","lat":43.24643,"lon":5.389,"is_reserved":false,"is_disabled":false,"rental_uris":{"android":"levelo://app?vid=da88eb33-42f7-4259-87f0-28899729ee6e","ios":"levelo://app?vid=da88eb33-42f7-4259-87f0-28899729ee6e"},"vehicle_type_id":"4","last_reported":1734009682,"current_range_meters":8000,"station_id":"ce4bhg12rcd13ifvqf60","pricing_plan_id":"cebpf4jnsgd1na2vs0mg"},{"bike_id":"46b2fdec-0870-4ae2-84dc-b1f57512351e","system_id":"levelo_inurba_marseille","lat":43.337444,"lon":5.374475,"is_reserved":false,"is_disabled":true,"rental_uris":{"android":"levelo://app?vid=46b2fdec-0870-4ae2-84dc-b1f57512351e","ios":"levelo://app?vid=46b2fdec-0870-4ae2-84dc-b1f57512351e"},"vehicle_type_id":"4","last_reported":1734009682,"current_range_meters":0,"station_id":"","pricing_plan_id":"cebpf4jnsgd1na2vs0mg"},{"bike_id":"25b7a87b-6ef3-4ca2-ba3b-6d1ad4cf5f78","system_id":"levelo_inurba_marseille","lat":43.29647,"lon":5.37754,"is_reserved":false,"is_disabled":false,"rental_uris":{"android":"levelo://app?vid=25b7a87b-6ef3-4ca2-ba3b-6d1ad4cf5f78","ios":"levelo://app?vid=25b7a87b-6ef3-4ca2-ba3b-6d1ad4cf5f78"},"vehicle_type_id":"4","last_reported":1734009682,"current_range_meters":24800,"station_id":"ce4bgkh2rcd13ifvqbl0","pricing_plan_id":"cebpf4jnsgd1na2vs0mg"},{"bike_id":"ecf2be5e-1ccd-4595-8b48-deb0a4ad0510","system_id":"levelo_inurba_marseille","lat":43.25571,"lon":5.3824,"is_reserved":false,"is_disabled":true,"rental_uris":{"android":"levelo://app?vid=ecf2be5e-1ccd-4595-8b48-deb0a4ad0510","ios":"levelo://app?vid=ecf2be5e-1ccd-4595-8b48-deb0a4ad0510"},"vehicle_type_id":"4","last_reported":1734009682,"current_range_meters":2000,"station_id":"ce4bhih2rcd13ifvqfs0","pricing_plan_id":"cebpf4jnsgd1na2vs0mg"},{"bike_id":"921af566-aac4-4310-b6a7-7318fb207e9a","system_id":"levelo_inurba_marseille","lat":43.31454,"lon":5.41471,"is_reserved":false,"is_disabled":false,"rental_uris":{"android":"levelo://app?vid=921af566-aac4-4310-b6a7-7318fb207e9a","ios":"levelo://app?vid=921af566-aac4-4310-b6a7-7318fb207e9a"},"vehicle_type_id":"4","last_reported":1734009682,"current_range_meters":37600,"station_id":"ce4bguh2rcd13ifvqcj0","pricing_plan_id":"cebpf4jnsgd1na2vs0mg"},{"bike_id":"b5cb506c-d5a2-40ca-8d90-ebc1337fb446","system_id":"levelo_inurba_marseille","lat":43.32472,"lon":5.36574,"is_reserved":false,"is_disabled":false,"rental_uris":{"android":"levelo://app?vid=b5cb506c-d5a2-40ca-8d90-ebc1337fb446","ios":"levelo://app?vid=b5cb506c-d5a2-40ca-8d90-ebc1337fb446"},"vehicle_type_id":"4","last_reported":1734009682,"current_range_meters":14000,"station_id":"ce4bhs12rcd13ifvqhvg","pricing_plan_id":"cebpf4jnsgd1na2vs0mg"},{"bike_id":"81d80ee7-c423-48f5-a3e8-ae1871b619a6","system_id":"levelo_inurba_marseille","lat":43.27492,"lon":5.42455,"is_reserved":false,"is_disabled":false,"rental_uris":{"android":"levelo://app?vid=81d80ee7-c423-48f5-a3e8-ae1871b619a6","ios":"levelo://app?vid=81d80ee7-c423-48f5-a3e8-ae1871b619a6"},"vehicle_type_id":"4","last_reported":1734009682,"current_range_meters":8000,"station_id":"ce4bhn92rcd13ifvqgrg","pricing_plan_id":"cebpf4jnsgd1na2vs0mg"},{"bike_id":"66a70beb-6bbd-458f-80ac-788d12c338b6","system_id":"levelo_inurba_marseille","lat":43.28981,"lon":5.3783,"is_reserved":false,"is_disabled":false,"rental_uris":{"android":"levelo://app?vid=66a70beb-6bbd-458f-80ac-788d12c338b6","ios":"levelo://app?vid=66a70beb-6bbd-458f-80ac-788d12c338b6"},"vehicle_type_id":"4","last_reported":1734009682,"current_range_meters":35600,"station_id":"ce4bh9p2rcd13ifvqed0","pricing_plan_id":"cebpf4jnsgd1na2vs0mg"},{"bike_id":"8cd30422-7410-4328-92ef-3aaf72ab55db","system_id":"levelo_inurba_marseille","lat":43.2558,"lon":5.38226,"is_reserved":false,"is_disabled":false,"rental_uris":{"android":"levelo://app?vid=8cd30422-7410-4328-92ef-3aaf72ab55db","ios":"levelo://app?vid=8cd30422-7410-4328-92ef-3aaf72ab55db"},"vehicle_type_id":"4","last_reported":1734009682,"current_range_meters":20000,"station_id":"ce4bhih2rcd13ifvqfs0","pricing_plan_id":"cebpf4jnsgd1na2vs0mg"},{"bike_id":"f0385955-b302-4dd5-8fa2-b704d1cf74df","system_id":"levelo_inurba_marseille","lat":43.24063,"lon":5.37761,"is_reserved":false,"is_disabled":false,"rental_uris":{"android":"levelo://app?vid=f0385955-b302-4dd5-8fa2-b704d1cf74df","ios":"levelo://app?vid=f0385955-b302-4dd5-8fa2-b704d1cf74df"},"vehicle_type_id":"4","last_reported":1734009682,"current_range_meters":38800,"station_id":"ce4bhnp2rcd13ifvqgvg","pricing_plan_id":"cebpf4jnsgd1na2vs0mg"},{"bike_id":"6b270b5b-f3e5-4c8b-be18-db56ceb21224","system_id":"levelo_inurba_marseille","lat":43.29912,"lon":5.37475,"is_reserved":false,"is_disabled":false,"rental_uris":{"android":"levelo://app?vid=6b270b5b-f3e5-4c8b-be18-db56ceb21224","ios":"levelo://app?vid=6b270b5b-f3e5-4c8b-be18-db56ceb21224"},"vehicle_type_id":"4","last_reported":1734009682,"current_range_meters":12800,"station_id":"ce4bgjh2rcd13ifvqbg0","pricing_plan_id":"cebpf4jnsgd1na2vs0mg"},{"bike_id":"c28fe883-0376-49ae-9fd8-cf0e1b5f02dc","system_id":"levelo_inurba_marseille","lat":43.29031,"lon":5.38661,"is_reserved":false,"is_disabled":false,"rental_uris":{"android":"levelo://app?vid=c28fe883-0376-49ae-9fd8-cf0e1b5f02dc","ios":"levelo://app?vid=c28fe883-0376-49ae-9fd8-cf0e1b5f02dc"},"vehicle_type_id":"4","last_reported":1734009682,"current_range_meters":34800,"station_id":"ce4bh4p2rcd13ifvqe0g","pricing_plan_id":"cebpf4jnsgd1na2vs0mg"},{"bike_id":"489ca354-9b79-4366-8398-0f3d41e32067","system_id":"levelo_inurba_marseille","lat":43.2606,"lon":5.39402,"is_reserved":false,"is_disabled":true,"rental_uris":{"android":"levelo://app?vid=489ca354-9b79-4366-8398-0f3d41e32067","ios":"levelo://app?vid=489ca354-9b79-4366-8398-0f3d41e32067"},"vehicle_type_id":"4","last_reported":1734009682,"current_range_meters":0,"station_id":"ce4bhh92rcd13ifvqfj0","pricing_plan_id":"cebpf4jnsgd1na2vs0mg"},{"bike_id":"9763c34f-c931-449c-a245-dfe0c63b961a","system_id":"levelo_inurba_marseille","lat":43.29846,"lon":5.3628,"is_reserved":false,"is_disabled":false,"rental_uris":{"android":"levelo://app?vid=9763c34f-c931-449c-a245-dfe0c63b961a","ios":"levelo://app?vid=9763c34f-c931-449c-a245-dfe0c63b961a"},"vehicle_type_id":"4","last_reported":1734009682,"current_range_meters":38000,"station_id":"ce4bgpp2rcd13ifvqc3g","pricing_plan_id":"cebpf4jnsgd1na2vs0mg"},{"bike_id":"5bcc130c-9e1a-4fa9-aa31-75f1f66e5bcc","system_id":"levelo_inurba_marseille","lat":43.30032,"lon":5.38922,"is_reserved":false,"is_disabled":false,"rental_uris":{"android":"levelo://app?vid=5bcc130c-9e1a-4fa9-aa31-75f1f66e5bcc","ios":"levelo://app?vid=5bcc130c-9e1a-4fa9-aa31-75f1f66e5bcc"},"vehicle_type_id":"4","last_reported":1734009682,"current_range_meters":38800,"station_id":"ce4bhph2rcd13ifvqheg","pricing_plan_id":"cebpf4jnsgd1na2vs0mg"},{"bike_id":"34dfbec9-d89b-40fb-be3a-d23fa857157a","system_id":"levelo_inurba_marseille","lat":43.23195,"lon":5.35566,"is_reserved":false,"is_disabled":true,"rental_uris":{"android":"levelo://app?vid=34dfbec9-d89b-40fb-be3a-d23fa857157a","ios":"levelo://app?vid=34dfbec9-d89b-40fb-be3a-d23fa857157a"},"vehicle_type_id":"4","last_reported":1734009682,"current_range_meters":26800,"station_id":"ce4bhu92rcd13ifvqi70","pricing_plan_id":"cebpf4jnsgd1na2vs0mg"},{"bike_id":"6d05f7ba-808a-4403-b1f3-f8483fec843c","system_id":"levelo_inurba_marseille","lat":43.2319,"lon":5.35558,"is_reserved":false,"is_disabled":false,"rental_uris":{"android":"levelo://app?vid=6d05f7ba-808a-4403-b1f3-f8483fec843c","ios":"levelo://app?vid=6d05f7ba-808a-4403-b1f3-f8483fec843c"},"vehicle_type_id":"4","last_reported":1734009682,"current_range_meters":31200,"station_id":"ce4bhu92rcd13ifvqi70","pricing_plan_id":"cebpf4jnsgd1na2vs0mg"},{"bike_id":"46c7a1c4-0161-440f-8b97-301f0e738b32","system_id":"levelo_inurba_marseille","lat":43.32496,"lon":5.36568,"is_reserved":false,"is_disabled":false,"rental_uris":{"android":"levelo://app?vid=46c7a1c4-0161-440f-8b97-301f0e738b32","ios":"levelo://app?vid=46c7a1c4-0161-440f-8b97-301f0e738b32"},"vehicle_type_id":"4","last_reported":1734009682,"current_range_meters":32400,"station_id":"ce4bhs12rcd13ifvqhvg","pricing_plan_id":"cebpf4jnsgd1na2vs0mg"},{"bike_id":"5b216ce0-5fe7-4327-a32a-feac1a44ddf5","system_id":"levelo_inurba_marseille","lat":43.27955,"lon":5.38696,"is_reserved":false,"is_disabled":true,"rental_uris":{"android":"levelo://app?vid=5b216ce0-5fe7-4327-a32a-feac1a44ddf5","ios":"levelo://app?vid=5b216ce0-5fe7-4327-a32a-feac1a44ddf5"},"vehicle_type_id":"4","last_reported":1734009682,"current_range_meters":27600,"station_id":"ce4bhg12rcd13ifvqf80","pricing_plan_id":"cebpf4jnsgd1na2vs0mg"},{"bike_id":"0adb0686-0fe4-4a66-87c1-12f0dc3c25e4","system_id":"levelo_inurba_marseille","lat":43.27487,"lon":5.42443,"is_reserved":false,"is_disabled":false,"rental_uris":{"android":"levelo://app?vid=0adb0686-0fe4-4a66-87c1-12f0dc3c25e4","ios":"levelo://app?vid=0adb0686-0fe4-4a66-87c1-12f0dc3c25e4"},"vehicle_type_id":"4","last_reported":1734009682,"current_range_meters":17600,"station_id":"ce4bhn92rcd13ifvqgrg","pricing_plan_id":"cebpf4jnsgd1na2vs0mg"},{"bike_id":"f5089d46-fd84-4b59-947f-734dfd999fac","system_id":"levelo_inurba_marseille","lat":43.27895,"lon":5.38019,"is_reserved":false,"is_disabled":false,"rental_uris":{"android":"levelo://app?vid=f5089d46-fd84-4b59-947f-734dfd999fac","ios":"levelo://app?vid=f5089d46-fd84-4b59-947f-734dfd999fac"},"vehicle_type_id":"4","last_reported":1734009682,"current_range_meters":3600,"station_id":"ce4bhf92rcd13ifvqf50","pricing_plan_id":"cebpf4jnsgd1na2vs0mg"},{"bike_id":"975c8998-8848-43f9-ab61-fd825e1d3481","system_id":"levelo_inurba_marseille","lat":43.24183,"lon":5.39709,"is_reserved":false,"is_disabled":false,"rental_uris":{"android":"levelo://app?vid=975c8998-8848-43f9-ab61-fd825e1d3481","ios":"levelo://app?vid=975c8998-8848-43f9-ab61-fd825e1d3481"},"vehicle_type_id":"4","last_reported":1734009682,"current_range_meters":23200,"station_id":"ce4bhn12rcd13ifvqgpg","pricing_plan_id":"cebpf4jnsgd1na2vs0mg"},{"bike_id":"7edefaaa-d2e0-44ba-a5cc-d77ca2f4e490","system_id":"levelo_inurba_marseille","lat":43.25497,"lon":5.37652,"is_reserved":false,"is_disabled":false,"rental_uris":{"android":"levelo://app?vid=7edefaaa-d2e0-44ba-a5cc-d77ca2f4e490","ios":"levelo://app?vid=7edefaaa-d2e0-44ba-a5cc-d77ca2f4e490"},"vehicle_type_id":"4","last_reported":1734009682,"current_range_meters":18800,"station_id":"ce4bhh12rcd13ifvqff0","pricing_plan_id":"cebpf4jnsgd1na2vs0mg"},