{"last_updated":1726870149,"ttl":30,"version":"2.2","data":{"bikes":[{"bike_id":"e456e9a1-a21c-4893-860d-f764e1ac88c2","system_id":"levelo_inurba_marseille","lat":43.28851,"lon":5.39319,"is_reserved":false,"is_disabled":false,"rental_uris":{"android":"levelo://app?vid=e456e9a1-a21c-4893-860d-f764e1ac88c2","ios":"levelo://app?vid=e456e9a1-a21c-4893-860d-f764e1ac88c2"},"vehicle_type_id":"4","last_reported":1726870149,"current_range_meters":12400,"station_id":"ce4bh2p2rcd13ifvqdi0","pricing_plan_id":"cebpf4jnsgd1na2vs0mg"},{"bike_id":"a598a873-e0ad-4a34-a72e-299ca07dec27","system_id":"levelo_inurba_marseille","lat":43.29199,"lon":5.39323,"is_reserved":false,"is_disabled":false,"rental_uris":{"android":"levelo://app?vid=a598a873-e0ad-4a34-a72e-299ca07dec27","ios":"levelo://app?vid=a598a873-e0ad-4a34-a72e-299ca07dec27"},"vehicle_type_id":"4","last_reported":1726870149,"current_range_meters":38800,"station_id":"ce4bh192rcd13ifvqdd0","pricing_plan_id":"cebpf4jnsgd1na2vs0mg"},{"bike_id":"0e50a370-187b-424a-adb2-8a8d28ba79d7","system_id":"levelo_inurba_marseille","lat":43.28459,"lon":5.35883,"is_reserved":false,"is_disabled":false,"rental_uris":{"android":"levelo://app?vid=0e50a370-187b-424a-adb2-8a8d28ba79d7","ios":"levelo://app?vid=0e50a370-187b-424a-adb2-8a8d28ba79d7"},"vehicle_type_id":"4","last_reported":1726870149,"current_range_meters":3200,"station_id":"ce4bhah2rcd13ifvqei0","pricing_plan_id":"cebpf4jnsgd1na2vs0mg"},{"bike_id":"dff16c5b-56b8-478f-a92d-30c2a7cb595a","system_id":"levelo_inurba_marseille","lat":43.24815,"lon":5.37453,"is_reserved":false,"is_disabled":false,"rental_uris":{"android":"levelo://app?vid=dff16c5b-56b8-478f-a92d-30c2a7cb595a","ios":"levelo://app?vid=dff16c5b-56b8-478f-a92d-30c2a7cb595a"},"vehicle_type_id":"4","last_reported":1726870149,"current_range_meters":38800,"station_id":"ce4bhgh2rcd13ifvqfb0","pricing_plan_id":"cebpf4jnsgd1na2vs0mg"},{"bike_id":"caeb01e1-f6ca-4785-8d66-d5a031a43aa7","system_id":"levelo_inurba_marseille","lat":43.25095,"lon":5.39517,"is_reserved":false,"is_disabled":false,"rental_uris":{"android":"levelo://app?vid=caeb01e1-f6ca-4785-8d66-d5a031a43aa7","ios":"levelo://app?vid=caeb01e1-f6ca-4785-8d66-d5a031a43aa7"},"vehicle_type_id":"4","last_reported":1726870149,"current_range_meters":35200,"station_id":"ce4bhm12rcd13ifvqgkg","pricing_plan_id":"cebpf4jnsgd1na2vs0mg"},{"bike_id":"f6ef3552-3f9a-4d61-acb2-a4d0e1d60976","system_id":"levelo_inurba_marseille","lat":43.30938,"lon":5.40144,"is_reserved":false,"is_disabled":false,"rental_uris":{"android":"levelo://app?vid=f6ef3552-3f9a-4d61-acb2-a4d0e1d60976","ios":"levelo://app?vid=f6ef3552-3f9a-4d61-acb2-a4d0e1d60976"},"vehicle_type_id":"4","last_reported":1726870149,"current_range_meters":21600,"station_id":"ce4bgvp2rcd13ifvqct0","pricing_plan_id":"cebpf4jnsgd1na2vs0mg"},{"bike_id":"ce176230-2a5f-4ff6-b56e-d284477422aa","system_id":"levelo_inurba_marseille","lat":43.3108,"lon":5.38366,"is_reserved":false,"is_disabled":false,"rental_uris":{"android":"levelo://app?vid=ce176230-2a5f-4ff6-b56e-d284477422aa","ios":"levelo://app?vid=ce176230-2a5f-4ff6-b56e-d284477422aa"},"vehicle_type_id":"4","last_reported":1726870149,"current_range_meters":36000,"station_id":"ce4bgv92rcd13ifvqcr0","pricing_plan_id":"cebpf4jnsgd1na2vs0mg"},{"bike_id":"9709b754-0f7e-4cdd-828f-ce7d6859c431","system_id":"levelo_inurba_marseille","lat":43.292511,"lon":5.408903,"is_reserved":false,"is_disabled":false,"rental_uris":{"android":"levelo://app?vid=9709b754-0f7e-4cdd-828f-ce7d6859c431","ios":"levelo://app?vid=9709b754-0f7e-4cdd-828f-ce7d6859c431"},"vehicle_type_id":"4","last_reported":1726870149,"current_range_meters":4400,"station_id":"ce4bh192rcd13ifvqdc0","pricing_plan_id":"cebpf4jnsgd1na2vs0mg"},{"bike_id":"29a309a6-8c1d-4926-ba40-75d113e3ecba","system_id":"levelo_inurba_marseille","lat":43.255809,"lon":5.382234,"is_reserved":false,"is_disabled":false,"rental_uris":{"android":"levelo://app?vid=29a309a6-8c1d-4926-ba40-75d113e3ecba","ios":"levelo://app?vid=29a309a6-8c1d-4926-ba40-75d113e3ecba"},"vehicle_type_id":"4","last_reported":1726870149,"current_range_meters":34000,"station_id":"ce4bhih2rcd13ifvqfs0","pricing_plan_id":"cebpf4jnsgd1na2vs0mg"},{"bike_id":"e24ec35c-a6fd-4e4d-86e7-6c421a88fb24","system_id":"levelo_inurba_marseille","lat":43.28108,"lon":5.37839,"is_reserved":false,"is_disabled":false,"rental_uris":{"android":"levelo://app?vid=e24ec35c-a6fd-4e4d-86e7-6c421a88fb24","ios":"levelo://app?vid=e24ec35c-a6fd-4e4d-86e7-6c421a88fb24"},"vehicle_type_id":"4","last_reported":1726870149,"current_range_meters":38400,"station_id":"ce4bha12rcd13ifvqee0","pricing_plan_id":"cebpf4jnsgd1na2vs0mg"},{"bike_id":"e92c158d-8d9c-42c7-82c9-78a8f97857f7","system_id":"levelo_inurba_marseille","lat":43.30779,"lon":5.37652,"is_reserved":false,"is_disabled":false,"rental_uris":{"android":"levelo://app?vid=e92c158d-8d9c-42c7-82c9-78a8f97857f7","ios":"levelo://app?vid=e92c158d-8d9c-42c7-82c9-78a8f97857f7"},"vehicle_type_id":"4","last_reported":1726870149,"current_range_meters":27200,"station_id":"ce4bgv92rcd13ifvqcq0","pricing_plan_id":"cebpf4jnsgd1na2vs0mg"},{"bike_id":"9e6c2238-5a95-4ae7-9356-428e53434ca9","system_id":"levelo_inurba_marseille","lat":43.26566,"lon":5.38997,"is_reserved":false,"is_disabled":false,"rental_uris":{"android":"levelo://app?vid=9e6c2238-5a95-4ae7-9356-428e53434ca9","ios":"levelo://app?vid=9e6c2238-5a95-4ae7-9356-428e53434ca9"},"vehicle_type_id":"4","last_reported":1726870149,"current_range_meters":34800,"station_id":"ce4bhe12rcd13ifvqf30","pricing_plan_id":"cebpf4jnsgd1na2vs0mg"},{"bike_id":"d2117dbc-82f6-4573-b901-959df1836ef1","system_id":"levelo_inurba_marseille","lat":43.31166,"lon":5.38713,"is_reserved":false,"is_disabled":false,"rental_uris":{"android":"levelo://app?vid=d2117dbc-82f6-4573-b901-959df1836ef1","ios":"levelo://app?vid=d2117dbc-82f6-4573-b901-959df1836ef1"},"vehicle_type_id":"4","last_reported":1726870149,"current_range_meters":3600,"station_id":"ce4bgv12rcd13ifvqcp0","pricing_plan_id":"cebpf4jnsgd1na2vs0mg"},{"bike_id":"3fad8533-0341-469f-8cac-7801c9551436","system_id":"levelo_inurba_marseille","lat":43.34137,"lon":5.40906,"is_reserved":false,"is_disabled":false,"rental_uris":{"android":"levelo://app?vid=3fad8533-0341-469f-8cac-7801c9551436","ios":"levelo://app?vid=3fad8533-0341-469f-8cac-7801c9551436"},"vehicle_type_id":"4","last_reported":1726870149,"current_range_meters":9600,"station_id":"ce4bhqh2rcd13ifvqhlg","pricing_plan_id":"cebpf4jnsgd1na2vs0mg"},{"bike_id":"baf7e838-f71c-4d97-97d1-0759c074a42c","system_id":"levelo_inurba_marseille","lat":43.28524,"lon":5.38031,"is_reserved":false,"is_disabled":false,"rental_uris":{"android":"levelo://app?vid=baf7e838-f71c-4d97-97d1-0759c074a42c","ios":"levelo://app?vid=baf7e838-f71c-4d97-97d1-0759c074a42c"},"vehicle_type_id":"4","last_reported":1726870149,"current_range_meters":32400,"station_id":"ce4bh412rcd13ifvqdr0","pricing_plan_id":"cebpf4jnsgd1na2vs0mg"},{"bike_id":"07ff81f6-60f9-4fdf-870d-4e8fbbcace17","system_id":"levelo_inurba_marseille","lat":43.31238,"lon":5.36843,"is_reserved":false,"is_disabled":false,"rental_uris":{"android":"levelo://app?vid=07ff81f6-60f9-4fdf-870d-4e8fbbcace17","ios":"levelo://app?vid=07ff81f6-60f9-4fdf-870d-4e8fbbcace17"},"vehicle_type_id":"4","last_reported":1726870149,"current_range_meters":20400,"station_id":"ce4bgl92rcd13ifvqbq0","pricing_plan_id":"cebpf4jnsgd1na2vs0mg"},{"bike_id":"df5e993e-296b-4f33-baf5-eb5fbb9ac75e","system_id":"levelo_inurba_marseille","lat":43.30421,"lon":5.41289,"is_reserved":false,"is_disabled":false,"rental_uris":{"android":"levelo://app?vid=df5e993e-296b-4f33-baf5-eb5fbb9ac75e","ios":"levelo://app?vid=df5e993e-296b-4f33-baf5-eb5fbb9ac75e"},"vehicle_type_id":"4","last_reported":1726870149,"current_range_meters":38800,"station_id":"ce4bhop2rcd13ifvqh8g","pricing_plan_id":"cebpf4jnsgd1na2vs0mg"},{"bike_id":"88aef844-3d5d-4355-afa4-98056f2807be","system_id":"levelo_inurba_marseille","lat":43.32648,"lon":5.41012,"is_reserved":false,"is_disabled":false,"rental_uris":{"android":"levelo://app?vid=88aef844-3d5d-4355-afa4-98056f2807be","ios":"levelo://app?vid=88aef844-3d5d-4355-afa4-98056f2807be"},"vehicle_type_id":"4","last_reported":1726870149,"current_range_meters":4400,"station_id":"ce4bhpp2rcd13ifvqhgg","pricing_plan_id":"cebpf4jnsgd1na2vs0mg"},{"bike_id":"75b9a238-0902-4923-870c-463b74d203bd","system_id":"levelo_inurba_marseille","lat":43.24664,"lon":5.38173,"is_reserved":false,"is_disabled":false,"rental_uris":{"android":"levelo://app?vid=75b9a238-0902-4923-870c-463b74d203bd","ios":"levelo://app?vid=75b9a238-0902-4923-870c-463b74d203bd"},"vehicle_type_id":"4","last_reported":1726870149,"current_range_meters":38800,"station_id":"ce4bhih2rcd13ifvqfr0","pricing_plan_id":"cebpf4jnsgd1na2vs0mg"},{"bike_id":"3cea86a1-9a58-478d-b244-957f4139aef0","system_id":"levelo_inurba_marseille","lat":43.33603,"lon":5.41035,"is_reserved":false,"is_disabled":false,"rental_uris":{"android":"levelo://app?vid=3cea86a1-9a58-478d-b244-957f4139aef0","ios":"levelo://app?vid=3cea86a1-9a58-478d-b244-957f4139aef0"},"vehicle_type_id":"4","last_reported":1726870149,"current_range_meters":28400,"station_id":"ce4bhqh2rcd13ifvqhmg","pricing_plan_id":"cebpf4jnsgd1na2vs0mg"},{"bike_id":"afefdc90-eb49-4cee-bc7c-137aa2ffd90a","system_id":"levelo_inurba_marseille","lat":43.28707,"lon":5.39984,"is_reserved":false,"is_disabled":false,"rental_uris":{"android":"levelo://app?vid=afefdc90-eb49-4cee-bc7c-137aa2ffd90a","ios":"levelo://app?vid=afefdc90-eb49-4cee-bc7c-137aa2ffd90a"},"vehicle_type_id":"4","last_reported":1726870149,"current_range_meters":38800,"station_id":"ce4bho92rcd13ifvqh3g","pricing_plan_id":"cebpf4jnsgd1na2vs0mg"},{"bike_id":"7f78d056-c97b-4db3-8458-15db8bdcc510","system_id":"levelo_inurba_marseille","lat":43.276868,"lon":5.388851,"is_reserved":false,"is_disabled":false,"rental_uris":{"android":"levelo://app?vid=7f78d056-c97b-4db3-8458-15db8bdcc510","ios":"levelo://app?vid=7f78d056-c97b-4db3-8458-15db8bdcc510"},"vehicle_type_id":"4","last_reported":1726870149,"current_range_meters":10000,"station_id":"ce4bhi12rcd13ifvqfo0","pricing_plan_id":"cebpf4jnsgd1na2vs0mg"},{"bike_id":"257a419d-0eb9-4304-bf32-b7ae767798e2","system_id":"levelo_inurba_marseille","lat":43.28699,"lon":5.39984,"is_reserved":false,"is_disabled":false,"rental_uris":{"android":"levelo://app?vid=257a419d-0eb9-4304-bf32-b7ae767798e2","ios":"levelo://app?vid=257a419d-0eb9-4304-bf32-b7ae767798e2"},"vehicle_type_id":"4","last_reported":1726870149,"current_range_meters":6800,"station_id":"ce4bho92rcd13ifvqh3g","pricing_plan_id":"cebpf4jnsgd1na2vs0mg"},{"bike_id":"a041fa7d-8754-4d51-a6e2-ce66688c9987","system_id":"levelo_inurba_marseille","lat":43.30884,"lon":5.39626,"is_reserved":false,"is_disabled":false,"rental_uris":{"android":"levelo://app?vid=a041fa7d-8754-4d51-a6e2-ce66688c9987","ios":"levelo://app?vid=a041fa7d-8754-4d51-a6e2-ce66688c9987"},"vehicle_type_id":"4","last_reported":1726870149,"current_range_meters":38800,"station_id":"ce4bh012rcd13ifvqcv0","pricing_plan_id":"cebpf4jnsgd1na2vs0mg"},{"bike_id":"548ff5e8-4be6-4fa2-b210-beb1ef8053de","system_id":"levelo_inurba_marseille","lat":43.33024,"lon":5.39041,"is_reserved":false,"is_disabled":false,"rental_uris":{"android":"levelo://app?vid=548ff5e8-4be6-4fa2-b210-beb1ef8053de","ios":"levelo://app?vid=548ff5e8-4be6-4fa2-b210-beb1ef8053de"},"vehicle_type_id":"4","last_reported":1726870149,"current_range_meters":19600,"station_id":"ce4bhr92rcd13ifvqhrg","pricing_plan_id":"cebpf4jnsgd1na2vs0mg"},{"bike_id":"41a2b490-767a-4eef-80db-88a86b57be07","system_id":"levelo_inurba_marseille","lat":43.30879,"lon":5.39618,"is_reserved":false,"is_disabled":false,"rental_uris":{"android":"levelo://app?vid=41a2b490-767a-4eef-80db-88a86b57be07","ios":"levelo://app?vid=41a2b490-767a-4eef-80db-88a86b57be07"},"vehicle_type_id":"4","last_reported":1726870149,"current_range_meters":25200,"station_id":"ce4bh012rcd13ifvqcv0","pricing_plan_id":"cebpf4jnsgd1na2vs0mg"},{"bike_id":"e270d785-ab1e-40bd-b3e6-45842ab9ef05","system_id":"levelo_inurba_marseille","lat":43.308,"lon":5.43522,"is_reserved":false,"is_disabled":false,"rental_uris":{"android":"levelo://app?vid=e270d785-ab1e-40bd-b3e6-45842ab9ef05","ios":"levelo://app?vid=e270d785-ab1e-40bd-b3e6-45842ab9ef05"},"vehicle_type_id":"4","last_reported":1726870149,"current_range_meters":25200,"station_id":"ce4bhph2rcd13ifvqheg","pricing_plan_id":"cebpf4jnsgd1na2vs0mg"},{"bike_id":"ee7da271-2586-49b9-8b27-7c1d2ffc4c67","system_id":"levelo_inurba_marseille","lat":43.251263,"lon":5.403309,"is_reserved":false,"is_disabled":false,"rental_uris":{"android":"levelo://app?vid=ee7da271-2586-49b9-8b27-7c1d2ffc4c67","ios":"levelo://app?vid=ee7da271-2586-49b9-8b27-7c1d2ffc4c67"},"vehicle_type_id":"4","last_reported":1726870149,"current_range_meters":28400,"station_id":"ce4bhlh2rcd13ifvqgig","pricing_plan_id":"cebpf4jnsgd1na2vs0mg"},{"bike_id":"acfd38db-e93b-4b83-9afa-11e828273dc3","system_id":"levelo_inurba_marseille","lat":43.33022,"lon":5.39038,"is_reserved":false,"is_disabled":false,"rental_uris":{"android":"levelo://app?vid=acfd38db-e93b-4b83-9afa-11e828273dc3","ios":"levelo://app?vid=acfd38db-e93b-4b83-9afa-11e828273dc3"},"vehicle_type_id":"4","last_reported":1726870149,"current_range_meters":6000,"station_id":"ce4bhr92rcd13ifvqhrg","pricing_plan_id":"cebpf4jnsgd1na2vs0mg"},{"bike_id":"623ee25c-f144-46b3-bd82-56684c4bf3c2","system_id":"levelo_inurba_marseille","lat":43.29205,"lon":5.3933,"is_reserved":false,"is_disabled":false,"rental_uris":{"android":"levelo://app?vid=623ee25c-f144-46b3-bd82-56684c4bf3c2","ios":"levelo://app?vid=623ee25c-f144-46b3-bd82-56684c4bf3c2"},"vehicle_type_id":"4","last_reported":1726870149,"current_range_meters":19200,"station_id":"ce4bh192rcd13ifvqdd0","pricing_plan_id":"cebpf4jnsgd1na2vs0mg"},{"bike_id":"bf6a0df4-e95b-4dae-8389-1b46575b78e1","system_id":"levelo_inurba_marseille","lat":43.29262,"lon":5.38439,"is_reserved":false,"is_disabled":false,"rental_uris":{"android":"levelo://app?vid=bf6a0df4-e95b-4dae-8389-1b46575b78e1","ios":"levelo://app?vid=bf6a0df4-e95b-4dae-8389-1b46575b78e1"},"vehicle_type_id":"4","last_reported":1726870149,"current_range_meters":38800,"station_id":"ce4bh692rcd13ifvqea0","pricing_plan_id":"cebpf4jnsgd1na2vs0mg"},{"bike_id":"dcae2268-a29f-4f09-9355-c9605b71386d","system_id":"levelo_inurba_marseille","lat":43.3133,"lon":5.39694,"is_reserved":false,"is_disabled":false,"rental_uris":{"android":"levelo://app?vid=dcae2268-a29f-4f09-9355-c9605b71386d","ios":"levelo://app?vid=dcae2268-a29f-4f09-9355-c9605b71386d"},"vehicle_type_id":"4","last_reported":1726870149,"current_range_meters":8400,"station_id":"ce4bgvp2rcd13ifvqcu0","pricing_plan_id":"cebpf4jnsgd1na2vs0mg"},{"bike_id":"abf935c5-7318-4f2d-a490-e6519bd242b9","system_id":"levelo_inurba_marseille","lat":43.2871,"lon":5.37374,"is_reserved":false,"is_disabled":false,"rental_uris":{"android":"levelo://app?vid=abf935c5-7318-4f2d-a490-e6519bd242b9","ios":"levelo://app?vid=abf935c5-7318-4f2d-a490-e6519bd242b9"},"vehicle_type_id":"4","last_reported":1726870149,"current_range_meters":38800,"station_id":"ce4bh3p2rcd13ifvqdq0","pricing_plan_id":"cebpf4jnsgd1na2vs0mg"},{"bike_id":"2e500453-4f8f-49e2-8bf2-b2eee74029b8","system_id":"levelo_inurba_marseille","lat":43.29266,"lon":5.40119,"is_reserved":false,"is_disabled":false,"rental_uris":{"android":"levelo://app?vid=2e500453-4f8f-49e2-8bf2-b2eee74029b8","ios":"levelo://app?vid=2e500453-4f8f-49e2-8bf2-b2eee74029b8"},"vehicle_type_id":"4","last_reported":1726870149,"current_range_meters":36800,"station_id":"ce4bh312rcd13ifvqdk0","pricing_plan_id":"cebpf4jnsgd1na2vs0mg"},{"bike_id":"8599327e-7a38-42cc-bae8-5460e681ba0a","system_id":"levelo_inurba_marseille","lat":43.31754,"lon":5.39022,"is_reserved":false,"is_disabled":false,"rental_uris":{"android":"levelo://app?vid=8599327e-7a38-42cc-bae8-5460e681ba0a","ios":"levelo://app?vid=8599327e-7a38-42cc-bae8-5460e681ba0a"},"vehicle_type_id":"4","last_reported":1726870149,"current_range_meters":38800,"station_id":"ce4bhqp2rcd13ifvqhng","pricing_plan_id":"cebpf4jnsgd1na2vs0mg"},{"bike_id":"43de7968-9f6a-472f-a102-3bf7ace8222f","system_id":"levelo_inurba_marseille","lat":43.29092,"lon":5.38123,"is_reserved":false,"is_disabled":false,"rental_uris":{"android":"levelo://app?vid=43de7968-9f6a-472f-a102-3bf7ace8222f","ios":"levelo://app?vid=43de7968-9f6a-472f-a102-3bf7ace8222f"},"vehicle_type_id":"4","last_reported":1726870149,"current_range_meters":32000,"station_id":"ce4bh512rcd13ifvqe2g","pricing_plan_id":"cebpf4jnsgd1na2vs0mg"},{"bike_id":"2a7db943-6265-4479-9604-043d344eb7a6","system_id":"levelo_inurba_marseille","lat":43.30284,"lon":5.38385,"is_reserved":false,"is_disabled":false,"rental_uris":{"android":"levelo://app?vid=2a7db943-6265-4479-9604-043d344eb7a6","ios":"levelo://app?vid=2a7db943-6265-4479-9604-043d344eb7a6"},"vehicle_type_id":"4","last_reported":1726870149,"current_range_meters":26000,"station_id":"","pricing_plan_id":"cebpf4jnsgd1na2vs0mg"},{"bike_id":"4e90b222-a374-40ed-b917-94f66b555d35","system_id":"levelo_inurba_marseille","lat":43.30131,"lon":5.38771,"is_reserved":false,"is_disabled":false,"rental_uris":{"android":"levelo://app?vid=4e90b222-a374-40ed-b917-94f66b555d35","ios":"levelo://app?vid=4e90b222-a374-40ed-b917-94f66b555d35"},"vehicle_type_id":"4","last_reported":1726870149,"current_range_meters":36800,"station_id":"ce4bghh2rcd13ifvqb60","pricing_plan_id":"cebpf4jnsgd1na2vs0mg"},{"bike_id":"1ac0a20c-401d-4777-af73-d334affd0e09","system_id":"levelo_inurba_marseille","lat":43.2509,"lon":5.39513,"is_reserved":false,"is_disabled":false,"rental_uris":{"android":"levelo://app?vid=1ac0a20c-401d-4777-af73-d334affd0e09","ios":"levelo://app?vid=1ac0a20c-401d-4777-af73-d334affd0e09"},"vehicle_type_id":"4","last_reported":1726870149,"current_range_meters":38800,"station_id":"ce4bhm12rcd13ifvqgkg","pricing_plan_id":"cebpf4jnsgd1na2vs0mg"},{"bike_id":"b8afe22f-c0f3-483c-bb5f-6071483e5e25","system_id":"levelo_inurba_marseille","lat":43.25937,"lon":5.40906,"is_reserved":false,"is_disabled":false,"rental_uris":{"android":"levelo://app?vid=b8afe22f-c0f3-483c-bb5f-6071483e5e25","ios":"levelo://app?vid=b8afe22f-c0f3-483c-bb5f-6071483e5e25"},"vehicle_type_id":"4","last_reported":1726870149,"current_range_meters":35200,"station_id":"ce4bhm92rcd13ifvqglg","pricing_plan_id":"cebpf4jnsgd1na2vs0mg"},{"bike_id":"eae22445-66f4-4e82-8318-693700106395","system_id":"levelo_inurba_marseille","lat":43.30839,"lon":5.38861,"is_reserved":false,"is_disabled":false,"rental_uris":{"android":"levelo://app?vid=eae22445-66f4-4e82-8318-693700106395","ios":"levelo://app?vid=eae22445-66f4-4e82-8318-693700106395"},"vehicle_type_id":"4","last_reported":1726870149,"current_range_meters":35200,"station_id":"ce4bgup2rcd13ifvqco0","pricing_plan_id":"cebpf4jnsgd1na2vs0mg"},{"bike_id":"b8c4fb30-143a-40da-a94d-ac106aff7dd4","system_id":"levelo_inurba_marseille","lat":43.31276,"lon":5.40169,"is_reserved":false,"is_disabled":false,"rental_uris":{"android":"levelo://app?vid=b8c4fb30-143a-40da-a94d-ac106aff7dd4","ios":"levelo://app?vid=b8c4fb30-143a-40da-a94d-ac106aff7dd4"},"vehicle_type_id":"4","last_reported":1726870149,"current_range_meters":8000,"station_id":"ce4bh092rcd13ifvqd30","pricing_plan_id":"cebpf4jnsgd1na2vs0mg"},{"bike_id":"edfb1ff5-b81b-4225-8da9-100a9115b1e3","system_id":"levelo_inurba_marseille","lat":43.29735,"lon":5.36561,"is_reserved":false,"is_disabled":false,"rental_uris":{"android":"levelo://app?vid=edfb1ff5-b81b-4225-8da9-100a9115b1e3","ios":"levelo://app?vid=edfb1ff5-b81b-4225-8da9-100a9115b1e3"},"vehicle_type_id":"4","last_reported":1726870149,"current_range_meters":11200,"station_id":"","pricing_plan_id":"cebpf4jnsgd1na2vs0mg"},{"bike_id":"4538c702-8de4-4b33-9ab0-2b4d17415cc2","system_id":"levelo_inurba_marseille","lat":43.24807,"lon":5.37454,"is_reserved":false,"is_disabled":false,"rental_uris":{"android":"levelo://app?vid=4538c702-8de4-4b33-9ab0-2b4d17415cc2","ios":"levelo://app?vid=4538c702-8de4-4b33-9ab0-2b4d17415cc2"},"vehicle_type_id":"4","last_reported":1726870149,"current_range_meters":19200,"station_id":"ce4bhgh2rcd13ifvqfb0","pricing_plan_id":"cebpf4jnsgd1na2vs0mg"},{"bike_id":"0df805ca-5348-4169-979d-f0b036f1fe02","system_id":"levelo_inurba_marseille","lat":43.31997,"lon":5.38154,"is_reserved":false,"is_disabled":false,"rental_uris":{"android":"levelo://app?vid=0df805ca-5348-4169-979d-f0b036f1fe02","ios":"levelo://app?vid=0df805ca-5348-4169-979d-f0b036f1fe02"},"vehicle_type_id":"4","last_reported":1726870149,"current_range_meters":21600,"station_id":"ce4bhr12rcd13ifvqhpg","pricing_plan_id":"cebpf4jnsgd1na2vs0mg"},{"bike_id":"9b593e1a-bf66-49e3-9157-adba3e02bd78","system_id":"levelo_inurba_marseille","lat":43.30115,"lon":5.39176,"is_reserved":false,"is_disabled":false,"rental_uris":{"android":"levelo://app?vid=9b593e1a-bf66-49e3-9157-adba3e02bd78","ios":"levelo://app?vid=9b593e1a-bf66-49e3-9157-adba3e02bd78"},"vehicle_type_id":"4","last_reported":1726870149,"current_range_meters":25200,"station_id":"","pricing_plan_id":"cebpf4jnsgd1na2vs0mg"},{"bike_id":"fa717f70-dc76-4ee0-9fbc-6be1c45dddd8","system_id":"levelo_inurba_marseille","lat":43.28271,"lon":5.35058,"is_reserved":false,"is_disabled":false,"rental_uris":{"android":"levelo://app?vid=fa717f70-dc76-4ee0-9fbc-6be1c45dddd8","ios":"levelo://app?vid=fa717f70-dc76-4ee0-9fbc-6be1c45dddd8"},"vehicle_type_id":"4","last_reported":1726870149,"current_range_meters":25200,"station_id":"ce4bhbp2rcd13ifvqerg","pricing_plan_id":"cebpf4jnsgd1na2vs0mg"},{"bike_id":"a46f474a-57e8-44f2-96d1-7f0a8dde5b54","system_id":"levelo_inurba_marseille","lat":43.24078,"lon":5.37762,"is_reserved":false,"is_disabled":false,"rental_uris":{"android":"levelo://app?vid=a46f474a-57e8-44f2-96d1-7f0a8dde5b54","ios":"levelo://app?vid=a46f474a-57e8-44f2-96d1-7f0a8dde5b54"},"vehicle_type_id":"4","last_reported":1726870149,"current_range_meters":37600,"station_id":"ce4bhnp2rcd13ifvqgvg","pricing_plan_id":"cebpf4jnsgd1na2vs0mg"},{"bike_id":"c47aba76-dd8d-4b6e-9b2b-3c45cf9e5115","system_id":"levelo_inurba_marseille","lat":43.31075,"lon":5.38359,"is_reserved":false,"is_disabled":false,"rental_uris":{"android":"levelo://app?vid=c47aba76-dd8d-4b6e-9b2b-3c45cf9e5115","ios":"levelo://app?vid=c47aba76-dd8d-4b6e-9b2b-3c45cf9e5115"},"vehicle_type_id":"4","last_reported":1726870149,"current_range_meters":26800,"station_id":"ce4bgv92rcd13ifvqcr0","pricing_plan_id":"cebpf4jnsgd1na2vs0mg"},{"bike_id":"e4cd288b-58e9-4c73-81ff-0e54d332441e","system_id":"levelo_inurba_marseille","lat":43.33029,"lon":5.39039,"is_reserved":false,"is_disabled":false,"rental_uris":{"android":"levelo://app?vid=e4cd288b-58e9-4c73-81ff-0e54d332441e","ios":"levelo://app?vid=e4cd288b-58e9-4c73-81ff-0e54d332441e"},"vehicle_type_id":"4","last_reported":1726870149,"current_range_meters":19200,"station_id":"ce4bhr92rcd13ifvqhrg","pricing_plan_id":"cebpf4jnsgd1na2vs0mg"},{"bike_id":"72964c67-6aed-4707-911d-186df8a12b64","system_id":"levelo_inurba_marseille","lat":43.3234,"lon":5.4062,"is_reserved":false,"is_disabled":false,"rental_uris":{"android":"levelo://app?vid=72964c67-6aed-4707-911d-186df8a12b64","ios":"levelo://app?vid=72964c67-6aed-4707-911d-186df8a12b64"},"vehicle_type_id":"4","last_reported":1726870149,"current_range_meters":39200,"station_id":"ce4bhq92rcd13ifvqhjg","pricing_plan_id":"cebpf4jnsgd1na2vs0mg"},{"bike_id":"b4d8cc2f-08fa-447c-98aa-3fb508700768","system_id":"levelo_inurba_marseille","lat":43.2896,"lon":5.35778,"is_reserved":false,"is_disabled":false,"rental_uris":{"android":"levelo://app?vid=b4d8cc2f-08fa-447c-98aa-3fb508700768","ios":"levelo://app?vid=b4d8cc2f-08fa-447c-98aa-3fb508700768"},"vehicle_type_id":"4","last_reported":1726870149,"current_range_meters":7200,"station_id":"","pricing_plan_id":"cebpf4jnsgd1na2vs0mg"},{"bike_id":"f21eab61-d138-4b2f-83ff-2d501b8fe47e","system_id":"levelo_inurba_marseille","lat":43.27495,"lon":5.42444,"is_reserved":false,"is_disabled":false,"rental_uris":{"android":"levelo://app?vid=f21eab61-d138-4b2f-83ff-2d501b8fe47e","ios":"levelo://app?vid=f21eab61-d138-4b2f-83ff-2d501b8fe47e"},"vehicle_type_id":"4","last_reported":1726870149,"current_range_meters":18800,"station_id":"ce4bhn92rcd13ifvqgrg","pricing_plan_id":"cebpf4jnsgd1na2vs0mg"},{"bike_id":"53b0d88c-3ddb-4e2e-a1d5-9ea3b0a5c6d1","system_id":"levelo_inurba_marseille","lat":43.31328,"lon":5.39702,"is_reserved":false,"is_disabled":false,"rental_uris":{"android":"levelo://app?vid=53b0d88c-3ddb-4e2e-a1d5-9ea3b0a5c6d1","ios":"levelo://app?vid=53b0d88c-3ddb-4e2e-a1d5-9ea3b0a5c6d1"},"vehicle_type_id":"4","last_reported":1726870149,"current_range_meters":28800,"station_id":"ce4bgvp2rcd13ifvqcu0","pricing_plan_id":"cebpf4jnsgd1na2vs0mg"},{"bike_id":"948323fb-e0c0-439e-b329-2691857d08f9","system_id":"levelo_inurba_marseille","lat":43.3027,"lon":5.37703,"is_reserved":false,"is_disabled":false,"rental_uris":{"android":"levelo://app?vid=948323fb-e0c0-439e-b329-2691857d08f9","ios":"levelo://app?vid=948323fb-e0c0-439e-b329-2691857d08f9"},"vehicle_type_id":"4","last_reported":1726870149,"current_range_meters":10000,"station_id":"ce4bguh2rcd13ifvqcj0","pricing_plan_id":"cebpf4jnsgd1na2vs0mg"},{"bike_id":"bcd9d067-b093-4910-baae-4106d4c6d258","system_id":"levelo_inurba_marseille","lat":43.29225,"lon":5.36042,"is_reserved":false,"is_disabled":false,"rental_uris":{"android":"levelo://app?vid=bcd9d067-b093-4910-baae-4106d4c6d258","ios":"levelo://app?vid=bcd9d067-b093-4910-baae-4106d4c6d258"},"vehicle_type_id":"4","last_reported":1726870149,"current_range_meters":38800,"station_id":"ce4bhbh2rcd13ifvqeqg","pricing_plan_id":"cebpf4jnsgd1na2vs0mg"},{"bike_id":"8db99277-90a2-45d9-aafa-536ff23cacde","system_id":"levelo_inurba_marseille","lat":43.31327,"lon":5.39692,"is_reserved":false,"is_disabled":false,"rental_uris":{"android":"levelo://app?vid=8db99277-90a2-45d9-aafa-536ff23cacde","ios":"levelo://app?vid=8db99277-90a2-45d9-aafa-536ff23cacde"},"vehicle_type_id":"4","last_reported":1726870149,"current_range_meters":32000,"station_id":"ce4bgvp2rcd13ifvqcu0","pricing_plan_id":"cebpf4jnsgd1na2vs0mg"},{"bike_id":"c4ffebf7-570f-4e93-a597-25b4f6edf95e","system_id":"levelo_inurba_marseille","lat":43.28717,"lon":5.39987,"is_reserved":false,"is_disabled":false,"rental_uris":{"android":"levelo://app?vid=c4ffebf7-570f-4e93-a597-25b4f6edf95e","ios":"levelo://app?vid=c4ffebf7-570f-4e93-a597-25b4f6edf95e"},"vehicle_type_id":"4","last_reported":1726870149,"current_range_meters":38800,"station_id":"ce4bho92rcd13ifvqh3g","pricing_plan_id":"cebpf4jnsgd1na2vs0mg"},{"bike_id":"dba3f248-da39-4ecb-8801-76486d6c0dc8","system_id":"levelo_inurba_marseille","lat":43.30146,"lon":5.37412,"is_reserved":false,"is_disabled":false,"rental_uris":{"android":"levelo://app?vid=dba3f248-da39-4ecb-8801-76486d6c0dc8","ios":"levelo://app?vid=dba3f248-da39-4ecb-8801-76486d6c0dc8"},"vehicle_type_id":"4","last_reported":1726870149,"current_range_meters":38800,"station_id":"ce4bgs92rcd13ifvqcc0","pricing_plan_id":"cebpf4jnsgd1na2vs0mg"},{"bike_id":"8e9dbe47-337f-4dc5-a191-5ff772ee52d9","system_id":"levelo_inurba_marseille","lat":43.30885,"lon":5.37173,"is_reserved":false,"is_disabled":false,"rental_uris":{"android":"levelo://app?vid=8e9dbe47-337f-4dc5-a191-5ff772ee52d9","ios":"levelo://app?vid=8e9dbe47-337f-4dc5-a191-5ff772ee52d9"},"vehicle_type_id":"4","last_reported":1726870149,"current_range_meters":4000,"station_id":"ce4bguh2rcd13ifvqckg","pricing_plan_id":"cebpf4jnsgd1na2vs0mg"},{"bike_id":"71177a3a-5462-43dd-a8c0-ec51774e2b83","system_id":"levelo_inurba_marseille","lat":43.30856,"lon":5.38087,"is_reserved":false,"is_disabled":false,"rental_uris":{"android":"levelo://app?vid=71177a3a-5462-43dd-a8c0-ec51774e2b83","ios":"levelo://app?vid=71177a3a-5462-43dd-a8c0-ec51774e2b83"},"vehicle_type_id":"4","last_reported":1726870149,"current_range_meters":24000,"station_id":"","pricing_plan_id":"cebpf4jnsgd1na2vs0mg"},{"bike_id":"6f6ff2e0-dec1-4e4a-a67b-20a966298429","system_id":"levelo_inurba_marseille","lat":43.28978,"lon":5.37818,"is_reserved":false,"is_disabled":false,"rental_uris":{"android":"levelo://app?vid=6f6ff2e0-dec1-4e4a-a67b-20a966298429","ios":"levelo://app?vid=6f6ff2e0-dec1-4e4a-a67b-20a966298429"},"vehicle_type_id":"4","last_reported":1726870149,"current_range_meters":12800,"station_id":"ce4bh9p2rcd13ifvqed0","pricing_plan_id":"cebpf4jnsgd1na2vs0mg"},{"bike_id":"bdda07f2-21df-4d96-ab31-156bf5812b8e","system_id":"levelo_inurba_marseille","lat":43.278392,"lon":5.392071,"is_reserved":false,"is_disabled":false,"rental_uris":{"android":"levelo://app?vid=bdda07f2-21df-4d96-ab31-156bf5812b8e","ios":"levelo://app?vid=bdda07f2-21df-4d96-ab31-156bf5812b8e"},"vehicle_type_id":"4","last_reported":1726870149,"current_range_meters":21600,"station_id":"ce4bh392rcd13ifvqdm0","pricing_plan_id":"cebpf4jnsgd1na2vs0mg"},{"bike_id":"0f4a5039-4f02-4b4c-bc57-7ac4d9b116cc","system_id":"levelo_inurba_marseille","lat":43.31236,"lon":5.3685,"is_reserved":false,"is_disabled":false,"rental_uris":{"android":"levelo://app?vid=0f4a5039-4f02-4b4c-bc57-7ac4d9b116cc","ios":"levelo://app?vid=0f4a5039-4f02-4b4c-bc57-7ac4d9b116cc"},"vehicle_type_id":"4","last_reported":1726870149,"current_range_meters":20800,"station_id":"ce4bgl92rcd13ifvqbq0","pricing_plan_id":"cebpf4jnsgd1na2vs0mg"},{"bike_id":"841546c0-6dca-4af6-955b-6e5b4bf0d05c","system_id":"levelo_inurba_marseille","lat":43.29257,"lon":5.40906,"is_reserved":false,"is_disabled":false,"rental_uris":{"android":"levelo://app?vid=841546c0-6dca-4af6-955b-6e5b4bf0d05c","ios":"levelo://app?vid=841546c0-6dca-4af6-955b-6e5b4bf0d05c"},"vehicle_type_id":"4","last_reported":1726870149,"current_range_meters":33600,"station_id":"ce4bh192rcd13ifvqdc0","pricing_plan_id":"cebpf4jnsgd1na2vs0mg"},{"bike_id":"d8287e31-7364-474a-8aa1-43d1b72d0543","system_id":"levelo_inurba_marseille","lat":43.25503,"lon":5.37653,"is_reserved":false,"is_disabled":false,"rental_uris":{"android":"levelo://app?vid=d8287e31-7364-474a-8aa1-43d1b72d0543","ios":"levelo://app?vid=d8287e31-7364-474a-8aa1-43d1b72d0543"},"vehicle_type_id":"4","last_reported":1726870149,"current_range_meters":38800,"station_id":"ce4bhh12rcd13ifvqff0","pricing_plan_id":"cebpf4jnsgd1na2vs0mg"},{"bike_id":"4cf99fe3-69e1-4f7c-9e91-e8f0d39f7594","system_id":"levelo_inurba_marseille","lat":43.290174,"lon":5.386327,"is_reserved":false,"is_disabled":false,"rental_uris":{"android":"levelo://app?vid=4cf99fe3-69e1-4f7c-9e91-e8f0d39f7594","ios":"levelo://app?vid=4cf99fe3-69e1-4f7c-9e91-e8f0d39f7594"},"vehicle_type_id":"4","last_reported":1726870149,"current_range_meters":38000,"station_id":"ce4bh4p2rcd13ifvqe0g","pricing_plan_id":"cebpf4jnsgd1na2vs0mg"},{"bike_id":"5840a821-7b4a-4179-8856-92a74917e83c","system_id":"levelo_inurba_marseille","lat":43.24998,"lon":5.38922,"is_reserved":false,"is_disabled":false,"rental_uris":{"android":"levelo://app?vid=5840a821-7b4a-4179-8856-92a74917e83c","ios":"levelo://app?vid=5840a821-7b4a-4179-8856-92a74917e83c"},"vehicle_type_id":"4","last_reported":1726870149,"current_range_meters":39200,"station_id":"ce4bhgp2rcd13ifvqfd0","pricing_plan_id":"cebpf4jnsgd1na2vs0mg"},{"bike_id":"1d50b34d-e41e-407e-93f9-1ab0f089d397","system_id":"levelo_inurba_marseille","lat":43.27375,"lon":5.36252,"is_reserved":false,"is_disabled":false,"rental_uris":{"android":"levelo://app?vid=1d50b34d-e41e-407e-93f9-1ab0f089d397","ios":"levelo://app?vid=1d50b34d-e41e-407e-93f9-1ab0f089d397"},"vehicle_type_id":"4","last_reported":1726870149,"current_range_meters":24000,"station_id":"ce4bhbh2rcd13ifvqeo0","pricing_plan_id":"cebpf4jnsgd1na2vs0mg"},{"bike_id":"5419b1bf-d37c-4076-a34c-52ede101758e","system_id":"levelo_inurba_marseille","lat":43.337444,"lon":5.374475,"is_reserved":false,"is_disabled":false,"rental_uris":{"android":"levelo://app?vid=5419b1bf-d37c-4076-a34c-52ede101758e","ios":"levelo://app?vid=5419b1bf-d37c-4076-a34c-52ede101758e"},"vehicle_type_id":"4","last_reported":1726870149,"current_range_meters":35600,"station_id":"","pricing_plan_id":"cebpf4jnsgd1na2vs0mg"},{"bike_id":"c33e9d45-7b28-4509-86fe-867e95c1321a","system_id":"levelo_inurba_marseille","lat":43.33606,"lon":5.41036,"is_reserved":false,"is_disabled":false,"rental_uris":{"android":"levelo://app?vid=c33e9d45-7b28-4509-86fe-867e95c1321a","ios":"levelo://app?vid=c33e9d45-7b28-4509-86fe-867e95c1321a"},"vehicle_type_id":"4","last_reported":1726870149,"current_range_meters":38000,"station_id":"ce4bhqh2rcd13ifvqhmg","pricing_plan_id":"cebpf4jnsgd1na2vs0mg"},{"bike_id":"440c1b49-a980-4f35-a463-6d2bd9a1f22a","system_id":"levelo_inurba_marseille","lat":43.28698,"lon":5.37378,"is_reserved":false,"is_disabled":false,"rental_uris":{"android":"levelo://app?vid=440c1b49-a980-4f35-a463-6d2bd9a1f22a","ios":"levelo://app?vid=440c1b49-a980-4f35-a463-6d2bd9a1f22a"},"vehicle_type_id":"4","last_reported":1726870149,"current_range_meters":32000,"station_id":"ce4bh3p2rcd13ifvqdq0","pricing_plan_id":"cebpf4jnsgd1na2vs0mg"},{"bike_id":"94934ce0-5acf-4cb2-8339-b4405b5c2217","system_id":"levelo_inurba_marseille","lat":43.30432,"lon":5.3889,"is_reserved":false,"is_disabled":false,"rental_uris":{"android":"levelo://app?vid=94934ce0-5acf-4cb2-8339-b4405b5c2217","ios":"levelo://app?vid=94934ce0-5acf-4cb2-8339-b4405b5c2217"},"vehicle_type_id":"4","last_reported":1726870149,"current_range_meters":11600,"station_id":"ce4bgk12rcd13ifvqbi0","pricing_plan_id":"cebpf4jnsgd1na2vs0mg"},{"bike_id":"f7575c27-994c-406f-8323-578b38c16d91","system_id":"levelo_inurba_marseille","lat":43.28738,"lon":5.36531,"is_reserved":false,"is_disabled":false,"rental_uris":{"android":"levelo://app?vid=f7575c27-994c-406f-8323-578b38c16d91","ios":"levelo://app?vid=f7575c27-994c-406f-8323-578b38c16d91"},"vehicle_type_id":"4","last_reported":1726870149,"current_range_meters":33600,"station_id":"","pricing_plan_id":"cebpf4jnsgd1na2vs0mg"},{"bike_id":"313ce94e-aa63-4118-8b02-295757af492c","system_id":"levelo_inurba_marseille","lat":43.28745,"lon":5.37998,"is_reserved":false,"is_disabled":false,"rental_uris":{"android":"levelo://app?vid=313ce94e-aa63-4118-8b02-295757af492c","ios":"levelo://app?vid=313ce94e-aa63-4118-8b02-295757af492c"},"vehicle_type_id":"4","last_reported":1726870149,"current_range_meters":33600,"station_id":"","pricing_plan_id":"cebpf4jnsgd1na2vs0mg"},{"bike_id":"a0cc790a-fb5e-45b0-ac80-bbc19c360083","system_id":"levelo_inurba_marseille","lat":43.29527,"lon":5.39038,"is_reserved":false,"is_disabled":false,"rental_uris":{"android":"levelo://app?vid=a0cc790a-fb5e-45b0-ac80-bbc19c360083","ios":"levelo://app?vid=a0cc790a-fb5e-45b0-ac80-bbc19c360083"},"vehicle_type_id":"4","last_reported":1726870149,"current_range_meters":8800,"station_id":"ce4bh3p2rcd13ifvqdp0","pricing_plan_id":"cebpf4jnsgd1na2vs0mg"},{"bike_id":"4bd9df89-5d63-4a26-9aed-94afaccd5554","system_id":"levelo_inurba_marseille","lat":43.2849,"lon":5.38531,"is_reserved":false,"is_disabled":false,"rental_uris":{"android":"levelo://app?vid=4bd9df89-5d63-4a26-9aed-94afaccd5554","ios":"levelo://app?vid=4bd9df89-5d63-4a26-9aed-94afaccd5554"},"vehicle_type_id":"4","last_reported":1726870149,"current_range_meters":6800,"station_id":"ce4bh8p2rcd13ifvqeb0","pricing_plan_id":"cebpf4jnsgd1na2vs0mg"},{"bike_id":"742a3543-343d-45b9-b876-36b8d248039c","system_id":"levelo_inurba_marseille","lat":43.28103,"lon":5.37842,"is_reserved":false,"is_disabled":false,"rental_uris":{"android":"levelo://app?vid=742a3543-343d-45b9-b876-36b8d248039c","ios":"levelo://app?vid=742a3543-343d-45b9-b876-36b8d248039c"},"vehicle_type_id":"4","last_reported":1726870149,"current_range_meters":38800,"station_id":"ce4bha12rcd13ifvqee0","pricing_plan_id":"cebpf4jnsgd1na2vs0mg"},{"bike_id":"5899dc76-4576-41fc-91db-67e269faacc4","system_id":"levelo_inurba_marseille","lat":43.31759,"lon":5.39017,"is_reserved":false,"is_disabled":false,"rental_uris":{"android":"levelo://app?vid=5899dc76-4576-41fc-91db-67e269faacc4","ios":"levelo://app?vid=5899dc76-4576-41fc-91db-67e269faacc4"},"vehicle_type_id":"4","last_reported":1726870149,"current_range_meters":38800,"station_id":"ce4bhqp2rcd13ifvqhng","pricing_plan_id":"cebpf4jnsgd1na2vs0mg"},{"bike_id":"9203739a-774a-4b9c-832c-d982cfd4c7c1","system_id":"levelo_inurba_marseille","lat":43.3163,"lon":5.38592,"is_reserved":false,"is_disabled":false,"rental_uris":{"android":"levelo://app?vid=9203739a-774a-4b9c-832c-d982cfd4c7c1","ios":"levelo://app?vid=9203739a-774a-4b9c-832c-d982cfd4c7c1"},"vehicle_type_id":"4","last_reported":1726870149,"current_range_meters":8800,"station_id":"","pricing_plan_id":"cebpf4jnsgd1na2vs0mg"},{"bike_id":"6e2fd8fb-799c-468d-a60b-38d2bf81aa37","system_id":"levelo_inurba_marseille","lat":43.23959,"lon":5.36623,"is_reserved":false,"is_disabled":false,"rental_uris":{"android":"levelo://app?vid=6e2fd8fb-799c-468d-a60b-38d2bf81aa37","ios":"levelo://app?vid=6e2fd8fb-799c-468d-a60b-38d2bf81aa37"},"vehicle_type_id":"4","last_reported":1726870149,"current_range_meters":6400,"station_id":"ce4bhi12rcd13ifvqfp0","pricing_plan_id":"cebpf4jnsgd1na2vs0mg"},{"bike_id":"d2a8da80-cd33-4483-a8bf-a8c247fe5238","system_id":"levelo_inurba_marseille","lat":43.27615,"lon":5.36107,"is_reserved":false,"is_disabled":false,"rental_uris":{"android":"levelo://app?vid=d2a8da80-cd33-4483-a8bf-a8c247fe5238","ios":"levelo://app?vid=d2a8da80-cd33-4483-a8bf-a8c247fe5238"},"vehicle_type_id":"4","last_reported":1726870149,"current_range_meters":28400,"station_id":"ce4bgj92rcd13ifvqbe0","pricing_plan_id":"cebpf4jnsgd1na2vs0mg"},{"bike_id":"fb730c85-cef2-43fb-877c-de273059500e","system_id":"levelo_inurba_marseille","lat":43.31764,"lon":5.39013,"is_reserved":false,"is_disabled":false,"rental_uris":{"android":"levelo://app?vid=fb730c85-cef2-43fb-877c-de273059500e","ios":"levelo://app?vid=fb730c85-cef2-43fb-877c-de273059500e"},"vehicle_type_id":"4","last_reported":1726870149,"current_range_meters":32800,"station_id":"ce4bhqp2rcd13ifvqhng","pricing_plan_id":"cebpf4jnsgd1na2vs0mg"},{"bike_id":"5bf617b6-2eea-40a9-9576-9b6f0fdecd15","system_id":"levelo_inurba_marseille","lat":43.32371,"lon":5.38884,"is_reserved":false,"is_disabled":false,"rental_uris":{"android":"levelo://app?vid=5bf617b6-2eea-40a9-9576-9b6f0fdecd15","ios":"levelo://app?vid=5bf617b6-2eea-40a9-9576-9b6f0fdecd15"},"vehicle_type_id":"4","last_reported":1726870149,"current_range_meters":20000,"station_id":"ce4bhqp2rcd13ifvqhog","pricing_plan_id":"cebpf4jnsgd1na2vs0mg"},{"bike_id":"8de964f3-991f-47cb-98ab-ed6130191177","system_id":"levelo_inurba_marseille","lat":43.24384,"lon":5.37052,"is_reserved":false,"is_disabled":false,"rental_uris":{"android":"levelo://app?vid=8de964f3-991f-47cb-98ab-ed6130191177","ios":"levelo://app?vid=8de964f3-991f-47cb-98ab-ed6130191177"},"vehicle_type_id":"4","last_reported":1726870149,"current_range_meters":38400,"station_id":"ce4bhhh2rcd13ifvqfk0","pricing_plan_id":"cebpf4jnsgd1na2vs0mg"},{"bike_id":"ec8dbfc4-2b4e-4abc-82e8-4bac86722f14","system_id":"levelo_inurba_marseille","lat":43.30275,"lon":5.37693,"is_reserved":false,"is_disabled":false,"rental_uris":{"android":"levelo://app?vid=ec8dbfc4-2b4e-4abc-82e8-4bac86722f14","ios":"levelo://app?vid=ec8dbfc4-2b4e-4abc-82e8-4bac86722f14"},"vehicle_type_id":"4","last_reported":1726870149,"current_range_meters":31200,"station_id":"ce4bguh2rcd13ifvqcj0","pricing_plan_id":"cebpf4jnsgd1na2vs0mg"},{"bike_id":"559f0939-ccb7-449e-bcbe-22dedfce5dda","system_id":"levelo_inurba_marseille","lat":43.2856,"lon":5.38422,"is_reserved":false,"is_disabled":false,"rental_uris":{"android":"levelo://app?vid=559f0939-ccb7-449e-bcbe-22dedfce5dda","ios":"levelo://app?vid=559f0939-ccb7-449e-bcbe-22dedfce5dda"},"vehicle_type_id":"4","last_reported":1726870149,"current_range_meters":3600,"station_id":"","pricing_plan_id":"cebpf4jnsgd1na2vs0mg"},{"bike_id":"759751c6-00ff-4153-a15e-ad962e27e329","system_id":"levelo_inurba_marseille","lat":43.28929,"lon":5.36401,"is_reserved":false,"is_disabled":false,"rental_uris":{"android":"levelo://app?vid=759751c6-00ff-4153-a15e-ad962e27e329","ios":"levelo://app?vid=759751c6-00ff-4153-a15e-ad962e27e329"},"vehicle_type_id":"4","last_reported":1726870149,"current_range_meters":25200,"station_id":"ce4bhc92rcd13ifvqetg","pricing_plan_id":"cebpf4jnsgd1na2vs0mg"},{"bike_id":"40b30bf1-df0a-47fd-bf93-8f163c982ffe","system_id":"levelo_inurba_marseille","lat":43.32288,"lon":5.38276,"is_reserved":false,"is_disabled":false,"rental_uris":{"android":"levelo://app?vid=40b30bf1-df0a-47fd-bf93-8f163c982ffe","ios":"levelo://app?vid=40b30bf1-df0a-47fd-bf93-8f163c982ffe"},"vehicle_type_id":"4","last_reported":1726870149,"current_range_meters":37600,"station_id":"ce4bhr12rcd13ifvqhqg","pricing_plan_id":"cebpf4jnsgd1na2vs0mg"},{"bike_id":"ddff1e6b-dcd2-4ef0-bea3-4bbcfe2e5327","system_id":"levelo_inurba_marseille","lat":43.30797,"lon":5.43523,"is_reserved":false,"is_disabled":false,"rental_uris":{"android":"levelo://app?vid=ddff1e6b-dcd2-4ef0-bea3-4bbcfe2e5327","ios":"levelo://app?vid=ddff1e6b-dcd2-4ef0-bea3-4bbcfe2e5327"},"vehicle_type_id":"4","last_reported":1726870149,"current_range_meters":32400,"station_id":"ce4bhph2rcd13ifvqheg","pricing_plan_id":"cebpf4jnsgd1na2vs0mg"},{"bike_id":"35b65143-92b3-4c38-9d11-234afcb4a3dc","system_id":"levelo_inurba_marseille","lat":43.28925,"lon":5.36379,"is_reserved":false,"is_disabled":false,"rental_uris":{"android":"levelo://app?vid=35b65143-92b3-4c38-9d11-234afcb4a3dc","ios":"levelo://app?vid=35b65143-92b3-4c38-9d11-234afcb4a3dc"},"vehicle_type_id":"4","last_reported":1726870149,"current_range_meters":14800,"station_id":"ce4bhah2rcd13ifvqej0","pricing_plan_id":"cebpf4jnsgd1na2vs0mg"},{"bike_id":"f090fc51-a672-4a0a-94a6-65efd9953ed8","system_id":"levelo_inurba_marseille","lat":43.28712,"lon":5.37919,"is_reserved":false,"is_disabled":false,"rental_uris":{"android":"levelo://app?vid=f090fc51-a672-4a0a-94a6-65efd9953ed8","ios":"levelo://app?vid=f090fc51-a672-4a0a-94a6-65efd9953ed8"},"vehicle_type_id":"4","last_reported":1726870149,"current_range_meters":36000,"station_id":"ce4bh9p2rcd13ifvqec0","pricing_plan_id":"cebpf4jnsgd1na2vs0mg"},{"bike_id":"bfe1cdd6-53c1-4b5a-831f-eaa142c1310f","system_id":"levelo_inurba_marseille","lat":43.29414,"lon":5.38628,"is_reserved":false,"is_disabled":false,"rental_uris":{"android":"levelo://app?vid=bfe1cdd6-53c1-4b5a-831f-eaa142c1310f","ios":"levelo://app?vid=bfe1cdd6-53c1-4b5a-831f-eaa142c1310f"},"vehicle_type_id":"4","last_reported":1726870149,"current_range_meters":31200,"station_id":"ce4bh2h2rcd13ifvqdh0","pricing_plan_id":"cebpf4jnsgd1na2vs0mg"},{"bike_id":"2633e599-bd28-40d3-b331-ac739c663b27","system_id":"levelo_inurba_marseille","lat":43.32496,"lon":5.36568,"is_reserved":false,"is_disabled":false,"rental_uris":{"android":"levelo://app?vid=2633e599-bd28-40d3-b331-ac739c663b27","ios":"levelo://app?vid=2633e599-bd28-40d3-b331-ac739c663b27"},"vehicle_type_id":"4","last_reported":1726870149,"current_range_meters":19200,"station_id":"ce4bhs12rcd13ifvqhvg","pricing_plan_id":"cebpf4jnsgd1na2vs0mg"},{"bike_id":"79a00284-aebf-4be2-8ab5-ee66bd0ca441","system_id":"levelo_inurba_marseille","lat":43.29259,"lon":5.40905,"is_reserved":false,"is_disabled":false,"rental_uris":{"android":"levelo://app?vid=79a00284-aebf-4be2-8ab5-ee66bd0ca441","ios":"levelo://app?vid=79a00284-aebf-4be2-8ab5-ee66bd0ca441"},"vehicle_type_id":"4","last_reported":1726870149,"current_range_meters":16400,"station_id":"ce4bh192rcd13ifvqdc0","pricing_plan_id":"cebpf4jnsgd1na2vs0mg"},{"bike_id":"40b4c6d2-1591-4c31-ba7e-28d863ceb674","system_id":"levelo_inurba_marseille","lat":43.29972,"lon":5.38489,"is_reserved":false,"is_disabled":false,"rental_uris":{"android":"levelo://app?vid=40b4c6d2-1591-4c31-ba7e-28d863ceb674","ios":"levelo://app?vid=40b4c6d2-1591-4c31-ba7e-28d863ceb674"},"vehicle_type_id":"4","last_reported":1726870149,"current_range_meters":34800,"station_id":"ce4bgj92rcd13ifvqbd0","pricing_plan_id":"cebpf4jnsgd1na2vs0mg"},{"bike_id":"d54adff7-b0cb-4c6e-ae3a-15db4cc9781d","system_id":"levelo_inurba_marseille","lat":43.28933,"lon":5.36633,"is_reserved":false,"is_disabled":false,"rental_uris":{"android":"levelo://app?vid=d54adff7-b0cb-4c6e-ae3a-15db4cc9781d","ios":"levelo://app?vid=d54adff7-b0cb-4c6e-ae3a-15db4cc9781d"},"vehicle_type_id":"4","last_reported":1726870149,"current_range_meters":30800,"station_id":"ce4bhap2rcd13ifvqek0","pricing_plan_id":"cebpf4jnsgd1na2vs0mg"},{"bike_id":"6860e9db-5d98-45b4-aae5-0f2e9c653968","system_id":"levelo_inurba_marseille","lat":43.28937,"lon":5.36641,"is_reserved":false,"is_disabled":false,"rental_uris":{"android":"levelo://app?vid=6860e9db-5d98-45b4-aae5-0f2e9c653968","ios":"levelo://app?vid=6860e9db-5d98-45b4-aae5-0f2e9c653968"},"vehicle_type_id":"4","last_reported":1726870149,"current_range_meters":10000,"station_id":"ce4bhap2rcd13ifvqek0","pricing_plan_id":"cebpf4jnsgd1na2vs0mg"},{"bike_id":"604c9531-be4f-4974-bfe2-bd7828d7386f","system_id":"levelo_inurba_marseille","lat":43.29897,"lon":5.43671,"is_reserved":false,"is_disabled":false,"rental_uris":{"android":"levelo://app?vid=604c9531-be4f-4974-bfe2-bd7828d7386f","ios":"levelo://app?vid=604c9531-be4f-4974-bfe2-bd7828d7386f"},"vehicle_type_id":"4","last_reported":1726870149,"current_range_meters":26800,"station_id":"ce4bhpp2rcd13ifvqhfg","pricing_plan_id":"cebpf4jnsgd1na2vs0mg"},{"bike_id":"c1310b37-dd83-4623-a074-f471af25c7d1","system_id":"levelo_inurba_marseille","lat":43.28447,"lon":5.39178,"is_reserved":false,"is_disabled":false,"rental_uris":{"android":"levelo://app?vid=c1310b37-dd83-4623-a074-f471af25c7d1","ios":"levelo://app?vid=c1310b37-dd83-4623-a074-f471af25c7d1"},"vehicle_type_id":"4","last_reported":1726870149,"current_range_meters":6000,"station_id":"ce4bhoh2rcd13ifvqh5g","pricing_plan_id":"cebpf4jnsgd1na2vs0mg"},{"bike_id":"713dca00-9221-4cd7-ac35-8f074cf6f847","system_id":"levelo_inurba_marseille","lat":43.31231,"lon":5.36842,"is_reserved":false,"is_disabled":false,"rental_uris":{"android":"levelo://app?vid=713dca00-9221-4cd7-ac35-8f074cf6f847","ios":"levelo://app?vid=713dca00-9221-4cd7-ac35-8f074cf6f847"},"vehicle_type_id":"4","last_reported":1726870149,"current_range_meters":36000,"station_id":"ce4bgl92rcd13ifvqbq0","pricing_plan_id":"cebpf4jnsgd1na2vs0mg"},{"bike_id":"2c27c7ef-f9d4-4248-8b4d-2902855af847","system_id":"levelo_inurba_marseille","lat":43.28776,"lon":5.39691,"is_reserved":false,"is_disabled":false,"rental_uris":{"android":"levelo://app?vid=2c27c7ef-f9d4-4248-8b4d-2902855af847","ios":"levelo://app?vid=2c27c7ef-f9d4-4248-8b4d-2902855af847"},"vehicle_type_id":"4","last_reported":1726870149,"current_range_meters":17200,"station_id":"","pricing_plan_id":"cebpf4jnsgd1na2vs0mg"},{"bike_id":"d70f4e6c-2f49-48d2-a35b-65e3599a3c1b","system_id":"levelo_inurba_marseille","lat":43.273804,"lon":5.362576,"is_reserved":false,"is_disabled":false,"rental_uris":{"android":"levelo://app?vid=d70f4e6c-2f49-48d2-a35b-65e3599a3c1b","ios":"levelo://app?vid=d70f4e6c-2f49-48d2-a35b-65e3599a3c1b"},"vehicle_type_id":"4","last_reported":1726870149,"current_range_meters":4400,"station_id":"ce4bhbh2rcd13ifvqeo0","pricing_plan_id":"cebpf4jnsgd1na2vs0mg"},{"bike_id":"b47f7abd-dffa-4594-ae10-66a4216fac59","system_id":"levelo_inurba_marseille","lat":43.31066,"lon":5.40087,"is_reserved":false,"is_disabled":false,"rental_uris":{"android":"levelo://app?vid=b47f7abd-dffa-4594-ae10-66a4216fac59","ios":"levelo://app?vid=b47f7abd-dffa-4594-ae10-66a4216fac59"},"vehicle_type_id":"4","last_reported":1726870149,"current_range_meters":12800,"station_id":"","pricing_plan_id":"cebpf4jnsgd1na2vs0mg"},{"bike_id":"74fcb78f-b41b-428d-8812-53aa05b1f7bd","system_id":"levelo_inurba_marseille","lat":43.295339,"lon":5.385409,"is_reserved":false,"is_disabled":false,"rental_uris":{"android":"levelo://app?vid=74fcb78f-b41b-428d-8812-53aa05b1f7bd","ios":"levelo://app?vid=74fcb78f-b41b-428d-8812-53aa05b1f7bd"},"vehicle_type_id":"4","last_reported":1726870149,"current_range_meters":19200,"station_id":"ce4bhbp2rcd13ifvqerg","pricing_plan_id":"cebpf4jnsgd1na2vs0mg"},{"bike_id":"542e2c69-6cd2-413d-9cfd-2c5f9a60a140","system_id":"levelo_inurba_marseille","lat":43.2407,"lon":5.37759,"is_reserved":false,"is_disabled":false,"rental_uris":{"android":"levelo://app?vid=542e2c69-6cd2-413d-9cfd-2c5f9a60a140","ios":"levelo://app?vid=542e2c69-6cd2-413d-9cfd-2c5f9a60a140"},"vehicle_type_id":"4","last_reported":1726870149,"current_range_meters":9600,"station_id":"ce4bhnp2rcd13ifvqgvg","pricing_plan_id":"cebpf4jnsgd1na2vs0mg"},{"bike_id":"f9c9be8e-ea20-4727-9516-26ff2df08de7","system_id":"levelo_inurba_marseille","lat":43.29963,"lon":5.41319,"is_reserved":false,"is_disabled":false,"rental_uris":{"android":"levelo://app?vid=f9c9be8e-ea20-4727-9516-26ff2df08de7","ios":"levelo://app?vid=f9c9be8e-ea20-4727-9516-26ff2df08de7"},"vehicle_type_id":"4","last_reported":1726870149,"current_range_meters":38800,"station_id":"ce4bhp12rcd13ifvqh9g","pricing_plan_id":"cebpf4jnsgd1na2vs0mg"},{"bike_id":"d756d334-bacd-45d9-a95a-9c972ca933d3","system_id":"levelo_inurba_marseille","lat":43.28934,"lon":5.38392,"is_reserved":false,"is_disabled":false,"rental_uris":{"android":"levelo://app?vid=d756d334-bacd-45d9-a95a-9c972ca933d3","ios":"levelo://app?vid=d756d334-bacd-45d9-a95a-9c972ca933d3"},"vehicle_type_id":"4","last_reported":1726870149,"current_range_meters":38400,"station_id":"ce4bh612rcd13ifvqe6g","pricing_plan_id":"cebpf4jnsgd1na2vs0mg"},{"bike_id":"8273c267-5219-4186-8f32-c3e55203a7ac","system_id":"levelo_inurba_marseille","lat":43.23968,"lon":5.39695,"is_reserved":false,"is_disabled":false,"rental_uris":{"android":"levelo://app?vid=8273c267-5219-4186-8f32-c3e55203a7ac","ios":"levelo://app?vid=8273c267-5219-4186-8f32-c3e55203a7ac"},"vehicle_type_id":"4","last_reported":1726870149,"current_range_meters":8000,"station_id":"","pricing_plan_id":"cebpf4jnsgd1na2vs0mg"},{"bike_id":"79ae80ec-ee51-41e3-8d81-35eef174ac0d","system_id":"levelo_inurba_marseille","lat":43.29026,"lon":5.36971,"is_reserved":false,"is_disabled":false,"rental_uris":{"android":"levelo://app?vid=79ae80ec-ee51-41e3-8d81-35eef174ac0d","ios":"levelo://app?vid=79ae80ec-ee51-41e3-8d81-35eef174ac0d"},"vehicle_type_id":"4","last_reported":1726870149,"current_range_meters":12800,"station_id":"","pricing_plan_id":"cebpf4jnsgd1na2vs0mg"},{"bike_id":"089c3730-ca2b-4f4c-bad9-3eb8ba70addd","system_id":"levelo_inurba_marseille","lat":43.25493,"lon":5.37651,"is_reserved":false,"is_disabled":false,"rental_uris":{"android":"levelo://app?vid=089c3730-ca2b-4f4c-bad9-3eb8ba70addd","ios":"levelo://app?vid=089c3730-ca2b-4f4c-bad9-3eb8ba70addd"},"vehicle_type_id":"4","last_reported":1726870149,"current_range_meters":38800,"station_id":"ce4bhh12rcd13ifvqff0","pricing_plan_id":"cebpf4jnsgd1na2vs0mg"},{"bike_id":"302824b9-3dd5-4019-865b-adb62674e635","system_id":"levelo_inurba_marseille","lat":43.22936,"lon":5.35377,"is_reserved":false,"is_disabled":false,"rental_uris":{"android":"levelo://app?vid=302824b9-3dd5-4019-865b-adb62674e635","ios":"levelo://app?vid=302824b9-3dd5-4019-865b-adb62674e635"},"vehicle_type_id":"4","last_reported":1726870149,"current_range_meters":39200,"station_id":"cpo3532slgdg3j2ikp40","pricing_plan_id":"cebpf4jnsgd1na2vs0mg"},{"bike_id":"26bcda71-b863-42e6-adfb-5ef28c4fe4e5","system_id":"levelo_inurba_marseille","lat":43.30428,"lon":5.36725,"is_reserved":false,"is_disabled":false,"rental_uris":{"android":"levelo://app?vid=26bcda71-b863-42e6-adfb-5ef28c4fe4e5","ios":"levelo://app?vid=26bcda71-b863-42e6-adfb-5ef28c4fe4e5"},"vehicle_type_id":"4","last_reported":1726870149,"current_range_meters":4800,"station_id":"","pricing_plan_id":"cebpf4jnsgd1na2vs0mg"},{"bike_id":"21c50659-0744-4fee-81ba-b9a11fbbc45a","system_id":"levelo_inurba_marseille","lat":43.29924,"lon":5.37471,"is_reserved":false,"is_disabled":false,"rental_uris":{"android":"levelo://app?vid=21c50659-0744-4fee-81ba-b9a11fbbc45a","ios":"levelo://app?vid=21c50659-0744-4fee-81ba-b9a11fbbc45a"},"vehicle_type_id":"4","last_reported":1726870149,"current_range_meters":30000,"station_id":"ce4bgjh2rcd13ifvqbg0","pricing_plan_id":"cebpf4jnsgd1na2vs0mg"},{"bike_id":"af135eb6-084e-4310-8f38-5fdea9dc1740","system_id":"levelo_inurba_marseille","lat":43.29538,"lon":5.38546,"is_reserved":false,"is_disabled":false,"rental_uris":{"android":"levelo://app?vid=af135eb6-084e-4310-8f38-5fdea9dc1740","ios":"levelo://app?vid=af135eb6-084e-4310-8f38-5fdea9dc1740"},"vehicle_type_id":"4","last_reported":1726870149,"current_range_meters":31200,"station_id":"ce4bgih2rcd13ifvqba0","pricing_plan_id":"cebpf4jnsgd1na2vs0mg"},{"bike_id":"8e22fc24-4a7c-45aa-a5d9-f186ef2348cb","system_id":"levelo_inurba_marseille","lat":43.27996,"lon":5.41664,"is_reserved":false,"is_disabled":false,"rental_uris":{"android":"levelo://app?vid=8e22fc24-4a7c-45aa-a5d9-f186ef2348cb","ios":"levelo://app?vid=8e22fc24-4a7c-45aa-a5d9-f186ef2348cb"},"vehicle_type_id":"4","last_reported":1726870149,"current_range_meters":34800,"station_id":"ce4bho12rcd13ifvqh1g","pricing_plan_id":"cebpf4jnsgd1na2vs0mg"},{"bike_id":"5c27109f-1912-4735-961c-8b264d2a8216","system_id":"levelo_inurba_marseille","lat":43.3211,"lon":5.36769,"is_reserved":false,"is_disabled":false,"rental_uris":{"android":"levelo://app?vid=5c27109f-1912-4735-961c-8b264d2a8216","ios":"levelo://app?vid=5c27109f-1912-4735-961c-8b264d2a8216"},"vehicle_type_id":"4","last_reported":1726870149,"current_range_meters":14400,"station_id":"","pricing_plan_id":"cebpf4jnsgd1na2vs0mg"},{"bike_id":"8eb8a00b-f529-4075-9a3b-b24e35beed1d","system_id":"levelo_inurba_marseille","lat":43.3014,"lon":5.37406,"is_reserved":false,"is_disabled":false,"rental_uris":{"android":"levelo://app?vid=8eb8a00b-f529-4075-9a3b-b24e35beed1d","ios":"levelo://app?vid=8eb8a00b-f529-4075-9a3b-b24e35beed1d"},"vehicle_type_id":"4","last_reported":1726870149,"current_range_meters":33600,"station_id":"ce4bgs92rcd13ifvqcc0","pricing_plan_id":"cebpf4jnsgd1na2vs0mg"},{"bike_id":"d48f1906-adcd-45cb-a59f-a9353947a181","system_id":"levelo_inurba_marseille","lat":43.27832,"lon":5.39206,"is_reserved":false,"is_disabled":false,"rental_uris":{"android":"levelo://app?vid=d48f1906-adcd-45cb-a59f-a9353947a181","ios":"levelo://app?vid=d48f1906-adcd-45cb-a59f-a9353947a181"},"vehicle_type_id":"4","last_reported":1726870149,"current_range_meters":11200,"station_id":"ce4bhjp2rcd13ifvqga0","pricing_plan_id":"cebpf4jnsgd1na2vs0mg"},{"bike_id":"dce40237-e2bf-4a23-8c88-bc0cc0f841f8","system_id":"levelo_inurba_marseille","lat":43.2795,"lon":5.41042,"is_reserved":false,"is_disabled":false,"rental_uris":{"android":"levelo://app?vid=dce40237-e2bf-4a23-8c88-bc0cc0f841f8","ios":"levelo://app?vid=dce40237-e2bf-4a23-8c88-bc0cc0f841f8"},"vehicle_type_id":"4","last_reported":1726870149,"current_range_meters":27200,"station_id":"ce4bhnp2rcd13ifvqh0g","pricing_plan_id":"cebpf4jnsgd1na2vs0mg"},{"bike_id":"6c34ccae-402e-40b8-9c0d-2e7f312c8354","system_id":"levelo_inurba_marseille","lat":43.25493,"lon":5.3765,"is_reserved":false,"is_disabled":false,"rental_uris":{"android":"levelo://app?vid=6c34ccae-402e-40b8-9c0d-2e7f312c8354","ios":"levelo://app?vid=6c34ccae-402e-40b8-9c0d-2e7f312c8354"},"vehicle_type_id":"4","last_reported":1726870149,"current_range_meters":30400,"station_id":"ce4bhh12rcd13ifvqff0","pricing_plan_id":"cebpf4jnsgd1na2vs0mg"},{"bike_id":"2c4d5dd6-b3fc-4e99-ae10-37420ed7722b","system_id":"levelo_inurba_marseille","lat":43.31994,"lon":5.38147,"is_reserved":false,"is_disabled":false,"rental_uris":{"android":"levelo://app?vid=2c4d5dd6-b3fc-4e99-ae10-37420ed7722b","ios":"levelo://app?vid=2c4d5dd6-b3fc-4e99-ae10-37420ed7722b"},"vehicle_type_id":"4","last_reported":1726870149,"current_range_meters":38800,"station_id":"ce4bhr12rcd13ifvqhpg","pricing_plan_id":"cebpf4jnsgd1na2vs0mg"},{"bike_id":"23e5fcf4-4fac-4b05-9a6c-be73f5a6d743","system_id":"levelo_inurba_marseille","lat":43.28156,"lon":5.42647,"is_reserved":false,"is_disabled":false,"rental_uris":{"android":"levelo://app?vid=23e5fcf4-4fac-4b05-9a6c-be73f5a6d743","ios":"levelo://app?vid=23e5fcf4-4fac-4b05-9a6c-be73f5a6d743"},"vehicle_type_id":"4","last_reported":1726870149,"current_range_meters":20800,"station_id":"ce4bhnh2rcd13ifvqgug","pricing_plan_id":"cebpf4jnsgd1na2vs0mg"},{"bike_id":"feba6ad2-a947-4683-8efb-83e325ced446","system_id":"levelo_inurba_marseille","lat":43.281065,"lon":5.378317,"is_reserved":false,"is_disabled":false,"rental_uris":{"android":"levelo://app?vid=feba6ad2-a947-4683-8efb-83e325ced446","ios":"levelo://app?vid=feba6ad2-a947-4683-8efb-83e325ced446"},"vehicle_type_id":"4","last_reported":1726870149,"current_range_meters":5600,"station_id":"ce4bha12rcd13ifvqee0","pricing_plan_id":"cebpf4jnsgd1na2vs0mg"},{"bike_id":"39d4a54e-7d9f-413e-8656-86ac5427a3f0","system_id":"levelo_inurba_marseille","lat":43.28105,"lon":5.41251,"is_reserved":false,"is_disabled":false,"rental_uris":{"android":"levelo://app?vid=39d4a54e-7d9f-413e-8656-86ac5427a3f0","ios":"levelo://app?vid=39d4a54e-7d9f-413e-8656-86ac5427a3f0"},"vehicle_type_id":"4","last_reported":1726870149,"current_range_meters":14800,"station_id":"ce4bhnp2rcd13ifvqh0g","pricing_plan_id":"cebpf4jnsgd1na2vs0mg"},{"bike_id":"7d145afe-48b5-4ce9-8b8d-51bed0a916a6","system_id":"levelo_inurba_marseille","lat":43.2998,"lon":5.3717,"is_reserved":false,"is_disabled":false,"rental_uris":{"android":"levelo://app?vid=7d145afe-48b5-4ce9-8b8d-51bed0a916a6","ios":"levelo://app?vid=7d145afe-48b5-4ce9-8b8d-51bed0a916a6"},"vehicle_type_id":"4","last_reported":1726870149,"current_range_meters":38800,"station_id":"ce4bgr92rcd13ifvqc7g","pricing_plan_id":"cebpf4jnsgd1na2vs0mg"},{"bike_id":"0039f2f3-724c-4e9c-ad07-303eb89fe473","system_id":"levelo_inurba_marseille","lat":43.26944,"lon":5.4025,"is_reserved":false,"is_disabled":false,"rental_uris":{"android":"levelo://app?vid=0039f2f3-724c-4e9c-ad07-303eb89fe473","ios":"levelo://app?vid=0039f2f3-724c-4e9c-ad07-303eb89fe473"},"vehicle_type_id":"4","last_reported":1726870149,"current_range_meters":19600,"station_id":"cjm6bp8fraef2m0cb0m0","pricing_plan_id":"cebpf4jnsgd1na2vs0mg"},{"bike_id":"7b9dd459-340b-4978-bfb0-6c163a5263e8","system_id":"levelo_inurba_marseille","lat":43.23199,"lon":5.3555,"is_reserved":false,"is_disabled":false,"rental_uris":{"android":"levelo://app?vid=7b9dd459-340b-4978-bfb0-6c163a5263e8","ios":"levelo://app?vid=7b9dd459-340b-4978-bfb0-6c163a5263e8"},"vehicle_type_id":"4","last_reported":1726870149,"current_range_meters":40000,"station_id":"ce4bhu92rcd13ifvqi70","pricing_plan_id":"cebpf4jnsgd1na2vs0mg"},{"bike_id":"0b34c002-1469-4f0b-b54e-0134780c2840","system_id":"levelo_inurba_marseille","lat":43.28937,"lon":5.36636,"is_reserved":false,"is_disabled":false,"rental_uris":{"android":"levelo://app?vid=0b34c002-1469-4f0b-b54e-0134780c2840","ios":"levelo://app?vid=0b34c002-1469-4f0b-b54e-0134780c2840"},"vehicle_type_id":"4","last_reported":1726870149,"current_range_meters":30400,"station_id":"ce4bhap2rcd13ifvqek0","pricing_plan_id":"cebpf4jnsgd1na2vs0mg"},{"bike_id":"89e844ff-c7a5-4a44-a0fd-67cf61de3b45","system_id":"levelo_inurba_marseille","lat":43.31063,"lon":5.38353,"is_reserved":false,"is_disabled":false,"rental_uris":{"android":"levelo://app?vid=89e844ff-c7a5-4a44-a0fd-67cf61de3b45","ios":"levelo://app?vid=89e844ff-c7a5-4a44-a0fd-67cf61de3b45"},"vehicle_type_id":"4","last_reported":1726870149,"current_range_meters":34000,"station_id":"ce4bgv92rcd13ifvqcr0","pricing_plan_id":"cebpf4jnsgd1na2vs0mg"},{"bike_id":"14af6286-56f0-4221-b0cf-f9a5d206a408","system_id":"levelo_inurba_marseille","lat":43.310943,"lon":5.383856,"is_reserved":false,"is_disabled":false,"rental_uris":{"android":"levelo://app?vid=14af6286-56f0-4221-b0cf-f9a5d206a408","ios":"levelo://app?vid=14af6286-56f0-4221-b0cf-f9a5d206a408"},"vehicle_type_id":"4","last_reported":1726870149,"current_range_meters":4800,"station_id":"ce4bgv92rcd13ifvqcr0","pricing_plan_id":"cebpf4jnsgd1na2vs0mg"},{"bike_id":"1ee5881e-c1d8-4588-bcff-f63aaf82bd78","system_id":"levelo_inurba_marseille","lat":43.29886,"lon":5.38906,"is_reserved":false,"is_disabled":false,"rental_uris":{"android":"levelo://app?vid=1ee5881e-c1d8-4588-bcff-f63aaf82bd78","ios":"levelo://app?vid=1ee5881e-c1d8-4588-bcff-f63aaf82bd78"},"vehicle_type_id":"4","last_reported":1726870149,"current_range_meters":6800,"station_id":"ce4bh392rcd13ifvqdl0","pricing_plan_id":"cebpf4jnsgd1na2vs0mg"},{"bike_id":"892f4805-d066-4e7c-b525-ba37d9cba74a","system_id":"levelo_inurba_marseille","lat":43.28356,"lon":5.41429,"is_reserved":false,"is_disabled":false,"rental_uris":{"android":"levelo://app?vid=892f4805-d066-4e7c-b525-ba37d9cba74a","ios":"levelo://app?vid=892f4805-d066-4e7c-b525-ba37d9cba74a"},"vehicle_type_id":"4","last_reported":1726870149,"current_range_meters":36000,"station_id":"","pricing_plan_id":"cebpf4jnsgd1na2vs0mg"},{"bike_id":"e9b8e590-3bc0-4c22-b946-0db314d5083d","system_id":"levelo_inurba_marseille","lat":43.25864,"lon":5.39904,"is_reserved":false,"is_disabled":false,"rental_uris":{"android":"levelo://app?vid=e9b8e590-3bc0-4c22-b946-0db314d5083d","ios":"levelo://app?vid=e9b8e590-3bc0-4c22-b946-0db314d5083d"},"vehicle_type_id":"4","last_reported":1726870149,"current_range_meters":8400,"station_id":"ce4bhl92rcd13ifvqghg","pricing_plan_id":"cebpf4jnsgd1na2vs0mg"},{"bike_id":"3740c6df-06cd-419b-9ae6-b8d9e5eff548","system_id":"levelo_inurba_marseille","lat":43.2753,"lon":5.40935,"is_reserved":false,"is_disabled":false,"rental_uris":{"android":"levelo://app?vid=3740c6df-06cd-419b-9ae6-b8d9e5eff548","ios":"levelo://app?vid=3740c6df-06cd-419b-9ae6-b8d9e5eff548"},"vehicle_type_id":"4","last_reported":1726870149,"current_range_meters":20400,"station_id":"","pricing_plan_id":"cebpf4jnsgd1na2vs0mg"},{"bike_id":"51f5754a-5fa4-496b-92aa-8db5fb5c04c9","system_id":"levelo_inurba_marseille","lat":43.32334,"lon":5.4062,"is_reserved":false,"is_disabled":false,"rental_uris":{"android":"levelo://app?vid=51f5754a-5fa4-496b-92aa-8db5fb5c04c9","ios":"levelo://app?vid=51f5754a-5fa4-496b-92aa-8db5fb5c04c9"},"vehicle_type_id":"4","last_reported":1726870149,"current_range_meters":25200,"station_id":"ce4bhq92rcd13ifvqhjg","pricing_plan_id":"cebpf4jnsgd1na2vs0mg"},{"bike_id":"2ce703b4-f868-4226-bdab-b34d4cd84ef6","system_id":"levelo_inurba_marseille","lat":43.33022,"lon":5.39042,"is_reserved":false,"is_disabled":false,"rental_uris":{"android":"levelo://app?vid=2ce703b4-f868-4226-bdab-b34d4cd84ef6","ios":"levelo://app?vid=2ce703b4-f868-4226-bdab-b34d4cd84ef6"},"vehicle_type_id":"4","last_reported":1726870149,"current_range_meters":9200,"station_id":"ce4bhr92rcd13ifvqhrg","pricing_plan_id":"cebpf4jnsgd1na2vs0mg"},{"bike_id":"15fa05a6-019b-4358-a389-c582b904b17a","system_id":"levelo_inurba_marseille","lat":43.27425,"lon":5.39415,"is_reserved":false,"is_disabled":false,"rental_uris":{"android":"levelo://app?vid=15fa05a6-019b-4358-a389-c582b904b17a","ios":"levelo://app?vid=15fa05a6-019b-4358-a389-c582b904b17a"},"vehicle_type_id":"4","last_reported":1726870149,"current_range_meters":3200,"station_id":"ce4bhdp2rcd13ifvqf20","pricing_plan_id":"cebpf4jnsgd1na2vs0mg"},{"bike_id":"36804418-55ab-48a2-8e52-fdbd55d4360a","system_id":"levelo_inurba_marseille","lat":43.25107,"lon":5.40322,"is_reserved":false,"is_disabled":false,"rental_uris":{"android":"levelo://app?vid=36804418-55ab-48a2-8e52-fdbd55d4360a","ios":"levelo://app?vid=36804418-55ab-48a2-8e52-fdbd55d4360a"},"vehicle_type_id":"4","last_reported":1726870149,"current_range_meters":27200,"station_id":"ce4bhlh2rcd13ifvqgig","pricing_plan_id":"cebpf4jnsgd1na2vs0mg"},{"bike_id":"422925b0-a793-4796-b72f-761108954c4d","system_id":"levelo_inurba_marseille","lat":43.28417,"lon":5.37519,"is_reserved":false,"is_disabled":false,"rental_uris":{"android":"levelo://app?vid=422925b0-a793-4796-b72f-761108954c4d","ios":"levelo://app?vid=422925b0-a793-4796-b72f-761108954c4d"},"vehicle_type_id":"4","last_reported":1726870149,"current_range_meters":38800,"station_id":"ce4bh412rcd13ifvqds0","pricing_plan_id":"cebpf4jnsgd1na2vs0mg"},{"bike_id":"60460f01-4fc1-4471-a1cc-fd64c0c52430","system_id":"levelo_inurba_marseille","lat":43.31326,"lon":5.39694,"is_reserved":false,"is_disabled":false,"rental_uris":{"android":"levelo://app?vid=60460f01-4fc1-4471-a1cc-fd64c0c52430","ios":"levelo://app?vid=60460f01-4fc1-4471-a1cc-fd64c0c52430"},"vehicle_type_id":"4","last_reported":1726870149,"current_range_meters":39200,"station_id":"ce4bgvp2rcd13ifvqcu0","pricing_plan_id":"cebpf4jnsgd1na2vs0mg"},{"bike_id":"dc69e71e-22d9-4670-848a-2aec37d2d01c","system_id":"levelo_inurba_marseille","lat":43.27938,"lon":5.41041,"is_reserved":false,"is_disabled":false,"rental_uris":{"android":"levelo://app?vid=dc69e71e-22d9-4670-848a-2aec37d2d01c","ios":"levelo://app?vid=dc69e71e-22d9-4670-848a-2aec37d2d01c"},"vehicle_type_id":"4","last_reported":1726870149,"current_range_meters":35200,"station_id":"ce4bhnp2rcd13ifvqh0g","pricing_plan_id":"cebpf4jnsgd1na2vs0mg"},{"bike_id":"aa920dc3-8475-4ea9-a170-3de0cd7446a2","system_id":"levelo_inurba_marseille","lat":43.30422,"lon":5.41279,"is_reserved":false,"is_disabled":false,"rental_uris":{"android":"levelo://app?vid=aa920dc3-8475-4ea9-a170-3de0cd7446a2","ios":"levelo://app?vid=aa920dc3-8475-4ea9-a170-3de0cd7446a2"},"vehicle_type_id":"4","last_reported":1726870149,"current_range_meters":17200,"station_id":"ce4bhop2rcd13ifvqh8g","pricing_plan_id":"cebpf4jnsgd1na2vs0mg"},{"bike_id":"45d1efd4-7555-4804-9231-37c3181ee86a","system_id":"levelo_inurba_marseille","lat":43.2908,"lon":5.38147,"is_reserved":false,"is_disabled":false,"rental_uris":{"android":"levelo://app?vid=45d1efd4-7555-4804-9231-37c3181ee86a","ios":"levelo://app?vid=45d1efd4-7555-4804-9231-37c3181ee86a"},"vehicle_type_id":"4","last_reported":1726870149,"current_range_meters":6800,"station_id":"ce4bh512rcd13ifvqe2g","pricing_plan_id":"cebpf4jnsgd1na2vs0mg"},{"bike_id":"bab4929f-2ee8-4e72-abcd-10338869bd8f","system_id":"levelo_inurba_marseille","lat":43.312753,"lon":5.401715,"is_reserved":false,"is_disabled":false,"rental_uris":{"android":"levelo://app?vid=bab4929f-2ee8-4e72-abcd-10338869bd8f","ios":"levelo://app?vid=bab4929f-2ee8-4e72-abcd-10338869bd8f"},"vehicle_type_id":"4","last_reported":1726870149,"current_range_meters":35600,"station_id":"ce4bh092rcd13ifvqd30","pricing_plan_id":"cebpf4jnsgd1na2vs0mg"},{"bike_id":"d65cbc32-3a83-4b2e-90d3-f60b7e66b84a","system_id":"levelo_inurba_marseille","lat":43.29546,"lon":5.42274,"is_reserved":false,"is_disabled":false,"rental_uris":{"android":"levelo://app?vid=d65cbc32-3a83-4b2e-90d3-f60b7e66b84a","ios":"levelo://app?vid=d65cbc32-3a83-4b2e-90d3-f60b7e66b84a"},"vehicle_type_id":"4","last_reported":1726870149,"current_range_meters":38400,"station_id":"ce4bhph2rcd13ifvqhdg","pricing_plan_id":"cebpf4jnsgd1na2vs0mg"},{"bike_id":"8840280b-f1a1-453b-a699-0297b2c84438","system_id":"levelo_inurba_marseille","lat":43.28937,"lon":5.36633,"is_reserved":false,"is_disabled":false,"rental_uris":{"android":"levelo://app?vid=8840280b-f1a1-453b-a699-0297b2c84438","ios":"levelo://app?vid=8840280b-f1a1-453b-a699-0297b2c84438"},"vehicle_type_id":"4","last_reported":1726870149,"current_range_meters":37600,"station_id":"ce4bhap2rcd13ifvqek0","pricing_plan_id":"cebpf4jnsgd1na2vs0mg"},{"bike_id":"3261e81d-6f13-45a4-ba96-33ed382e28e0","system_id":"levelo_inurba_marseille","lat":43.28073,"lon":5.39649,"is_reserved":false,"is_disabled":false,"rental_uris":{"android":"levelo://app?vid=3261e81d-6f13-45a4-ba96-33ed382e28e0","ios":"levelo://app?vid=3261e81d-6f13-45a4-ba96-33ed382e28e0"},"vehicle_type_id":"4","last_reported":1726870149,"current_range_meters":39200,"station_id":"ce4bho12rcd13ifvqh2g","pricing_plan_id":"cebpf4jnsgd1na2vs0mg"},{"bike_id":"1e1c92ea-4100-48a4-80e0-a529141b8530","system_id":"levelo_inurba_marseille","lat":43.30647,"lon":5.4009,"is_reserved":false,"is_disabled":false,"rental_uris":{"android":"levelo://app?vid=1e1c92ea-4100-48a4-80e0-a529141b8530","ios":"levelo://app?vid=1e1c92ea-4100-48a4-80e0-a529141b8530"},"vehicle_type_id":"4","last_reported":1726870149,"current_range_meters":25200,"station_id":"ce4bh112rcd13ifvqda0","pricing_plan_id":"cebpf4jnsgd1na2vs0mg"},{"bike_id":"13bb80a5-7bdd-494b-ab61-ee1a5d50e2dd","system_id":"levelo_inurba_marseille","lat":43.28937,"lon":5.36627,"is_reserved":false,"is_disabled":false,"rental_uris":{"android":"levelo://app?vid=13bb80a5-7bdd-494b-ab61-ee1a5d50e2dd","ios":"levelo://app?vid=13bb80a5-7bdd-494b-ab61-ee1a5d50e2dd"},"vehicle_type_id":"4","last_reported":1726870149,"current_range_meters":38400,"station_id":"ce4bhap2rcd13ifvqek0","pricing_plan_id":"cebpf4jnsgd1na2vs0mg"},{"bike_id":"81437a93-aba3-423a-96ab-d420c4e83f71","system_id":"levelo_inurba_marseille","lat":43.31756,"lon":5.39011,"is_reserved":false,"is_disabled":false,"rental_uris":{"android":"levelo://app?vid=81437a93-aba3-423a-96ab-d420c4e83f71","ios":"levelo://app?vid=81437a93-aba3-423a-96ab-d420c4e83f71"},"vehicle_type_id":"4","last_reported":1726870149,"current_range_meters":25200,"station_id":"ce4bhqp2rcd13ifvqhng","pricing_plan_id":"cebpf4jnsgd1na2vs0mg"},{"bike_id":"7d6a4ae0-5563-478e-a351-f52ab08c155f","system_id":"levelo_inurba_marseille","lat":43.28351,"lon":5.38102,"is_reserved":false,"is_disabled":false,"rental_uris":{"android":"levelo://app?vid=7d6a4ae0-5563-478e-a351-f52ab08c155f","ios":"levelo://app?vid=7d6a4ae0-5563-478e-a351-f52ab08c155f"},"vehicle_type_id":"4","last_reported":1726870149,"current_range_meters":27600,"station_id":"ce4bh412rcd13ifvqdr0","pricing_plan_id":"cebpf4jnsgd1na2vs0mg"},{"bike_id":"7b0f6396-f6bf-4400-8203-896f7d4134f2","system_id":"levelo_inurba_marseille","lat":43.32745,"lon":5.39098,"is_reserved":false,"is_disabled":false,"rental_uris":{"android":"levelo://app?vid=7b0f6396-f6bf-4400-8203-896f7d4134f2","ios":"levelo://app?vid=7b0f6396-f6bf-4400-8203-896f7d4134f2"},"vehicle_type_id":"4","last_reported":1726870149,"current_range_meters":24000,"station_id":"","pricing_plan_id":"cebpf4jnsgd1na2vs0mg"},{"bike_id":"ed48508b-855a-459f-be2b-43ee97b2a3e1","system_id":"levelo_inurba_marseille","lat":43.28474,"lon":5.38402,"is_reserved":false,"is_disabled":false,"rental_uris":{"android":"levelo://app?vid=ed48508b-855a-459f-be2b-43ee97b2a3e1","ios":"levelo://app?vid=ed48508b-855a-459f-be2b-43ee97b2a3e1"},"vehicle_type_id":"4","last_reported":1726870149,"current_range_meters":26800,"station_id":"ce4bh512rcd13ifvqe3g","pricing_plan_id":"cebpf4jnsgd1na2vs0mg"},{"bike_id":"2eac50e5-7011-4a43-8936-b2ff6ff99a36","system_id":"levelo_inurba_marseille","lat":43.31078,"lon":5.38359,"is_reserved":false,"is_disabled":false,"rental_uris":{"android":"levelo://app?vid=2eac50e5-7011-4a43-8936-b2ff6ff99a36","ios":"levelo://app?vid=2eac50e5-7011-4a43-8936-b2ff6ff99a36"},"vehicle_type_id":"4","last_reported":1726870149,"current_range_meters":27600,"station_id":"ce4bgv92rcd13ifvqcr0","pricing_plan_id":"cebpf4jnsgd1na2vs0mg"},{"bike_id":"bdc2dd31-442c-4eeb-b951-a54134fa2840","system_id":"levelo_inurba_marseille","lat":43.28026,"lon":5.3695,"is_reserved":false,"is_disabled":false,"rental_uris":{"android":"levelo://app?vid=bdc2dd31-442c-4eeb-b951-a54134fa2840","ios":"levelo://app?vid=bdc2dd31-442c-4eeb-b951-a54134fa2840"},"vehicle_type_id":"4","last_reported":1726870149,"current_range_meters":24000,"station_id":"ce4bha12rcd13ifvqef0","pricing_plan_id":"cebpf4jnsgd1na2vs0mg"},{"bike_id":"4f6cd953-65f5-4d4f-a052-70118d864e1d","system_id":"levelo_inurba_marseille","lat":43.29893,"lon":5.43669,"is_reserved":false,"is_disabled":false,"rental_uris":{"android":"levelo://app?vid=4f6cd953-65f5-4d4f-a052-70118d864e1d","ios":"levelo://app?vid=4f6cd953-65f5-4d4f-a052-70118d864e1d"},"vehicle_type_id":"4","last_reported":1726870149,"current_range_meters":10800,"station_id":"ce4bhpp2rcd13ifvqhfg","pricing_plan_id":"cebpf4jnsgd1na2vs0mg"},{"bike_id":"584341dc-27e4-423c-8e5d-e6dece8a8040","system_id":"levelo_inurba_marseille","lat":43.29966,"lon":5.38496,"is_reserved":false,"is_disabled":false,"rental_uris":{"android":"levelo://app?vid=584341dc-27e4-423c-8e5d-e6dece8a8040","ios":"levelo://app?vid=584341dc-27e4-423c-8e5d-e6dece8a8040"},"vehicle_type_id":"4","last_reported":1726870149,"current_range_meters":22400,"station_id":"ce4bgj92rcd13ifvqbd0","pricing_plan_id":"cebpf4jnsgd1na2vs0mg"},{"bike_id":"0cbd7f65-c27f-4154-af83-97063396f9fb","system_id":"levelo_inurba_marseille","lat":43.29734,"lon":5.39271,"is_reserved":false,"is_disabled":false,"rental_uris":{"android":"levelo://app?vid=0cbd7f65-c27f-4154-af83-97063396f9fb","ios":"levelo://app?vid=0cbd7f65-c27f-4154-af83-97063396f9fb"},"vehicle_type_id":"4","last_reported":1726870149,"current_range_meters":26800,"station_id":"","pricing_plan_id":"cebpf4jnsgd1na2vs0mg"},{"bike_id":"019fb69a-1999-4333-8000-b962cec133fb","system_id":"levelo_inurba_marseille","lat":43.27949,"lon":5.41045,"is_reserved":false,"is_disabled":false,"rental_uris":{"android":"levelo://app?vid=019fb69a-1999-4333-8000-b962cec133fb","ios":"levelo://app?vid=019fb69a-1999-4333-8000-b962cec133fb"},"vehicle_type_id":"4","last_reported":1726870149,"current_range_meters":10000,"station_id":"ce4bhnp2rcd13ifvqh0g","pricing_plan_id":"cebpf4jnsgd1na2vs0mg"},{"bike_id":"610ae2bc-1ce0-4157-8b8a-62d460f1da9c","system_id":"levelo_inurba_marseille","lat":43.22922,"lon":5.35376,"is_reserved":false,"is_disabled":false,"rental_uris":{"android":"levelo://app?vid=610ae2bc-1ce0-4157-8b8a-62d460f1da9c","ios":"levelo://app?vid=610ae2bc-1ce0-4157-8b8a-62d460f1da9c"},"vehicle_type_id":"4","last_reported":1726870149,"current_range_meters":8800,"station_id":"cpo3532slgdg3j2ikp40","pricing_plan_id":"cebpf4jnsgd1na2vs0mg"},{"bike_id":"437d7254-4081-4ab2-bd2e-34dedca9de98","system_id":"levelo_inurba_marseille","lat":43.3078,"lon":5.3765,"is_reserved":false,"is_disabled":false,"rental_uris":{"android":"levelo://app?vid=437d7254-4081-4ab2-bd2e-34dedca9de98","ios":"levelo://app?vid=437d7254-4081-4ab2-bd2e-34dedca9de98"},"vehicle_type_id":"4","last_reported":1726870149,"current_range_meters":16800,"station_id":"ce4bgv92rcd13ifvqcq0","pricing_plan_id":"cebpf4jnsgd1na2vs0mg"},{"bike_id":"433e4836-5106-4976-a38f-2f1ad4fbfd71","system_id":"levelo_inurba_marseille","lat":43.31489,"lon":5.373,"is_reserved":false,"is_disabled":false,"rental_uris":{"android":"levelo://app?vid=433e4836-5106-4976-a38f-2f1ad4fbfd71","ios":"levelo://app?vid=433e4836-5106-4976-a38f-2f1ad4fbfd71"},"vehicle_type_id":"4","last_reported":1726870149,"current_range_meters":24000,"station_id":"ce4bgt12rcd13ifvqcd0","pricing_plan_id":"cebpf4jnsgd1na2vs0mg"},{"bike_id":"2e0ad234-46bd-4aa7-aed9-b44f50fc5c66","system_id":"levelo_inurba_marseille","lat":43.28083,"lon":5.39657,"is_reserved":false,"is_disabled":false,"rental_uris":{"android":"levelo://app?vid=2e0ad234-46bd-4aa7-aed9-b44f50fc5c66","ios":"levelo://app?vid=2e0ad234-46bd-4aa7-aed9-b44f50fc5c66"},"vehicle_type_id":"4","last_reported":1726870149,"current_range_meters":39200,"station_id":"ce4bho12rcd13ifvqh2g","pricing_plan_id":"cebpf4jnsgd1na2vs0mg"},{"bike_id":"e4104a87-0282-4c26-a2dd-7f9f1c702587","system_id":"levelo_inurba_marseille","lat":43.28461,"lon":5.35888,"is_reserved":false,"is_disabled":false,"rental_uris":{"android":"levelo://app?vid=e4104a87-0282-4c26-a2dd-7f9f1c702587","ios":"levelo://app?vid=e4104a87-0282-4c26-a2dd-7f9f1c702587"},"vehicle_type_id":"4","last_reported":1726870149,"current_range_meters":13600,"station_id":"ce4bhah2rcd13ifvqei0","pricing_plan_id":"cebpf4jnsgd1na2vs0mg"},{"bike_id":"12182b71-6bbf-4b0a-9285-82b30c3ddc19","system_id":"levelo_inurba_marseille","lat":43.29912,"lon":5.38149,"is_reserved":false,"is_disabled":false,"rental_uris":{"android":"levelo://app?vid=12182b71-6bbf-4b0a-9285-82b30c3ddc19","ios":"levelo://app?vid=12182b71-6bbf-4b0a-9285-82b30c3ddc19"},"vehicle_type_id":"4","last_reported":1726870149,"current_range_meters":20800,"station_id":"ce4bgj12rcd13ifvqbc0","pricing_plan_id":"cebpf4jnsgd1na2vs0mg"},{"bike_id":"58014cc6-4f39-4119-a8a0-cdc0e2507820","system_id":"levelo_inurba_marseille","lat":43.32291,"lon":5.38265,"is_reserved":false,"is_disabled":false,"rental_uris":{"android":"levelo://app?vid=58014cc6-4f39-4119-a8a0-cdc0e2507820","ios":"levelo://app?vid=58014cc6-4f39-4119-a8a0-cdc0e2507820"},"vehicle_type_id":"4","last_reported":1726870149,"current_range_meters":38800,"station_id":"ce4bhr12rcd13ifvqhqg","pricing_plan_id":"cebpf4jnsgd1na2vs0mg"},{"bike_id":"7bf73dc9-c1ca-473f-ba3d-0c39cb05dc85","system_id":"levelo_inurba_marseille","lat":43.28462,"lon":5.35889,"is_reserved":false,"is_disabled":false,"rental_uris":{"android":"levelo://app?vid=7bf73dc9-c1ca-473f-ba3d-0c39cb05dc85","ios":"levelo://app?vid=7bf73dc9-c1ca-473f-ba3d-0c39cb05dc85"},"vehicle_type_id":"4","last_reported":1726870149,"current_range_meters":36000,"station_id":"ce4bhah2rcd13ifvqei0","pricing_plan_id":"cebpf4jnsgd1na2vs0mg"},{"bike_id":"29058ff5-4d24-4c57-9c80-3c616b905bac","system_id":"levelo_inurba_marseille","lat":43.29553,"lon":5.42283,"is_reserved":false,"is_disabled":false,"rental_uris":{"android":"levelo://app?vid=29058ff5-4d24-4c57-9c80-3c616b905bac","ios":"levelo://app?vid=29058ff5-4d24-4c57-9c80-3c616b905bac"},"vehicle_type_id":"4","last_reported":1726870149,"current_range_meters":38800,"station_id":"ce4bhph2rcd13ifvqhdg","pricing_plan_id":"cebpf4jnsgd1na2vs0mg"},{"bike_id":"64e79484-97e5-4ba5-b180-557cc92ad669","system_id":"levelo_inurba_marseille","lat":43.28372,"lon":5.38641,"is_reserved":false,"is_disabled":false,"rental_uris":{"android":"levelo://app?vid=64e79484-97e5-4ba5-b180-557cc92ad669","ios":"levelo://app?vid=64e79484-97e5-4ba5-b180-557cc92ad669"},"vehicle_type_id":"4","last_reported":1726870149,"current_range_meters":11200,"station_id":"ce4bh492rcd13ifvqdvg","pricing_plan_id":"cebpf4jnsgd1na2vs0mg"},{"bike_id":"135a9a01-ae33-4dc2-882a-5fa02e4d035c","system_id":"levelo_inurba_marseille","lat":43.31164,"lon":5.38706,"is_reserved":false,"is_disabled":false,"rental_uris":{"android":"levelo://app?vid=135a9a01-ae33-4dc2-882a-5fa02e4d035c","ios":"levelo://app?vid=135a9a01-ae33-4dc2-882a-5fa02e4d035c"},"vehicle_type_id":"4","last_reported":1726870149,"current_range_meters":11600,"station_id":"ce4bgv12rcd13ifvqcp0","pricing_plan_id":"cebpf4jnsgd1na2vs0mg"},{"bike_id":"bce83964-771d-421d-a795-c2b376c5b9dc","system_id":"levelo_inurba_marseille","lat":43.2319,"lon":5.35548,"is_reserved":false,"is_disabled":false,"rental_uris":{"android":"levelo://app?vid=bce83964-771d-421d-a795-c2b376c5b9dc","ios":"levelo://app?vid=bce83964-771d-421d-a795-c2b376c5b9dc"},"vehicle_type_id":"4","last_reported":1726870149,"current_range_meters":18800,"station_id":"ce4bhu92rcd13ifvqi70","pricing_plan_id":"cebpf4jnsgd1na2vs0mg"},{"bike_id":"d8646183-4cac-49c4-a3ce-0f34e3bebaa3","system_id":"levelo_inurba_marseille","lat":43.31325,"lon":5.39686,"is_reserved":false,"is_disabled":false,"rental_uris":{"android":"levelo://app?vid=d8646183-4cac-49c4-a3ce-0f34e3bebaa3","ios":"levelo://app?vid=d8646183-4cac-49c4-a3ce-0f34e3bebaa3"},"vehicle_type_id":"4","last_reported":1726870149,"current_range_meters":9600,"station_id":"ce4bgvp2rcd13ifvqcu0","pricing_plan_id":"cebpf4jnsgd1na2vs0mg"},{"bike_id":"c39b4434-8afc-4f61-abc7-01b2defbd96b","system_id":"levelo_inurba_marseille","lat":43.25502,"lon":5.37648,"is_reserved":false,"is_disabled":false,"rental_uris":{"android":"levelo://app?vid=c39b4434-8afc-4f61-abc7-01b2defbd96b","ios":"levelo://app?vid=c39b4434-8afc-4f61-abc7-01b2defbd96b"},"vehicle_type_id":"4","last_reported":1726870149,"current_range_meters":22000,"station_id":"ce4bhh12rcd13ifvqff0","pricing_plan_id":"cebpf4jnsgd1na2vs0mg"},{"bike_id":"5c4bffed-0019-4b39-a45e-d1fccf257ffb","system_id":"levelo_inurba_marseille","lat":43.3133,"lon":5.397,"is_reserved":false,"is_disabled":false,"rental_uris":{"android":"levelo://app?vid=5c4bffed-0019-4b39-a45e-d1fccf257ffb","ios":"levelo://app?vid=5c4bffed-0019-4b39-a45e-d1fccf257ffb"},"vehicle_type_id":"4","last_reported":1726870149,"current_range_meters":29600,"station_id":"ce4bgvp2rcd13ifvqcu0","pricing_plan_id":"cebpf4jnsgd1na2vs0mg"},{"bike_id":"1b20b6b4-c339-436d-8d2e-e13a27017b22","system_id":"levelo_inurba_marseille","lat":43.29035,"lon":5.39971,"is_reserved":false,"is_disabled":false,"rental_uris":{"android":"levelo://app?vid=1b20b6b4-c339-436d-8d2e-e13a27017b22","ios":"levelo://app?vid=1b20b6b4-c339-436d-8d2e-e13a27017b22"},"vehicle_type_id":"4","last_reported":1726870149,"current_range_meters":21600,"station_id":"ce4bh392rcd13ifvqdm0","pricing_plan_id":"cebpf4jnsgd1na2vs0mg"},{"bike_id":"4bc555cb-e6a9-407c-a17e-97ad3d918bd6","system_id":"levelo_inurba_marseille","lat":43.27622,"lon":5.36116,"is_reserved":false,"is_disabled":false,"rental_uris":{"android":"levelo://app?vid=4bc555cb-e6a9-407c-a17e-97ad3d918bd6","ios":"levelo://app?vid=4bc555cb-e6a9-407c-a17e-97ad3d918bd6"},"vehicle_type_id":"4","last_reported":1726870149,"current_range_meters":37600,"station_id":"ce4bgj92rcd13ifvqbe0","pricing_plan_id":"cebpf4jnsgd1na2vs0mg"},{"bike_id":"19c047d1-8b34-476a-a574-87cd06cc1975","system_id":"levelo_inurba_marseille","lat":43.29195,"lon":5.39318,"is_reserved":false,"is_disabled":false,"rental_uris":{"android":"levelo://app?vid=19c047d1-8b34-476a-a574-87cd06cc1975","ios":"levelo://app?vid=19c047d1-8b34-476a-a574-87cd06cc1975"},"vehicle_type_id":"4","last_reported":1726870149,"current_range_meters":9600,"station_id":"ce4bh192rcd13ifvqdd0","pricing_plan_id":"cebpf4jnsgd1na2vs0mg"},{"bike_id":"99cd03d9-f961-49a3-ba27-937343d02a5c","system_id":"levelo_inurba_marseille","lat":43.29269,"lon":5.36843,"is_reserved":false,"is_disabled":false,"rental_uris":{"android":"levelo://app?vid=99cd03d9-f961-49a3-ba27-937343d02a5c","ios":"levelo://app?vid=99cd03d9-f961-49a3-ba27-937343d02a5c"},"vehicle_type_id":"4","last_reported":1726870149,"current_range_meters":38400,"station_id":"ce4bhbp2rcd13ifvqesg","pricing_plan_id":"cebpf4jnsgd1na2vs0mg"},{"bike_id":"9418d43d-dce8-4f9a-89f8-74e31cd7355a","system_id":"levelo_inurba_marseille","lat":43.303451,"lon":5.404476,"is_reserved":false,"is_disabled":false,"rental_uris":{"android":"levelo://app?vid=9418d43d-dce8-4f9a-89f8-74e31cd7355a","ios":"levelo://app?vid=9418d43d-dce8-4f9a-89f8-74e31cd7355a"},"vehicle_type_id":"4","last_reported":1726870149,"current_range_meters":24400,"station_id":"ce4bh012rcd13ifvqd10","pricing_plan_id":"cebpf4jnsgd1na2vs0mg"},{"bike_id":"9ccced35-5efa-4c8a-9ad4-8c1689684396","system_id":"levelo_inurba_marseille","lat":43.27832,"lon":5.39207,"is_reserved":false,"is_disabled":false,"rental_uris":{"android":"levelo://app?vid=9ccced35-5efa-4c8a-9ad4-8c1689684396","ios":"levelo://app?vid=9ccced35-5efa-4c8a-9ad4-8c1689684396"},"vehicle_type_id":"4","last_reported":1726870149,"current_range_meters":8400,"station_id":"ce4bhjp2rcd13ifvqga0","pricing_plan_id":"cebpf4jnsgd1na2vs0mg"},{"bike_id":"b397606b-15cd-4f46-84c0-aad5096bbeff","system_id":"levelo_inurba_marseille","lat":43.25104,"lon":5.40321,"is_reserved":false,"is_disabled":false,"rental_uris":{"android":"levelo://app?vid=b397606b-15cd-4f46-84c0-aad5096bbeff","ios":"levelo://app?vid=b397606b-15cd-4f46-84c0-aad5096bbeff"},"vehicle_type_id":"4","last_reported":1726870149,"current_range_meters":30000,"station_id":"ce4bhlh2rcd13ifvqgig","pricing_plan_id":"cebpf4jnsgd1na2vs0mg"},{"bike_id":"1fde404c-9cf2-4958-aae0-8663260fee10","system_id":"levelo_inurba_marseille","lat":43.33602,"lon":5.41016,"is_reserved":false,"is_disabled":false,"rental_uris":{"android":"levelo://app?vid=1fde404c-9cf2-4958-aae0-8663260fee10","ios":"levelo://app?vid=1fde404c-9cf2-4958-aae0-8663260fee10"},"vehicle_type_id":"4","last_reported":1726870149,"current_range_meters":28000,"station_id":"ce4bhqh2rcd13ifvqhmg","pricing_plan_id":"cebpf4jnsgd1na2vs0mg"},{"bike_id":"b5840fd6-e3f9-451b-a2fc-ac9f594ce5e2","system_id":"levelo_inurba_marseille","lat":43.29265,"lon":5.38447,"is_reserved":false,"is_disabled":false,"rental_uris":{"android":"levelo://app?vid=b5840fd6-e3f9-451b-a2fc-ac9f594ce5e2","ios":"levelo://app?vid=b5840fd6-e3f9-451b-a2fc-ac9f594ce5e2"},"vehicle_type_id":"4","last_reported":1726870149,"current_range_meters":24000,"station_id":"ce4bh692rcd13ifvqea0","pricing_plan_id":"cebpf4jnsgd1na2vs0mg"},{"bike_id":"80b6baeb-ba54-4307-a6e1-6281926ae38c","system_id":"levelo_inurba_marseille","lat":43.23184,"lon":5.39982,"is_reserved":false,"is_disabled":false,"rental_uris":{"android":"levelo://app?vid=80b6baeb-ba54-4307-a6e1-6281926ae38c","ios":"levelo://app?vid=80b6baeb-ba54-4307-a6e1-6281926ae38c"},"vehicle_type_id":"4","last_reported":1726870149,"current_range_meters":38800,"station_id":"ce4bhn12rcd13ifvqgqg","pricing_plan_id":"cebpf4jnsgd1na2vs0mg"},{"bike_id":"7cd0a2ae-b1ad-4eb1-9959-9985c17e34fd","system_id":"levelo_inurba_marseille","lat":43.24554,"lon":5.39521,"is_reserved":false,"is_disabled":false,"rental_uris":{"android":"levelo://app?vid=7cd0a2ae-b1ad-4eb1-9959-9985c17e34fd","ios":"levelo://app?vid=7cd0a2ae-b1ad-4eb1-9959-9985c17e34fd"},"vehicle_type_id":"4","last_reported":1726870149,"current_range_meters":27600,"station_id":"ce4bhlp2rcd13ifvqgjg","pricing_plan_id":"cebpf4jnsgd1na2vs0mg"},{"bike_id":"2bff59b5-cdd3-434d-b96d-330b187f81f7","system_id":"levelo_inurba_marseille","lat":43.29793,"lon":5.39341,"is_reserved":false,"is_disabled":false,"rental_uris":{"android":"levelo://app?vid=2bff59b5-cdd3-434d-b96d-330b187f81f7","ios":"levelo://app?vid=2bff59b5-cdd3-434d-b96d-330b187f81f7"},"vehicle_type_id":"4","last_reported":1726870149,"current_range_meters":30800,"station_id":"chh1huq6cuj3fo74tm60","pricing_plan_id":"cebpf4jnsgd1na2vs0mg"},{"bike_id":"fa2e946d-01fe-4bb4-a2b0-55af60a0bcec","system_id":"levelo_inurba_marseille","lat":43.33727,"lon":5.39183,"is_reserved":false,"is_disabled":false,"rental_uris":{"android":"levelo://app?vid=fa2e946d-01fe-4bb4-a2b0-55af60a0bcec","ios":"levelo://app?vid=fa2e946d-01fe-4bb4-a2b0-55af60a0bcec"},"vehicle_type_id":"4","last_reported":1726870149,"current_range_meters":34800,"station_id":"ce4bhr92rcd13ifvqhsg","pricing_plan_id":"cebpf4jnsgd1na2vs0mg"},{"bike_id":"1b5a68b3-3a47-443a-8e57-42a2ae15f0af","system_id":"levelo_inurba_marseille","lat":43.27676,"lon":5.38886,"is_reserved":false,"is_disabled":false,"rental_uris":{"android":"levelo://app?vid=1b5a68b3-3a47-443a-8e57-42a2ae15f0af","ios":"levelo://app?vid=1b5a68b3-3a47-443a-8e57-42a2ae15f0af"},"vehicle_type_id":"4","last_reported":1726870149,"current_range_meters":26000,"station_id":"ce4bhi12rcd13ifvqfo0","pricing_plan_id":"cebpf4jnsgd1na2vs0mg"},{"bike_id":"96f9a91d-428e-493e-b8c0-fcd22d3c14f4","system_id":"levelo_inurba_marseille","lat":43.23189,"lon":5.3998,"is_reserved":false,"is_disabled":false,"rental_uris":{"android":"levelo://app?vid=96f9a91d-428e-493e-b8c0-fcd22d3c14f4","ios":"levelo://app?vid=96f9a91d-428e-493e-b8c0-fcd22d3c14f4"},"vehicle_type_id":"4","last_reported":1726870149,"current_range_meters":24400,"station_id":"ce4bhn12rcd13ifvqgqg","pricing_plan_id":"cebpf4jnsgd1na2vs0mg"},{"bike_id":"802e9d4b-0243-4187-b781-6927e3ccd6f9","system_id":"levelo_inurba_marseille","lat":43.29198,"lon":5.39315,"is_reserved":false,"is_disabled":false,"rental_uris":{"android":"levelo://app?vid=802e9d4b-0243-4187-b781-6927e3ccd6f9","ios":"levelo://app?vid=802e9d4b-0243-4187-b781-6927e3ccd6f9"},"vehicle_type_id":"4","last_reported":1726870149,"current_range_meters":8800,"station_id":"ce4bh192rcd13ifvqdd0","pricing_plan_id":"cebpf4jnsgd1na2vs0mg"},{"bike_id":"b9b686a7-3257-4d0b-8a82-75ee0d22ab68","system_id":"levelo_inurba_marseille","lat":43.33024,"lon":5.39045,"is_reserved":false,"is_disabled":false,"rental_uris":{"android":"levelo://app?vid=b9b686a7-3257-4d0b-8a82-75ee0d22ab68","ios":"levelo://app?vid=b9b686a7-3257-4d0b-8a82-75ee0d22ab68"},"vehicle_type_id":"4","last_reported":1726870149,"current_range_meters":25600,"station_id":"ce4bhr92rcd13ifvqhrg","pricing_plan_id":"cebpf4jnsgd1na2vs0mg"},{"bike_id":"6f02fe26-b439-45e1-9c72-f2a6992510d2","system_id":"levelo_inurba_marseille","lat":43.289337,"lon":5.396256,"is_reserved":false,"is_disabled":false,"rental_uris":{"android":"levelo://app?vid=6f02fe26-b439-45e1-9c72-f2a6992510d2","ios":"levelo://app?vid=6f02fe26-b439-45e1-9c72-f2a6992510d2"},"vehicle_type_id":"4","last_reported":1726870149,"current_range_meters":32000,"station_id":"ce4bh3h2rcd13ifvqdn0","pricing_plan_id":"cebpf4jnsgd1na2vs0mg"},{"bike_id":"bb7fb1ad-b430-47e9-a8c4-e3b892842699","system_id":"levelo_inurba_marseille","lat":43.31115,"lon":5.37766,"is_reserved":false,"is_disabled":false,"rental_uris":{"android":"levelo://app?vid=bb7fb1ad-b430-47e9-a8c4-e3b892842699","ios":"levelo://app?vid=bb7fb1ad-b430-47e9-a8c4-e3b892842699"},"vehicle_type_id":"4","last_reported":1726870149,"current_range_meters":11600,"station_id":"ce4bgt92rcd13ifvqcg0","pricing_plan_id":"cebpf4jnsgd1na2vs0mg"},{"bike_id":"5f906161-bd06-42fc-8ff6-b16fb9cf391b","system_id":"levelo_inurba_marseille","lat":43.31325,"lon":5.39689,"is_reserved":false,"is_disabled":false,"rental_uris":{"android":"levelo://app?vid=5f906161-bd06-42fc-8ff6-b16fb9cf391b","ios":"levelo://app?vid=5f906161-bd06-42fc-8ff6-b16fb9cf391b"},"vehicle_type_id":"4","last_reported":1726870149,"current_range_meters":38800,"station_id":"ce4bgvp2rcd13ifvqcu0","pricing_plan_id":"cebpf4jnsgd1na2vs0mg"},{"bike_id":"b869f1ae-f37d-464a-8d18-0fd8cd3f314c","system_id":"levelo_inurba_marseille","lat":43.29186,"lon":5.40652,"is_reserved":false,"is_disabled":false,"rental_uris":{"android":"levelo://app?vid=b869f1ae-f37d-464a-8d18-0fd8cd3f314c","ios":"levelo://app?vid=b869f1ae-f37d-464a-8d18-0fd8cd3f314c"},"vehicle_type_id":"4","last_reported":1726870149,"current_range_meters":7200,"station_id":"","pricing_plan_id":"cebpf4jnsgd1na2vs0mg"},{"bike_id":"7df6021a-d790-4828-af7c-f35fd9f70217","system_id":"levelo_inurba_marseille","lat":43.28931,"lon":5.36634,"is_reserved":false,"is_disabled":false,"rental_uris":{"android":"levelo://app?vid=7df6021a-d790-4828-af7c-f35fd9f70217","ios":"levelo://app?vid=7df6021a-d790-4828-af7c-f35fd9f70217"},"vehicle_type_id":"4","last_reported":1726870149,"current_range_meters":33200,"station_id":"ce4bhap2rcd13ifvqek0","pricing_plan_id":"cebpf4jnsgd1na2vs0mg"},{"bike_id":"9c1d0b09-5061-43b6-b786-c6d574a71848","system_id":"levelo_inurba_marseille","lat":43.30101,"lon":5.39074,"is_reserved":false,"is_disabled":false,"rental_uris":{"android":"levelo://app?vid=9c1d0b09-5061-43b6-b786-c6d574a71848","ios":"levelo://app?vid=9c1d0b09-5061-43b6-b786-c6d574a71848"},"vehicle_type_id":"4","last_reported":1726870149,"current_range_meters":14000,"station_id":"ce4bh192rcd13ifvqdb0","pricing_plan_id":"cebpf4jnsgd1na2vs0mg"},{"bike_id":"e5cbe3f7-a205-4480-9b95-bf2fa63015ef","system_id":"levelo_inurba_marseille","lat":43.28715,"lon":5.36088,"is_reserved":false,"is_disabled":false,"rental_uris":{"android":"levelo://app?vid=e5cbe3f7-a205-4480-9b95-bf2fa63015ef","ios":"levelo://app?vid=e5cbe3f7-a205-4480-9b95-bf2fa63015ef"},"vehicle_type_id":"4","last_reported":1726870149,"current_range_meters":14000,"station_id":"cki0cbj6b192h4jlfktg","pricing_plan_id":"cebpf4jnsgd1na2vs0mg"},{"bike_id":"fa690805-233a-4a70-a9f3-33f1b67cdb1f","system_id":"levelo_inurba_marseille","lat":43.32293,"lon":5.3825,"is_reserved":false,"is_disabled":false,"rental_uris":{"android":"levelo://app?vid=fa690805-233a-4a70-a9f3-33f1b67cdb1f","ios":"levelo://app?vid=fa690805-233a-4a70-a9f3-33f1b67cdb1f"},"vehicle_type_id":"4","last_reported":1726870149,"current_range_meters":16000,"station_id":"ce4bhr12rcd13ifvqhqg","pricing_plan_id":"cebpf4jnsgd1na2vs0mg"},{"bike_id":"b27bd64a-6a47-434e-9657-70fe25875cca","system_id":"levelo_inurba_marseille","lat":43.31169,"lon":5.38716,"is_reserved":false,"is_disabled":false,"rental_uris":{"android":"levelo://app?vid=b27bd64a-6a47-434e-9657-70fe25875cca","ios":"levelo://app?vid=b27bd64a-6a47-434e-9657-70fe25875cca"},"vehicle_type_id":"4","last_reported":1726870149,"current_range_meters":6400,"station_id":"ce4bgv12rcd13ifvqcp0","pricing_plan_id":"cebpf4jnsgd1na2vs0mg"},{"bike_id":"7e3571e7-d499-4677-ad33-f5d3d01a2a81","system_id":"levelo_inurba_marseille","lat":43.25011,"lon":5.38934,"is_reserved":false,"is_disabled":false,"rental_uris":{"android":"levelo://app?vid=7e3571e7-d499-4677-ad33-f5d3d01a2a81","ios":"levelo://app?vid=7e3571e7-d499-4677-ad33-f5d3d01a2a81"},"vehicle_type_id":"4","last_reported":1726870149,"current_range_meters":38800,"station_id":"ce4bhgp2rcd13ifvqfd0","pricing_plan_id":"cebpf4jnsgd1na2vs0mg"},{"bike_id":"89496093-5d19-4d2d-af92-b4327367eb09","system_id":"levelo_inurba_marseille","lat":43.25863,"lon":5.39904,"is_reserved":false,"is_disabled":false,"rental_uris":{"android":"levelo://app?vid=89496093-5d19-4d2d-af92-b4327367eb09","ios":"levelo://app?vid=89496093-5d19-4d2d-af92-b4327367eb09"},"vehicle_type_id":"4","last_reported":1726870149,"current_range_meters":7200,"station_id":"ce4bhl92rcd13ifvqghg","pricing_plan_id":"cebpf4jnsgd1na2vs0mg"},{"bike_id":"c1233b53-04ce-4561-ba6f-55ed1650dc20","system_id":"levelo_inurba_marseille","lat":43.29513,"lon":5.39393,"is_reserved":false,"is_disabled":false,"rental_uris":{"android":"levelo://app?vid=c1233b53-04ce-4561-ba6f-55ed1650dc20","ios":"levelo://app?vid=c1233b53-04ce-4561-ba6f-55ed1650dc20"},"vehicle_type_id":"4","last_reported":1726870149,"current_range_meters":22400,"station_id":"ce4bh292rcd13ifvqdf0","pricing_plan_id":"cebpf4jnsgd1na2vs0mg"},{"bike_id":"271d83d4-6185-4742-9220-183a95f964d8","system_id":"levelo_inurba_marseille","lat":43.23965,"lon":5.36629,"is_reserved":false,"is_disabled":false,"rental_uris":{"android":"levelo://app?vid=271d83d4-6185-4742-9220-183a95f964d8","ios":"levelo://app?vid=271d83d4-6185-4742-9220-183a95f964d8"},"vehicle_type_id":"4","last_reported":1726870149,"current_range_meters":36400,"station_id":"ce4bhi12rcd13ifvqfp0","pricing_plan_id":"cebpf4jnsgd1na2vs0mg"},{"bike_id":"b2763354-ec6c-4733-8de6-6c4493759ae9","system_id":"levelo_inurba_marseille","lat":43.29073,"lon":5.40194,"is_reserved":false,"is_disabled":false,"rental_uris":{"android":"levelo://app?vid=b2763354-ec6c-4733-8de6-6c4493759ae9","ios":"levelo://app?vid=b2763354-ec6c-4733-8de6-6c4493759ae9"},"vehicle_type_id":"4","last_reported":1726870149,"current_range_meters":18000,"station_id":"","pricing_plan_id":"cebpf4jnsgd1na2vs0mg"},{"bike_id":"0223d716-9878-4635-ac1d-39aca3d921f0","system_id":"levelo_inurba_marseille","lat":43.304425,"lon":5.385147,"is_reserved":false,"is_disabled":false,"rental_uris":{"android":"levelo://app?vid=0223d716-9878-4635-ac1d-39aca3d921f0","ios":"levelo://app?vid=0223d716-9878-4635-ac1d-39aca3d921f0"},"vehicle_type_id":"4","last_reported":1726870149,"current_range_meters":22400,"station_id":"ce4bgg92rcd13ifvqb30","pricing_plan_id":"cebpf4jnsgd1na2vs0mg"},{"bike_id":"facc34bd-0c11-48d2-aa3e-e28ba7f6f9b2","system_id":"levelo_inurba_marseille","lat":43.28459,"lon":5.35877,"is_reserved":false,"is_disabled":false,"rental_uris":{"android":"levelo://app?vid=facc34bd-0c11-48d2-aa3e-e28ba7f6f9b2","ios":"levelo://app?vid=facc34bd-0c11-48d2-aa3e-e28ba7f6f9b2"},"vehicle_type_id":"4","last_reported":1726870149,"current_range_meters":38800,"station_id":"ce4bhah2rcd13ifvqei0","pricing_plan_id":"cebpf4jnsgd1na2vs0mg"},{"bike_id":"48283688-10c0-4d55-90b7-2c7ba654f589","system_id":"levelo_inurba_marseille","lat":43.28575,"lon":5.39493,"is_reserved":false,"is_disabled":false,"rental_uris":{"android":"levelo://app?vid=48283688-10c0-4d55-90b7-2c7ba654f589","ios":"levelo://app?vid=48283688-10c0-4d55-90b7-2c7ba654f589"},"vehicle_type_id":"4","last_reported":1726870149,"current_range_meters":20400,"station_id":"ce4bh292rcd13ifvqdg0","pricing_plan_id":"cebpf4jnsgd1na2vs0mg"},{"bike_id":"5c37b29a-f32e-40d5-bd1e-e52ddcdc537f","system_id":"levelo_inurba_marseille","lat":43.29936,"lon":5.36537,"is_reserved":false,"is_disabled":false,"rental_uris":{"android":"levelo://app?vid=5c37b29a-f32e-40d5-bd1e-e52ddcdc537f","ios":"levelo://app?vid=5c37b29a-f32e-40d5-bd1e-e52ddcdc537f"},"vehicle_type_id":"4","last_reported":1726870149,"current_range_meters":38800,"station_id":"ce4bgm92rcd13ifvqbr0","pricing_plan_id":"cebpf4jnsgd1na2vs0mg"},{"bike_id":"7104ed98-6538-41ff-89e4-4140b5eebe87","system_id":"levelo_inurba_marseille","lat":43.24179,"lon":5.39728,"is_reserved":false,"is_disabled":false,"rental_uris":{"android":"levelo://app?vid=7104ed98-6538-41ff-89e4-4140b5eebe87","ios":"levelo://app?vid=7104ed98-6538-41ff-89e4-4140b5eebe87"},"vehicle_type_id":"4","last_reported":1726870149,"current_range_meters":32000,"station_id":"ce4bhn12rcd13ifvqgpg","pricing_plan_id":"cebpf4jnsgd1na2vs0mg"},{"bike_id":"8d56afa7-957b-4805-85ed-6e038136cb30","system_id":"levelo_inurba_marseille","lat":43.270599,"lon":5.402561,"is_reserved":false,"is_disabled":false,"rental_uris":{"android":"levelo://app?vid=8d56afa7-957b-4805-85ed-6e038136cb30","ios":"levelo://app?vid=8d56afa7-957b-4805-85ed-6e038136cb30"},"vehicle_type_id":"4","last_reported":1726870149,"current_range_meters":12000,"station_id":"ce4bhk92rcd13ifvqgc0","pricing_plan_id":"cebpf4jnsgd1na2vs0mg"},{"bike_id":"0653cb10-c12e-4c27-af75-8f3495a98f89","system_id":"levelo_inurba_marseille","lat":43.32289,"lon":5.3828,"is_reserved":false,"is_disabled":false,"rental_uris":{"android":"levelo://app?vid=0653cb10-c12e-4c27-af75-8f3495a98f89","ios":"levelo://app?vid=0653cb10-c12e-4c27-af75-8f3495a98f89"},"vehicle_type_id":"4","last_reported":1726870149,"current_range_meters":38400,"station_id":"ce4bhr12rcd13ifvqhqg","pricing_plan_id":"cebpf4jnsgd1na2vs0mg"},{"bike_id":"17885b12-8626-4cad-9450-bc59d81f3207","system_id":"levelo_inurba_marseille","lat":43.29418,"lon":5.38632,"is_reserved":false,"is_disabled":false,"rental_uris":{"android":"levelo://app?vid=17885b12-8626-4cad-9450-bc59d81f3207","ios":"levelo://app?vid=17885b12-8626-4cad-9450-bc59d81f3207"},"vehicle_type_id":"4","last_reported":1726870149,"current_range_meters":38400,"station_id":"ce4bh2h2rcd13ifvqdh0","pricing_plan_id":"cebpf4jnsgd1na2vs0mg"},{"bike_id":"04f5fe4f-9d0d-4514-bcf1-590023909919","system_id":"levelo_inurba_marseille","lat":43.30892,"lon":5.3963,"is_reserved":false,"is_disabled":false,"rental_uris":{"android":"levelo://app?vid=04f5fe4f-9d0d-4514-bcf1-590023909919","ios":"levelo://app?vid=04f5fe4f-9d0d-4514-bcf1-590023909919"},"vehicle_type_id":"4","last_reported":1726870149,"current_range_meters":40000,"station_id":"ce4bh012rcd13ifvqcv0","pricing_plan_id":"cebpf4jnsgd1na2vs0mg"},{"bike_id":"950e1eb5-bdae-4612-8792-0cf944005500","system_id":"levelo_inurba_marseille","lat":43.24078,"lon":5.37733,"is_reserved":false,"is_disabled":false,"rental_uris":{"android":"levelo://app?vid=950e1eb5-bdae-4612-8792-0cf944005500","ios":"levelo://app?vid=950e1eb5-bdae-4612-8792-0cf944005500"},"vehicle_type_id":"4","last_reported":1726870149,"current_range_meters":38800,"station_id":"ce4bhnp2rcd13ifvqgvg","pricing_plan_id":"cebpf4jnsgd1na2vs0mg"},{"bike_id":"0af8d02d-bce3-46ec-8e4a-4b3fdee132a3","system_id":"levelo_inurba_marseille","lat":43.30888,"lon":5.37177,"is_reserved":false,"is_disabled":false,"rental_uris":{"android":"levelo://app?vid=0af8d02d-bce3-46ec-8e4a-4b3fdee132a3","ios":"levelo://app?vid=0af8d02d-bce3-46ec-8e4a-4b3fdee132a3"},"vehicle_type_id":"4","last_reported":1726870149,"current_range_meters":38800,"station_id":"ce4bguh2rcd13ifvqckg","pricing_plan_id":"cebpf4jnsgd1na2vs0mg"},{"bike_id":"a98f653d-9bf2-4ee9-ae30-9f51d5422e45","system_id":"levelo_inurba_marseille","lat":43.31227,"lon":5.36853,"is_reserved":false,"is_disabled":false,"rental_uris":{"android":"levelo://app?vid=a98f653d-9bf2-4ee9-ae30-9f51d5422e45","ios":"levelo://app?vid=a98f653d-9bf2-4ee9-ae30-9f51d5422e45"},"vehicle_type_id":"4","last_reported":1726870149,"current_range_meters":39200,"station_id":"ce4bgl92rcd13ifvqbq0","pricing_plan_id":"cebpf4jnsgd1na2vs0mg"},{"bike_id":"c2c9a555-6ec8-4b92-b33e-073571605c93","system_id":"levelo_inurba_marseille","lat":43.23196,"lon":5.35551,"is_reserved":false,"is_disabled":false,"rental_uris":{"android":"levelo://app?vid=c2c9a555-6ec8-4b92-b33e-073571605c93","ios":"levelo://app?vid=c2c9a555-6ec8-4b92-b33e-073571605c93"},"vehicle_type_id":"4","last_reported":1726870149,"current_range_meters":25200,"station_id":"ce4bhu92rcd13ifvqi70","pricing_plan_id":"cebpf4jnsgd1na2vs0mg"},{"bike_id":"fe81aa2c-2bb1-423c-9d77-5de7deea9b8f","system_id":"levelo_inurba_marseille","lat":43.28402,"lon":5.37494,"is_reserved":false,"is_disabled":false,"rental_uris":{"android":"levelo://app?vid=fe81aa2c-2bb1-423c-9d77-5de7deea9b8f","ios":"levelo://app?vid=fe81aa2c-2bb1-423c-9d77-5de7deea9b8f"},