{"last_updated":1740478212,"ttl":60,"version":"2.2","data":{"bikes":[{"bike_id":"8835ae88-88d7-4ba2-9524-ab133f0799a5","system_id":"levelo_inurba_marseille","lat":43.33601,"lon":5.41029,"is_reserved":false,"is_disabled":false,"rental_uris":{"android":"levelo://app?vid=8835ae88-88d7-4ba2-9524-ab133f0799a5","ios":"levelo://app?vid=8835ae88-88d7-4ba2-9524-ab133f0799a5"},"vehicle_type_id":"4","last_reported":1740478212,"current_range_meters":2800,"station_id":"ce4bhqh2rcd13ifvqhmg","pricing_plan_id":"cebpf4jnsgd1na2vs0mg"},{"bike_id":"98661d0d-2222-4e70-9293-d5ce2af0ae69","system_id":"levelo_inurba_marseille","lat":43.27673,"lon":5.3891,"is_reserved":false,"is_disabled":false,"rental_uris":{"android":"levelo://app?vid=98661d0d-2222-4e70-9293-d5ce2af0ae69","ios":"levelo://app?vid=98661d0d-2222-4e70-9293-d5ce2af0ae69"},"vehicle_type_id":"4","last_reported":1740478212,"current_range_meters":2800,"station_id":"ce4bhi12rcd13ifvqfo0","pricing_plan_id":"cebpf4jnsgd1na2vs0mg"},{"bike_id":"16a64962-c840-403e-8215-260ce50518b7","system_id":"levelo_inurba_marseille","lat":43.28158,"lon":5.42669,"is_reserved":false,"is_disabled":true,"rental_uris":{"android":"levelo://app?vid=16a64962-c840-403e-8215-260ce50518b7","ios":"levelo://app?vid=16a64962-c840-403e-8215-260ce50518b7"},"vehicle_type_id":"4","last_reported":1740478212,"current_range_meters":3200,"station_id":"ce4bhnh2rcd13ifvqgug","pricing_plan_id":"cebpf4jnsgd1na2vs0mg"},{"bike_id":"f1f9b022-2e0c-4be3-be2c-9603813a0c0b","system_id":"levelo_inurba_marseille","lat":43.282783,"lon":5.35079,"is_reserved":false,"is_disabled":false,"rental_uris":{"android":"levelo://app?vid=f1f9b022-2e0c-4be3-be2c-9603813a0c0b","ios":"levelo://app?vid=f1f9b022-2e0c-4be3-be2c-9603813a0c0b"},"vehicle_type_id":"4","last_reported":1740478212,"current_range_meters":3600,"station_id":"ce4bhbp2rcd13ifvqerg","pricing_plan_id":"cebpf4jnsgd1na2vs0mg"},{"bike_id":"abb80f97-7e30-4951-a6a2-67864cfad8bd","system_id":"levelo_inurba_marseille","lat":43.2582,"lon":5.39445,"is_reserved":false,"is_disabled":false,"rental_uris":{"android":"levelo://app?vid=abb80f97-7e30-4951-a6a2-67864cfad8bd","ios":"levelo://app?vid=abb80f97-7e30-4951-a6a2-67864cfad8bd"},"vehicle_type_id":"4","last_reported":1740478212,"current_range_meters":400,"station_id":"ce4bhh92rcd13ifvqfh0","pricing_plan_id":"cebpf4jnsgd1na2vs0mg"},{"bike_id":"fa18f83f-3a9c-4689-b37f-693771f4e1e2","system_id":"levelo_inurba_marseille","lat":43.2971,"lon":5.36607,"is_reserved":false,"is_disabled":false,"rental_uris":{"android":"levelo://app?vid=fa18f83f-3a9c-4689-b37f-693771f4e1e2","ios":"levelo://app?vid=fa18f83f-3a9c-4689-b37f-693771f4e1e2"},"vehicle_type_id":"4","last_reported":1740478212,"current_range_meters":3600,"station_id":"ce4bgn12rcd13ifvqbt0","pricing_plan_id":"cebpf4jnsgd1na2vs0mg"},{"bike_id":"db29ab0a-60d6-4bfa-9201-46260261a3af","system_id":"levelo_inurba_marseille","lat":43.32474,"lon":5.366,"is_reserved":false,"is_disabled":false,"rental_uris":{"android":"levelo://app?vid=db29ab0a-60d6-4bfa-9201-46260261a3af","ios":"levelo://app?vid=db29ab0a-60d6-4bfa-9201-46260261a3af"},"vehicle_type_id":"4","last_reported":1740478212,"current_range_meters":4400,"station_id":"ce4bhs12rcd13ifvqhvg","pricing_plan_id":"cebpf4jnsgd1na2vs0mg"},{"bike_id":"cd7f9416-9607-4932-a4e2-17ca9a1f339f","system_id":"levelo_inurba_marseille","lat":43.30595,"lon":5.3723,"is_reserved":false,"is_disabled":false,"rental_uris":{"android":"levelo://app?vid=cd7f9416-9607-4932-a4e2-17ca9a1f339f","ios":"levelo://app?vid=cd7f9416-9607-4932-a4e2-17ca9a1f339f"},"vehicle_type_id":"4","last_reported":1740478212,"current_range_meters":4800,"station_id":"ce4bgqh2rcd13ifvqc4g","pricing_plan_id":"cebpf4jnsgd1na2vs0mg"},{"bike_id":"bddf8e7b-3da7-4773-b7ae-9c6dd1337414","system_id":"levelo_inurba_marseille","lat":43.28152,"lon":5.42648,"is_reserved":false,"is_disabled":true,"rental_uris":{"android":"levelo://app?vid=bddf8e7b-3da7-4773-b7ae-9c6dd1337414","ios":"levelo://app?vid=bddf8e7b-3da7-4773-b7ae-9c6dd1337414"},"vehicle_type_id":"4","last_reported":1740478212,"current_range_meters":4800,"station_id":"ce4bhnh2rcd13ifvqgug","pricing_plan_id":"cebpf4jnsgd1na2vs0mg"},{"bike_id":"2459de4c-afd1-4316-b523-d7da1cd46022","system_id":"levelo_inurba_marseille","lat":43.29413,"lon":5.38639,"is_reserved":false,"is_disabled":false,"rental_uris":{"android":"levelo://app?vid=2459de4c-afd1-4316-b523-d7da1cd46022","ios":"levelo://app?vid=2459de4c-afd1-4316-b523-d7da1cd46022"},"vehicle_type_id":"4","last_reported":1740478212,"current_range_meters":3600,"station_id":"ce4bh2h2rcd13ifvqdh0","pricing_plan_id":"cebpf4jnsgd1na2vs0mg"},{"bike_id":"1a8d6570-2513-4319-986c-fd38753fdc18","system_id":"levelo_inurba_marseille","lat":43.29228,"lon":5.36073,"is_reserved":false,"is_disabled":false,"rental_uris":{"android":"levelo://app?vid=1a8d6570-2513-4319-986c-fd38753fdc18","ios":"levelo://app?vid=1a8d6570-2513-4319-986c-fd38753fdc18"},"vehicle_type_id":"4","last_reported":1740478212,"current_range_meters":800,"station_id":"ce4bhbh2rcd13ifvqeqg","pricing_plan_id":"cebpf4jnsgd1na2vs0mg"},{"bike_id":"bd1c9204-109d-453d-a655-cc2878aad0c5","system_id":"levelo_inurba_marseille","lat":43.29901,"lon":5.43673,"is_reserved":false,"is_disabled":false,"rental_uris":{"android":"levelo://app?vid=bd1c9204-109d-453d-a655-cc2878aad0c5","ios":"levelo://app?vid=bd1c9204-109d-453d-a655-cc2878aad0c5"},"vehicle_type_id":"4","last_reported":1740478212,"current_range_meters":6000,"station_id":"ce4bhpp2rcd13ifvqhfg","pricing_plan_id":"cebpf4jnsgd1na2vs0mg"},{"bike_id":"697c2149-d623-4220-9313-a5ac44a0efb5","system_id":"levelo_inurba_marseille","lat":43.313495,"lon":5.36722,"is_reserved":false,"is_disabled":false,"rental_uris":{"android":"levelo://app?vid=697c2149-d623-4220-9313-a5ac44a0efb5","ios":"levelo://app?vid=697c2149-d623-4220-9313-a5ac44a0efb5"},"vehicle_type_id":"4","last_reported":1740478212,"current_range_meters":2000,"station_id":"ce4bgr92rcd13ifvqc6g","pricing_plan_id":"cebpf4jnsgd1na2vs0mg"},{"bike_id":"f8c481b9-53b8-4513-94cd-b12a8772f24b","system_id":"levelo_inurba_marseille","lat":43.29497,"lon":5.37528,"is_reserved":false,"is_disabled":false,"rental_uris":{"android":"levelo://app?vid=f8c481b9-53b8-4513-94cd-b12a8772f24b","ios":"levelo://app?vid=f8c481b9-53b8-4513-94cd-b12a8772f24b"},"vehicle_type_id":"4","last_reported":1740478212,"current_range_meters":4000,"station_id":"ce4bgkp2rcd13ifvqbmg","pricing_plan_id":"cebpf4jnsgd1na2vs0mg"},{"bike_id":"87bbda1f-0db0-4d79-a046-a87b5e94995a","system_id":"levelo_inurba_marseille","lat":43.24192,"lon":5.36422,"is_reserved":false,"is_disabled":false,"rental_uris":{"android":"levelo://app?vid=87bbda1f-0db0-4d79-a046-a87b5e94995a","ios":"levelo://app?vid=87bbda1f-0db0-4d79-a046-a87b5e94995a"},"vehicle_type_id":"4","last_reported":1740478212,"current_range_meters":6800,"station_id":"cpo36qri1sfpv3e86is0","pricing_plan_id":"cebpf4jnsgd1na2vs0mg"},{"bike_id":"026e5f46-92db-457a-b929-c29c368d5abc","system_id":"levelo_inurba_marseille","lat":43.27801,"lon":5.40718,"is_reserved":false,"is_disabled":false,"rental_uris":{"android":"levelo://app?vid=026e5f46-92db-457a-b929-c29c368d5abc","ios":"levelo://app?vid=026e5f46-92db-457a-b929-c29c368d5abc"},"vehicle_type_id":"4","last_reported":1740478212,"current_range_meters":6800,"station_id":"ce4bhnh2rcd13ifvqgtg","pricing_plan_id":"cebpf4jnsgd1na2vs0mg"},{"bike_id":"15d63c41-d467-4e01-ab9d-1a4d98399eb8","system_id":"levelo_inurba_marseille","lat":43.2808,"lon":5.39673,"is_reserved":false,"is_disabled":true,"rental_uris":{"android":"levelo://app?vid=15d63c41-d467-4e01-ab9d-1a4d98399eb8","ios":"levelo://app?vid=15d63c41-d467-4e01-ab9d-1a4d98399eb8"},"vehicle_type_id":"4","last_reported":1740478212,"current_range_meters":6800,"station_id":"ce4bho12rcd13ifvqh2g","pricing_plan_id":"cebpf4jnsgd1na2vs0mg"},{"bike_id":"a295a266-5da2-4ee3-bc6a-c5a03776d4a1","system_id":"levelo_inurba_marseille","lat":43.30921,"lon":5.40139,"is_reserved":false,"is_disabled":false,"rental_uris":{"android":"levelo://app?vid=a295a266-5da2-4ee3-bc6a-c5a03776d4a1","ios":"levelo://app?vid=a295a266-5da2-4ee3-bc6a-c5a03776d4a1"},"vehicle_type_id":"4","last_reported":1740478212,"current_range_meters":6800,"station_id":"ce4bgvp2rcd13ifvqct0","pricing_plan_id":"cebpf4jnsgd1na2vs0mg"},{"bike_id":"f3e2d31b-bf16-4d93-8358-e1b5fc69cdb1","system_id":"levelo_inurba_marseille","lat":43.28115,"lon":5.39881,"is_reserved":false,"is_disabled":false,"rental_uris":{"android":"levelo://app?vid=f3e2d31b-bf16-4d93-8358-e1b5fc69cdb1","ios":"levelo://app?vid=f3e2d31b-bf16-4d93-8358-e1b5fc69cdb1"},"vehicle_type_id":"4","last_reported":1740478212,"current_range_meters":6800,"station_id":"","pricing_plan_id":"cebpf4jnsgd1na2vs0mg"},{"bike_id":"17da1feb-9abe-4e1d-9544-5a842d8f1b8a","system_id":"levelo_inurba_marseille","lat":43.27803,"lon":5.40736,"is_reserved":false,"is_disabled":false,"rental_uris":{"android":"levelo://app?vid=17da1feb-9abe-4e1d-9544-5a842d8f1b8a","ios":"levelo://app?vid=17da1feb-9abe-4e1d-9544-5a842d8f1b8a"},"vehicle_type_id":"4","last_reported":1740478212,"current_range_meters":6800,"station_id":"ce4bhnh2rcd13ifvqgtg","pricing_plan_id":"cebpf4jnsgd1na2vs0mg"},{"bike_id":"3fc592a5-cc86-4bd9-91de-173cc9710609","system_id":"levelo_inurba_marseille","lat":43.27892,"lon":5.39597,"is_reserved":false,"is_disabled":false,"rental_uris":{"android":"levelo://app?vid=3fc592a5-cc86-4bd9-91de-173cc9710609","ios":"levelo://app?vid=3fc592a5-cc86-4bd9-91de-173cc9710609"},"vehicle_type_id":"4","last_reported":1740478212,"current_range_meters":6800,"station_id":"ce4bhf92rcd13ifvqf40","pricing_plan_id":"cebpf4jnsgd1na2vs0mg"},{"bike_id":"8dfb11fa-7216-4418-a2e4-a27dc9f45ff7","system_id":"levelo_inurba_marseille","lat":43.32335,"lon":5.40621,"is_reserved":false,"is_disabled":false,"rental_uris":{"android":"levelo://app?vid=8dfb11fa-7216-4418-a2e4-a27dc9f45ff7","ios":"levelo://app?vid=8dfb11fa-7216-4418-a2e4-a27dc9f45ff7"},"vehicle_type_id":"4","last_reported":1740478212,"current_range_meters":7200,"station_id":"ce4bhq92rcd13ifvqhjg","pricing_plan_id":"cebpf4jnsgd1na2vs0mg"},{"bike_id":"d4429d43-2bdf-4a2f-a2e0-45d30213b3ef","system_id":"levelo_inurba_marseille","lat":43.27207,"lon":5.39187,"is_reserved":false,"is_disabled":false,"rental_uris":{"android":"levelo://app?vid=d4429d43-2bdf-4a2f-a2e0-45d30213b3ef","ios":"levelo://app?vid=d4429d43-2bdf-4a2f-a2e0-45d30213b3ef"},"vehicle_type_id":"4","last_reported":1740478212,"current_range_meters":8000,"station_id":"ce4bhhp2rcd13ifvqfm0","pricing_plan_id":"cebpf4jnsgd1na2vs0mg"},{"bike_id":"c93a81cd-6f4d-4858-87d2-9289cc072b8d","system_id":"levelo_inurba_marseille","lat":43.241648,"lon":5.397386,"is_reserved":false,"is_disabled":false,"rental_uris":{"android":"levelo://app?vid=c93a81cd-6f4d-4858-87d2-9289cc072b8d","ios":"levelo://app?vid=c93a81cd-6f4d-4858-87d2-9289cc072b8d"},"vehicle_type_id":"4","last_reported":1740478212,"current_range_meters":8000,"station_id":"ce4bh9p2rcd13ifvqec0","pricing_plan_id":"cebpf4jnsgd1na2vs0mg"},{"bike_id":"9b692432-26db-492f-86c3-6b08bbdf2b12","system_id":"levelo_inurba_marseille","lat":43.28349,"lon":5.38117,"is_reserved":false,"is_disabled":false,"rental_uris":{"android":"levelo://app?vid=9b692432-26db-492f-86c3-6b08bbdf2b12","ios":"levelo://app?vid=9b692432-26db-492f-86c3-6b08bbdf2b12"},"vehicle_type_id":"4","last_reported":1740478212,"current_range_meters":8400,"station_id":"ce4bh412rcd13ifvqdr0","pricing_plan_id":"cebpf4jnsgd1na2vs0mg"},{"bike_id":"a1d0c79f-a9cc-4bcf-94d8-1eb4a81836d3","system_id":"levelo_inurba_marseille","lat":43.2743,"lon":5.39428,"is_reserved":false,"is_disabled":false,"rental_uris":{"android":"levelo://app?vid=a1d0c79f-a9cc-4bcf-94d8-1eb4a81836d3","ios":"levelo://app?vid=a1d0c79f-a9cc-4bcf-94d8-1eb4a81836d3"},"vehicle_type_id":"4","last_reported":1740478212,"current_range_meters":8800,"station_id":"ce4bhdp2rcd13ifvqf20","pricing_plan_id":"cebpf4jnsgd1na2vs0mg"},{"bike_id":"11dda212-e1bb-4eac-b6a5-b9f6a5af04b8","system_id":"levelo_inurba_marseille","lat":43.28945,"lon":5.36386,"is_reserved":false,"is_disabled":false,"rental_uris":{"android":"levelo://app?vid=11dda212-e1bb-4eac-b6a5-b9f6a5af04b8","ios":"levelo://app?vid=11dda212-e1bb-4eac-b6a5-b9f6a5af04b8"},"vehicle_type_id":"4","last_reported":1740478212,"current_range_meters":8000,"station_id":"ce4bhc92rcd13ifvqetg","pricing_plan_id":"cebpf4jnsgd1na2vs0mg"},{"bike_id":"ec17ff6a-26f9-4514-bd43-4ec7017c0b01","system_id":"levelo_inurba_marseille","lat":43.29314,"lon":5.37663,"is_reserved":false,"is_disabled":false,"rental_uris":{"android":"levelo://app?vid=ec17ff6a-26f9-4514-bd43-4ec7017c0b01","ios":"levelo://app?vid=ec17ff6a-26f9-4514-bd43-4ec7017c0b01"},"vehicle_type_id":"4","last_reported":1740478212,"current_range_meters":8400,"station_id":"","pricing_plan_id":"cebpf4jnsgd1na2vs0mg"},{"bike_id":"5162c2ce-a731-4d3b-a21a-a1c8cb63150f","system_id":"levelo_inurba_marseille","lat":43.31708,"lon":5.43703,"is_reserved":false,"is_disabled":false,"rental_uris":{"android":"levelo://app?vid=5162c2ce-a731-4d3b-a21a-a1c8cb63150f","ios":"levelo://app?vid=5162c2ce-a731-4d3b-a21a-a1c8cb63150f"},"vehicle_type_id":"4","last_reported":1740478212,"current_range_meters":8400,"station_id":"ce4bhp92rcd13ifvqhcg","pricing_plan_id":"cebpf4jnsgd1na2vs0mg"},{"bike_id":"646b9033-a7ec-454f-8a07-affadc67b4d0","system_id":"levelo_inurba_marseille","lat":43.2796,"lon":5.38712,"is_reserved":false,"is_disabled":false,"rental_uris":{"android":"levelo://app?vid=646b9033-a7ec-454f-8a07-affadc67b4d0","ios":"levelo://app?vid=646b9033-a7ec-454f-8a07-affadc67b4d0"},"vehicle_type_id":"4","last_reported":1740478212,"current_range_meters":8400,"station_id":"ce4bhg12rcd13ifvqf80","pricing_plan_id":"cebpf4jnsgd1na2vs0mg"},{"bike_id":"674cb057-5d42-4512-ae8c-448c1f63016b","system_id":"levelo_inurba_marseille","lat":43.30358,"lon":5.39442,"is_reserved":false,"is_disabled":false,"rental_uris":{"android":"levelo://app?vid=674cb057-5d42-4512-ae8c-448c1f63016b","ios":"levelo://app?vid=674cb057-5d42-4512-ae8c-448c1f63016b"},"vehicle_type_id":"4","last_reported":1740478212,"current_range_meters":8800,"station_id":"","pricing_plan_id":"cebpf4jnsgd1na2vs0mg"},{"bike_id":"62d6dfac-3678-46c2-bb6d-52ac1ce7e615","system_id":"levelo_inurba_marseille","lat":43.25817,"lon":5.39441,"is_reserved":false,"is_disabled":false,"rental_uris":{"android":"levelo://app?vid=62d6dfac-3678-46c2-bb6d-52ac1ce7e615","ios":"levelo://app?vid=62d6dfac-3678-46c2-bb6d-52ac1ce7e615"},"vehicle_type_id":"4","last_reported":1740478212,"current_range_meters":8800,"station_id":"ce4bhip2rcd13ifvqft0","pricing_plan_id":"cebpf4jnsgd1na2vs0mg"},{"bike_id":"7deaf953-0f73-4d03-80c3-69818dfef8bd","system_id":"levelo_inurba_marseille","lat":43.24193,"lon":5.39732,"is_reserved":false,"is_disabled":false,"rental_uris":{"android":"levelo://app?vid=7deaf953-0f73-4d03-80c3-69818dfef8bd","ios":"levelo://app?vid=7deaf953-0f73-4d03-80c3-69818dfef8bd"},"vehicle_type_id":"4","last_reported":1740478212,"current_range_meters":9200,"station_id":"ce4bhn12rcd13ifvqgpg","pricing_plan_id":"cebpf4jnsgd1na2vs0mg"},{"bike_id":"446313c8-37fc-4f36-b9c3-a1d481dfb62b","system_id":"levelo_inurba_marseille","lat":43.26817,"lon":5.41104,"is_reserved":false,"is_disabled":false,"rental_uris":{"android":"levelo://app?vid=446313c8-37fc-4f36-b9c3-a1d481dfb62b","ios":"levelo://app?vid=446313c8-37fc-4f36-b9c3-a1d481dfb62b"},"vehicle_type_id":"4","last_reported":1740478212,"current_range_meters":8800,"station_id":"","pricing_plan_id":"cebpf4jnsgd1na2vs0mg"},{"bike_id":"f980f677-3577-4af4-a6ba-79a13435ea20","system_id":"levelo_inurba_marseille","lat":43.29036,"lon":5.37583,"is_reserved":false,"is_disabled":false,"rental_uris":{"android":"levelo://app?vid=f980f677-3577-4af4-a6ba-79a13435ea20","ios":"levelo://app?vid=f980f677-3577-4af4-a6ba-79a13435ea20"},"vehicle_type_id":"4","last_reported":1740478212,"current_range_meters":8400,"station_id":"ce4bh692rcd13ifvqe90","pricing_plan_id":"cebpf4jnsgd1na2vs0mg"},{"bike_id":"ce08e129-3210-4784-8e00-3661099c392d","system_id":"levelo_inurba_marseille","lat":43.299,"lon":5.43669,"is_reserved":false,"is_disabled":false,"rental_uris":{"android":"levelo://app?vid=ce08e129-3210-4784-8e00-3661099c392d","ios":"levelo://app?vid=ce08e129-3210-4784-8e00-3661099c392d"},"vehicle_type_id":"4","last_reported":1740478212,"current_range_meters":9200,"station_id":"ce4bhpp2rcd13ifvqhfg","pricing_plan_id":"cebpf4jnsgd1na2vs0mg"},{"bike_id":"cb95b27b-b94f-45df-80df-a0e25de7e53e","system_id":"levelo_inurba_marseille","lat":43.24075,"lon":5.3775,"is_reserved":false,"is_disabled":false,"rental_uris":{"android":"levelo://app?vid=cb95b27b-b94f-45df-80df-a0e25de7e53e","ios":"levelo://app?vid=cb95b27b-b94f-45df-80df-a0e25de7e53e"},"vehicle_type_id":"4","last_reported":1740478212,"current_range_meters":9200,"station_id":"ce4bhnp2rcd13ifvqgvg","pricing_plan_id":"cebpf4jnsgd1na2vs0mg"},{"bike_id":"2d9f0777-5b96-4c1e-80c5-10449636aa92","system_id":"levelo_inurba_marseille","lat":43.32376,"lon":5.38907,"is_reserved":false,"is_disabled":false,"rental_uris":{"android":"levelo://app?vid=2d9f0777-5b96-4c1e-80c5-10449636aa92","ios":"levelo://app?vid=2d9f0777-5b96-4c1e-80c5-10449636aa92"},"vehicle_type_id":"4","last_reported":1740478212,"current_range_meters":9200,"station_id":"ce4bhqp2rcd13ifvqhog","pricing_plan_id":"cebpf4jnsgd1na2vs0mg"},{"bike_id":"d469ae70-b06c-49f4-b9c4-a41e0d165d26","system_id":"levelo_inurba_marseille","lat":43.24166,"lon":5.36388,"is_reserved":false,"is_disabled":false,"rental_uris":{"android":"levelo://app?vid=d469ae70-b06c-49f4-b9c4-a41e0d165d26","ios":"levelo://app?vid=d469ae70-b06c-49f4-b9c4-a41e0d165d26"},"vehicle_type_id":"4","last_reported":1740478212,"current_range_meters":9600,"station_id":"cpo36qri1sfpv3e86is0","pricing_plan_id":"cebpf4jnsgd1na2vs0mg"},{"bike_id":"5436e6b9-f68e-4779-9791-4b9021fab323","system_id":"levelo_inurba_marseille","lat":43.30535,"lon":5.36719,"is_reserved":false,"is_disabled":false,"rental_uris":{"android":"levelo://app?vid=5436e6b9-f68e-4779-9791-4b9021fab323","ios":"levelo://app?vid=5436e6b9-f68e-4779-9791-4b9021fab323"},"vehicle_type_id":"4","last_reported":1740478212,"current_range_meters":9600,"station_id":"ce4bgrp2rcd13ifvqc9g","pricing_plan_id":"cebpf4jnsgd1na2vs0mg"},{"bike_id":"b303f51f-7eea-4acf-bd63-dc0ef3a14a7b","system_id":"levelo_inurba_marseille","lat":43.33026,"lon":5.3904,"is_reserved":false,"is_disabled":false,"rental_uris":{"android":"levelo://app?vid=b303f51f-7eea-4acf-bd63-dc0ef3a14a7b","ios":"levelo://app?vid=b303f51f-7eea-4acf-bd63-dc0ef3a14a7b"},"vehicle_type_id":"4","last_reported":1740478212,"current_range_meters":9600,"station_id":"ce4bhr92rcd13ifvqhrg","pricing_plan_id":"cebpf4jnsgd1na2vs0mg"},{"bike_id":"e2b4ea08-0dae-49c6-afc0-0e036c5f8091","system_id":"levelo_inurba_marseille","lat":43.31383,"lon":5.36694,"is_reserved":false,"is_disabled":false,"rental_uris":{"android":"levelo://app?vid=e2b4ea08-0dae-49c6-afc0-0e036c5f8091","ios":"levelo://app?vid=e2b4ea08-0dae-49c6-afc0-0e036c5f8091"},"vehicle_type_id":"4","last_reported":1740478212,"current_range_meters":10000,"station_id":"ce4bgr92rcd13ifvqc6g","pricing_plan_id":"cebpf4jnsgd1na2vs0mg"},{"bike_id":"218d8ff5-110a-43be-aa48-08aca7d2ce31","system_id":"levelo_inurba_marseille","lat":43.29069,"lon":5.37161,"is_reserved":false,"is_disabled":false,"rental_uris":{"android":"levelo://app?vid=218d8ff5-110a-43be-aa48-08aca7d2ce31","ios":"levelo://app?vid=218d8ff5-110a-43be-aa48-08aca7d2ce31"},"vehicle_type_id":"4","last_reported":1740478212,"current_range_meters":10000,"station_id":"ce4bh5p2rcd13ifvqe4g","pricing_plan_id":"cebpf4jnsgd1na2vs0mg"},{"bike_id":"c67397b0-23f5-4ab1-b6e8-82f41d0f970c","system_id":"levelo_inurba_marseille","lat":43.29572,"lon":5.39962,"is_reserved":false,"is_disabled":false,"rental_uris":{"android":"levelo://app?vid=c67397b0-23f5-4ab1-b6e8-82f41d0f970c","ios":"levelo://app?vid=c67397b0-23f5-4ab1-b6e8-82f41d0f970c"},"vehicle_type_id":"4","last_reported":1740478212,"current_range_meters":10800,"station_id":"ce4bh312rcd13ifvqdj0","pricing_plan_id":"cebpf4jnsgd1na2vs0mg"},{"bike_id":"e5c275a2-a964-47d8-9489-ed1126cf4cef","system_id":"levelo_inurba_marseille","lat":43.29656,"lon":5.3792,"is_reserved":false,"is_disabled":false,"rental_uris":{"android":"levelo://app?vid=e5c275a2-a964-47d8-9489-ed1126cf4cef","ios":"levelo://app?vid=e5c275a2-a964-47d8-9489-ed1126cf4cef"},"vehicle_type_id":"4","last_reported":1740478212,"current_range_meters":10800,"station_id":"","pricing_plan_id":"cebpf4jnsgd1na2vs0mg"},{"bike_id":"cdd24989-081e-4ace-a92c-ff5850d2f988","system_id":"levelo_inurba_marseille","lat":43.27508,"lon":5.4249,"is_reserved":false,"is_disabled":false,"rental_uris":{"android":"levelo://app?vid=cdd24989-081e-4ace-a92c-ff5850d2f988","ios":"levelo://app?vid=cdd24989-081e-4ace-a92c-ff5850d2f988"},"vehicle_type_id":"4","last_reported":1740478212,"current_range_meters":11200,"station_id":"ce4bhn92rcd13ifvqgrg","pricing_plan_id":"cebpf4jnsgd1na2vs0mg"},{"bike_id":"32539051-701a-43d4-870d-0627192d3ef3","system_id":"levelo_inurba_marseille","lat":43.25007,"lon":5.38935,"is_reserved":false,"is_disabled":false,"rental_uris":{"android":"levelo://app?vid=32539051-701a-43d4-870d-0627192d3ef3","ios":"levelo://app?vid=32539051-701a-43d4-870d-0627192d3ef3"},"vehicle_type_id":"4","last_reported":1740478212,"current_range_meters":11200,"station_id":"ce4bhgp2rcd13ifvqfd0","pricing_plan_id":"cebpf4jnsgd1na2vs0mg"},{"bike_id":"2364c0ca-276d-4a9f-9164-3496fd594c88","system_id":"levelo_inurba_marseille","lat":43.29965,"lon":5.38506,"is_reserved":false,"is_disabled":false,"rental_uris":{"android":"levelo://app?vid=2364c0ca-276d-4a9f-9164-3496fd594c88","ios":"levelo://app?vid=2364c0ca-276d-4a9f-9164-3496fd594c88"},"vehicle_type_id":"4","last_reported":1740478212,"current_range_meters":11600,"station_id":"ce4bgj92rcd13ifvqbd0","pricing_plan_id":"cebpf4jnsgd1na2vs0mg"},{"bike_id":"65e3dbf5-cb43-4afc-9f8b-0026fd886e1f","system_id":"levelo_inurba_marseille","lat":43.32476,"lon":5.36571,"is_reserved":false,"is_disabled":false,"rental_uris":{"android":"levelo://app?vid=65e3dbf5-cb43-4afc-9f8b-0026fd886e1f","ios":"levelo://app?vid=65e3dbf5-cb43-4afc-9f8b-0026fd886e1f"},"vehicle_type_id":"4","last_reported":1740478212,"current_range_meters":11600,"station_id":"ce4bhs12rcd13ifvqhvg","pricing_plan_id":"cebpf4jnsgd1na2vs0mg"},{"bike_id":"f58eacea-05d5-4e84-8d0a-3ae737465106","system_id":"levelo_inurba_marseille","lat":43.30804,"lon":5.38164,"is_reserved":false,"is_disabled":false,"rental_uris":{"android":"levelo://app?vid=f58eacea-05d5-4e84-8d0a-3ae737465106","ios":"levelo://app?vid=f58eacea-05d5-4e84-8d0a-3ae737465106"},"vehicle_type_id":"4","last_reported":1740478212,"current_range_meters":11600,"station_id":"ce4bgt12rcd13ifvqce0","pricing_plan_id":"cebpf4jnsgd1na2vs0mg"},{"bike_id":"1349a08a-530a-4ab4-8d00-c4ceb5e3464b","system_id":"levelo_inurba_marseille","lat":43.29265,"lon":5.36855,"is_reserved":false,"is_disabled":false,"rental_uris":{"android":"levelo://app?vid=1349a08a-530a-4ab4-8d00-c4ceb5e3464b","ios":"levelo://app?vid=1349a08a-530a-4ab4-8d00-c4ceb5e3464b"},"vehicle_type_id":"4","last_reported":1740478212,"current_range_meters":12000,"station_id":"ce4bhbp2rcd13ifvqesg","pricing_plan_id":"cebpf4jnsgd1na2vs0mg"},{"bike_id":"c53ed6e7-916e-40f4-9e84-94eccc7a73ea","system_id":"levelo_inurba_marseille","lat":43.23165,"lon":5.43701,"is_reserved":false,"is_disabled":false,"rental_uris":{"android":"levelo://app?vid=c53ed6e7-916e-40f4-9e84-94eccc7a73ea","ios":"levelo://app?vid=c53ed6e7-916e-40f4-9e84-94eccc7a73ea"},"vehicle_type_id":"4","last_reported":1740478212,"current_range_meters":12400,"station_id":"ce4bhmp2rcd13ifvqgog","pricing_plan_id":"cebpf4jnsgd1na2vs0mg"},{"bike_id":"9df7932a-651a-4a42-af9a-4f163f62bf23","system_id":"levelo_inurba_marseille","lat":43.30536,"lon":5.3656,"is_reserved":false,"is_disabled":false,"rental_uris":{"android":"levelo://app?vid=9df7932a-651a-4a42-af9a-4f163f62bf23","ios":"levelo://app?vid=9df7932a-651a-4a42-af9a-4f163f62bf23"},"vehicle_type_id":"4","last_reported":1740478212,"current_range_meters":12000,"station_id":"ce4bgs12rcd13ifvqcag","pricing_plan_id":"cebpf4jnsgd1na2vs0mg"},{"bike_id":"96f05573-e5c0-455b-9671-9b1d8a09b29f","system_id":"levelo_inurba_marseille","lat":43.25923,"lon":5.40893,"is_reserved":false,"is_disabled":false,"rental_uris":{"android":"levelo://app?vid=96f05573-e5c0-455b-9671-9b1d8a09b29f","ios":"levelo://app?vid=96f05573-e5c0-455b-9671-9b1d8a09b29f"},"vehicle_type_id":"4","last_reported":1740478212,"current_range_meters":12400,"station_id":"ce4bhm92rcd13ifvqglg","pricing_plan_id":"cebpf4jnsgd1na2vs0mg"},{"bike_id":"05f51bd6-bf8c-4b6c-ba2f-d7bf7cec3006","system_id":"levelo_inurba_marseille","lat":43.23202,"lon":5.35614,"is_reserved":false,"is_disabled":false,"rental_uris":{"android":"levelo://app?vid=05f51bd6-bf8c-4b6c-ba2f-d7bf7cec3006","ios":"levelo://app?vid=05f51bd6-bf8c-4b6c-ba2f-d7bf7cec3006"},"vehicle_type_id":"4","last_reported":1740478212,"current_range_meters":12400,"station_id":"","pricing_plan_id":"cebpf4jnsgd1na2vs0mg"},{"bike_id":"2a447e54-08b0-45f4-b9ed-e4179486df28","system_id":"levelo_inurba_marseille","lat":43.26794,"lon":5.39419,"is_reserved":false,"is_disabled":false,"rental_uris":{"android":"levelo://app?vid=2a447e54-08b0-45f4-b9ed-e4179486df28","ios":"levelo://app?vid=2a447e54-08b0-45f4-b9ed-e4179486df28"},"vehicle_type_id":"4","last_reported":1740478212,"current_range_meters":12400,"station_id":"ce4bhh12rcd13ifvqfg0","pricing_plan_id":"cebpf4jnsgd1na2vs0mg"},{"bike_id":"2b7f3404-d8d1-4a75-8e7e-0db27eecdddf","system_id":"levelo_inurba_marseille","lat":43.28032,"lon":5.36944,"is_reserved":false,"is_disabled":false,"rental_uris":{"android":"levelo://app?vid=2b7f3404-d8d1-4a75-8e7e-0db27eecdddf","ios":"levelo://app?vid=2b7f3404-d8d1-4a75-8e7e-0db27eecdddf"},"vehicle_type_id":"4","last_reported":1740478212,"current_range_meters":12400,"station_id":"ce4bha12rcd13ifvqef0","pricing_plan_id":"cebpf4jnsgd1na2vs0mg"},{"bike_id":"6bb7a600-4627-48d6-a6ba-24a72f10b0e3","system_id":"levelo_inurba_marseille","lat":43.23148,"lon":5.4374,"is_reserved":false,"is_disabled":false,"rental_uris":{"android":"levelo://app?vid=6bb7a600-4627-48d6-a6ba-24a72f10b0e3","ios":"levelo://app?vid=6bb7a600-4627-48d6-a6ba-24a72f10b0e3"},"vehicle_type_id":"4","last_reported":1740478212,"current_range_meters":13600,"station_id":"ce4bhmp2rcd13ifvqgog","pricing_plan_id":"cebpf4jnsgd1na2vs0mg"},{"bike_id":"1c2f3bdc-68fa-40a8-b99e-fcf41f32f9e4","system_id":"levelo_inurba_marseille","lat":43.2921,"lon":5.40535,"is_reserved":false,"is_disabled":false,"rental_uris":{"android":"levelo://app?vid=1c2f3bdc-68fa-40a8-b99e-fcf41f32f9e4","ios":"levelo://app?vid=1c2f3bdc-68fa-40a8-b99e-fcf41f32f9e4"},"vehicle_type_id":"4","last_reported":1740478212,"current_range_meters":13600,"station_id":"","pricing_plan_id":"cebpf4jnsgd1na2vs0mg"},{"bike_id":"65c14da8-5902-45f7-b88e-fb5f96fcc6f0","system_id":"levelo_inurba_marseille","lat":43.32116,"lon":5.36794,"is_reserved":false,"is_disabled":false,"rental_uris":{"android":"levelo://app?vid=65c14da8-5902-45f7-b88e-fb5f96fcc6f0","ios":"levelo://app?vid=65c14da8-5902-45f7-b88e-fb5f96fcc6f0"},"vehicle_type_id":"4","last_reported":1740478212,"current_range_meters":13600,"station_id":"ce4bhrh2rcd13ifvqhug","pricing_plan_id":"cebpf4jnsgd1na2vs0mg"},{"bike_id":"f234f5bc-e105-4bec-9b5f-a7db9402e04e","system_id":"levelo_inurba_marseille","lat":43.29707,"lon":5.37704,"is_reserved":false,"is_disabled":false,"rental_uris":{"android":"levelo://app?vid=f234f5bc-e105-4bec-9b5f-a7db9402e04e","ios":"levelo://app?vid=f234f5bc-e105-4bec-9b5f-a7db9402e04e"},"vehicle_type_id":"4","last_reported":1740478212,"current_range_meters":14000,"station_id":"ce4bgkh2rcd13ifvqbl0","pricing_plan_id":"cebpf4jnsgd1na2vs0mg"},{"bike_id":"05be2cd2-aded-4b31-87eb-64fc9990e35b","system_id":"levelo_inurba_marseille","lat":43.30142,"lon":5.37423,"is_reserved":false,"is_disabled":false,"rental_uris":{"android":"levelo://app?vid=05be2cd2-aded-4b31-87eb-64fc9990e35b","ios":"levelo://app?vid=05be2cd2-aded-4b31-87eb-64fc9990e35b"},"vehicle_type_id":"4","last_reported":1740478212,"current_range_meters":14000,"station_id":"ce4bgs92rcd13ifvqcc0","pricing_plan_id":"cebpf4jnsgd1na2vs0mg"},{"bike_id":"9062f7b6-9c81-49b8-a1bd-5df58202afcd","system_id":"levelo_inurba_marseille","lat":43.31706,"lon":5.4371,"is_reserved":false,"is_disabled":false,"rental_uris":{"android":"levelo://app?vid=9062f7b6-9c81-49b8-a1bd-5df58202afcd","ios":"levelo://app?vid=9062f7b6-9c81-49b8-a1bd-5df58202afcd"},"vehicle_type_id":"4","last_reported":1740478212,"current_range_meters":14400,"station_id":"ce4bhp92rcd13ifvqhcg","pricing_plan_id":"cebpf4jnsgd1na2vs0mg"},{"bike_id":"832a88b9-2e24-4e16-aaf7-2e58128052e0","system_id":"levelo_inurba_marseille","lat":43.26962,"lon":5.38631,"is_reserved":false,"is_disabled":false,"rental_uris":{"android":"levelo://app?vid=832a88b9-2e24-4e16-aaf7-2e58128052e0","ios":"levelo://app?vid=832a88b9-2e24-4e16-aaf7-2e58128052e0"},"vehicle_type_id":"4","last_reported":1740478212,"current_range_meters":14000,"station_id":"ce4bhh92rcd13ifvqfh0","pricing_plan_id":"cebpf4jnsgd1na2vs0mg"},{"bike_id":"ef717b3d-1d38-4555-b4ee-841a243f50de","system_id":"levelo_inurba_marseille","lat":43.32535,"lon":5.4147,"is_reserved":false,"is_disabled":false,"rental_uris":{"android":"levelo://app?vid=ef717b3d-1d38-4555-b4ee-841a243f50de","ios":"levelo://app?vid=ef717b3d-1d38-4555-b4ee-841a243f50de"},"vehicle_type_id":"4","last_reported":1740478212,"current_range_meters":14000,"station_id":"ce4bhq12rcd13ifvqhhg","pricing_plan_id":"cebpf4jnsgd1na2vs0mg"},{"bike_id":"3d17fa74-4265-42a0-947c-8434cb5dbba2","system_id":"levelo_inurba_marseille","lat":43.31362,"lon":5.36682,"is_reserved":false,"is_disabled":false,"rental_uris":{"android":"levelo://app?vid=3d17fa74-4265-42a0-947c-8434cb5dbba2","ios":"levelo://app?vid=3d17fa74-4265-42a0-947c-8434cb5dbba2"},"vehicle_type_id":"4","last_reported":1740478212,"current_range_meters":12800,"station_id":"ce4bgr92rcd13ifvqc6g","pricing_plan_id":"cebpf4jnsgd1na2vs0mg"},{"bike_id":"3ca12e5b-bc10-471e-b621-aa59335cc3bb","system_id":"levelo_inurba_marseille","lat":43.2952,"lon":5.40773,"is_reserved":false,"is_disabled":false,"rental_uris":{"android":"levelo://app?vid=3ca12e5b-bc10-471e-b621-aa59335cc3bb","ios":"levelo://app?vid=3ca12e5b-bc10-471e-b621-aa59335cc3bb"},"vehicle_type_id":"4","last_reported":1740478212,"current_range_meters":14400,"station_id":"","pricing_plan_id":"cebpf4jnsgd1na2vs0mg"},{"bike_id":"0032a1aa-e9eb-4e54-a538-e616211bd91a","system_id":"levelo_inurba_marseille","lat":43.27499,"lon":5.42454,"is_reserved":false,"is_disabled":false,"rental_uris":{"android":"levelo://app?vid=0032a1aa-e9eb-4e54-a538-e616211bd91a","ios":"levelo://app?vid=0032a1aa-e9eb-4e54-a538-e616211bd91a"},"vehicle_type_id":"4","last_reported":1740478212,"current_range_meters":14400,"station_id":"ce4bhn92rcd13ifvqgrg","pricing_plan_id":"cebpf4jnsgd1na2vs0mg"},{"bike_id":"7c45866a-bd99-4c12-9747-66203f12a96e","system_id":"levelo_inurba_marseille","lat":43.2315,"lon":5.3552,"is_reserved":false,"is_disabled":false,"rental_uris":{"android":"levelo://app?vid=7c45866a-bd99-4c12-9747-66203f12a96e","ios":"levelo://app?vid=7c45866a-bd99-4c12-9747-66203f12a96e"},"vehicle_type_id":"4","last_reported":1740478212,"current_range_meters":14400,"station_id":"","pricing_plan_id":"cebpf4jnsgd1na2vs0mg"},{"bike_id":"36427cee-8fdc-4a4f-9ac9-c2ae0b53a1e7","system_id":"levelo_inurba_marseille","lat":43.32366,"lon":5.38904,"is_reserved":false,"is_disabled":false,"rental_uris":{"android":"levelo://app?vid=36427cee-8fdc-4a4f-9ac9-c2ae0b53a1e7","ios":"levelo://app?vid=36427cee-8fdc-4a4f-9ac9-c2ae0b53a1e7"},"vehicle_type_id":"4","last_reported":1740478212,"current_range_meters":14400,"station_id":"ce4bhqp2rcd13ifvqhog","pricing_plan_id":"cebpf4jnsgd1na2vs0mg"},{"bike_id":"f538397c-23d0-4247-9ad3-acacefb9937d","system_id":"levelo_inurba_marseille","lat":43.29634,"lon":5.36533,"is_reserved":false,"is_disabled":false,"rental_uris":{"android":"levelo://app?vid=f538397c-23d0-4247-9ad3-acacefb9937d","ios":"levelo://app?vid=f538397c-23d0-4247-9ad3-acacefb9937d"},"vehicle_type_id":"4","last_reported":1740478212,"current_range_meters":14400,"station_id":"","pricing_plan_id":"cebpf4jnsgd1na2vs0mg"},{"bike_id":"d9cd0b24-d8d3-4c55-90c0-4ef5893eee0c","system_id":"levelo_inurba_marseille","lat":43.2501,"lon":5.38951,"is_reserved":false,"is_disabled":false,"rental_uris":{"android":"levelo://app?vid=d9cd0b24-d8d3-4c55-90c0-4ef5893eee0c","ios":"levelo://app?vid=d9cd0b24-d8d3-4c55-90c0-4ef5893eee0c"},"vehicle_type_id":"4","last_reported":1740478212,"current_range_meters":14800,"station_id":"ce4bhgp2rcd13ifvqfd0","pricing_plan_id":"cebpf4jnsgd1na2vs0mg"},{"bike_id":"0f4fadf8-988c-482e-9185-364bd4bba555","system_id":"levelo_inurba_marseille","lat":43.28464,"lon":5.35906,"is_reserved":false,"is_disabled":false,"rental_uris":{"android":"levelo://app?vid=0f4fadf8-988c-482e-9185-364bd4bba555","ios":"levelo://app?vid=0f4fadf8-988c-482e-9185-364bd4bba555"},"vehicle_type_id":"4","last_reported":1740478212,"current_range_meters":15200,"station_id":"ce4bhah2rcd13ifvqei0","pricing_plan_id":"cebpf4jnsgd1na2vs0mg"},{"bike_id":"e32fad3d-cc38-492f-abc1-f9872ad39c7c","system_id":"levelo_inurba_marseille","lat":43.30436,"lon":5.39756,"is_reserved":false,"is_disabled":false,"rental_uris":{"android":"levelo://app?vid=e32fad3d-cc38-492f-abc1-f9872ad39c7c","ios":"levelo://app?vid=e32fad3d-cc38-492f-abc1-f9872ad39c7c"},"vehicle_type_id":"4","last_reported":1740478212,"current_range_meters":15200,"station_id":"ce4bh092rcd13ifvqd20","pricing_plan_id":"cebpf4jnsgd1na2vs0mg"},{"bike_id":"6f9eb619-ce1a-440a-9085-673242f78425","system_id":"levelo_inurba_marseille","lat":43.29496,"lon":5.37529,"is_reserved":false,"is_disabled":true,"rental_uris":{"android":"levelo://app?vid=6f9eb619-ce1a-440a-9085-673242f78425","ios":"levelo://app?vid=6f9eb619-ce1a-440a-9085-673242f78425"},"vehicle_type_id":"4","last_reported":1740478212,"current_range_meters":16000,"station_id":"","pricing_plan_id":"cebpf4jnsgd1na2vs0mg"},{"bike_id":"5f336e78-ccbc-4271-afb5-49919e33b093","system_id":"levelo_inurba_marseille","lat":43.27072,"lon":5.42287,"is_reserved":false,"is_disabled":false,"rental_uris":{"android":"levelo://app?vid=5f336e78-ccbc-4271-afb5-49919e33b093","ios":"levelo://app?vid=5f336e78-ccbc-4271-afb5-49919e33b093"},"vehicle_type_id":"4","last_reported":1740478212,"current_range_meters":16000,"station_id":"ce4bhk92rcd13ifvqgb0","pricing_plan_id":"cebpf4jnsgd1na2vs0mg"},{"bike_id":"72b119e9-41e8-48ac-b3d6-37cd6ccf25c1","system_id":"levelo_inurba_marseille","lat":43.30607,"lon":5.37242,"is_reserved":false,"is_disabled":false,"rental_uris":{"android":"levelo://app?vid=72b119e9-41e8-48ac-b3d6-37cd6ccf25c1","ios":"levelo://app?vid=72b119e9-41e8-48ac-b3d6-37cd6ccf25c1"},"vehicle_type_id":"4","last_reported":1740478212,"current_range_meters":16000,"station_id":"ce4bgqh2rcd13ifvqc4g","pricing_plan_id":"cebpf4jnsgd1na2vs0mg"},{"bike_id":"6a2aa712-d570-4a50-aa17-3ced782e6ff4","system_id":"levelo_inurba_marseille","lat":43.31092,"lon":5.42422,"is_reserved":false,"is_disabled":false,"rental_uris":{"android":"levelo://app?vid=6a2aa712-d570-4a50-aa17-3ced782e6ff4","ios":"levelo://app?vid=6a2aa712-d570-4a50-aa17-3ced782e6ff4"},"vehicle_type_id":"4","last_reported":1740478212,"current_range_meters":16400,"station_id":"ce4bhp92rcd13ifvqhag","pricing_plan_id":"cebpf4jnsgd1na2vs0mg"},{"bike_id":"31ec3c96-b748-4893-9e1e-2ea53c8de1fe","system_id":"levelo_inurba_marseille","lat":43.29321,"lon":5.41157,"is_reserved":false,"is_disabled":false,"rental_uris":{"android":"levelo://app?vid=31ec3c96-b748-4893-9e1e-2ea53c8de1fe","ios":"levelo://app?vid=31ec3c96-b748-4893-9e1e-2ea53c8de1fe"},"vehicle_type_id":"4","last_reported":1740478212,"current_range_meters":16400,"station_id":"","pricing_plan_id":"cebpf4jnsgd1na2vs0mg"},{"bike_id":"8da6f94b-a289-4949-bd74-ad9012c9f2ba","system_id":"levelo_inurba_marseille","lat":43.29096,"lon":5.38147,"is_reserved":false,"is_disabled":false,"rental_uris":{"android":"levelo://app?vid=8da6f94b-a289-4949-bd74-ad9012c9f2ba","ios":"levelo://app?vid=8da6f94b-a289-4949-bd74-ad9012c9f2ba"},"vehicle_type_id":"4","last_reported":1740478212,"current_range_meters":16400,"station_id":"ce4bh512rcd13ifvqe2g","pricing_plan_id":"cebpf4jnsgd1na2vs0mg"},{"bike_id":"a55940c1-ba72-427a-80fe-76dc4266bf66","system_id":"levelo_inurba_marseille","lat":43.27941,"lon":5.3872,"is_reserved":false,"is_disabled":false,"rental_uris":{"android":"levelo://app?vid=a55940c1-ba72-427a-80fe-76dc4266bf66","ios":"levelo://app?vid=a55940c1-ba72-427a-80fe-76dc4266bf66"},"vehicle_type_id":"4","last_reported":1740478212,"current_range_meters":16400,"station_id":"ce4bhg12rcd13ifvqf80","pricing_plan_id":"cebpf4jnsgd1na2vs0mg"},{"bike_id":"a0c4ad71-9b72-4008-a1c3-fe3aa1c3ed9f","system_id":"levelo_inurba_marseille","lat":43.2873,"lon":5.37909,"is_reserved":false,"is_disabled":false,"rental_uris":{"android":"levelo://app?vid=a0c4ad71-9b72-4008-a1c3-fe3aa1c3ed9f","ios":"levelo://app?vid=a0c4ad71-9b72-4008-a1c3-fe3aa1c3ed9f"},"vehicle_type_id":"4","last_reported":1740478212,"current_range_meters":16400,"station_id":"ce4bh9p2rcd13ifvqec0","pricing_plan_id":"cebpf4jnsgd1na2vs0mg"},{"bike_id":"a0ef3366-6f01-4273-864d-81f214e98d30","system_id":"levelo_inurba_marseille","lat":43.3255,"lon":5.41468,"is_reserved":false,"is_disabled":false,"rental_uris":{"android":"levelo://app?vid=a0ef3366-6f01-4273-864d-81f214e98d30","ios":"levelo://app?vid=a0ef3366-6f01-4273-864d-81f214e98d30"},"vehicle_type_id":"4","last_reported":1740478212,"current_range_meters":16400,"station_id":"ce4bhq12rcd13ifvqhhg","pricing_plan_id":"cebpf4jnsgd1na2vs0mg"},{"bike_id":"2d307127-be1c-439e-ae30-15a980ce6a76","system_id":"levelo_inurba_marseille","lat":43.26556,"lon":5.37286,"is_reserved":false,"is_disabled":false,"rental_uris":{"android":"levelo://app?vid=2d307127-be1c-439e-ae30-15a980ce6a76","ios":"levelo://app?vid=2d307127-be1c-439e-ae30-15a980ce6a76"},"vehicle_type_id":"4","last_reported":1740478212,"current_range_meters":16000,"station_id":"ce4bhg12rcd13ifvqf70","pricing_plan_id":"cebpf4jnsgd1na2vs0mg"},{"bike_id":"f2e71445-e212-4b78-a718-f4c41da59a93","system_id":"levelo_inurba_marseille","lat":43.31373,"lon":5.36707,"is_reserved":false,"is_disabled":false,"rental_uris":{"android":"levelo://app?vid=f2e71445-e212-4b78-a718-f4c41da59a93","ios":"levelo://app?vid=f2e71445-e212-4b78-a718-f4c41da59a93"},"vehicle_type_id":"4","last_reported":1740478212,"current_range_meters":16800,"station_id":"ce4bgr92rcd13ifvqc6g","pricing_plan_id":"cebpf4jnsgd1na2vs0mg"},{"bike_id":"6475167e-1546-4e0d-81b9-8a20a1cf6807","system_id":"levelo_inurba_marseille","lat":43.29239,"lon":5.40903,"is_reserved":false,"is_disabled":false,"rental_uris":{"android":"levelo://app?vid=6475167e-1546-4e0d-81b9-8a20a1cf6807","ios":"levelo://app?vid=6475167e-1546-4e0d-81b9-8a20a1cf6807"},"vehicle_type_id":"4","last_reported":1740478212,"current_range_meters":16800,"station_id":"ce4bh192rcd13ifvqdc0","pricing_plan_id":"cebpf4jnsgd1na2vs0mg"},{"bike_id":"8b12f3dd-d3ac-4793-ac1c-9f637dd7dde2","system_id":"levelo_inurba_marseille","lat":43.3095,"lon":5.39044,"is_reserved":false,"is_disabled":false,"rental_uris":{"android":"levelo://app?vid=8b12f3dd-d3ac-4793-ac1c-9f637dd7dde2","ios":"levelo://app?vid=8b12f3dd-d3ac-4793-ac1c-9f637dd7dde2"},"vehicle_type_id":"4","last_reported":1740478212,"current_range_meters":16800,"station_id":"ce4bgup2rcd13ifvqco0","pricing_plan_id":"cebpf4jnsgd1na2vs0mg"},{"bike_id":"e4805124-a8ee-4521-a8d1-d723c1eb5712","system_id":"levelo_inurba_marseille","lat":43.31478,"lon":5.37304,"is_reserved":false,"is_disabled":false,"rental_uris":{"android":"levelo://app?vid=e4805124-a8ee-4521-a8d1-d723c1eb5712","ios":"levelo://app?vid=e4805124-a8ee-4521-a8d1-d723c1eb5712"},"vehicle_type_id":"4","last_reported":1740478212,"current_range_meters":17600,"station_id":"ce4bgt12rcd13ifvqcd0","pricing_plan_id":"cebpf4jnsgd1na2vs0mg"},{"bike_id":"99ecdcac-415f-4765-98a3-24c1718bdda8","system_id":"levelo_inurba_marseille","lat":43.30531,"lon":5.36707,"is_reserved":false,"is_disabled":false,"rental_uris":{"android":"levelo://app?vid=99ecdcac-415f-4765-98a3-24c1718bdda8","ios":"levelo://app?vid=99ecdcac-415f-4765-98a3-24c1718bdda8"},"vehicle_type_id":"4","last_reported":1740478212,"current_range_meters":17600,"station_id":"ce4bgrp2rcd13ifvqc9g","pricing_plan_id":"cebpf4jnsgd1na2vs0mg"},{"bike_id":"c3d0fefa-5db4-49bd-a964-1a22da440d36","system_id":"levelo_inurba_marseille","lat":43.269559,"lon":5.386313,"is_reserved":false,"is_disabled":true,"rental_uris":{"android":"levelo://app?vid=c3d0fefa-5db4-49bd-a964-1a22da440d36","ios":"levelo://app?vid=c3d0fefa-5db4-49bd-a964-1a22da440d36"},"vehicle_type_id":"4","last_reported":1740478212,"current_range_meters":17600,"station_id":"","pricing_plan_id":"cebpf4jnsgd1na2vs0mg"},{"bike_id":"3360241d-054c-4a4c-a413-8c45b852a4c2","system_id":"levelo_inurba_marseille","lat":43.291255,"lon":5.383132,"is_reserved":false,"is_disabled":false,"rental_uris":{"android":"levelo://app?vid=3360241d-054c-4a4c-a413-8c45b852a4c2","ios":"levelo://app?vid=3360241d-054c-4a4c-a413-8c45b852a4c2"},"vehicle_type_id":"4","last_reported":1740478212,"current_range_meters":17600,"station_id":"ce4bh512rcd13ifvqe2g","pricing_plan_id":"cebpf4jnsgd1na2vs0mg"},{"bike_id":"18748449-5ce8-4807-99c7-7ca555136f4b","system_id":"levelo_inurba_marseille","lat":43.283704,"lon":5.386232,"is_reserved":false,"is_disabled":false,"rental_uris":{"android":"levelo://app?vid=18748449-5ce8-4807-99c7-7ca555136f4b","ios":"levelo://app?vid=18748449-5ce8-4807-99c7-7ca555136f4b"},"vehicle_type_id":"4","last_reported":1740478212,"current_range_meters":18000,"station_id":"ce4bgkh2rcd13ifvqbl0","pricing_plan_id":"cebpf4jnsgd1na2vs0mg"},{"bike_id":"d3103336-2d71-4742-bf9a-d557baf6d26c","system_id":"levelo_inurba_marseille","lat":43.27494,"lon":5.42476,"is_reserved":false,"is_disabled":false,"rental_uris":{"android":"levelo://app?vid=d3103336-2d71-4742-bf9a-d557baf6d26c","ios":"levelo://app?vid=d3103336-2d71-4742-bf9a-d557baf6d26c"},"vehicle_type_id":"4","last_reported":1740478212,"current_range_meters":18000,"station_id":"ce4bhn92rcd13ifvqgrg","pricing_plan_id":"cebpf4jnsgd1na2vs0mg"},{"bike_id":"451ee27c-3053-4dad-97f9-30aa721d9def","system_id":"levelo_inurba_marseille","lat":43.27989,"lon":5.40025,"is_reserved":false,"is_disabled":false,"rental_uris":{"android":"levelo://app?vid=451ee27c-3053-4dad-97f9-30aa721d9def","ios":"levelo://app?vid=451ee27c-3053-4dad-97f9-30aa721d9def"},"vehicle_type_id":"4","last_reported":1740478212,"current_range_meters":18000,"station_id":"ce4bho92rcd13ifvqh4g","pricing_plan_id":"cebpf4jnsgd1na2vs0mg"},{"bike_id":"01d1ea4b-b97d-4b51-8339-b447224ec054","system_id":"levelo_inurba_marseille","lat":43.290081,"lon":5.381386,"is_reserved":false,"is_disabled":false,"rental_uris":{"android":"levelo://app?vid=01d1ea4b-b97d-4b51-8339-b447224ec054","ios":"levelo://app?vid=01d1ea4b-b97d-4b51-8339-b447224ec054"},"vehicle_type_id":"4","last_reported":1740478212,"current_range_meters":19600,"station_id":"ce4bh4p2rcd13ifvqe1g","pricing_plan_id":"cebpf4jnsgd1na2vs0mg"},{"bike_id":"38ecdfe3-7fe7-4f80-b678-4ee7f7d81296","system_id":"levelo_inurba_marseille","lat":43.24646,"lon":5.38899,"is_reserved":false,"is_disabled":false,"rental_uris":{"android":"levelo://app?vid=38ecdfe3-7fe7-4f80-b678-4ee7f7d81296","ios":"levelo://app?vid=38ecdfe3-7fe7-4f80-b678-4ee7f7d81296"},"vehicle_type_id":"4","last_reported":1740478212,"current_range_meters":18000,"station_id":"ce4bhg12rcd13ifvqf60","pricing_plan_id":"cebpf4jnsgd1na2vs0mg"},{"bike_id":"ffac49be-d696-40c4-a824-81a793055380","system_id":"levelo_inurba_marseille","lat":43.29255,"lon":5.38443,"is_reserved":false,"is_disabled":false,"rental_uris":{"android":"levelo://app?vid=ffac49be-d696-40c4-a824-81a793055380","ios":"levelo://app?vid=ffac49be-d696-40c4-a824-81a793055380"},"vehicle_type_id":"4","last_reported":1740478212,"current_range_meters":19200,"station_id":"ce4bh692rcd13ifvqea0","pricing_plan_id":"cebpf4jnsgd1na2vs0mg"},{"bike_id":"44fed316-9e46-4865-b093-d76d2e74a729","system_id":"levelo_inurba_marseille","lat":43.2815,"lon":5.4265,"is_reserved":false,"is_disabled":false,"rental_uris":{"android":"levelo://app?vid=44fed316-9e46-4865-b093-d76d2e74a729","ios":"levelo://app?vid=44fed316-9e46-4865-b093-d76d2e74a729"},"vehicle_type_id":"4","last_reported":1740478212,"current_range_meters":18800,"station_id":"ce4bhnh2rcd13ifvqgug","pricing_plan_id":"cebpf4jnsgd1na2vs0mg"},{"bike_id":"9bcb6e74-9384-4520-a191-6ca3da24e600","system_id":"levelo_inurba_marseille","lat":43.24161,"lon":5.364,"is_reserved":false,"is_disabled":false,"rental_uris":{"android":"levelo://app?vid=9bcb6e74-9384-4520-a191-6ca3da24e600","ios":"levelo://app?vid=9bcb6e74-9384-4520-a191-6ca3da24e600"},"vehicle_type_id":"4","last_reported":1740478212,"current_range_meters":18800,"station_id":"cpo36qri1sfpv3e86is0","pricing_plan_id":"cebpf4jnsgd1na2vs0mg"},{"bike_id":"fd0761a2-be25-4e28-a89f-bda3cde9d408","system_id":"levelo_inurba_marseille","lat":43.27077,"lon":5.42273,"is_reserved":false,"is_disabled":false,"rental_uris":{"android":"levelo://app?vid=fd0761a2-be25-4e28-a89f-bda3cde9d408","ios":"levelo://app?vid=fd0761a2-be25-4e28-a89f-bda3cde9d408"},"vehicle_type_id":"4","last_reported":1740478212,"current_range_meters":18800,"station_id":"ce4bhk92rcd13ifvqgb0","pricing_plan_id":"cebpf4jnsgd1na2vs0mg"},{"bike_id":"8514fc45-931a-4d33-8ebd-119ca23a33dc","system_id":"levelo_inurba_marseille","lat":43.27802,"lon":5.40743,"is_reserved":false,"is_disabled":false,"rental_uris":{"android":"levelo://app?vid=8514fc45-931a-4d33-8ebd-119ca23a33dc","ios":"levelo://app?vid=8514fc45-931a-4d33-8ebd-119ca23a33dc"},"vehicle_type_id":"4","last_reported":1740478212,"current_range_meters":18800,"station_id":"ce4bhnh2rcd13ifvqgtg","pricing_plan_id":"cebpf4jnsgd1na2vs0mg"},{"bike_id":"bee6a20d-ea9a-4ad1-8f69-292c6379fe6b","system_id":"levelo_inurba_marseille","lat":43.28863,"lon":5.39324,"is_reserved":false,"is_disabled":false,"rental_uris":{"android":"levelo://app?vid=bee6a20d-ea9a-4ad1-8f69-292c6379fe6b","ios":"levelo://app?vid=bee6a20d-ea9a-4ad1-8f69-292c6379fe6b"},"vehicle_type_id":"4","last_reported":1740478212,"current_range_meters":18800,"station_id":"ce4bh2p2rcd13ifvqdi0","pricing_plan_id":"cebpf4jnsgd1na2vs0mg"},{"bike_id":"6c09e455-44e3-459a-a6e1-c0e3966c3650","system_id":"levelo_inurba_marseille","lat":43.31361,"lon":5.36731,"is_reserved":false,"is_disabled":false,"rental_uris":{"android":"levelo://app?vid=6c09e455-44e3-459a-a6e1-c0e3966c3650","ios":"levelo://app?vid=6c09e455-44e3-459a-a6e1-c0e3966c3650"},"vehicle_type_id":"4","last_reported":1740478212,"current_range_meters":18800,"station_id":"ce4bgr92rcd13ifvqc6g","pricing_plan_id":"cebpf4jnsgd1na2vs0mg"},{"bike_id":"a2fc4759-e0d6-451e-8666-707fcd901f79","system_id":"levelo_inurba_marseille","lat":43.32449,"lon":5.36647,"is_reserved":false,"is_disabled":false,"rental_uris":{"android":"levelo://app?vid=a2fc4759-e0d6-451e-8666-707fcd901f79","ios":"levelo://app?vid=a2fc4759-e0d6-451e-8666-707fcd901f79"},"vehicle_type_id":"4","last_reported":1740478212,"current_range_meters":18800,"station_id":"","pricing_plan_id":"cebpf4jnsgd1na2vs0mg"},{"bike_id":"2ad574ab-a84b-4194-be7b-5d19750113c3","system_id":"levelo_inurba_marseille","lat":43.32349,"lon":5.38896,"is_reserved":false,"is_disabled":false,"rental_uris":{"android":"levelo://app?vid=2ad574ab-a84b-4194-be7b-5d19750113c3","ios":"levelo://app?vid=2ad574ab-a84b-4194-be7b-5d19750113c3"},"vehicle_type_id":"4","last_reported":1740478212,"current_range_meters":19200,"station_id":"ce4bhqp2rcd13ifvqhog","pricing_plan_id":"cebpf4jnsgd1na2vs0mg"},{"bike_id":"bb246271-1d19-4255-a41d-d3411b437030","system_id":"levelo_inurba_marseille","lat":43.30219,"lon":5.39459,"is_reserved":false,"is_disabled":false,"rental_uris":{"android":"levelo://app?vid=bb246271-1d19-4255-a41d-d3411b437030","ios":"levelo://app?vid=bb246271-1d19-4255-a41d-d3411b437030"},"vehicle_type_id":"4","last_reported":1740478212,"current_range_meters":24400,"station_id":"ce4bh0p2rcd13ifvqd70","pricing_plan_id":"cebpf4jnsgd1na2vs0mg"},{"bike_id":"d7b86c71-089b-48f6-a952-fb6803fe85b1","system_id":"levelo_inurba_marseille","lat":43.26116,"lon":5.40324,"is_reserved":false,"is_disabled":false,"rental_uris":{"android":"levelo://app?vid=d7b86c71-089b-48f6-a952-fb6803fe85b1","ios":"levelo://app?vid=d7b86c71-089b-48f6-a952-fb6803fe85b1"},"vehicle_type_id":"4","last_reported":1740478212,"current_range_meters":19200,"station_id":"","pricing_plan_id":"cebpf4jnsgd1na2vs0mg"},{"bike_id":"1ac7b921-8294-4fe3-9cba-2edfc561a3da","system_id":"levelo_inurba_marseille","lat":43.30464,"lon":5.37905,"is_reserved":false,"is_disabled":false,"rental_uris":{"android":"levelo://app?vid=1ac7b921-8294-4fe3-9cba-2edfc561a3da","ios":"levelo://app?vid=1ac7b921-8294-4fe3-9cba-2edfc561a3da"},"vehicle_type_id":"4","last_reported":1740478212,"current_range_meters":19200,"station_id":"ce4bgup2rcd13ifvqcn0","pricing_plan_id":"cebpf4jnsgd1na2vs0mg"},{"bike_id":"270c5c21-5e8a-48e7-a033-8ae6cba4ef47","system_id":"levelo_inurba_marseille","lat":43.28277,"lon":5.35068,"is_reserved":false,"is_disabled":false,"rental_uris":{"android":"levelo://app?vid=270c5c21-5e8a-48e7-a033-8ae6cba4ef47","ios":"levelo://app?vid=270c5c21-5e8a-48e7-a033-8ae6cba4ef47"},"vehicle_type_id":"4","last_reported":1740478212,"current_range_meters":19200,"station_id":"ce4bhbp2rcd13ifvqerg","pricing_plan_id":"cebpf4jnsgd1na2vs0mg"},{"bike_id":"6761faac-925f-4801-9ca2-56f3ba4b1538","system_id":"levelo_inurba_marseille","lat":43.303183,"lon":5.368933,"is_reserved":false,"is_disabled":false,"rental_uris":{"android":"levelo://app?vid=6761faac-925f-4801-9ca2-56f3ba4b1538","ios":"levelo://app?vid=6761faac-925f-4801-9ca2-56f3ba4b1538"},"vehicle_type_id":"4","last_reported":1740478212,"current_range_meters":19200,"station_id":"ce4bgqh2rcd13ifvqc5g","pricing_plan_id":"cebpf4jnsgd1na2vs0mg"},{"bike_id":"3d442e47-47fa-435e-9a15-822e067cb866","system_id":"levelo_inurba_marseille","lat":43.25929,"lon":5.40914,"is_reserved":false,"is_disabled":false,"rental_uris":{"android":"levelo://app?vid=3d442e47-47fa-435e-9a15-822e067cb866","ios":"levelo://app?vid=3d442e47-47fa-435e-9a15-822e067cb866"},"vehicle_type_id":"4","last_reported":1740478212,"current_range_meters":19200,"station_id":"ce4bhm92rcd13ifvqglg","pricing_plan_id":"cebpf4jnsgd1na2vs0mg"},{"bike_id":"d0fdfff3-e35e-460b-9652-405ec602b0ff","system_id":"levelo_inurba_marseille","lat":43.24181,"lon":5.39725,"is_reserved":false,"is_disabled":false,"rental_uris":{"android":"levelo://app?vid=d0fdfff3-e35e-460b-9652-405ec602b0ff","ios":"levelo://app?vid=d0fdfff3-e35e-460b-9652-405ec602b0ff"},"vehicle_type_id":"4","last_reported":1740478212,"current_range_meters":19600,"station_id":"ce4bhn12rcd13ifvqgpg","pricing_plan_id":"cebpf4jnsgd1na2vs0mg"},{"bike_id":"76cc6d20-bca4-42cb-909f-8e8b2ee33cf8","system_id":"levelo_inurba_marseille","lat":43.28927,"lon":5.39625,"is_reserved":false,"is_disabled":false,"rental_uris":{"android":"levelo://app?vid=76cc6d20-bca4-42cb-909f-8e8b2ee33cf8","ios":"levelo://app?vid=76cc6d20-bca4-42cb-909f-8e8b2ee33cf8"},"vehicle_type_id":"4","last_reported":1740478212,"current_range_meters":20000,"station_id":"ce4bh3h2rcd13ifvqdn0","pricing_plan_id":"cebpf4jnsgd1na2vs0mg"},{"bike_id":"73bf0b1c-4af1-4739-aa3d-e444440930e2","system_id":"levelo_inurba_marseille","lat":43.30173,"lon":5.381,"is_reserved":false,"is_disabled":false,"rental_uris":{"android":"levelo://app?vid=73bf0b1c-4af1-4739-aa3d-e444440930e2","ios":"levelo://app?vid=73bf0b1c-4af1-4739-aa3d-e444440930e2"},"vehicle_type_id":"4","last_reported":1740478212,"current_range_meters":20000,"station_id":"ce4bgjp2rcd13ifvqbh0","pricing_plan_id":"cebpf4jnsgd1na2vs0mg"},{"bike_id":"25411262-23d1-41bb-a382-a545d4af1ec3","system_id":"levelo_inurba_marseille","lat":43.25098,"lon":5.40307,"is_reserved":false,"is_disabled":false,"rental_uris":{"android":"levelo://app?vid=25411262-23d1-41bb-a382-a545d4af1ec3","ios":"levelo://app?vid=25411262-23d1-41bb-a382-a545d4af1ec3"},"vehicle_type_id":"4","last_reported":1740478212,"current_range_meters":20000,"station_id":"ce4bhlh2rcd13ifvqgig","pricing_plan_id":"cebpf4jnsgd1na2vs0mg"},{"bike_id":"ca94e73b-49a1-4cef-8d91-400bee1165d8","system_id":"levelo_inurba_marseille","lat":43.28446,"lon":5.39208,"is_reserved":false,"is_disabled":false,"rental_uris":{"android":"levelo://app?vid=ca94e73b-49a1-4cef-8d91-400bee1165d8","ios":"levelo://app?vid=ca94e73b-49a1-4cef-8d91-400bee1165d8"},"vehicle_type_id":"4","last_reported":1740478212,"current_range_meters":19600,"station_id":"ce4bhoh2rcd13ifvqh5g","pricing_plan_id":"cebpf4jnsgd1na2vs0mg"},{"bike_id":"bbb5b944-71d3-4e8f-8b40-694dc2d679cb","system_id":"levelo_inurba_marseille","lat":43.23153,"lon":5.43711,"is_reserved":false,"is_disabled":false,"rental_uris":{"android":"levelo://app?vid=bbb5b944-71d3-4e8f-8b40-694dc2d679cb","ios":"levelo://app?vid=bbb5b944-71d3-4e8f-8b40-694dc2d679cb"},"vehicle_type_id":"4","last_reported":1740478212,"current_range_meters":20400,"station_id":"ce4bhmp2rcd13ifvqgog","pricing_plan_id":"cebpf4jnsgd1na2vs0mg"},{"bike_id":"7a284752-a6da-443d-b9aa-90d8c956665b","system_id":"levelo_inurba_marseille","lat":43.29917,"lon":5.37492,"is_reserved":false,"is_disabled":false,"rental_uris":{"android":"levelo://app?vid=7a284752-a6da-443d-b9aa-90d8c956665b","ios":"levelo://app?vid=7a284752-a6da-443d-b9aa-90d8c956665b"},"vehicle_type_id":"4","last_reported":1740478212,"current_range_meters":20000,"station_id":"ce4bgjh2rcd13ifvqbg0","pricing_plan_id":"cebpf4jnsgd1na2vs0mg"},{"bike_id":"5e315be2-4066-4a0b-9266-ca54ab7ee321","system_id":"levelo_inurba_marseille","lat":43.23198,"lon":5.35557,"is_reserved":false,"is_disabled":false,"rental_uris":{"android":"levelo://app?vid=5e315be2-4066-4a0b-9266-ca54ab7ee321","ios":"levelo://app?vid=5e315be2-4066-4a0b-9266-ca54ab7ee321"},"vehicle_type_id":"4","last_reported":1740478212,"current_range_meters":19600,"station_id":"ce4bhu92rcd13ifvqi70","pricing_plan_id":"cebpf4jnsgd1na2vs0mg"},{"bike_id":"e4b61e67-5c22-4221-873e-01cee989859c","system_id":"levelo_inurba_marseille","lat":43.29889,"lon":5.43675,"is_reserved":false,"is_disabled":false,"rental_uris":{"android":"levelo://app?vid=e4b61e67-5c22-4221-873e-01cee989859c","ios":"levelo://app?vid=e4b61e67-5c22-4221-873e-01cee989859c"},"vehicle_type_id":"4","last_reported":1740478212,"current_range_meters":20000,"station_id":"ce4bhpp2rcd13ifvqhfg","pricing_plan_id":"cebpf4jnsgd1na2vs0mg"},{"bike_id":"45127abe-699f-4c02-9aab-c9892981149b","system_id":"levelo_inurba_marseille","lat":43.2719,"lon":5.40989,"is_reserved":false,"is_disabled":false,"rental_uris":{"android":"levelo://app?vid=45127abe-699f-4c02-9aab-c9892981149b","ios":"levelo://app?vid=45127abe-699f-4c02-9aab-c9892981149b"},"vehicle_type_id":"4","last_reported":1740478212,"current_range_meters":20800,"station_id":"ce4bhl12rcd13ifvqgf0","pricing_plan_id":"cebpf4jnsgd1na2vs0mg"},{"bike_id":"6e81c8e6-11df-443f-ad8d-9c418aabd54e","system_id":"levelo_inurba_marseille","lat":43.25923,"lon":5.40856,"is_reserved":false,"is_disabled":false,"rental_uris":{"android":"levelo://app?vid=6e81c8e6-11df-443f-ad8d-9c418aabd54e","ios":"levelo://app?vid=6e81c8e6-11df-443f-ad8d-9c418aabd54e"},"vehicle_type_id":"4","last_reported":1740478212,"current_range_meters":20400,"station_id":"ce4bhm92rcd13ifvqglg","pricing_plan_id":"cebpf4jnsgd1na2vs0mg"},{"bike_id":"1df32ffb-b6d0-42f0-8856-8dbb268b7110","system_id":"levelo_inurba_marseille","lat":43.31667,"lon":5.4371,"is_reserved":false,"is_disabled":false,"rental_uris":{"android":"levelo://app?vid=1df32ffb-b6d0-42f0-8856-8dbb268b7110","ios":"levelo://app?vid=1df32ffb-b6d0-42f0-8856-8dbb268b7110"},"vehicle_type_id":"4","last_reported":1740478212,"current_range_meters":20800,"station_id":"ce4bhp92rcd13ifvqhcg","pricing_plan_id":"cebpf4jnsgd1na2vs0mg"},{"bike_id":"13c41661-d7e4-4f50-93d3-3aaebd3409b9","system_id":"levelo_inurba_marseille","lat":43.28411,"lon":5.37525,"is_reserved":false,"is_disabled":false,"rental_uris":{"android":"levelo://app?vid=13c41661-d7e4-4f50-93d3-3aaebd3409b9","ios":"levelo://app?vid=13c41661-d7e4-4f50-93d3-3aaebd3409b9"},"vehicle_type_id":"4","last_reported":1740478212,"current_range_meters":20400,"station_id":"ce4bh412rcd13ifvqds0","pricing_plan_id":"cebpf4jnsgd1na2vs0mg"},{"bike_id":"7d7abea9-6a20-4c39-8298-ef812bdd15a1","system_id":"levelo_inurba_marseille","lat":43.29681,"lon":5.37292,"is_reserved":false,"is_disabled":false,"rental_uris":{"android":"levelo://app?vid=7d7abea9-6a20-4c39-8298-ef812bdd15a1","ios":"levelo://app?vid=7d7abea9-6a20-4c39-8298-ef812bdd15a1"},"vehicle_type_id":"4","last_reported":1740478212,"current_range_meters":20400,"station_id":"ce4bgk12rcd13ifvqbj0","pricing_plan_id":"cebpf4jnsgd1na2vs0mg"},{"bike_id":"fc22684b-1e44-4137-8eb3-8f4c97d52cb0","system_id":"levelo_inurba_marseille","lat":43.24999,"lon":5.38929,"is_reserved":false,"is_disabled":false,"rental_uris":{"android":"levelo://app?vid=fc22684b-1e44-4137-8eb3-8f4c97d52cb0","ios":"levelo://app?vid=fc22684b-1e44-4137-8eb3-8f4c97d52cb0"},"vehicle_type_id":"4","last_reported":1740478212,"current_range_meters":20800,"station_id":"ce4bhgp2rcd13ifvqfd0","pricing_plan_id":"cebpf4jnsgd1na2vs0mg"},{"bike_id":"c3558330-f1af-4e0e-a458-4e1e21bac14b","system_id":"levelo_inurba_marseille","lat":43.25181,"lon":5.3747,"is_reserved":false,"is_disabled":false,"rental_uris":{"android":"levelo://app?vid=c3558330-f1af-4e0e-a458-4e1e21bac14b","ios":"levelo://app?vid=c3558330-f1af-4e0e-a458-4e1e21bac14b"},"vehicle_type_id":"4","last_reported":1740478212,"current_range_meters":20800,"station_id":"","pricing_plan_id":"cebpf4jnsgd1na2vs0mg"},{"bike_id":"2bc546c1-26eb-45d0-be8c-61f0caa5650e","system_id":"levelo_inurba_marseille","lat":43.2678,"lon":5.39422,"is_reserved":false,"is_disabled":false,"rental_uris":{"android":"levelo://app?vid=2bc546c1-26eb-45d0-be8c-61f0caa5650e","ios":"levelo://app?vid=2bc546c1-26eb-45d0-be8c-61f0caa5650e"},"vehicle_type_id":"4","last_reported":1740478212,"current_range_meters":20400,"station_id":"ce4bhh12rcd13ifvqfg0","pricing_plan_id":"cebpf4jnsgd1na2vs0mg"},{"bike_id":"d2401322-2d0c-42be-add4-f6a83cbb27ac","system_id":"levelo_inurba_marseille","lat":43.32434,"lon":5.36594,"is_reserved":false,"is_disabled":false,"rental_uris":{"android":"levelo://app?vid=d2401322-2d0c-42be-add4-f6a83cbb27ac","ios":"levelo://app?vid=d2401322-2d0c-42be-add4-f6a83cbb27ac"},"vehicle_type_id":"4","last_reported":1740478212,"current_range_meters":20800,"station_id":"","pricing_plan_id":"cebpf4jnsgd1na2vs0mg"},{"bike_id":"3142f017-c4b6-483e-aa73-b65aa0cf64a2","system_id":"levelo_inurba_marseille","lat":43.28036,"lon":5.36956,"is_reserved":false,"is_disabled":true,"rental_uris":{"android":"levelo://app?vid=3142f017-c4b6-483e-aa73-b65aa0cf64a2","ios":"levelo://app?vid=3142f017-c4b6-483e-aa73-b65aa0cf64a2"},"vehicle_type_id":"4","last_reported":1740478212,"current_range_meters":21600,"station_id":"ce4bha12rcd13ifvqef0","pricing_plan_id":"cebpf4jnsgd1na2vs0mg"},{"bike_id":"677b1e47-0265-499c-8770-9eb32f515c40","system_id":"levelo_inurba_marseille","lat":43.26577,"lon":5.39042,"is_reserved":false,"is_disabled":false,"rental_uris":{"android":"levelo://app?vid=677b1e47-0265-499c-8770-9eb32f515c40","ios":"levelo://app?vid=677b1e47-0265-499c-8770-9eb32f515c40"},"vehicle_type_id":"4","last_reported":1740478212,"current_range_meters":21600,"station_id":"ce4bhe12rcd13ifvqf30","pricing_plan_id":"cebpf4jnsgd1na2vs0mg"},{"bike_id":"1015abbd-7082-4ba1-86ea-5a0ad2804113","system_id":"levelo_inurba_marseille","lat":43.29894,"lon":5.43667,"is_reserved":false,"is_disabled":false,"rental_uris":{"android":"levelo://app?vid=1015abbd-7082-4ba1-86ea-5a0ad2804113","ios":"levelo://app?vid=1015abbd-7082-4ba1-86ea-5a0ad2804113"},"vehicle_type_id":"4","last_reported":1740478212,"current_range_meters":22000,"station_id":"ce4bhpp2rcd13ifvqhfg","pricing_plan_id":"cebpf4jnsgd1na2vs0mg"},{"bike_id":"7a697e22-e1c2-4d27-9168-ae6aafa074ef","system_id":"levelo_inurba_marseille","lat":43.29808,"lon":5.38094,"is_reserved":false,"is_disabled":false,"rental_uris":{"android":"levelo://app?vid=7a697e22-e1c2-4d27-9168-ae6aafa074ef","ios":"levelo://app?vid=7a697e22-e1c2-4d27-9168-ae6aafa074ef"},"vehicle_type_id":"4","last_reported":1740478212,"current_range_meters":22000,"station_id":"ce4bgip2rcd13ifvqbb0","pricing_plan_id":"cebpf4jnsgd1na2vs0mg"},{"bike_id":"70783bb8-fc40-4fc3-8a74-42f162f82a99","system_id":"levelo_inurba_marseille","lat":43.32372,"lon":5.38873,"is_reserved":false,"is_disabled":false,"rental_uris":{"android":"levelo://app?vid=70783bb8-fc40-4fc3-8a74-42f162f82a99","ios":"levelo://app?vid=70783bb8-fc40-4fc3-8a74-42f162f82a99"},"vehicle_type_id":"4","last_reported":1740478212,"current_range_meters":22000,"station_id":"ce4bhqp2rcd13ifvqhog","pricing_plan_id":"cebpf4jnsgd1na2vs0mg"},{"bike_id":"8a306bd5-f14c-46b4-9d14-511c66043162","system_id":"levelo_inurba_marseille","lat":43.29043,"lon":5.37569,"is_reserved":false,"is_disabled":false,"rental_uris":{"android":"levelo://app?vid=8a306bd5-f14c-46b4-9d14-511c66043162","ios":"levelo://app?vid=8a306bd5-f14c-46b4-9d14-511c66043162"},"vehicle_type_id":"4","last_reported":1740478212,"current_range_meters":22000,"station_id":"","pricing_plan_id":"cebpf4jnsgd1na2vs0mg"},{"bike_id":"91e55648-0d6a-40c8-8f4f-9025fe60a924","system_id":"levelo_inurba_marseille","lat":43.30304,"lon":5.36889,"is_reserved":false,"is_disabled":false,"rental_uris":{"android":"levelo://app?vid=91e55648-0d6a-40c8-8f4f-9025fe60a924","ios":"levelo://app?vid=91e55648-0d6a-40c8-8f4f-9025fe60a924"},"vehicle_type_id":"4","last_reported":1740478212,"current_range_meters":22400,"station_id":"ce4bgqh2rcd13ifvqc5g","pricing_plan_id":"cebpf4jnsgd1na2vs0mg"},{"bike_id":"b2052e00-dfdd-4e6e-99d3-d3baf4c9066c","system_id":"levelo_inurba_marseille","lat":43.27815,"lon":5.40716,"is_reserved":false,"is_disabled":false,"rental_uris":{"android":"levelo://app?vid=b2052e00-dfdd-4e6e-99d3-d3baf4c9066c","ios":"levelo://app?vid=b2052e00-dfdd-4e6e-99d3-d3baf4c9066c"},"vehicle_type_id":"4","last_reported":1740478212,"current_range_meters":22400,"station_id":"ce4bhnh2rcd13ifvqgtg","pricing_plan_id":"cebpf4jnsgd1na2vs0mg"},{"bike_id":"1a04a241-5aca-494d-91cb-bcc5aa5ae7e0","system_id":"levelo_inurba_marseille","lat":43.29034,"lon":5.39967,"is_reserved":false,"is_disabled":false,"rental_uris":{"android":"levelo://app?vid=1a04a241-5aca-494d-91cb-bcc5aa5ae7e0","ios":"levelo://app?vid=1a04a241-5aca-494d-91cb-bcc5aa5ae7e0"},"vehicle_type_id":"4","last_reported":1740478212,"current_range_meters":22400,"station_id":"ce4bh392rcd13ifvqdm0","pricing_plan_id":"cebpf4jnsgd1na2vs0mg"},{"bike_id":"530cde92-7948-45d6-a618-2fa6502ad28f","system_id":"levelo_inurba_marseille","lat":43.23154,"lon":5.43711,"is_reserved":false,"is_disabled":false,"rental_uris":{"android":"levelo://app?vid=530cde92-7948-45d6-a618-2fa6502ad28f","ios":"levelo://app?vid=530cde92-7948-45d6-a618-2fa6502ad28f"},"vehicle_type_id":"4","last_reported":1740478212,"current_range_meters":22000,"station_id":"ce4bhmp2rcd13ifvqgog","pricing_plan_id":"cebpf4jnsgd1na2vs0mg"},{"bike_id":"ab5bb966-c78d-4c84-9a4d-e26b3342239c","system_id":"levelo_inurba_marseille","lat":43.30298,"lon":5.39225,"is_reserved":false,"is_disabled":false,"rental_uris":{"android":"levelo://app?vid=ab5bb966-c78d-4c84-9a4d-e26b3342239c","ios":"levelo://app?vid=ab5bb966-c78d-4c84-9a4d-e26b3342239c"},"vehicle_type_id":"4","last_reported":1740478212,"current_range_meters":22400,"station_id":"ce4bgkh2rcd13ifvqbk0","pricing_plan_id":"cebpf4jnsgd1na2vs0mg"},{"bike_id":"83e544a0-45a3-4548-ba5f-042122fac9c7","system_id":"levelo_inurba_marseille","lat":43.23065,"lon":5.35497,"is_reserved":false,"is_disabled":false,"rental_uris":{"android":"levelo://app?vid=83e544a0-45a3-4548-ba5f-042122fac9c7","ios":"levelo://app?vid=83e544a0-45a3-4548-ba5f-042122fac9c7"},"vehicle_type_id":"4","last_reported":1740478212,"current_range_meters":35600,"station_id":"cpo3342slgdg3j2ifvpg","pricing_plan_id":"cebpf4jnsgd1na2vs0mg"},{"bike_id":"9eb10ab9-ef97-459e-a893-bed63e589588","system_id":"levelo_inurba_marseille","lat":43.25014,"lon":5.38919,"is_reserved":false,"is_disabled":false,"rental_uris":{"android":"levelo://app?vid=9eb10ab9-ef97-459e-a893-bed63e589588","ios":"levelo://app?vid=9eb10ab9-ef97-459e-a893-bed63e589588"},"vehicle_type_id":"4","last_reported":1740478212,"current_range_meters":22800,"station_id":"ce4bhgp2rcd13ifvqfd0","pricing_plan_id":"cebpf4jnsgd1na2vs0mg"},{"bike_id":"5cac1fb7-4240-4b63-a55f-8da79b3f4a53","system_id":"levelo_inurba_marseille","lat":43.32542,"lon":5.41447,"is_reserved":false,"is_disabled":false,"rental_uris":{"android":"levelo://app?vid=5cac1fb7-4240-4b63-a55f-8da79b3f4a53","ios":"levelo://app?vid=5cac1fb7-4240-4b63-a55f-8da79b3f4a53"},"vehicle_type_id":"4","last_reported":1740478212,"current_range_meters":22800,"station_id":"ce4bhq12rcd13ifvqhhg","pricing_plan_id":"cebpf4jnsgd1na2vs0mg"},{"bike_id":"fe6617a9-ee28-47b3-be78-1c985e373d8d","system_id":"levelo_inurba_marseille","lat":43.25823,"lon":5.39433,"is_reserved":false,"is_disabled":false,"rental_uris":{"android":"levelo://app?vid=fe6617a9-ee28-47b3-be78-1c985e373d8d","ios":"levelo://app?vid=fe6617a9-ee28-47b3-be78-1c985e373d8d"},"vehicle_type_id":"4","last_reported":1740478212,"current_range_meters":22800,"station_id":"ce4bhip2rcd13ifvqft0","pricing_plan_id":"cebpf4jnsgd1na2vs0mg"},{"bike_id":"ce6c3a57-2472-4142-ab26-fc6dee861395","system_id":"levelo_inurba_marseille","lat":43.3024,"lon":5.37534,"is_reserved":false,"is_disabled":false,"rental_uris":{"android":"levelo://app?vid=ce6c3a57-2472-4142-ab26-fc6dee861395","ios":"levelo://app?vid=ce6c3a57-2472-4142-ab26-fc6dee861395"},"vehicle_type_id":"4","last_reported":1740478212,"current_range_meters":22800,"station_id":"","pricing_plan_id":"cebpf4jnsgd1na2vs0mg"},{"bike_id":"61229c3a-f47d-4209-b5e2-29f5218b580e","system_id":"levelo_inurba_marseille","lat":43.29003,"lon":5.35618,"is_reserved":false,"is_disabled":false,"rental_uris":{"android":"levelo://app?vid=61229c3a-f47d-4209-b5e2-29f5218b580e","ios":"levelo://app?vid=61229c3a-f47d-4209-b5e2-29f5218b580e"},"vehicle_type_id":"4","last_reported":1740478212,"current_range_meters":22400,"station_id":"ce4bhb92rcd13ifvqen0","pricing_plan_id":"cebpf4jnsgd1na2vs0mg"},{"bike_id":"65af3bde-dfe2-462c-a673-ad1673cbef1e","system_id":"levelo_inurba_marseille","lat":43.303075,"lon":5.368889,"is_reserved":false,"is_disabled":false,"rental_uris":{"android":"levelo://app?vid=65af3bde-dfe2-462c-a673-ad1673cbef1e","ios":"levelo://app?vid=65af3bde-dfe2-462c-a673-ad1673cbef1e"},"vehicle_type_id":"4","last_reported":1740478212,"current_range_meters":24400,"station_id":"ce4bgqh2rcd13ifvqc5g","pricing_plan_id":"cebpf4jnsgd1na2vs0mg"},{"bike_id":"0edf3a85-0e12-4f65-a670-900a1988fcf3","system_id":"levelo_inurba_marseille","lat":43.304003,"lon":5.412973,"is_reserved":false,"is_disabled":true,"rental_uris":{"android":"levelo://app?vid=0edf3a85-0e12-4f65-a670-900a1988fcf3","ios":"levelo://app?vid=0edf3a85-0e12-4f65-a670-900a1988fcf3"},"vehicle_type_id":"4","last_reported":1740478212,"current_range_meters":22800,"station_id":"ce4bhop2rcd13ifvqh8g","pricing_plan_id":"cebpf4jnsgd1na2vs0mg"},{"bike_id":"95f05b6e-2c2a-4940-b7cb-ec4781dfe40c","system_id":"levelo_inurba_marseille","lat":43.25934,"lon":5.40898,"is_reserved":false,"is_disabled":false,"rental_uris":{"android":"levelo://app?vid=95f05b6e-2c2a-4940-b7cb-ec4781dfe40c","ios":"levelo://app?vid=95f05b6e-2c2a-4940-b7cb-ec4781dfe40c"},"vehicle_type_id":"4","last_reported":1740478212,"current_range_meters":22800,"station_id":"ce4bhm92rcd13ifvqglg","pricing_plan_id":"cebpf4jnsgd1na2vs0mg"},{"bike_id":"61033ed1-6756-4c90-8474-824efd671c16","system_id":"levelo_inurba_marseille","lat":43.29289,"lon":5.40132,"is_reserved":false,"is_disabled":false,"rental_uris":{"android":"levelo://app?vid=61033ed1-6756-4c90-8474-824efd671c16","ios":"levelo://app?vid=61033ed1-6756-4c90-8474-824efd671c16"},"vehicle_type_id":"4","last_reported":1740478212,"current_range_meters":22000,"station_id":"ce4bh312rcd13ifvqdk0","pricing_plan_id":"cebpf4jnsgd1na2vs0mg"},{"bike_id":"fa04c13d-c04f-4b8c-a050-70faf09a3b53","system_id":"levelo_inurba_marseille","lat":43.28503,"lon":5.38569,"is_reserved":false,"is_disabled":false,"rental_uris":{"android":"levelo://app?vid=fa04c13d-c04f-4b8c-a050-70faf09a3b53","ios":"levelo://app?vid=fa04c13d-c04f-4b8c-a050-70faf09a3b53"},"vehicle_type_id":"4","last_reported":1740478212,"current_range_meters":23200,"station_id":"ce4bh8p2rcd13ifvqeb0","pricing_plan_id":"cebpf4jnsgd1na2vs0mg"},{"bike_id":"dc8a15be-f270-42a7-9f4d-9654e3c727e0","system_id":"levelo_inurba_marseille","lat":43.30145,"lon":5.38079,"is_reserved":false,"is_disabled":false,"rental_uris":{"android":"levelo://app?vid=dc8a15be-f270-42a7-9f4d-9654e3c727e0","ios":"levelo://app?vid=dc8a15be-f270-42a7-9f4d-9654e3c727e0"},"vehicle_type_id":"4","last_reported":1740478212,"current_range_meters":22800,"station_id":"ce4bgjp2rcd13ifvqbh0","pricing_plan_id":"cebpf4jnsgd1na2vs0mg"},{"bike_id":"9ccc3928-55b5-4faa-8144-26ece3d0d4a4","system_id":"levelo_inurba_marseille","lat":43.28362,"lon":5.38107,"is_reserved":false,"is_disabled":false,"rental_uris":{"android":"levelo://app?vid=9ccc3928-55b5-4faa-8144-26ece3d0d4a4","ios":"levelo://app?vid=9ccc3928-55b5-4faa-8144-26ece3d0d4a4"},"vehicle_type_id":"4","last_reported":1740478212,"current_range_meters":23200,"station_id":"ce4bh412rcd13ifvqdr0","pricing_plan_id":"cebpf4jnsgd1na2vs0mg"},{"bike_id":"52523529-fae7-4c8a-8269-6204c062d67e","system_id":"levelo_inurba_marseille","lat":43.27073,"lon":5.42285,"is_reserved":false,"is_disabled":false,"rental_uris":{"android":"levelo://app?vid=52523529-fae7-4c8a-8269-6204c062d67e","ios":"levelo://app?vid=52523529-fae7-4c8a-8269-6204c062d67e"},"vehicle_type_id":"4","last_reported":1740478212,"current_range_meters":23200,"station_id":"ce4bhk92rcd13ifvqgb0","pricing_plan_id":"cebpf4jnsgd1na2vs0mg"},{"bike_id":"c66043a9-4683-43d0-9e2b-3748e47a791d","system_id":"levelo_inurba_marseille","lat":43.25868,"lon":5.39912,"is_reserved":false,"is_disabled":false,"rental_uris":{"android":"levelo://app?vid=c66043a9-4683-43d0-9e2b-3748e47a791d","ios":"levelo://app?vid=c66043a9-4683-43d0-9e2b-3748e47a791d"},"vehicle_type_id":"4","last_reported":1740478212,"current_range_meters":24000,"station_id":"ce4bhl92rcd13ifvqghg","pricing_plan_id":"cebpf4jnsgd1na2vs0mg"},{"bike_id":"e63956f9-c9ad-4024-a2c7-c611d20b8d64","system_id":"levelo_inurba_marseille","lat":43.27494,"lon":5.42461,"is_reserved":false,"is_disabled":false,"rental_uris":{"android":"levelo://app?vid=e63956f9-c9ad-4024-a2c7-c611d20b8d64","ios":"levelo://app?vid=e63956f9-c9ad-4024-a2c7-c611d20b8d64"},"vehicle_type_id":"4","last_reported":1740478212,"current_range_meters":23200,"station_id":"ce4bhn92rcd13ifvqgrg","pricing_plan_id":"cebpf4jnsgd1na2vs0mg"},{"bike_id":"08c0e386-18a3-4f4d-ad63-faa98867e70f","system_id":"levelo_inurba_marseille","lat":43.27499,"lon":5.42453,"is_reserved":false,"is_disabled":false,"rental_uris":{"android":"levelo://app?vid=08c0e386-18a3-4f4d-ad63-faa98867e70f","ios":"levelo://app?vid=08c0e386-18a3-4f4d-ad63-faa98867e70f"},"vehicle_type_id":"4","last_reported":1740478212,"current_range_meters":23200,"station_id":"ce4bhn92rcd13ifvqgrg","pricing_plan_id":"cebpf4jnsgd1na2vs0mg"},{"bike_id":"b69d2ca7-a48b-4651-a829-0793f0051084","system_id":"levelo_inurba_marseille","lat":43.2869,"lon":5.38685,"is_reserved":false,"is_disabled":false,"rental_uris":{"android":"levelo://app?vid=b69d2ca7-a48b-4651-a829-0793f0051084","ios":"levelo://app?vid=b69d2ca7-a48b-4651-a829-0793f0051084"},"vehicle_type_id":"4","last_reported":1740478212,"current_range_meters":24000,"station_id":"ce4bh492rcd13ifvqdug","pricing_plan_id":"cebpf4jnsgd1na2vs0mg"},{"bike_id":"220837e6-44d1-411a-aaca-6e3d59340904","system_id":"levelo_inurba_marseille","lat":43.301318,"lon":5.387765,"is_reserved":false,"is_disabled":true,"rental_uris":{"android":"levelo://app?vid=220837e6-44d1-411a-aaca-6e3d59340904","ios":"levelo://app?vid=220837e6-44d1-411a-aaca-6e3d59340904"},"vehicle_type_id":"4","last_reported":1740478212,"current_range_meters":24000,"station_id":"","pricing_plan_id":"cebpf4jnsgd1na2vs0mg"},{"bike_id":"03768ead-78bb-4471-a1c1-0d66edb8c677","system_id":"levelo_inurba_marseille","lat":43.27057,"lon":5.40266,"is_reserved":false,"is_disabled":false,"rental_uris":{"android":"levelo://app?vid=03768ead-78bb-4471-a1c1-0d66edb8c677","ios":"levelo://app?vid=03768ead-78bb-4471-a1c1-0d66edb8c677"},"vehicle_type_id":"4","last_reported":1740478212,"current_range_meters":24000,"station_id":"ce4bhk92rcd13ifvqgc0","pricing_plan_id":"cebpf4jnsgd1na2vs0mg"},{"bike_id":"cfdceaec-5809-4147-9635-ee28c15e1297","system_id":"levelo_inurba_marseille","lat":43.29923,"lon":5.37458,"is_reserved":false,"is_disabled":false,"rental_uris":{"android":"levelo://app?vid=cfdceaec-5809-4147-9635-ee28c15e1297","ios":"levelo://app?vid=cfdceaec-5809-4147-9635-ee28c15e1297"},"vehicle_type_id":"4","last_reported":1740478212,"current_range_meters":24000,"station_id":"ce4bgjh2rcd13ifvqbg0","pricing_plan_id":"cebpf4jnsgd1na2vs0mg"},{"bike_id":"7aa53a15-3bf6-4f3b-9477-54be1837aa45","system_id":"levelo_inurba_marseille","lat":43.24806,"lon":5.37461,"is_reserved":false,"is_disabled":false,"rental_uris":{"android":"levelo://app?vid=7aa53a15-3bf6-4f3b-9477-54be1837aa45","ios":"levelo://app?vid=7aa53a15-3bf6-4f3b-9477-54be1837aa45"},"vehicle_type_id":"4","last_reported":1740478212,"current_range_meters":24000,"station_id":"ce4bhgh2rcd13ifvqfb0","pricing_plan_id":"cebpf4jnsgd1na2vs0mg"},{"bike_id":"2ed15423-a868-4573-bacd-df9288b94cc4","system_id":"levelo_inurba_marseille","lat":43.30606,"lon":5.39352,"is_reserved":false,"is_disabled":true,"rental_uris":{"android":"levelo://app?vid=2ed15423-a868-4573-bacd-df9288b94cc4","ios":"levelo://app?vid=2ed15423-a868-4573-bacd-df9288b94cc4"},"vehicle_type_id":"4","last_reported":1740478212,"current_range_meters":24000,"station_id":"ce4bh0p2rcd13ifvqd80","pricing_plan_id":"cebpf4jnsgd1na2vs0mg"},{"bike_id":"245c9ee4-a552-4737-8cda-71747db953a0","system_id":"levelo_inurba_marseille","lat":43.250157,"lon":5.389186,"is_reserved":false,"is_disabled":false,"rental_uris":{"android":"levelo://app?vid=245c9ee4-a552-4737-8cda-71747db953a0","ios":"levelo://app?vid=245c9ee4-a552-4737-8cda-71747db953a0"},"vehicle_type_id":"4","last_reported":1740478212,"current_range_meters":24000,"station_id":"ce4bhgp2rcd13ifvqfd0","pricing_plan_id":"cebpf4jnsgd1na2vs0mg"},{"bike_id":"749de116-883e-42d7-b4b9-19035ed352fb","system_id":"levelo_inurba_marseille","lat":43.29799,"lon":5.38086,"is_reserved":false,"is_disabled":false,"rental_uris":{"android":"levelo://app?vid=749de116-883e-42d7-b4b9-19035ed352fb","ios":"levelo://app?vid=749de116-883e-42d7-b4b9-19035ed352fb"},"vehicle_type_id":"4","last_reported":1740478212,"current_range_meters":24400,"station_id":"ce4bgip2rcd13ifvqbb0","pricing_plan_id":"cebpf4jnsgd1na2vs0mg"},{"bike_id":"87fbcf2b-0706-4f06-818f-ccab496ba36a","system_id":"levelo_inurba_marseille","lat":43.28939,"lon":5.36399,"is_reserved":false,"is_disabled":false,"rental_uris":{"android":"levelo://app?vid=87fbcf2b-0706-4f06-818f-ccab496ba36a","ios":"levelo://app?vid=87fbcf2b-0706-4f06-818f-ccab496ba36a"},"vehicle_type_id":"4","last_reported":1740478212,"current_range_meters":25200,"station_id":"ce4bhc92rcd13ifvqetg","pricing_plan_id":"cebpf4jnsgd1na2vs0mg"},{"bike_id":"5eff5ae1-4bb0-461f-b0bd-45acef884444","system_id":"levelo_inurba_marseille","lat":43.30673,"lon":5.3687,"is_reserved":false,"is_disabled":false,"rental_uris":{"android":"levelo://app?vid=5eff5ae1-4bb0-461f-b0bd-45acef884444","ios":"levelo://app?vid=5eff5ae1-4bb0-461f-b0bd-45acef884444"},"vehicle_type_id":"4","last_reported":1740478212,"current_range_meters":24000,"station_id":"","pricing_plan_id":"cebpf4jnsgd1na2vs0mg"},{"bike_id":"58ac87e1-4a83-40b0-b2c0-15c6bf94c841","system_id":"levelo_inurba_marseille","lat":43.3095,"lon":5.39039,"is_reserved":false,"is_disabled":false,"rental_uris":{"android":"levelo://app?vid=58ac87e1-4a83-40b0-b2c0-15c6bf94c841","ios":"levelo://app?vid=58ac87e1-4a83-40b0-b2c0-15c6bf94c841"},"vehicle_type_id":"4","last_reported":1740478212,"current_range_meters":24000,"station_id":"ce4bgup2rcd13ifvqco0","pricing_plan_id":"cebpf4jnsgd1na2vs0mg"},{"bike_id":"571116dd-e5fa-492c-adc2-2060826b0201","system_id":"levelo_inurba_marseille","lat":43.29526,"lon":5.39409,"is_reserved":false,"is_disabled":false,"rental_uris":{"android":"levelo://app?vid=571116dd-e5fa-492c-adc2-2060826b0201","ios":"levelo://app?vid=571116dd-e5fa-492c-adc2-2060826b0201"},"vehicle_type_id":"4","last_reported":1740478212,"current_range_meters":24000,"station_id":"ce4bh292rcd13ifvqdf0","pricing_plan_id":"cebpf4jnsgd1na2vs0mg"},{"bike_id":"1dd67715-62db-48f4-960f-1d2502c9955f","system_id":"levelo_inurba_marseille","lat":43.2846,"lon":5.35882,"is_reserved":false,"is_disabled":false,"rental_uris":{"android":"levelo://app?vid=1dd67715-62db-48f4-960f-1d2502c9955f","ios":"levelo://app?vid=1dd67715-62db-48f4-960f-1d2502c9955f"},"vehicle_type_id":"4","last_reported":1740478212,"current_range_meters":24000,"station_id":"ce4bhah2rcd13ifvqei0","pricing_plan_id":"cebpf4jnsgd1na2vs0mg"},{"bike_id":"59389cb0-dcc8-4090-b3e9-1ab95129f2d8","system_id":"levelo_inurba_marseille","lat":43.26692,"lon":5.38277,"is_reserved":false,"is_disabled":false,"rental_uris":{"android":"levelo://app?vid=59389cb0-dcc8-4090-b3e9-1ab95129f2d8","ios":"levelo://app?vid=59389cb0-dcc8-4090-b3e9-1ab95129f2d8"},"vehicle_type_id":"4","last_reported":1740478212,"current_range_meters":24000,"station_id":"ce4bhg92rcd13ifvqf90","pricing_plan_id":"cebpf4jnsgd1na2vs0mg"},{"bike_id":"f5b47a40-5471-4781-a5e3-80f16ed5b3e4","system_id":"levelo_inurba_marseille","lat":43.27805,"lon":5.40682,"is_reserved":false,"is_disabled":false,"rental_uris":{"android":"levelo://app?vid=f5b47a40-5471-4781-a5e3-80f16ed5b3e4","ios":"levelo://app?vid=f5b47a40-5471-4781-a5e3-80f16ed5b3e4"},"vehicle_type_id":"4","last_reported":1740478212,"current_range_meters":24400,"station_id":"","pricing_plan_id":"cebpf4jnsgd1na2vs0mg"},{"bike_id":"4ea509d1-9385-4191-ba4f-426601ab6e3d","system_id":"levelo_inurba_marseille","lat":43.25085,"lon":5.39534,"is_reserved":false,"is_disabled":false,"rental_uris":{"android":"levelo://app?vid=4ea509d1-9385-4191-ba4f-426601ab6e3d","ios":"levelo://app?vid=4ea509d1-9385-4191-ba4f-426601ab6e3d"},"vehicle_type_id":"4","last_reported":1740478212,"current_range_meters":24400,"station_id":"ce4bhm12rcd13ifvqgkg","pricing_plan_id":"cebpf4jnsgd1na2vs0mg"},{"bike_id":"b597206e-3344-4293-895e-fd9a2b396685","system_id":"levelo_inurba_marseille","lat":43.30416,"lon":5.41285,"is_reserved":false,"is_disabled":true,"rental_uris":{"android":"levelo://app?vid=b597206e-3344-4293-895e-fd9a2b396685","ios":"levelo://app?vid=b597206e-3344-4293-895e-fd9a2b396685"},"vehicle_type_id":"4","last_reported":1740478212,"current_range_meters":24800,"station_id":"ce4bhop2rcd13ifvqh8g","pricing_plan_id":"cebpf4jnsgd1na2vs0mg"},{"bike_id":"207e0213-fbcf-4c1c-9ca3-aea4e512cf52","system_id":"levelo_inurba_marseille","lat":43.30534,"lon":5.36711,"is_reserved":false,"is_disabled":false,"rental_uris":{"android":"levelo://app?vid=207e0213-fbcf-4c1c-9ca3-aea4e512cf52","ios":"levelo://app?vid=207e0213-fbcf-4c1c-9ca3-aea4e512cf52"},"vehicle_type_id":"4","last_reported":1740478212,"current_range_meters":24400,"station_id":"ce4bgrp2rcd13ifvqc9g","pricing_plan_id":"cebpf4jnsgd1na2vs0mg"},{"bike_id":"3de9aeda-1f9a-4bbc-8b90-e02a49e56ca9","system_id":"levelo_inurba_marseille","lat":43.23194,"lon":5.35558,"is_reserved":false,"is_disabled":false,"rental_uris":{"android":"levelo://app?vid=3de9aeda-1f9a-4bbc-8b90-e02a49e56ca9","ios":"levelo://app?vid=3de9aeda-1f9a-4bbc-8b90-e02a49e56ca9"},"vehicle_type_id":"4","last_reported":1740478212,"current_range_meters":24400,"station_id":"ce4bhu92rcd13ifvqi70","pricing_plan_id":"cebpf4jnsgd1na2vs0mg"},{"bike_id":"4ae7dddc-893b-4fb1-a57f-81cfb3aff9f4","system_id":"levelo_inurba_marseille","lat":43.32359,"lon":5.38885,"is_reserved":false,"is_disabled":false,"rental_uris":{"android":"levelo://app?vid=4ae7dddc-893b-4fb1-a57f-81cfb3aff9f4","ios":"levelo://app?vid=4ae7dddc-893b-4fb1-a57f-81cfb3aff9f4"},"vehicle_type_id":"4","last_reported":1740478212,"current_range_meters":24400,"station_id":"ce4bhqp2rcd13ifvqhog","pricing_plan_id":"cebpf4jnsgd1na2vs0mg"},{"bike_id":"8ffef99e-8c8a-4195-9b69-267506f876f0","system_id":"levelo_inurba_marseille","lat":43.24071,"lon":5.37754,"is_reserved":false,"is_disabled":false,"rental_uris":{"android":"levelo://app?vid=8ffef99e-8c8a-4195-9b69-267506f876f0","ios":"levelo://app?vid=8ffef99e-8c8a-4195-9b69-267506f876f0"},"vehicle_type_id":"4","last_reported":1740478212,"current_range_meters":24800,"station_id":"ce4bhnp2rcd13ifvqgvg","pricing_plan_id":"cebpf4jnsgd1na2vs0mg"},{"bike_id":"60dff205-c9f5-4d5b-93e4-02e8f8caaa4a","system_id":"levelo_inurba_marseille","lat":43.24175,"lon":5.39736,"is_reserved":false,"is_disabled":false,"rental_uris":{"android":"levelo://app?vid=60dff205-c9f5-4d5b-93e4-02e8f8caaa4a","ios":"levelo://app?vid=60dff205-c9f5-4d5b-93e4-02e8f8caaa4a"},"vehicle_type_id":"4","last_reported":1740478212,"current_range_meters":24800,"station_id":"ce4bhn12rcd13ifvqgpg","pricing_plan_id":"cebpf4jnsgd1na2vs0mg"},{"bike_id":"46b9613d-4c52-48c9-b453-04e1038a3fd7","system_id":"levelo_inurba_marseille","lat":43.29282,"lon":5.4013,"is_reserved":false,"is_disabled":false,"rental_uris":{"android":"levelo://app?vid=46b9613d-4c52-48c9-b453-04e1038a3fd7","ios":"levelo://app?vid=46b9613d-4c52-48c9-b453-04e1038a3fd7"},"vehicle_type_id":"4","last_reported":1740478212,"current_range_meters":24800,"station_id":"ce4bh312rcd13ifvqdk0","pricing_plan_id":"cebpf4jnsgd1na2vs0mg"},{"bike_id":"db410438-95ab-4755-bc8e-254294f1eb03","system_id":"levelo_inurba_marseille","lat":43.30423,"lon":5.388921,"is_reserved":false,"is_disabled":false,"rental_uris":{"android":"levelo://app?vid=db410438-95ab-4755-bc8e-254294f1eb03","ios":"levelo://app?vid=db410438-95ab-4755-bc8e-254294f1eb03"},"vehicle_type_id":"4","last_reported":1740478212,"current_range_meters":24800,"station_id":"ce4bgj92rcd13ifvqbd0","pricing_plan_id":"cebpf4jnsgd1na2vs0mg"},{"bike_id":"9a29dc40-ff17-4b50-96f2-f6714fc11bbe","system_id":"levelo_inurba_marseille","lat":43.30145,"lon":5.38082,"is_reserved":false,"is_disabled":false,"rental_uris":{"android":"levelo://app?vid=9a29dc40-ff17-4b50-96f2-f6714fc11bbe","ios":"levelo://app?vid=9a29dc40-ff17-4b50-96f2-f6714fc11bbe"},"vehicle_type_id":"4","last_reported":1740478212,"current_range_meters":24000,"station_id":"ce4bgjp2rcd13ifvqbh0","pricing_plan_id":"cebpf4jnsgd1na2vs0mg"},{"bike_id":"681d3eb7-8a56-452d-929b-1fb5b43ae417","system_id":"levelo_inurba_marseille","lat":43.32492,"lon":5.36562,"is_reserved":false,"is_disabled":false,"rental_uris":{"android":"levelo://app?vid=681d3eb7-8a56-452d-929b-1fb5b43ae417","ios":"levelo://app?vid=681d3eb7-8a56-452d-929b-1fb5b43ae417"},"vehicle_type_id":"4","last_reported":1740478212,"current_range_meters":24800,"station_id":"ce4bhs12rcd13ifvqhvg","pricing_plan_id":"cebpf4jnsgd1na2vs0mg"},{"bike_id":"cdcac68b-1a06-498c-ad63-eeb255b679b6","system_id":"levelo_inurba_marseille","lat":43.27961,"lon":5.41086,"is_reserved":false,"is_disabled":false,"rental_uris":{"android":"levelo://app?vid=cdcac68b-1a06-498c-ad63-eeb255b679b6","ios":"levelo://app?vid=cdcac68b-1a06-498c-ad63-eeb255b679b6"},"vehicle_type_id":"4","last_reported":1740478212,"current_range_meters":24800,"station_id":"ce4bhnp2rcd13ifvqh0g","pricing_plan_id":"cebpf4jnsgd1na2vs0mg"},{"bike_id":"d293c4a3-172f-45a4-af23-feef431f6f99","system_id":"levelo_inurba_marseille","lat":43.30565,"lon":5.36726,"is_reserved":false,"is_disabled":false,"rental_uris":{"android":"levelo://app?vid=d293c4a3-172f-45a4-af23-feef431f6f99","ios":"levelo://app?vid=d293c4a3-172f-45a4-af23-feef431f6f99"},"vehicle_type_id":"4","last_reported":1740478212,"current_range_meters":24800,"station_id":"ce4bgrp2rcd13ifvqc9g","pricing_plan_id":"cebpf4jnsgd1na2vs0mg"},{"bike_id":"67c9571d-3a50-4acb-a05e-858a93c197dc","system_id":"levelo_inurba_marseille","lat":43.30434,"lon":5.3974,"is_reserved":false,"is_disabled":false,"rental_uris":{"android":"levelo://app?vid=67c9571d-3a50-4acb-a05e-858a93c197dc","ios":"levelo://app?vid=67c9571d-3a50-4acb-a05e-858a93c197dc"},"vehicle_type_id":"4","last_reported":1740478212,"current_range_meters":24400,"station_id":"ce4bh092rcd13ifvqd20","pricing_plan_id":"cebpf4jnsgd1na2vs0mg"},{"bike_id":"fcab41f8-490b-4c45-a327-c4b4e17cf681","system_id":"levelo_inurba_marseille","lat":43.25926,"lon":5.40912,"is_reserved":false,"is_disabled":false,"rental_uris":{"android":"levelo://app?vid=fcab41f8-490b-4c45-a327-c4b4e17cf681","ios":"levelo://app?vid=fcab41f8-490b-4c45-a327-c4b4e17cf681"},"vehicle_type_id":"4","last_reported":1740478212,"current_range_meters":24800,"station_id":"ce4bhm92rcd13ifvqglg","pricing_plan_id":"cebpf4jnsgd1na2vs0mg"},{"bike_id":"ad67934a-b0e7-44b8-b5bd-27f7014505bf","system_id":"levelo_inurba_marseille","lat":43.31715,"lon":5.37791,"is_reserved":false,"is_disabled":false,"rental_uris":{"android":"levelo://app?vid=ad67934a-b0e7-44b8-b5bd-27f7014505bf","ios":"levelo://app?vid=ad67934a-b0e7-44b8-b5bd-27f7014505bf"},"vehicle_type_id":"4","last_reported":1740478212,"current_range_meters":24800,"station_id":"ce4bgth2rcd13ifvqch0","pricing_plan_id":"cebpf4jnsgd1na2vs0mg"},{"bike_id":"20f116b0-23be-4896-aac8-d3f645cdeee9","system_id":"levelo_inurba_marseille","lat":43.304823,"lon":5.367255,"is_reserved":false,"is_disabled":false,"rental_uris":{"android":"levelo://app?vid=20f116b0-23be-4896-aac8-d3f645cdeee9","ios":"levelo://app?vid=20f116b0-23be-4896-aac8-d3f645cdeee9"},"vehicle_type_id":"4","last_reported":1740478212,"current_range_meters":24800,"station_id":"ce4bgrp2rcd13ifvqc9g","pricing_plan_id":"cebpf4jnsgd1na2vs0mg"},{"bike_id":"0b3e4ecc-40ba-4aa6-9974-0cd2b6c15021","system_id":"levelo_inurba_marseille","lat":43.29834,"lon":5.3812,"is_reserved":false,"is_disabled":false,"rental_uris":{"android":"levelo://app?vid=0b3e4ecc-40ba-4aa6-9974-0cd2b6c15021","ios":"levelo://app?vid=0b3e4ecc-40ba-4aa6-9974-0cd2b6c15021"},"vehicle_type_id":"4","last_reported":1740478212,"current_range_meters":24800,"station_id":"ce4bgip2rcd13ifvqbb0","pricing_plan_id":"cebpf4jnsgd1na2vs0mg"},{"bike_id":"e2e21eda-9306-49b1-8086-ec051cbc4afc","system_id":"levelo_inurba_marseille","lat":43.31357,"lon":5.3672,"is_reserved":false,"is_disabled":false,"rental_uris":{"android":"levelo://app?vid=e2e21eda-9306-49b1-8086-ec051cbc4afc","ios":"levelo://app?vid=e2e21eda-9306-49b1-8086-ec051cbc4afc"},"vehicle_type_id":"4","last_reported":1740478212,"current_range_meters":25200,"station_id":"ce4bgr92rcd13ifvqc6g","pricing_plan_id":"cebpf4jnsgd1na2vs0mg"},{"bike_id":"2a1f6d18-67b2-4ba4-8539-1dc62d878fed","system_id":"levelo_inurba_marseille","lat":43.24176,"lon":5.39717,"is_reserved":false,"is_disabled":false,"rental_uris":{"android":"levelo://app?vid=2a1f6d18-67b2-4ba4-8539-1dc62d878fed","ios":"levelo://app?vid=2a1f6d18-67b2-4ba4-8539-1dc62d878fed"},"vehicle_type_id":"4","last_reported":1740478212,"current_range_meters":25600,"station_id":"ce4bhn12rcd13ifvqgpg","pricing_plan_id":"cebpf4jnsgd1na2vs0mg"},{"bike_id":"bcd9b51e-eddb-4e4a-8e2d-32e64b242537","system_id":"levelo_inurba_marseille","lat":43.28707,"lon":5.37942,"is_reserved":false,"is_disabled":false,"rental_uris":{"android":"levelo://app?vid=bcd9b51e-eddb-4e4a-8e2d-32e64b242537","ios":"levelo://app?vid=bcd9b51e-eddb-4e4a-8e2d-32e64b242537"},"vehicle_type_id":"4","last_reported":1740478212,"current_range_meters":25600,"station_id":"ce4bh9p2rcd13ifvqec0","pricing_plan_id":"cebpf4jnsgd1na2vs0mg"},{"bike_id":"a2ab6c14-5a62-4d48-869b-4e658a0ce1ba","system_id":"levelo_inurba_marseille","lat":43.30524,"lon":5.36709,"is_reserved":false,"is_disabled":false,"rental_uris":{"android":"levelo://app?vid=a2ab6c14-5a62-4d48-869b-4e658a0ce1ba","ios":"levelo://app?vid=a2ab6c14-5a62-4d48-869b-4e658a0ce1ba"},"vehicle_type_id":"4","last_reported":1740478212,"current_range_meters":25600,"station_id":"ce4bgrp2rcd13ifvqc9g","pricing_plan_id":"cebpf4jnsgd1na2vs0mg"},{"bike_id":"43d6aa6f-20c7-4a1b-bcb8-31b660876567","system_id":"levelo_inurba_marseille","lat":43.26559,"lon":5.37286,"is_reserved":false,"is_disabled":false,"rental_uris":{"android":"levelo://app?vid=43d6aa6f-20c7-4a1b-bcb8-31b660876567","ios":"levelo://app?vid=43d6aa6f-20c7-4a1b-bcb8-31b660876567"},"vehicle_type_id":"4","last_reported":1740478212,"current_range_meters":26000,"station_id":"ce4bhg12rcd13ifvqf70","pricing_plan_id":"cebpf4jnsgd1na2vs0mg"},{"bike_id":"1bad6b66-d1cc-4b27-a0c6-b005a4654aaf","system_id":"levelo_inurba_marseille","lat":43.30879,"lon":5.37205,"is_reserved":false,"is_disabled":false,"rental_uris":{"android":"levelo://app?vid=1bad6b66-d1cc-4b27-a0c6-b005a4654aaf","ios":"levelo://app?vid=1bad6b66-d1cc-4b27-a0c6-b005a4654aaf"},"vehicle_type_id":"4","last_reported":1740478212,"current_range_meters":25600,"station_id":"ce4bguh2rcd13ifvqckg","pricing_plan_id":"cebpf4jnsgd1na2vs0mg"},{"bike_id":"7dfda186-8a90-4dec-bc04-6a05a75d95e7","system_id":"levelo_inurba_marseille","lat":43.26213,"lon":5.37445,"is_reserved":false,"is_disabled":false,"rental_uris":{"android":"levelo://app?vid=7dfda186-8a90-4dec-bc04-6a05a75d95e7","ios":"levelo://app?vid=7dfda186-8a90-4dec-bc04-6a05a75d95e7"},"vehicle_type_id":"4","last_reported":1740478212,"current_range_meters":25600,"station_id":"ce4bhgp2rcd13ifvqfc0","pricing_plan_id":"cebpf4jnsgd1na2vs0mg"},{"bike_id":"1912a924-ec81-4549-b1a3-d6dbe99ea253","system_id":"levelo_inurba_marseille","lat":43.31363,"lon":5.38494,"is_reserved":false,"is_disabled":false,"rental_uris":{"android":"levelo://app?vid=1912a924-ec81-4549-b1a3-d6dbe99ea253","ios":"levelo://app?vid=1912a924-ec81-4549-b1a3-d6dbe99ea253"},"vehicle_type_id":"4","last_reported":1740478212,"current_range_meters":26000,"station_id":"ce4bgt92rcd13ifvqcf0","pricing_plan_id":"cebpf4jnsgd1na2vs0mg"},{"bike_id":"bb0b524d-a7f2-427e-82e4-1c9e7e0f8da6","system_id":"levelo_inurba_marseille","lat":43.28172,"lon":5.4268,"is_reserved":false,"is_disabled":false,"rental_uris":{"android":"levelo://app?vid=bb0b524d-a7f2-427e-82e4-1c9e7e0f8da6","ios":"levelo://app?vid=bb0b524d-a7f2-427e-82e4-1c9e7e0f8da6"},"vehicle_type_id":"4","last_reported":1740478212,"current_range_meters":25600,"station_id":"ce4bhnh2rcd13ifvqgug","pricing_plan_id":"cebpf4jnsgd1na2vs0mg"},{"bike_id":"fa461695-7135-4481-b7ed-d4f17e193c96","system_id":"levelo_inurba_marseille","lat":43.30428,"lon":5.39738,"is_reserved":false,"is_disabled":false,"rental_uris":{"android":"levelo://app?vid=fa461695-7135-4481-b7ed-d4f17e193c96","ios":"levelo://app?vid=fa461695-7135-4481-b7ed-d4f17e193c96"},"vehicle_type_id":"4","last_reported":1740478212,"current_range_meters":25600,"station_id":"ce4bh092rcd13ifvqd20","pricing_plan_id":"cebpf4jnsgd1na2vs0mg"},{"bike_id":"9f2ed4f1-2485-4d7f-8cd9-aa6e53cb7ed5","system_id":"levelo_inurba_marseille","lat":43.25744,"lon":5.4111,"is_reserved":false,"is_disabled":false,"rental_uris":{"android":"levelo://app?vid=9f2ed4f1-2485-4d7f-8cd9-aa6e53cb7ed5","ios":"levelo://app?vid=9f2ed4f1-2485-4d7f-8cd9-aa6e53cb7ed5"},"vehicle_type_id":"4","last_reported":1740478212,"current_range_meters":25600,"station_id":"ce4bhkp2rcd13ifvqgd0","pricing_plan_id":"cebpf4jnsgd1na2vs0mg"},{"bike_id":"93e3476c-2f46-4b53-9e5a-65158234fec0","system_id":"levelo_inurba_marseille","lat":43.24662,"lon":5.38173,"is_reserved":false,"is_disabled":false,"rental_uris":{"android":"levelo://app?vid=93e3476c-2f46-4b53-9e5a-65158234fec0","ios":"levelo://app?vid=93e3476c-2f46-4b53-9e5a-65158234fec0"},"vehicle_type_id":"4","last_reported":1740478212,"current_range_meters":26800,"station_id":"ce4bhih2rcd13ifvqfr0","pricing_plan_id":"cebpf4jnsgd1na2vs0mg"},{"bike_id":"70bfe7e8-05e0-4fca-80f2-a449d7214147","system_id":"levelo_inurba_marseille","lat":43.26056,"lon":5.39402,"is_reserved":false,"is_disabled":false,"rental_uris":{"android":"levelo://app?vid=70bfe7e8-05e0-4fca-80f2-a449d7214147","ios":"levelo://app?vid=70bfe7e8-05e0-4fca-80f2-a449d7214147"},"vehicle_type_id":"4","last_reported":1740478212,"current_range_meters":25600,"station_id":"ce4bhh92rcd13ifvqfj0","pricing_plan_id":"cebpf4jnsgd1na2vs0mg"},{"bike_id":"8d6bf701-2ba8-4c79-9d02-6317c0e6bbc7","system_id":"levelo_inurba_marseille","lat":43.30196,"lon":5.39771,"is_reserved":false,"is_disabled":false,"rental_uris":{"android":"levelo://app?vid=8d6bf701-2ba8-4c79-9d02-6317c0e6bbc7","ios":"levelo://app?vid=8d6bf701-2ba8-4c79-9d02-6317c0e6bbc7"},"vehicle_type_id":"4","last_reported":1740478212,"current_range_meters":26000,"station_id":"","pricing_plan_id":"cebpf4jnsgd1na2vs0mg"},{"bike_id":"d05e524d-9a25-4ad4-890b-92efc3309e65","system_id":"levelo_inurba_marseille","lat":43.25939,"lon":5.40913,"is_reserved":false,"is_disabled":false,"rental_uris":{"android":"levelo://app?vid=d05e524d-9a25-4ad4-890b-92efc3309e65","ios":"levelo://app?vid=d05e524d-9a25-4ad4-890b-92efc3309e65"},"vehicle_type_id":"4","last_reported":1740478212,"current_range_meters":26000,"station_id":"ce4bhm92rcd13ifvqglg","pricing_plan_id":"cebpf4jnsgd1na2vs0mg"},{"bike_id":"a7698dc8-b803-410d-b560-49098d8ebe43","system_id":"levelo_inurba_marseille","lat":43.29889,"lon":5.43667,"is_reserved":false,"is_disabled":false,"rental_uris":{"android":"levelo://app?vid=a7698dc8-b803-410d-b560-49098d8ebe43","ios":"levelo://app?vid=a7698dc8-b803-410d-b560-49098d8ebe43"},"vehicle_type_id":"4","last_reported":1740478212,"current_range_meters":26000,"station_id":"ce4bhpp2rcd13ifvqhfg","pricing_plan_id":"cebpf4jnsgd1na2vs0mg"},{"bike_id":"2f9effee-546a-4da7-a5e1-f04afc3e0cdf","system_id":"levelo_inurba_marseille","lat":43.30546,"lon":5.36706,"is_reserved":false,"is_disabled":false,"rental_uris":{"android":"levelo://app?vid=2f9effee-546a-4da7-a5e1-f04afc3e0cdf","ios":"levelo://app?vid=2f9effee-546a-4da7-a5e1-f04afc3e0cdf"},"vehicle_type_id":"4","last_reported":1740478212,"current_range_meters":26000,"station_id":"ce4bgrp2rcd13ifvqc9g","pricing_plan_id":"cebpf4jnsgd1na2vs0mg"},{"bike_id":"053426f9-0a2a-4c46-926d-8af0fef5ae1a","system_id":"levelo_inurba_marseille","lat":43.32366,"lon":5.36768,"is_reserved":false,"is_disabled":false,"rental_uris":{"android":"levelo://app?vid=053426f9-0a2a-4c46-926d-8af0fef5ae1a","ios":"levelo://app?vid=053426f9-0a2a-4c46-926d-8af0fef5ae1a"},"vehicle_type_id":"4","last_reported":1740478212,"current_range_meters":26000,"station_id":"ce4bhsh2rcd13ifvqi2g","pricing_plan_id":"cebpf4jnsgd1na2vs0mg"},{"bike_id":"4e45d057-50fe-4a2c-9799-71f3215a5dd2","system_id":"levelo_inurba_marseille","lat":43.275818,"lon":5.38422,"is_reserved":false,"is_disabled":false,"rental_uris":{"android":"levelo://app?vid=4e45d057-50fe-4a2c-9799-71f3215a5dd2","ios":"levelo://app?vid=4e45d057-50fe-4a2c-9799-71f3215a5dd2"},"vehicle_type_id":"4","last_reported":1740478212,"current_range_meters":26000,"station_id":"ce4bhh92rcd13ifvqfi0","pricing_plan_id":"cebpf4jnsgd1na2vs0mg"},{"bike_id":"7ae736a7-c632-4071-9774-ae6febbce3fd","system_id":"levelo_inurba_marseille","lat":43.2721,"lon":5.39183,"is_reserved":false,"is_disabled":false,"rental_uris":{"android":"levelo://app?vid=7ae736a7-c632-4071-9774-ae6febbce3fd","ios":"levelo://app?vid=7ae736a7-c632-4071-9774-ae6febbce3fd"},"vehicle_type_id":"4","last_reported":1740478212,"current_range_meters":26800,"station_id":"ce4bhhp2rcd13ifvqfm0","pricing_plan_id":"cebpf4jnsgd1na2vs0mg"},{"bike_id":"808da489-0eb4-4258-ad44-5dc8e99ac9ad","system_id":"levelo_inurba_marseille","lat":43.29277,"lon":5.36862,"is_reserved":false,"is_disabled":false,"rental_uris":{"android":"levelo://app?vid=808da489-0eb4-4258-ad44-5dc8e99ac9ad","ios":"levelo://app?vid=808da489-0eb4-4258-ad44-5dc8e99ac9ad"},"vehicle_type_id":"4","last_reported":1740478212,"current_range_meters":26000,"station_id":"ce4bhbp2rcd13ifvqesg","pricing_plan_id":"cebpf4jnsgd1na2vs0mg"},{"bike_id":"9054665d-3081-4473-810c-d45752486de3","system_id":"levelo_inurba_marseille","lat":43.28493,"lon":5.39446,"is_reserved":false,"is_disabled":false,"rental_uris":{"android":"levelo://app?vid=9054665d-3081-4473-810c-d45752486de3","ios":"levelo://app?vid=9054665d-3081-4473-810c-d45752486de3"},"vehicle_type_id":"4","last_reported":1740478212,"current_range_meters":26000,"station_id":"","pricing_plan_id":"cebpf4jnsgd1na2vs0mg"},{"bike_id":"b271c7bc-2ab7-461b-a9b2-93874a742356","system_id":"levelo_inurba_marseille","lat":43.3236,"lon":5.36763,"is_reserved":false,"is_disabled":false,"rental_uris":{"android":"levelo://app?vid=b271c7bc-2ab7-461b-a9b2-93874a742356","ios":"levelo://app?vid=b271c7bc-2ab7-461b-a9b2-93874a742356"},"vehicle_type_id":"4","last_reported":1740478212,"current_range_meters":26000,"station_id":"ce4bhsh2rcd13ifvqi2g","pricing_plan_id":"cebpf4jnsgd1na2vs0mg"},{"bike_id":"c7977451-2300-4bdc-905f-c60f063b5aad","system_id":"levelo_inurba_marseille","lat":43.25864,"lon":5.39894,"is_reserved":false,"is_disabled":false,"rental_uris":{"android":"levelo://app?vid=c7977451-2300-4bdc-905f-c60f063b5aad","ios":"levelo://app?vid=c7977451-2300-4bdc-905f-c60f063b5aad"},"vehicle_type_id":"4","last_reported":1740478212,"current_range_meters":26000,"station_id":"ce4bhl92rcd13ifvqghg","pricing_plan_id":"cebpf4jnsgd1na2vs0mg"},{"bike_id":"bce7e1e9-7bb2-490b-957c-afadd703be42","system_id":"levelo_inurba_marseille","lat":43.27056,"lon":5.40268,"is_reserved":false,"is_disabled":false,"rental_uris":{"android":"levelo://app?vid=bce7e1e9-7bb2-490b-957c-afadd703be42","ios":"levelo://app?vid=bce7e1e9-7bb2-490b-957c-afadd703be42"},"vehicle_type_id":"4","last_reported":1740478212,"current_range_meters":26800,"station_id":"ce4bhk92rcd13ifvqgc0","pricing_plan_id":"cebpf4jnsgd1na2vs0mg"},{"bike_id":"85641fcc-3a04-4ffd-a1e8-299fc85804c4","system_id":"levelo_inurba_marseille","lat":43.32105,"lon":5.36809,"is_reserved":false,"is_disabled":false,"rental_uris":{"android":"levelo://app?vid=85641fcc-3a04-4ffd-a1e8-299fc85804c4","ios":"levelo://app?vid=85641fcc-3a04-4ffd-a1e8-299fc85804c4"},"vehicle_type_id":"4","last_reported":1740478212,"current_range_meters":26800,"station_id":"ce4bhrh2rcd13ifvqhug","pricing_plan_id":"cebpf4jnsgd1na2vs0mg"},{"bike_id":"dced32e1-336b-483b-b24c-3e001ab56393","system_id":"levelo_inurba_marseille","lat":43.29022,"lon":5.38643,"is_reserved":false,"is_disabled":false,"rental_uris":{"android":"levelo://app?vid=dced32e1-336b-483b-b24c-3e001ab56393","ios":"levelo://app?vid=dced32e1-336b-483b-b24c-3e001ab56393"},"vehicle_type_id":"4","last_reported":1740478212,"current_range_meters":26800,"station_id":"ce4bh4p2rcd13ifvqe0g","pricing_plan_id":"cebpf4jnsgd1na2vs0mg"},{"bike_id":"00fe2c59-77dd-4607-b4c3-668e8b24bddc","system_id":"levelo_inurba_marseille","lat":43.24069,"lon":5.377537,"is_reserved":false,"is_disabled":false,"rental_uris":{"android":"levelo://app?vid=00fe2c59-77dd-4607-b4c3-668e8b24bddc","ios":"levelo://app?vid=00fe2c59-77dd-4607-b4c3-668e8b24bddc"},"vehicle_type_id":"4","last_reported":1740478212,"current_range_meters":26800,"station_id":"ce4bhnp2rcd13ifvqgvg","pricing_plan_id":"cebpf4jnsgd1na2vs0mg"},{"bike_id":"b9c6876a-e24c-43fa-8a67-095ea82687ee","system_id":"levelo_inurba_marseille","lat":43.2307,"lon":5.35508,"is_reserved":false,"is_disabled":false,"rental_uris":{"android":"levelo://app?vid=b9c6876a-e24c-43fa-8a67-095ea82687ee","ios":"levelo://app?vid=b9c6876a-e24c-43fa-8a67-095ea82687ee"},"vehicle_type_id":"4","last_reported":1740478212,"current_range_meters":26800,"station_id":"cpo3342slgdg3j2ifvpg","pricing_plan_id":"cebpf4jnsgd1na2vs0mg"},{"bike_id":"65e623cd-fcc4-42e1-8726-6f34c2eb528f","system_id":"levelo_inurba_marseille","lat":43.30908,"lon":5.3686,"is_reserved":false,"is_disabled":false,"rental_uris":{"android":"levelo://app?vid=65e623cd-fcc4-42e1-8726-6f34c2eb528f","ios":"levelo://app?vid=65e623cd-fcc4-42e1-8726-6f34c2eb528f"},