{"last_updated":1732630189,"ttl":60,"version":"2.2","data":{"bikes":[{"bike_id":"a7d15b49-e31f-467b-8dd9-28c51dfe5d27","system_id":"levelo_inurba_marseille","lat":43.32534,"lon":5.42152,"is_reserved":false,"is_disabled":false,"rental_uris":{"android":"levelo://app?vid=a7d15b49-e31f-467b-8dd9-28c51dfe5d27","ios":"levelo://app?vid=a7d15b49-e31f-467b-8dd9-28c51dfe5d27"},"vehicle_type_id":"4","last_reported":1732630189,"current_range_meters":6400,"station_id":"","pricing_plan_id":"cebpf4jnsgd1na2vs0mg"},{"bike_id":"d9c28aa4-81a4-4d13-8fc9-100bb4e3d7e2","system_id":"levelo_inurba_marseille","lat":43.27412,"lon":5.38954,"is_reserved":false,"is_disabled":true,"rental_uris":{"android":"levelo://app?vid=d9c28aa4-81a4-4d13-8fc9-100bb4e3d7e2","ios":"levelo://app?vid=d9c28aa4-81a4-4d13-8fc9-100bb4e3d7e2"},"vehicle_type_id":"4","last_reported":1732630189,"current_range_meters":0,"station_id":"","pricing_plan_id":"cebpf4jnsgd1na2vs0mg"},{"bike_id":"5ebafbd3-6d1c-424c-8a78-f7ec0a85e090","system_id":"levelo_inurba_marseille","lat":43.27367,"lon":5.36264,"is_reserved":false,"is_disabled":false,"rental_uris":{"android":"levelo://app?vid=5ebafbd3-6d1c-424c-8a78-f7ec0a85e090","ios":"levelo://app?vid=5ebafbd3-6d1c-424c-8a78-f7ec0a85e090"},"vehicle_type_id":"4","last_reported":1732630189,"current_range_meters":2800,"station_id":"ce4bhbh2rcd13ifvqeo0","pricing_plan_id":"cebpf4jnsgd1na2vs0mg"},{"bike_id":"b856c8b4-412d-4c25-bdd4-e6b29aed04cb","system_id":"levelo_inurba_marseille","lat":43.22934,"lon":5.35385,"is_reserved":false,"is_disabled":false,"rental_uris":{"android":"levelo://app?vid=b856c8b4-412d-4c25-bdd4-e6b29aed04cb","ios":"levelo://app?vid=b856c8b4-412d-4c25-bdd4-e6b29aed04cb"},"vehicle_type_id":"4","last_reported":1732630189,"current_range_meters":38800,"station_id":"cpo3532slgdg3j2ikp40","pricing_plan_id":"cebpf4jnsgd1na2vs0mg"},{"bike_id":"8d12116a-19a5-43cb-9aba-14d41ec7ad98","system_id":"levelo_inurba_marseille","lat":43.31885,"lon":5.40742,"is_reserved":false,"is_disabled":false,"rental_uris":{"android":"levelo://app?vid=8d12116a-19a5-43cb-9aba-14d41ec7ad98","ios":"levelo://app?vid=8d12116a-19a5-43cb-9aba-14d41ec7ad98"},"vehicle_type_id":"4","last_reported":1732630189,"current_range_meters":37600,"station_id":"ce4bhq12rcd13ifvqhig","pricing_plan_id":"cebpf4jnsgd1na2vs0mg"},{"bike_id":"d16a049f-49d5-418c-96de-062a44483b9e","system_id":"levelo_inurba_marseille","lat":43.32541,"lon":5.41436,"is_reserved":false,"is_disabled":false,"rental_uris":{"android":"levelo://app?vid=d16a049f-49d5-418c-96de-062a44483b9e","ios":"levelo://app?vid=d16a049f-49d5-418c-96de-062a44483b9e"},"vehicle_type_id":"4","last_reported":1732630189,"current_range_meters":9600,"station_id":"ce4bhq12rcd13ifvqhhg","pricing_plan_id":"cebpf4jnsgd1na2vs0mg"},{"bike_id":"0ff756af-73d2-4acf-b6ad-6309da932d3f","system_id":"levelo_inurba_marseille","lat":43.31693,"lon":5.40474,"is_reserved":false,"is_disabled":false,"rental_uris":{"android":"levelo://app?vid=0ff756af-73d2-4acf-b6ad-6309da932d3f","ios":"levelo://app?vid=0ff756af-73d2-4acf-b6ad-6309da932d3f"},"vehicle_type_id":"4","last_reported":1732630189,"current_range_meters":38800,"station_id":"ce4bh012rcd13ifvqd00","pricing_plan_id":"cebpf4jnsgd1na2vs0mg"},{"bike_id":"f0347ef3-0bf2-4904-8134-c34ce91c6bae","system_id":"levelo_inurba_marseille","lat":43.3054,"lon":5.36714,"is_reserved":false,"is_disabled":true,"rental_uris":{"android":"levelo://app?vid=f0347ef3-0bf2-4904-8134-c34ce91c6bae","ios":"levelo://app?vid=f0347ef3-0bf2-4904-8134-c34ce91c6bae"},"vehicle_type_id":"4","last_reported":1732630189,"current_range_meters":13600,"station_id":"","pricing_plan_id":"cebpf4jnsgd1na2vs0mg"},{"bike_id":"94a17986-e1d3-4fcd-878e-def3c945e7e8","system_id":"levelo_inurba_marseille","lat":43.29506,"lon":5.39054,"is_reserved":false,"is_disabled":false,"rental_uris":{"android":"levelo://app?vid=94a17986-e1d3-4fcd-878e-def3c945e7e8","ios":"levelo://app?vid=94a17986-e1d3-4fcd-878e-def3c945e7e8"},"vehicle_type_id":"4","last_reported":1732630189,"current_range_meters":35200,"station_id":"ce4bh3p2rcd13ifvqdp0","pricing_plan_id":"cebpf4jnsgd1na2vs0mg"},{"bike_id":"7111b8c2-4574-438c-98d6-138c15c66b32","system_id":"levelo_inurba_marseille","lat":43.31743,"lon":5.39032,"is_reserved":false,"is_disabled":false,"rental_uris":{"android":"levelo://app?vid=7111b8c2-4574-438c-98d6-138c15c66b32","ios":"levelo://app?vid=7111b8c2-4574-438c-98d6-138c15c66b32"},"vehicle_type_id":"4","last_reported":1732630189,"current_range_meters":19600,"station_id":"ce4bhqp2rcd13ifvqhng","pricing_plan_id":"cebpf4jnsgd1na2vs0mg"},{"bike_id":"d5b7fbf6-5806-413b-9e51-84bddeff9271","system_id":"levelo_inurba_marseille","lat":43.265,"lon":5.39557,"is_reserved":false,"is_disabled":true,"rental_uris":{"android":"levelo://app?vid=d5b7fbf6-5806-413b-9e51-84bddeff9271","ios":"levelo://app?vid=d5b7fbf6-5806-413b-9e51-84bddeff9271"},"vehicle_type_id":"4","last_reported":1732630189,"current_range_meters":400,"station_id":"ce4bhi12rcd13ifvqfq0","pricing_plan_id":"cebpf4jnsgd1na2vs0mg"},{"bike_id":"b9863f39-5c31-4a01-ac4a-a74488f0ee16","system_id":"levelo_inurba_marseille","lat":43.27375,"lon":5.3626,"is_reserved":false,"is_disabled":false,"rental_uris":{"android":"levelo://app?vid=b9863f39-5c31-4a01-ac4a-a74488f0ee16","ios":"levelo://app?vid=b9863f39-5c31-4a01-ac4a-a74488f0ee16"},"vehicle_type_id":"4","last_reported":1732630189,"current_range_meters":38800,"station_id":"ce4bhbh2rcd13ifvqeo0","pricing_plan_id":"cebpf4jnsgd1na2vs0mg"},{"bike_id":"37ee09df-8673-47a3-96b4-c2ef618884e5","system_id":"levelo_inurba_marseille","lat":43.337444,"lon":5.374475,"is_reserved":false,"is_disabled":false,"rental_uris":{"android":"levelo://app?vid=37ee09df-8673-47a3-96b4-c2ef618884e5","ios":"levelo://app?vid=37ee09df-8673-47a3-96b4-c2ef618884e5"},"vehicle_type_id":"4","last_reported":1732630189,"current_range_meters":35600,"station_id":"","pricing_plan_id":"cebpf4jnsgd1na2vs0mg"},{"bike_id":"24be7068-a66e-46bc-9f96-e0cdbfd135fc","system_id":"levelo_inurba_marseille","lat":43.2649,"lon":5.39548,"is_reserved":false,"is_disabled":false,"rental_uris":{"android":"levelo://app?vid=24be7068-a66e-46bc-9f96-e0cdbfd135fc","ios":"levelo://app?vid=24be7068-a66e-46bc-9f96-e0cdbfd135fc"},"vehicle_type_id":"4","last_reported":1732630189,"current_range_meters":4000,"station_id":"ce4bhi12rcd13ifvqfq0","pricing_plan_id":"cebpf4jnsgd1na2vs0mg"},{"bike_id":"fa1dfd22-a507-4ec4-a5d0-effbb2f06530","system_id":"levelo_inurba_marseille","lat":43.28931,"lon":5.36644,"is_reserved":false,"is_disabled":false,"rental_uris":{"android":"levelo://app?vid=fa1dfd22-a507-4ec4-a5d0-effbb2f06530","ios":"levelo://app?vid=fa1dfd22-a507-4ec4-a5d0-effbb2f06530"},"vehicle_type_id":"4","last_reported":1732630189,"current_range_meters":28000,"station_id":"ce4bhap2rcd13ifvqek0","pricing_plan_id":"cebpf4jnsgd1na2vs0mg"},{"bike_id":"f04824cb-3df1-426e-9df0-6ea22b35ffb7","system_id":"levelo_inurba_marseille","lat":43.23182,"lon":5.39989,"is_reserved":false,"is_disabled":false,"rental_uris":{"android":"levelo://app?vid=f04824cb-3df1-426e-9df0-6ea22b35ffb7","ios":"levelo://app?vid=f04824cb-3df1-426e-9df0-6ea22b35ffb7"},"vehicle_type_id":"4","last_reported":1732630189,"current_range_meters":38800,"station_id":"ce4bhn12rcd13ifvqgqg","pricing_plan_id":"cebpf4jnsgd1na2vs0mg"},{"bike_id":"117a2e50-51a9-48b6-ab8e-6d947c0452b8","system_id":"levelo_inurba_marseille","lat":43.27071,"lon":5.42278,"is_reserved":false,"is_disabled":false,"rental_uris":{"android":"levelo://app?vid=117a2e50-51a9-48b6-ab8e-6d947c0452b8","ios":"levelo://app?vid=117a2e50-51a9-48b6-ab8e-6d947c0452b8"},"vehicle_type_id":"4","last_reported":1732630189,"current_range_meters":38800,"station_id":"ce4bhk92rcd13ifvqgb0","pricing_plan_id":"cebpf4jnsgd1na2vs0mg"},{"bike_id":"b9065377-fe25-4107-a7b1-55fea0a7a447","system_id":"levelo_inurba_marseille","lat":43.25121,"lon":5.40321,"is_reserved":false,"is_disabled":true,"rental_uris":{"android":"levelo://app?vid=b9065377-fe25-4107-a7b1-55fea0a7a447","ios":"levelo://app?vid=b9065377-fe25-4107-a7b1-55fea0a7a447"},"vehicle_type_id":"4","last_reported":1732630189,"current_range_meters":1600,"station_id":"ce4bhlh2rcd13ifvqgig","pricing_plan_id":"cebpf4jnsgd1na2vs0mg"},{"bike_id":"77a0f258-6e09-4cad-ad5a-23a54f93936c","system_id":"levelo_inurba_marseille","lat":43.2695,"lon":5.3864,"is_reserved":false,"is_disabled":false,"rental_uris":{"android":"levelo://app?vid=77a0f258-6e09-4cad-ad5a-23a54f93936c","ios":"levelo://app?vid=77a0f258-6e09-4cad-ad5a-23a54f93936c"},"vehicle_type_id":"4","last_reported":1732630189,"current_range_meters":36800,"station_id":"ce4bhh92rcd13ifvqfh0","pricing_plan_id":"cebpf4jnsgd1na2vs0mg"},{"bike_id":"4c7a58df-9482-4e48-913a-bee78becd678","system_id":"levelo_inurba_marseille","lat":43.24387,"lon":5.37058,"is_reserved":false,"is_disabled":false,"rental_uris":{"android":"levelo://app?vid=4c7a58df-9482-4e48-913a-bee78becd678","ios":"levelo://app?vid=4c7a58df-9482-4e48-913a-bee78becd678"},"vehicle_type_id":"4","last_reported":1732630189,"current_range_meters":32800,"station_id":"ce4bhhh2rcd13ifvqfk0","pricing_plan_id":"cebpf4jnsgd1na2vs0mg"},{"bike_id":"f98cf346-2f95-41c1-a190-288b7ed6e557","system_id":"levelo_inurba_marseille","lat":43.24076,"lon":5.37758,"is_reserved":false,"is_disabled":true,"rental_uris":{"android":"levelo://app?vid=f98cf346-2f95-41c1-a190-288b7ed6e557","ios":"levelo://app?vid=f98cf346-2f95-41c1-a190-288b7ed6e557"},"vehicle_type_id":"4","last_reported":1732630189,"current_range_meters":0,"station_id":"ce4bhnp2rcd13ifvqgvg","pricing_plan_id":"cebpf4jnsgd1na2vs0mg"},{"bike_id":"494a7f9f-d683-431b-8ab2-182876a66db2","system_id":"levelo_inurba_marseille","lat":43.30523,"lon":5.36744,"is_reserved":false,"is_disabled":false,"rental_uris":{"android":"levelo://app?vid=494a7f9f-d683-431b-8ab2-182876a66db2","ios":"levelo://app?vid=494a7f9f-d683-431b-8ab2-182876a66db2"},"vehicle_type_id":"4","last_reported":1732630189,"current_range_meters":18000,"station_id":"ce4bgrp2rcd13ifvqc9g","pricing_plan_id":"cebpf4jnsgd1na2vs0mg"},{"bike_id":"2324b819-2b4b-412b-8f68-da5f84690fd1","system_id":"levelo_inurba_marseille","lat":43.28409,"lon":5.34991,"is_reserved":false,"is_disabled":false,"rental_uris":{"android":"levelo://app?vid=2324b819-2b4b-412b-8f68-da5f84690fd1","ios":"levelo://app?vid=2324b819-2b4b-412b-8f68-da5f84690fd1"},"vehicle_type_id":"4","last_reported":1732630189,"current_range_meters":37600,"station_id":"ce4bhbh2rcd13ifvqepg","pricing_plan_id":"cebpf4jnsgd1na2vs0mg"},{"bike_id":"3279e295-4195-4fde-a598-236588209e17","system_id":"levelo_inurba_marseille","lat":43.29553,"lon":5.42292,"is_reserved":false,"is_disabled":false,"rental_uris":{"android":"levelo://app?vid=3279e295-4195-4fde-a598-236588209e17","ios":"levelo://app?vid=3279e295-4195-4fde-a598-236588209e17"},"vehicle_type_id":"4","last_reported":1732630189,"current_range_meters":38800,"station_id":"ce4bhph2rcd13ifvqhdg","pricing_plan_id":"cebpf4jnsgd1na2vs0mg"},{"bike_id":"b5799452-bb91-4124-aca9-a9179d9bad23","system_id":"levelo_inurba_marseille","lat":43.32038,"lon":5.41559,"is_reserved":false,"is_disabled":false,"rental_uris":{"android":"levelo://app?vid=b5799452-bb91-4124-aca9-a9179d9bad23","ios":"levelo://app?vid=b5799452-bb91-4124-aca9-a9179d9bad23"},"vehicle_type_id":"4","last_reported":1732630189,"current_range_meters":38800,"station_id":"ce4bhq92rcd13ifvqhkg","pricing_plan_id":"cebpf4jnsgd1na2vs0mg"},{"bike_id":"00a6e2f3-c4d5-4f3c-aab7-38298cc96778","system_id":"levelo_inurba_marseille","lat":43.29035,"lon":5.37571,"is_reserved":false,"is_disabled":false,"rental_uris":{"android":"levelo://app?vid=00a6e2f3-c4d5-4f3c-aab7-38298cc96778","ios":"levelo://app?vid=00a6e2f3-c4d5-4f3c-aab7-38298cc96778"},"vehicle_type_id":"4","last_reported":1732630189,"current_range_meters":29600,"station_id":"ce4bh692rcd13ifvqe90","pricing_plan_id":"cebpf4jnsgd1na2vs0mg"},{"bike_id":"181fc5c9-44a2-424f-9c8d-2b78092a1ce1","system_id":"levelo_inurba_marseille","lat":43.27067,"lon":5.42281,"is_reserved":false,"is_disabled":false,"rental_uris":{"android":"levelo://app?vid=181fc5c9-44a2-424f-9c8d-2b78092a1ce1","ios":"levelo://app?vid=181fc5c9-44a2-424f-9c8d-2b78092a1ce1"},"vehicle_type_id":"4","last_reported":1732630189,"current_range_meters":10000,"station_id":"ce4bhk92rcd13ifvqgb0","pricing_plan_id":"cebpf4jnsgd1na2vs0mg"},{"bike_id":"09b89554-b737-4b6e-a9e8-cc238dd55c23","system_id":"levelo_inurba_marseille","lat":43.29017,"lon":5.38147,"is_reserved":false,"is_disabled":true,"rental_uris":{"android":"levelo://app?vid=09b89554-b737-4b6e-a9e8-cc238dd55c23","ios":"levelo://app?vid=09b89554-b737-4b6e-a9e8-cc238dd55c23"},"vehicle_type_id":"4","last_reported":1732630189,"current_range_meters":38800,"station_id":"ce4bh4p2rcd13ifvqe1g","pricing_plan_id":"cebpf4jnsgd1na2vs0mg"},{"bike_id":"2c6e9091-86e1-4faa-9941-65527cff6d59","system_id":"levelo_inurba_marseille","lat":43.29037,"lon":5.37573,"is_reserved":false,"is_disabled":false,"rental_uris":{"android":"levelo://app?vid=2c6e9091-86e1-4faa-9941-65527cff6d59","ios":"levelo://app?vid=2c6e9091-86e1-4faa-9941-65527cff6d59"},"vehicle_type_id":"4","last_reported":1732630189,"current_range_meters":28800,"station_id":"ce4bh692rcd13ifvqe90","pricing_plan_id":"cebpf4jnsgd1na2vs0mg"},{"bike_id":"188712ad-b78f-41b0-9341-ff62a7a9c9e5","system_id":"levelo_inurba_marseille","lat":43.28709,"lon":5.37942,"is_reserved":false,"is_disabled":false,"rental_uris":{"android":"levelo://app?vid=188712ad-b78f-41b0-9341-ff62a7a9c9e5","ios":"levelo://app?vid=188712ad-b78f-41b0-9341-ff62a7a9c9e5"},"vehicle_type_id":"4","last_reported":1732630189,"current_range_meters":31200,"station_id":"ce4bh9p2rcd13ifvqec0","pricing_plan_id":"cebpf4jnsgd1na2vs0mg"},{"bike_id":"51c97f98-9b3c-4a85-a60b-c546aa838afb","system_id":"levelo_inurba_marseille","lat":43.28935,"lon":5.36643,"is_reserved":false,"is_disabled":false,"rental_uris":{"android":"levelo://app?vid=51c97f98-9b3c-4a85-a60b-c546aa838afb","ios":"levelo://app?vid=51c97f98-9b3c-4a85-a60b-c546aa838afb"},"vehicle_type_id":"4","last_reported":1732630189,"current_range_meters":12800,"station_id":"ce4bhap2rcd13ifvqek0","pricing_plan_id":"cebpf4jnsgd1na2vs0mg"},{"bike_id":"39a1d912-465d-42da-b46b-d5e2d8f188c7","system_id":"levelo_inurba_marseille","lat":43.24058,"lon":5.37777,"is_reserved":false,"is_disabled":false,"rental_uris":{"android":"levelo://app?vid=39a1d912-465d-42da-b46b-d5e2d8f188c7","ios":"levelo://app?vid=39a1d912-465d-42da-b46b-d5e2d8f188c7"},"vehicle_type_id":"4","last_reported":1732630189,"current_range_meters":29600,"station_id":"ce4bhnp2rcd13ifvqgvg","pricing_plan_id":"cebpf4jnsgd1na2vs0mg"},{"bike_id":"d7b4e41b-5ea8-4d2c-9fe2-df65bc6478d3","system_id":"levelo_inurba_marseille","lat":43.24809,"lon":5.37461,"is_reserved":false,"is_disabled":false,"rental_uris":{"android":"levelo://app?vid=d7b4e41b-5ea8-4d2c-9fe2-df65bc6478d3","ios":"levelo://app?vid=d7b4e41b-5ea8-4d2c-9fe2-df65bc6478d3"},"vehicle_type_id":"4","last_reported":1732630189,"current_range_meters":20800,"station_id":"ce4bhgh2rcd13ifvqfb0","pricing_plan_id":"cebpf4jnsgd1na2vs0mg"},{"bike_id":"e43b9a92-dc84-463a-a47e-9d036eae073e","system_id":"levelo_inurba_marseille","lat":43.30905,"lon":5.36848,"is_reserved":false,"is_disabled":false,"rental_uris":{"android":"levelo://app?vid=e43b9a92-dc84-463a-a47e-9d036eae073e","ios":"levelo://app?vid=e43b9a92-dc84-463a-a47e-9d036eae073e"},"vehicle_type_id":"4","last_reported":1732630189,"current_range_meters":19200,"station_id":"ce4bgn92rcd13ifvqbvg","pricing_plan_id":"cebpf4jnsgd1na2vs0mg"},{"bike_id":"d6646c8d-84f8-4373-bf6b-09d335a9fdf0","system_id":"levelo_inurba_marseille","lat":43.28417,"lon":5.34995,"is_reserved":false,"is_disabled":false,"rental_uris":{"android":"levelo://app?vid=d6646c8d-84f8-4373-bf6b-09d335a9fdf0","ios":"levelo://app?vid=d6646c8d-84f8-4373-bf6b-09d335a9fdf0"},"vehicle_type_id":"4","last_reported":1732630189,"current_range_meters":28800,"station_id":"ce4bhbh2rcd13ifvqepg","pricing_plan_id":"cebpf4jnsgd1na2vs0mg"},{"bike_id":"caf4734a-4cec-4f34-a39a-93be4dc22192","system_id":"levelo_inurba_marseille","lat":43.29205,"lon":5.37906,"is_reserved":false,"is_disabled":false,"rental_uris":{"android":"levelo://app?vid=caf4734a-4cec-4f34-a39a-93be4dc22192","ios":"levelo://app?vid=caf4734a-4cec-4f34-a39a-93be4dc22192"},"vehicle_type_id":"4","last_reported":1732630189,"current_range_meters":6400,"station_id":"","pricing_plan_id":"cebpf4jnsgd1na2vs0mg"},{"bike_id":"0a2d70bc-b761-4725-9e3d-6717bfcaa6cc","system_id":"levelo_inurba_marseille","lat":43.337444,"lon":5.374475,"is_reserved":false,"is_disabled":false,"rental_uris":{"android":"levelo://app?vid=0a2d70bc-b761-4725-9e3d-6717bfcaa6cc","ios":"levelo://app?vid=0a2d70bc-b761-4725-9e3d-6717bfcaa6cc"},"vehicle_type_id":"4","last_reported":1732630189,"current_range_meters":38000,"station_id":"","pricing_plan_id":"cebpf4jnsgd1na2vs0mg"},{"bike_id":"34fd0331-430c-4270-921f-5e6643124213","system_id":"levelo_inurba_marseille","lat":43.30299,"lon":5.36867,"is_reserved":false,"is_disabled":false,"rental_uris":{"android":"levelo://app?vid=34fd0331-430c-4270-921f-5e6643124213","ios":"levelo://app?vid=34fd0331-430c-4270-921f-5e6643124213"},"vehicle_type_id":"4","last_reported":1732630189,"current_range_meters":18800,"station_id":"ce4bgqh2rcd13ifvqc5g","pricing_plan_id":"cebpf4jnsgd1na2vs0mg"},{"bike_id":"c29462b2-6f03-4354-a0a3-f395b21c5128","system_id":"levelo_inurba_marseille","lat":43.27488,"lon":5.42465,"is_reserved":false,"is_disabled":true,"rental_uris":{"android":"levelo://app?vid=c29462b2-6f03-4354-a0a3-f395b21c5128","ios":"levelo://app?vid=c29462b2-6f03-4354-a0a3-f395b21c5128"},"vehicle_type_id":"4","last_reported":1732630189,"current_range_meters":0,"station_id":"ce4bhn92rcd13ifvqgrg","pricing_plan_id":"cebpf4jnsgd1na2vs0mg"},{"bike_id":"820f12a0-cf28-488c-8a74-3f1b9d2e4db5","system_id":"levelo_inurba_marseille","lat":43.23056,"lon":5.35491,"is_reserved":false,"is_disabled":false,"rental_uris":{"android":"levelo://app?vid=820f12a0-cf28-488c-8a74-3f1b9d2e4db5","ios":"levelo://app?vid=820f12a0-cf28-488c-8a74-3f1b9d2e4db5"},"vehicle_type_id":"4","last_reported":1732630189,"current_range_meters":24400,"station_id":"cpo3342slgdg3j2ifvpg","pricing_plan_id":"cebpf4jnsgd1na2vs0mg"},{"bike_id":"c3135127-279d-4533-b44c-e209455f2961","system_id":"levelo_inurba_marseille","lat":43.23144,"lon":5.43728,"is_reserved":false,"is_disabled":false,"rental_uris":{"android":"levelo://app?vid=c3135127-279d-4533-b44c-e209455f2961","ios":"levelo://app?vid=c3135127-279d-4533-b44c-e209455f2961"},"vehicle_type_id":"4","last_reported":1732630189,"current_range_meters":38800,"station_id":"ce4bhmp2rcd13ifvqgog","pricing_plan_id":"cebpf4jnsgd1na2vs0mg"},{"bike_id":"e1d63dd7-af57-40db-b964-6575f0f33485","system_id":"levelo_inurba_marseille","lat":43.28564,"lon":5.39496,"is_reserved":false,"is_disabled":false,"rental_uris":{"android":"levelo://app?vid=e1d63dd7-af57-40db-b964-6575f0f33485","ios":"levelo://app?vid=e1d63dd7-af57-40db-b964-6575f0f33485"},"vehicle_type_id":"4","last_reported":1732630189,"current_range_meters":18800,"station_id":"ce4bh292rcd13ifvqdg0","pricing_plan_id":"cebpf4jnsgd1na2vs0mg"},{"bike_id":"39196ea7-2380-456b-8822-1afa5bd6fe0d","system_id":"levelo_inurba_marseille","lat":43.29802,"lon":5.38091,"is_reserved":false,"is_disabled":false,"rental_uris":{"android":"levelo://app?vid=39196ea7-2380-456b-8822-1afa5bd6fe0d","ios":"levelo://app?vid=39196ea7-2380-456b-8822-1afa5bd6fe0d"},"vehicle_type_id":"4","last_reported":1732630189,"current_range_meters":14400,"station_id":"ce4bgip2rcd13ifvqbb0","pricing_plan_id":"cebpf4jnsgd1na2vs0mg"},{"bike_id":"70a6606d-78a1-4a23-aeed-c3fd565b934f","system_id":"levelo_inurba_marseille","lat":43.27207,"lon":5.3919,"is_reserved":false,"is_disabled":false,"rental_uris":{"android":"levelo://app?vid=70a6606d-78a1-4a23-aeed-c3fd565b934f","ios":"levelo://app?vid=70a6606d-78a1-4a23-aeed-c3fd565b934f"},"vehicle_type_id":"4","last_reported":1732630189,"current_range_meters":14400,"station_id":"ce4bhhp2rcd13ifvqfm0","pricing_plan_id":"cebpf4jnsgd1na2vs0mg"},{"bike_id":"67b6a3fa-1eec-4286-b804-6481a690c11d","system_id":"levelo_inurba_marseille","lat":43.30875,"lon":5.39652,"is_reserved":false,"is_disabled":false,"rental_uris":{"android":"levelo://app?vid=67b6a3fa-1eec-4286-b804-6481a690c11d","ios":"levelo://app?vid=67b6a3fa-1eec-4286-b804-6481a690c11d"},"vehicle_type_id":"4","last_reported":1732630189,"current_range_meters":38000,"station_id":"ce4bh012rcd13ifvqcv0","pricing_plan_id":"cebpf4jnsgd1na2vs0mg"},{"bike_id":"c11048c6-4577-40b7-ad60-fc68d25365c1","system_id":"levelo_inurba_marseille","lat":43.2959,"lon":5.38124,"is_reserved":false,"is_disabled":false,"rental_uris":{"android":"levelo://app?vid=c11048c6-4577-40b7-ad60-fc68d25365c1","ios":"levelo://app?vid=c11048c6-4577-40b7-ad60-fc68d25365c1"},"vehicle_type_id":"4","last_reported":1732630189,"current_range_meters":33600,"station_id":"ce4bgl12rcd13ifvqbo0","pricing_plan_id":"cebpf4jnsgd1na2vs0mg"},{"bike_id":"c648a719-dd80-4ff4-a4ba-081b8480e93a","system_id":"levelo_inurba_marseille","lat":43.29034,"lon":5.39982,"is_reserved":false,"is_disabled":false,"rental_uris":{"android":"levelo://app?vid=c648a719-dd80-4ff4-a4ba-081b8480e93a","ios":"levelo://app?vid=c648a719-dd80-4ff4-a4ba-081b8480e93a"},"vehicle_type_id":"4","last_reported":1732630189,"current_range_meters":26000,"station_id":"ce4bh392rcd13ifvqdm0","pricing_plan_id":"cebpf4jnsgd1na2vs0mg"},{"bike_id":"079eb4ba-8363-4f41-a51c-22054dd8357d","system_id":"levelo_inurba_marseille","lat":43.29792,"lon":5.39334,"is_reserved":false,"is_disabled":false,"rental_uris":{"android":"levelo://app?vid=079eb4ba-8363-4f41-a51c-22054dd8357d","ios":"levelo://app?vid=079eb4ba-8363-4f41-a51c-22054dd8357d"},"vehicle_type_id":"4","last_reported":1732630189,"current_range_meters":2000,"station_id":"chh1huq6cuj3fo74tm60","pricing_plan_id":"cebpf4jnsgd1na2vs0mg"},{"bike_id":"429f510f-84ea-47ec-b3ad-fc4a37d06b0b","system_id":"levelo_inurba_marseille","lat":43.30276,"lon":5.37717,"is_reserved":false,"is_disabled":false,"rental_uris":{"android":"levelo://app?vid=429f510f-84ea-47ec-b3ad-fc4a37d06b0b","ios":"levelo://app?vid=429f510f-84ea-47ec-b3ad-fc4a37d06b0b"},"vehicle_type_id":"4","last_reported":1732630189,"current_range_meters":37600,"station_id":"ce4bguh2rcd13ifvqcj0","pricing_plan_id":"cebpf4jnsgd1na2vs0mg"},{"bike_id":"62965e1e-ade4-47c8-a5ff-f8c8cd07ca98","system_id":"levelo_inurba_marseille","lat":43.27619,"lon":5.36109,"is_reserved":false,"is_disabled":false,"rental_uris":{"android":"levelo://app?vid=62965e1e-ade4-47c8-a5ff-f8c8cd07ca98","ios":"levelo://app?vid=62965e1e-ade4-47c8-a5ff-f8c8cd07ca98"},"vehicle_type_id":"4","last_reported":1732630189,"current_range_meters":38800,"station_id":"ce4bgj92rcd13ifvqbe0","pricing_plan_id":"cebpf4jnsgd1na2vs0mg"},{"bike_id":"e10c9b74-5f62-4bc8-8892-52b1495e5594","system_id":"levelo_inurba_marseille","lat":43.29256,"lon":5.38434,"is_reserved":false,"is_disabled":false,"rental_uris":{"android":"levelo://app?vid=e10c9b74-5f62-4bc8-8892-52b1495e5594","ios":"levelo://app?vid=e10c9b74-5f62-4bc8-8892-52b1495e5594"},"vehicle_type_id":"4","last_reported":1732630189,"current_range_meters":38800,"station_id":"ce4bh692rcd13ifvqea0","pricing_plan_id":"cebpf4jnsgd1na2vs0mg"},{"bike_id":"8e44f1c5-4308-4bad-b4bf-069fd331259c","system_id":"levelo_inurba_marseille","lat":43.2957,"lon":5.39975,"is_reserved":false,"is_disabled":true,"rental_uris":{"android":"levelo://app?vid=8e44f1c5-4308-4bad-b4bf-069fd331259c","ios":"levelo://app?vid=8e44f1c5-4308-4bad-b4bf-069fd331259c"},"vehicle_type_id":"4","last_reported":1732630189,"current_range_meters":0,"station_id":"ce4bh312rcd13ifvqdj0","pricing_plan_id":"cebpf4jnsgd1na2vs0mg"},{"bike_id":"68bccc28-ccf7-44a3-be9d-2819e9c31e00","system_id":"levelo_inurba_marseille","lat":43.32346,"lon":5.40629,"is_reserved":false,"is_disabled":false,"rental_uris":{"android":"levelo://app?vid=68bccc28-ccf7-44a3-be9d-2819e9c31e00","ios":"levelo://app?vid=68bccc28-ccf7-44a3-be9d-2819e9c31e00"},"vehicle_type_id":"4","last_reported":1732630189,"current_range_meters":8000,"station_id":"ce4bhq92rcd13ifvqhjg","pricing_plan_id":"cebpf4jnsgd1na2vs0mg"},{"bike_id":"c9809c29-411c-4efe-9b15-37310794ea35","system_id":"levelo_inurba_marseille","lat":43.29929,"lon":5.36563,"is_reserved":false,"is_disabled":false,"rental_uris":{"android":"levelo://app?vid=c9809c29-411c-4efe-9b15-37310794ea35","ios":"levelo://app?vid=c9809c29-411c-4efe-9b15-37310794ea35"},"vehicle_type_id":"4","last_reported":1732630189,"current_range_meters":38400,"station_id":"ce4bgm92rcd13ifvqbr0","pricing_plan_id":"cebpf4jnsgd1na2vs0mg"},{"bike_id":"ec2c977a-ebf7-49a7-8260-e79df0d73670","system_id":"levelo_inurba_marseille","lat":43.25002,"lon":5.38929,"is_reserved":false,"is_disabled":false,"rental_uris":{"android":"levelo://app?vid=ec2c977a-ebf7-49a7-8260-e79df0d73670","ios":"levelo://app?vid=ec2c977a-ebf7-49a7-8260-e79df0d73670"},"vehicle_type_id":"4","last_reported":1732630189,"current_range_meters":37600,"station_id":"ce4bhgp2rcd13ifvqfd0","pricing_plan_id":"cebpf4jnsgd1na2vs0mg"},{"bike_id":"6468010a-b4cd-4bf6-a701-276a2a9cd6a0","system_id":"levelo_inurba_marseille","lat":43.2649,"lon":5.3955,"is_reserved":false,"is_disabled":false,"rental_uris":{"android":"levelo://app?vid=6468010a-b4cd-4bf6-a701-276a2a9cd6a0","ios":"levelo://app?vid=6468010a-b4cd-4bf6-a701-276a2a9cd6a0"},"vehicle_type_id":"4","last_reported":1732630189,"current_range_meters":28000,"station_id":"ce4bhi12rcd13ifvqfq0","pricing_plan_id":"cebpf4jnsgd1na2vs0mg"},{"bike_id":"7a528987-9c62-4282-ae57-31b94412b3b2","system_id":"levelo_inurba_marseille","lat":43.25005,"lon":5.38929,"is_reserved":false,"is_disabled":false,"rental_uris":{"android":"levelo://app?vid=7a528987-9c62-4282-ae57-31b94412b3b2","ios":"levelo://app?vid=7a528987-9c62-4282-ae57-31b94412b3b2"},"vehicle_type_id":"4","last_reported":1732630189,"current_range_meters":19200,"station_id":"ce4bhgp2rcd13ifvqfd0","pricing_plan_id":"cebpf4jnsgd1na2vs0mg"},{"bike_id":"54a9e65d-8d95-4dda-aaed-468f1350158a","system_id":"levelo_inurba_marseille","lat":43.2929,"lon":5.37174,"is_reserved":false,"is_disabled":false,"rental_uris":{"android":"levelo://app?vid=54a9e65d-8d95-4dda-aaed-468f1350158a","ios":"levelo://app?vid=54a9e65d-8d95-4dda-aaed-468f1350158a"},"vehicle_type_id":"4","last_reported":1732630189,"current_range_meters":39200,"station_id":"ce4bgh92rcd13ifvqb40","pricing_plan_id":"cebpf4jnsgd1na2vs0mg"},{"bike_id":"cf7c9153-0dc8-430f-83bc-b3f293869575","system_id":"levelo_inurba_marseille","lat":43.33726,"lon":5.39185,"is_reserved":false,"is_disabled":false,"rental_uris":{"android":"levelo://app?vid=cf7c9153-0dc8-430f-83bc-b3f293869575","ios":"levelo://app?vid=cf7c9153-0dc8-430f-83bc-b3f293869575"},"vehicle_type_id":"4","last_reported":1732630189,"current_range_meters":9600,"station_id":"ce4bhr92rcd13ifvqhsg","pricing_plan_id":"cebpf4jnsgd1na2vs0mg"},{"bike_id":"aff4ad67-9274-4b8a-af3e-194575058088","system_id":"levelo_inurba_marseille","lat":43.30879,"lon":5.39654,"is_reserved":false,"is_disabled":false,"rental_uris":{"android":"levelo://app?vid=aff4ad67-9274-4b8a-af3e-194575058088","ios":"levelo://app?vid=aff4ad67-9274-4b8a-af3e-194575058088"},"vehicle_type_id":"4","last_reported":1732630189,"current_range_meters":30400,"station_id":"ce4bh012rcd13ifvqcv0","pricing_plan_id":"cebpf4jnsgd1na2vs0mg"},{"bike_id":"2d2ab43c-3c03-42ed-b7b6-3033a6a6f2a9","system_id":"levelo_inurba_marseille","lat":43.27953,"lon":5.41052,"is_reserved":false,"is_disabled":false,"rental_uris":{"android":"levelo://app?vid=2d2ab43c-3c03-42ed-b7b6-3033a6a6f2a9","ios":"levelo://app?vid=2d2ab43c-3c03-42ed-b7b6-3033a6a6f2a9"},"vehicle_type_id":"4","last_reported":1732630189,"current_range_meters":28400,"station_id":"ce4bhnp2rcd13ifvqh0g","pricing_plan_id":"cebpf4jnsgd1na2vs0mg"},{"bike_id":"4d809776-4d2b-4bf5-8aa6-666b5b1fd18f","system_id":"levelo_inurba_marseille","lat":43.33716,"lon":5.39192,"is_reserved":false,"is_disabled":false,"rental_uris":{"android":"levelo://app?vid=4d809776-4d2b-4bf5-8aa6-666b5b1fd18f","ios":"levelo://app?vid=4d809776-4d2b-4bf5-8aa6-666b5b1fd18f"},"vehicle_type_id":"4","last_reported":1732630189,"current_range_meters":38800,"station_id":"ce4bhr92rcd13ifvqhsg","pricing_plan_id":"cebpf4jnsgd1na2vs0mg"},{"bike_id":"b9943f68-9fb0-4588-8d1f-fcc17b23e4d8","system_id":"levelo_inurba_marseille","lat":43.28718,"lon":5.37939,"is_reserved":false,"is_disabled":false,"rental_uris":{"android":"levelo://app?vid=b9943f68-9fb0-4588-8d1f-fcc17b23e4d8","ios":"levelo://app?vid=b9943f68-9fb0-4588-8d1f-fcc17b23e4d8"},"vehicle_type_id":"4","last_reported":1732630189,"current_range_meters":18000,"station_id":"ce4bh9p2rcd13ifvqec0","pricing_plan_id":"cebpf4jnsgd1na2vs0mg"},{"bike_id":"910c2a08-7b62-457e-b71c-06a49aff17a3","system_id":"levelo_inurba_marseille","lat":43.2991,"lon":5.3853,"is_reserved":false,"is_disabled":false,"rental_uris":{"android":"levelo://app?vid=910c2a08-7b62-457e-b71c-06a49aff17a3","ios":"levelo://app?vid=910c2a08-7b62-457e-b71c-06a49aff17a3"},"vehicle_type_id":"4","last_reported":1732630189,"current_range_meters":38000,"station_id":"ce4bgj92rcd13ifvqbd0","pricing_plan_id":"cebpf4jnsgd1na2vs0mg"},{"bike_id":"5817161f-5d63-41b2-92c0-c94f8059d60c","system_id":"levelo_inurba_marseille","lat":43.337444,"lon":5.374475,"is_reserved":false,"is_disabled":false,"rental_uris":{"android":"levelo://app?vid=5817161f-5d63-41b2-92c0-c94f8059d60c","ios":"levelo://app?vid=5817161f-5d63-41b2-92c0-c94f8059d60c"},"vehicle_type_id":"4","last_reported":1732630189,"current_range_meters":36800,"station_id":"","pricing_plan_id":"cebpf4jnsgd1na2vs0mg"},{"bike_id":"88c80e96-32d0-4054-a0d8-e15b372ae003","system_id":"levelo_inurba_marseille","lat":43.23191,"lon":5.35562,"is_reserved":false,"is_disabled":false,"rental_uris":{"android":"levelo://app?vid=88c80e96-32d0-4054-a0d8-e15b372ae003","ios":"levelo://app?vid=88c80e96-32d0-4054-a0d8-e15b372ae003"},"vehicle_type_id":"4","last_reported":1732630189,"current_range_meters":14400,"station_id":"ce4bhu92rcd13ifvqi70","pricing_plan_id":"cebpf4jnsgd1na2vs0mg"},{"bike_id":"ed647e91-fccb-4deb-981a-146cfb7578a9","system_id":"levelo_inurba_marseille","lat":43.29618,"lon":5.37712,"is_reserved":false,"is_disabled":false,"rental_uris":{"android":"levelo://app?vid=ed647e91-fccb-4deb-981a-146cfb7578a9","ios":"levelo://app?vid=ed647e91-fccb-4deb-981a-146cfb7578a9"},"vehicle_type_id":"4","last_reported":1732630189,"current_range_meters":22800,"station_id":"ce4bgi92rcd13ifvqb90","pricing_plan_id":"cebpf4jnsgd1na2vs0mg"},{"bike_id":"07151c06-3476-437c-9336-3c8bf4385fb7","system_id":"levelo_inurba_marseille","lat":43.30285,"lon":5.400709,"is_reserved":false,"is_disabled":false,"rental_uris":{"android":"levelo://app?vid=07151c06-3476-437c-9336-3c8bf4385fb7","ios":"levelo://app?vid=07151c06-3476-437c-9336-3c8bf4385fb7"},"vehicle_type_id":"4","last_reported":1732630189,"current_range_meters":30400,"station_id":"ce4bgvh2rcd13ifvqcs0","pricing_plan_id":"cebpf4jnsgd1na2vs0mg"},{"bike_id":"c5809b82-cc4a-43b9-a75d-9ab50d5eb873","system_id":"levelo_inurba_marseille","lat":43.28706,"lon":5.37943,"is_reserved":false,"is_disabled":false,"rental_uris":{"android":"levelo://app?vid=c5809b82-cc4a-43b9-a75d-9ab50d5eb873","ios":"levelo://app?vid=c5809b82-cc4a-43b9-a75d-9ab50d5eb873"},"vehicle_type_id":"4","last_reported":1732630189,"current_range_meters":38000,"station_id":"ce4bh9p2rcd13ifvqec0","pricing_plan_id":"cebpf4jnsgd1na2vs0mg"},{"bike_id":"0e72e4de-0192-4ee0-84fc-bcbc85d31216","system_id":"levelo_inurba_marseille","lat":43.24073,"lon":5.37752,"is_reserved":false,"is_disabled":false,"rental_uris":{"android":"levelo://app?vid=0e72e4de-0192-4ee0-84fc-bcbc85d31216","ios":"levelo://app?vid=0e72e4de-0192-4ee0-84fc-bcbc85d31216"},"vehicle_type_id":"4","last_reported":1732630189,"current_range_meters":9200,"station_id":"ce4bhnp2rcd13ifvqgvg","pricing_plan_id":"cebpf4jnsgd1na2vs0mg"},{"bike_id":"04400c54-e5e1-4126-a1be-f77ea47682fd","system_id":"levelo_inurba_marseille","lat":43.28471,"lon":5.38415,"is_reserved":false,"is_disabled":false,"rental_uris":{"android":"levelo://app?vid=04400c54-e5e1-4126-a1be-f77ea47682fd","ios":"levelo://app?vid=04400c54-e5e1-4126-a1be-f77ea47682fd"},"vehicle_type_id":"4","last_reported":1732630189,"current_range_meters":34800,"station_id":"ce4bh512rcd13ifvqe3g","pricing_plan_id":"cebpf4jnsgd1na2vs0mg"},{"bike_id":"2a09209b-9e53-4e93-a4c9-9ab475d29893","system_id":"levelo_inurba_marseille","lat":43.30235,"lon":5.37463,"is_reserved":false,"is_disabled":false,"rental_uris":{"android":"levelo://app?vid=2a09209b-9e53-4e93-a4c9-9ab475d29893","ios":"levelo://app?vid=2a09209b-9e53-4e93-a4c9-9ab475d29893"},"vehicle_type_id":"4","last_reported":1732630189,"current_range_meters":16800,"station_id":"","pricing_plan_id":"cebpf4jnsgd1na2vs0mg"},{"bike_id":"c60dd8f1-2cef-4a76-ad56-4a1a10aefae2","system_id":"levelo_inurba_marseille","lat":43.30918,"lon":5.36831,"is_reserved":false,"is_disabled":false,"rental_uris":{"android":"levelo://app?vid=c60dd8f1-2cef-4a76-ad56-4a1a10aefae2","ios":"levelo://app?vid=c60dd8f1-2cef-4a76-ad56-4a1a10aefae2"},"vehicle_type_id":"4","last_reported":1732630189,"current_range_meters":34000,"station_id":"ce4bgn92rcd13ifvqbvg","pricing_plan_id":"cebpf4jnsgd1na2vs0mg"},{"bike_id":"145542e8-c4f2-4c57-acd0-2e754476b5e3","system_id":"levelo_inurba_marseille","lat":43.30184,"lon":5.36623,"is_reserved":false,"is_disabled":false,"rental_uris":{"android":"levelo://app?vid=145542e8-c4f2-4c57-acd0-2e754476b5e3","ios":"levelo://app?vid=145542e8-c4f2-4c57-acd0-2e754476b5e3"},"vehicle_type_id":"4","last_reported":1732630189,"current_range_meters":24000,"station_id":"ce4bgrh2rcd13ifvqc8g","pricing_plan_id":"cebpf4jnsgd1na2vs0mg"},{"bike_id":"0cd7fb1f-f090-4e80-a2fb-03510d2b2219","system_id":"levelo_inurba_marseille","lat":43.29576,"lon":5.37502,"is_reserved":false,"is_disabled":true,"rental_uris":{"android":"levelo://app?vid=0cd7fb1f-f090-4e80-a2fb-03510d2b2219","ios":"levelo://app?vid=0cd7fb1f-f090-4e80-a2fb-03510d2b2219"},"vehicle_type_id":"4","last_reported":1732630189,"current_range_meters":34800,"station_id":"ce4bgh92rcd13ifvqb50","pricing_plan_id":"cebpf4jnsgd1na2vs0mg"},{"bike_id":"d33a5273-2943-4fa7-881b-94fa64c3bbe9","system_id":"levelo_inurba_marseille","lat":43.23962,"lon":5.36645,"is_reserved":false,"is_disabled":false,"rental_uris":{"android":"levelo://app?vid=d33a5273-2943-4fa7-881b-94fa64c3bbe9","ios":"levelo://app?vid=d33a5273-2943-4fa7-881b-94fa64c3bbe9"},"vehicle_type_id":"4","last_reported":1732630189,"current_range_meters":39200,"station_id":"ce4bhi12rcd13ifvqfp0","pricing_plan_id":"cebpf4jnsgd1na2vs0mg"},{"bike_id":"ff604a16-73d7-444b-b379-6081f13ef08f","system_id":"levelo_inurba_marseille","lat":43.28936,"lon":5.39638,"is_reserved":false,"is_disabled":false,"rental_uris":{"android":"levelo://app?vid=ff604a16-73d7-444b-b379-6081f13ef08f","ios":"levelo://app?vid=ff604a16-73d7-444b-b379-6081f13ef08f"},"vehicle_type_id":"4","last_reported":1732630189,"current_range_meters":8800,"station_id":"ce4bh3h2rcd13ifvqdn0","pricing_plan_id":"cebpf4jnsgd1na2vs0mg"},{"bike_id":"cb681006-f089-4502-8d3e-621da40f24d6","system_id":"levelo_inurba_marseille","lat":43.27674,"lon":5.38889,"is_reserved":false,"is_disabled":false,"rental_uris":{"android":"levelo://app?vid=cb681006-f089-4502-8d3e-621da40f24d6","ios":"levelo://app?vid=cb681006-f089-4502-8d3e-621da40f24d6"},"vehicle_type_id":"4","last_reported":1732630189,"current_range_meters":37600,"station_id":"ce4bhi12rcd13ifvqfo0","pricing_plan_id":"cebpf4jnsgd1na2vs0mg"},{"bike_id":"6a243988-d267-4e1e-bafc-c091870de6a8","system_id":"levelo_inurba_marseille","lat":43.241686,"lon":5.364013,"is_reserved":false,"is_disabled":false,"rental_uris":{"android":"levelo://app?vid=6a243988-d267-4e1e-bafc-c091870de6a8","ios":"levelo://app?vid=6a243988-d267-4e1e-bafc-c091870de6a8"},"vehicle_type_id":"4","last_reported":1732630189,"current_range_meters":38800,"station_id":"cpo36qri1sfpv3e86is0","pricing_plan_id":"cebpf4jnsgd1na2vs0mg"},{"bike_id":"b077ea0d-352b-4572-954b-38beb331baff","system_id":"levelo_inurba_marseille","lat":43.27832,"lon":5.39217,"is_reserved":false,"is_disabled":false,"rental_uris":{"android":"levelo://app?vid=b077ea0d-352b-4572-954b-38beb331baff","ios":"levelo://app?vid=b077ea0d-352b-4572-954b-38beb331baff"},"vehicle_type_id":"4","last_reported":1732630189,"current_range_meters":38400,"station_id":"ce4bhjp2rcd13ifvqga0","pricing_plan_id":"cebpf4jnsgd1na2vs0mg"},{"bike_id":"7e38d160-5d86-42b2-bf0f-9979b0a4e20d","system_id":"levelo_inurba_marseille","lat":43.33024,"lon":5.39043,"is_reserved":false,"is_disabled":false,"rental_uris":{"android":"levelo://app?vid=7e38d160-5d86-42b2-bf0f-9979b0a4e20d","ios":"levelo://app?vid=7e38d160-5d86-42b2-bf0f-9979b0a4e20d"},"vehicle_type_id":"4","last_reported":1732630189,"current_range_meters":20800,"station_id":"ce4bhr92rcd13ifvqhrg","pricing_plan_id":"cebpf4jnsgd1na2vs0mg"},{"bike_id":"b82e57e9-adb0-4f2b-8dac-bda9128616c9","system_id":"levelo_inurba_marseille","lat":43.25579,"lon":5.38245,"is_reserved":false,"is_disabled":false,"rental_uris":{"android":"levelo://app?vid=b82e57e9-adb0-4f2b-8dac-bda9128616c9","ios":"levelo://app?vid=b82e57e9-adb0-4f2b-8dac-bda9128616c9"},"vehicle_type_id":"4","last_reported":1732630189,"current_range_meters":37600,"station_id":"ce4bhih2rcd13ifvqfs0","pricing_plan_id":"cebpf4jnsgd1na2vs0mg"},{"bike_id":"39b04c21-6a6a-40a7-a489-741c2b67c9bd","system_id":"levelo_inurba_marseille","lat":43.337283,"lon":5.391893,"is_reserved":false,"is_disabled":false,"rental_uris":{"android":"levelo://app?vid=39b04c21-6a6a-40a7-a489-741c2b67c9bd","ios":"levelo://app?vid=39b04c21-6a6a-40a7-a489-741c2b67c9bd"},"vehicle_type_id":"4","last_reported":1732630189,"current_range_meters":16400,"station_id":"ce4bhr92rcd13ifvqhsg","pricing_plan_id":"cebpf4jnsgd1na2vs0mg"},{"bike_id":"28a1e919-4d58-41a6-8cdb-6dd1bec2ac3e","system_id":"levelo_inurba_marseille","lat":43.30531,"lon":5.36539,"is_reserved":false,"is_disabled":false,"rental_uris":{"android":"levelo://app?vid=28a1e919-4d58-41a6-8cdb-6dd1bec2ac3e","ios":"levelo://app?vid=28a1e919-4d58-41a6-8cdb-6dd1bec2ac3e"},"vehicle_type_id":"4","last_reported":1732630189,"current_range_meters":36400,"station_id":"ce4bgs12rcd13ifvqcag","pricing_plan_id":"cebpf4jnsgd1na2vs0mg"},{"bike_id":"10add33f-4195-400b-a925-26d7fb4aa689","system_id":"levelo_inurba_marseille","lat":43.26946,"lon":5.40239,"is_reserved":false,"is_disabled":true,"rental_uris":{"android":"levelo://app?vid=10add33f-4195-400b-a925-26d7fb4aa689","ios":"levelo://app?vid=10add33f-4195-400b-a925-26d7fb4aa689"},"vehicle_type_id":"4","last_reported":1732630189,"current_range_meters":34000,"station_id":"cjm6bp8fraef2m0cb0m0","pricing_plan_id":"cebpf4jnsgd1na2vs0mg"},{"bike_id":"315f9207-9872-4efa-a9fa-4cb9a1c99a33","system_id":"levelo_inurba_marseille","lat":43.2991,"lon":5.37476,"is_reserved":false,"is_disabled":false,"rental_uris":{"android":"levelo://app?vid=315f9207-9872-4efa-a9fa-4cb9a1c99a33","ios":"levelo://app?vid=315f9207-9872-4efa-a9fa-4cb9a1c99a33"},"vehicle_type_id":"4","last_reported":1732630189,"current_range_meters":38800,"station_id":"ce4bgjh2rcd13ifvqbg0","pricing_plan_id":"cebpf4jnsgd1na2vs0mg"},{"bike_id":"2de7cae5-5ff7-4e8e-b04a-8f63f72fbf93","system_id":"levelo_inurba_marseille","lat":43.31533,"lon":5.38036,"is_reserved":false,"is_disabled":false,"rental_uris":{"android":"levelo://app?vid=2de7cae5-5ff7-4e8e-b04a-8f63f72fbf93","ios":"levelo://app?vid=2de7cae5-5ff7-4e8e-b04a-8f63f72fbf93"},"vehicle_type_id":"4","last_reported":1732630189,"current_range_meters":37600,"station_id":"ce4bhsp2rcd13ifvqi50","pricing_plan_id":"cebpf4jnsgd1na2vs0mg"},{"bike_id":"df6dfede-364c-4a0e-8f22-cb21db50a29f","system_id":"levelo_inurba_marseille","lat":43.2318,"lon":5.3999,"is_reserved":false,"is_disabled":false,"rental_uris":{"android":"levelo://app?vid=df6dfede-364c-4a0e-8f22-cb21db50a29f","ios":"levelo://app?vid=df6dfede-364c-4a0e-8f22-cb21db50a29f"},"vehicle_type_id":"4","last_reported":1732630189,"current_range_meters":39200,"station_id":"ce4bhn12rcd13ifvqgqg","pricing_plan_id":"cebpf4jnsgd1na2vs0mg"},{"bike_id":"f322df79-0242-4db0-ac2e-452d61c9528e","system_id":"levelo_inurba_marseille","lat":43.25576,"lon":5.38244,"is_reserved":false,"is_disabled":false,"rental_uris":{"android":"levelo://app?vid=f322df79-0242-4db0-ac2e-452d61c9528e","ios":"levelo://app?vid=f322df79-0242-4db0-ac2e-452d61c9528e"},"vehicle_type_id":"4","last_reported":1732630189,"current_range_meters":38400,"station_id":"ce4bhih2rcd13ifvqfs0","pricing_plan_id":"cebpf4jnsgd1na2vs0mg"},{"bike_id":"cf030808-2ef7-4c77-ab8f-ba1dd203963c","system_id":"levelo_inurba_marseille","lat":43.26947,"lon":5.38638,"is_reserved":false,"is_disabled":false,"rental_uris":{"android":"levelo://app?vid=cf030808-2ef7-4c77-ab8f-ba1dd203963c","ios":"levelo://app?vid=cf030808-2ef7-4c77-ab8f-ba1dd203963c"},"vehicle_type_id":"4","last_reported":1732630189,"current_range_meters":38800,"station_id":"ce4bhh92rcd13ifvqfh0","pricing_plan_id":"cebpf4jnsgd1na2vs0mg"},{"bike_id":"ef142e44-ab15-4431-8360-89a5ff4ef9a4","system_id":"levelo_inurba_marseille","lat":43.29977,"lon":5.37176,"is_reserved":false,"is_disabled":true,"rental_uris":{"android":"levelo://app?vid=ef142e44-ab15-4431-8360-89a5ff4ef9a4","ios":"levelo://app?vid=ef142e44-ab15-4431-8360-89a5ff4ef9a4"},"vehicle_type_id":"4","last_reported":1732630189,"current_range_meters":38000,"station_id":"ce4bgr92rcd13ifvqc7g","pricing_plan_id":"cebpf4jnsgd1na2vs0mg"},{"bike_id":"59890884-d806-40f4-8be5-81bd649f95b2","system_id":"levelo_inurba_marseille","lat":43.29692,"lon":5.37696,"is_reserved":false,"is_disabled":false,"rental_uris":{"android":"levelo://app?vid=59890884-d806-40f4-8be5-81bd649f95b2","ios":"levelo://app?vid=59890884-d806-40f4-8be5-81bd649f95b2"},"vehicle_type_id":"4","last_reported":1732630189,"current_range_meters":25600,"station_id":"ce4bgkh2rcd13ifvqbl0","pricing_plan_id":"cebpf4jnsgd1na2vs0mg"},{"bike_id":"6c76c8ed-2fd3-4402-aab2-8a16f9768214","system_id":"levelo_inurba_marseille","lat":43.26064,"lon":5.39379,"is_reserved":false,"is_disabled":false,"rental_uris":{"android":"levelo://app?vid=6c76c8ed-2fd3-4402-aab2-8a16f9768214","ios":"levelo://app?vid=6c76c8ed-2fd3-4402-aab2-8a16f9768214"},"vehicle_type_id":"4","last_reported":1732630189,"current_range_meters":5600,"station_id":"ce4bhh92rcd13ifvqfj0","pricing_plan_id":"cebpf4jnsgd1na2vs0mg"},{"bike_id":"36296f5c-0176-4be0-97c8-7930cda9c369","system_id":"levelo_inurba_marseille","lat":43.321057,"lon":5.3677,"is_reserved":false,"is_disabled":false,"rental_uris":{"android":"levelo://app?vid=36296f5c-0176-4be0-97c8-7930cda9c369","ios":"levelo://app?vid=36296f5c-0176-4be0-97c8-7930cda9c369"},"vehicle_type_id":"4","last_reported":1732630189,"current_range_meters":22400,"station_id":"ce4bhrh2rcd13ifvqhug","pricing_plan_id":"cebpf4jnsgd1na2vs0mg"},{"bike_id":"481524c3-8ef9-4adf-888c-b825b8557859","system_id":"levelo_inurba_marseille","lat":43.31228,"lon":5.36865,"is_reserved":false,"is_disabled":false,"rental_uris":{"android":"levelo://app?vid=481524c3-8ef9-4adf-888c-b825b8557859","ios":"levelo://app?vid=481524c3-8ef9-4adf-888c-b825b8557859"},"vehicle_type_id":"4","last_reported":1732630189,"current_range_meters":13600,"station_id":"ce4bgl92rcd13ifvqbq0","pricing_plan_id":"cebpf4jnsgd1na2vs0mg"},{"bike_id":"8582fcb4-6172-42e7-a349-636aeb9688c5","system_id":"levelo_inurba_marseille","lat":43.30429,"lon":5.39746,"is_reserved":false,"is_disabled":false,"rental_uris":{"android":"levelo://app?vid=8582fcb4-6172-42e7-a349-636aeb9688c5","ios":"levelo://app?vid=8582fcb4-6172-42e7-a349-636aeb9688c5"},"vehicle_type_id":"4","last_reported":1732630189,"current_range_meters":20000,"station_id":"ce4bh092rcd13ifvqd20","pricing_plan_id":"cebpf4jnsgd1na2vs0mg"},{"bike_id":"2cb276b6-2662-43b4-bd30-5856367b625f","system_id":"levelo_inurba_marseille","lat":43.32531,"lon":5.41456,"is_reserved":false,"is_disabled":false,"rental_uris":{"android":"levelo://app?vid=2cb276b6-2662-43b4-bd30-5856367b625f","ios":"levelo://app?vid=2cb276b6-2662-43b4-bd30-5856367b625f"},"vehicle_type_id":"4","last_reported":1732630189,"current_range_meters":29600,"station_id":"ce4bhq12rcd13ifvqhhg","pricing_plan_id":"cebpf4jnsgd1na2vs0mg"},{"bike_id":"6b62e754-29a8-488d-9bbc-ee9276ceccc2","system_id":"levelo_inurba_marseille","lat":43.337444,"lon":5.374475,"is_reserved":false,"is_disabled":false,"rental_uris":{"android":"levelo://app?vid=6b62e754-29a8-488d-9bbc-ee9276ceccc2","ios":"levelo://app?vid=6b62e754-29a8-488d-9bbc-ee9276ceccc2"},"vehicle_type_id":"4","last_reported":1732630189,"current_range_meters":29600,"station_id":"ce4bh012rcd13ifvqcv0","pricing_plan_id":"cebpf4jnsgd1na2vs0mg"},{"bike_id":"2d3ac0cf-9b0a-4e1a-a923-ea0c3542ce6a","system_id":"levelo_inurba_marseille","lat":43.26027,"lon":5.37553,"is_reserved":false,"is_disabled":false,"rental_uris":{"android":"levelo://app?vid=2d3ac0cf-9b0a-4e1a-a923-ea0c3542ce6a","ios":"levelo://app?vid=2d3ac0cf-9b0a-4e1a-a923-ea0c3542ce6a"},"vehicle_type_id":"4","last_reported":1732630189,"current_range_meters":9200,"station_id":"ce4bhgh2rcd13ifvqfa0","pricing_plan_id":"cebpf4jnsgd1na2vs0mg"},{"bike_id":"1ebc2642-599e-41e5-89df-308a45bbfcfb","system_id":"levelo_inurba_marseille","lat":43.32101,"lon":5.36778,"is_reserved":false,"is_disabled":false,"rental_uris":{"android":"levelo://app?vid=1ebc2642-599e-41e5-89df-308a45bbfcfb","ios":"levelo://app?vid=1ebc2642-599e-41e5-89df-308a45bbfcfb"},"vehicle_type_id":"4","last_reported":1732630189,"current_range_meters":14400,"station_id":"ce4bhrh2rcd13ifvqhug","pricing_plan_id":"cebpf4jnsgd1na2vs0mg"},{"bike_id":"e0ee0bda-4146-4b0c-a3ae-8c9912554310","system_id":"levelo_inurba_marseille","lat":43.3136,"lon":5.36717,"is_reserved":false,"is_disabled":false,"rental_uris":{"android":"levelo://app?vid=e0ee0bda-4146-4b0c-a3ae-8c9912554310","ios":"levelo://app?vid=e0ee0bda-4146-4b0c-a3ae-8c9912554310"},"vehicle_type_id":"4","last_reported":1732630189,"current_range_meters":35600,"station_id":"ce4bgr92rcd13ifvqc6g","pricing_plan_id":"cebpf4jnsgd1na2vs0mg"},{"bike_id":"e8a12a11-eb94-43a1-89dc-1a990d2d11f4","system_id":"levelo_inurba_marseille","lat":43.23147,"lon":5.43732,"is_reserved":false,"is_disabled":false,"rental_uris":{"android":"levelo://app?vid=e8a12a11-eb94-43a1-89dc-1a990d2d11f4","ios":"levelo://app?vid=e8a12a11-eb94-43a1-89dc-1a990d2d11f4"},"vehicle_type_id":"4","last_reported":1732630189,"current_range_meters":38000,"station_id":"ce4bhmp2rcd13ifvqgog","pricing_plan_id":"cebpf4jnsgd1na2vs0mg"},{"bike_id":"9cb3f477-d4e9-4dfc-943a-574258c3c1c4","system_id":"levelo_inurba_marseille","lat":43.27568,"lon":5.38444,"is_reserved":false,"is_disabled":false,"rental_uris":{"android":"levelo://app?vid=9cb3f477-d4e9-4dfc-943a-574258c3c1c4","ios":"levelo://app?vid=9cb3f477-d4e9-4dfc-943a-574258c3c1c4"},"vehicle_type_id":"4","last_reported":1732630189,"current_range_meters":11600,"station_id":"ce4bhh92rcd13ifvqfi0","pricing_plan_id":"cebpf4jnsgd1na2vs0mg"},{"bike_id":"3cae8567-5aad-4cf7-9db5-dbab468071ce","system_id":"levelo_inurba_marseille","lat":43.27808,"lon":5.40716,"is_reserved":false,"is_disabled":false,"rental_uris":{"android":"levelo://app?vid=3cae8567-5aad-4cf7-9db5-dbab468071ce","ios":"levelo://app?vid=3cae8567-5aad-4cf7-9db5-dbab468071ce"},"vehicle_type_id":"4","last_reported":1732630189,"current_range_meters":35600,"station_id":"ce4bhnh2rcd13ifvqgtg","pricing_plan_id":"cebpf4jnsgd1na2vs0mg"},{"bike_id":"a10a5d44-7541-400b-9a37-49835effd4f5","system_id":"levelo_inurba_marseille","lat":43.28929,"lon":5.36404,"is_reserved":false,"is_disabled":false,"rental_uris":{"android":"levelo://app?vid=a10a5d44-7541-400b-9a37-49835effd4f5","ios":"levelo://app?vid=a10a5d44-7541-400b-9a37-49835effd4f5"},"vehicle_type_id":"4","last_reported":1732630189,"current_range_meters":28400,"station_id":"ce4bhc92rcd13ifvqetg","pricing_plan_id":"cebpf4jnsgd1na2vs0mg"},{"bike_id":"2c794031-1b0b-42b9-96e9-75edcb8883bc","system_id":"levelo_inurba_marseille","lat":43.29036,"lon":5.35921,"is_reserved":false,"is_disabled":false,"rental_uris":{"android":"levelo://app?vid=2c794031-1b0b-42b9-96e9-75edcb8883bc","ios":"levelo://app?vid=2c794031-1b0b-42b9-96e9-75edcb8883bc"},"vehicle_type_id":"4","last_reported":1732630189,"current_range_meters":30800,"station_id":"ce4bha92rcd13ifvqeg0","pricing_plan_id":"cebpf4jnsgd1na2vs0mg"},{"bike_id":"5e501ae5-644b-45f2-8a81-073cc9474b71","system_id":"levelo_inurba_marseille","lat":43.23178,"lon":5.39984,"is_reserved":false,"is_disabled":false,"rental_uris":{"android":"levelo://app?vid=5e501ae5-644b-45f2-8a81-073cc9474b71","ios":"levelo://app?vid=5e501ae5-644b-45f2-8a81-073cc9474b71"},"vehicle_type_id":"4","last_reported":1732630189,"current_range_meters":6400,"station_id":"ce4bhn12rcd13ifvqgqg","pricing_plan_id":"cebpf4jnsgd1na2vs0mg"},{"bike_id":"f54ff67b-d74a-4a6f-a67e-bfe1536a6a2c","system_id":"levelo_inurba_marseille","lat":43.29711,"lon":5.3771,"is_reserved":false,"is_disabled":false,"rental_uris":{"android":"levelo://app?vid=f54ff67b-d74a-4a6f-a67e-bfe1536a6a2c","ios":"levelo://app?vid=f54ff67b-d74a-4a6f-a67e-bfe1536a6a2c"},"vehicle_type_id":"4","last_reported":1732630189,"current_range_meters":27200,"station_id":"ce4bgkh2rcd13ifvqbl0","pricing_plan_id":"cebpf4jnsgd1na2vs0mg"},{"bike_id":"ecafbf04-e97c-486f-8502-ae4081837df7","system_id":"levelo_inurba_marseille","lat":43.25002,"lon":5.38927,"is_reserved":false,"is_disabled":false,"rental_uris":{"android":"levelo://app?vid=ecafbf04-e97c-486f-8502-ae4081837df7","ios":"levelo://app?vid=ecafbf04-e97c-486f-8502-ae4081837df7"},"vehicle_type_id":"4","last_reported":1732630189,"current_range_meters":38800,"station_id":"ce4bhgp2rcd13ifvqfd0","pricing_plan_id":"cebpf4jnsgd1na2vs0mg"},{"bike_id":"692eccdc-6185-43a5-be24-20ae700a9fcb","system_id":"levelo_inurba_marseille","lat":43.29796,"lon":5.38103,"is_reserved":false,"is_disabled":false,"rental_uris":{"android":"levelo://app?vid=692eccdc-6185-43a5-be24-20ae700a9fcb","ios":"levelo://app?vid=692eccdc-6185-43a5-be24-20ae700a9fcb"},"vehicle_type_id":"4","last_reported":1732630189,"current_range_meters":39200,"station_id":"ce4bgip2rcd13ifvqbb0","pricing_plan_id":"cebpf4jnsgd1na2vs0mg"},{"bike_id":"a00a078c-e841-498b-91ab-d90a9205619b","system_id":"levelo_inurba_marseille","lat":43.24071,"lon":5.37765,"is_reserved":false,"is_disabled":false,"rental_uris":{"android":"levelo://app?vid=a00a078c-e841-498b-91ab-d90a9205619b","ios":"levelo://app?vid=a00a078c-e841-498b-91ab-d90a9205619b"},"vehicle_type_id":"4","last_reported":1732630189,"current_range_meters":12000,"station_id":"ce4bhnp2rcd13ifvqgvg","pricing_plan_id":"cebpf4jnsgd1na2vs0mg"},{"bike_id":"e9e9e4ba-6953-4526-87be-563ac621eac9","system_id":"levelo_inurba_marseille","lat":43.30887,"lon":5.37193,"is_reserved":false,"is_disabled":false,"rental_uris":{"android":"levelo://app?vid=e9e9e4ba-6953-4526-87be-563ac621eac9","ios":"levelo://app?vid=e9e9e4ba-6953-4526-87be-563ac621eac9"},"vehicle_type_id":"4","last_reported":1732630189,"current_range_meters":25600,"station_id":"ce4bguh2rcd13ifvqckg","pricing_plan_id":"cebpf4jnsgd1na2vs0mg"},{"bike_id":"55bb2eb0-ae99-4fbd-8b9d-1ba01a79020c","system_id":"levelo_inurba_marseille","lat":43.27496,"lon":5.42455,"is_reserved":false,"is_disabled":false,"rental_uris":{"android":"levelo://app?vid=55bb2eb0-ae99-4fbd-8b9d-1ba01a79020c","ios":"levelo://app?vid=55bb2eb0-ae99-4fbd-8b9d-1ba01a79020c"},"vehicle_type_id":"4","last_reported":1732630189,"current_range_meters":19600,"station_id":"ce4bhn92rcd13ifvqgrg","pricing_plan_id":"cebpf4jnsgd1na2vs0mg"},{"bike_id":"ad147b94-4180-4578-a0fa-c4d1998acb2d","system_id":"levelo_inurba_marseille","lat":43.29041,"lon":5.35931,"is_reserved":false,"is_disabled":true,"rental_uris":{"android":"levelo://app?vid=ad147b94-4180-4578-a0fa-c4d1998acb2d","ios":"levelo://app?vid=ad147b94-4180-4578-a0fa-c4d1998acb2d"},"vehicle_type_id":"4","last_reported":1732630189,"current_range_meters":38800,"station_id":"ce4bha92rcd13ifvqeg0","pricing_plan_id":"cebpf4jnsgd1na2vs0mg"},{"bike_id":"ac3c6b0d-c4b9-4ff1-b1a2-8adea9f368fc","system_id":"levelo_inurba_marseille","lat":43.30197,"lon":5.36617,"is_reserved":false,"is_disabled":true,"rental_uris":{"android":"levelo://app?vid=ac3c6b0d-c4b9-4ff1-b1a2-8adea9f368fc","ios":"levelo://app?vid=ac3c6b0d-c4b9-4ff1-b1a2-8adea9f368fc"},"vehicle_type_id":"4","last_reported":1732630189,"current_range_meters":36400,"station_id":"ce4bgrh2rcd13ifvqc8g","pricing_plan_id":"cebpf4jnsgd1na2vs0mg"},{"bike_id":"5e62381a-5ebd-4832-9136-76f28e9ca2dc","system_id":"levelo_inurba_marseille","lat":43.29601,"lon":5.38088,"is_reserved":false,"is_disabled":false,"rental_uris":{"android":"levelo://app?vid=5e62381a-5ebd-4832-9136-76f28e9ca2dc","ios":"levelo://app?vid=5e62381a-5ebd-4832-9136-76f28e9ca2dc"},"vehicle_type_id":"4","last_reported":1732630189,"current_range_meters":18800,"station_id":"ce4bgl12rcd13ifvqbo0","pricing_plan_id":"cebpf4jnsgd1na2vs0mg"},{"bike_id":"c20b2be9-3c9e-4d41-b647-98de741b233e","system_id":"levelo_inurba_marseille","lat":43.30317,"lon":5.40448,"is_reserved":false,"is_disabled":true,"rental_uris":{"android":"levelo://app?vid=c20b2be9-3c9e-4d41-b647-98de741b233e","ios":"levelo://app?vid=c20b2be9-3c9e-4d41-b647-98de741b233e"},"vehicle_type_id":"4","last_reported":1732630189,"current_range_meters":0,"station_id":"ce4bh012rcd13ifvqd10","pricing_plan_id":"cebpf4jnsgd1na2vs0mg"},{"bike_id":"4c2c6463-da90-4617-9cea-3b88a33d9085","system_id":"levelo_inurba_marseille","lat":43.23184,"lon":5.39979,"is_reserved":false,"is_disabled":false,"rental_uris":{"android":"levelo://app?vid=4c2c6463-da90-4617-9cea-3b88a33d9085","ios":"levelo://app?vid=4c2c6463-da90-4617-9cea-3b88a33d9085"},"vehicle_type_id":"4","last_reported":1732630189,"current_range_meters":10000,"station_id":"ce4bhn12rcd13ifvqgqg","pricing_plan_id":"cebpf4jnsgd1na2vs0mg"},{"bike_id":"edc4ec26-9586-43e2-8071-e01c01aa0cd4","system_id":"levelo_inurba_marseille","lat":43.24391,"lon":5.37061,"is_reserved":false,"is_disabled":false,"rental_uris":{"android":"levelo://app?vid=edc4ec26-9586-43e2-8071-e01c01aa0cd4","ios":"levelo://app?vid=edc4ec26-9586-43e2-8071-e01c01aa0cd4"},"vehicle_type_id":"4","last_reported":1732630189,"current_range_meters":29600,"station_id":"ce4bhhh2rcd13ifvqfk0","pricing_plan_id":"cebpf4jnsgd1na2vs0mg"},{"bike_id":"2e68222f-30cf-465f-9189-69aabdbbd1e6","system_id":"levelo_inurba_marseille","lat":43.31751,"lon":5.39033,"is_reserved":false,"is_disabled":false,"rental_uris":{"android":"levelo://app?vid=2e68222f-30cf-465f-9189-69aabdbbd1e6","ios":"levelo://app?vid=2e68222f-30cf-465f-9189-69aabdbbd1e6"},"vehicle_type_id":"4","last_reported":1732630189,"current_range_meters":30400,"station_id":"ce4bhqp2rcd13ifvqhng","pricing_plan_id":"cebpf4jnsgd1na2vs0mg"},{"bike_id":"41c56545-9616-4d73-99be-0efb6718c336","system_id":"levelo_inurba_marseille","lat":43.23968,"lon":5.36636,"is_reserved":false,"is_disabled":false,"rental_uris":{"android":"levelo://app?vid=41c56545-9616-4d73-99be-0efb6718c336","ios":"levelo://app?vid=41c56545-9616-4d73-99be-0efb6718c336"},"vehicle_type_id":"4","last_reported":1732630189,"current_range_meters":16800,"station_id":"ce4bhi12rcd13ifvqfp0","pricing_plan_id":"cebpf4jnsgd1na2vs0mg"},{"bike_id":"8c1b6cce-854a-468e-82f6-13bf5be31e7b","system_id":"levelo_inurba_marseille","lat":43.28342,"lon":5.38114,"is_reserved":false,"is_disabled":false,"rental_uris":{"android":"levelo://app?vid=8c1b6cce-854a-468e-82f6-13bf5be31e7b","ios":"levelo://app?vid=8c1b6cce-854a-468e-82f6-13bf5be31e7b"},"vehicle_type_id":"4","last_reported":1732630189,"current_range_meters":30400,"station_id":"ce4bh412rcd13ifvqdr0","pricing_plan_id":"cebpf4jnsgd1na2vs0mg"},{"bike_id":"1e01212b-abf0-4e0b-b18b-622fee59af63","system_id":"levelo_inurba_marseille","lat":43.27563,"lon":5.38422,"is_reserved":false,"is_disabled":false,"rental_uris":{"android":"levelo://app?vid=1e01212b-abf0-4e0b-b18b-622fee59af63","ios":"levelo://app?vid=1e01212b-abf0-4e0b-b18b-622fee59af63"},"vehicle_type_id":"4","last_reported":1732630189,"current_range_meters":30000,"station_id":"ce4bhh92rcd13ifvqfi0","pricing_plan_id":"cebpf4jnsgd1na2vs0mg"},{"bike_id":"1316c758-9aa3-481d-bc4d-4a51ee52b0e1","system_id":"levelo_inurba_marseille","lat":43.28266,"lon":5.35057,"is_reserved":false,"is_disabled":false,"rental_uris":{"android":"levelo://app?vid=1316c758-9aa3-481d-bc4d-4a51ee52b0e1","ios":"levelo://app?vid=1316c758-9aa3-481d-bc4d-4a51ee52b0e1"},"vehicle_type_id":"4","last_reported":1732630189,"current_range_meters":17600,"station_id":"ce4bhbp2rcd13ifvqerg","pricing_plan_id":"cebpf4jnsgd1na2vs0mg"},{"bike_id":"858b65e1-94fc-4151-a71e-8b168cb19dcb","system_id":"levelo_inurba_marseille","lat":43.32249,"lon":5.39241,"is_reserved":false,"is_disabled":true,"rental_uris":{"android":"levelo://app?vid=858b65e1-94fc-4151-a71e-8b168cb19dcb","ios":"levelo://app?vid=858b65e1-94fc-4151-a71e-8b168cb19dcb"},"vehicle_type_id":"4","last_reported":1732630189,"current_range_meters":0,"station_id":"","pricing_plan_id":"cebpf4jnsgd1na2vs0mg"},{"bike_id":"e51b2acb-d883-446b-9ce9-347608453ece","system_id":"levelo_inurba_marseille","lat":43.22933,"lon":5.35372,"is_reserved":false,"is_disabled":false,"rental_uris":{"android":"levelo://app?vid=e51b2acb-d883-446b-9ce9-347608453ece","ios":"levelo://app?vid=e51b2acb-d883-446b-9ce9-347608453ece"},"vehicle_type_id":"4","last_reported":1732630189,"current_range_meters":30400,"station_id":"cpo3532slgdg3j2ikp40","pricing_plan_id":"cebpf4jnsgd1na2vs0mg"},{"bike_id":"9e060173-516a-4db7-bba3-20010e494e02","system_id":"levelo_inurba_marseille","lat":43.28716,"lon":5.37942,"is_reserved":false,"is_disabled":false,"rental_uris":{"android":"levelo://app?vid=9e060173-516a-4db7-bba3-20010e494e02","ios":"levelo://app?vid=9e060173-516a-4db7-bba3-20010e494e02"},"vehicle_type_id":"4","last_reported":1732630189,"current_range_meters":38800,"station_id":"ce4bh9p2rcd13ifvqec0","pricing_plan_id":"cebpf4jnsgd1na2vs0mg"},{"bike_id":"4016ad81-8f94-400e-ad85-9b6e00ff6a9b","system_id":"levelo_inurba_marseille","lat":43.31066,"lon":5.42439,"is_reserved":false,"is_disabled":false,"rental_uris":{"android":"levelo://app?vid=4016ad81-8f94-400e-ad85-9b6e00ff6a9b","ios":"levelo://app?vid=4016ad81-8f94-400e-ad85-9b6e00ff6a9b"},"vehicle_type_id":"4","last_reported":1732630189,"current_range_meters":39200,"station_id":"ce4bhp92rcd13ifvqhag","pricing_plan_id":"cebpf4jnsgd1na2vs0mg"},{"bike_id":"9fc0dfff-24f1-4fb3-ba2b-5a50ec53c77c","system_id":"levelo_inurba_marseille","lat":43.27827,"lon":5.39226,"is_reserved":false,"is_disabled":false,"rental_uris":{"android":"levelo://app?vid=9fc0dfff-24f1-4fb3-ba2b-5a50ec53c77c","ios":"levelo://app?vid=9fc0dfff-24f1-4fb3-ba2b-5a50ec53c77c"},"vehicle_type_id":"4","last_reported":1732630189,"current_range_meters":38800,"station_id":"ce4bhjp2rcd13ifvqga0","pricing_plan_id":"cebpf4jnsgd1na2vs0mg"},{"bike_id":"05962b63-5574-42d1-b10f-5c6c031e1e1a","system_id":"levelo_inurba_marseille","lat":43.26196,"lon":5.37934,"is_reserved":false,"is_disabled":false,"rental_uris":{"android":"levelo://app?vid=05962b63-5574-42d1-b10f-5c6c031e1e1a","ios":"levelo://app?vid=05962b63-5574-42d1-b10f-5c6c031e1e1a"},"vehicle_type_id":"4","last_reported":1732630189,"current_range_meters":32400,"station_id":"ce4bhjp2rcd13ifvqg90","pricing_plan_id":"cebpf4jnsgd1na2vs0mg"},{"bike_id":"bf931dd5-f51c-4e08-a215-d4b67ea18d16","system_id":"levelo_inurba_marseille","lat":43.27375,"lon":5.36261,"is_reserved":false,"is_disabled":false,"rental_uris":{"android":"levelo://app?vid=bf931dd5-f51c-4e08-a215-d4b67ea18d16","ios":"levelo://app?vid=bf931dd5-f51c-4e08-a215-d4b67ea18d16"},"vehicle_type_id":"4","last_reported":1732630189,"current_range_meters":26800,"station_id":"ce4bhbh2rcd13ifvqeo0","pricing_plan_id":"cebpf4jnsgd1na2vs0mg"},{"bike_id":"3953afaa-f556-4b6f-9045-3f6d8cae6fe2","system_id":"levelo_inurba_marseille","lat":43.32559,"lon":5.41463,"is_reserved":false,"is_disabled":false,"rental_uris":{"android":"levelo://app?vid=3953afaa-f556-4b6f-9045-3f6d8cae6fe2","ios":"levelo://app?vid=3953afaa-f556-4b6f-9045-3f6d8cae6fe2"},"vehicle_type_id":"4","last_reported":1732630189,"current_range_meters":35600,"station_id":"ce4bhq12rcd13ifvqhhg","pricing_plan_id":"cebpf4jnsgd1na2vs0mg"},{"bike_id":"e56684af-a751-4c04-bbbf-8c304207b3ae","system_id":"levelo_inurba_marseille","lat":43.2318,"lon":5.35582,"is_reserved":false,"is_disabled":false,"rental_uris":{"android":"levelo://app?vid=e56684af-a751-4c04-bbbf-8c304207b3ae","ios":"levelo://app?vid=e56684af-a751-4c04-bbbf-8c304207b3ae"},"vehicle_type_id":"4","last_reported":1732630189,"current_range_meters":39200,"station_id":"ce4bhu92rcd13ifvqi70","pricing_plan_id":"cebpf4jnsgd1na2vs0mg"},{"bike_id":"3bd4e758-1aa1-43e4-bf3f-c7c2dd799e60","system_id":"levelo_inurba_marseille","lat":43.23148,"lon":5.43746,"is_reserved":false,"is_disabled":false,"rental_uris":{"android":"levelo://app?vid=3bd4e758-1aa1-43e4-bf3f-c7c2dd799e60","ios":"levelo://app?vid=3bd4e758-1aa1-43e4-bf3f-c7c2dd799e60"},"vehicle_type_id":"4","last_reported":1732630189,"current_range_meters":38000,"station_id":"ce4bhmp2rcd13ifvqgog","pricing_plan_id":"cebpf4jnsgd1na2vs0mg"},{"bike_id":"bb4a47ae-6e45-4b6b-a736-e2a9fe40cb4a","system_id":"levelo_inurba_marseille","lat":43.24804,"lon":5.37463,"is_reserved":false,"is_disabled":false,"rental_uris":{"android":"levelo://app?vid=bb4a47ae-6e45-4b6b-a736-e2a9fe40cb4a","ios":"levelo://app?vid=bb4a47ae-6e45-4b6b-a736-e2a9fe40cb4a"},"vehicle_type_id":"4","last_reported":1732630189,"current_range_meters":23200,"station_id":"ce4bhgh2rcd13ifvqfb0","pricing_plan_id":"cebpf4jnsgd1na2vs0mg"},{"bike_id":"f7f3756c-1ec7-4782-9c87-6273f87b6774","system_id":"levelo_inurba_marseille","lat":43.337444,"lon":5.374475,"is_reserved":false,"is_disabled":true,"rental_uris":{"android":"levelo://app?vid=f7f3756c-1ec7-4782-9c87-6273f87b6774","ios":"levelo://app?vid=f7f3756c-1ec7-4782-9c87-6273f87b6774"},"vehicle_type_id":"4","last_reported":1732630189,"current_range_meters":19200,"station_id":"","pricing_plan_id":"cebpf4jnsgd1na2vs0mg"},{"bike_id":"647cb96b-2992-4fa4-bda9-7ecc357c10cf","system_id":"levelo_inurba_marseille","lat":43.30897,"lon":5.37179,"is_reserved":false,"is_disabled":false,"rental_uris":{"android":"levelo://app?vid=647cb96b-2992-4fa4-bda9-7ecc357c10cf","ios":"levelo://app?vid=647cb96b-2992-4fa4-bda9-7ecc357c10cf"},"vehicle_type_id":"4","last_reported":1732630189,"current_range_meters":24000,"station_id":"ce4bguh2rcd13ifvqckg","pricing_plan_id":"cebpf4jnsgd1na2vs0mg"},{"bike_id":"826373fa-5e47-4cc0-9c8b-8f9b862e5234","system_id":"levelo_inurba_marseille","lat":43.29802,"lon":5.38085,"is_reserved":false,"is_disabled":false,"rental_uris":{"android":"levelo://app?vid=826373fa-5e47-4cc0-9c8b-8f9b862e5234","ios":"levelo://app?vid=826373fa-5e47-4cc0-9c8b-8f9b862e5234"},"vehicle_type_id":"4","last_reported":1732630189,"current_range_meters":16800,"station_id":"ce4bgip2rcd13ifvqbb0","pricing_plan_id":"cebpf4jnsgd1na2vs0mg"},{"bike_id":"1ccfb98e-2e14-42d2-b5d8-7f8d952233c6","system_id":"levelo_inurba_marseille","lat":43.27973,"lon":5.38749,"is_reserved":false,"is_disabled":false,"rental_uris":{"android":"levelo://app?vid=1ccfb98e-2e14-42d2-b5d8-7f8d952233c6","ios":"levelo://app?vid=1ccfb98e-2e14-42d2-b5d8-7f8d952233c6"},"vehicle_type_id":"4","last_reported":1732630189,"current_range_meters":16800,"station_id":"ce4bhg12rcd13ifvqf80","pricing_plan_id":"cebpf4jnsgd1na2vs0mg"},{"bike_id":"53d2d518-632c-4140-aa79-da77373aab71","system_id":"levelo_inurba_marseille","lat":43.302,"lon":5.3947,"is_reserved":false,"is_disabled":false,"rental_uris":{"android":"levelo://app?vid=53d2d518-632c-4140-aa79-da77373aab71","ios":"levelo://app?vid=53d2d518-632c-4140-aa79-da77373aab71"},"vehicle_type_id":"4","last_reported":1732630189,"current_range_meters":36800,"station_id":"ce4bh0p2rcd13ifvqd70","pricing_plan_id":"cebpf4jnsgd1na2vs0mg"},{"bike_id":"2294d9ed-de3e-4197-8d77-62ca5e80fec4","system_id":"levelo_inurba_marseille","lat":43.30356,"lon":5.41865,"is_reserved":false,"is_disabled":false,"rental_uris":{"android":"levelo://app?vid=2294d9ed-de3e-4197-8d77-62ca5e80fec4","ios":"levelo://app?vid=2294d9ed-de3e-4197-8d77-62ca5e80fec4"},"vehicle_type_id":"4","last_reported":1732630189,"current_range_meters":38800,"station_id":"ce4bhop2rcd13ifvqh7g","pricing_plan_id":"cebpf4jnsgd1na2vs0mg"},{"bike_id":"dfba7dbd-3a8c-457c-ba09-176d0fadee26","system_id":"levelo_inurba_marseille","lat":43.28714,"lon":5.37938,"is_reserved":false,"is_disabled":false,"rental_uris":{"android":"levelo://app?vid=dfba7dbd-3a8c-457c-ba09-176d0fadee26","ios":"levelo://app?vid=dfba7dbd-3a8c-457c-ba09-176d0fadee26"},"vehicle_type_id":"4","last_reported":1732630189,"current_range_meters":39200,"station_id":"ce4bh9p2rcd13ifvqec0","pricing_plan_id":"cebpf4jnsgd1na2vs0mg"},{"bike_id":"f5658b6b-05db-4270-b5a2-b12a283db2c3","system_id":"levelo_inurba_marseille","lat":43.32293,"lon":5.38288,"is_reserved":false,"is_disabled":false,"rental_uris":{"android":"levelo://app?vid=f5658b6b-05db-4270-b5a2-b12a283db2c3","ios":"levelo://app?vid=f5658b6b-05db-4270-b5a2-b12a283db2c3"},"vehicle_type_id":"4","last_reported":1732630189,"current_range_meters":38800,"station_id":"ce4bhr12rcd13ifvqhqg","pricing_plan_id":"cebpf4jnsgd1na2vs0mg"},{"bike_id":"804509c8-f1c2-4b65-8550-819947794474","system_id":"levelo_inurba_marseille","lat":43.25581,"lon":5.38236,"is_reserved":false,"is_disabled":false,"rental_uris":{"android":"levelo://app?vid=804509c8-f1c2-4b65-8550-819947794474","ios":"levelo://app?vid=804509c8-f1c2-4b65-8550-819947794474"},"vehicle_type_id":"4","last_reported":1732630189,"current_range_meters":4000,"station_id":"ce4bhih2rcd13ifvqfs0","pricing_plan_id":"cebpf4jnsgd1na2vs0mg"},{"bike_id":"1f805567-48da-46fb-8cbb-cb09cc17ccfc","system_id":"levelo_inurba_marseille","lat":43.23956,"lon":5.36641,"is_reserved":false,"is_disabled":false,"rental_uris":{"android":"levelo://app?vid=1f805567-48da-46fb-8cbb-cb09cc17ccfc","ios":"levelo://app?vid=1f805567-48da-46fb-8cbb-cb09cc17ccfc"},"vehicle_type_id":"4","last_reported":1732630189,"current_range_meters":24400,"station_id":"ce4bhi12rcd13ifvqfp0","pricing_plan_id":"cebpf4jnsgd1na2vs0mg"},{"bike_id":"a5909545-3e09-4859-9fda-9ffe4e6e4883","system_id":"levelo_inurba_marseille","lat":43.23065,"lon":5.35491,"is_reserved":false,"is_disabled":false,"rental_uris":{"android":"levelo://app?vid=a5909545-3e09-4859-9fda-9ffe4e6e4883","ios":"levelo://app?vid=a5909545-3e09-4859-9fda-9ffe4e6e4883"},"vehicle_type_id":"4","last_reported":1732630189,"current_range_meters":31200,"station_id":"cpo3342slgdg3j2ifvpg","pricing_plan_id":"cebpf4jnsgd1na2vs0mg"},{"bike_id":"c6ebf3d4-bfbc-463a-84d1-84e4a5f78ee1","system_id":"levelo_inurba_marseille","lat":43.30178,"lon":5.36623,"is_reserved":false,"is_disabled":false,"rental_uris":{"android":"levelo://app?vid=c6ebf3d4-bfbc-463a-84d1-84e4a5f78ee1","ios":"levelo://app?vid=c6ebf3d4-bfbc-463a-84d1-84e4a5f78ee1"},"vehicle_type_id":"4","last_reported":1732630189,"current_range_meters":38800,"station_id":"ce4bgrh2rcd13ifvqc8g","pricing_plan_id":"cebpf4jnsgd1na2vs0mg"},{"bike_id":"b50dc91b-c137-48ea-93e1-d453609537ef","system_id":"levelo_inurba_marseille","lat":43.318909,"lon":5.379098,"is_reserved":false,"is_disabled":false,"rental_uris":{"android":"levelo://app?vid=b50dc91b-c137-48ea-93e1-d453609537ef","ios":"levelo://app?vid=b50dc91b-c137-48ea-93e1-d453609537ef"},"vehicle_type_id":"4","last_reported":1732630189,"current_range_meters":10000,"station_id":"ce4bhr12rcd13ifvqhpg","pricing_plan_id":"cebpf4jnsgd1na2vs0mg"},{"bike_id":"8b855d86-2674-4484-ad52-bb485bad7ee1","system_id":"levelo_inurba_marseille","lat":43.3054,"lon":5.36542,"is_reserved":false,"is_disabled":false,"rental_uris":{"android":"levelo://app?vid=8b855d86-2674-4484-ad52-bb485bad7ee1","ios":"levelo://app?vid=8b855d86-2674-4484-ad52-bb485bad7ee1"},"vehicle_type_id":"4","last_reported":1732630189,"current_range_meters":30400,"station_id":"ce4bgs12rcd13ifvqcag","pricing_plan_id":"cebpf4jnsgd1na2vs0mg"},{"bike_id":"fd4b4543-2713-4afb-bb3b-ea8fcec7aa7e","system_id":"levelo_inurba_marseille","lat":43.29985,"lon":5.37175,"is_reserved":false,"is_disabled":true,"rental_uris":{"android":"levelo://app?vid=fd4b4543-2713-4afb-bb3b-ea8fcec7aa7e","ios":"levelo://app?vid=fd4b4543-2713-4afb-bb3b-ea8fcec7aa7e"},"vehicle_type_id":"4","last_reported":1732630189,"current_range_meters":17200,"station_id":"ce4bgr92rcd13ifvqc7g","pricing_plan_id":"cebpf4jnsgd1na2vs0mg"},{"bike_id":"e5951ee3-4a5a-4ebb-b469-096c5188dfa3","system_id":"levelo_inurba_marseille","lat":43.23193,"lon":5.3556,"is_reserved":false,"is_disabled":false,"rental_uris":{"android":"levelo://app?vid=e5951ee3-4a5a-4ebb-b469-096c5188dfa3","ios":"levelo://app?vid=e5951ee3-4a5a-4ebb-b469-096c5188dfa3"},"vehicle_type_id":"4","last_reported":1732630189,"current_range_meters":36400,"station_id":"ce4bhu92rcd13ifvqi70","pricing_plan_id":"cebpf4jnsgd1na2vs0mg"},{"bike_id":"ab4e24c0-28e6-4210-95ed-fdffbe53d868","system_id":"levelo_inurba_marseille","lat":43.30947,"lon":5.39049,"is_reserved":false,"is_disabled":false,"rental_uris":{"android":"levelo://app?vid=ab4e24c0-28e6-4210-95ed-fdffbe53d868","ios":"levelo://app?vid=ab4e24c0-28e6-4210-95ed-fdffbe53d868"},"vehicle_type_id":"4","last_reported":1732630189,"current_range_meters":12800,"station_id":"ce4bgup2rcd13ifvqco0","pricing_plan_id":"cebpf4jnsgd1na2vs0mg"},{"bike_id":"f3465b37-c17a-45e5-b287-91ba7f371a28","system_id":"levelo_inurba_marseille","lat":43.2815,"lon":5.42656,"is_reserved":false,"is_disabled":false,"rental_uris":{"android":"levelo://app?vid=f3465b37-c17a-45e5-b287-91ba7f371a28","ios":"levelo://app?vid=f3465b37-c17a-45e5-b287-91ba7f371a28"},"vehicle_type_id":"4","last_reported":1732630189,"current_range_meters":33600,"station_id":"ce4bhnh2rcd13ifvqgug","pricing_plan_id":"cebpf4jnsgd1na2vs0mg"},{"bike_id":"fc3ddc91-a15a-4c32-adb1-e8b54d2a8525","system_id":"levelo_inurba_marseille","lat":43.27811,"lon":5.40716,"is_reserved":false,"is_disabled":false,"rental_uris":{"android":"levelo://app?vid=fc3ddc91-a15a-4c32-adb1-e8b54d2a8525","ios":"levelo://app?vid=fc3ddc91-a15a-4c32-adb1-e8b54d2a8525"},"vehicle_type_id":"4","last_reported":1732630189,"current_range_meters":19200,"station_id":"ce4bhnh2rcd13ifvqgtg","pricing_plan_id":"cebpf4jnsgd1na2vs0mg"},{"bike_id":"3379f44f-c07d-4ec3-b622-4c7ff9c0b74e","system_id":"levelo_inurba_marseille","lat":43.23197,"lon":5.35556,"is_reserved":false,"is_disabled":false,"rental_uris":{"android":"levelo://app?vid=3379f44f-c07d-4ec3-b622-4c7ff9c0b74e","ios":"levelo://app?vid=3379f44f-c07d-4ec3-b622-4c7ff9c0b74e"},"vehicle_type_id":"4","last_reported":1732630189,"current_range_meters":10000,"station_id":"ce4bhu92rcd13ifvqi70","pricing_plan_id":"cebpf4jnsgd1na2vs0mg"},{"bike_id":"6c948e9c-d5b3-4fe5-a918-1bd2f7c83b02","system_id":"levelo_inurba_marseille","lat":43.32118,"lon":5.3678,"is_reserved":false,"is_disabled":false,"rental_uris":{"android":"levelo://app?vid=6c948e9c-d5b3-4fe5-a918-1bd2f7c83b02","ios":"levelo://app?vid=6c948e9c-d5b3-4fe5-a918-1bd2f7c83b02"},"vehicle_type_id":"4","last_reported":1732630189,"current_range_meters":18000,"station_id":"ce4bhrh2rcd13ifvqhug","pricing_plan_id":"cebpf4jnsgd1na2vs0mg"},{"bike_id":"9e620abf-d324-4f99-84fc-d67e71109f2a","system_id":"levelo_inurba_marseille","lat":43.31077,"lon":5.42435,"is_reserved":false,"is_disabled":true,"rental_uris":{"android":"levelo://app?vid=9e620abf-d324-4f99-84fc-d67e71109f2a","ios":"levelo://app?vid=9e620abf-d324-4f99-84fc-d67e71109f2a"},"vehicle_type_id":"4","last_reported":1732630189,"current_range_meters":0,"station_id":"ce4bhp92rcd13ifvqhag","pricing_plan_id":"cebpf4jnsgd1na2vs0mg"},{"bike_id":"311c22a9-d002-4f76-a390-2ec196f39862","system_id":"levelo_inurba_marseille","lat":43.31025,"lon":5.38342,"is_reserved":false,"is_disabled":true,"rental_uris":{"android":"levelo://app?vid=311c22a9-d002-4f76-a390-2ec196f39862","ios":"levelo://app?vid=311c22a9-d002-4f76-a390-2ec196f39862"},"vehicle_type_id":"4","last_reported":1732630189,"current_range_meters":0,"station_id":"","pricing_plan_id":"cebpf4jnsgd1na2vs0mg"},{"bike_id":"9448dd07-b8f3-4ecf-ad04-f94974afaa23","system_id":"levelo_inurba_marseille","lat":43.337444,"lon":5.374475,"is_reserved":false,"is_disabled":false,"rental_uris":{"android":"levelo://app?vid=9448dd07-b8f3-4ecf-ad04-f94974afaa23","ios":"levelo://app?vid=9448dd07-b8f3-4ecf-ad04-f94974afaa23"},"vehicle_type_id":"4","last_reported":1732630189,"current_range_meters":38400,"station_id":"ce4bh012rcd13ifvqcv0","pricing_plan_id":"cebpf4jnsgd1na2vs0mg"},{"bike_id":"2c597bc7-6df4-4180-a040-7c669379722f","system_id":"levelo_inurba_marseille","lat":43.30543,"lon":5.36544,"is_reserved":false,"is_disabled":false,"rental_uris":{"android":"levelo://app?vid=2c597bc7-6df4-4180-a040-7c669379722f","ios":"levelo://app?vid=2c597bc7-6df4-4180-a040-7c669379722f"},"vehicle_type_id":"4","last_reported":1732630189,"current_range_meters":25600,"station_id":"ce4bgs12rcd13ifvqcag","pricing_plan_id":"cebpf4jnsgd1na2vs0mg"},{"bike_id":"107d1553-1acc-4f17-8626-ef661be3ffd9","system_id":"levelo_inurba_marseille","lat":43.2791,"lon":5.38726,"is_reserved":false,"is_disabled":false,"rental_uris":{"android":"levelo://app?vid=107d1553-1acc-4f17-8626-ef661be3ffd9","ios":"levelo://app?vid=107d1553-1acc-4f17-8626-ef661be3ffd9"},"vehicle_type_id":"4","last_reported":1732630189,"current_range_meters":29600,"station_id":"ce4bhg12rcd13ifvqf80","pricing_plan_id":"cebpf4jnsgd1na2vs0mg"},{"bike_id":"7b6efb5b-e6f3-4500-9cc5-ad0f2324468a","system_id":"levelo_inurba_marseille","lat":43.26486,"lon":5.39564,"is_reserved":false,"is_disabled":false,"rental_uris":{"android":"levelo://app?vid=7b6efb5b-e6f3-4500-9cc5-ad0f2324468a","ios":"levelo://app?vid=7b6efb5b-e6f3-4500-9cc5-ad0f2324468a"},"vehicle_type_id":"4","last_reported":1732630189,"current_range_meters":30000,"station_id":"ce4bhi12rcd13ifvqfq0","pricing_plan_id":"cebpf4jnsgd1na2vs0mg"},{"bike_id":"5c53cfbd-2547-413a-b79a-f8cc3b1ca992","system_id":"levelo_inurba_marseille","lat":43.32108,"lon":5.36782,"is_reserved":false,"is_disabled":false,"rental_uris":{"android":"levelo://app?vid=5c53cfbd-2547-413a-b79a-f8cc3b1ca992","ios":"levelo://app?vid=5c53cfbd-2547-413a-b79a-f8cc3b1ca992"},"vehicle_type_id":"4","last_reported":1732630189,"current_range_meters":32000,"station_id":"ce4bhrh2rcd13ifvqhug","pricing_plan_id":"cebpf4jnsgd1na2vs0mg"},{"bike_id":"a42119cb-2889-43e2-aa4f-9707a87e3e28","system_id":"levelo_inurba_marseille","lat":43.24654,"lon":5.38895,"is_reserved":false,"is_disabled":false,"rental_uris":{"android":"levelo://app?vid=a42119cb-2889-43e2-aa4f-9707a87e3e28","ios":"levelo://app?vid=a42119cb-2889-43e2-aa4f-9707a87e3e28"},"vehicle_type_id":"4","last_reported":1732630189,"current_range_meters":27600,"station_id":"ce4bhg12rcd13ifvqf60","pricing_plan_id":"cebpf4jnsgd1na2vs0mg"},{"bike_id":"381255b0-43e9-4289-8efa-89366a675155","system_id":"levelo_inurba_marseille","lat":43.30143,"lon":5.37424,"is_reserved":false,"is_disabled":false,"rental_uris":{"android":"levelo://app?vid=381255b0-43e9-4289-8efa-89366a675155","ios":"levelo://app?vid=381255b0-43e9-4289-8efa-89366a675155"},"vehicle_type_id":"4","last_reported":1732630189,"current_range_meters":16000,"station_id":"ce4bgs92rcd13ifvqcc0","pricing_plan_id":"cebpf4jnsgd1na2vs0mg"},{"bike_id":"d4bfcfd7-33e3-4a5b-8f7e-3321f76a7702","system_id":"levelo_inurba_marseille","lat":43.25564,"lon":5.38238,"is_reserved":false,"is_disabled":true,"rental_uris":{"android":"levelo://app?vid=d4bfcfd7-33e3-4a5b-8f7e-3321f76a7702","ios":"levelo://app?vid=d4bfcfd7-33e3-4a5b-8f7e-3321f76a7702"},"vehicle_type_id":"4","last_reported":1732630189,"current_range_meters":0,"station_id":"ce4bhih2rcd13ifvqfs0","pricing_plan_id":"cebpf4jnsgd1na2vs0mg"},{"bike_id":"ebc18241-6fe8-49c5-b90e-83937a48ffa5","system_id":"levelo_inurba_marseille","lat":43.28724,"lon":5.37936,"is_reserved":false,"is_disabled":false,"rental_uris":{"android":"levelo://app?vid=ebc18241-6fe8-49c5-b90e-83937a48ffa5","ios":"levelo://app?vid=ebc18241-6fe8-49c5-b90e-83937a48ffa5"},"vehicle_type_id":"4","last_reported":1732630189,"current_range_meters":38800,"station_id":"ce4bh9p2rcd13ifvqec0","pricing_plan_id":"cebpf4jnsgd1na2vs0mg"},{"bike_id":"59342d3f-bbb1-4489-aa72-0ffab505f59f","system_id":"levelo_inurba_marseille","lat":43.2648,"lon":5.39553,"is_reserved":false,"is_disabled":false,"rental_uris":{"android":"levelo://app?vid=59342d3f-bbb1-4489-aa72-0ffab505f59f","ios":"levelo://app?vid=59342d3f-bbb1-4489-aa72-0ffab505f59f"},"vehicle_type_id":"4","last_reported":1732630189,"current_range_meters":38800,"station_id":"ce4bhi12rcd13ifvqfq0","pricing_plan_id":"cebpf4jnsgd1na2vs0mg"},{"bike_id":"df773dc5-a184-4ebc-8085-dd9989ab64f4","system_id":"levelo_inurba_marseille","lat":43.23961,"lon":5.36642,"is_reserved":false,"is_disabled":false,"rental_uris":{"android":"levelo://app?vid=df773dc5-a184-4ebc-8085-dd9989ab64f4","ios":"levelo://app?vid=df773dc5-a184-4ebc-8085-dd9989ab64f4"},"vehicle_type_id":"4","last_reported":1732630189,"current_range_meters":5600,"station_id":"ce4bhi12rcd13ifvqfp0","pricing_plan_id":"cebpf4jnsgd1na2vs0mg"},{"bike_id":"66a20b70-8dfa-49c8-8562-6b00159c6a25","system_id":"levelo_inurba_marseille","lat":43.27964,"lon":5.38754,"is_reserved":false,"is_disabled":true,"rental_uris":{"android":"levelo://app?vid=66a20b70-8dfa-49c8-8562-6b00159c6a25","ios":"levelo://app?vid=66a20b70-8dfa-49c8-8562-6b00159c6a25"},"vehicle_type_id":"4","last_reported":1732630189,"current_range_meters":1200,"station_id":"ce4bhg12rcd13ifvqf80","pricing_plan_id":"cebpf4jnsgd1na2vs0mg"},{"bike_id":"276c8eac-f26f-4d52-8494-1e5f39f12889","system_id":"levelo_inurba_marseille","lat":43.25577,"lon":5.38236,"is_reserved":false,"is_disabled":true,"rental_uris":{"android":"levelo://app?vid=276c8eac-f26f-4d52-8494-1e5f39f12889","ios":"levelo://app?vid=276c8eac-f26f-4d52-8494-1e5f39f12889"},"vehicle_type_id":"4","last_reported":1732630189,"current_range_meters":0,"station_id":"ce4bhih2rcd13ifvqfs0","pricing_plan_id":"cebpf4jnsgd1na2vs0mg"},{"bike_id":"8eeb8d10-d439-4383-83f9-0c746b9f6b8d","system_id":"levelo_inurba_marseille","lat":43.2799,"lon":5.41659,"is_reserved":false,"is_disabled":false,"rental_uris":{"android":"levelo://app?vid=8eeb8d10-d439-4383-83f9-0c746b9f6b8d","ios":"levelo://app?vid=8eeb8d10-d439-4383-83f9-0c746b9f6b8d"},"vehicle_type_id":"4","last_reported":1732630189,"current_range_meters":25600,"station_id":"ce4bho12rcd13ifvqh1g","pricing_plan_id":"cebpf4jnsgd1na2vs0mg"},{"bike_id":"cb7901b7-c174-4223-b92b-8be1e6962981","system_id":"levelo_inurba_marseille","lat":43.27378,"lon":5.36259,"is_reserved":false,"is_disabled":false,"rental_uris":{"android":"levelo://app?vid=cb7901b7-c174-4223-b92b-8be1e6962981","ios":"levelo://app?vid=cb7901b7-c174-4223-b92b-8be1e6962981"},"vehicle_type_id":"4","last_reported":1732630189,"current_range_meters":29600,"station_id":"ce4bhbh2rcd13ifvqeo0","pricing_plan_id":"cebpf4jnsgd1na2vs0mg"},{"bike_id":"40c7ddb8-0e1a-4eb1-9e2f-d3bf1a0f9d1e","system_id":"levelo_inurba_marseille","lat":43.28267,"lon":5.35074,"is_reserved":false,"is_disabled":false,"rental_uris":{"android":"levelo://app?vid=40c7ddb8-0e1a-4eb1-9e2f-d3bf1a0f9d1e","ios":"levelo://app?vid=40c7ddb8-0e1a-4eb1-9e2f-d3bf1a0f9d1e"},"vehicle_type_id":"4","last_reported":1732630189,"current_range_meters":20000,"station_id":"ce4bhbp2rcd13ifvqerg","pricing_plan_id":"cebpf4jnsgd1na2vs0mg"},{"bike_id":"46ac22a8-6f10-4221-98a6-34eba5c97bfb","system_id":"levelo_inurba_marseille","lat":43.29188,"lon":5.37308,"is_reserved":false,"is_disabled":true,"rental_uris":{"android":"levelo://app?vid=46ac22a8-6f10-4221-98a6-34eba5c97bfb","ios":"levelo://app?vid=46ac22a8-6f10-4221-98a6-34eba5c97bfb"},"vehicle_type_id":"4","last_reported":1732630189,"current_range_meters":0,"station_id":"","pricing_plan_id":"cebpf4jnsgd1na2vs0mg"},{"bike_id":"3ef12194-3374-4f45-b794-5c7fc11505cb","system_id":"levelo_inurba_marseille","lat":43.2315,"lon":5.43725,"is_reserved":false,"is_disabled":false,"rental_uris":{"android":"levelo://app?vid=3ef12194-3374-4f45-b794-5c7fc11505cb","ios":"levelo://app?vid=3ef12194-3374-4f45-b794-5c7fc11505cb"},"vehicle_type_id":"4","last_reported":1732630189,"current_range_meters":8800,"station_id":"ce4bhmp2rcd13ifvqgog","pricing_plan_id":"cebpf4jnsgd1na2vs0mg"},{"bike_id":"2cf8ab33-d6dc-4f38-86b3-06957150aa4d","system_id":"levelo_inurba_marseille","lat":43.2989,"lon":5.38161,"is_reserved":false,"is_disabled":false,"rental_uris":{"android":"levelo://app?vid=2cf8ab33-d6dc-4f38-86b3-06957150aa4d","ios":"levelo://app?vid=2cf8ab33-d6dc-4f38-86b3-06957150aa4d"},"vehicle_type_id":"4","last_reported":1732630189,"current_range_meters":34800,"station_id":"ce4bgj12rcd13ifvqbc0","pricing_plan_id":"cebpf4jnsgd1na2vs0mg"},{"bike_id":"43746d86-8a13-4845-9faf-ae69b548d714","system_id":"levelo_inurba_marseille","lat":43.29459,"lon":5.37917,"is_reserved":false,"is_disabled":true,"rental_uris":{"android":"levelo://app?vid=43746d86-8a13-4845-9faf-ae69b548d714","ios":"levelo://app?vid=43746d86-8a13-4845-9faf-ae69b548d714"},"vehicle_type_id":"4","last_reported":1732630189,"current_range_meters":0,"station_id":"","pricing_plan_id":"cebpf4jnsgd1na2vs0mg"},{"bike_id":"e6a98e09-efc5-4507-9fb0-a56012aa8712","system_id":"levelo_inurba_marseille","lat":43.28152,"lon":5.42652,"is_reserved":false,"is_disabled":true,"rental_uris":{"android":"levelo://app?vid=e6a98e09-efc5-4507-9fb0-a56012aa8712","ios":"levelo://app?vid=e6a98e09-efc5-4507-9fb0-a56012aa8712"},"vehicle_type_id":"4","last_reported":1732630189,"current_range_meters":0,"station_id":"ce4bhnh2rcd13ifvqgug","pricing_plan_id":"cebpf4jnsgd1na2vs0mg"},{"bike_id":"929c7fc3-dab3-49d9-9778-b7a2be0fbf36","system_id":"levelo_inurba_marseille","lat":43.29211,"lon":5.36051,"is_reserved":false,"is_disabled":false,"rental_uris":{"android":"levelo://app?vid=929c7fc3-dab3-49d9-9778-b7a2be0fbf36","ios":"levelo://app?vid=929c7fc3-dab3-49d9-9778-b7a2be0fbf36"},"vehicle_type_id":"4","last_reported":1732630189,"current_range_meters":38800,"station_id":"ce4bhbh2rcd13ifvqeqg","pricing_plan_id":"cebpf4jnsgd1na2vs0mg"},{"bike_id":"bdaba90d-36d4-43b6-b43e-6971cf03dfaf","system_id":"levelo_inurba_marseille","lat":43.24803,"lon":5.37457,"is_reserved":false,"is_disabled":false,"rental_uris":{"android":"levelo://app?vid=bdaba90d-36d4-43b6-b43e-6971cf03dfaf","ios":"levelo://app?vid=bdaba90d-36d4-43b6-b43e-6971cf03dfaf"},"vehicle_type_id":"4","last_reported":1732630189,"current_range_meters":8400,"station_id":"ce4bhgh2rcd13ifvqfb0","pricing_plan_id":"cebpf4jnsgd1na2vs0mg"},{"bike_id":"d525cc6e-82f8-411a-9cb8-b640ac9e5a3e","system_id":"levelo_inurba_marseille","lat":43.27838,"lon":5.39211,"is_reserved":false,"is_disabled":false,"rental_uris":{"android":"levelo://app?vid=d525cc6e-82f8-411a-9cb8-b640ac9e5a3e","ios":"levelo://app?vid=d525cc6e-82f8-411a-9cb8-b640ac9e5a3e"},"vehicle_type_id":"4","last_reported":1732630189,"current_range_meters":28800,"station_id":"ce4bhjp2rcd13ifvqga0","pricing_plan_id":"cebpf4jnsgd1na2vs0mg"},{"bike_id":"f971abee-70f8-43dc-afe4-4050ccc8c3f7","system_id":"levelo_inurba_marseille","lat":43.25856,"lon":5.39943,"is_reserved":false,"is_disabled":true,"rental_uris":{"android":"levelo://app?vid=f971abee-70f8-43dc-afe4-4050ccc8c3f7","ios":"levelo://app?vid=f971abee-70f8-43dc-afe4-4050ccc8c3f7"},"vehicle_type_id":"4","last_reported":1732630189,"current_range_meters":36400,"station_id":"ce4bhl92rcd13ifvqghg","pricing_plan_id":"cebpf4jnsgd1na2vs0mg"},{"bike_id":"e9077ff7-d50f-4185-b35f-09d20b4a6995","system_id":"levelo_inurba_marseille","lat":43.29194,"lon":5.39319,"is_reserved":false,"is_disabled":false,"rental_uris":{"android":"levelo://app?vid=e9077ff7-d50f-4185-b35f-09d20b4a6995","ios":"levelo://app?vid=e9077ff7-d50f-4185-b35f-09d20b4a6995"},"vehicle_type_id":"4","last_reported":1732630189,"current_range_meters":34000,"station_id":"ce4bh192rcd13ifvqdd0","pricing_plan_id":"cebpf4jnsgd1na2vs0mg"},{"bike_id":"9dad2b1a-7ce2-48b7-a3ec-7517b6a7e23f","system_id":"levelo_inurba_marseille","lat":43.2846,"lon":5.38423,"is_reserved":false,"is_disabled":false,"rental_uris":{"android":"levelo://app?vid=9dad2b1a-7ce2-48b7-a3ec-7517b6a7e23f","ios":"levelo://app?vid=9dad2b1a-7ce2-48b7-a3ec-7517b6a7e23f"},"vehicle_type_id":"4","last_reported":1732630189,"current_range_meters":38400,"station_id":"ce4bh512rcd13ifvqe3g","pricing_plan_id":"cebpf4jnsgd1na2vs0mg"},{"bike_id":"5f125fd8-b5ec-4c8d-a5ef-19eee41649ae","system_id":"levelo_inurba_marseille","lat":43.30131,"lon":5.38791,"is_reserved":false,"is_disabled":true,"rental_uris":{"android":"levelo://app?vid=5f125fd8-b5ec-4c8d-a5ef-19eee41649ae","ios":"levelo://app?vid=5f125fd8-b5ec-4c8d-a5ef-19eee41649ae"},"vehicle_type_id":"4","last_reported":1732630189,"current_range_meters":0,"station_id":"ce4bghh2rcd13ifvqb60","pricing_plan_id":"cebpf4jnsgd1na2vs0mg"},{"bike_id":"009336f4-5ee2-45a2-8c91-081daf87f0b4","system_id":"levelo_inurba_marseille","lat":43.30141,"lon":5.38072,"is_reserved":false,"is_disabled":false,"rental_uris":{"android":"levelo://app?vid=009336f4-5ee2-45a2-8c91-081daf87f0b4","ios":"levelo://app?vid=009336f4-5ee2-45a2-8c91-081daf87f0b4"},"vehicle_type_id":"4","last_reported":1732630189,"current_range_meters":15200,"station_id":"ce4bgjp2rcd13ifvqbh0","pricing_plan_id":"cebpf4jnsgd1na2vs0mg"},{"bike_id":"a077a7bd-d44b-4ca0-96c1-49693516b3b4","system_id":"levelo_inurba_marseille","lat":43.33766,"lon":5.37432,"is_reserved":false,"is_disabled":false,"rental_uris":{"android":"levelo://app?vid=a077a7bd-d44b-4ca0-96c1-49693516b3b4","ios":"levelo://app?vid=a077a7bd-d44b-4ca0-96c1-49693516b3b4"},"vehicle_type_id":"4","last_reported":1732630189,"current_range_meters":38800,"station_id":"","pricing_plan_id":"cebpf4jnsgd1na2vs0mg"},{"bike_id":"e3a9ff25-e192-4aec-af57-758c56bd5f8b","system_id":"levelo_inurba_marseille","lat":43.26033,"lon":5.37548,"is_reserved":false,"is_disabled":false,"rental_uris":{"android":"levelo://app?vid=e3a9ff25-e192-4aec-af57-758c56bd5f8b","ios":"levelo://app?vid=e3a9ff25-e192-4aec-af57-758c56bd5f8b"},"vehicle_type_id":"4","last_reported":1732630189,"current_range_meters":24400,"station_id":"ce4bhgh2rcd13ifvqfa0","pricing_plan_id":"cebpf4jnsgd1na2vs0mg"},{"bike_id":"60366b91-dfba-451c-b2f1-0c2a18308bdf","system_id":"levelo_inurba_marseille","lat":43.22929,"lon":5.35378,"is_reserved":false,"is_disabled":false,"rental_uris":{"android":"levelo://app?vid=60366b91-dfba-451c-b2f1-0c2a18308bdf","ios":"levelo://app?vid=60366b91-dfba-451c-b2f1-0c2a18308bdf"},"vehicle_type_id":"4","last_reported":1732630189,"current_range_meters":28800,"station_id":"cpo3532slgdg3j2ikp40","pricing_plan_id":"cebpf4jnsgd1na2vs0mg"},{"bike_id":"9666ce30-5f2f-4332-a708-df17ba16a1d5","system_id":"levelo_inurba_marseille","lat":43.32474,"lon":5.36569,"is_reserved":false,"is_disabled":false,"rental_uris":{"android":"levelo://app?vid=9666ce30-5f2f-4332-a708-df17ba16a1d5","ios":"levelo://app?vid=9666ce30-5f2f-4332-a708-df17ba16a1d5"},"vehicle_type_id":"4","last_reported":1732630189,"current_range_meters":23200,"station_id":"ce4bhs12rcd13ifvqhvg","pricing_plan_id":"cebpf4jnsgd1na2vs0mg"},{"bike_id":"0ccb827f-a3eb-41a6-a281-74d977e8e37a","system_id":"levelo_inurba_marseille","lat":43.33025,"lon":5.39042,"is_reserved":false,"is_disabled":false,"rental_uris":{"android":"levelo://app?vid=0ccb827f-a3eb-41a6-a281-74d977e8e37a","ios":"levelo://app?vid=0ccb827f-a3eb-41a6-a281-74d977e8e37a"},"vehicle_type_id":"4","last_reported":1732630189,"current_range_meters":12400,"station_id":"ce4bhr92rcd13ifvqhrg","pricing_plan_id":"cebpf4jnsgd1na2vs0mg"},{"bike_id":"5637ffac-6061-4504-94a5-bbd993e9ac58","system_id":"levelo_inurba_marseille","lat":43.23192,"lon":5.35557,"is_reserved":false,"is_disabled":false,"rental_uris":{"android":"levelo://app?vid=5637ffac-6061-4504-94a5-bbd993e9ac58","ios":"levelo://app?vid=5637ffac-6061-4504-94a5-bbd993e9ac58"},"vehicle_type_id":"4","last_reported":1732630189,"current_range_meters":24000,"station_id":"ce4bhu92rcd13ifvqi70","pricing_plan_id":"cebpf4jnsgd1na2vs0mg"},{"bike_id":"d498a2e4-830c-4b49-aa93-4db145106d2d","system_id":"levelo_inurba_marseille","lat":43.2872,"lon":5.37934,"is_reserved":false,"is_disabled":false,"rental_uris":{"android":"levelo://app?vid=d498a2e4-830c-4b49-aa93-4db145106d2d","ios":"levelo://app?vid=d498a2e4-830c-4b49-aa93-4db145106d2d"},"vehicle_type_id":"4","last_reported":1732630189,"current_range_meters":38800,"station_id":"ce4bh9p2rcd13ifvqec0","pricing_plan_id":"cebpf4jnsgd1na2vs0mg"},{"bike_id":"4e6d2767-aa1b-4287-87c4-4e9275a17f78","system_id":"levelo_inurba_marseille","lat":43.30234,"lon":5.4005,"is_reserved":false,"is_disabled":true,"rental_uris":{"android":"levelo://app?vid=4e6d2767-aa1b-4287-87c4-4e9275a17f78","ios":"levelo://app?vid=4e6d2767-aa1b-4287-87c4-4e9275a17f78"},"vehicle_type_id":"4","last_reported":1732630189,"current_range_meters":0,"station_id":"","pricing_plan_id":"cebpf4jnsgd1na2vs0mg"},{"bike_id":"18a512c8-90e4-4472-8c9b-69064fb2e2fb","system_id":"levelo_inurba_marseille","lat":43.29622,"lon":5.3775,"is_reserved":false,"is_disabled":false,"rental_uris":{"android":"levelo://app?vid=18a512c8-90e4-4472-8c9b-69064fb2e2fb","ios":"levelo://app?vid=18a512c8-90e4-4472-8c9b-69064fb2e2fb"},"vehicle_type_id":"4","last_reported":1732630189,"current_range_meters":17600,"station_id":"ce4bgi92rcd13ifvqb90","pricing_plan_id":"cebpf4jnsgd1na2vs0mg"},{"bike_id":"bd65ef63-b11f-4434-94d0-b65a0721f25b","system_id":"levelo_inurba_marseille","lat":43.30416,"lon":5.41295,"is_reserved":false,"is_disabled":false,"rental_uris":{"android":"levelo://app?vid=bd65ef63-b11f-4434-94d0-b65a0721f25b","ios":"levelo://app?vid=bd65ef63-b11f-4434-94d0-b65a0721f25b"},"vehicle_type_id":"4","last_reported":1732630189,"current_range_meters":38800,"station_id":"ce4bhop2rcd13ifvqh8g","pricing_plan_id":"cebpf4jnsgd1na2vs0mg"},{"bike_id":"3a19d45d-a757-417c-b54e-92314bcfae61","system_id":"levelo_inurba_marseille","lat":43.26951,"lon":5.38627,"is_reserved":false,"is_disabled":true,"rental_uris":{"android":"levelo://app?vid=3a19d45d-a757-417c-b54e-92314bcfae61","ios":"levelo://app?vid=3a19d45d-a757-417c-b54e-92314bcfae61"},"vehicle_type_id":"4","last_reported":1732630189,"current_range_meters":0,"station_id":"ce4bhh92rcd13ifvqfh0","pricing_plan_id":"cebpf4jnsgd1na2vs0mg"},{"bike_id":"bb592f80-0348-48b6-a3bf-78d6aa7168fa","system_id":"levelo_inurba_marseille","lat":43.26168,"lon":5.38737,"is_reserved":false,"is_disabled":true,"rental_uris":{"android":"levelo://app?vid=bb592f80-0348-48b6-a3bf-78d6aa7168fa","ios":"levelo://app?vid=bb592f80-0348-48b6-a3bf-78d6aa7168fa"},"vehicle_type_id":"4","last_reported":1732630189,"current_range_meters":7200,"station_id":"","pricing_plan_id":"cebpf4jnsgd1na2vs0mg"},{"bike_id":"12374fc7-5d05-4497-a57d-c04c009baf58","system_id":"levelo_inurba_marseille","lat":43.26036,"lon":5.37554,"is_reserved":false,"is_disabled":false,"rental_uris":{"android":"levelo://app?vid=12374fc7-5d05-4497-a57d-c04c009baf58","ios":"levelo://app?vid=12374fc7-5d05-4497-a57d-c04c009baf58"},"vehicle_type_id":"4","last_reported":1732630189,"current_range_meters":30800,"station_id":"ce4bhgh2rcd13ifvqfa0","pricing_plan_id":"cebpf4jnsgd1na2vs0mg"},{"bike_id":"8f216690-02c8-43b0-b814-319bfda87bbd","system_id":"levelo_inurba_marseille","lat":43.29039,"lon":5.37572,"is_reserved":false,"is_disabled":false,"rental_uris":{"android":"levelo://app?vid=8f216690-02c8-43b0-b814-319bfda87bbd","ios":"levelo://app?vid=8f216690-02c8-43b0-b814-319bfda87bbd"},"vehicle_type_id":"4","last_reported":1732630189,"current_range_meters":38000,"station_id":"ce4bh692rcd13ifvqe90","pricing_plan_id":"cebpf4jnsgd1na2vs0mg"},{"bike_id":"445a7b2b-960f-401b-be5e-d50cebe72426","system_id":"levelo_inurba_marseille","lat":43.29553,"lon":5.42291,"is_reserved":false,"is_disabled":false,"rental_uris":{"android":"levelo://app?vid=445a7b2b-960f-401b-be5e-d50cebe72426","ios":"levelo://app?vid=445a7b2b-960f-401b-be5e-d50cebe72426"},"vehicle_type_id":"4","last_reported":1732630189,"current_range_meters":38800,"station_id":"ce4bhph2rcd13ifvqhdg","pricing_plan_id":"cebpf4jnsgd1na2vs0mg"},{"bike_id":"c3119d11-ef1f-44cf-b2d7-09e415adb754","system_id":"levelo_inurba_marseille","lat":43.28567,"lon":5.395,"is_reserved":false,"is_disabled":false,"rental_uris":{"android":"levelo://app?vid=c3119d11-ef1f-44cf-b2d7-09e415adb754","ios":"levelo://app?vid=c3119d11-ef1f-44cf-b2d7-09e415adb754"},"vehicle_type_id":"4","last_reported":1732630189,"current_range_meters":37600,"station_id":"ce4bh292rcd13ifvqdg0","pricing_plan_id":"cebpf4jnsgd1na2vs0mg"},{"bike_id":"6de10b34-94aa-4ef9-ac82-a7dae912bbb0","system_id":"levelo_inurba_marseille","lat":43.24174,"lon":5.39725,"is_reserved":false,"is_disabled":false,"rental_uris":{"android":"levelo://app?vid=6de10b34-94aa-4ef9-ac82-a7dae912bbb0","ios":"levelo://app?vid=6de10b34-94aa-4ef9-ac82-a7dae912bbb0"},"vehicle_type_id":"4","last_reported":1732630189,"current_range_meters":38800,"station_id":"ce4bhn12rcd13ifvqgpg","pricing_plan_id":"cebpf4jnsgd1na2vs0mg"},{"bike_id":"daffd5e3-e43d-4d97-b665-099127b2a0a1","system_id":"levelo_inurba_marseille","lat":43.26484,"lon":5.39547,"is_reserved":false,"is_disabled":true,"rental_uris":{"android":"levelo://app?vid=daffd5e3-e43d-4d97-b665-099127b2a0a1","ios":"levelo://app?vid=daffd5e3-e43d-4d97-b665-099127b2a0a1"},"vehicle_type_id":"4","last_reported":1732630189,"current_range_meters":0,"station_id":"ce4bhi12rcd13ifvqfq0","pricing_plan_id":"cebpf4jnsgd1na2vs0mg"},{"bike_id":"35721010-0501-4d23-9637-688c6912beae","system_id":"levelo_inurba_marseille","lat":43.26208,"lon":5.37442,"is_reserved":false,"is_disabled":false,"rental_uris":{"android":"levelo://app?vid=35721010-0501-4d23-9637-688c6912beae","ios":"levelo://app?vid=35721010-0501-4d23-9637-688c6912beae"},"vehicle_type_id":"4","last_reported":1732630189,"current_range_meters":36800,"station_id":"ce4bhgp2rcd13ifvqfc0","pricing_plan_id":"cebpf4jnsgd1na2vs0mg"},{"bike_id":"7e04bb67-c24d-44da-93e9-2e0567bf10fa","system_id":"levelo_inurba_marseille","lat":43.23152,"lon":5.43713,"is_reserved":false,"is_disabled":true,"rental_uris":{"android":"levelo://app?vid=7e04bb67-c24d-44da-93e9-2e0567bf10fa","ios":"levelo://app?vid=7e04bb67-c24d-44da-93e9-2e0567bf10fa"},"vehicle_type_id":"4","last_reported":1732630189,"current_range_meters":0,"station_id":"ce4bhmp2rcd13ifvqgog","pricing_plan_id":"cebpf4jnsgd1na2vs0mg"},{"bike_id":"0e21d9a9-8fc5-473b-95cf-c981eb91ab63","system_id":"levelo_inurba_marseille","lat":43.24544,"lon":5.39529,"is_reserved":false,"is_disabled":false,"rental_uris":{"android":"levelo://app?vid=0e21d9a9-8fc5-473b-95cf-c981eb91ab63","ios":"levelo://app?vid=0e21d9a9-8fc5-473b-95cf-c981eb91ab63"},"vehicle_type_id":"4","last_reported":1732630189,"current_range_meters":17200,"station_id":"ce4bhlp2rcd13ifvqgjg","pricing_plan_id":"cebpf4jnsgd1na2vs0mg"},{"bike_id":"6db206cb-0668-4eaf-890a-70aa7c08dcaa","system_id":"levelo_inurba_marseille","lat":43.23178,"lon":5.39992,"is_reserved":false,"is_disabled":false,"rental_uris":{"android":"levelo://app?vid=6db206cb-0668-4eaf-890a-70aa7c08dcaa","ios":"levelo://app?vid=6db206cb-0668-4eaf-890a-70aa7c08dcaa"},"vehicle_type_id":"4","last_reported":1732630189,"current_range_meters":38800,"station_id":"ce4bhn12rcd13ifvqgqg","pricing_plan_id":"cebpf4jnsgd1na2vs0mg"},{"bike_id":"4503cb0e-1da9-4e5d-af2d-42ac227fddcc","system_id":"levelo_inurba_marseille","lat":43.29005,"lon":5.38627,"is_reserved":false,"is_disabled":false,"rental_uris":{"android":"levelo://app?vid=4503cb0e-1da9-4e5d-af2d-42ac227fddcc","ios":"levelo://app?vid=4503cb0e-1da9-4e5d-af2d-42ac227fddcc"},"vehicle_type_id":"4","last_reported":1732630189,"current_range_meters":38800,"station_id":"ce4bh4p2rcd13ifvqe0g","pricing_plan_id":"cebpf4jnsgd1na2vs0mg"},{"bike_id":"533ff2fd-94c4-4abb-8ef6-108fb4d5019e","system_id":"levelo_inurba_marseille","lat":43.2886,"lon":5.39324,"is_reserved":false,"is_disabled":false,"rental_uris":{"android":"levelo://app?vid=533ff2fd-94c4-4abb-8ef6-108fb4d5019e","ios":"levelo://app?vid=533ff2fd-94c4-4abb-8ef6-108fb4d5019e"},"vehicle_type_id":"4","last_reported":1732630189,"current_range_meters":33200,"station_id":"ce4bh2p2rcd13ifvqdi0","pricing_plan_id":"cebpf4jnsgd1na2vs0mg"},{"bike_id":"e4395f26-4c0b-4bec-b10e-ec01132237c1","system_id":"levelo_inurba_marseille","lat":43.27171,"lon":5.410007,"is_reserved":false,"is_disabled":true,"rental_uris":{"android":"levelo://app?vid=e4395f26-4c0b-4bec-b10e-ec01132237c1","ios":"levelo://app?vid=e4395f26-4c0b-4bec-b10e-ec01132237c1"},"vehicle_type_id":"4","last_reported":1732630189,"current_range_meters":0,"station_id":"ce4bhl12rcd13ifvqgf0","pricing_plan_id":"cebpf4jnsgd1na2vs0mg"},{"bike_id":"de3730fd-d9bf-4e71-8fc3-dc71ed9b8b5f","system_id":"levelo_inurba_marseille","lat":43.23156,"lon":5.43705,"is_reserved":false,"is_disabled":false,"rental_uris":{"android":"levelo://app?vid=de3730fd-d9bf-4e71-8fc3-dc71ed9b8b5f","ios":"levelo://app?vid=de3730fd-d9bf-4e71-8fc3-dc71ed9b8b5f"},"vehicle_type_id":"4","last_reported":1732630189,"current_range_meters":37600,"station_id":"ce4bhmp2rcd13ifvqgog","pricing_plan_id":"cebpf4jnsgd1na2vs0mg"},{"bike_id":"b69cb211-a8b2-40a7-bff7-101ad42fe018","system_id":"levelo_inurba_marseille","lat":43.28729,"lon":5.37925,"is_reserved":false,"is_disabled":true,"rental_uris":{"android":"levelo://app?vid=b69cb211-a8b2-40a7-bff7-101ad42fe018","ios":"levelo://app?vid=b69cb211-a8b2-40a7-bff7-101ad42fe018"},"vehicle_type_id":"4","last_reported":1732630189,"current_range_meters":0,"station_id":"ce4bh9p2rcd13ifvqec0","pricing_plan_id":"cebpf4jnsgd1na2vs0mg"},{"bike_id":"63eaf67d-9cc2-4fea-9df3-e96126502a0e","system_id":"levelo_inurba_marseille","lat":43.28976,"lon":5.37833,"is_reserved":false,"is_disabled":true,"rental_uris":{"android":"levelo://app?vid=63eaf67d-9cc2-4fea-9df3-e96126502a0e","ios":"levelo://app?vid=63eaf67d-9cc2-4fea-9df3-e96126502a0e"},"vehicle_type_id":"4","last_reported":1732630189,"current_range_meters":10000,"station_id":"ce4bh9p2rcd13ifvqed0","pricing_plan_id":"cebpf4jnsgd1na2vs0mg"},{"bike_id":"d2612e77-1ecd-45ff-b888-9974fa4cc3cd","system_id":"levelo_inurba_marseille","lat":43.28094,"lon":5.37843,"is_reserved":false,"is_disabled":true,"rental_uris":{"android":"levelo://app?vid=d2612e77-1ecd-45ff-b888-9974fa4cc3cd","ios":"levelo://app?vid=d2612e77-1ecd-45ff-b888-9974fa4cc3cd"},"vehicle_type_id":"4","last_reported":1732630189,"current_range_meters":25600,"station_id":"ce4bha12rcd13ifvqee0","pricing_plan_id":"cebpf4jnsgd1na2vs0mg"},{"bike_id":"6185365d-92d4-4dc7-af17-9e451b39ae03","system_id":"levelo_inurba_marseille","lat":43.26063,"lon":5.39399,"is_reserved":false,"is_disabled":false,"rental_uris":{"android":"levelo://app?vid=6185365d-92d4-4dc7-af17-9e451b39ae03","ios":"levelo://app?vid=6185365d-92d4-4dc7-af17-9e451b39ae03"},"vehicle_type_id":"4","last_reported":1732630189,"current_range_meters":21600,"station_id":"ce4bhh92rcd13ifvqfj0","pricing_plan_id":"cebpf4jnsgd1na2vs0mg"},{"bike_id":"ff447194-4f6b-4fa7-95da-c35e270a5a3d","system_id":"levelo_inurba_marseille","lat":43.28725,"lon":5.400043,"is_reserved":false,"is_disabled":false,"rental_uris":{"android":"levelo://app?vid=ff447194-4f6b-4fa7-95da-c35e270a5a3d","ios":"levelo://app?vid=ff447194-4f6b-4fa7-95da-c35e270a5a3d"},"vehicle_type_id":"4","last_reported":1732630189,"current_range_meters":29600,"station_id":"ce4bho92rcd13ifvqh3g","pricing_plan_id":"cebpf4jnsgd1na2vs0mg"},{"bike_id":"7fa2e0c4-93ef-4dd8-94bd-ece0f6fefe99","system_id":"levelo_inurba_marseille","lat":43.2315,"lon":5.43724,"is_reserved":false,"is_disabled":false,"rental_uris":{"android":"levelo://app?vid=7fa2e0c4-93ef-4dd8-94bd-ece0f6fefe99","ios":"levelo://app?vid=7fa2e0c4-93ef-4dd8-94bd-ece0f6fefe99"},"vehicle_type_id":"4","last_reported":1732630189,"current_range_meters":20400,"station_id":"ce4bhmp2rcd13ifvqgog","pricing_plan_id":"cebpf4jnsgd1na2vs0mg"},{"bike_id":"3629a32f-a709-4a11-9106-5e7f0ff28e81","system_id":"levelo_inurba_marseille","lat":43.27032,"lon":5.40711,"is_reserved":false,"is_disabled":true,"rental_uris":{"android":"levelo://app?vid=3629a32f-a709-4a11-9106-5e7f0ff28e81","ios":"levelo://app?vid=3629a32f-a709-4a11-9106-5e7f0ff28e81"},