{"last_updated":1729059181,"ttl":60,"version":"2.2","data":{"bikes":[{"bike_id":"961d5316-eabe-4753-bd59-25446c37a098","system_id":"levelo_inurba_marseille","lat":43.30595,"lon":5.39355,"is_reserved":false,"is_disabled":false,"rental_uris":{"android":"levelo://app?vid=961d5316-eabe-4753-bd59-25446c37a098","ios":"levelo://app?vid=961d5316-eabe-4753-bd59-25446c37a098"},"vehicle_type_id":"4","last_reported":1729059181,"current_range_meters":36000,"station_id":"ce4bgip2rcd13ifvqbb0","pricing_plan_id":"cebpf4jnsgd1na2vs0mg"},{"bike_id":"66379f2c-c1c8-4683-a252-ed84c21d525c","system_id":"levelo_inurba_marseille","lat":43.27071,"lon":5.42281,"is_reserved":false,"is_disabled":false,"rental_uris":{"android":"levelo://app?vid=66379f2c-c1c8-4683-a252-ed84c21d525c","ios":"levelo://app?vid=66379f2c-c1c8-4683-a252-ed84c21d525c"},"vehicle_type_id":"4","last_reported":1729059181,"current_range_meters":29600,"station_id":"ce4bhk92rcd13ifvqgb0","pricing_plan_id":"cebpf4jnsgd1na2vs0mg"},{"bike_id":"59277583-c6e6-42b2-9e1b-aa0815e80425","system_id":"levelo_inurba_marseille","lat":43.30269,"lon":5.37696,"is_reserved":false,"is_disabled":false,"rental_uris":{"android":"levelo://app?vid=59277583-c6e6-42b2-9e1b-aa0815e80425","ios":"levelo://app?vid=59277583-c6e6-42b2-9e1b-aa0815e80425"},"vehicle_type_id":"4","last_reported":1729059181,"current_range_meters":37600,"station_id":"ce4bguh2rcd13ifvqcj0","pricing_plan_id":"cebpf4jnsgd1na2vs0mg"},{"bike_id":"5002f4ca-68aa-4a9a-bbfb-321dee34c575","system_id":"levelo_inurba_marseille","lat":43.25938,"lon":5.40903,"is_reserved":false,"is_disabled":false,"rental_uris":{"android":"levelo://app?vid=5002f4ca-68aa-4a9a-bbfb-321dee34c575","ios":"levelo://app?vid=5002f4ca-68aa-4a9a-bbfb-321dee34c575"},"vehicle_type_id":"4","last_reported":1729059181,"current_range_meters":23200,"station_id":"ce4bhm92rcd13ifvqglg","pricing_plan_id":"cebpf4jnsgd1na2vs0mg"},{"bike_id":"805cf10d-9632-4f1a-9f3a-80b24a4fbac6","system_id":"levelo_inurba_marseille","lat":43.29779,"lon":5.41295,"is_reserved":false,"is_disabled":false,"rental_uris":{"android":"levelo://app?vid=805cf10d-9632-4f1a-9f3a-80b24a4fbac6","ios":"levelo://app?vid=805cf10d-9632-4f1a-9f3a-80b24a4fbac6"},"vehicle_type_id":"4","last_reported":1729059181,"current_range_meters":6400,"station_id":"","pricing_plan_id":"cebpf4jnsgd1na2vs0mg"},{"bike_id":"12334f6a-5f62-4c68-b643-1dcd21be38a1","system_id":"levelo_inurba_marseille","lat":43.29302,"lon":5.37462,"is_reserved":false,"is_disabled":false,"rental_uris":{"android":"levelo://app?vid=12334f6a-5f62-4c68-b643-1dcd21be38a1","ios":"levelo://app?vid=12334f6a-5f62-4c68-b643-1dcd21be38a1"},"vehicle_type_id":"4","last_reported":1729059181,"current_range_meters":27600,"station_id":"ce4bgi12rcd13ifvqb70","pricing_plan_id":"cebpf4jnsgd1na2vs0mg"},{"bike_id":"aa3ce332-260e-4008-ac75-dca0ff9be9be","system_id":"levelo_inurba_marseille","lat":43.27181,"lon":5.40984,"is_reserved":false,"is_disabled":false,"rental_uris":{"android":"levelo://app?vid=aa3ce332-260e-4008-ac75-dca0ff9be9be","ios":"levelo://app?vid=aa3ce332-260e-4008-ac75-dca0ff9be9be"},"vehicle_type_id":"4","last_reported":1729059181,"current_range_meters":7200,"station_id":"ce4bhl12rcd13ifvqgf0","pricing_plan_id":"cebpf4jnsgd1na2vs0mg"},{"bike_id":"b355e199-5b55-43c0-b360-d6ed305afb06","system_id":"levelo_inurba_marseille","lat":43.27211,"lon":5.39185,"is_reserved":false,"is_disabled":false,"rental_uris":{"android":"levelo://app?vid=b355e199-5b55-43c0-b360-d6ed305afb06","ios":"levelo://app?vid=b355e199-5b55-43c0-b360-d6ed305afb06"},"vehicle_type_id":"4","last_reported":1729059181,"current_range_meters":18000,"station_id":"","pricing_plan_id":"cebpf4jnsgd1na2vs0mg"},{"bike_id":"36e3b73d-9a18-42f7-a798-2b4aa80273d0","system_id":"levelo_inurba_marseille","lat":43.31073,"lon":5.38356,"is_reserved":false,"is_disabled":false,"rental_uris":{"android":"levelo://app?vid=36e3b73d-9a18-42f7-a798-2b4aa80273d0","ios":"levelo://app?vid=36e3b73d-9a18-42f7-a798-2b4aa80273d0"},"vehicle_type_id":"4","last_reported":1729059181,"current_range_meters":38000,"station_id":"ce4bgv92rcd13ifvqcr0","pricing_plan_id":"cebpf4jnsgd1na2vs0mg"},{"bike_id":"733481e3-2e7e-4652-bdb9-60faf3f89b4d","system_id":"levelo_inurba_marseille","lat":43.2979,"lon":5.38106,"is_reserved":false,"is_disabled":false,"rental_uris":{"android":"levelo://app?vid=733481e3-2e7e-4652-bdb9-60faf3f89b4d","ios":"levelo://app?vid=733481e3-2e7e-4652-bdb9-60faf3f89b4d"},"vehicle_type_id":"4","last_reported":1729059181,"current_range_meters":30000,"station_id":"ce4bgip2rcd13ifvqbb0","pricing_plan_id":"cebpf4jnsgd1na2vs0mg"},{"bike_id":"f8c31a86-6db6-4ea9-912b-a40ac2449c82","system_id":"levelo_inurba_marseille","lat":43.26064,"lon":5.39398,"is_reserved":false,"is_disabled":false,"rental_uris":{"android":"levelo://app?vid=f8c31a86-6db6-4ea9-912b-a40ac2449c82","ios":"levelo://app?vid=f8c31a86-6db6-4ea9-912b-a40ac2449c82"},"vehicle_type_id":"4","last_reported":1729059181,"current_range_meters":28000,"station_id":"ce4bhh92rcd13ifvqfj0","pricing_plan_id":"cebpf4jnsgd1na2vs0mg"},{"bike_id":"a317d19b-3e4c-466d-b1f0-ad5b7ee20519","system_id":"levelo_inurba_marseille","lat":43.25941,"lon":5.409,"is_reserved":false,"is_disabled":false,"rental_uris":{"android":"levelo://app?vid=a317d19b-3e4c-466d-b1f0-ad5b7ee20519","ios":"levelo://app?vid=a317d19b-3e4c-466d-b1f0-ad5b7ee20519"},"vehicle_type_id":"4","last_reported":1729059181,"current_range_meters":9600,"station_id":"ce4bhm92rcd13ifvqglg","pricing_plan_id":"cebpf4jnsgd1na2vs0mg"},{"bike_id":"8aca930d-2c77-435a-bbcd-cf4f4d726973","system_id":"levelo_inurba_marseille","lat":43.28412,"lon":5.37515,"is_reserved":false,"is_disabled":false,"rental_uris":{"android":"levelo://app?vid=8aca930d-2c77-435a-bbcd-cf4f4d726973","ios":"levelo://app?vid=8aca930d-2c77-435a-bbcd-cf4f4d726973"},"vehicle_type_id":"4","last_reported":1729059181,"current_range_meters":32800,"station_id":"ce4bh412rcd13ifvqds0","pricing_plan_id":"cebpf4jnsgd1na2vs0mg"},{"bike_id":"decf65b9-49aa-457a-b1da-f13e96b87098","system_id":"levelo_inurba_marseille","lat":43.27496,"lon":5.4245,"is_reserved":false,"is_disabled":false,"rental_uris":{"android":"levelo://app?vid=decf65b9-49aa-457a-b1da-f13e96b87098","ios":"levelo://app?vid=decf65b9-49aa-457a-b1da-f13e96b87098"},"vehicle_type_id":"4","last_reported":1729059181,"current_range_meters":32000,"station_id":"ce4bhn92rcd13ifvqgrg","pricing_plan_id":"cebpf4jnsgd1na2vs0mg"},{"bike_id":"de854f3e-e1c8-46f8-bf00-573b165351e8","system_id":"levelo_inurba_marseille","lat":43.29795,"lon":5.38073,"is_reserved":false,"is_disabled":false,"rental_uris":{"android":"levelo://app?vid=de854f3e-e1c8-46f8-bf00-573b165351e8","ios":"levelo://app?vid=de854f3e-e1c8-46f8-bf00-573b165351e8"},"vehicle_type_id":"4","last_reported":1729059181,"current_range_meters":29600,"station_id":"ce4bgip2rcd13ifvqbb0","pricing_plan_id":"cebpf4jnsgd1na2vs0mg"},{"bike_id":"11b962b6-d681-472e-9813-587d4473c675","system_id":"levelo_inurba_marseille","lat":43.30983,"lon":5.40061,"is_reserved":false,"is_disabled":false,"rental_uris":{"android":"levelo://app?vid=11b962b6-d681-472e-9813-587d4473c675","ios":"levelo://app?vid=11b962b6-d681-472e-9813-587d4473c675"},"vehicle_type_id":"4","last_reported":1729059181,"current_range_meters":10000,"station_id":"ce4bgvp2rcd13ifvqct0","pricing_plan_id":"cebpf4jnsgd1na2vs0mg"},{"bike_id":"91a51249-d63d-4f66-95a5-caaeb51c94f2","system_id":"levelo_inurba_marseille","lat":43.285217,"lon":5.385134,"is_reserved":false,"is_disabled":false,"rental_uris":{"android":"levelo://app?vid=91a51249-d63d-4f66-95a5-caaeb51c94f2","ios":"levelo://app?vid=91a51249-d63d-4f66-95a5-caaeb51c94f2"},"vehicle_type_id":"4","last_reported":1729059181,"current_range_meters":26800,"station_id":"ce4bh8p2rcd13ifvqeb0","pricing_plan_id":"cebpf4jnsgd1na2vs0mg"},{"bike_id":"1173108c-fe69-4c4c-8b17-cb7411b09f2e","system_id":"levelo_inurba_marseille","lat":43.30564,"lon":5.40031,"is_reserved":false,"is_disabled":false,"rental_uris":{"android":"levelo://app?vid=1173108c-fe69-4c4c-8b17-cb7411b09f2e","ios":"levelo://app?vid=1173108c-fe69-4c4c-8b17-cb7411b09f2e"},"vehicle_type_id":"4","last_reported":1729059181,"current_range_meters":38000,"station_id":"ce4bh0p2rcd13ifvqd80","pricing_plan_id":"cebpf4jnsgd1na2vs0mg"},{"bike_id":"4d0b1081-f67d-4ab4-aaa5-91ab11f1ee6d","system_id":"levelo_inurba_marseille","lat":43.28344,"lon":5.381,"is_reserved":false,"is_disabled":false,"rental_uris":{"android":"levelo://app?vid=4d0b1081-f67d-4ab4-aaa5-91ab11f1ee6d","ios":"levelo://app?vid=4d0b1081-f67d-4ab4-aaa5-91ab11f1ee6d"},"vehicle_type_id":"4","last_reported":1729059181,"current_range_meters":38000,"station_id":"ce4bh412rcd13ifvqdr0","pricing_plan_id":"cebpf4jnsgd1na2vs0mg"},{"bike_id":"6279a412-8bd3-496d-87ef-cc8f1c7c4b08","system_id":"levelo_inurba_marseille","lat":43.30349,"lon":5.41885,"is_reserved":false,"is_disabled":false,"rental_uris":{"android":"levelo://app?vid=6279a412-8bd3-496d-87ef-cc8f1c7c4b08","ios":"levelo://app?vid=6279a412-8bd3-496d-87ef-cc8f1c7c4b08"},"vehicle_type_id":"4","last_reported":1729059181,"current_range_meters":37600,"station_id":"ce4bhop2rcd13ifvqh7g","pricing_plan_id":"cebpf4jnsgd1na2vs0mg"},{"bike_id":"f8dbf5d1-2716-4efe-a33a-adaef7465d9e","system_id":"levelo_inurba_marseille","lat":43.26954,"lon":5.38631,"is_reserved":false,"is_disabled":false,"rental_uris":{"android":"levelo://app?vid=f8dbf5d1-2716-4efe-a33a-adaef7465d9e","ios":"levelo://app?vid=f8dbf5d1-2716-4efe-a33a-adaef7465d9e"},"vehicle_type_id":"4","last_reported":1729059181,"current_range_meters":38400,"station_id":"ce4bhh92rcd13ifvqfh0","pricing_plan_id":"cebpf4jnsgd1na2vs0mg"},{"bike_id":"08fc8fa9-ba71-4f9e-aa73-b623da1d31a0","system_id":"levelo_inurba_marseille","lat":43.27617,"lon":5.3611,"is_reserved":false,"is_disabled":false,"rental_uris":{"android":"levelo://app?vid=08fc8fa9-ba71-4f9e-aa73-b623da1d31a0","ios":"levelo://app?vid=08fc8fa9-ba71-4f9e-aa73-b623da1d31a0"},"vehicle_type_id":"4","last_reported":1729059181,"current_range_meters":37600,"station_id":"ce4bgj92rcd13ifvqbe0","pricing_plan_id":"cebpf4jnsgd1na2vs0mg"},{"bike_id":"86a4e18b-7ee8-40ca-a1ae-177691eb34e2","system_id":"levelo_inurba_marseille","lat":43.32002,"lon":5.38168,"is_reserved":false,"is_disabled":false,"rental_uris":{"android":"levelo://app?vid=86a4e18b-7ee8-40ca-a1ae-177691eb34e2","ios":"levelo://app?vid=86a4e18b-7ee8-40ca-a1ae-177691eb34e2"},"vehicle_type_id":"4","last_reported":1729059181,"current_range_meters":38800,"station_id":"ce4bhr12rcd13ifvqhpg","pricing_plan_id":"cebpf4jnsgd1na2vs0mg"},{"bike_id":"2f093790-17f4-4fdc-988d-a2c63f58fc61","system_id":"levelo_inurba_marseille","lat":43.28425,"lon":5.34997,"is_reserved":false,"is_disabled":false,"rental_uris":{"android":"levelo://app?vid=2f093790-17f4-4fdc-988d-a2c63f58fc61","ios":"levelo://app?vid=2f093790-17f4-4fdc-988d-a2c63f58fc61"},"vehicle_type_id":"4","last_reported":1729059181,"current_range_meters":38800,"station_id":"ce4bhbh2rcd13ifvqepg","pricing_plan_id":"cebpf4jnsgd1na2vs0mg"},{"bike_id":"6220393b-3dd6-476e-87df-5aea0a2eb7f8","system_id":"levelo_inurba_marseille","lat":43.269886,"lon":5.386703,"is_reserved":false,"is_disabled":false,"rental_uris":{"android":"levelo://app?vid=6220393b-3dd6-476e-87df-5aea0a2eb7f8","ios":"levelo://app?vid=6220393b-3dd6-476e-87df-5aea0a2eb7f8"},"vehicle_type_id":"4","last_reported":1729059181,"current_range_meters":18800,"station_id":"","pricing_plan_id":"cebpf4jnsgd1na2vs0mg"},{"bike_id":"d9451fab-8cdf-400c-ae4e-c8c0fb5f1da0","system_id":"levelo_inurba_marseille","lat":43.26574,"lon":5.3901,"is_reserved":false,"is_disabled":false,"rental_uris":{"android":"levelo://app?vid=d9451fab-8cdf-400c-ae4e-c8c0fb5f1da0","ios":"levelo://app?vid=d9451fab-8cdf-400c-ae4e-c8c0fb5f1da0"},"vehicle_type_id":"4","last_reported":1729059181,"current_range_meters":28400,"station_id":"ce4bhe12rcd13ifvqf30","pricing_plan_id":"cebpf4jnsgd1na2vs0mg"},{"bike_id":"11bb7ed5-1970-4a73-a794-e55c1684750f","system_id":"levelo_inurba_marseille","lat":43.23151,"lon":5.43715,"is_reserved":false,"is_disabled":false,"rental_uris":{"android":"levelo://app?vid=11bb7ed5-1970-4a73-a794-e55c1684750f","ios":"levelo://app?vid=11bb7ed5-1970-4a73-a794-e55c1684750f"},"vehicle_type_id":"4","last_reported":1729059181,"current_range_meters":19600,"station_id":"ce4bhmp2rcd13ifvqgog","pricing_plan_id":"cebpf4jnsgd1na2vs0mg"},{"bike_id":"243fc0fa-9906-4767-b061-b31048f8f86e","system_id":"levelo_inurba_marseille","lat":43.28353,"lon":5.38105,"is_reserved":false,"is_disabled":false,"rental_uris":{"android":"levelo://app?vid=243fc0fa-9906-4767-b061-b31048f8f86e","ios":"levelo://app?vid=243fc0fa-9906-4767-b061-b31048f8f86e"},"vehicle_type_id":"4","last_reported":1729059181,"current_range_meters":14000,"station_id":"ce4bh412rcd13ifvqdr0","pricing_plan_id":"cebpf4jnsgd1na2vs0mg"},{"bike_id":"61b661fe-85fb-427c-a32c-b9e78e89215d","system_id":"levelo_inurba_marseille","lat":43.28488,"lon":5.38427,"is_reserved":false,"is_disabled":false,"rental_uris":{"android":"levelo://app?vid=61b661fe-85fb-427c-a32c-b9e78e89215d","ios":"levelo://app?vid=61b661fe-85fb-427c-a32c-b9e78e89215d"},"vehicle_type_id":"4","last_reported":1729059181,"current_range_meters":38400,"station_id":"ce4bh512rcd13ifvqe3g","pricing_plan_id":"cebpf4jnsgd1na2vs0mg"},{"bike_id":"5a0c6fc9-bccc-439f-b63e-7505d24371dc","system_id":"levelo_inurba_marseille","lat":43.26568,"lon":5.38995,"is_reserved":false,"is_disabled":false,"rental_uris":{"android":"levelo://app?vid=5a0c6fc9-bccc-439f-b63e-7505d24371dc","ios":"levelo://app?vid=5a0c6fc9-bccc-439f-b63e-7505d24371dc"},"vehicle_type_id":"4","last_reported":1729059181,"current_range_meters":31200,"station_id":"ce4bhe12rcd13ifvqf30","pricing_plan_id":"cebpf4jnsgd1na2vs0mg"},{"bike_id":"ebb46df5-c854-43bf-9610-8f5804761019","system_id":"levelo_inurba_marseille","lat":43.32662,"lon":5.40994,"is_reserved":false,"is_disabled":false,"rental_uris":{"android":"levelo://app?vid=ebb46df5-c854-43bf-9610-8f5804761019","ios":"levelo://app?vid=ebb46df5-c854-43bf-9610-8f5804761019"},"vehicle_type_id":"4","last_reported":1729059181,"current_range_meters":29600,"station_id":"ce4bhpp2rcd13ifvqhgg","pricing_plan_id":"cebpf4jnsgd1na2vs0mg"},{"bike_id":"7b19dc4f-7f88-4a40-adfe-d1687fe8a9e8","system_id":"levelo_inurba_marseille","lat":43.2927,"lon":5.40121,"is_reserved":false,"is_disabled":false,"rental_uris":{"android":"levelo://app?vid=7b19dc4f-7f88-4a40-adfe-d1687fe8a9e8","ios":"levelo://app?vid=7b19dc4f-7f88-4a40-adfe-d1687fe8a9e8"},"vehicle_type_id":"4","last_reported":1729059181,"current_range_meters":33600,"station_id":"ce4bhnh2rcd13ifvqgug","pricing_plan_id":"cebpf4jnsgd1na2vs0mg"},{"bike_id":"e204b1d5-635d-4dd1-b28a-9253dcef1f2b","system_id":"levelo_inurba_marseille","lat":43.28039,"lon":5.36945,"is_reserved":false,"is_disabled":false,"rental_uris":{"android":"levelo://app?vid=e204b1d5-635d-4dd1-b28a-9253dcef1f2b","ios":"levelo://app?vid=e204b1d5-635d-4dd1-b28a-9253dcef1f2b"},"vehicle_type_id":"4","last_reported":1729059181,"current_range_meters":17600,"station_id":"ce4bha12rcd13ifvqef0","pricing_plan_id":"cebpf4jnsgd1na2vs0mg"},{"bike_id":"66ca7c18-318f-477f-8315-515c636aac01","system_id":"levelo_inurba_marseille","lat":43.27492,"lon":5.42453,"is_reserved":false,"is_disabled":false,"rental_uris":{"android":"levelo://app?vid=66ca7c18-318f-477f-8315-515c636aac01","ios":"levelo://app?vid=66ca7c18-318f-477f-8315-515c636aac01"},"vehicle_type_id":"4","last_reported":1729059181,"current_range_meters":28800,"station_id":"ce4bhn92rcd13ifvqgrg","pricing_plan_id":"cebpf4jnsgd1na2vs0mg"},{"bike_id":"f73aad2d-a3ff-47b7-b403-6a73b37b7702","system_id":"levelo_inurba_marseille","lat":43.309518,"lon":5.390304,"is_reserved":false,"is_disabled":false,"rental_uris":{"android":"levelo://app?vid=f73aad2d-a3ff-47b7-b403-6a73b37b7702","ios":"levelo://app?vid=f73aad2d-a3ff-47b7-b403-6a73b37b7702"},"vehicle_type_id":"4","last_reported":1729059181,"current_range_meters":24400,"station_id":"ce4bh512rcd13ifvqe2g","pricing_plan_id":"cebpf4jnsgd1na2vs0mg"},{"bike_id":"58d70d59-df75-4d87-a6e6-9bef5c67cefd","system_id":"levelo_inurba_marseille","lat":43.29617,"lon":5.38662,"is_reserved":false,"is_disabled":false,"rental_uris":{"android":"levelo://app?vid=58d70d59-df75-4d87-a6e6-9bef5c67cefd","ios":"levelo://app?vid=58d70d59-df75-4d87-a6e6-9bef5c67cefd"},"vehicle_type_id":"4","last_reported":1729059181,"current_range_meters":27200,"station_id":"ce4bgih2rcd13ifvqba0","pricing_plan_id":"cebpf4jnsgd1na2vs0mg"},{"bike_id":"6232b4d9-b37d-4acb-9c65-49657ed81111","system_id":"levelo_inurba_marseille","lat":43.30453,"lon":5.37904,"is_reserved":false,"is_disabled":false,"rental_uris":{"android":"levelo://app?vid=6232b4d9-b37d-4acb-9c65-49657ed81111","ios":"levelo://app?vid=6232b4d9-b37d-4acb-9c65-49657ed81111"},"vehicle_type_id":"4","last_reported":1729059181,"current_range_meters":38800,"station_id":"ce4bgup2rcd13ifvqcn0","pricing_plan_id":"cebpf4jnsgd1na2vs0mg"},{"bike_id":"734fd7a2-2074-474f-b7d1-0d9ec801ea2a","system_id":"levelo_inurba_marseille","lat":43.33601,"lon":5.41033,"is_reserved":false,"is_disabled":false,"rental_uris":{"android":"levelo://app?vid=734fd7a2-2074-474f-b7d1-0d9ec801ea2a","ios":"levelo://app?vid=734fd7a2-2074-474f-b7d1-0d9ec801ea2a"},"vehicle_type_id":"4","last_reported":1729059181,"current_range_meters":38000,"station_id":"ce4bhqh2rcd13ifvqhmg","pricing_plan_id":"cebpf4jnsgd1na2vs0mg"},{"bike_id":"d7d35ccc-ab16-4768-acfb-df0e77f2ad00","system_id":"levelo_inurba_marseille","lat":43.3059,"lon":5.39364,"is_reserved":false,"is_disabled":false,"rental_uris":{"android":"levelo://app?vid=d7d35ccc-ab16-4768-acfb-df0e77f2ad00","ios":"levelo://app?vid=d7d35ccc-ab16-4768-acfb-df0e77f2ad00"},"vehicle_type_id":"4","last_reported":1729059181,"current_range_meters":38800,"station_id":"ce4bh0p2rcd13ifvqd80","pricing_plan_id":"cebpf4jnsgd1na2vs0mg"},{"bike_id":"ca6c0b1a-2c2a-4271-afa5-4e8c2100b341","system_id":"levelo_inurba_marseille","lat":43.33599,"lon":5.41036,"is_reserved":false,"is_disabled":false,"rental_uris":{"android":"levelo://app?vid=ca6c0b1a-2c2a-4271-afa5-4e8c2100b341","ios":"levelo://app?vid=ca6c0b1a-2c2a-4271-afa5-4e8c2100b341"},"vehicle_type_id":"4","last_reported":1729059181,"current_range_meters":28800,"station_id":"ce4bhqh2rcd13ifvqhmg","pricing_plan_id":"cebpf4jnsgd1na2vs0mg"},{"bike_id":"a794a497-1ec5-4156-bfa1-a42c36b39cfd","system_id":"levelo_inurba_marseille","lat":43.27373,"lon":5.39098,"is_reserved":false,"is_disabled":false,"rental_uris":{"android":"levelo://app?vid=a794a497-1ec5-4156-bfa1-a42c36b39cfd","ios":"levelo://app?vid=a794a497-1ec5-4156-bfa1-a42c36b39cfd"},"vehicle_type_id":"4","last_reported":1729059181,"current_range_meters":24400,"station_id":"","pricing_plan_id":"cebpf4jnsgd1na2vs0mg"},{"bike_id":"17eddf16-8fe7-49e7-9f43-aca3b8920a2e","system_id":"levelo_inurba_marseille","lat":43.30542,"lon":5.38435,"is_reserved":false,"is_disabled":false,"rental_uris":{"android":"levelo://app?vid=17eddf16-8fe7-49e7-9f43-aca3b8920a2e","ios":"levelo://app?vid=17eddf16-8fe7-49e7-9f43-aca3b8920a2e"},"vehicle_type_id":"4","last_reported":1729059181,"current_range_meters":39200,"station_id":"ce4bgg92rcd13ifvqb30","pricing_plan_id":"cebpf4jnsgd1na2vs0mg"},{"bike_id":"68dec4d4-3f47-44de-a96b-8226bf7559c4","system_id":"levelo_inurba_marseille","lat":43.28939,"lon":5.36636,"is_reserved":false,"is_disabled":false,"rental_uris":{"android":"levelo://app?vid=68dec4d4-3f47-44de-a96b-8226bf7559c4","ios":"levelo://app?vid=68dec4d4-3f47-44de-a96b-8226bf7559c4"},"vehicle_type_id":"4","last_reported":1729059181,"current_range_meters":36400,"station_id":"ce4bhap2rcd13ifvqek0","pricing_plan_id":"cebpf4jnsgd1na2vs0mg"},{"bike_id":"40f0352f-19fd-472f-8c58-fccbfca93941","system_id":"levelo_inurba_marseille","lat":43.26951,"lon":5.38631,"is_reserved":false,"is_disabled":false,"rental_uris":{"android":"levelo://app?vid=40f0352f-19fd-472f-8c58-fccbfca93941","ios":"levelo://app?vid=40f0352f-19fd-472f-8c58-fccbfca93941"},"vehicle_type_id":"4","last_reported":1729059181,"current_range_meters":28400,"station_id":"ce4bhh92rcd13ifvqfh0","pricing_plan_id":"cebpf4jnsgd1na2vs0mg"},{"bike_id":"3d345541-8cc4-4a78-8d79-d41d0d8fd35c","system_id":"levelo_inurba_marseille","lat":43.2594,"lon":5.40904,"is_reserved":false,"is_disabled":false,"rental_uris":{"android":"levelo://app?vid=3d345541-8cc4-4a78-8d79-d41d0d8fd35c","ios":"levelo://app?vid=3d345541-8cc4-4a78-8d79-d41d0d8fd35c"},"vehicle_type_id":"4","last_reported":1729059181,"current_range_meters":30000,"station_id":"ce4bhm92rcd13ifvqglg","pricing_plan_id":"cebpf4jnsgd1na2vs0mg"},{"bike_id":"57fa9f76-c7d4-4b74-96fe-4bb481ced862","system_id":"levelo_inurba_marseille","lat":43.29545,"lon":5.42277,"is_reserved":false,"is_disabled":false,"rental_uris":{"android":"levelo://app?vid=57fa9f76-c7d4-4b74-96fe-4bb481ced862","ios":"levelo://app?vid=57fa9f76-c7d4-4b74-96fe-4bb481ced862"},"vehicle_type_id":"4","last_reported":1729059181,"current_range_meters":36400,"station_id":"ce4bhph2rcd13ifvqhdg","pricing_plan_id":"cebpf4jnsgd1na2vs0mg"},{"bike_id":"905c7023-e9de-430b-a08f-f5ac4b43bf05","system_id":"levelo_inurba_marseille","lat":43.29597,"lon":5.38105,"is_reserved":false,"is_disabled":false,"rental_uris":{"android":"levelo://app?vid=905c7023-e9de-430b-a08f-f5ac4b43bf05","ios":"levelo://app?vid=905c7023-e9de-430b-a08f-f5ac4b43bf05"},"vehicle_type_id":"4","last_reported":1729059181,"current_range_meters":38800,"station_id":"ce4bgl12rcd13ifvqbo0","pricing_plan_id":"cebpf4jnsgd1na2vs0mg"},{"bike_id":"b3414e9f-e991-44cb-8362-0a7d75f1ca79","system_id":"levelo_inurba_marseille","lat":43.30305,"lon":5.36893,"is_reserved":false,"is_disabled":false,"rental_uris":{"android":"levelo://app?vid=b3414e9f-e991-44cb-8362-0a7d75f1ca79","ios":"levelo://app?vid=b3414e9f-e991-44cb-8362-0a7d75f1ca79"},"vehicle_type_id":"4","last_reported":1729059181,"current_range_meters":31200,"station_id":"ce4bgqh2rcd13ifvqc5g","pricing_plan_id":"cebpf4jnsgd1na2vs0mg"},{"bike_id":"c77ea266-271c-4ea2-a8dc-337f7c85044f","system_id":"levelo_inurba_marseille","lat":43.28155,"lon":5.42646,"is_reserved":false,"is_disabled":false,"rental_uris":{"android":"levelo://app?vid=c77ea266-271c-4ea2-a8dc-337f7c85044f","ios":"levelo://app?vid=c77ea266-271c-4ea2-a8dc-337f7c85044f"},"vehicle_type_id":"4","last_reported":1729059181,"current_range_meters":38400,"station_id":"ce4bhnh2rcd13ifvqgug","pricing_plan_id":"cebpf4jnsgd1na2vs0mg"},{"bike_id":"30d909f6-09f6-4e55-af83-3b4774cf44c7","system_id":"levelo_inurba_marseille","lat":43.29788,"lon":5.38105,"is_reserved":false,"is_disabled":false,"rental_uris":{"android":"levelo://app?vid=30d909f6-09f6-4e55-af83-3b4774cf44c7","ios":"levelo://app?vid=30d909f6-09f6-4e55-af83-3b4774cf44c7"},"vehicle_type_id":"4","last_reported":1729059181,"current_range_meters":32400,"station_id":"ce4bgip2rcd13ifvqbb0","pricing_plan_id":"cebpf4jnsgd1na2vs0mg"},{"bike_id":"6e7afd62-d736-4ed9-9248-f4f82a390064","system_id":"levelo_inurba_marseille","lat":43.336,"lon":5.41023,"is_reserved":false,"is_disabled":false,"rental_uris":{"android":"levelo://app?vid=6e7afd62-d736-4ed9-9248-f4f82a390064","ios":"levelo://app?vid=6e7afd62-d736-4ed9-9248-f4f82a390064"},"vehicle_type_id":"4","last_reported":1729059181,"current_range_meters":39200,"station_id":"ce4bhqh2rcd13ifvqhmg","pricing_plan_id":"cebpf4jnsgd1na2vs0mg"},{"bike_id":"73ef751c-1663-4138-9d82-e4aec617a886","system_id":"levelo_inurba_marseille","lat":43.23193,"lon":5.35553,"is_reserved":false,"is_disabled":false,"rental_uris":{"android":"levelo://app?vid=73ef751c-1663-4138-9d82-e4aec617a886","ios":"levelo://app?vid=73ef751c-1663-4138-9d82-e4aec617a886"},"vehicle_type_id":"4","last_reported":1729059181,"current_range_meters":38000,"station_id":"ce4bhu92rcd13ifvqi70","pricing_plan_id":"cebpf4jnsgd1na2vs0mg"},{"bike_id":"1f7ed018-a759-4273-a41a-180d6433d6e9","system_id":"levelo_inurba_marseille","lat":43.30538,"lon":5.38427,"is_reserved":false,"is_disabled":false,"rental_uris":{"android":"levelo://app?vid=1f7ed018-a759-4273-a41a-180d6433d6e9","ios":"levelo://app?vid=1f7ed018-a759-4273-a41a-180d6433d6e9"},"vehicle_type_id":"4","last_reported":1729059181,"current_range_meters":38000,"station_id":"ce4bgg92rcd13ifvqb30","pricing_plan_id":"cebpf4jnsgd1na2vs0mg"},{"bike_id":"5f866cdd-5cee-442e-81d2-26f78a203ab9","system_id":"levelo_inurba_marseille","lat":43.31999,"lon":5.38152,"is_reserved":false,"is_disabled":false,"rental_uris":{"android":"levelo://app?vid=5f866cdd-5cee-442e-81d2-26f78a203ab9","ios":"levelo://app?vid=5f866cdd-5cee-442e-81d2-26f78a203ab9"},"vehicle_type_id":"4","last_reported":1729059181,"current_range_meters":28400,"station_id":"ce4bhr12rcd13ifvqhpg","pricing_plan_id":"cebpf4jnsgd1na2vs0mg"},{"bike_id":"b2274dab-99bf-4443-be07-36c673c5bcbf","system_id":"levelo_inurba_marseille","lat":43.28616,"lon":5.351,"is_reserved":false,"is_disabled":false,"rental_uris":{"android":"levelo://app?vid=b2274dab-99bf-4443-be07-36c673c5bcbf","ios":"levelo://app?vid=b2274dab-99bf-4443-be07-36c673c5bcbf"},"vehicle_type_id":"4","last_reported":1729059181,"current_range_meters":38000,"station_id":"ce4bhch2rcd13ifvqeug","pricing_plan_id":"cebpf4jnsgd1na2vs0mg"},{"bike_id":"c58611c9-5610-40ca-9dff-13b158d6d313","system_id":"levelo_inurba_marseille","lat":43.31707,"lon":5.37736,"is_reserved":false,"is_disabled":false,"rental_uris":{"android":"levelo://app?vid=c58611c9-5610-40ca-9dff-13b158d6d313","ios":"levelo://app?vid=c58611c9-5610-40ca-9dff-13b158d6d313"},"vehicle_type_id":"4","last_reported":1729059181,"current_range_meters":27200,"station_id":"ce4bgth2rcd13ifvqch0","pricing_plan_id":"cebpf4jnsgd1na2vs0mg"},{"bike_id":"00bb97f8-22d9-4cd0-baad-258b5c726caf","system_id":"levelo_inurba_marseille","lat":43.2922,"lon":5.3608,"is_reserved":false,"is_disabled":false,"rental_uris":{"android":"levelo://app?vid=00bb97f8-22d9-4cd0-baad-258b5c726caf","ios":"levelo://app?vid=00bb97f8-22d9-4cd0-baad-258b5c726caf"},"vehicle_type_id":"4","last_reported":1729059181,"current_range_meters":6000,"station_id":"ce4bhbh2rcd13ifvqeqg","pricing_plan_id":"cebpf4jnsgd1na2vs0mg"},{"bike_id":"836d8b9b-5cd1-4a36-86df-3788be3a1b6e","system_id":"levelo_inurba_marseille","lat":43.27496,"lon":5.42453,"is_reserved":false,"is_disabled":false,"rental_uris":{"android":"levelo://app?vid=836d8b9b-5cd1-4a36-86df-3788be3a1b6e","ios":"levelo://app?vid=836d8b9b-5cd1-4a36-86df-3788be3a1b6e"},"vehicle_type_id":"4","last_reported":1729059181,"current_range_meters":12400,"station_id":"ce4bhn92rcd13ifvqgrg","pricing_plan_id":"cebpf4jnsgd1na2vs0mg"},{"bike_id":"098d107e-0d6e-414e-8cde-d4e87cd97a81","system_id":"levelo_inurba_marseille","lat":43.29106,"lon":5.38125,"is_reserved":false,"is_disabled":false,"rental_uris":{"android":"levelo://app?vid=098d107e-0d6e-414e-8cde-d4e87cd97a81","ios":"levelo://app?vid=098d107e-0d6e-414e-8cde-d4e87cd97a81"},"vehicle_type_id":"4","last_reported":1729059181,"current_range_meters":36800,"station_id":"ce4bh512rcd13ifvqe2g","pricing_plan_id":"cebpf4jnsgd1na2vs0mg"},{"bike_id":"5f7551c7-aa7a-4dd1-8e85-79b6e1316d92","system_id":"levelo_inurba_marseille","lat":43.29037,"lon":5.39958,"is_reserved":false,"is_disabled":false,"rental_uris":{"android":"levelo://app?vid=5f7551c7-aa7a-4dd1-8e85-79b6e1316d92","ios":"levelo://app?vid=5f7551c7-aa7a-4dd1-8e85-79b6e1316d92"},"vehicle_type_id":"4","last_reported":1729059181,"current_range_meters":30800,"station_id":"ce4bh392rcd13ifvqdm0","pricing_plan_id":"cebpf4jnsgd1na2vs0mg"},{"bike_id":"f65ee02d-1240-4d52-9598-2f07f5533e58","system_id":"levelo_inurba_marseille","lat":43.29175,"lon":5.37146,"is_reserved":false,"is_disabled":false,"rental_uris":{"android":"levelo://app?vid=f65ee02d-1240-4d52-9598-2f07f5533e58","ios":"levelo://app?vid=f65ee02d-1240-4d52-9598-2f07f5533e58"},"vehicle_type_id":"4","last_reported":1729059181,"current_range_meters":27200,"station_id":"ce4bha92rcd13ifvqeh0","pricing_plan_id":"cebpf4jnsgd1na2vs0mg"},{"bike_id":"03e2b275-35b8-4069-991b-8affb5ddc826","system_id":"levelo_inurba_marseille","lat":43.30469,"lon":5.37904,"is_reserved":false,"is_disabled":false,"rental_uris":{"android":"levelo://app?vid=03e2b275-35b8-4069-991b-8affb5ddc826","ios":"levelo://app?vid=03e2b275-35b8-4069-991b-8affb5ddc826"},"vehicle_type_id":"4","last_reported":1729059181,"current_range_meters":7200,"station_id":"ce4bgup2rcd13ifvqcn0","pricing_plan_id":"cebpf4jnsgd1na2vs0mg"},{"bike_id":"bdc4fa52-d2c7-466c-9c32-da70459256c8","system_id":"levelo_inurba_marseille","lat":43.32538,"lon":5.41421,"is_reserved":false,"is_disabled":false,"rental_uris":{"android":"levelo://app?vid=bdc4fa52-d2c7-466c-9c32-da70459256c8","ios":"levelo://app?vid=bdc4fa52-d2c7-466c-9c32-da70459256c8"},"vehicle_type_id":"4","last_reported":1729059181,"current_range_meters":30400,"station_id":"ce4bhq12rcd13ifvqhhg","pricing_plan_id":"cebpf4jnsgd1na2vs0mg"},{"bike_id":"fa7bbdc9-afbe-404d-8676-647037cc76a9","system_id":"levelo_inurba_marseille","lat":43.23183,"lon":5.3554,"is_reserved":false,"is_disabled":false,"rental_uris":{"android":"levelo://app?vid=fa7bbdc9-afbe-404d-8676-647037cc76a9","ios":"levelo://app?vid=fa7bbdc9-afbe-404d-8676-647037cc76a9"},"vehicle_type_id":"4","last_reported":1729059181,"current_range_meters":38800,"station_id":"ce4bhu92rcd13ifvqi70","pricing_plan_id":"cebpf4jnsgd1na2vs0mg"},{"bike_id":"dfd50657-b409-4874-93d3-5c582378df72","system_id":"levelo_inurba_marseille","lat":43.3149,"lon":5.37312,"is_reserved":false,"is_disabled":false,"rental_uris":{"android":"levelo://app?vid=dfd50657-b409-4874-93d3-5c582378df72","ios":"levelo://app?vid=dfd50657-b409-4874-93d3-5c582378df72"},"vehicle_type_id":"4","last_reported":1729059181,"current_range_meters":24400,"station_id":"ce4bgt12rcd13ifvqcd0","pricing_plan_id":"cebpf4jnsgd1na2vs0mg"},{"bike_id":"ed5aa609-e948-49ce-8019-fc1eea53c766","system_id":"levelo_inurba_marseille","lat":43.318894,"lon":5.407376,"is_reserved":false,"is_disabled":false,"rental_uris":{"android":"levelo://app?vid=ed5aa609-e948-49ce-8019-fc1eea53c766","ios":"levelo://app?vid=ed5aa609-e948-49ce-8019-fc1eea53c766"},"vehicle_type_id":"4","last_reported":1729059181,"current_range_meters":38800,"station_id":"ce4bhq12rcd13ifvqhig","pricing_plan_id":"cebpf4jnsgd1na2vs0mg"},{"bike_id":"20cc1903-f4e9-421e-97f8-c5122daa3b45","system_id":"levelo_inurba_marseille","lat":43.29101,"lon":5.3816,"is_reserved":false,"is_disabled":false,"rental_uris":{"android":"levelo://app?vid=20cc1903-f4e9-421e-97f8-c5122daa3b45","ios":"levelo://app?vid=20cc1903-f4e9-421e-97f8-c5122daa3b45"},"vehicle_type_id":"4","last_reported":1729059181,"current_range_meters":33200,"station_id":"ce4bh512rcd13ifvqe2g","pricing_plan_id":"cebpf4jnsgd1na2vs0mg"},{"bike_id":"6c009b1d-0853-40a5-a30f-42a0eef99aff","system_id":"levelo_inurba_marseille","lat":43.291534,"lon":5.40041,"is_reserved":false,"is_disabled":false,"rental_uris":{"android":"levelo://app?vid=6c009b1d-0853-40a5-a30f-42a0eef99aff","ios":"levelo://app?vid=6c009b1d-0853-40a5-a30f-42a0eef99aff"},"vehicle_type_id":"4","last_reported":1729059181,"current_range_meters":28000,"station_id":"chh1huq6cuj3fo74tm60","pricing_plan_id":"cebpf4jnsgd1na2vs0mg"},{"bike_id":"37e3ee88-dac6-486e-8294-820840046279","system_id":"levelo_inurba_marseille","lat":43.27494,"lon":5.42453,"is_reserved":false,"is_disabled":false,"rental_uris":{"android":"levelo://app?vid=37e3ee88-dac6-486e-8294-820840046279","ios":"levelo://app?vid=37e3ee88-dac6-486e-8294-820840046279"},"vehicle_type_id":"4","last_reported":1729059181,"current_range_meters":36000,"station_id":"ce4bhn92rcd13ifvqgrg","pricing_plan_id":"cebpf4jnsgd1na2vs0mg"},{"bike_id":"62c69491-a263-4782-8c41-06dc1e539132","system_id":"levelo_inurba_marseille","lat":43.31037,"lon":5.38339,"is_reserved":false,"is_disabled":false,"rental_uris":{"android":"levelo://app?vid=62c69491-a263-4782-8c41-06dc1e539132","ios":"levelo://app?vid=62c69491-a263-4782-8c41-06dc1e539132"},"vehicle_type_id":"4","last_reported":1729059181,"current_range_meters":14000,"station_id":"","pricing_plan_id":"cebpf4jnsgd1na2vs0mg"},{"bike_id":"23b4a801-5d04-4e34-80f2-18d3432e7e31","system_id":"levelo_inurba_marseille","lat":43.30465,"lon":5.37893,"is_reserved":false,"is_disabled":false,"rental_uris":{"android":"levelo://app?vid=23b4a801-5d04-4e34-80f2-18d3432e7e31","ios":"levelo://app?vid=23b4a801-5d04-4e34-80f2-18d3432e7e31"},"vehicle_type_id":"4","last_reported":1729059181,"current_range_meters":28800,"station_id":"ce4bgup2rcd13ifvqcn0","pricing_plan_id":"cebpf4jnsgd1na2vs0mg"},{"bike_id":"ab9cb97b-3e88-4a2f-bf7d-83c5340fde76","system_id":"levelo_inurba_marseille","lat":43.33718,"lon":5.39193,"is_reserved":false,"is_disabled":false,"rental_uris":{"android":"levelo://app?vid=ab9cb97b-3e88-4a2f-bf7d-83c5340fde76","ios":"levelo://app?vid=ab9cb97b-3e88-4a2f-bf7d-83c5340fde76"},"vehicle_type_id":"4","last_reported":1729059181,"current_range_meters":37600,"station_id":"ce4bhr92rcd13ifvqhsg","pricing_plan_id":"cebpf4jnsgd1na2vs0mg"},{"bike_id":"d7125787-9563-4fb8-a281-b08684add276","system_id":"levelo_inurba_marseille","lat":43.2894,"lon":5.39627,"is_reserved":false,"is_disabled":false,"rental_uris":{"android":"levelo://app?vid=d7125787-9563-4fb8-a281-b08684add276","ios":"levelo://app?vid=d7125787-9563-4fb8-a281-b08684add276"},"vehicle_type_id":"4","last_reported":1729059181,"current_range_meters":38800,"station_id":"ce4bh3h2rcd13ifvqdn0","pricing_plan_id":"cebpf4jnsgd1na2vs0mg"},{"bike_id":"694d89bd-bac3-4c55-9600-80fe90f45ec4","system_id":"levelo_inurba_marseille","lat":43.3361,"lon":5.41026,"is_reserved":false,"is_disabled":false,"rental_uris":{"android":"levelo://app?vid=694d89bd-bac3-4c55-9600-80fe90f45ec4","ios":"levelo://app?vid=694d89bd-bac3-4c55-9600-80fe90f45ec4"},"vehicle_type_id":"4","last_reported":1729059181,"current_range_meters":39200,"station_id":"ce4bhqh2rcd13ifvqhmg","pricing_plan_id":"cebpf4jnsgd1na2vs0mg"},{"bike_id":"5d4185c5-efd5-458a-89de-9f5bf51cb954","system_id":"levelo_inurba_marseille","lat":43.25936,"lon":5.4091,"is_reserved":false,"is_disabled":false,"rental_uris":{"android":"levelo://app?vid=5d4185c5-efd5-458a-89de-9f5bf51cb954","ios":"levelo://app?vid=5d4185c5-efd5-458a-89de-9f5bf51cb954"},"vehicle_type_id":"4","last_reported":1729059181,"current_range_meters":27200,"station_id":"ce4bhm92rcd13ifvqglg","pricing_plan_id":"cebpf4jnsgd1na2vs0mg"},{"bike_id":"f3c1853e-8b8e-47e4-8746-d00e45b18cdc","system_id":"levelo_inurba_marseille","lat":43.32481,"lon":5.36565,"is_reserved":false,"is_disabled":false,"rental_uris":{"android":"levelo://app?vid=f3c1853e-8b8e-47e4-8746-d00e45b18cdc","ios":"levelo://app?vid=f3c1853e-8b8e-47e4-8746-d00e45b18cdc"},"vehicle_type_id":"4","last_reported":1729059181,"current_range_meters":10000,"station_id":"ce4bhs12rcd13ifvqhvg","pricing_plan_id":"cebpf4jnsgd1na2vs0mg"},{"bike_id":"03b52a53-4015-42f1-a46b-0d68e4ef1cf1","system_id":"levelo_inurba_marseille","lat":43.30543,"lon":5.36701,"is_reserved":false,"is_disabled":false,"rental_uris":{"android":"levelo://app?vid=03b52a53-4015-42f1-a46b-0d68e4ef1cf1","ios":"levelo://app?vid=03b52a53-4015-42f1-a46b-0d68e4ef1cf1"},"vehicle_type_id":"4","last_reported":1729059181,"current_range_meters":38800,"station_id":"ce4bgrp2rcd13ifvqc9g","pricing_plan_id":"cebpf4jnsgd1na2vs0mg"},{"bike_id":"a0d3d324-fa7e-4417-aee7-85012ecab44e","system_id":"levelo_inurba_marseille","lat":43.34185,"lon":5.44496,"is_reserved":false,"is_disabled":false,"rental_uris":{"android":"levelo://app?vid=a0d3d324-fa7e-4417-aee7-85012ecab44e","ios":"levelo://app?vid=a0d3d324-fa7e-4417-aee7-85012ecab44e"},"vehicle_type_id":"4","last_reported":1729059181,"current_range_meters":19600,"station_id":"","pricing_plan_id":"cebpf4jnsgd1na2vs0mg"},{"bike_id":"11464164-ff49-44b6-bf9b-d6f30c72e482","system_id":"levelo_inurba_marseille","lat":43.28866,"lon":5.35854,"is_reserved":false,"is_disabled":false,"rental_uris":{"android":"levelo://app?vid=11464164-ff49-44b6-bf9b-d6f30c72e482","ios":"levelo://app?vid=11464164-ff49-44b6-bf9b-d6f30c72e482"},"vehicle_type_id":"4","last_reported":1729059181,"current_range_meters":38800,"station_id":"ce4bhb12rcd13ifvqem0","pricing_plan_id":"cebpf4jnsgd1na2vs0mg"},{"bike_id":"8b8cb3c3-b8e9-49cb-8737-1ca6b1d6aab5","system_id":"levelo_inurba_marseille","lat":43.25582,"lon":5.38235,"is_reserved":false,"is_disabled":false,"rental_uris":{"android":"levelo://app?vid=8b8cb3c3-b8e9-49cb-8737-1ca6b1d6aab5","ios":"levelo://app?vid=8b8cb3c3-b8e9-49cb-8737-1ca6b1d6aab5"},"vehicle_type_id":"4","last_reported":1729059181,"current_range_meters":39200,"station_id":"ce4bhih2rcd13ifvqfs0","pricing_plan_id":"cebpf4jnsgd1na2vs0mg"},{"bike_id":"6121ea4e-235f-42ba-a400-e134af32174a","system_id":"levelo_inurba_marseille","lat":43.31795,"lon":5.40644,"is_reserved":false,"is_disabled":false,"rental_uris":{"android":"levelo://app?vid=6121ea4e-235f-42ba-a400-e134af32174a","ios":"levelo://app?vid=6121ea4e-235f-42ba-a400-e134af32174a"},"vehicle_type_id":"4","last_reported":1729059181,"current_range_meters":31200,"station_id":"","pricing_plan_id":"cebpf4jnsgd1na2vs0mg"},{"bike_id":"79e30f2a-dbb4-4e11-a8cc-e8d6312a0b59","system_id":"levelo_inurba_marseille","lat":43.29047,"lon":5.39979,"is_reserved":false,"is_disabled":false,"rental_uris":{"android":"levelo://app?vid=79e30f2a-dbb4-4e11-a8cc-e8d6312a0b59","ios":"levelo://app?vid=79e30f2a-dbb4-4e11-a8cc-e8d6312a0b59"},"vehicle_type_id":"4","last_reported":1729059181,"current_range_meters":38800,"station_id":"ce4bh392rcd13ifvqdm0","pricing_plan_id":"cebpf4jnsgd1na2vs0mg"},{"bike_id":"b230e516-8543-43c6-9736-060369d51530","system_id":"levelo_inurba_marseille","lat":43.30149,"lon":5.3808,"is_reserved":false,"is_disabled":false,"rental_uris":{"android":"levelo://app?vid=b230e516-8543-43c6-9736-060369d51530","ios":"levelo://app?vid=b230e516-8543-43c6-9736-060369d51530"},"vehicle_type_id":"4","last_reported":1729059181,"current_range_meters":36800,"station_id":"ce4bgjp2rcd13ifvqbh0","pricing_plan_id":"cebpf4jnsgd1na2vs0mg"},{"bike_id":"304a2d48-cecb-41b4-9d5c-49528f04f880","system_id":"levelo_inurba_marseille","lat":43.32056,"lon":5.41537,"is_reserved":false,"is_disabled":false,"rental_uris":{"android":"levelo://app?vid=304a2d48-cecb-41b4-9d5c-49528f04f880","ios":"levelo://app?vid=304a2d48-cecb-41b4-9d5c-49528f04f880"},"vehicle_type_id":"4","last_reported":1729059181,"current_range_meters":39200,"station_id":"ce4bhq92rcd13ifvqhkg","pricing_plan_id":"cebpf4jnsgd1na2vs0mg"},{"bike_id":"0994d7f0-fa2e-480f-b967-2b1e1b476b78","system_id":"levelo_inurba_marseille","lat":43.23188,"lon":5.35561,"is_reserved":false,"is_disabled":false,"rental_uris":{"android":"levelo://app?vid=0994d7f0-fa2e-480f-b967-2b1e1b476b78","ios":"levelo://app?vid=0994d7f0-fa2e-480f-b967-2b1e1b476b78"},"vehicle_type_id":"4","last_reported":1729059181,"current_range_meters":23200,"station_id":"ce4bhu92rcd13ifvqi70","pricing_plan_id":"cebpf4jnsgd1na2vs0mg"},{"bike_id":"9ac234e5-5941-46d8-ae3c-fad105cc1b2a","system_id":"levelo_inurba_marseille","lat":43.30151,"lon":5.38075,"is_reserved":false,"is_disabled":false,"rental_uris":{"android":"levelo://app?vid=9ac234e5-5941-46d8-ae3c-fad105cc1b2a","ios":"levelo://app?vid=9ac234e5-5941-46d8-ae3c-fad105cc1b2a"},"vehicle_type_id":"4","last_reported":1729059181,"current_range_meters":28000,"station_id":"ce4bgjp2rcd13ifvqbh0","pricing_plan_id":"cebpf4jnsgd1na2vs0mg"},{"bike_id":"4d423de8-5e22-441a-8848-ae5dc9d8eb39","system_id":"levelo_inurba_marseille","lat":43.33726,"lon":5.37455,"is_reserved":false,"is_disabled":false,"rental_uris":{"android":"levelo://app?vid=4d423de8-5e22-441a-8848-ae5dc9d8eb39","ios":"levelo://app?vid=4d423de8-5e22-441a-8848-ae5dc9d8eb39"},"vehicle_type_id":"4","last_reported":1729059181,"current_range_meters":6800,"station_id":"","pricing_plan_id":"cebpf4jnsgd1na2vs0mg"},{"bike_id":"3b248b88-0c4d-403f-a071-a917ceafa45c","system_id":"levelo_inurba_marseille","lat":43.3047,"lon":5.37903,"is_reserved":false,"is_disabled":false,"rental_uris":{"android":"levelo://app?vid=3b248b88-0c4d-403f-a071-a917ceafa45c","ios":"levelo://app?vid=3b248b88-0c4d-403f-a071-a917ceafa45c"},"vehicle_type_id":"4","last_reported":1729059181,"current_range_meters":38800,"station_id":"ce4bgn92rcd13ifvqbvg","pricing_plan_id":"cebpf4jnsgd1na2vs0mg"},{"bike_id":"66ccc46d-618e-4760-b09c-27382152bdab","system_id":"levelo_inurba_marseille","lat":43.23196,"lon":5.35544,"is_reserved":false,"is_disabled":false,"rental_uris":{"android":"levelo://app?vid=66ccc46d-618e-4760-b09c-27382152bdab","ios":"levelo://app?vid=66ccc46d-618e-4760-b09c-27382152bdab"},"vehicle_type_id":"4","last_reported":1729059181,"current_range_meters":38400,"station_id":"ce4bhu92rcd13ifvqi70","pricing_plan_id":"cebpf4jnsgd1na2vs0mg"},{"bike_id":"8a331acc-70d9-496a-b0bc-87f49792f9b4","system_id":"levelo_inurba_marseille","lat":43.24165,"lon":5.364,"is_reserved":false,"is_disabled":false,"rental_uris":{"android":"levelo://app?vid=8a331acc-70d9-496a-b0bc-87f49792f9b4","ios":"levelo://app?vid=8a331acc-70d9-496a-b0bc-87f49792f9b4"},"vehicle_type_id":"4","last_reported":1729059181,"current_range_meters":24800,"station_id":"cpo36qri1sfpv3e86is0","pricing_plan_id":"cebpf4jnsgd1na2vs0mg"},{"bike_id":"a8c6dcbb-71df-4d01-9f13-286e6119c0fd","system_id":"levelo_inurba_marseille","lat":43.23152,"lon":5.43721,"is_reserved":false,"is_disabled":false,"rental_uris":{"android":"levelo://app?vid=a8c6dcbb-71df-4d01-9f13-286e6119c0fd","ios":"levelo://app?vid=a8c6dcbb-71df-4d01-9f13-286e6119c0fd"},"vehicle_type_id":"4","last_reported":1729059181,"current_range_meters":8400,"station_id":"ce4bhmp2rcd13ifvqgog","pricing_plan_id":"cebpf4jnsgd1na2vs0mg"},{"bike_id":"f8a09b64-264b-4396-a0a3-0dfcbeca2e33","system_id":"levelo_inurba_marseille","lat":43.29038,"lon":5.39974,"is_reserved":false,"is_disabled":false,"rental_uris":{"android":"levelo://app?vid=f8a09b64-264b-4396-a0a3-0dfcbeca2e33","ios":"levelo://app?vid=f8a09b64-264b-4396-a0a3-0dfcbeca2e33"},"vehicle_type_id":"4","last_reported":1729059181,"current_range_meters":36800,"station_id":"ce4bh392rcd13ifvqdm0","pricing_plan_id":"cebpf4jnsgd1na2vs0mg"},{"bike_id":"433f6513-bfc9-4015-8583-49fa8b9c7c86","system_id":"levelo_inurba_marseille","lat":43.26561,"lon":5.37292,"is_reserved":false,"is_disabled":false,"rental_uris":{"android":"levelo://app?vid=433f6513-bfc9-4015-8583-49fa8b9c7c86","ios":"levelo://app?vid=433f6513-bfc9-4015-8583-49fa8b9c7c86"},"vehicle_type_id":"4","last_reported":1729059181,"current_range_meters":28400,"station_id":"ce4bhg12rcd13ifvqf70","pricing_plan_id":"cebpf4jnsgd1na2vs0mg"},{"bike_id":"08e24e63-f1d6-4132-aba3-61f9dfaab35b","system_id":"levelo_inurba_marseille","lat":43.297821,"lon":5.376847,"is_reserved":false,"is_disabled":false,"rental_uris":{"android":"levelo://app?vid=08e24e63-f1d6-4132-aba3-61f9dfaab35b","ios":"levelo://app?vid=08e24e63-f1d6-4132-aba3-61f9dfaab35b"},"vehicle_type_id":"4","last_reported":1729059181,"current_range_meters":37600,"station_id":"ce4bhg92rcd13ifvqf90","pricing_plan_id":"cebpf4jnsgd1na2vs0mg"},{"bike_id":"48d666f5-32bb-44dc-95cd-1df291bb8e9f","system_id":"levelo_inurba_marseille","lat":43.30149,"lon":5.3808,"is_reserved":false,"is_disabled":false,"rental_uris":{"android":"levelo://app?vid=48d666f5-32bb-44dc-95cd-1df291bb8e9f","ios":"levelo://app?vid=48d666f5-32bb-44dc-95cd-1df291bb8e9f"},"vehicle_type_id":"4","last_reported":1729059181,"current_range_meters":38400,"station_id":"ce4bgjp2rcd13ifvqbh0","pricing_plan_id":"cebpf4jnsgd1na2vs0mg"},{"bike_id":"6c073d0b-b641-44cb-85e1-0baa4943bbd8","system_id":"levelo_inurba_marseille","lat":43.27494,"lon":5.4245,"is_reserved":false,"is_disabled":false,"rental_uris":{"android":"levelo://app?vid=6c073d0b-b641-44cb-85e1-0baa4943bbd8","ios":"levelo://app?vid=6c073d0b-b641-44cb-85e1-0baa4943bbd8"},"vehicle_type_id":"4","last_reported":1729059181,"current_range_meters":20000,"station_id":"ce4bhn92rcd13ifvqgrg","pricing_plan_id":"cebpf4jnsgd1na2vs0mg"},{"bike_id":"0e960bdf-86ad-4785-82f5-793ed149092d","system_id":"levelo_inurba_marseille","lat":43.284878,"lon":5.384321,"is_reserved":false,"is_disabled":false,"rental_uris":{"android":"levelo://app?vid=0e960bdf-86ad-4785-82f5-793ed149092d","ios":"levelo://app?vid=0e960bdf-86ad-4785-82f5-793ed149092d"},"vehicle_type_id":"4","last_reported":1729059181,"current_range_meters":38000,"station_id":"ce4bh512rcd13ifvqe3g","pricing_plan_id":"cebpf4jnsgd1na2vs0mg"},{"bike_id":"fedfba0a-b4f3-4f95-a54e-e2a24bff2a5c","system_id":"levelo_inurba_marseille","lat":43.32538,"lon":5.41429,"is_reserved":false,"is_disabled":false,"rental_uris":{"android":"levelo://app?vid=fedfba0a-b4f3-4f95-a54e-e2a24bff2a5c","ios":"levelo://app?vid=fedfba0a-b4f3-4f95-a54e-e2a24bff2a5c"},"vehicle_type_id":"4","last_reported":1729059181,"current_range_meters":29600,"station_id":"ce4bhq12rcd13ifvqhhg","pricing_plan_id":"cebpf4jnsgd1na2vs0mg"},{"bike_id":"9587d865-17ec-4725-897e-4424403d95bf","system_id":"levelo_inurba_marseille","lat":43.311629,"lon":5.387144,"is_reserved":false,"is_disabled":false,"rental_uris":{"android":"levelo://app?vid=9587d865-17ec-4725-897e-4424403d95bf","ios":"levelo://app?vid=9587d865-17ec-4725-897e-4424403d95bf"},"vehicle_type_id":"4","last_reported":1729059181,"current_range_meters":18800,"station_id":"ce4bh0h2rcd13ifvqd60","pricing_plan_id":"cebpf4jnsgd1na2vs0mg"},{"bike_id":"6300df2c-b9fe-4275-916d-dd75e59140c9","system_id":"levelo_inurba_marseille","lat":43.23196,"lon":5.35545,"is_reserved":false,"is_disabled":false,"rental_uris":{"android":"levelo://app?vid=6300df2c-b9fe-4275-916d-dd75e59140c9","ios":"levelo://app?vid=6300df2c-b9fe-4275-916d-dd75e59140c9"},"vehicle_type_id":"4","last_reported":1729059181,"current_range_meters":38400,"station_id":"ce4bhu92rcd13ifvqi70","pricing_plan_id":"cebpf4jnsgd1na2vs0mg"},{"bike_id":"8d4d0158-4334-4d55-af0b-6be8af41701c","system_id":"levelo_inurba_marseille","lat":43.32536,"lon":5.41428,"is_reserved":false,"is_disabled":false,"rental_uris":{"android":"levelo://app?vid=8d4d0158-4334-4d55-af0b-6be8af41701c","ios":"levelo://app?vid=8d4d0158-4334-4d55-af0b-6be8af41701c"},"vehicle_type_id":"4","last_reported":1729059181,"current_range_meters":9200,"station_id":"ce4bhq12rcd13ifvqhhg","pricing_plan_id":"cebpf4jnsgd1na2vs0mg"},{"bike_id":"bcb1566e-d9e0-4155-bf2b-fe496b670bdc","system_id":"levelo_inurba_marseille","lat":43.274696,"lon":5.424368,"is_reserved":false,"is_disabled":false,"rental_uris":{"android":"levelo://app?vid=bcb1566e-d9e0-4155-bf2b-fe496b670bdc","ios":"levelo://app?vid=bcb1566e-d9e0-4155-bf2b-fe496b670bdc"},"vehicle_type_id":"4","last_reported":1729059181,"current_range_meters":38400,"station_id":"ce4bhnp2rcd13ifvqh0g","pricing_plan_id":"cebpf4jnsgd1na2vs0mg"},{"bike_id":"f9bd20aa-623e-4ff4-975c-7d4cfab24d90","system_id":"levelo_inurba_marseille","lat":43.23175,"lon":5.39999,"is_reserved":false,"is_disabled":false,"rental_uris":{"android":"levelo://app?vid=f9bd20aa-623e-4ff4-975c-7d4cfab24d90","ios":"levelo://app?vid=f9bd20aa-623e-4ff4-975c-7d4cfab24d90"},"vehicle_type_id":"4","last_reported":1729059181,"current_range_meters":26800,"station_id":"ce4bhn12rcd13ifvqgqg","pricing_plan_id":"cebpf4jnsgd1na2vs0mg"},{"bike_id":"cef3dacc-ca8e-4bf6-a29a-336cee4d01dd","system_id":"levelo_inurba_marseille","lat":43.29277,"lon":5.40116,"is_reserved":false,"is_disabled":false,"rental_uris":{"android":"levelo://app?vid=cef3dacc-ca8e-4bf6-a29a-336cee4d01dd","ios":"levelo://app?vid=cef3dacc-ca8e-4bf6-a29a-336cee4d01dd"},"vehicle_type_id":"4","last_reported":1729059181,"current_range_meters":35600,"station_id":"ce4bh312rcd13ifvqdk0","pricing_plan_id":"cebpf4jnsgd1na2vs0mg"},{"bike_id":"2d0e0783-c5fd-4b92-813f-b8b58b6d5529","system_id":"levelo_inurba_marseille","lat":43.31685,"lon":5.40471,"is_reserved":false,"is_disabled":false,"rental_uris":{"android":"levelo://app?vid=2d0e0783-c5fd-4b92-813f-b8b58b6d5529","ios":"levelo://app?vid=2d0e0783-c5fd-4b92-813f-b8b58b6d5529"},"vehicle_type_id":"4","last_reported":1729059181,"current_range_meters":32400,"station_id":"ce4bh012rcd13ifvqd00","pricing_plan_id":"cebpf4jnsgd1na2vs0mg"},{"bike_id":"05d8fe53-5710-4a4a-8fc3-36f05ea88e7f","system_id":"levelo_inurba_marseille","lat":43.29092,"lon":5.3815,"is_reserved":false,"is_disabled":false,"rental_uris":{"android":"levelo://app?vid=05d8fe53-5710-4a4a-8fc3-36f05ea88e7f","ios":"levelo://app?vid=05d8fe53-5710-4a4a-8fc3-36f05ea88e7f"},"vehicle_type_id":"4","last_reported":1729059181,"current_range_meters":6800,"station_id":"ce4bh512rcd13ifvqe2g","pricing_plan_id":"cebpf4jnsgd1na2vs0mg"},{"bike_id":"2e27b999-0e69-425d-9c42-718e8c04baec","system_id":"levelo_inurba_marseille","lat":43.284043,"lon":5.375137,"is_reserved":false,"is_disabled":false,"rental_uris":{"android":"levelo://app?vid=2e27b999-0e69-425d-9c42-718e8c04baec","ios":"levelo://app?vid=2e27b999-0e69-425d-9c42-718e8c04baec"},"vehicle_type_id":"4","last_reported":1729059181,"current_range_meters":26000,"station_id":"ce4bh412rcd13ifvqds0","pricing_plan_id":"cebpf4jnsgd1na2vs0mg"},{"bike_id":"84517dd2-f8fc-4dc8-a07b-21a4b0225bcd","system_id":"levelo_inurba_marseille","lat":43.32534,"lon":5.41438,"is_reserved":false,"is_disabled":false,"rental_uris":{"android":"levelo://app?vid=84517dd2-f8fc-4dc8-a07b-21a4b0225bcd","ios":"levelo://app?vid=84517dd2-f8fc-4dc8-a07b-21a4b0225bcd"},"vehicle_type_id":"4","last_reported":1729059181,"current_range_meters":22400,"station_id":"ce4bhq12rcd13ifvqhhg","pricing_plan_id":"cebpf4jnsgd1na2vs0mg"},{"bike_id":"4a13a42e-6b05-47bc-8fc0-a11675b56735","system_id":"levelo_inurba_marseille","lat":43.30396,"lon":5.40012,"is_reserved":false,"is_disabled":false,"rental_uris":{"android":"levelo://app?vid=4a13a42e-6b05-47bc-8fc0-a11675b56735","ios":"levelo://app?vid=4a13a42e-6b05-47bc-8fc0-a11675b56735"},"vehicle_type_id":"4","last_reported":1729059181,"current_range_meters":33600,"station_id":"","pricing_plan_id":"cebpf4jnsgd1na2vs0mg"},{"bike_id":"c8cb2e36-5e5f-4aeb-bf11-cc0bf94d2037","system_id":"levelo_inurba_marseille","lat":43.26956,"lon":5.38635,"is_reserved":false,"is_disabled":false,"rental_uris":{"android":"levelo://app?vid=c8cb2e36-5e5f-4aeb-bf11-cc0bf94d2037","ios":"levelo://app?vid=c8cb2e36-5e5f-4aeb-bf11-cc0bf94d2037"},"vehicle_type_id":"4","last_reported":1729059181,"current_range_meters":25600,"station_id":"ce4bhh92rcd13ifvqfh0","pricing_plan_id":"cebpf4jnsgd1na2vs0mg"},{"bike_id":"602bd134-fdd6-4b99-ad25-6bc5e47df780","system_id":"levelo_inurba_marseille","lat":43.29305,"lon":5.37184,"is_reserved":false,"is_disabled":false,"rental_uris":{"android":"levelo://app?vid=602bd134-fdd6-4b99-ad25-6bc5e47df780","ios":"levelo://app?vid=602bd134-fdd6-4b99-ad25-6bc5e47df780"},"vehicle_type_id":"4","last_reported":1729059181,"current_range_meters":36800,"station_id":"ce4bgh92rcd13ifvqb40","pricing_plan_id":"cebpf4jnsgd1na2vs0mg"},{"bike_id":"7df59a0a-cdac-499c-bff9-e4fa11c094f4","system_id":"levelo_inurba_marseille","lat":43.30145,"lon":5.38079,"is_reserved":false,"is_disabled":false,"rental_uris":{"android":"levelo://app?vid=7df59a0a-cdac-499c-bff9-e4fa11c094f4","ios":"levelo://app?vid=7df59a0a-cdac-499c-bff9-e4fa11c094f4"},"vehicle_type_id":"4","last_reported":1729059181,"current_range_meters":26800,"station_id":"ce4bgjp2rcd13ifvqbh0","pricing_plan_id":"cebpf4jnsgd1na2vs0mg"},{"bike_id":"fa2949d0-b61f-4704-8f01-df6c7c877210","system_id":"levelo_inurba_marseille","lat":43.34139,"lon":5.40902,"is_reserved":false,"is_disabled":false,"rental_uris":{"android":"levelo://app?vid=fa2949d0-b61f-4704-8f01-df6c7c877210","ios":"levelo://app?vid=fa2949d0-b61f-4704-8f01-df6c7c877210"},"vehicle_type_id":"4","last_reported":1729059181,"current_range_meters":28400,"station_id":"ce4bhqh2rcd13ifvqhlg","pricing_plan_id":"cebpf4jnsgd1na2vs0mg"},{"bike_id":"2140b6a3-5118-4150-823e-9225aeb56201","system_id":"levelo_inurba_marseille","lat":43.2319,"lon":5.3554,"is_reserved":false,"is_disabled":false,"rental_uris":{"android":"levelo://app?vid=2140b6a3-5118-4150-823e-9225aeb56201","ios":"levelo://app?vid=2140b6a3-5118-4150-823e-9225aeb56201"},"vehicle_type_id":"4","last_reported":1729059181,"current_range_meters":4000,"station_id":"ce4bhu92rcd13ifvqi70","pricing_plan_id":"cebpf4jnsgd1na2vs0mg"},{"bike_id":"ca6904a9-036a-496e-a32e-29aeb21ac5a8","system_id":"levelo_inurba_marseille","lat":43.27059,"lon":5.40262,"is_reserved":false,"is_disabled":false,"rental_uris":{"android":"levelo://app?vid=ca6904a9-036a-496e-a32e-29aeb21ac5a8","ios":"levelo://app?vid=ca6904a9-036a-496e-a32e-29aeb21ac5a8"},"vehicle_type_id":"4","last_reported":1729059181,"current_range_meters":38400,"station_id":"ce4bhk92rcd13ifvqgc0","pricing_plan_id":"cebpf4jnsgd1na2vs0mg"},{"bike_id":"e7aedd00-f53a-48fd-a6a9-30d36c872d2e","system_id":"levelo_inurba_marseille","lat":43.30274,"lon":5.37699,"is_reserved":false,"is_disabled":false,"rental_uris":{"android":"levelo://app?vid=e7aedd00-f53a-48fd-a6a9-30d36c872d2e","ios":"levelo://app?vid=e7aedd00-f53a-48fd-a6a9-30d36c872d2e"},"vehicle_type_id":"4","last_reported":1729059181,"current_range_meters":38800,"station_id":"ce4bguh2rcd13ifvqcj0","pricing_plan_id":"cebpf4jnsgd1na2vs0mg"},{"bike_id":"13cfe5b3-c94f-4bec-858d-e2daec876b81","system_id":"levelo_inurba_marseille","lat":43.28362,"lon":5.38628,"is_reserved":false,"is_disabled":false,"rental_uris":{"android":"levelo://app?vid=13cfe5b3-c94f-4bec-858d-e2daec876b81","ios":"levelo://app?vid=13cfe5b3-c94f-4bec-858d-e2daec876b81"},"vehicle_type_id":"4","last_reported":1729059181,"current_range_meters":24800,"station_id":"ce4bh492rcd13ifvqdvg","pricing_plan_id":"cebpf4jnsgd1na2vs0mg"},{"bike_id":"52e37773-79c6-4443-94d6-5ed359faaaf0","system_id":"levelo_inurba_marseille","lat":43.30275,"lon":5.37704,"is_reserved":false,"is_disabled":false,"rental_uris":{"android":"levelo://app?vid=52e37773-79c6-4443-94d6-5ed359faaaf0","ios":"levelo://app?vid=52e37773-79c6-4443-94d6-5ed359faaaf0"},"vehicle_type_id":"4","last_reported":1729059181,"current_range_meters":8400,"station_id":"ce4bguh2rcd13ifvqcj0","pricing_plan_id":"cebpf4jnsgd1na2vs0mg"},{"bike_id":"2ef7640c-0ce7-4225-943a-0140a011a40d","system_id":"levelo_inurba_marseille","lat":43.2938,"lon":5.37242,"is_reserved":false,"is_disabled":false,"rental_uris":{"android":"levelo://app?vid=2ef7640c-0ce7-4225-943a-0140a011a40d","ios":"levelo://app?vid=2ef7640c-0ce7-4225-943a-0140a011a40d"},"vehicle_type_id":"4","last_reported":1729059181,"current_range_meters":35600,"station_id":"","pricing_plan_id":"cebpf4jnsgd1na2vs0mg"},{"bike_id":"244298d7-2e0a-4205-888c-2b0dcf480537","system_id":"levelo_inurba_marseille","lat":43.29798,"lon":5.38104,"is_reserved":false,"is_disabled":false,"rental_uris":{"android":"levelo://app?vid=244298d7-2e0a-4205-888c-2b0dcf480537","ios":"levelo://app?vid=244298d7-2e0a-4205-888c-2b0dcf480537"},"vehicle_type_id":"4","last_reported":1729059181,"current_range_meters":38400,"station_id":"ce4bgip2rcd13ifvqbb0","pricing_plan_id":"cebpf4jnsgd1na2vs0mg"},{"bike_id":"fe0ed97f-0597-4aef-86e2-d5d073ff43d3","system_id":"levelo_inurba_marseille","lat":43.295505,"lon":5.422835,"is_reserved":false,"is_disabled":false,"rental_uris":{"android":"levelo://app?vid=fe0ed97f-0597-4aef-86e2-d5d073ff43d3","ios":"levelo://app?vid=fe0ed97f-0597-4aef-86e2-d5d073ff43d3"},"vehicle_type_id":"4","last_reported":1729059181,"current_range_meters":38400,"station_id":"ce4bhph2rcd13ifvqhdg","pricing_plan_id":"cebpf4jnsgd1na2vs0mg"},{"bike_id":"5222c1e9-8896-449e-9b57-a524eda31739","system_id":"levelo_inurba_marseille","lat":43.3014,"lon":5.38073,"is_reserved":false,"is_disabled":false,"rental_uris":{"android":"levelo://app?vid=5222c1e9-8896-449e-9b57-a524eda31739","ios":"levelo://app?vid=5222c1e9-8896-449e-9b57-a524eda31739"},"vehicle_type_id":"4","last_reported":1729059181,"current_range_meters":36800,"station_id":"ce4bgjp2rcd13ifvqbh0","pricing_plan_id":"cebpf4jnsgd1na2vs0mg"},{"bike_id":"3a5ea804-7c74-4079-8f21-034fdf82f6fb","system_id":"levelo_inurba_marseille","lat":43.27493,"lon":5.42456,"is_reserved":false,"is_disabled":false,"rental_uris":{"android":"levelo://app?vid=3a5ea804-7c74-4079-8f21-034fdf82f6fb","ios":"levelo://app?vid=3a5ea804-7c74-4079-8f21-034fdf82f6fb"},"vehicle_type_id":"4","last_reported":1729059181,"current_range_meters":37600,"station_id":"ce4bhn92rcd13ifvqgrg","pricing_plan_id":"cebpf4jnsgd1na2vs0mg"},{"bike_id":"9edfb9e6-9161-423b-9976-81ea567d3000","system_id":"levelo_inurba_marseille","lat":43.30461,"lon":5.37899,"is_reserved":false,"is_disabled":false,"rental_uris":{"android":"levelo://app?vid=9edfb9e6-9161-423b-9976-81ea567d3000","ios":"levelo://app?vid=9edfb9e6-9161-423b-9976-81ea567d3000"},"vehicle_type_id":"4","last_reported":1729059181,"current_range_meters":30400,"station_id":"ce4bgup2rcd13ifvqcn0","pricing_plan_id":"cebpf4jnsgd1na2vs0mg"},{"bike_id":"9990c8c9-ffa5-4c57-a0d1-e51538e7cdec","system_id":"levelo_inurba_marseille","lat":43.30147,"lon":5.38077,"is_reserved":false,"is_disabled":false,"rental_uris":{"android":"levelo://app?vid=9990c8c9-ffa5-4c57-a0d1-e51538e7cdec","ios":"levelo://app?vid=9990c8c9-ffa5-4c57-a0d1-e51538e7cdec"},"vehicle_type_id":"4","last_reported":1729059181,"current_range_meters":37600,"station_id":"ce4bgjp2rcd13ifvqbh0","pricing_plan_id":"cebpf4jnsgd1na2vs0mg"},{"bike_id":"679f4f3c-0203-4f7d-9836-538010d8d024","system_id":"levelo_inurba_marseille","lat":43.280416,"lon":5.369385,"is_reserved":false,"is_disabled":false,"rental_uris":{"android":"levelo://app?vid=679f4f3c-0203-4f7d-9836-538010d8d024","ios":"levelo://app?vid=679f4f3c-0203-4f7d-9836-538010d8d024"},"vehicle_type_id":"4","last_reported":1729059181,"current_range_meters":38000,"station_id":"ce4bha12rcd13ifvqef0","pricing_plan_id":"cebpf4jnsgd1na2vs0mg"},{"bike_id":"d4660c65-9df4-4ab3-b055-aff9dba4a3ce","system_id":"levelo_inurba_marseille","lat":43.30457,"lon":5.37894,"is_reserved":false,"is_disabled":false,"rental_uris":{"android":"levelo://app?vid=d4660c65-9df4-4ab3-b055-aff9dba4a3ce","ios":"levelo://app?vid=d4660c65-9df4-4ab3-b055-aff9dba4a3ce"},"vehicle_type_id":"4","last_reported":1729059181,"current_range_meters":39200,"station_id":"ce4bgup2rcd13ifvqcn0","pricing_plan_id":"cebpf4jnsgd1na2vs0mg"},{"bike_id":"e48ac49d-4b87-4946-aad7-d8f98e92e21d","system_id":"levelo_inurba_marseille","lat":43.29841,"lon":5.36264,"is_reserved":false,"is_disabled":false,"rental_uris":{"android":"levelo://app?vid=e48ac49d-4b87-4946-aad7-d8f98e92e21d","ios":"levelo://app?vid=e48ac49d-4b87-4946-aad7-d8f98e92e21d"},"vehicle_type_id":"4","last_reported":1729059181,"current_range_meters":34000,"station_id":"ce4bgpp2rcd13ifvqc3g","pricing_plan_id":"cebpf4jnsgd1na2vs0mg"},{"bike_id":"b14ae77d-e139-433e-89e5-f39ec3bbc161","system_id":"levelo_inurba_marseille","lat":43.29791,"lon":5.38114,"is_reserved":false,"is_disabled":false,"rental_uris":{"android":"levelo://app?vid=b14ae77d-e139-433e-89e5-f39ec3bbc161","ios":"levelo://app?vid=b14ae77d-e139-433e-89e5-f39ec3bbc161"},"vehicle_type_id":"4","last_reported":1729059181,"current_range_meters":36400,"station_id":"ce4bgip2rcd13ifvqbb0","pricing_plan_id":"cebpf4jnsgd1na2vs0mg"},{"bike_id":"3213665e-989c-4d22-9f5a-31c8522597dd","system_id":"levelo_inurba_marseille","lat":43.296,"lon":5.36142,"is_reserved":false,"is_disabled":false,"rental_uris":{"android":"levelo://app?vid=3213665e-989c-4d22-9f5a-31c8522597dd","ios":"levelo://app?vid=3213665e-989c-4d22-9f5a-31c8522597dd"},"vehicle_type_id":"4","last_reported":1729059181,"current_range_meters":34000,"station_id":"","pricing_plan_id":"cebpf4jnsgd1na2vs0mg"},{"bike_id":"42781909-ac05-4571-86bb-99a95ba104b6","system_id":"levelo_inurba_marseille","lat":43.29262,"lon":5.40139,"is_reserved":false,"is_disabled":false,"rental_uris":{"android":"levelo://app?vid=42781909-ac05-4571-86bb-99a95ba104b6","ios":"levelo://app?vid=42781909-ac05-4571-86bb-99a95ba104b6"},"vehicle_type_id":"4","last_reported":1729059181,"current_range_meters":38800,"station_id":"ce4bh312rcd13ifvqdk0","pricing_plan_id":"cebpf4jnsgd1na2vs0mg"},{"bike_id":"b1ea80fd-f594-4800-b1c3-0cae0163f2e7","system_id":"levelo_inurba_marseille","lat":43.31484,"lon":5.37297,"is_reserved":false,"is_disabled":false,"rental_uris":{"android":"levelo://app?vid=b1ea80fd-f594-4800-b1c3-0cae0163f2e7","ios":"levelo://app?vid=b1ea80fd-f594-4800-b1c3-0cae0163f2e7"},"vehicle_type_id":"4","last_reported":1729059181,"current_range_meters":15200,"station_id":"ce4bgt12rcd13ifvqcd0","pricing_plan_id":"cebpf4jnsgd1na2vs0mg"},{"bike_id":"ffa2c653-c658-49dd-ae3f-7355fdcb38a1","system_id":"levelo_inurba_marseille","lat":43.28376,"lon":5.38641,"is_reserved":false,"is_disabled":false,"rental_uris":{"android":"levelo://app?vid=ffa2c653-c658-49dd-ae3f-7355fdcb38a1","ios":"levelo://app?vid=ffa2c653-c658-49dd-ae3f-7355fdcb38a1"},"vehicle_type_id":"4","last_reported":1729059181,"current_range_meters":38800,"station_id":"ce4bh492rcd13ifvqdvg","pricing_plan_id":"cebpf4jnsgd1na2vs0mg"},{"bike_id":"37e1f7b9-12a7-444a-9ec8-690164efbd86","system_id":"levelo_inurba_marseille","lat":43.26551,"lon":5.37292,"is_reserved":false,"is_disabled":false,"rental_uris":{"android":"levelo://app?vid=37e1f7b9-12a7-444a-9ec8-690164efbd86","ios":"levelo://app?vid=37e1f7b9-12a7-444a-9ec8-690164efbd86"},"vehicle_type_id":"4","last_reported":1729059181,"current_range_meters":38000,"station_id":"ce4bhg12rcd13ifvqf70","pricing_plan_id":"cebpf4jnsgd1na2vs0mg"},{"bike_id":"1641b826-604a-4181-8231-dca386f637a6","system_id":"levelo_inurba_marseille","lat":43.23192,"lon":5.35547,"is_reserved":false,"is_disabled":false,"rental_uris":{"android":"levelo://app?vid=1641b826-604a-4181-8231-dca386f637a6","ios":"levelo://app?vid=1641b826-604a-4181-8231-dca386f637a6"},"vehicle_type_id":"4","last_reported":1729059181,"current_range_meters":38400,"station_id":"ce4bhu92rcd13ifvqi70","pricing_plan_id":"cebpf4jnsgd1na2vs0mg"},{"bike_id":"89211ee2-076f-4df3-92bd-cd8885f2e76d","system_id":"levelo_inurba_marseille","lat":43.23193,"lon":5.35556,"is_reserved":false,"is_disabled":false,"rental_uris":{"android":"levelo://app?vid=89211ee2-076f-4df3-92bd-cd8885f2e76d","ios":"levelo://app?vid=89211ee2-076f-4df3-92bd-cd8885f2e76d"},"vehicle_type_id":"4","last_reported":1729059181,"current_range_meters":38400,"station_id":"ce4bhu92rcd13ifvqi70","pricing_plan_id":"cebpf4jnsgd1na2vs0mg"},{"bike_id":"dd01d293-8b5a-43b9-817f-92f44e1ab6c8","system_id":"levelo_inurba_marseille","lat":43.2835,"lon":5.38104,"is_reserved":false,"is_disabled":false,"rental_uris":{"android":"levelo://app?vid=dd01d293-8b5a-43b9-817f-92f44e1ab6c8","ios":"levelo://app?vid=dd01d293-8b5a-43b9-817f-92f44e1ab6c8"},"vehicle_type_id":"4","last_reported":1729059181,"current_range_meters":24400,"station_id":"ce4bh412rcd13ifvqdr0","pricing_plan_id":"cebpf4jnsgd1na2vs0mg"},{"bike_id":"9dabbb9f-2820-49db-acc7-73662a324005","system_id":"levelo_inurba_marseille","lat":43.33721,"lon":5.3919,"is_reserved":false,"is_disabled":false,"rental_uris":{"android":"levelo://app?vid=9dabbb9f-2820-49db-acc7-73662a324005","ios":"levelo://app?vid=9dabbb9f-2820-49db-acc7-73662a324005"},"vehicle_type_id":"4","last_reported":1729059181,"current_range_meters":33200,"station_id":"ce4bhr92rcd13ifvqhsg","pricing_plan_id":"cebpf4jnsgd1na2vs0mg"},{"bike_id":"b9e4e21b-02f0-413b-8b2b-6057008479b5","system_id":"levelo_inurba_marseille","lat":43.3149,"lon":5.3731,"is_reserved":false,"is_disabled":false,"rental_uris":{"android":"levelo://app?vid=b9e4e21b-02f0-413b-8b2b-6057008479b5","ios":"levelo://app?vid=b9e4e21b-02f0-413b-8b2b-6057008479b5"},"vehicle_type_id":"4","last_reported":1729059181,"current_range_meters":38000,"station_id":"ce4bgt12rcd13ifvqcd0","pricing_plan_id":"cebpf4jnsgd1na2vs0mg"},{"bike_id":"3dbe86bf-51f0-4373-8e33-4903b70eb159","system_id":"levelo_inurba_marseille","lat":43.33605,"lon":5.41032,"is_reserved":false,"is_disabled":false,"rental_uris":{"android":"levelo://app?vid=3dbe86bf-51f0-4373-8e33-4903b70eb159","ios":"levelo://app?vid=3dbe86bf-51f0-4373-8e33-4903b70eb159"},"vehicle_type_id":"4","last_reported":1729059181,"current_range_meters":30400,"station_id":"ce4bhqh2rcd13ifvqhmg","pricing_plan_id":"cebpf4jnsgd1na2vs0mg"},{"bike_id":"55a3337e-c45f-4bce-93ec-a4b648c24a42","system_id":"levelo_inurba_marseille","lat":43.229324,"lon":5.353774,"is_reserved":false,"is_disabled":false,"rental_uris":{"android":"levelo://app?vid=55a3337e-c45f-4bce-93ec-a4b648c24a42","ios":"levelo://app?vid=55a3337e-c45f-4bce-93ec-a4b648c24a42"},"vehicle_type_id":"4","last_reported":1729059181,"current_range_meters":36800,"station_id":"cpo3532slgdg3j2ikp40","pricing_plan_id":"cebpf4jnsgd1na2vs0mg"},{"bike_id":"544bc2e1-08ff-4986-aebe-a5d6896edb93","system_id":"levelo_inurba_marseille","lat":43.30592,"lon":5.3935,"is_reserved":false,"is_disabled":false,"rental_uris":{"android":"levelo://app?vid=544bc2e1-08ff-4986-aebe-a5d6896edb93","ios":"levelo://app?vid=544bc2e1-08ff-4986-aebe-a5d6896edb93"},"vehicle_type_id":"4","last_reported":1729059181,"current_range_meters":12000,"station_id":"ce4bh0p2rcd13ifvqd80","pricing_plan_id":"cebpf4jnsgd1na2vs0mg"},{"bike_id":"5ae73f15-f13a-48bf-8df6-4946388a8df4","system_id":"levelo_inurba_marseille","lat":43.27951,"lon":5.386887,"is_reserved":false,"is_disabled":false,"rental_uris":{"android":"levelo://app?vid=5ae73f15-f13a-48bf-8df6-4946388a8df4","ios":"levelo://app?vid=5ae73f15-f13a-48bf-8df6-4946388a8df4"},"vehicle_type_id":"4","last_reported":1729059181,"current_range_meters":37600,"station_id":"ce4bhjp2rcd13ifvqga0","pricing_plan_id":"cebpf4jnsgd1na2vs0mg"},{"bike_id":"c50f4a7e-fd65-47a3-a2a5-a8742f16687c","system_id":"levelo_inurba_marseille","lat":43.28153,"lon":5.4264,"is_reserved":false,"is_disabled":false,"rental_uris":{"android":"levelo://app?vid=c50f4a7e-fd65-47a3-a2a5-a8742f16687c","ios":"levelo://app?vid=c50f4a7e-fd65-47a3-a2a5-a8742f16687c"},"vehicle_type_id":"4","last_reported":1729059181,"current_range_meters":33600,"station_id":"ce4bhnh2rcd13ifvqgug","pricing_plan_id":"cebpf4jnsgd1na2vs0mg"},{"bike_id":"2b699e8a-355c-4388-a6b8-0acf9dfbd36f","system_id":"levelo_inurba_marseille","lat":43.303497,"lon":5.418877,"is_reserved":false,"is_disabled":false,"rental_uris":{"android":"levelo://app?vid=2b699e8a-355c-4388-a6b8-0acf9dfbd36f","ios":"levelo://app?vid=2b699e8a-355c-4388-a6b8-0acf9dfbd36f"},"vehicle_type_id":"4","last_reported":1729059181,"current_range_meters":38800,"station_id":"ce4bh0h2rcd13ifvqd40","pricing_plan_id":"cebpf4jnsgd1na2vs0mg"},{"bike_id":"22dc30f9-23d1-4057-a1f4-11efdae7a6a0","system_id":"levelo_inurba_marseille","lat":43.26954,"lon":5.38636,"is_reserved":false,"is_disabled":false,"rental_uris":{"android":"levelo://app?vid=22dc30f9-23d1-4057-a1f4-11efdae7a6a0","ios":"levelo://app?vid=22dc30f9-23d1-4057-a1f4-11efdae7a6a0"},"vehicle_type_id":"4","last_reported":1729059181,"current_range_meters":31200,"station_id":"ce4bhh92rcd13ifvqfh0","pricing_plan_id":"cebpf4jnsgd1na2vs0mg"},{"bike_id":"2ea65bb2-7323-4b3a-b7ca-83d904989c73","system_id":"levelo_inurba_marseille","lat":43.28857,"lon":5.35855,"is_reserved":false,"is_disabled":false,"rental_uris":{"android":"levelo://app?vid=2ea65bb2-7323-4b3a-b7ca-83d904989c73","ios":"levelo://app?vid=2ea65bb2-7323-4b3a-b7ca-83d904989c73"},"vehicle_type_id":"4","last_reported":1729059181,"current_range_meters":4400,"station_id":"ce4bhb12rcd13ifvqem0","pricing_plan_id":"cebpf4jnsgd1na2vs0mg"},{"bike_id":"eea79da3-80a5-42c6-8540-1400d7d1121f","system_id":"levelo_inurba_marseille","lat":43.23192,"lon":5.3554,"is_reserved":false,"is_disabled":false,"rental_uris":{"android":"levelo://app?vid=eea79da3-80a5-42c6-8540-1400d7d1121f","ios":"levelo://app?vid=eea79da3-80a5-42c6-8540-1400d7d1121f"},"vehicle_type_id":"4","last_reported":1729059181,"current_range_meters":25600,"station_id":"ce4bhu92rcd13ifvqi70","pricing_plan_id":"cebpf4jnsgd1na2vs0mg"},{"bike_id":"3e5f77f2-0018-4a3e-8eb4-afb609debd36","system_id":"levelo_inurba_marseille","lat":43.27061,"lon":5.40254,"is_reserved":false,"is_disabled":false,"rental_uris":{"android":"levelo://app?vid=3e5f77f2-0018-4a3e-8eb4-afb609debd36","ios":"levelo://app?vid=3e5f77f2-0018-4a3e-8eb4-afb609debd36"},"vehicle_type_id":"4","last_reported":1729059181,"current_range_meters":38800,"station_id":"ce4bhk92rcd13ifvqgc0","pricing_plan_id":"cebpf4jnsgd1na2vs0mg"},{"bike_id":"bfe6236b-33bf-4eaa-8a74-a6587f86e48e","system_id":"levelo_inurba_marseille","lat":43.25829,"lon":5.39427,"is_reserved":false,"is_disabled":false,"rental_uris":{"android":"levelo://app?vid=bfe6236b-33bf-4eaa-8a74-a6587f86e48e","ios":"levelo://app?vid=bfe6236b-33bf-4eaa-8a74-a6587f86e48e"},"vehicle_type_id":"4","last_reported":1729059181,"current_range_meters":27600,"station_id":"ce4bhip2rcd13ifvqft0","pricing_plan_id":"cebpf4jnsgd1na2vs0mg"},{"bike_id":"349d4d86-c4ef-4ecd-90b3-bb397fff77fb","system_id":"levelo_inurba_marseille","lat":43.3059,"lon":5.39357,"is_reserved":false,"is_disabled":false,"rental_uris":{"android":"levelo://app?vid=349d4d86-c4ef-4ecd-90b3-bb397fff77fb","ios":"levelo://app?vid=349d4d86-c4ef-4ecd-90b3-bb397fff77fb"},"vehicle_type_id":"4","last_reported":1729059181,"current_range_meters":35200,"station_id":"ce4bh0p2rcd13ifvqd80","pricing_plan_id":"cebpf4jnsgd1na2vs0mg"},{"bike_id":"39c87495-e919-48df-ad42-0b47d2014833","system_id":"levelo_inurba_marseille","lat":43.23149,"lon":5.43717,"is_reserved":false,"is_disabled":false,"rental_uris":{"android":"levelo://app?vid=39c87495-e919-48df-ad42-0b47d2014833","ios":"levelo://app?vid=39c87495-e919-48df-ad42-0b47d2014833"},"vehicle_type_id":"4","last_reported":1729059181,"current_range_meters":7200,"station_id":"ce4bhmp2rcd13ifvqgog","pricing_plan_id":"cebpf4jnsgd1na2vs0mg"},{"bike_id":"16e8569e-9f49-4b55-b1d2-cd42a0e72b85","system_id":"levelo_inurba_marseille","lat":43.30527,"lon":5.38426,"is_reserved":false,"is_disabled":false,"rental_uris":{"android":"levelo://app?vid=16e8569e-9f49-4b55-b1d2-cd42a0e72b85","ios":"levelo://app?vid=16e8569e-9f49-4b55-b1d2-cd42a0e72b85"},"vehicle_type_id":"4","last_reported":1729059181,"current_range_meters":38800,"station_id":"ce4bgg92rcd13ifvqb30","pricing_plan_id":"cebpf4jnsgd1na2vs0mg"},{"bike_id":"ff96eee3-1ac8-4888-9ae7-e4b6cc8154af","system_id":"levelo_inurba_marseille","lat":43.33739,"lon":5.3746,"is_reserved":false,"is_disabled":false,"rental_uris":{"android":"levelo://app?vid=ff96eee3-1ac8-4888-9ae7-e4b6cc8154af","ios":"levelo://app?vid=ff96eee3-1ac8-4888-9ae7-e4b6cc8154af"},"vehicle_type_id":"4","last_reported":1729059181,"current_range_meters":30400,"station_id":"","pricing_plan_id":"cebpf4jnsgd1na2vs0mg"},{"bike_id":"0a9eb6fa-a70f-4289-b7fa-22f5f3ef03f8","system_id":"levelo_inurba_marseille","lat":43.29928,"lon":5.38027,"is_reserved":false,"is_disabled":false,"rental_uris":{"android":"levelo://app?vid=0a9eb6fa-a70f-4289-b7fa-22f5f3ef03f8","ios":"levelo://app?vid=0a9eb6fa-a70f-4289-b7fa-22f5f3ef03f8"},"vehicle_type_id":"4","last_reported":1729059181,"current_range_meters":6800,"station_id":"ce4bhnh2rcd13ifvqgtg","pricing_plan_id":"cebpf4jnsgd1na2vs0mg"},{"bike_id":"92094f8d-f1a9-41a9-b9dc-06758f29af00","system_id":"levelo_inurba_marseille","lat":43.30899,"lon":5.36833,"is_reserved":false,"is_disabled":false,"rental_uris":{"android":"levelo://app?vid=92094f8d-f1a9-41a9-b9dc-06758f29af00","ios":"levelo://app?vid=92094f8d-f1a9-41a9-b9dc-06758f29af00"},"vehicle_type_id":"4","last_reported":1729059181,"current_range_meters":37600,"station_id":"ce4bgn92rcd13ifvqbvg","pricing_plan_id":"cebpf4jnsgd1na2vs0mg"},{"bike_id":"4d71b1a0-00c3-4e7d-9ef2-759d8c743481","system_id":"levelo_inurba_marseille","lat":43.25578,"lon":5.38227,"is_reserved":false,"is_disabled":false,"rental_uris":{"android":"levelo://app?vid=4d71b1a0-00c3-4e7d-9ef2-759d8c743481","ios":"levelo://app?vid=4d71b1a0-00c3-4e7d-9ef2-759d8c743481"},"vehicle_type_id":"4","last_reported":1729059181,"current_range_meters":34800,"station_id":"ce4bhih2rcd13ifvqfs0","pricing_plan_id":"cebpf4jnsgd1na2vs0mg"},{"bike_id":"5450a878-038f-43d3-9aca-ce16de122cda","system_id":"levelo_inurba_marseille","lat":43.30143,"lon":5.38079,"is_reserved":false,"is_disabled":false,"rental_uris":{"android":"levelo://app?vid=5450a878-038f-43d3-9aca-ce16de122cda","ios":"levelo://app?vid=5450a878-038f-43d3-9aca-ce16de122cda"},"vehicle_type_id":"4","last_reported":1729059181,"current_range_meters":9200,"station_id":"ce4bgjp2rcd13ifvqbh0","pricing_plan_id":"cebpf4jnsgd1na2vs0mg"},{"bike_id":"4a6f41dc-8c4a-4f44-8dc8-add557fd2ced","system_id":"levelo_inurba_marseille","lat":43.28873,"lon":5.35851,"is_reserved":false,"is_disabled":false,"rental_uris":{"android":"levelo://app?vid=4a6f41dc-8c4a-4f44-8dc8-add557fd2ced","ios":"levelo://app?vid=4a6f41dc-8c4a-4f44-8dc8-add557fd2ced"},"vehicle_type_id":"4","last_reported":1729059181,"current_range_meters":38800,"station_id":"ce4bhb12rcd13ifvqem0","pricing_plan_id":"cebpf4jnsgd1na2vs0mg"},{"bike_id":"3cbb7131-f6c7-4b9c-b7c3-a49dca6c9c4c","system_id":"levelo_inurba_marseille","lat":43.27492,"lon":5.42456,"is_reserved":false,"is_disabled":false,"rental_uris":{"android":"levelo://app?vid=3cbb7131-f6c7-4b9c-b7c3-a49dca6c9c4c","ios":"levelo://app?vid=3cbb7131-f6c7-4b9c-b7c3-a49dca6c9c4c"},"vehicle_type_id":"4","last_reported":1729059181,"current_range_meters":34000,"station_id":"ce4bhn92rcd13ifvqgrg","pricing_plan_id":"cebpf4jnsgd1na2vs0mg"},{"bike_id":"6a074227-ef12-4bc5-b79f-51619d2e15b3","system_id":"levelo_inurba_marseille","lat":43.27923,"lon":5.40769,"is_reserved":false,"is_disabled":false,"rental_uris":{"android":"levelo://app?vid=6a074227-ef12-4bc5-b79f-51619d2e15b3","ios":"levelo://app?vid=6a074227-ef12-4bc5-b79f-51619d2e15b3"},"vehicle_type_id":"4","last_reported":1729059181,"current_range_meters":7200,"station_id":"ce4bhnh2rcd13ifvqgtg","pricing_plan_id":"cebpf4jnsgd1na2vs0mg"},{"bike_id":"79991d3d-436d-404c-880e-51d74dc7bda4","system_id":"levelo_inurba_marseille","lat":43.25579,"lon":5.38236,"is_reserved":false,"is_disabled":false,"rental_uris":{"android":"levelo://app?vid=79991d3d-436d-404c-880e-51d74dc7bda4","ios":"levelo://app?vid=79991d3d-436d-404c-880e-51d74dc7bda4"},"vehicle_type_id":"4","last_reported":1729059181,"current_range_meters":36800,"station_id":"ce4bhih2rcd13ifvqfs0","pricing_plan_id":"cebpf4jnsgd1na2vs0mg"},{"bike_id":"3d2a3428-1782-4835-ae61-b4cc1330d3aa","system_id":"levelo_inurba_marseille","lat":43.31723,"lon":5.42406,"is_reserved":false,"is_disabled":false,"rental_uris":{"android":"levelo://app?vid=3d2a3428-1782-4835-ae61-b4cc1330d3aa","ios":"levelo://app?vid=3d2a3428-1782-4835-ae61-b4cc1330d3aa"},"vehicle_type_id":"4","last_reported":1729059181,"current_range_meters":20800,"station_id":"ce4bhp92rcd13ifvqhbg","pricing_plan_id":"cebpf4jnsgd1na2vs0mg"},{"bike_id":"923909c1-d0bc-48ba-b167-16ee903340bd","system_id":"levelo_inurba_marseille","lat":43.23957,"lon":5.36624,"is_reserved":false,"is_disabled":false,"rental_uris":{"android":"levelo://app?vid=923909c1-d0bc-48ba-b167-16ee903340bd","ios":"levelo://app?vid=923909c1-d0bc-48ba-b167-16ee903340bd"},"vehicle_type_id":"4","last_reported":1729059181,"current_range_meters":38000,"station_id":"ce4bhi12rcd13ifvqfp0","pricing_plan_id":"cebpf4jnsgd1na2vs0mg"},{"bike_id":"d14183aa-e5a5-4e39-9870-86ae53e80e4a","system_id":"levelo_inurba_marseille","lat":43.27422,"lon":5.39412,"is_reserved":false,"is_disabled":false,"rental_uris":{"android":"levelo://app?vid=d14183aa-e5a5-4e39-9870-86ae53e80e4a","ios":"levelo://app?vid=d14183aa-e5a5-4e39-9870-86ae53e80e4a"},"vehicle_type_id":"4","last_reported":1729059181,"current_range_meters":7200,"station_id":"ce4bhdp2rcd13ifvqf20","pricing_plan_id":"cebpf4jnsgd1na2vs0mg"},{"bike_id":"292b9425-1372-40d4-bf0a-fe57aa779a41","system_id":"levelo_inurba_marseille","lat":43.23061,"lon":5.35499,"is_reserved":false,"is_disabled":false,"rental_uris":{"android":"levelo://app?vid=292b9425-1372-40d4-bf0a-fe57aa779a41","ios":"levelo://app?vid=292b9425-1372-40d4-bf0a-fe57aa779a41"},"vehicle_type_id":"4","last_reported":1729059181,"current_range_meters":29600,"station_id":"cpo3342slgdg3j2ifvpg","pricing_plan_id":"cebpf4jnsgd1na2vs0mg"},{"bike_id":"62dcd66c-ac21-40ac-8398-53abfe185a2c","system_id":"levelo_inurba_marseille","lat":43.2871,"lon":5.37947,"is_reserved":false,"is_disabled":false,"rental_uris":{"android":"levelo://app?vid=62dcd66c-ac21-40ac-8398-53abfe185a2c","ios":"levelo://app?vid=62dcd66c-ac21-40ac-8398-53abfe185a2c"},"vehicle_type_id":"4","last_reported":1729059181,"current_range_meters":35600,"station_id":"ce4bh9p2rcd13ifvqec0","pricing_plan_id":"cebpf4jnsgd1na2vs0mg"},{"bike_id":"60c7ceff-fef3-4380-98cf-0ac594b84256","system_id":"levelo_inurba_marseille","lat":43.28716,"lon":5.37937,"is_reserved":false,"is_disabled":false,"rental_uris":{"android":"levelo://app?vid=60c7ceff-fef3-4380-98cf-0ac594b84256","ios":"levelo://app?vid=60c7ceff-fef3-4380-98cf-0ac594b84256"},"vehicle_type_id":"4","last_reported":1729059181,"current_range_meters":38000,"station_id":"ce4bh9p2rcd13ifvqec0","pricing_plan_id":"cebpf4jnsgd1na2vs0mg"},{"bike_id":"dceec7bd-37a8-4ec2-91a2-608d46384343","system_id":"levelo_inurba_marseille","lat":43.29382,"lon":5.37837,"is_reserved":false,"is_disabled":false,"rental_uris":{"android":"levelo://app?vid=dceec7bd-37a8-4ec2-91a2-608d46384343","ios":"levelo://app?vid=dceec7bd-37a8-4ec2-91a2-608d46384343"},"vehicle_type_id":"4","last_reported":1729059181,"current_range_meters":37600,"station_id":"ce4bgjh2rcd13ifvqbf0","pricing_plan_id":"cebpf4jnsgd1na2vs0mg"},{"bike_id":"808b39ee-a808-48ac-829a-39303c6ed5f8","system_id":"levelo_inurba_marseille","lat":43.303375,"lon":5.404315,"is_reserved":false,"is_disabled":false,"rental_uris":{"android":"levelo://app?vid=808b39ee-a808-48ac-829a-39303c6ed5f8","ios":"levelo://app?vid=808b39ee-a808-48ac-829a-39303c6ed5f8"},"vehicle_type_id":"4","last_reported":1729059181,"current_range_meters":6000,"station_id":"","pricing_plan_id":"cebpf4jnsgd1na2vs0mg"},{"bike_id":"15b35919-45f3-4373-8ade-5ac5904ea255","system_id":"levelo_inurba_marseille","lat":43.27967,"lon":5.38728,"is_reserved":false,"is_disabled":false,"rental_uris":{"android":"levelo://app?vid=15b35919-45f3-4373-8ade-5ac5904ea255","ios":"levelo://app?vid=15b35919-45f3-4373-8ade-5ac5904ea255"},"vehicle_type_id":"4","last_reported":1729059181,"current_range_meters":31200,"station_id":"ce4bhg12rcd13ifvqf80","pricing_plan_id":"cebpf4jnsgd1na2vs0mg"},{"bike_id":"c1885f96-3835-411b-8381-bea365b6379b","system_id":"levelo_inurba_marseille","lat":43.29259,"lon":5.40902,"is_reserved":false,"is_disabled":false,"rental_uris":{"android":"levelo://app?vid=c1885f96-3835-411b-8381-bea365b6379b","ios":"levelo://app?vid=c1885f96-3835-411b-8381-bea365b6379b"},"vehicle_type_id":"4","last_reported":1729059181,"current_range_meters":38000,"station_id":"ce4bh192rcd13ifvqdc0","pricing_plan_id":"cebpf4jnsgd1na2vs0mg"},{"bike_id":"666b8d1a-6857-4081-8710-47901cb6fd59","system_id":"levelo_inurba_marseille","lat":43.33604,"lon":5.41023,"is_reserved":false,"is_disabled":false,"rental_uris":{"android":"levelo://app?vid=666b8d1a-6857-4081-8710-47901cb6fd59","ios":"levelo://app?vid=666b8d1a-6857-4081-8710-47901cb6fd59"},"vehicle_type_id":"4","last_reported":1729059181,"current_range_meters":28400,"station_id":"ce4bhqh2rcd13ifvqhmg","pricing_plan_id":"cebpf4jnsgd1na2vs0mg"},{"bike_id":"bf184980-1ec9-4ede-88e0-965d1fdecb16","system_id":"levelo_inurba_marseille","lat":43.29039,"lon":5.39957,"is_reserved":false,"is_disabled":false,"rental_uris":{"android":"levelo://app?vid=bf184980-1ec9-4ede-88e0-965d1fdecb16","ios":"levelo://app?vid=bf184980-1ec9-4ede-88e0-965d1fdecb16"},"vehicle_type_id":"4","last_reported":1729059181,"current_range_meters":27600,"station_id":"ce4bh392rcd13ifvqdm0","pricing_plan_id":"cebpf4jnsgd1na2vs0mg"},{"bike_id":"8e1d4e0d-5507-46d6-90b0-3fb646d87956","system_id":"levelo_inurba_marseille","lat":43.33606,"lon":5.41023,"is_reserved":false,"is_disabled":false,"rental_uris":{"android":"levelo://app?vid=8e1d4e0d-5507-46d6-90b0-3fb646d87956","ios":"levelo://app?vid=8e1d4e0d-5507-46d6-90b0-3fb646d87956"},"vehicle_type_id":"4","last_reported":1729059181,"current_range_meters":30000,"station_id":"ce4bhqh2rcd13ifvqhmg","pricing_plan_id":"cebpf4jnsgd1na2vs0mg"},{"bike_id":"ad816d18-97b1-4dd1-816d-577f7c8f2d45","system_id":"levelo_inurba_marseille","lat":43.2835,"lon":5.381,"is_reserved":false,"is_disabled":false,"rental_uris":{"android":"levelo://app?vid=ad816d18-97b1-4dd1-816d-577f7c8f2d45","ios":"levelo://app?vid=ad816d18-97b1-4dd1-816d-577f7c8f2d45"},"vehicle_type_id":"4","last_reported":1729059181,"current_range_meters":33600,"station_id":"ce4bh412rcd13ifvqdr0","pricing_plan_id":"cebpf4jnsgd1na2vs0mg"},{"bike_id":"c16b2465-23b0-4e05-a23b-1a81c701df3b","system_id":"levelo_inurba_marseille","lat":43.29557,"lon":5.42284,"is_reserved":false,"is_disabled":false,"rental_uris":{"android":"levelo://app?vid=c16b2465-23b0-4e05-a23b-1a81c701df3b","ios":"levelo://app?vid=c16b2465-23b0-4e05-a23b-1a81c701df3b"},"vehicle_type_id":"4","last_reported":1729059181,"current_range_meters":38800,"station_id":"ce4bhph2rcd13ifvqhdg","pricing_plan_id":"cebpf4jnsgd1na2vs0mg"},{"bike_id":"1be0f246-cd10-4d19-824e-5bf5b27c9c44","system_id":"levelo_inurba_marseille","lat":43.30523,"lon":5.36509,"is_reserved":false,"is_disabled":false,"rental_uris":{"android":"levelo://app?vid=1be0f246-cd10-4d19-824e-5bf5b27c9c44","ios":"levelo://app?vid=1be0f246-cd10-4d19-824e-5bf5b27c9c44"},"vehicle_type_id":"4","last_reported":1729059181,"current_range_meters":30400,"station_id":"ce4bgs12rcd13ifvqcag","pricing_plan_id":"cebpf4jnsgd1na2vs0mg"},{"bike_id":"a9d80141-cb04-4f88-bcc5-9763572e3517","system_id":"levelo_inurba_marseille","lat":43.23192,"lon":5.35545,"is_reserved":false,"is_disabled":false,"rental_uris":{"android":"levelo://app?vid=a9d80141-cb04-4f88-bcc5-9763572e3517","ios":"levelo://app?vid=a9d80141-cb04-4f88-bcc5-9763572e3517"},"vehicle_type_id":"4","last_reported":1729059181,"current_range_meters":38000,"station_id":"ce4bhu92rcd13ifvqi70","pricing_plan_id":"cebpf4jnsgd1na2vs0mg"},{"bike_id":"7967bab5-4190-4746-a2a3-52c467ff667a","system_id":"levelo_inurba_marseille","lat":43.27495,"lon":5.42448,"is_reserved":false,"is_disabled":false,"rental_uris":{"android":"levelo://app?vid=7967bab5-4190-4746-a2a3-52c467ff667a","ios":"levelo://app?vid=7967bab5-4190-4746-a2a3-52c467ff667a"},"vehicle_type_id":"4","last_reported":1729059181,"current_range_meters":12000,"station_id":"ce4bhn92rcd13ifvqgrg","pricing_plan_id":"cebpf4jnsgd1na2vs0mg"},{"bike_id":"d06f24f3-1961-4c39-8b26-c72733863fe9","system_id":"levelo_inurba_marseille","lat":43.33781,"lon":5.37443,"is_reserved":false,"is_disabled":false,"rental_uris":{"android":"levelo://app?vid=d06f24f3-1961-4c39-8b26-c72733863fe9","ios":"levelo://app?vid=d06f24f3-1961-4c39-8b26-c72733863fe9"},"vehicle_type_id":"4","last_reported":1729059181,"current_range_meters":20800,"station_id":"","pricing_plan_id":"cebpf4jnsgd1na2vs0mg"},{"bike_id":"2a582e9c-e7dd-4a75-8534-911fde5eba73","system_id":"levelo_inurba_marseille","lat":43.25578,"lon":5.38229,"is_reserved":false,"is_disabled":false,"rental_uris":{"android":"levelo://app?vid=2a582e9c-e7dd-4a75-8534-911fde5eba73","ios":"levelo://app?vid=2a582e9c-e7dd-4a75-8534-911fde5eba73"},"vehicle_type_id":"4","last_reported":1729059181,"current_range_meters":37600,"station_id":"ce4bhih2rcd13ifvqfs0","pricing_plan_id":"cebpf4jnsgd1na2vs0mg"},{"bike_id":"a4929ed8-bf17-4d6c-b6db-14153db674ce","system_id":"levelo_inurba_marseille","lat":43.2749,"lon":5.4246,"is_reserved":false,"is_disabled":false,"rental_uris":{"android":"levelo://app?vid=a4929ed8-bf17-4d6c-b6db-14153db674ce","ios":"levelo://app?vid=a4929ed8-bf17-4d6c-b6db-14153db674ce"},"vehicle_type_id":"4","last_reported":1729059181,"current_range_meters":33200,"station_id":"ce4bhn92rcd13ifvqgrg","pricing_plan_id":"cebpf4jnsgd1na2vs0mg"},{"bike_id":"78e6d629-0d6a-4328-976e-5e2764cfd40c","system_id":"levelo_inurba_marseille","lat":43.30462,"lon":5.37899,"is_reserved":false,"is_disabled":false,"rental_uris":{"android":"levelo://app?vid=78e6d629-0d6a-4328-976e-5e2764cfd40c","ios":"levelo://app?vid=78e6d629-0d6a-4328-976e-5e2764cfd40c"},"vehicle_type_id":"4","last_reported":1729059181,"current_range_meters":38000,"station_id":"ce4bgup2rcd13ifvqcn0","pricing_plan_id":"cebpf4jnsgd1na2vs0mg"},{"bike_id":"f897e046-2e9c-4d30-9d3b-afc24593723f","system_id":"levelo_inurba_marseille","lat":43.29166,"lon":5.37166,"is_reserved":false,"is_disabled":false,"rental_uris":{"android":"levelo://app?vid=f897e046-2e9c-4d30-9d3b-afc24593723f","ios":"levelo://app?vid=f897e046-2e9c-4d30-9d3b-afc24593723f"},"vehicle_type_id":"4","last_reported":1729059181,"current_range_meters":16800,"station_id":"ce4bha92rcd13ifvqeh0","pricing_plan_id":"cebpf4jnsgd1na2vs0mg"},{"bike_id":"558f1d74-f6f0-4bd4-8403-458ac786e2ee","system_id":"levelo_inurba_marseille","lat":43.31281,"lon":5.40169,"is_reserved":false,"is_disabled":false,"rental_uris":{"android":"levelo://app?vid=558f1d74-f6f0-4bd4-8403-458ac786e2ee","ios":"levelo://app?vid=558f1d74-f6f0-4bd4-8403-458ac786e2ee"},"vehicle_type_id":"4","last_reported":1729059181,"current_range_meters":38800,"station_id":"ce4bh092rcd13ifvqd30","pricing_plan_id":"cebpf4jnsgd1na2vs0mg"},{"bike_id":"e2f76c4f-3f8b-4c2d-b68d-48b410f88510","system_id":"levelo_inurba_marseille","lat":43.28472,"lon":5.38419,"is_reserved":false,"is_disabled":false,"rental_uris":{"android":"levelo://app?vid=e2f76c4f-3f8b-4c2d-b68d-48b410f88510","ios":"levelo://app?vid=e2f76c4f-3f8b-4c2d-b68d-48b410f88510"},"vehicle_type_id":"4","last_reported":1729059181,"current_range_meters":4400,"station_id":"ce4bh512rcd13ifvqe3g","pricing_plan_id":"cebpf4jnsgd1na2vs0mg"},{"bike_id":"d41309ab-1a1f-4395-acaa-455483c3f8e1","system_id":"levelo_inurba_marseille","lat":43.23193,"lon":5.35557,"is_reserved":false,"is_disabled":false,"rental_uris":{"android":"levelo://app?vid=d41309ab-1a1f-4395-acaa-455483c3f8e1","ios":"levelo://app?vid=d41309ab-1a1f-4395-acaa-455483c3f8e1"},"vehicle_type_id":"4","last_reported":1729059181,"current_range_meters":28800,"station_id":"ce4bhu92rcd13ifvqi70","pricing_plan_id":"cebpf4jnsgd1na2vs0mg"},{"bike_id":"df59a896-b389-4ccb-b8c6-75de3d016ea3","system_id":"levelo_inurba_marseille","lat":43.29604,"lon":5.38103,"is_reserved":false,"is_disabled":false,"rental_uris":{"android":"levelo://app?vid=df59a896-b389-4ccb-b8c6-75de3d016ea3","ios":"levelo://app?vid=df59a896-b389-4ccb-b8c6-75de3d016ea3"},"vehicle_type_id":"4","last_reported":1729059181,"current_range_meters":32000,"station_id":"ce4bgl12rcd13ifvqbo0","pricing_plan_id":"cebpf4jnsgd1na2vs0mg"},{"bike_id":"570e64c6-5df4-4ddb-87ac-e59cf9cc9367","system_id":"levelo_inurba_marseille","lat":43.33602,"lon":5.41036,"is_reserved":false,"is_disabled":false,"rental_uris":{"android":"levelo://app?vid=570e64c6-5df4-4ddb-87ac-e59cf9cc9367","ios":"levelo://app?vid=570e64c6-5df4-4ddb-87ac-e59cf9cc9367"},"vehicle_type_id":"4","last_reported":1729059181,"current_range_meters":33200,"station_id":"ce4bhqh2rcd13ifvqhmg","pricing_plan_id":"cebpf4jnsgd1na2vs0mg"},{"bike_id":"bf5516cd-fa21-4eb4-8e8c-cee2db3420f9","system_id":"levelo_inurba_marseille","lat":43.29043,"lon":5.3995,"is_reserved":false,"is_disabled":false,"rental_uris":{"android":"levelo://app?vid=bf5516cd-fa21-4eb4-8e8c-cee2db3420f9","ios":"levelo://app?vid=bf5516cd-fa21-4eb4-8e8c-cee2db3420f9"},"vehicle_type_id":"4","last_reported":1729059181,"current_range_meters":35200,"station_id":"ce4bh392rcd13ifvqdm0","pricing_plan_id":"cebpf4jnsgd1na2vs0mg"},{"bike_id":"108d6e01-9f41-477f-9825-8ee1994e54ad","system_id":"levelo_inurba_marseille","lat":43.30302,"lon":5.39206,"is_reserved":false,"is_disabled":false,"rental_uris":{"android":"levelo://app?vid=108d6e01-9f41-477f-9825-8ee1994e54ad","ios":"levelo://app?vid=108d6e01-9f41-477f-9825-8ee1994e54ad"},"vehicle_type_id":"4","last_reported":1729059181,"current_range_meters":33600,"station_id":"ce4bgkh2rcd13ifvqbk0","pricing_plan_id":"cebpf4jnsgd1na2vs0mg"},{"bike_id":"6ef911d3-712e-495c-8b16-a9d320855567","system_id":"levelo_inurba_marseille","lat":43.27497,"lon":5.42457,"is_reserved":false,"is_disabled":false,"rental_uris":{"android":"levelo://app?vid=6ef911d3-712e-495c-8b16-a9d320855567","ios":"levelo://app?vid=6ef911d3-712e-495c-8b16-a9d320855567"},"vehicle_type_id":"4","last_reported":1729059181,"current_range_meters":38000,"station_id":"ce4bhn92rcd13ifvqgrg","pricing_plan_id":"cebpf4jnsgd1na2vs0mg"},{"bike_id":"d4f5caad-33d7-43a3-8edd-3145745a627d","system_id":"levelo_inurba_marseille","lat":43.32055,"lon":5.41541,"is_reserved":false,"is_disabled":false,"rental_uris":{"android":"levelo://app?vid=d4f5caad-33d7-43a3-8edd-3145745a627d","ios":"levelo://app?vid=d4f5caad-33d7-43a3-8edd-3145745a627d"},"vehicle_type_id":"4","last_reported":1729059181,"current_range_meters":17600,"station_id":"ce4bhq92rcd13ifvqhkg","pricing_plan_id":"cebpf4jnsgd1na2vs0mg"},{"bike_id":"b3581752-b046-4ddf-abd7-7802a26b818e","system_id":"levelo_inurba_marseille","lat":43.3027,"lon":5.377,"is_reserved":false,"is_disabled":false,"rental_uris":{"android":"levelo://app?vid=b3581752-b046-4ddf-abd7-7802a26b818e","ios":"levelo://app?vid=b3581752-b046-4ddf-abd7-7802a26b818e"},"vehicle_type_id":"4","last_reported":1729059181,"current_range_meters":38400,"station_id":"ce4bguh2rcd13ifvqcj0","pricing_plan_id":"cebpf4jnsgd1na2vs0mg"},{"bike_id":"3b87db26-1e58-41af-9d7a-9da58844d983","system_id":"levelo_inurba_marseille","lat":43.28345,"lon":5.38101,"is_reserved":false,"is_disabled":false,"rental_uris":{"android":"levelo://app?vid=3b87db26-1e58-41af-9d7a-9da58844d983","ios":"levelo://app?vid=3b87db26-1e58-41af-9d7a-9da58844d983"},"vehicle_type_id":"4","last_reported":1729059181,"current_range_meters":38000,"station_id":"ce4bh412rcd13ifvqdr0","pricing_plan_id":"cebpf4jnsgd1na2vs0mg"},{"bike_id":"215abfcb-d180-4d33-9448-9efae9f2fa86","system_id":"levelo_inurba_marseille","lat":43.293755,"lon":5.378623,"is_reserved":false,"is_disabled":false,"rental_uris":{"android":"levelo://app?vid=215abfcb-d180-4d33-9448-9efae9f2fa86","ios":"levelo://app?vid=215abfcb-d180-4d33-9448-9efae9f2fa86"},"vehicle_type_id":"4","last_reported":1729059181,"current_range_meters":33600,"station_id":"ce4bgjh2rcd13ifvqbf0","pricing_plan_id":"cebpf4jnsgd1na2vs0mg"},{"bike_id":"1dd8350d-21d1-4ed7-b940-1729df17b899","system_id":"levelo_inurba_marseille","lat":43.27363,"lon":5.41007,"is_reserved":false,"is_disabled":false,"rental_uris":{"android":"levelo://app?vid=1dd8350d-21d1-4ed7-b940-1729df17b899","ios":"levelo://app?vid=1dd8350d-21d1-4ed7-b940-1729df17b899"},"vehicle_type_id":"4","last_reported":1729059181,"current_range_meters":30400,"station_id":"","pricing_plan_id":"cebpf4jnsgd1na2vs0mg"},{"bike_id":"6cdd2798-5db4-4f9a-a892-f16babf9ec5c","system_id":"levelo_inurba_marseille","lat":43.31353,"lon":5.36708,"is_reserved":false,"is_disabled":false,"rental_uris":{"android":"levelo://app?vid=6cdd2798-5db4-4f9a-a892-f16babf9ec5c","ios":"levelo://app?vid=6cdd2798-5db4-4f9a-a892-f16babf9ec5c"},"vehicle_type_id":"4","last_reported":1729059181,"current_range_meters":36000,"station_id":"ce4bgr92rcd13ifvqc6g","pricing_plan_id":"cebpf4jnsgd1na2vs0mg"},{"bike_id":"c0b62ec2-a66d-4592-b452-fa662fdcd0e1","system_id":"levelo_inurba_marseille","lat":43.31485,"lon":5.37305,"is_reserved":false,"is_disabled":false,"rental_uris":{"android":"levelo://app?vid=c0b62ec2-a66d-4592-b452-fa662fdcd0e1","ios":"levelo://app?vid=c0b62ec2-a66d-4592-b452-fa662fdcd0e1"},"vehicle_type_id":"4","last_reported":1729059181,"current_range_meters":38400,"station_id":"ce4bgt12rcd13ifvqcd0","pricing_plan_id":"cebpf4jnsgd1na2vs0mg"},{"bike_id":"eaa961e6-8342-4f30-8941-36ae2c9be4b7","system_id":"levelo_inurba_marseille","lat":43.24354,"lon":5.38504,"is_reserved":false,"is_disabled":false,"rental_uris":{"android":"levelo://app?vid=eaa961e6-8342-4f30-8941-36ae2c9be4b7","ios":"levelo://app?vid=eaa961e6-8342-4f30-8941-36ae2c9be4b7"},"vehicle_type_id":"4","last_reported":1729059181,"current_range_meters":18800,"station_id":"","pricing_plan_id":"cebpf4jnsgd1na2vs0mg"},{"bike_id":"1af2813b-98a0-4b62-aaf8-89652b30f639","system_id":"levelo_inurba_marseille","lat":43.22934,"lon":5.35375,"is_reserved":false,"is_disabled":false,"rental_uris":{"android":"levelo://app?vid=1af2813b-98a0-4b62-aaf8-89652b30f639","ios":"levelo://app?vid=1af2813b-98a0-4b62-aaf8-89652b30f639"},"vehicle_type_id":"4","last_reported":1729059181,"current_range_meters":26800,"station_id":"cpo3532slgdg3j2ikp40","pricing_plan_id":"cebpf4jnsgd1na2vs0mg"},{"bike_id":"3aeca28a-205c-4421-acc6-7384b0088652","system_id":"levelo_inurba_marseille","lat":43.28938,"lon":5.3664,"is_reserved":false,"is_disabled":false,"rental_uris":{"android":"levelo://app?vid=3aeca28a-205c-4421-acc6-7384b0088652","ios":"levelo://app?vid=3aeca28a-205c-4421-acc6-7384b0088652"},"vehicle_type_id":"4","last_reported":1729059181,"current_range_meters":30000,"station_id":"ce4bhap2rcd13ifvqek0","pricing_plan_id":"cebpf4jnsgd1na2vs0mg"},{"bike_id":"ed946ba6-2593-4cbf-8715-b83e6db0a1fc","system_id":"levelo_inurba_marseille","lat":43.29782,"lon":5.38103,"is_reserved":false,"is_disabled":false,"rental_uris":{"android":"levelo://app?vid=ed946ba6-2593-4cbf-8715-b83e6db0a1fc","ios":"levelo://app?vid=ed946ba6-2593-4cbf-8715-b83e6db0a1fc"},"vehicle_type_id":"4","last_reported":1729059181,"current_range_meters":34000,"station_id":"ce4bgip2rcd13ifvqbb0","pricing_plan_id":"cebpf4jnsgd1na2vs0mg"},{"bike_id":"f93454e1-a669-4c63-a4ca-b572042c7971","system_id":"levelo_inurba_marseille","lat":43.2319,"lon":5.35558,"is_reserved":false,"is_disabled":false,"rental_uris":{"android":"levelo://app?vid=f93454e1-a669-4c63-a4ca-b572042c7971","ios":"levelo://app?vid=f93454e1-a669-4c63-a4ca-b572042c7971"},"vehicle_type_id":"4","last_reported":1729059181,"current_range_meters":21600,"station_id":"ce4bhu92rcd13ifvqi70","pricing_plan_id":"cebpf4jnsgd1na2vs0mg"},{"bike_id":"33884dc5-0a79-40bd-96e2-5d6c1d19c5ca","system_id":"levelo_inurba_marseille","lat":43.22933,"lon":5.35383,"is_reserved":false,"is_disabled":false,"rental_uris":{"android":"levelo://app?vid=33884dc5-0a79-40bd-96e2-5d6c1d19c5ca","ios":"levelo://app?vid=33884dc5-0a79-40bd-96e2-5d6c1d19c5ca"},"vehicle_type_id":"4","last_reported":1729059181,"current_range_meters":2800,"station_id":"cpo3532slgdg3j2ikp40","pricing_plan_id":"cebpf4jnsgd1na2vs0mg"},{"bike_id":"6b619a35-24bf-407e-aebb-ad101333cd66","system_id":"levelo_inurba_marseille","lat":43.28361,"lon":5.3865,"is_reserved":false,"is_disabled":false,"rental_uris":{"android":"levelo://app?vid=6b619a35-24bf-407e-aebb-ad101333cd66","ios":"levelo://app?vid=6b619a35-24bf-407e-aebb-ad101333cd66"},"vehicle_type_id":"4","last_reported":1729059181,"current_range_meters":38800,"station_id":"ce4bh492rcd13ifvqdvg","pricing_plan_id":"cebpf4jnsgd1na2vs0mg"},{"bike_id":"4b7c4b09-94fc-427d-87e7-2890843b225f","system_id":"levelo_inurba_marseille","lat":43.25105,"lon":5.40316,"is_reserved":false,"is_disabled":false,"rental_uris":{"android":"levelo://app?vid=4b7c4b09-94fc-427d-87e7-2890843b225f","ios":"levelo://app?vid=4b7c4b09-94fc-427d-87e7-2890843b225f"},"vehicle_type_id":"4","last_reported":1729059181,"current_range_meters":3600,"station_id":"ce4bhlh2rcd13ifvqgig","pricing_plan_id":"cebpf4jnsgd1na2vs0mg"},{"bike_id":"e8104696-fce7-4f2c-9773-28051a7880c7","system_id":"levelo_inurba_marseille","lat":43.33607,"lon":5.41029,"is_reserved":false,"is_disabled":false,"rental_uris":{"android":"levelo://app?vid=e8104696-fce7-4f2c-9773-28051a7880c7","ios":"levelo://app?vid=e8104696-fce7-4f2c-9773-28051a7880c7"},"vehicle_type_id":"4","last_reported":1729059181,"current_range_meters":22000,"station_id":"ce4bhqh2rcd13ifvqhmg","pricing_plan_id":"cebpf4jnsgd1na2vs0mg"},{"bike_id":"c6bc0a27-248d-4e0f-96c5-738788a56ec4","system_id":"levelo_inurba_marseille","lat":43.30596,"lon":5.3936,"is_reserved":false,"is_disabled":false,"rental_uris":{"android":"levelo://app?vid=c6bc0a27-248d-4e0f-96c5-738788a56ec4","ios":"levelo://app?vid=c6bc0a27-248d-4e0f-96c5-738788a56ec4"},"vehicle_type_id":"4","last_reported":1729059181,"current_range_meters":32000,"station_id":"ce4bh0p2rcd13ifvqd80","pricing_plan_id":"cebpf4jnsgd1na2vs0mg"},{"bike_id":"e4871b44-e714-485e-94a9-9f225940e2dc","system_id":"levelo_inurba_marseille","lat":43.280381,"lon":5.369396,"is_reserved":false,"is_disabled":false,"rental_uris":{"android":"levelo://app?vid=e4871b44-e714-485e-94a9-9f225940e2dc","ios":"levelo://app?vid=e4871b44-e714-485e-94a9-9f225940e2dc"},"vehicle_type_id":"4","last_reported":1729059181,"current_range_meters":38000,"station_id":"ce4bha12rcd13ifvqef0","pricing_plan_id":"cebpf4jnsgd1na2vs0mg"},{"bike_id":"a403f933-e636-472b-a8dc-84d9ce073e27","system_id":"levelo_inurba_marseille","lat":43.30601,"lon":5.39359,"is_reserved":false,"is_disabled":false,"rental_uris":{"android":"levelo://app?vid=a403f933-e636-472b-a8dc-84d9ce073e27","ios":"levelo://app?vid=a403f933-e636-472b-a8dc-84d9ce073e27"},"vehicle_type_id":"4","last_reported":1729059181,"current_range_meters":37600,"station_id":"ce4bh0p2rcd13ifvqd80","pricing_plan_id":"cebpf4jnsgd1na2vs0mg"},{"bike_id":"54e3abc6-8336-4cd5-aa61-4eb222ff441e","system_id":"levelo_inurba_marseille","lat":43.29075,"lon":5.37168,"is_reserved":false,"is_disabled":false,"rental_uris":{"android":"levelo://app?vid=54e3abc6-8336-4cd5-aa61-4eb222ff441e","ios":"levelo://app?vid=54e3abc6-8336-4cd5-aa61-4eb222ff441e"},"vehicle_type_id":"4","last_reported":1729059181,"current_range_meters":38000,"station_id":"ce4bh5p2rcd13ifvqe4g","pricing_plan_id":"cebpf4jnsgd1na2vs0mg"},{"bike_id":"01b6d563-3f7d-4d28-908f-c849d92da692","system_id":"levelo_inurba_marseille","lat":43.29797,"lon":5.3812,"is_reserved":false,"is_disabled":false,"rental_uris":{"android":"levelo://app?vid=01b6d563-3f7d-4d28-908f-c849d92da692","ios":"levelo://app?vid=01b6d563-3f7d-4d28-908f-c849d92da692"},"vehicle_type_id":"4","last_reported":1729059181,"current_range_meters":22800,"station_id":"ce4bgip2rcd13ifvqbb0","pricing_plan_id":"cebpf4jnsgd1na2vs0mg"},{"bike_id":"167a3dcd-afcd-457e-8998-67360ace43c0","system_id":"levelo_inurba_marseille","lat":43.3375,"lon":5.37436,"is_reserved":false,"is_disabled":false,"rental_uris":{"android":"levelo://app?vid=167a3dcd-afcd-457e-8998-67360ace43c0","ios":"levelo://app?vid=167a3dcd-afcd-457e-8998-67360ace43c0"},"vehicle_type_id":"4","last_reported":1729059181,"current_range_meters":31200,"station_id":"","pricing_plan_id":"cebpf4jnsgd1na2vs0mg"},{"bike_id":"c9fb01f2-b1af-40c2-a19b-6111a4bed172","system_id":"levelo_inurba_marseille","lat":43.30468,"lon":5.37906,"is_reserved":false,"is_disabled":false,"rental_uris":{"android":"levelo://app?vid=c9fb01f2-b1af-40c2-a19b-6111a4bed172","ios":"levelo://app?vid=c9fb01f2-b1af-40c2-a19b-6111a4bed172"},"vehicle_type_id":"4","last_reported":1729059181,"current_range_meters":38400,"station_id":"ce4bgup2rcd13ifvqcn0","pricing_plan_id":"cebpf4jnsgd1na2vs0mg"},{"bike_id":"10335795-5662-490b-a5db-117b3c8024b3","system_id":"levelo_inurba_marseille","lat":43.26956,"lon":5.38636,"is_reserved":false,"is_disabled":false,"rental_uris":{"android":"levelo://app?vid=10335795-5662-490b-a5db-117b3c8024b3","ios":"levelo://app?vid=10335795-5662-490b-a5db-117b3c8024b3"},"vehicle_type_id":"4","last_reported":1729059181,"current_range_meters":38800,"station_id":"ce4bhh92rcd13ifvqfh0","pricing_plan_id":"cebpf4jnsgd1na2vs0mg"},{"bike_id":"2c14c84e-f628-4c47-b35e-ea4a33610811","system_id":"levelo_inurba_marseille","lat":43.27494,"lon":5.42455,"is_reserved":false,"is_disabled":false,"rental_uris":{"android":"levelo://app?vid=2c14c84e-f628-4c47-b35e-ea4a33610811","ios":"levelo://app?vid=2c14c84e-f628-4c47-b35e-ea4a33610811"},"vehicle_type_id":"4","last_reported":1729059181,"current_range_meters":31200,"station_id":"ce4bhn92rcd13ifvqgrg","pricing_plan_id":"cebpf4jnsgd1na2vs0mg"},{"bike_id":"575c61a8-0bd3-4111-8f91-6858f637b413","system_id":"levelo_inurba_marseille","lat":43.29898,"lon":5.4366,"is_reserved":false,"is_disabled":false,"rental_uris":{"android":"levelo://app?vid=575c61a8-0bd3-4111-8f91-6858f637b413","ios":"levelo://app?vid=575c61a8-0bd3-4111-8f91-6858f637b413"},"vehicle_type_id":"4","last_reported":1729059181,"current_range_meters":37600,"station_id":"ce4bhpp2rcd13ifvqhfg","pricing_plan_id":"cebpf4jnsgd1na2vs0mg"},