{"last_updated":1729084687,"ttl":60,"version":"2.2","data":{"bikes":[{"bike_id":"a6ce98f6-fded-4bfb-b540-1f40b8904f45","system_id":"levelo_inurba_marseille","lat":43.272064,"lon":5.391802,"is_reserved":false,"is_disabled":false,"rental_uris":{"android":"levelo://app?vid=a6ce98f6-fded-4bfb-b540-1f40b8904f45","ios":"levelo://app?vid=a6ce98f6-fded-4bfb-b540-1f40b8904f45"},"vehicle_type_id":"4","last_reported":1729084687,"current_range_meters":6400,"station_id":"ce4bhhp2rcd13ifvqfm0","pricing_plan_id":"cebpf4jnsgd1na2vs0mg"},{"bike_id":"e3b9cd1b-4a0f-4ce6-b79f-acad6c2ddf11","system_id":"levelo_inurba_marseille","lat":43.317522,"lon":5.390142,"is_reserved":false,"is_disabled":false,"rental_uris":{"android":"levelo://app?vid=e3b9cd1b-4a0f-4ce6-b79f-acad6c2ddf11","ios":"levelo://app?vid=e3b9cd1b-4a0f-4ce6-b79f-acad6c2ddf11"},"vehicle_type_id":"4","last_reported":1729084687,"current_range_meters":35600,"station_id":"ce4bhqp2rcd13ifvqhng","pricing_plan_id":"cebpf4jnsgd1na2vs0mg"},{"bike_id":"b4066a84-11e2-4186-8d3a-57c27e87db57","system_id":"levelo_inurba_marseille","lat":43.27813,"lon":5.40719,"is_reserved":false,"is_disabled":false,"rental_uris":{"android":"levelo://app?vid=b4066a84-11e2-4186-8d3a-57c27e87db57","ios":"levelo://app?vid=b4066a84-11e2-4186-8d3a-57c27e87db57"},"vehicle_type_id":"4","last_reported":1729084687,"current_range_meters":28000,"station_id":"ce4bhnh2rcd13ifvqgtg","pricing_plan_id":"cebpf4jnsgd1na2vs0mg"},{"bike_id":"5002f4ca-68aa-4a9a-bbfb-321dee34c575","system_id":"levelo_inurba_marseille","lat":43.25938,"lon":5.40903,"is_reserved":false,"is_disabled":false,"rental_uris":{"android":"levelo://app?vid=5002f4ca-68aa-4a9a-bbfb-321dee34c575","ios":"levelo://app?vid=5002f4ca-68aa-4a9a-bbfb-321dee34c575"},"vehicle_type_id":"4","last_reported":1729084687,"current_range_meters":24400,"station_id":"ce4bhm92rcd13ifvqglg","pricing_plan_id":"cebpf4jnsgd1na2vs0mg"},{"bike_id":"676ec6c4-6b42-43e0-81fe-327782965da5","system_id":"levelo_inurba_marseille","lat":43.337444,"lon":5.374475,"is_reserved":false,"is_disabled":false,"rental_uris":{"android":"levelo://app?vid=676ec6c4-6b42-43e0-81fe-327782965da5","ios":"levelo://app?vid=676ec6c4-6b42-43e0-81fe-327782965da5"},"vehicle_type_id":"4","last_reported":1729084687,"current_range_meters":20800,"station_id":"","pricing_plan_id":"cebpf4jnsgd1na2vs0mg"},{"bike_id":"82aeb4b0-58d7-4e71-b556-4ca8bab50dc1","system_id":"levelo_inurba_marseille","lat":43.28463,"lon":5.35893,"is_reserved":false,"is_disabled":false,"rental_uris":{"android":"levelo://app?vid=82aeb4b0-58d7-4e71-b556-4ca8bab50dc1","ios":"levelo://app?vid=82aeb4b0-58d7-4e71-b556-4ca8bab50dc1"},"vehicle_type_id":"4","last_reported":1729084687,"current_range_meters":17200,"station_id":"ce4bhah2rcd13ifvqei0","pricing_plan_id":"cebpf4jnsgd1na2vs0mg"},{"bike_id":"4e3ae144-e388-4b4f-ac80-a31ee8ee9bdf","system_id":"levelo_inurba_marseille","lat":43.24654,"lon":5.38895,"is_reserved":false,"is_disabled":false,"rental_uris":{"android":"levelo://app?vid=4e3ae144-e388-4b4f-ac80-a31ee8ee9bdf","ios":"levelo://app?vid=4e3ae144-e388-4b4f-ac80-a31ee8ee9bdf"},"vehicle_type_id":"4","last_reported":1729084687,"current_range_meters":36800,"station_id":"ce4bhg12rcd13ifvqf60","pricing_plan_id":"cebpf4jnsgd1na2vs0mg"},{"bike_id":"979638f0-5c67-408f-bbfd-0de28da1b117","system_id":"levelo_inurba_marseille","lat":43.29729,"lon":5.37687,"is_reserved":false,"is_disabled":false,"rental_uris":{"android":"levelo://app?vid=979638f0-5c67-408f-bbfd-0de28da1b117","ios":"levelo://app?vid=979638f0-5c67-408f-bbfd-0de28da1b117"},"vehicle_type_id":"4","last_reported":1729084687,"current_range_meters":37600,"station_id":"ce4bgkh2rcd13ifvqbl0","pricing_plan_id":"cebpf4jnsgd1na2vs0mg"},{"bike_id":"64d9953f-af6f-4e08-9449-a621c2b0fda5","system_id":"levelo_inurba_marseille","lat":43.29976,"lon":5.37167,"is_reserved":false,"is_disabled":false,"rental_uris":{"android":"levelo://app?vid=64d9953f-af6f-4e08-9449-a621c2b0fda5","ios":"levelo://app?vid=64d9953f-af6f-4e08-9449-a621c2b0fda5"},"vehicle_type_id":"4","last_reported":1729084687,"current_range_meters":38800,"station_id":"ce4bgr92rcd13ifvqc7g","pricing_plan_id":"cebpf4jnsgd1na2vs0mg"},{"bike_id":"54513a11-cfc0-4602-a901-a052e3e7058a","system_id":"levelo_inurba_marseille","lat":43.3091,"lon":5.36859,"is_reserved":false,"is_disabled":false,"rental_uris":{"android":"levelo://app?vid=54513a11-cfc0-4602-a901-a052e3e7058a","ios":"levelo://app?vid=54513a11-cfc0-4602-a901-a052e3e7058a"},"vehicle_type_id":"4","last_reported":1729084687,"current_range_meters":38800,"station_id":"ce4bgn92rcd13ifvqbvg","pricing_plan_id":"cebpf4jnsgd1na2vs0mg"},{"bike_id":"5e1b3747-ac8e-439a-90be-4d90109fa875","system_id":"levelo_inurba_marseille","lat":43.30895,"lon":5.37212,"is_reserved":false,"is_disabled":false,"rental_uris":{"android":"levelo://app?vid=5e1b3747-ac8e-439a-90be-4d90109fa875","ios":"levelo://app?vid=5e1b3747-ac8e-439a-90be-4d90109fa875"},"vehicle_type_id":"4","last_reported":1729084687,"current_range_meters":34000,"station_id":"ce4bguh2rcd13ifvqckg","pricing_plan_id":"cebpf4jnsgd1na2vs0mg"},{"bike_id":"f3a121d9-3ad3-4c89-a6d7-39ec7c895f55","system_id":"levelo_inurba_marseille","lat":43.2907,"lon":5.37164,"is_reserved":false,"is_disabled":false,"rental_uris":{"android":"levelo://app?vid=f3a121d9-3ad3-4c89-a6d7-39ec7c895f55","ios":"levelo://app?vid=f3a121d9-3ad3-4c89-a6d7-39ec7c895f55"},"vehicle_type_id":"4","last_reported":1729084687,"current_range_meters":16000,"station_id":"ce4bh5p2rcd13ifvqe4g","pricing_plan_id":"cebpf4jnsgd1na2vs0mg"},{"bike_id":"a317d19b-3e4c-466d-b1f0-ad5b7ee20519","system_id":"levelo_inurba_marseille","lat":43.25941,"lon":5.409,"is_reserved":false,"is_disabled":false,"rental_uris":{"android":"levelo://app?vid=a317d19b-3e4c-466d-b1f0-ad5b7ee20519","ios":"levelo://app?vid=a317d19b-3e4c-466d-b1f0-ad5b7ee20519"},"vehicle_type_id":"4","last_reported":1729084687,"current_range_meters":8000,"station_id":"ce4bhm92rcd13ifvqglg","pricing_plan_id":"cebpf4jnsgd1na2vs0mg"},{"bike_id":"b24ee08e-dc00-4d36-804d-f228681cb9a9","system_id":"levelo_inurba_marseille","lat":43.30805,"lon":5.38153,"is_reserved":false,"is_disabled":false,"rental_uris":{"android":"levelo://app?vid=b24ee08e-dc00-4d36-804d-f228681cb9a9","ios":"levelo://app?vid=b24ee08e-dc00-4d36-804d-f228681cb9a9"},"vehicle_type_id":"4","last_reported":1729084687,"current_range_meters":22800,"station_id":"ce4bgt12rcd13ifvqce0","pricing_plan_id":"cebpf4jnsgd1na2vs0mg"},{"bike_id":"5fc755b2-9540-47dc-bd54-85fe2de5aad1","system_id":"levelo_inurba_marseille","lat":43.29262,"lon":5.40902,"is_reserved":false,"is_disabled":false,"rental_uris":{"android":"levelo://app?vid=5fc755b2-9540-47dc-bd54-85fe2de5aad1","ios":"levelo://app?vid=5fc755b2-9540-47dc-bd54-85fe2de5aad1"},"vehicle_type_id":"4","last_reported":1729084687,"current_range_meters":24000,"station_id":"ce4bh192rcd13ifvqdc0","pricing_plan_id":"cebpf4jnsgd1na2vs0mg"},{"bike_id":"f753014a-e02a-4cf3-9817-33330c7ddf67","system_id":"levelo_inurba_marseille","lat":43.27813,"lon":5.40707,"is_reserved":false,"is_disabled":false,"rental_uris":{"android":"levelo://app?vid=f753014a-e02a-4cf3-9817-33330c7ddf67","ios":"levelo://app?vid=f753014a-e02a-4cf3-9817-33330c7ddf67"},"vehicle_type_id":"4","last_reported":1729084687,"current_range_meters":38000,"station_id":"ce4bhnh2rcd13ifvqgtg","pricing_plan_id":"cebpf4jnsgd1na2vs0mg"},{"bike_id":"2cf64092-e430-478f-b5e3-11ceb9491d7d","system_id":"levelo_inurba_marseille","lat":43.26805,"lon":5.40268,"is_reserved":false,"is_disabled":false,"rental_uris":{"android":"levelo://app?vid=2cf64092-e430-478f-b5e3-11ceb9491d7d","ios":"levelo://app?vid=2cf64092-e430-478f-b5e3-11ceb9491d7d"},"vehicle_type_id":"4","last_reported":1729084687,"current_range_meters":19200,"station_id":"ce501612rcd8frsf0b60","pricing_plan_id":"cebpf4jnsgd1na2vs0mg"},{"bike_id":"e70e17b7-672f-48be-9764-0f83d0fe0ae9","system_id":"levelo_inurba_marseille","lat":43.30892,"lon":5.3719,"is_reserved":false,"is_disabled":false,"rental_uris":{"android":"levelo://app?vid=e70e17b7-672f-48be-9764-0f83d0fe0ae9","ios":"levelo://app?vid=e70e17b7-672f-48be-9764-0f83d0fe0ae9"},"vehicle_type_id":"4","last_reported":1729084687,"current_range_meters":38800,"station_id":"ce4bguh2rcd13ifvqckg","pricing_plan_id":"cebpf4jnsgd1na2vs0mg"},{"bike_id":"042e5b40-9e97-45f4-843e-ff54af18e3a3","system_id":"levelo_inurba_marseille","lat":43.337444,"lon":5.374475,"is_reserved":false,"is_disabled":false,"rental_uris":{"android":"levelo://app?vid=042e5b40-9e97-45f4-843e-ff54af18e3a3","ios":"levelo://app?vid=042e5b40-9e97-45f4-843e-ff54af18e3a3"},"vehicle_type_id":"4","last_reported":1729084687,"current_range_meters":36000,"station_id":"","pricing_plan_id":"cebpf4jnsgd1na2vs0mg"},{"bike_id":"e40ecf43-661b-4835-a1f9-79d981dcc8d2","system_id":"levelo_inurba_marseille","lat":43.23187,"lon":5.39982,"is_reserved":false,"is_disabled":false,"rental_uris":{"android":"levelo://app?vid=e40ecf43-661b-4835-a1f9-79d981dcc8d2","ios":"levelo://app?vid=e40ecf43-661b-4835-a1f9-79d981dcc8d2"},"vehicle_type_id":"4","last_reported":1729084687,"current_range_meters":7200,"station_id":"ce4bhn12rcd13ifvqgqg","pricing_plan_id":"cebpf4jnsgd1na2vs0mg"},{"bike_id":"68ea8cd7-beb1-4a3f-8ff2-f3b952195041","system_id":"levelo_inurba_marseille","lat":43.33753,"lon":5.37472,"is_reserved":false,"is_disabled":false,"rental_uris":{"android":"levelo://app?vid=68ea8cd7-beb1-4a3f-8ff2-f3b952195041","ios":"levelo://app?vid=68ea8cd7-beb1-4a3f-8ff2-f3b952195041"},"vehicle_type_id":"4","last_reported":1729084687,"current_range_meters":36000,"station_id":"","pricing_plan_id":"cebpf4jnsgd1na2vs0mg"},{"bike_id":"8a9fff91-ce66-4215-8060-6c0411b4b1d5","system_id":"levelo_inurba_marseille","lat":43.33026,"lon":5.39039,"is_reserved":false,"is_disabled":false,"rental_uris":{"android":"levelo://app?vid=8a9fff91-ce66-4215-8060-6c0411b4b1d5","ios":"levelo://app?vid=8a9fff91-ce66-4215-8060-6c0411b4b1d5"},"vehicle_type_id":"4","last_reported":1729084687,"current_range_meters":6000,"station_id":"ce4bhr92rcd13ifvqhrg","pricing_plan_id":"cebpf4jnsgd1na2vs0mg"},{"bike_id":"56fb6d4f-5902-450a-981d-24283be7d7dd","system_id":"levelo_inurba_marseille","lat":43.33022,"lon":5.39034,"is_reserved":false,"is_disabled":false,"rental_uris":{"android":"levelo://app?vid=56fb6d4f-5902-450a-981d-24283be7d7dd","ios":"levelo://app?vid=56fb6d4f-5902-450a-981d-24283be7d7dd"},"vehicle_type_id":"4","last_reported":1729084687,"current_range_meters":34000,"station_id":"ce4bhr92rcd13ifvqhrg","pricing_plan_id":"cebpf4jnsgd1na2vs0mg"},{"bike_id":"b7b9abc8-b556-4b6e-8d4d-6860f7e6d6bb","system_id":"levelo_inurba_marseille","lat":43.24661,"lon":5.38166,"is_reserved":false,"is_disabled":false,"rental_uris":{"android":"levelo://app?vid=b7b9abc8-b556-4b6e-8d4d-6860f7e6d6bb","ios":"levelo://app?vid=b7b9abc8-b556-4b6e-8d4d-6860f7e6d6bb"},"vehicle_type_id":"4","last_reported":1729084687,"current_range_meters":22400,"station_id":"ce4bhih2rcd13ifvqfr0","pricing_plan_id":"cebpf4jnsgd1na2vs0mg"},{"bike_id":"09301024-5320-43e1-ad82-00b1ee755473","system_id":"levelo_inurba_marseille","lat":43.29637,"lon":5.40599,"is_reserved":false,"is_disabled":false,"rental_uris":{"android":"levelo://app?vid=09301024-5320-43e1-ad82-00b1ee755473","ios":"levelo://app?vid=09301024-5320-43e1-ad82-00b1ee755473"},"vehicle_type_id":"4","last_reported":1729084687,"current_range_meters":19600,"station_id":"ce4bh0h2rcd13ifvqd60","pricing_plan_id":"cebpf4jnsgd1na2vs0mg"},{"bike_id":"11bb7ed5-1970-4a73-a794-e55c1684750f","system_id":"levelo_inurba_marseille","lat":43.2315,"lon":5.43716,"is_reserved":false,"is_disabled":false,"rental_uris":{"android":"levelo://app?vid=11bb7ed5-1970-4a73-a794-e55c1684750f","ios":"levelo://app?vid=11bb7ed5-1970-4a73-a794-e55c1684750f"},"vehicle_type_id":"4","last_reported":1729084687,"current_range_meters":38800,"station_id":"ce4bhmp2rcd13ifvqgog","pricing_plan_id":"cebpf4jnsgd1na2vs0mg"},{"bike_id":"7841fea7-8392-4da0-ad8a-554a8cf7bb26","system_id":"levelo_inurba_marseille","lat":43.30539,"lon":5.36542,"is_reserved":false,"is_disabled":false,"rental_uris":{"android":"levelo://app?vid=7841fea7-8392-4da0-ad8a-554a8cf7bb26","ios":"levelo://app?vid=7841fea7-8392-4da0-ad8a-554a8cf7bb26"},"vehicle_type_id":"4","last_reported":1729084687,"current_range_meters":9600,"station_id":"ce4bgs12rcd13ifvqcag","pricing_plan_id":"cebpf4jnsgd1na2vs0mg"},{"bike_id":"ea9bf9be-e376-437f-9532-e41765e758db","system_id":"levelo_inurba_marseille","lat":43.32336,"lon":5.40627,"is_reserved":false,"is_disabled":false,"rental_uris":{"android":"levelo://app?vid=ea9bf9be-e376-437f-9532-e41765e758db","ios":"levelo://app?vid=ea9bf9be-e376-437f-9532-e41765e758db"},"vehicle_type_id":"4","last_reported":1729084687,"current_range_meters":29600,"station_id":"ce4bhq92rcd13ifvqhjg","pricing_plan_id":"cebpf4jnsgd1na2vs0mg"},{"bike_id":"c7e22a5f-850a-4267-b327-6187ed521e3c","system_id":"levelo_inurba_marseille","lat":43.30539,"lon":5.36551,"is_reserved":false,"is_disabled":false,"rental_uris":{"android":"levelo://app?vid=c7e22a5f-850a-4267-b327-6187ed521e3c","ios":"levelo://app?vid=c7e22a5f-850a-4267-b327-6187ed521e3c"},"vehicle_type_id":"4","last_reported":1729084687,"current_range_meters":20800,"station_id":"ce4bgs12rcd13ifvqcag","pricing_plan_id":"cebpf4jnsgd1na2vs0mg"},{"bike_id":"57c0c2ec-2909-4e42-862b-89b47d8e3573","system_id":"levelo_inurba_marseille","lat":43.30899,"lon":5.37184,"is_reserved":false,"is_disabled":false,"rental_uris":{"android":"levelo://app?vid=57c0c2ec-2909-4e42-862b-89b47d8e3573","ios":"levelo://app?vid=57c0c2ec-2909-4e42-862b-89b47d8e3573"},"vehicle_type_id":"4","last_reported":1729084687,"current_range_meters":29600,"station_id":"ce4bguh2rcd13ifvqckg","pricing_plan_id":"cebpf4jnsgd1na2vs0mg"},{"bike_id":"89f8225b-c5f3-4f4c-9fb4-00ba771c6c7d","system_id":"levelo_inurba_marseille","lat":43.28271,"lon":5.35075,"is_reserved":false,"is_disabled":false,"rental_uris":{"android":"levelo://app?vid=89f8225b-c5f3-4f4c-9fb4-00ba771c6c7d","ios":"levelo://app?vid=89f8225b-c5f3-4f4c-9fb4-00ba771c6c7d"},"vehicle_type_id":"4","last_reported":1729084687,"current_range_meters":38800,"station_id":"ce4bhbp2rcd13ifvqerg","pricing_plan_id":"cebpf4jnsgd1na2vs0mg"},{"bike_id":"879339b6-28dd-4416-8afe-c897c9e0fcd9","system_id":"levelo_inurba_marseille","lat":43.29711,"lon":5.36608,"is_reserved":false,"is_disabled":false,"rental_uris":{"android":"levelo://app?vid=879339b6-28dd-4416-8afe-c897c9e0fcd9","ios":"levelo://app?vid=879339b6-28dd-4416-8afe-c897c9e0fcd9"},"vehicle_type_id":"4","last_reported":1729084687,"current_range_meters":28400,"station_id":"ce4bgn12rcd13ifvqbt0","pricing_plan_id":"cebpf4jnsgd1na2vs0mg"},{"bike_id":"26c30df2-280a-4d1f-b48a-a319c8bfa9e9","system_id":"levelo_inurba_marseille","lat":43.298815,"lon":5.436599,"is_reserved":false,"is_disabled":false,"rental_uris":{"android":"levelo://app?vid=26c30df2-280a-4d1f-b48a-a319c8bfa9e9","ios":"levelo://app?vid=26c30df2-280a-4d1f-b48a-a319c8bfa9e9"},"vehicle_type_id":"4","last_reported":1729084687,"current_range_meters":19600,"station_id":"ce4bhpp2rcd13ifvqhfg","pricing_plan_id":"cebpf4jnsgd1na2vs0mg"},{"bike_id":"2d72c09e-6b1f-4a70-b0b9-cfed56cf34f2","system_id":"levelo_inurba_marseille","lat":43.29256,"lon":5.40911,"is_reserved":false,"is_disabled":false,"rental_uris":{"android":"levelo://app?vid=2d72c09e-6b1f-4a70-b0b9-cfed56cf34f2","ios":"levelo://app?vid=2d72c09e-6b1f-4a70-b0b9-cfed56cf34f2"},"vehicle_type_id":"4","last_reported":1729084687,"current_range_meters":9200,"station_id":"ce4bh192rcd13ifvqdc0","pricing_plan_id":"cebpf4jnsgd1na2vs0mg"},{"bike_id":"3a85c6d3-15f2-4123-b176-53d5c3e22783","system_id":"levelo_inurba_marseille","lat":43.28939,"lon":5.36636,"is_reserved":false,"is_disabled":false,"rental_uris":{"android":"levelo://app?vid=3a85c6d3-15f2-4123-b176-53d5c3e22783","ios":"levelo://app?vid=3a85c6d3-15f2-4123-b176-53d5c3e22783"},"vehicle_type_id":"4","last_reported":1729084687,"current_range_meters":19600,"station_id":"ce4bhap2rcd13ifvqek0","pricing_plan_id":"cebpf4jnsgd1na2vs0mg"},{"bike_id":"6dc5b725-0b8c-49b8-a19b-3f297b3f6f14","system_id":"levelo_inurba_marseille","lat":43.25928,"lon":5.40904,"is_reserved":false,"is_disabled":false,"rental_uris":{"android":"levelo://app?vid=6dc5b725-0b8c-49b8-a19b-3f297b3f6f14","ios":"levelo://app?vid=6dc5b725-0b8c-49b8-a19b-3f297b3f6f14"},"vehicle_type_id":"4","last_reported":1729084687,"current_range_meters":38000,"station_id":"ce4bhm92rcd13ifvqglg","pricing_plan_id":"cebpf4jnsgd1na2vs0mg"},{"bike_id":"186bd33f-d731-47dd-bb43-82b19bce215b","system_id":"levelo_inurba_marseille","lat":43.3123,"lon":5.36854,"is_reserved":false,"is_disabled":false,"rental_uris":{"android":"levelo://app?vid=186bd33f-d731-47dd-bb43-82b19bce215b","ios":"levelo://app?vid=186bd33f-d731-47dd-bb43-82b19bce215b"},"vehicle_type_id":"4","last_reported":1729084687,"current_range_meters":38400,"station_id":"ce4bgl92rcd13ifvqbq0","pricing_plan_id":"cebpf4jnsgd1na2vs0mg"},{"bike_id":"c9a76ef6-f819-4166-83ee-0a5f69f525d7","system_id":"levelo_inurba_marseille","lat":43.2997,"lon":5.37166,"is_reserved":false,"is_disabled":false,"rental_uris":{"android":"levelo://app?vid=c9a76ef6-f819-4166-83ee-0a5f69f525d7","ios":"levelo://app?vid=c9a76ef6-f819-4166-83ee-0a5f69f525d7"},"vehicle_type_id":"4","last_reported":1729084687,"current_range_meters":39200,"station_id":"ce4bgr92rcd13ifvqc7g","pricing_plan_id":"cebpf4jnsgd1na2vs0mg"},{"bike_id":"e81ec7ef-a75d-45a0-829e-099ccb37d0c9","system_id":"levelo_inurba_marseille","lat":43.23189,"lon":5.399857,"is_reserved":false,"is_disabled":false,"rental_uris":{"android":"levelo://app?vid=e81ec7ef-a75d-45a0-829e-099ccb37d0c9","ios":"levelo://app?vid=e81ec7ef-a75d-45a0-829e-099ccb37d0c9"},"vehicle_type_id":"4","last_reported":1729084687,"current_range_meters":36800,"station_id":"ce4bhn12rcd13ifvqgqg","pricing_plan_id":"cebpf4jnsgd1na2vs0mg"},{"bike_id":"cd74800c-e854-45ea-b04d-049e6ea0ef7b","system_id":"levelo_inurba_marseille","lat":43.23965,"lon":5.36637,"is_reserved":false,"is_disabled":false,"rental_uris":{"android":"levelo://app?vid=cd74800c-e854-45ea-b04d-049e6ea0ef7b","ios":"levelo://app?vid=cd74800c-e854-45ea-b04d-049e6ea0ef7b"},"vehicle_type_id":"4","last_reported":1729084687,"current_range_meters":26800,"station_id":"ce4bhi12rcd13ifvqfp0","pricing_plan_id":"cebpf4jnsgd1na2vs0mg"},{"bike_id":"ca0163ac-d25a-437e-9b06-c3be4e515504","system_id":"levelo_inurba_marseille","lat":43.30327,"lon":5.36892,"is_reserved":false,"is_disabled":false,"rental_uris":{"android":"levelo://app?vid=ca0163ac-d25a-437e-9b06-c3be4e515504","ios":"levelo://app?vid=ca0163ac-d25a-437e-9b06-c3be4e515504"},"vehicle_type_id":"4","last_reported":1729084687,"current_range_meters":34000,"station_id":"ce4bgqh2rcd13ifvqc5g","pricing_plan_id":"cebpf4jnsgd1na2vs0mg"},{"bike_id":"fd11ca81-dbe5-4428-9fa4-01d0f5602ffe","system_id":"levelo_inurba_marseille","lat":43.24391,"lon":5.37053,"is_reserved":false,"is_disabled":false,"rental_uris":{"android":"levelo://app?vid=fd11ca81-dbe5-4428-9fa4-01d0f5602ffe","ios":"levelo://app?vid=fd11ca81-dbe5-4428-9fa4-01d0f5602ffe"},"vehicle_type_id":"4","last_reported":1729084687,"current_range_meters":32800,"station_id":"ce4bhhh2rcd13ifvqfk0","pricing_plan_id":"cebpf4jnsgd1na2vs0mg"},{"bike_id":"3d345541-8cc4-4a78-8d79-d41d0d8fd35c","system_id":"levelo_inurba_marseille","lat":43.2594,"lon":5.40904,"is_reserved":false,"is_disabled":false,"rental_uris":{"android":"levelo://app?vid=3d345541-8cc4-4a78-8d79-d41d0d8fd35c","ios":"levelo://app?vid=3d345541-8cc4-4a78-8d79-d41d0d8fd35c"},"vehicle_type_id":"4","last_reported":1729084687,"current_range_meters":22800,"station_id":"ce4bhm92rcd13ifvqglg","pricing_plan_id":"cebpf4jnsgd1na2vs0mg"},{"bike_id":"8b37a4d0-f728-4c88-b904-d11378d562b8","system_id":"levelo_inurba_marseille","lat":43.29196,"lon":5.39332,"is_reserved":false,"is_disabled":false,"rental_uris":{"android":"levelo://app?vid=8b37a4d0-f728-4c88-b904-d11378d562b8","ios":"levelo://app?vid=8b37a4d0-f728-4c88-b904-d11378d562b8"},"vehicle_type_id":"4","last_reported":1729084687,"current_range_meters":37600,"station_id":"ce4bh192rcd13ifvqdd0","pricing_plan_id":"cebpf4jnsgd1na2vs0mg"},{"bike_id":"0603133f-de38-49fa-afdd-41f28cbc85fc","system_id":"levelo_inurba_marseille","lat":43.28264,"lon":5.35059,"is_reserved":false,"is_disabled":false,"rental_uris":{"android":"levelo://app?vid=0603133f-de38-49fa-afdd-41f28cbc85fc","ios":"levelo://app?vid=0603133f-de38-49fa-afdd-41f28cbc85fc"},"vehicle_type_id":"4","last_reported":1729084687,"current_range_meters":30000,"station_id":"ce4bhbp2rcd13ifvqerg","pricing_plan_id":"cebpf4jnsgd1na2vs0mg"},{"bike_id":"957b50b2-7630-44f9-bbc3-7df9900ba1e4","system_id":"levelo_inurba_marseille","lat":43.26797,"lon":5.3942,"is_reserved":false,"is_disabled":false,"rental_uris":{"android":"levelo://app?vid=957b50b2-7630-44f9-bbc3-7df9900ba1e4","ios":"levelo://app?vid=957b50b2-7630-44f9-bbc3-7df9900ba1e4"},"vehicle_type_id":"4","last_reported":1729084687,"current_range_meters":12400,"station_id":"ce4bhh12rcd13ifvqfg0","pricing_plan_id":"cebpf4jnsgd1na2vs0mg"},{"bike_id":"94bb6c64-38e4-46ec-b2f2-be3b3beca0c3","system_id":"levelo_inurba_marseille","lat":43.301453,"lon":5.374273,"is_reserved":false,"is_disabled":false,"rental_uris":{"android":"levelo://app?vid=94bb6c64-38e4-46ec-b2f2-be3b3beca0c3","ios":"levelo://app?vid=94bb6c64-38e4-46ec-b2f2-be3b3beca0c3"},"vehicle_type_id":"4","last_reported":1729084687,"current_range_meters":8000,"station_id":"ce4bh0p2rcd13ifvqd80","pricing_plan_id":"cebpf4jnsgd1na2vs0mg"},{"bike_id":"b3414e9f-e991-44cb-8362-0a7d75f1ca79","system_id":"levelo_inurba_marseille","lat":43.3031,"lon":5.36894,"is_reserved":false,"is_disabled":false,"rental_uris":{"android":"levelo://app?vid=b3414e9f-e991-44cb-8362-0a7d75f1ca79","ios":"levelo://app?vid=b3414e9f-e991-44cb-8362-0a7d75f1ca79"},"vehicle_type_id":"4","last_reported":1729084687,"current_range_meters":38800,"station_id":"ce4bgqh2rcd13ifvqc5g","pricing_plan_id":"cebpf4jnsgd1na2vs0mg"},{"bike_id":"a1b9733e-6823-4cd0-9f45-1257e6f09906","system_id":"levelo_inurba_marseille","lat":43.272094,"lon":5.391861,"is_reserved":false,"is_disabled":false,"rental_uris":{"android":"levelo://app?vid=a1b9733e-6823-4cd0-9f45-1257e6f09906","ios":"levelo://app?vid=a1b9733e-6823-4cd0-9f45-1257e6f09906"},"vehicle_type_id":"4","last_reported":1729084687,"current_range_meters":38800,"station_id":"ce4bhhp2rcd13ifvqfm0","pricing_plan_id":"cebpf4jnsgd1na2vs0mg"},{"bike_id":"8a3f4ed7-7ab2-41b1-8d75-0742559afb1f","system_id":"levelo_inurba_marseille","lat":43.25109,"lon":5.40331,"is_reserved":false,"is_disabled":false,"rental_uris":{"android":"levelo://app?vid=8a3f4ed7-7ab2-41b1-8d75-0742559afb1f","ios":"levelo://app?vid=8a3f4ed7-7ab2-41b1-8d75-0742559afb1f"},"vehicle_type_id":"4","last_reported":1729084687,"current_range_meters":28000,"station_id":"ce4bhlh2rcd13ifvqgig","pricing_plan_id":"cebpf4jnsgd1na2vs0mg"},{"bike_id":"f27faba5-e21e-4984-8298-511561992386","system_id":"levelo_inurba_marseille","lat":43.313287,"lon":5.396923,"is_reserved":false,"is_disabled":false,"rental_uris":{"android":"levelo://app?vid=f27faba5-e21e-4984-8298-511561992386","ios":"levelo://app?vid=f27faba5-e21e-4984-8298-511561992386"},"vehicle_type_id":"4","last_reported":1729084687,"current_range_meters":24400,"station_id":"ce4bgvp2rcd13ifvqcu0","pricing_plan_id":"cebpf4jnsgd1na2vs0mg"},{"bike_id":"a5fb3a9d-0c3c-4c1c-b79f-b40bdb914263","system_id":"levelo_inurba_marseille","lat":43.30314,"lon":5.36894,"is_reserved":false,"is_disabled":false,"rental_uris":{"android":"levelo://app?vid=a5fb3a9d-0c3c-4c1c-b79f-b40bdb914263","ios":"levelo://app?vid=a5fb3a9d-0c3c-4c1c-b79f-b40bdb914263"},"vehicle_type_id":"4","last_reported":1729084687,"current_range_meters":18800,"station_id":"ce4bgqh2rcd13ifvqc5g","pricing_plan_id":"cebpf4jnsgd1na2vs0mg"},{"bike_id":"46044562-85fe-4f48-b593-84539aff8c63","system_id":"levelo_inurba_marseille","lat":43.31485,"lon":5.37307,"is_reserved":false,"is_disabled":false,"rental_uris":{"android":"levelo://app?vid=46044562-85fe-4f48-b593-84539aff8c63","ios":"levelo://app?vid=46044562-85fe-4f48-b593-84539aff8c63"},"vehicle_type_id":"4","last_reported":1729084687,"current_range_meters":18000,"station_id":"ce4bgt12rcd13ifvqcd0","pricing_plan_id":"cebpf4jnsgd1na2vs0mg"},{"bike_id":"de39ea47-821b-44c0-89c2-fa9f00b3d493","system_id":"levelo_inurba_marseille","lat":43.29783,"lon":5.37105,"is_reserved":false,"is_disabled":false,"rental_uris":{"android":"levelo://app?vid=de39ea47-821b-44c0-89c2-fa9f00b3d493","ios":"levelo://app?vid=de39ea47-821b-44c0-89c2-fa9f00b3d493"},"vehicle_type_id":"4","last_reported":1729084687,"current_range_meters":32400,"station_id":"ce4bgop2rcd13ifvqc1g","pricing_plan_id":"cebpf4jnsgd1na2vs0mg"},{"bike_id":"793c9f5a-0696-4aa7-adb2-b3ca27262b6a","system_id":"levelo_inurba_marseille","lat":43.29984,"lon":5.37175,"is_reserved":false,"is_disabled":false,"rental_uris":{"android":"levelo://app?vid=793c9f5a-0696-4aa7-adb2-b3ca27262b6a","ios":"levelo://app?vid=793c9f5a-0696-4aa7-adb2-b3ca27262b6a"},"vehicle_type_id":"4","last_reported":1729084687,"current_range_meters":38800,"station_id":"ce4bgr92rcd13ifvqc7g","pricing_plan_id":"cebpf4jnsgd1na2vs0mg"},{"bike_id":"510e3023-d190-4812-8c4b-a068f7a1ffc5","system_id":"levelo_inurba_marseille","lat":43.27565,"lon":5.3841,"is_reserved":false,"is_disabled":false,"rental_uris":{"android":"levelo://app?vid=510e3023-d190-4812-8c4b-a068f7a1ffc5","ios":"levelo://app?vid=510e3023-d190-4812-8c4b-a068f7a1ffc5"},"vehicle_type_id":"4","last_reported":1729084687,"current_range_meters":6800,"station_id":"ce4bhh92rcd13ifvqfi0","pricing_plan_id":"cebpf4jnsgd1na2vs0mg"},{"bike_id":"293099a1-73f4-410f-a3ea-e11764788e18","system_id":"levelo_inurba_marseille","lat":43.27173,"lon":5.40992,"is_reserved":false,"is_disabled":false,"rental_uris":{"android":"levelo://app?vid=293099a1-73f4-410f-a3ea-e11764788e18","ios":"levelo://app?vid=293099a1-73f4-410f-a3ea-e11764788e18"},"vehicle_type_id":"4","last_reported":1729084687,"current_range_meters":36800,"station_id":"ce4bhl12rcd13ifvqgf0","pricing_plan_id":"cebpf4jnsgd1na2vs0mg"},{"bike_id":"8b89f175-d99c-4443-af38-c4cd2535f07b","system_id":"levelo_inurba_marseille","lat":43.3095,"lon":5.38614,"is_reserved":false,"is_disabled":false,"rental_uris":{"android":"levelo://app?vid=8b89f175-d99c-4443-af38-c4cd2535f07b","ios":"levelo://app?vid=8b89f175-d99c-4443-af38-c4cd2535f07b"},"vehicle_type_id":"4","last_reported":1729084687,"current_range_meters":37600,"station_id":"","pricing_plan_id":"cebpf4jnsgd1na2vs0mg"},{"bike_id":"1b5b2780-7477-4958-a580-c3d4922fd458","system_id":"levelo_inurba_marseille","lat":43.337444,"lon":5.374475,"is_reserved":false,"is_disabled":false,"rental_uris":{"android":"levelo://app?vid=1b5b2780-7477-4958-a580-c3d4922fd458","ios":"levelo://app?vid=1b5b2780-7477-4958-a580-c3d4922fd458"},"vehicle_type_id":"4","last_reported":1729084687,"current_range_meters":36000,"station_id":"","pricing_plan_id":"cebpf4jnsgd1na2vs0mg"},{"bike_id":"ccf2cab4-263e-42dd-ab05-01d84298bed7","system_id":"levelo_inurba_marseille","lat":43.26954,"lon":5.38626,"is_reserved":false,"is_disabled":false,"rental_uris":{"android":"levelo://app?vid=ccf2cab4-263e-42dd-ab05-01d84298bed7","ios":"levelo://app?vid=ccf2cab4-263e-42dd-ab05-01d84298bed7"},"vehicle_type_id":"4","last_reported":1729084687,"current_range_meters":3600,"station_id":"ce4bhh92rcd13ifvqfh0","pricing_plan_id":"cebpf4jnsgd1na2vs0mg"},{"bike_id":"fa7bbdc9-afbe-404d-8676-647037cc76a9","system_id":"levelo_inurba_marseille","lat":43.23194,"lon":5.35546,"is_reserved":false,"is_disabled":false,"rental_uris":{"android":"levelo://app?vid=fa7bbdc9-afbe-404d-8676-647037cc76a9","ios":"levelo://app?vid=fa7bbdc9-afbe-404d-8676-647037cc76a9"},"vehicle_type_id":"4","last_reported":1729084687,"current_range_meters":38000,"station_id":"ce4bhu92rcd13ifvqi70","pricing_plan_id":"cebpf4jnsgd1na2vs0mg"},{"bike_id":"931ad2f4-35ea-42b5-bc1a-1fdec477398a","system_id":"levelo_inurba_marseille","lat":43.337444,"lon":5.374475,"is_reserved":false,"is_disabled":false,"rental_uris":{"android":"levelo://app?vid=931ad2f4-35ea-42b5-bc1a-1fdec477398a","ios":"levelo://app?vid=931ad2f4-35ea-42b5-bc1a-1fdec477398a"},"vehicle_type_id":"4","last_reported":1729084687,"current_range_meters":38400,"station_id":"","pricing_plan_id":"cebpf4jnsgd1na2vs0mg"},{"bike_id":"ead989bf-bd8c-4aee-85d8-527278ae0cfb","system_id":"levelo_inurba_marseille","lat":43.29728,"lon":5.37687,"is_reserved":false,"is_disabled":false,"rental_uris":{"android":"levelo://app?vid=ead989bf-bd8c-4aee-85d8-527278ae0cfb","ios":"levelo://app?vid=ead989bf-bd8c-4aee-85d8-527278ae0cfb"},"vehicle_type_id":"4","last_reported":1729084687,"current_range_meters":16800,"station_id":"ce4bgkh2rcd13ifvqbl0","pricing_plan_id":"cebpf4jnsgd1na2vs0mg"},{"bike_id":"7f73d721-727c-4706-9a3c-291d763824dd","system_id":"levelo_inurba_marseille","lat":43.29226,"lon":5.36053,"is_reserved":false,"is_disabled":false,"rental_uris":{"android":"levelo://app?vid=7f73d721-727c-4706-9a3c-291d763824dd","ios":"levelo://app?vid=7f73d721-727c-4706-9a3c-291d763824dd"},"vehicle_type_id":"4","last_reported":1729084687,"current_range_meters":3200,"station_id":"ce4bhbh2rcd13ifvqeqg","pricing_plan_id":"cebpf4jnsgd1na2vs0mg"},{"bike_id":"1d159234-62f8-41cc-8a0c-c9c0b2f9dd6f","system_id":"levelo_inurba_marseille","lat":43.29961,"lon":5.41321,"is_reserved":false,"is_disabled":false,"rental_uris":{"android":"levelo://app?vid=1d159234-62f8-41cc-8a0c-c9c0b2f9dd6f","ios":"levelo://app?vid=1d159234-62f8-41cc-8a0c-c9c0b2f9dd6f"},"vehicle_type_id":"4","last_reported":1729084687,"current_range_meters":38800,"station_id":"ce4bhp12rcd13ifvqh9g","pricing_plan_id":"cebpf4jnsgd1na2vs0mg"},{"bike_id":"81e32d4e-df25-4349-90c7-1831752870c9","system_id":"levelo_inurba_marseille","lat":43.2794,"lon":5.4104,"is_reserved":false,"is_disabled":false,"rental_uris":{"android":"levelo://app?vid=81e32d4e-df25-4349-90c7-1831752870c9","ios":"levelo://app?vid=81e32d4e-df25-4349-90c7-1831752870c9"},"vehicle_type_id":"4","last_reported":1729084687,"current_range_meters":34800,"station_id":"ce4bhnp2rcd13ifvqh0g","pricing_plan_id":"cebpf4jnsgd1na2vs0mg"},{"bike_id":"bb5a06e3-f522-4e9a-a5af-f464ac74fbcd","system_id":"levelo_inurba_marseille","lat":43.28353,"lon":5.38098,"is_reserved":false,"is_disabled":false,"rental_uris":{"android":"levelo://app?vid=bb5a06e3-f522-4e9a-a5af-f464ac74fbcd","ios":"levelo://app?vid=bb5a06e3-f522-4e9a-a5af-f464ac74fbcd"},"vehicle_type_id":"4","last_reported":1729084687,"current_range_meters":34800,"station_id":"ce4bh412rcd13ifvqdr0","pricing_plan_id":"cebpf4jnsgd1na2vs0mg"},{"bike_id":"24f425dd-ba51-46c1-b338-4384f4ac3220","system_id":"levelo_inurba_marseille","lat":43.30131,"lon":5.39869,"is_reserved":false,"is_disabled":false,"rental_uris":{"android":"levelo://app?vid=24f425dd-ba51-46c1-b338-4384f4ac3220","ios":"levelo://app?vid=24f425dd-ba51-46c1-b338-4384f4ac3220"},"vehicle_type_id":"4","last_reported":1729084687,"current_range_meters":6000,"station_id":"ce4bh0h2rcd13ifvqd40","pricing_plan_id":"cebpf4jnsgd1na2vs0mg"},{"bike_id":"56ba13e2-c3b1-45a2-a7a7-266afdab071b","system_id":"levelo_inurba_marseille","lat":43.25818,"lon":5.39425,"is_reserved":false,"is_disabled":false,"rental_uris":{"android":"levelo://app?vid=56ba13e2-c3b1-45a2-a7a7-266afdab071b","ios":"levelo://app?vid=56ba13e2-c3b1-45a2-a7a7-266afdab071b"},"vehicle_type_id":"4","last_reported":1729084687,"current_range_meters":16800,"station_id":"ce4bhip2rcd13ifvqft0","pricing_plan_id":"cebpf4jnsgd1na2vs0mg"},{"bike_id":"5d4185c5-efd5-458a-89de-9f5bf51cb954","system_id":"levelo_inurba_marseille","lat":43.25935,"lon":5.40897,"is_reserved":false,"is_disabled":false,"rental_uris":{"android":"levelo://app?vid=5d4185c5-efd5-458a-89de-9f5bf51cb954","ios":"levelo://app?vid=5d4185c5-efd5-458a-89de-9f5bf51cb954"},"vehicle_type_id":"4","last_reported":1729084687,"current_range_meters":27600,"station_id":"ce4bhm92rcd13ifvqglg","pricing_plan_id":"cebpf4jnsgd1na2vs0mg"},{"bike_id":"c3a086f5-b393-4cf3-b498-198346227eeb","system_id":"levelo_inurba_marseille","lat":43.26208,"lon":5.37444,"is_reserved":false,"is_disabled":false,"rental_uris":{"android":"levelo://app?vid=c3a086f5-b393-4cf3-b498-198346227eeb","ios":"levelo://app?vid=c3a086f5-b393-4cf3-b498-198346227eeb"},"vehicle_type_id":"4","last_reported":1729084687,"current_range_meters":30400,"station_id":"ce4bhgp2rcd13ifvqfc0","pricing_plan_id":"cebpf4jnsgd1na2vs0mg"},{"bike_id":"03b52a53-4015-42f1-a46b-0d68e4ef1cf1","system_id":"levelo_inurba_marseille","lat":43.30538,"lon":5.36692,"is_reserved":false,"is_disabled":false,"rental_uris":{"android":"levelo://app?vid=03b52a53-4015-42f1-a46b-0d68e4ef1cf1","ios":"levelo://app?vid=03b52a53-4015-42f1-a46b-0d68e4ef1cf1"},"vehicle_type_id":"4","last_reported":1729084687,"current_range_meters":39200,"station_id":"ce4bgrp2rcd13ifvqc9g","pricing_plan_id":"cebpf4jnsgd1na2vs0mg"},{"bike_id":"230796ff-db1b-4afd-92a4-4f4a19b339f7","system_id":"levelo_inurba_marseille","lat":43.27997,"lon":5.40012,"is_reserved":false,"is_disabled":false,"rental_uris":{"android":"levelo://app?vid=230796ff-db1b-4afd-92a4-4f4a19b339f7","ios":"levelo://app?vid=230796ff-db1b-4afd-92a4-4f4a19b339f7"},"vehicle_type_id":"4","last_reported":1729084687,"current_range_meters":9200,"station_id":"ce4bho92rcd13ifvqh4g","pricing_plan_id":"cebpf4jnsgd1na2vs0mg"},{"bike_id":"85d70bc7-a693-4e9a-8b91-709d878d62cc","system_id":"levelo_inurba_marseille","lat":43.27812,"lon":5.40713,"is_reserved":false,"is_disabled":false,"rental_uris":{"android":"levelo://app?vid=85d70bc7-a693-4e9a-8b91-709d878d62cc","ios":"levelo://app?vid=85d70bc7-a693-4e9a-8b91-709d878d62cc"},"vehicle_type_id":"4","last_reported":1729084687,"current_range_meters":26000,"station_id":"ce4bhnh2rcd13ifvqgtg","pricing_plan_id":"cebpf4jnsgd1na2vs0mg"},{"bike_id":"1195010b-e1d6-481e-a820-583874eee93a","system_id":"levelo_inurba_marseille","lat":43.297691,"lon":5.403835,"is_reserved":false,"is_disabled":false,"rental_uris":{"android":"levelo://app?vid=1195010b-e1d6-481e-a820-583874eee93a","ios":"levelo://app?vid=1195010b-e1d6-481e-a820-583874eee93a"},"vehicle_type_id":"4","last_reported":1729084687,"current_range_meters":8800,"station_id":"ce4bh112rcd13ifvqd90","pricing_plan_id":"cebpf4jnsgd1na2vs0mg"},{"bike_id":"db0f7f46-40de-41ed-89c2-de13ac3f8d1f","system_id":"levelo_inurba_marseille","lat":43.29578,"lon":5.36733,"is_reserved":false,"is_disabled":false,"rental_uris":{"android":"levelo://app?vid=db0f7f46-40de-41ed-89c2-de13ac3f8d1f","ios":"levelo://app?vid=db0f7f46-40de-41ed-89c2-de13ac3f8d1f"},"vehicle_type_id":"4","last_reported":1729084687,"current_range_meters":30000,"station_id":"ce4bgph2rcd13ifvqc2g","pricing_plan_id":"cebpf4jnsgd1na2vs0mg"},{"bike_id":"c9f48371-59bd-4028-8f70-3fde0d956f24","system_id":"levelo_inurba_marseille","lat":43.28858,"lon":5.39313,"is_reserved":false,"is_disabled":false,"rental_uris":{"android":"levelo://app?vid=c9f48371-59bd-4028-8f70-3fde0d956f24","ios":"levelo://app?vid=c9f48371-59bd-4028-8f70-3fde0d956f24"},"vehicle_type_id":"4","last_reported":1729084687,"current_range_meters":3200,"station_id":"ce4bh2p2rcd13ifvqdi0","pricing_plan_id":"cebpf4jnsgd1na2vs0mg"},{"bike_id":"c8229813-5ea4-40de-a97b-4b0c94c3a861","system_id":"levelo_inurba_marseille","lat":43.29854,"lon":5.36286,"is_reserved":false,"is_disabled":false,"rental_uris":{"android":"levelo://app?vid=c8229813-5ea4-40de-a97b-4b0c94c3a861","ios":"levelo://app?vid=c8229813-5ea4-40de-a97b-4b0c94c3a861"},"vehicle_type_id":"4","last_reported":1729084687,"current_range_meters":22400,"station_id":"ce4bgpp2rcd13ifvqc3g","pricing_plan_id":"cebpf4jnsgd1na2vs0mg"},{"bike_id":"c7e45abe-a8d2-40d3-bd56-8b09105a5112","system_id":"levelo_inurba_marseille","lat":43.29975,"lon":5.38492,"is_reserved":false,"is_disabled":false,"rental_uris":{"android":"levelo://app?vid=c7e45abe-a8d2-40d3-bd56-8b09105a5112","ios":"levelo://app?vid=c7e45abe-a8d2-40d3-bd56-8b09105a5112"},"vehicle_type_id":"4","last_reported":1729084687,"current_range_meters":14400,"station_id":"ce4bgj92rcd13ifvqbd0","pricing_plan_id":"cebpf4jnsgd1na2vs0mg"},{"bike_id":"0994d7f0-fa2e-480f-b967-2b1e1b476b78","system_id":"levelo_inurba_marseille","lat":43.23184,"lon":5.35564,"is_reserved":false,"is_disabled":false,"rental_uris":{"android":"levelo://app?vid=0994d7f0-fa2e-480f-b967-2b1e1b476b78","ios":"levelo://app?vid=0994d7f0-fa2e-480f-b967-2b1e1b476b78"},"vehicle_type_id":"4","last_reported":1729084687,"current_range_meters":20800,"station_id":"ce4bhu92rcd13ifvqi70","pricing_plan_id":"cebpf4jnsgd1na2vs0mg"},{"bike_id":"c2fdfeed-5257-42f4-ad5f-6dad37cbead1","system_id":"levelo_inurba_marseille","lat":43.29436,"lon":5.39757,"is_reserved":false,"is_disabled":false,"rental_uris":{"android":"levelo://app?vid=c2fdfeed-5257-42f4-ad5f-6dad37cbead1","ios":"levelo://app?vid=c2fdfeed-5257-42f4-ad5f-6dad37cbead1"},"vehicle_type_id":"4","last_reported":1729084687,"current_range_meters":18000,"station_id":"ce4bh3h2rcd13ifvqdo0","pricing_plan_id":"cebpf4jnsgd1na2vs0mg"},{"bike_id":"66ccc46d-618e-4760-b09c-27382152bdab","system_id":"levelo_inurba_marseille","lat":43.23199,"lon":5.35544,"is_reserved":false,"is_disabled":false,"rental_uris":{"android":"levelo://app?vid=66ccc46d-618e-4760-b09c-27382152bdab","ios":"levelo://app?vid=66ccc46d-618e-4760-b09c-27382152bdab"},"vehicle_type_id":"4","last_reported":1729084687,"current_range_meters":37600,"station_id":"ce4bhu92rcd13ifvqi70","pricing_plan_id":"cebpf4jnsgd1na2vs0mg"},{"bike_id":"8a331acc-70d9-496a-b0bc-87f49792f9b4","system_id":"levelo_inurba_marseille","lat":43.24162,"lon":5.364,"is_reserved":false,"is_disabled":false,"rental_uris":{"android":"levelo://app?vid=8a331acc-70d9-496a-b0bc-87f49792f9b4","ios":"levelo://app?vid=8a331acc-70d9-496a-b0bc-87f49792f9b4"},"vehicle_type_id":"4","last_reported":1729084687,"current_range_meters":23200,"station_id":"cpo36qri1sfpv3e86is0","pricing_plan_id":"cebpf4jnsgd1na2vs0mg"},{"bike_id":"a8c6dcbb-71df-4d01-9f13-286e6119c0fd","system_id":"levelo_inurba_marseille","lat":43.23143,"lon":5.43725,"is_reserved":false,"is_disabled":false,"rental_uris":{"android":"levelo://app?vid=a8c6dcbb-71df-4d01-9f13-286e6119c0fd","ios":"levelo://app?vid=a8c6dcbb-71df-4d01-9f13-286e6119c0fd"},"vehicle_type_id":"4","last_reported":1729084687,"current_range_meters":38400,"station_id":"ce4bhmp2rcd13ifvqgog","pricing_plan_id":"cebpf4jnsgd1na2vs0mg"},{"bike_id":"001091d6-94bc-4119-b28d-ebb6982951d8","system_id":"levelo_inurba_marseille","lat":43.25085,"lon":5.39516,"is_reserved":false,"is_disabled":false,"rental_uris":{"android":"levelo://app?vid=001091d6-94bc-4119-b28d-ebb6982951d8","ios":"levelo://app?vid=001091d6-94bc-4119-b28d-ebb6982951d8"},"vehicle_type_id":"4","last_reported":1729084687,"current_range_meters":34000,"station_id":"ce4bhm12rcd13ifvqgkg","pricing_plan_id":"cebpf4jnsgd1na2vs0mg"},{"bike_id":"8acdac56-340c-467b-bf1d-7330a64bac50","system_id":"levelo_inurba_marseille","lat":43.26804,"lon":5.40266,"is_reserved":false,"is_disabled":false,"rental_uris":{"android":"levelo://app?vid=8acdac56-340c-467b-bf1d-7330a64bac50","ios":"levelo://app?vid=8acdac56-340c-467b-bf1d-7330a64bac50"},"vehicle_type_id":"4","last_reported":1729084687,"current_range_meters":25600,"station_id":"ce501612rcd8frsf0b60","pricing_plan_id":"cebpf4jnsgd1na2vs0mg"},{"bike_id":"620789ae-7d40-4cf7-bd3f-6a67a0d22950","system_id":"levelo_inurba_marseille","lat":43.30546,"lon":5.36702,"is_reserved":false,"is_disabled":false,"rental_uris":{"android":"levelo://app?vid=620789ae-7d40-4cf7-bd3f-6a67a0d22950","ios":"levelo://app?vid=620789ae-7d40-4cf7-bd3f-6a67a0d22950"},"vehicle_type_id":"4","last_reported":1729084687,"current_range_meters":37600,"station_id":"ce4bgrp2rcd13ifvqc9g","pricing_plan_id":"cebpf4jnsgd1na2vs0mg"},{"bike_id":"1e69292e-e3fe-4906-9ca6-103259c9e5f0","system_id":"levelo_inurba_marseille","lat":43.30539,"lon":5.36703,"is_reserved":false,"is_disabled":false,"rental_uris":{"android":"levelo://app?vid=1e69292e-e3fe-4906-9ca6-103259c9e5f0","ios":"levelo://app?vid=1e69292e-e3fe-4906-9ca6-103259c9e5f0"},"vehicle_type_id":"4","last_reported":1729084687,"current_range_meters":38800,"station_id":"ce4bgrp2rcd13ifvqc9g","pricing_plan_id":"cebpf4jnsgd1na2vs0mg"},{"bike_id":"6300df2c-b9fe-4275-916d-dd75e59140c9","system_id":"levelo_inurba_marseille","lat":43.2319,"lon":5.35539,"is_reserved":false,"is_disabled":false,"rental_uris":{"android":"levelo://app?vid=6300df2c-b9fe-4275-916d-dd75e59140c9","ios":"levelo://app?vid=6300df2c-b9fe-4275-916d-dd75e59140c9"},"vehicle_type_id":"4","last_reported":1729084687,"current_range_meters":38000,"station_id":"ce4bhu92rcd13ifvqi70","pricing_plan_id":"cebpf4jnsgd1na2vs0mg"},{"bike_id":"9e5b27c9-3509-48d2-8a05-9010e3bd11e1","system_id":"levelo_inurba_marseille","lat":43.33023,"lon":5.39046,"is_reserved":false,"is_disabled":false,"rental_uris":{"android":"levelo://app?vid=9e5b27c9-3509-48d2-8a05-9010e3bd11e1","ios":"levelo://app?vid=9e5b27c9-3509-48d2-8a05-9010e3bd11e1"},"vehicle_type_id":"4","last_reported":1729084687,"current_range_meters":7200,"station_id":"ce4bhr92rcd13ifvqhrg","pricing_plan_id":"cebpf4jnsgd1na2vs0mg"},{"bike_id":"5a4fd0d3-d886-42f8-8cda-a0778f6a6574","system_id":"levelo_inurba_marseille","lat":43.23965,"lon":5.36639,"is_reserved":false,"is_disabled":false,"rental_uris":{"android":"levelo://app?vid=5a4fd0d3-d886-42f8-8cda-a0778f6a6574","ios":"levelo://app?vid=5a4fd0d3-d886-42f8-8cda-a0778f6a6574"},"vehicle_type_id":"4","last_reported":1729084687,"current_range_meters":12400,"station_id":"ce4bhi12rcd13ifvqfp0","pricing_plan_id":"cebpf4jnsgd1na2vs0mg"},{"bike_id":"82bf2be3-709d-4811-948a-1556c7f07e77","system_id":"levelo_inurba_marseille","lat":43.27946,"lon":5.41034,"is_reserved":false,"is_disabled":false,"rental_uris":{"android":"levelo://app?vid=82bf2be3-709d-4811-948a-1556c7f07e77","ios":"levelo://app?vid=82bf2be3-709d-4811-948a-1556c7f07e77"},"vehicle_type_id":"4","last_reported":1729084687,"current_range_meters":23200,"station_id":"ce4bhnp2rcd13ifvqh0g","pricing_plan_id":"cebpf4jnsgd1na2vs0mg"},{"bike_id":"8e62f645-a46c-4c20-8c38-2863275cd308","system_id":"levelo_inurba_marseille","lat":43.26504,"lon":5.39534,"is_reserved":false,"is_disabled":false,"rental_uris":{"android":"levelo://app?vid=8e62f645-a46c-4c20-8c38-2863275cd308","ios":"levelo://app?vid=8e62f645-a46c-4c20-8c38-2863275cd308"},"vehicle_type_id":"4","last_reported":1729084687,"current_range_meters":24400,"station_id":"ce4bhi12rcd13ifvqfq0","pricing_plan_id":"cebpf4jnsgd1na2vs0mg"},{"bike_id":"771e1542-b62d-4ec3-81f3-0346e98dc9cf","system_id":"levelo_inurba_marseille","lat":43.24549,"lon":5.39519,"is_reserved":false,"is_disabled":false,"rental_uris":{"android":"levelo://app?vid=771e1542-b62d-4ec3-81f3-0346e98dc9cf","ios":"levelo://app?vid=771e1542-b62d-4ec3-81f3-0346e98dc9cf"},"vehicle_type_id":"4","last_reported":1729084687,"current_range_meters":25200,"station_id":"ce4bhlp2rcd13ifvqgjg","pricing_plan_id":"cebpf4jnsgd1na2vs0mg"},{"bike_id":"ef2dcb06-86bc-44ad-8682-568d3cb4ff17","system_id":"levelo_inurba_marseille","lat":43.30648,"lon":5.40097,"is_reserved":false,"is_disabled":false,"rental_uris":{"android":"levelo://app?vid=ef2dcb06-86bc-44ad-8682-568d3cb4ff17","ios":"levelo://app?vid=ef2dcb06-86bc-44ad-8682-568d3cb4ff17"},"vehicle_type_id":"4","last_reported":1729084687,"current_range_meters":6800,"station_id":"ce4bh112rcd13ifvqda0","pricing_plan_id":"cebpf4jnsgd1na2vs0mg"},{"bike_id":"a11531cf-01a2-4b94-9d73-34b46eb471bd","system_id":"levelo_inurba_marseille","lat":43.2841,"lon":5.37518,"is_reserved":false,"is_disabled":false,"rental_uris":{"android":"levelo://app?vid=a11531cf-01a2-4b94-9d73-34b46eb471bd","ios":"levelo://app?vid=a11531cf-01a2-4b94-9d73-34b46eb471bd"},"vehicle_type_id":"4","last_reported":1729084687,"current_range_meters":12000,"station_id":"ce4bh412rcd13ifvqds0","pricing_plan_id":"cebpf4jnsgd1na2vs0mg"},{"bike_id":"e6a91ecc-ac10-47d4-837f-b4f414594277","system_id":"levelo_inurba_marseille","lat":43.301284,"lon":5.39849,"is_reserved":false,"is_disabled":false,"rental_uris":{"android":"levelo://app?vid=e6a91ecc-ac10-47d4-837f-b4f414594277","ios":"levelo://app?vid=e6a91ecc-ac10-47d4-837f-b4f414594277"},"vehicle_type_id":"4","last_reported":1729084687,"current_range_meters":35200,"station_id":"ce4bh092rcd13ifvqd30","pricing_plan_id":"cebpf4jnsgd1na2vs0mg"},{"bike_id":"b4c939cd-1413-4fdd-8058-7b9ac03bdb58","system_id":"levelo_inurba_marseille","lat":43.290772,"lon":5.371501,"is_reserved":false,"is_disabled":false,"rental_uris":{"android":"levelo://app?vid=b4c939cd-1413-4fdd-8058-7b9ac03bdb58","ios":"levelo://app?vid=b4c939cd-1413-4fdd-8058-7b9ac03bdb58"},"vehicle_type_id":"4","last_reported":1729084687,"current_range_meters":8000,"station_id":"ce4bgs92rcd13ifvqcc0","pricing_plan_id":"cebpf4jnsgd1na2vs0mg"},{"bike_id":"190efd2f-0ff5-45fa-8915-4186e08610c9","system_id":"levelo_inurba_marseille","lat":43.28007,"lon":5.40009,"is_reserved":false,"is_disabled":false,"rental_uris":{"android":"levelo://app?vid=190efd2f-0ff5-45fa-8915-4186e08610c9","ios":"levelo://app?vid=190efd2f-0ff5-45fa-8915-4186e08610c9"},"vehicle_type_id":"4","last_reported":1729084687,"current_range_meters":38800,"station_id":"ce4bho92rcd13ifvqh4g","pricing_plan_id":"cebpf4jnsgd1na2vs0mg"},{"bike_id":"dc2be2d3-f414-46f0-a8de-e88a72a4c62d","system_id":"levelo_inurba_marseille","lat":43.30419,"lon":5.41279,"is_reserved":false,"is_disabled":false,"rental_uris":{"android":"levelo://app?vid=dc2be2d3-f414-46f0-a8de-e88a72a4c62d","ios":"levelo://app?vid=dc2be2d3-f414-46f0-a8de-e88a72a4c62d"},"vehicle_type_id":"4","last_reported":1729084687,"current_range_meters":8400,"station_id":"ce4bhop2rcd13ifvqh8g","pricing_plan_id":"cebpf4jnsgd1na2vs0mg"},{"bike_id":"1946d02f-84d4-4689-8869-5a6f366b10b2","system_id":"levelo_inurba_marseille","lat":43.29375,"lon":5.37858,"is_reserved":false,"is_disabled":false,"rental_uris":{"android":"levelo://app?vid=1946d02f-84d4-4689-8869-5a6f366b10b2","ios":"levelo://app?vid=1946d02f-84d4-4689-8869-5a6f366b10b2"},"vehicle_type_id":"4","last_reported":1729084687,"current_range_meters":8000,"station_id":"ce4bgjh2rcd13ifvqbf0","pricing_plan_id":"cebpf4jnsgd1na2vs0mg"},{"bike_id":"8cd9ab2c-db18-48d6-9ba9-f179eb726f3d","system_id":"levelo_inurba_marseille","lat":43.24806,"lon":5.37467,"is_reserved":false,"is_disabled":false,"rental_uris":{"android":"levelo://app?vid=8cd9ab2c-db18-48d6-9ba9-f179eb726f3d","ios":"levelo://app?vid=8cd9ab2c-db18-48d6-9ba9-f179eb726f3d"},"vehicle_type_id":"4","last_reported":1729084687,"current_range_meters":8000,"station_id":"ce4bhgh2rcd13ifvqfb0","pricing_plan_id":"cebpf4jnsgd1na2vs0mg"},{"bike_id":"dadaa65a-cdc8-44d0-9e1a-d3910be56716","system_id":"levelo_inurba_marseille","lat":43.26204,"lon":5.37927,"is_reserved":false,"is_disabled":false,"rental_uris":{"android":"levelo://app?vid=dadaa65a-cdc8-44d0-9e1a-d3910be56716","ios":"levelo://app?vid=dadaa65a-cdc8-44d0-9e1a-d3910be56716"},"vehicle_type_id":"4","last_reported":1729084687,"current_range_meters":28000,"station_id":"ce4bhjp2rcd13ifvqg90","pricing_plan_id":"cebpf4jnsgd1na2vs0mg"},{"bike_id":"56cb31db-26c1-409d-b680-c1e6cf53e9a4","system_id":"levelo_inurba_marseille","lat":43.29889,"lon":5.38909,"is_reserved":false,"is_disabled":false,"rental_uris":{"android":"levelo://app?vid=56cb31db-26c1-409d-b680-c1e6cf53e9a4","ios":"levelo://app?vid=56cb31db-26c1-409d-b680-c1e6cf53e9a4"},"vehicle_type_id":"4","last_reported":1729084687,"current_range_meters":21600,"station_id":"ce4bh392rcd13ifvqdl0","pricing_plan_id":"cebpf4jnsgd1na2vs0mg"},{"bike_id":"2140b6a3-5118-4150-823e-9225aeb56201","system_id":"levelo_inurba_marseille","lat":43.23194,"lon":5.35545,"is_reserved":false,"is_disabled":false,"rental_uris":{"android":"levelo://app?vid=2140b6a3-5118-4150-823e-9225aeb56201","ios":"levelo://app?vid=2140b6a3-5118-4150-823e-9225aeb56201"},"vehicle_type_id":"4","last_reported":1729084687,"current_range_meters":4000,"station_id":"ce4bhu92rcd13ifvqi70","pricing_plan_id":"cebpf4jnsgd1na2vs0mg"},{"bike_id":"c71256e3-f91a-415b-a206-25fe3e2d20b5","system_id":"levelo_inurba_marseille","lat":43.24999,"lon":5.38932,"is_reserved":false,"is_disabled":false,"rental_uris":{"android":"levelo://app?vid=c71256e3-f91a-415b-a206-25fe3e2d20b5","ios":"levelo://app?vid=c71256e3-f91a-415b-a206-25fe3e2d20b5"},"vehicle_type_id":"4","last_reported":1729084687,"current_range_meters":28400,"station_id":"ce4bhgp2rcd13ifvqfd0","pricing_plan_id":"cebpf4jnsgd1na2vs0mg"},{"bike_id":"64c83293-faaf-43fe-8ef0-0156c9698107","system_id":"levelo_inurba_marseille","lat":43.31224,"lon":5.36847,"is_reserved":false,"is_disabled":false,"rental_uris":{"android":"levelo://app?vid=64c83293-faaf-43fe-8ef0-0156c9698107","ios":"levelo://app?vid=64c83293-faaf-43fe-8ef0-0156c9698107"},"vehicle_type_id":"4","last_reported":1729084687,"current_range_meters":8400,"station_id":"ce4bgl92rcd13ifvqbq0","pricing_plan_id":"cebpf4jnsgd1na2vs0mg"},{"bike_id":"5aedf0da-81b9-4ace-b6dc-2d6eaf7a23a6","system_id":"levelo_inurba_marseille","lat":43.27946,"lon":5.41039,"is_reserved":false,"is_disabled":false,"rental_uris":{"android":"levelo://app?vid=5aedf0da-81b9-4ace-b6dc-2d6eaf7a23a6","ios":"levelo://app?vid=5aedf0da-81b9-4ace-b6dc-2d6eaf7a23a6"},"vehicle_type_id":"4","last_reported":1729084687,"current_range_meters":16000,"station_id":"ce4bhnp2rcd13ifvqh0g","pricing_plan_id":"cebpf4jnsgd1na2vs0mg"},{"bike_id":"849a5291-48a8-4f41-9763-f208e0dc77ef","system_id":"levelo_inurba_marseille","lat":43.30308,"lon":5.369,"is_reserved":false,"is_disabled":false,"rental_uris":{"android":"levelo://app?vid=849a5291-48a8-4f41-9763-f208e0dc77ef","ios":"levelo://app?vid=849a5291-48a8-4f41-9763-f208e0dc77ef"},"vehicle_type_id":"4","last_reported":1729084687,"current_range_meters":38800,"station_id":"","pricing_plan_id":"cebpf4jnsgd1na2vs0mg"},{"bike_id":"dc4e4719-f73e-4d7c-9c93-dd168fe488ac","system_id":"levelo_inurba_marseille","lat":43.28699,"lon":5.37381,"is_reserved":false,"is_disabled":false,"rental_uris":{"android":"levelo://app?vid=dc4e4719-f73e-4d7c-9c93-dd168fe488ac","ios":"levelo://app?vid=dc4e4719-f73e-4d7c-9c93-dd168fe488ac"},"vehicle_type_id":"4","last_reported":1729084687,"current_range_meters":28400,"station_id":"ce4bh3p2rcd13ifvqdq0","pricing_plan_id":"cebpf4jnsgd1na2vs0mg"},{"bike_id":"c39c5b81-348a-4aeb-983d-bfb95838291b","system_id":"levelo_inurba_marseille","lat":43.30906,"lon":5.3685,"is_reserved":false,"is_disabled":false,"rental_uris":{"android":"levelo://app?vid=c39c5b81-348a-4aeb-983d-bfb95838291b","ios":"levelo://app?vid=c39c5b81-348a-4aeb-983d-bfb95838291b"},"vehicle_type_id":"4","last_reported":1729084687,"current_range_meters":32000,"station_id":"ce4bgn92rcd13ifvqbvg","pricing_plan_id":"cebpf4jnsgd1na2vs0mg"},{"bike_id":"51d89e29-50d4-402d-b49b-1303202ca29c","system_id":"levelo_inurba_marseille","lat":43.26789,"lon":5.39414,"is_reserved":false,"is_disabled":false,"rental_uris":{"android":"levelo://app?vid=51d89e29-50d4-402d-b49b-1303202ca29c","ios":"levelo://app?vid=51d89e29-50d4-402d-b49b-1303202ca29c"},"vehicle_type_id":"4","last_reported":1729084687,"current_range_meters":19200,"station_id":"ce4bhh12rcd13ifvqfg0","pricing_plan_id":"cebpf4jnsgd1na2vs0mg"},{"bike_id":"e3867f28-04ab-4fcc-8f24-9acf939f3085","system_id":"levelo_inurba_marseille","lat":43.31269,"lon":5.40157,"is_reserved":false,"is_disabled":false,"rental_uris":{"android":"levelo://app?vid=e3867f28-04ab-4fcc-8f24-9acf939f3085","ios":"levelo://app?vid=e3867f28-04ab-4fcc-8f24-9acf939f3085"},"vehicle_type_id":"4","last_reported":1729084687,"current_range_meters":38000,"station_id":"ce4bh092rcd13ifvqd30","pricing_plan_id":"cebpf4jnsgd1na2vs0mg"},{"bike_id":"8c5f6cb2-2534-400b-9faa-95a35c4c59a7","system_id":"levelo_inurba_marseille","lat":43.25728,"lon":5.41111,"is_reserved":false,"is_disabled":false,"rental_uris":{"android":"levelo://app?vid=8c5f6cb2-2534-400b-9faa-95a35c4c59a7","ios":"levelo://app?vid=8c5f6cb2-2534-400b-9faa-95a35c4c59a7"},"vehicle_type_id":"4","last_reported":1729084687,"current_range_meters":33600,"station_id":"ce4bhkp2rcd13ifvqgd0","pricing_plan_id":"cebpf4jnsgd1na2vs0mg"},{"bike_id":"5cbb6722-50d8-4df7-9260-e20b129f3cd9","system_id":"levelo_inurba_marseille","lat":43.29566,"lon":5.39983,"is_reserved":false,"is_disabled":false,"rental_uris":{"android":"levelo://app?vid=5cbb6722-50d8-4df7-9260-e20b129f3cd9","ios":"levelo://app?vid=5cbb6722-50d8-4df7-9260-e20b129f3cd9"},"vehicle_type_id":"4","last_reported":1729084687,"current_range_meters":34000,"station_id":"ce4bh312rcd13ifvqdj0","pricing_plan_id":"cebpf4jnsgd1na2vs0mg"},{"bike_id":"4d7fc1e4-345e-4af0-bd93-6ae93dc82f92","system_id":"levelo_inurba_marseille","lat":43.27424,"lon":5.39419,"is_reserved":false,"is_disabled":false,"rental_uris":{"android":"levelo://app?vid=4d7fc1e4-345e-4af0-bd93-6ae93dc82f92","ios":"levelo://app?vid=4d7fc1e4-345e-4af0-bd93-6ae93dc82f92"},"vehicle_type_id":"4","last_reported":1729084687,"current_range_meters":25600,"station_id":"ce4bhdp2rcd13ifvqf20","pricing_plan_id":"cebpf4jnsgd1na2vs0mg"},{"bike_id":"826a5e17-cd28-49ac-a394-4c709b81bec6","system_id":"levelo_inurba_marseille","lat":43.28026,"lon":5.36939,"is_reserved":false,"is_disabled":false,"rental_uris":{"android":"levelo://app?vid=826a5e17-cd28-49ac-a394-4c709b81bec6","ios":"levelo://app?vid=826a5e17-cd28-49ac-a394-4c709b81bec6"},"vehicle_type_id":"4","last_reported":1729084687,"current_range_meters":37600,"station_id":"ce4bha12rcd13ifvqef0","pricing_plan_id":"cebpf4jnsgd1na2vs0mg"},{"bike_id":"3213665e-989c-4d22-9f5a-31c8522597dd","system_id":"levelo_inurba_marseille","lat":43.296,"lon":5.36142,"is_reserved":false,"is_disabled":false,"rental_uris":{"android":"levelo://app?vid=3213665e-989c-4d22-9f5a-31c8522597dd","ios":"levelo://app?vid=3213665e-989c-4d22-9f5a-31c8522597dd"},"vehicle_type_id":"4","last_reported":1729084687,"current_range_meters":32800,"station_id":"","pricing_plan_id":"cebpf4jnsgd1na2vs0mg"},{"bike_id":"fb55f49f-f804-46a1-8a3b-a365e7e983f7","system_id":"levelo_inurba_marseille","lat":43.26201,"lon":5.37926,"is_reserved":false,"is_disabled":false,"rental_uris":{"android":"levelo://app?vid=fb55f49f-f804-46a1-8a3b-a365e7e983f7","ios":"levelo://app?vid=fb55f49f-f804-46a1-8a3b-a365e7e983f7"},"vehicle_type_id":"4","last_reported":1729084687,"current_range_meters":16000,"station_id":"ce4bhjp2rcd13ifvqg90","pricing_plan_id":"cebpf4jnsgd1na2vs0mg"},{"bike_id":"8ad9a540-6bc1-4fb2-b82a-8223a4b048c5","system_id":"levelo_inurba_marseille","lat":43.31182,"lon":5.38726,"is_reserved":false,"is_disabled":false,"rental_uris":{"android":"levelo://app?vid=8ad9a540-6bc1-4fb2-b82a-8223a4b048c5","ios":"levelo://app?vid=8ad9a540-6bc1-4fb2-b82a-8223a4b048c5"},"vehicle_type_id":"4","last_reported":1729084687,"current_range_meters":38400,"station_id":"ce4bgv12rcd13ifvqcp0","pricing_plan_id":"cebpf4jnsgd1na2vs0mg"},{"bike_id":"1641b826-604a-4181-8231-dca386f637a6","system_id":"levelo_inurba_marseille","lat":43.23195,"lon":5.35559,"is_reserved":false,"is_disabled":false,"rental_uris":{"android":"levelo://app?vid=1641b826-604a-4181-8231-dca386f637a6","ios":"levelo://app?vid=1641b826-604a-4181-8231-dca386f637a6"},"vehicle_type_id":"4","last_reported":1729084687,"current_range_meters":37600,"station_id":"ce4bhu92rcd13ifvqi70","pricing_plan_id":"cebpf4jnsgd1na2vs0mg"},{"bike_id":"89211ee2-076f-4df3-92bd-cd8885f2e76d","system_id":"levelo_inurba_marseille","lat":43.23193,"lon":5.35556,"is_reserved":false,"is_disabled":false,"rental_uris":{"android":"levelo://app?vid=89211ee2-076f-4df3-92bd-cd8885f2e76d","ios":"levelo://app?vid=89211ee2-076f-4df3-92bd-cd8885f2e76d"},"vehicle_type_id":"4","last_reported":1729084687,"current_range_meters":37600,"station_id":"ce4bhu92rcd13ifvqi70","pricing_plan_id":"cebpf4jnsgd1na2vs0mg"},{"bike_id":"94dcac77-d102-4975-85a3-b972f19477a7","system_id":"levelo_inurba_marseille","lat":43.25492,"lon":5.37649,"is_reserved":false,"is_disabled":false,"rental_uris":{"android":"levelo://app?vid=94dcac77-d102-4975-85a3-b972f19477a7","ios":"levelo://app?vid=94dcac77-d102-4975-85a3-b972f19477a7"},"vehicle_type_id":"4","last_reported":1729084687,"current_range_meters":12400,"station_id":"ce4bhh12rcd13ifvqff0","pricing_plan_id":"cebpf4jnsgd1na2vs0mg"},{"bike_id":"975adece-daeb-433e-b5fe-8997a00f0604","system_id":"levelo_inurba_marseille","lat":43.33025,"lon":5.39039,"is_reserved":false,"is_disabled":false,"rental_uris":{"android":"levelo://app?vid=975adece-daeb-433e-b5fe-8997a00f0604","ios":"levelo://app?vid=975adece-daeb-433e-b5fe-8997a00f0604"},"vehicle_type_id":"4","last_reported":1729084687,"current_range_meters":31200,"station_id":"ce4bhr92rcd13ifvqhrg","pricing_plan_id":"cebpf4jnsgd1na2vs0mg"},{"bike_id":"7c5f840d-ee91-49f8-abf1-6481edcbe346","system_id":"levelo_inurba_marseille","lat":43.23155,"lon":5.437,"is_reserved":false,"is_disabled":false,"rental_uris":{"android":"levelo://app?vid=7c5f840d-ee91-49f8-abf1-6481edcbe346","ios":"levelo://app?vid=7c5f840d-ee91-49f8-abf1-6481edcbe346"},"vehicle_type_id":"4","last_reported":1729084687,"current_range_meters":27200,"station_id":"ce4bhmp2rcd13ifvqgog","pricing_plan_id":"cebpf4jnsgd1na2vs0mg"},{"bike_id":"02af67c6-7c68-4559-a056-7404a067af01","system_id":"levelo_inurba_marseille","lat":43.3302,"lon":5.39044,"is_reserved":false,"is_disabled":false,"rental_uris":{"android":"levelo://app?vid=02af67c6-7c68-4559-a056-7404a067af01","ios":"levelo://app?vid=02af67c6-7c68-4559-a056-7404a067af01"},"vehicle_type_id":"4","last_reported":1729084687,"current_range_meters":39200,"station_id":"ce4bhr92rcd13ifvqhrg","pricing_plan_id":"cebpf4jnsgd1na2vs0mg"},{"bike_id":"459a0643-dd10-48df-9d57-d876cab70da5","system_id":"levelo_inurba_marseille","lat":43.29978,"lon":5.37174,"is_reserved":false,"is_disabled":false,"rental_uris":{"android":"levelo://app?vid=459a0643-dd10-48df-9d57-d876cab70da5","ios":"levelo://app?vid=459a0643-dd10-48df-9d57-d876cab70da5"},"vehicle_type_id":"4","last_reported":1729084687,"current_range_meters":38800,"station_id":"ce4bgr92rcd13ifvqc7g","pricing_plan_id":"cebpf4jnsgd1na2vs0mg"},{"bike_id":"cae7b162-c5c3-40e2-9efd-9e45ad87b126","system_id":"levelo_inurba_marseille","lat":43.30539,"lon":5.36547,"is_reserved":false,"is_disabled":false,"rental_uris":{"android":"levelo://app?vid=cae7b162-c5c3-40e2-9efd-9e45ad87b126","ios":"levelo://app?vid=cae7b162-c5c3-40e2-9efd-9e45ad87b126"},"vehicle_type_id":"4","last_reported":1729084687,"current_range_meters":17200,"station_id":"ce4bgs12rcd13ifvqcag","pricing_plan_id":"cebpf4jnsgd1na2vs0mg"},{"bike_id":"8e3963b6-8131-4c1e-b4d2-add46d4dfbf9","system_id":"levelo_inurba_marseille","lat":43.30312,"lon":5.36895,"is_reserved":false,"is_disabled":false,"rental_uris":{"android":"levelo://app?vid=8e3963b6-8131-4c1e-b4d2-add46d4dfbf9","ios":"levelo://app?vid=8e3963b6-8131-4c1e-b4d2-add46d4dfbf9"},"vehicle_type_id":"4","last_reported":1729084687,"current_range_meters":18800,"station_id":"ce4bgqh2rcd13ifvqc5g","pricing_plan_id":"cebpf4jnsgd1na2vs0mg"},{"bike_id":"2b0a7b83-91f5-40bf-a831-8680c1dcf19d","system_id":"levelo_inurba_marseille","lat":43.25731,"lon":5.4111,"is_reserved":false,"is_disabled":false,"rental_uris":{"android":"levelo://app?vid=2b0a7b83-91f5-40bf-a831-8680c1dcf19d","ios":"levelo://app?vid=2b0a7b83-91f5-40bf-a831-8680c1dcf19d"},"vehicle_type_id":"4","last_reported":1729084687,"current_range_meters":38400,"station_id":"ce4bhkp2rcd13ifvqgd0","pricing_plan_id":"cebpf4jnsgd1na2vs0mg"},{"bike_id":"24f85f72-dee6-41bb-bdb8-974ca7c83215","system_id":"levelo_inurba_marseille","lat":43.33023,"lon":5.39042,"is_reserved":false,"is_disabled":false,"rental_uris":{"android":"levelo://app?vid=24f85f72-dee6-41bb-bdb8-974ca7c83215","ios":"levelo://app?vid=24f85f72-dee6-41bb-bdb8-974ca7c83215"},"vehicle_type_id":"4","last_reported":1729084687,"current_range_meters":23200,"station_id":"ce4bhr92rcd13ifvqhrg","pricing_plan_id":"cebpf4jnsgd1na2vs0mg"},{"bike_id":"87dde795-a848-4abe-8563-92325ec050f2","system_id":"levelo_inurba_marseille","lat":43.30183,"lon":5.36596,"is_reserved":false,"is_disabled":false,"rental_uris":{"android":"levelo://app?vid=87dde795-a848-4abe-8563-92325ec050f2","ios":"levelo://app?vid=87dde795-a848-4abe-8563-92325ec050f2"},"vehicle_type_id":"4","last_reported":1729084687,"current_range_meters":38800,"station_id":"ce4bgrh2rcd13ifvqc8g","pricing_plan_id":"cebpf4jnsgd1na2vs0mg"},{"bike_id":"87440bd7-4730-412f-b52f-03b263c3d6ba","system_id":"levelo_inurba_marseille","lat":43.232,"lon":5.3556,"is_reserved":false,"is_disabled":false,"rental_uris":{"android":"levelo://app?vid=87440bd7-4730-412f-b52f-03b263c3d6ba","ios":"levelo://app?vid=87440bd7-4730-412f-b52f-03b263c3d6ba"},"vehicle_type_id":"4","last_reported":1729084687,"current_range_meters":24400,"station_id":"ce4bhu92rcd13ifvqi70","pricing_plan_id":"cebpf4jnsgd1na2vs0mg"},{"bike_id":"0c44a963-2f3a-4184-8cbb-aa668be4bb8f","system_id":"levelo_inurba_marseille","lat":43.23181,"lon":5.39986,"is_reserved":false,"is_disabled":false,"rental_uris":{"android":"levelo://app?vid=0c44a963-2f3a-4184-8cbb-aa668be4bb8f","ios":"levelo://app?vid=0c44a963-2f3a-4184-8cbb-aa668be4bb8f"},"vehicle_type_id":"4","last_reported":1729084687,"current_range_meters":11600,"station_id":"ce4bhn12rcd13ifvqgqg","pricing_plan_id":"cebpf4jnsgd1na2vs0mg"},{"bike_id":"5503e367-e26e-4396-bfef-e58a4d92c9a8","system_id":"levelo_inurba_marseille","lat":43.2901,"lon":5.35617,"is_reserved":false,"is_disabled":false,"rental_uris":{"android":"levelo://app?vid=5503e367-e26e-4396-bfef-e58a4d92c9a8","ios":"levelo://app?vid=5503e367-e26e-4396-bfef-e58a4d92c9a8"},"vehicle_type_id":"4","last_reported":1729084687,"current_range_meters":8400,"station_id":"ce4bhb92rcd13ifvqen0","pricing_plan_id":"cebpf4jnsgd1na2vs0mg"},{"bike_id":"7484c344-debf-4edc-af17-e722b5059f6c","system_id":"levelo_inurba_marseille","lat":43.33745,"lon":5.37478,"is_reserved":false,"is_disabled":false,"rental_uris":{"android":"levelo://app?vid=7484c344-debf-4edc-af17-e722b5059f6c","ios":"levelo://app?vid=7484c344-debf-4edc-af17-e722b5059f6c"},"vehicle_type_id":"4","last_reported":1729084687,"current_range_meters":16400,"station_id":"","pricing_plan_id":"cebpf4jnsgd1na2vs0mg"},{"bike_id":"cdae481f-9aa1-4014-97de-af082fcf5979","system_id":"levelo_inurba_marseille","lat":43.25866,"lon":5.39902,"is_reserved":false,"is_disabled":false,"rental_uris":{"android":"levelo://app?vid=cdae481f-9aa1-4014-97de-af082fcf5979","ios":"levelo://app?vid=cdae481f-9aa1-4014-97de-af082fcf5979"},"vehicle_type_id":"4","last_reported":1729084687,"current_range_meters":4400,"station_id":"ce4bhl92rcd13ifvqghg","pricing_plan_id":"cebpf4jnsgd1na2vs0mg"},{"bike_id":"a2742504-ff51-4197-bea8-4f3b5db3e3d5","system_id":"levelo_inurba_marseille","lat":43.266784,"lon":5.382708,"is_reserved":false,"is_disabled":false,"rental_uris":{"android":"levelo://app?vid=a2742504-ff51-4197-bea8-4f3b5db3e3d5","ios":"levelo://app?vid=a2742504-ff51-4197-bea8-4f3b5db3e3d5"},"vehicle_type_id":"4","last_reported":1729084687,"current_range_meters":24800,"station_id":"ce4bhg92rcd13ifvqf90","pricing_plan_id":"cebpf4jnsgd1na2vs0mg"},{"bike_id":"ff96eee3-1ac8-4888-9ae7-e4b6cc8154af","system_id":"levelo_inurba_marseille","lat":43.33739,"lon":5.3746,"is_reserved":false,"is_disabled":false,"rental_uris":{"android":"levelo://app?vid=ff96eee3-1ac8-4888-9ae7-e4b6cc8154af","ios":"levelo://app?vid=ff96eee3-1ac8-4888-9ae7-e4b6cc8154af"},"vehicle_type_id":"4","last_reported":1729084687,"current_range_meters":28800,"station_id":"","pricing_plan_id":"cebpf4jnsgd1na2vs0mg"},{"bike_id":"215bb2e8-246a-4881-b6f1-9d257ef5be32","system_id":"levelo_inurba_marseille","lat":43.29225,"lon":5.36069,"is_reserved":false,"is_disabled":false,"rental_uris":{"android":"levelo://app?vid=215bb2e8-246a-4881-b6f1-9d257ef5be32","ios":"levelo://app?vid=215bb2e8-246a-4881-b6f1-9d257ef5be32"},"vehicle_type_id":"4","last_reported":1729084687,"current_range_meters":5600,"station_id":"ce4bhbh2rcd13ifvqeqg","pricing_plan_id":"cebpf4jnsgd1na2vs0mg"},{"bike_id":"6850c6bd-b4df-4376-aee3-e239b69a8fa6","system_id":"levelo_inurba_marseille","lat":43.248274,"lon":5.374162,"is_reserved":false,"is_disabled":false,"rental_uris":{"android":"levelo://app?vid=6850c6bd-b4df-4376-aee3-e239b69a8fa6","ios":"levelo://app?vid=6850c6bd-b4df-4376-aee3-e239b69a8fa6"},"vehicle_type_id":"4","last_reported":1729084687,"current_range_meters":8000,"station_id":"ce4bhi12rcd13ifvqfq0","pricing_plan_id":"cebpf4jnsgd1na2vs0mg"},{"bike_id":"83042ac9-519c-420c-adf7-f7f1ca7582c7","system_id":"levelo_inurba_marseille","lat":43.33749,"lon":5.37473,"is_reserved":false,"is_disabled":false,"rental_uris":{"android":"levelo://app?vid=83042ac9-519c-420c-adf7-f7f1ca7582c7","ios":"levelo://app?vid=83042ac9-519c-420c-adf7-f7f1ca7582c7"},"vehicle_type_id":"4","last_reported":1729084687,"current_range_meters":24400,"station_id":"","pricing_plan_id":"cebpf4jnsgd1na2vs0mg"},{"bike_id":"59c32650-24ed-4489-8626-1d07a6ba4112","system_id":"levelo_inurba_marseille","lat":43.29979,"lon":5.37174,"is_reserved":false,"is_disabled":false,"rental_uris":{"android":"levelo://app?vid=59c32650-24ed-4489-8626-1d07a6ba4112","ios":"levelo://app?vid=59c32650-24ed-4489-8626-1d07a6ba4112"},"vehicle_type_id":"4","last_reported":1729084687,"current_range_meters":8000,"station_id":"ce4bgr92rcd13ifvqc7g","pricing_plan_id":"cebpf4jnsgd1na2vs0mg"},{"bike_id":"c516c3c3-8ef7-4de0-8a43-92e962f582fa","system_id":"levelo_inurba_marseille","lat":43.33768,"lon":5.37441,"is_reserved":false,"is_disabled":false,"rental_uris":{"android":"levelo://app?vid=c516c3c3-8ef7-4de0-8a43-92e962f582fa","ios":"levelo://app?vid=c516c3c3-8ef7-4de0-8a43-92e962f582fa"},"vehicle_type_id":"4","last_reported":1729084687,"current_range_meters":38800,"station_id":"","pricing_plan_id":"cebpf4jnsgd1na2vs0mg"},{"bike_id":"58abbaf2-287a-4741-b1b6-1c93e38053a4","system_id":"levelo_inurba_marseille","lat":43.30192,"lon":5.36618,"is_reserved":false,"is_disabled":false,"rental_uris":{"android":"levelo://app?vid=58abbaf2-287a-4741-b1b6-1c93e38053a4","ios":"levelo://app?vid=58abbaf2-287a-4741-b1b6-1c93e38053a4"},"vehicle_type_id":"4","last_reported":1729084687,"current_range_meters":28400,"station_id":"ce4bgrh2rcd13ifvqc8g","pricing_plan_id":"cebpf4jnsgd1na2vs0mg"},{"bike_id":"2504fb6b-ed08-4c76-bc86-dcb8588f80d1","system_id":"levelo_inurba_marseille","lat":43.27943,"lon":5.41047,"is_reserved":false,"is_disabled":false,"rental_uris":{"android":"levelo://app?vid=2504fb6b-ed08-4c76-bc86-dcb8588f80d1","ios":"levelo://app?vid=2504fb6b-ed08-4c76-bc86-dcb8588f80d1"},"vehicle_type_id":"4","last_reported":1729084687,"current_range_meters":19200,"station_id":"ce4bhnp2rcd13ifvqh0g","pricing_plan_id":"cebpf4jnsgd1na2vs0mg"},{"bike_id":"1f5d6817-da92-4702-9da2-1fc138e604d5","system_id":"levelo_inurba_marseille","lat":43.32115,"lon":5.36769,"is_reserved":false,"is_disabled":false,"rental_uris":{"android":"levelo://app?vid=1f5d6817-da92-4702-9da2-1fc138e604d5","ios":"levelo://app?vid=1f5d6817-da92-4702-9da2-1fc138e604d5"},"vehicle_type_id":"4","last_reported":1729084687,"current_range_meters":4000,"station_id":"ce4bhrh2rcd13ifvqhug","pricing_plan_id":"cebpf4jnsgd1na2vs0mg"},{"bike_id":"d6776861-3fdb-4589-92c9-581e34c2ae3a","system_id":"levelo_inurba_marseille","lat":43.29719,"lon":5.37693,"is_reserved":false,"is_disabled":false,"rental_uris":{"android":"levelo://app?vid=d6776861-3fdb-4589-92c9-581e34c2ae3a","ios":"levelo://app?vid=d6776861-3fdb-4589-92c9-581e34c2ae3a"},"vehicle_type_id":"4","last_reported":1729084687,"current_range_meters":3200,"station_id":"ce4bgkh2rcd13ifvqbl0","pricing_plan_id":"cebpf4jnsgd1na2vs0mg"},{"bike_id":"f6fa90de-03cb-4344-a980-cb195dee1cd1","system_id":"levelo_inurba_marseille","lat":43.27946,"lon":5.41034,"is_reserved":false,"is_disabled":false,"rental_uris":{"android":"levelo://app?vid=f6fa90de-03cb-4344-a980-cb195dee1cd1","ios":"levelo://app?vid=f6fa90de-03cb-4344-a980-cb195dee1cd1"},"vehicle_type_id":"4","last_reported":1729084687,"current_range_meters":27200,"station_id":"ce4bhnp2rcd13ifvqh0g","pricing_plan_id":"cebpf4jnsgd1na2vs0mg"},{"bike_id":"bbe4257d-25d8-4947-9412-6ea0cc442706","system_id":"levelo_inurba_marseille","lat":43.31758,"lon":5.39018,"is_reserved":false,"is_disabled":false,"rental_uris":{"android":"levelo://app?vid=bbe4257d-25d8-4947-9412-6ea0cc442706","ios":"levelo://app?vid=bbe4257d-25d8-4947-9412-6ea0cc442706"},"vehicle_type_id":"4","last_reported":1729084687,"current_range_meters":14000,"station_id":"ce4bhqp2rcd13ifvqhng","pricing_plan_id":"cebpf4jnsgd1na2vs0mg"},{"bike_id":"43ca6982-d0ad-49fc-88a2-eae890d3d374","system_id":"levelo_inurba_marseille","lat":43.299683,"lon":5.384934,"is_reserved":false,"is_disabled":false,"rental_uris":{"android":"levelo://app?vid=43ca6982-d0ad-49fc-88a2-eae890d3d374","ios":"levelo://app?vid=43ca6982-d0ad-49fc-88a2-eae890d3d374"},"vehicle_type_id":"4","last_reported":1729084687,"current_range_meters":38000,"station_id":"ce4bgkh2rcd13ifvqbl0","pricing_plan_id":"cebpf4jnsgd1na2vs0mg"},{"bike_id":"eaa4a194-0104-4b66-99a0-c7579b4f76d3","system_id":"levelo_inurba_marseille","lat":43.30543,"lon":5.36563,"is_reserved":false,"is_disabled":false,"rental_uris":{"android":"levelo://app?vid=eaa4a194-0104-4b66-99a0-c7579b4f76d3","ios":"levelo://app?vid=eaa4a194-0104-4b66-99a0-c7579b4f76d3"},"vehicle_type_id":"4","last_reported":1729084687,"current_range_meters":29600,"station_id":"ce4bgs12rcd13ifvqcag","pricing_plan_id":"cebpf4jnsgd1na2vs0mg"},{"bike_id":"292b9425-1372-40d4-bf0a-fe57aa779a41","system_id":"levelo_inurba_marseille","lat":43.23061,"lon":5.35499,"is_reserved":false,"is_disabled":false,"rental_uris":{"android":"levelo://app?vid=292b9425-1372-40d4-bf0a-fe57aa779a41","ios":"levelo://app?vid=292b9425-1372-40d4-bf0a-fe57aa779a41"},"vehicle_type_id":"4","last_reported":1729084687,"current_range_meters":28400,"station_id":"cpo3342slgdg3j2ifvpg","pricing_plan_id":"cebpf4jnsgd1na2vs0mg"},{"bike_id":"fb43d7ab-1536-452b-af85-fae8422a6f9a","system_id":"levelo_inurba_marseille","lat":43.29626,"lon":5.40593,"is_reserved":false,"is_disabled":false,"rental_uris":{"android":"levelo://app?vid=fb43d7ab-1536-452b-af85-fae8422a6f9a","ios":"levelo://app?vid=fb43d7ab-1536-452b-af85-fae8422a6f9a"},"vehicle_type_id":"4","last_reported":1729084687,"current_range_meters":38800,"station_id":"ce4bh0h2rcd13ifvqd60","pricing_plan_id":"cebpf4jnsgd1na2vs0mg"},{"bike_id":"39c42b68-651d-4417-a824-d90f355b49e8","system_id":"levelo_inurba_marseille","lat":43.25122,"lon":5.40316,"is_reserved":false,"is_disabled":false,"rental_uris":{"android":"levelo://app?vid=39c42b68-651d-4417-a824-d90f355b49e8","ios":"levelo://app?vid=39c42b68-651d-4417-a824-d90f355b49e8"},"vehicle_type_id":"4","last_reported":1729084687,"current_range_meters":25200,"station_id":"ce4bhlh2rcd13ifvqgig","pricing_plan_id":"cebpf4jnsgd1na2vs0mg"},{"bike_id":"51190ab5-8077-48fc-aba0-6ae2551f2882","system_id":"levelo_inurba_marseille","lat":43.31359,"lon":5.36721,"is_reserved":false,"is_disabled":false,"rental_uris":{"android":"levelo://app?vid=51190ab5-8077-48fc-aba0-6ae2551f2882","ios":"levelo://app?vid=51190ab5-8077-48fc-aba0-6ae2551f2882"},"vehicle_type_id":"4","last_reported":1729084687,"current_range_meters":38800,"station_id":"ce4bgr92rcd13ifvqc6g","pricing_plan_id":"cebpf4jnsgd1na2vs0mg"},{"bike_id":"1e612426-8a79-4b29-a5ba-87857903262a","system_id":"levelo_inurba_marseille","lat":43.25115,"lon":5.40324,"is_reserved":false,"is_disabled":false,"rental_uris":{"android":"levelo://app?vid=1e612426-8a79-4b29-a5ba-87857903262a","ios":"levelo://app?vid=1e612426-8a79-4b29-a5ba-87857903262a"},"vehicle_type_id":"4","last_reported":1729084687,"current_range_meters":13600,"station_id":"ce4bhlh2rcd13ifvqgig","pricing_plan_id":"cebpf4jnsgd1na2vs0mg"},{"bike_id":"3027c97b-4ed7-4390-9a89-ea5d6c42c4a4","system_id":"levelo_inurba_marseille","lat":43.30539,"lon":5.36543,"is_reserved":false,"is_disabled":false,"rental_uris":{"android":"levelo://app?vid=3027c97b-4ed7-4390-9a89-ea5d6c42c4a4","ios":"levelo://app?vid=3027c97b-4ed7-4390-9a89-ea5d6c42c4a4"},"vehicle_type_id":"4","last_reported":1729084687,"current_range_meters":29600,"station_id":"ce4bgs12rcd13ifvqcag","pricing_plan_id":"cebpf4jnsgd1na2vs0mg"},{"bike_id":"7b14bf42-9d63-4e1d-bedb-b78ae163c9c9","system_id":"levelo_inurba_marseille","lat":43.29276,"lon":5.40121,"is_reserved":false,"is_disabled":false,"rental_uris":{"android":"levelo://app?vid=7b14bf42-9d63-4e1d-bedb-b78ae163c9c9","ios":"levelo://app?vid=7b14bf42-9d63-4e1d-bedb-b78ae163c9c9"},"vehicle_type_id":"4","last_reported":1729084687,"current_range_meters":38800,"station_id":"ce4bh312rcd13ifvqdk0","pricing_plan_id":"cebpf4jnsgd1na2vs0mg"},{"bike_id":"b6c0e508-9038-4cc4-999f-faace8c79935","system_id":"levelo_inurba_marseille","lat":43.30543,"lon":5.36562,"is_reserved":false,"is_disabled":false,"rental_uris":{"android":"levelo://app?vid=b6c0e508-9038-4cc4-999f-faace8c79935","ios":"levelo://app?vid=b6c0e508-9038-4cc4-999f-faace8c79935"},"vehicle_type_id":"4","last_reported":1729084687,"current_range_meters":28800,"station_id":"ce4bgs12rcd13ifvqcag","pricing_plan_id":"cebpf4jnsgd1na2vs0mg"},{"bike_id":"baa409bf-3c79-4b8d-8c7a-b693bb33f5e9","system_id":"levelo_inurba_marseille","lat":43.28437,"lon":5.3919,"is_reserved":false,"is_disabled":false,"rental_uris":{"android":"levelo://app?vid=baa409bf-3c79-4b8d-8c7a-b693bb33f5e9","ios":"levelo://app?vid=baa409bf-3c79-4b8d-8c7a-b693bb33f5e9"},"vehicle_type_id":"4","last_reported":1729084687,"current_range_meters":27200,"station_id":"ce4bhoh2rcd13ifvqh5g","pricing_plan_id":"cebpf4jnsgd1na2vs0mg"},{"bike_id":"f8388198-150d-4c3b-b89a-2d43d087e9e6","system_id":"levelo_inurba_marseille","lat":43.29789,"lon":5.39355,"is_reserved":false,"is_disabled":false,"rental_uris":{"android":"levelo://app?vid=f8388198-150d-4c3b-b89a-2d43d087e9e6","ios":"levelo://app?vid=f8388198-150d-4c3b-b89a-2d43d087e9e6"},"vehicle_type_id":"4","last_reported":1729084687,"current_range_meters":14400,"station_id":"chh1huq6cuj3fo74tm60","pricing_plan_id":"cebpf4jnsgd1na2vs0mg"},{"bike_id":"6ace01bb-9b94-4600-8785-8619a2548a91","system_id":"levelo_inurba_marseille","lat":43.23158,"lon":5.43704,"is_reserved":false,"is_disabled":false,"rental_uris":{"android":"levelo://app?vid=6ace01bb-9b94-4600-8785-8619a2548a91","ios":"levelo://app?vid=6ace01bb-9b94-4600-8785-8619a2548a91"},"vehicle_type_id":"4","last_reported":1729084687,"current_range_meters":38800,"station_id":"ce4bhmp2rcd13ifvqgog","pricing_plan_id":"cebpf4jnsgd1na2vs0mg"},{"bike_id":"04339542-0e71-4659-a2fa-7c3d29174f57","system_id":"levelo_inurba_marseille","lat":43.29036,"lon":5.39959,"is_reserved":false,"is_disabled":false,"rental_uris":{"android":"levelo://app?vid=04339542-0e71-4659-a2fa-7c3d29174f57","ios":"levelo://app?vid=04339542-0e71-4659-a2fa-7c3d29174f57"},"vehicle_type_id":"4","last_reported":1729084687,"current_range_meters":39200,"station_id":"ce4bh392rcd13ifvqdm0","pricing_plan_id":"cebpf4jnsgd1na2vs0mg"},{"bike_id":"416a92b2-9817-4276-906a-dd9a4f951eb9","system_id":"levelo_inurba_marseille","lat":43.24807,"lon":5.3745,"is_reserved":false,"is_disabled":false,"rental_uris":{"android":"levelo://app?vid=416a92b2-9817-4276-906a-dd9a4f951eb9","ios":"levelo://app?vid=416a92b2-9817-4276-906a-dd9a4f951eb9"},"vehicle_type_id":"4","last_reported":1729084687,"current_range_meters":38800,"station_id":"ce4bhgh2rcd13ifvqfb0","pricing_plan_id":"cebpf4jnsgd1na2vs0mg"},{"bike_id":"f731b1aa-c210-4e1f-9959-e3fca6478103","system_id":"levelo_inurba_marseille","lat":43.3031,"lon":5.36913,"is_reserved":false,"is_disabled":false,"rental_uris":{"android":"levelo://app?vid=f731b1aa-c210-4e1f-9959-e3fca6478103","ios":"levelo://app?vid=f731b1aa-c210-4e1f-9959-e3fca6478103"},"vehicle_type_id":"4","last_reported":1729084687,"current_range_meters":33200,"station_id":"ce4bgqh2rcd13ifvqc5g","pricing_plan_id":"cebpf4jnsgd1na2vs0mg"},{"bike_id":"4b39118f-bb62-406b-9203-0b8ddf9c99cc","system_id":"levelo_inurba_marseille","lat":43.22934,"lon":5.35378,"is_reserved":false,"is_disabled":false,"rental_uris":{"android":"levelo://app?vid=4b39118f-bb62-406b-9203-0b8ddf9c99cc","ios":"levelo://app?vid=4b39118f-bb62-406b-9203-0b8ddf9c99cc"},"vehicle_type_id":"4","last_reported":1729084687,"current_range_meters":17600,"station_id":"cpo3532slgdg3j2ikp40","pricing_plan_id":"cebpf4jnsgd1na2vs0mg"},{"bike_id":"2f520745-4998-4890-b566-ec4bc91f45ff","system_id":"levelo_inurba_marseille","lat":43.30144,"lon":5.37419,"is_reserved":false,"is_disabled":false,"rental_uris":{"android":"levelo://app?vid=2f520745-4998-4890-b566-ec4bc91f45ff","ios":"levelo://app?vid=2f520745-4998-4890-b566-ec4bc91f45ff"},"vehicle_type_id":"4","last_reported":1729084687,"current_range_meters":32000,"station_id":"ce4bgs92rcd13ifvqcc0","pricing_plan_id":"cebpf4jnsgd1na2vs0mg"},{"bike_id":"a9d80141-cb04-4f88-bcc5-9763572e3517","system_id":"levelo_inurba_marseille","lat":43.23194,"lon":5.35546,"is_reserved":false,"is_disabled":false,"rental_uris":{"android":"levelo://app?vid=a9d80141-cb04-4f88-bcc5-9763572e3517","ios":"levelo://app?vid=a9d80141-cb04-4f88-bcc5-9763572e3517"},"vehicle_type_id":"4","last_reported":1729084687,"current_range_meters":37600,"station_id":"ce4bhu92rcd13ifvqi70","pricing_plan_id":"cebpf4jnsgd1na2vs0mg"},{"bike_id":"d06f24f3-1961-4c39-8b26-c72733863fe9","system_id":"levelo_inurba_marseille","lat":43.33803,"lon":5.37398,"is_reserved":false,"is_disabled":false,"rental_uris":{"android":"levelo://app?vid=d06f24f3-1961-4c39-8b26-c72733863fe9","ios":"levelo://app?vid=d06f24f3-1961-4c39-8b26-c72733863fe9"},"vehicle_type_id":"4","last_reported":1729084687,"current_range_meters":36800,"station_id":"","pricing_plan_id":"cebpf4jnsgd1na2vs0mg"},{"bike_id":"4a99f6d4-8fbb-4c37-a60b-59082556daf5","system_id":"levelo_inurba_marseille","lat":43.31713,"lon":5.40471,"is_reserved":false,"is_disabled":false,"rental_uris":{"android":"levelo://app?vid=4a99f6d4-8fbb-4c37-a60b-59082556daf5","ios":"levelo://app?vid=4a99f6d4-8fbb-4c37-a60b-59082556daf5"},"vehicle_type_id":"4","last_reported":1729084687,"current_range_meters":4400,"station_id":"ce4bh012rcd13ifvqd00","pricing_plan_id":"cebpf4jnsgd1na2vs0mg"},{"bike_id":"edb9b47c-88cc-4c8a-afa8-4daece8f9bd1","system_id":"levelo_inurba_marseille","lat":43.29913,"lon":5.37461,"is_reserved":false,"is_disabled":false,"rental_uris":{"android":"levelo://app?vid=edb9b47c-88cc-4c8a-afa8-4daece8f9bd1","ios":"levelo://app?vid=edb9b47c-88cc-4c8a-afa8-4daece8f9bd1"},"vehicle_type_id":"4","last_reported":1729084687,"current_range_meters":25600,"station_id":"ce4bgjh2rcd13ifvqbg0","pricing_plan_id":"cebpf4jnsgd1na2vs0mg"},{"bike_id":"4322a35c-cb20-43c8-9e4a-511ce6064422","system_id":"levelo_inurba_marseille","lat":43.24797,"lon":5.37455,"is_reserved":false,"is_disabled":false,"rental_uris":{"android":"levelo://app?vid=4322a35c-cb20-43c8-9e4a-511ce6064422","ios":"levelo://app?vid=4322a35c-cb20-43c8-9e4a-511ce6064422"},"vehicle_type_id":"4","last_reported":1729084687,"current_range_meters":31200,"station_id":"ce4bhgh2rcd13ifvqfb0","pricing_plan_id":"cebpf4jnsgd1na2vs0mg"},{"bike_id":"1b0c7f6c-1ea0-415d-b27a-e15617ebee59","system_id":"levelo_inurba_marseille","lat":43.28473,"lon":5.38414,"is_reserved":false,"is_disabled":false,"rental_uris":{"android":"levelo://app?vid=1b0c7f6c-1ea0-415d-b27a-e15617ebee59","ios":"levelo://app?vid=1b0c7f6c-1ea0-415d-b27a-e15617ebee59"},"vehicle_type_id":"4","last_reported":1729084687,"current_range_meters":4800,"station_id":"ce4bh512rcd13ifvqe3g","pricing_plan_id":"cebpf4jnsgd1na2vs0mg"},{"bike_id":"530f8e1e-ee17-43cd-bb66-48cbe98d24a4","system_id":"levelo_inurba_marseille","lat":43.282306,"lon":5.385507,"is_reserved":false,"is_disabled":false,"rental_uris":{"android":"levelo://app?vid=530f8e1e-ee17-43cd-bb66-48cbe98d24a4","ios":"levelo://app?vid=530f8e1e-ee17-43cd-bb66-48cbe98d24a4"},"vehicle_type_id":"4","last_reported":1729084687,"current_range_meters":8400,"station_id":"ce4bhh92rcd13ifvqfi0","pricing_plan_id":"cebpf4jnsgd1na2vs0mg"},{"bike_id":"d3c87ae6-422d-455b-8797-f7d19d0cd4f9","system_id":"levelo_inurba_marseille","lat":43.2465,"lon":5.38896,"is_reserved":false,"is_disabled":false,"rental_uris":{"android":"levelo://app?vid=d3c87ae6-422d-455b-8797-f7d19d0cd4f9","ios":"levelo://app?vid=d3c87ae6-422d-455b-8797-f7d19d0cd4f9"},"vehicle_type_id":"4","last_reported":1729084687,"current_range_meters":38400,"station_id":"ce4bhg12rcd13ifvqf60","pricing_plan_id":"cebpf4jnsgd1na2vs0mg"},{"bike_id":"a4dff754-a3bc-44c2-ba94-91f6aea1001d","system_id":"levelo_inurba_marseille","lat":43.33753,"lon":5.37434,"is_reserved":false,"is_disabled":false,"rental_uris":{"android":"levelo://app?vid=a4dff754-a3bc-44c2-ba94-91f6aea1001d","ios":"levelo://app?vid=a4dff754-a3bc-44c2-ba94-91f6aea1001d"},"vehicle_type_id":"4","last_reported":1729084687,"current_range_meters":33600,"station_id":"","pricing_plan_id":"cebpf4jnsgd1na2vs0mg"},{"bike_id":"c8556234-a327-4571-a3b0-cad2786172ac","system_id":"levelo_inurba_marseille","lat":43.29851,"lon":5.36277,"is_reserved":false,"is_disabled":false,"rental_uris":{"android":"levelo://app?vid=c8556234-a327-4571-a3b0-cad2786172ac","ios":"levelo://app?vid=c8556234-a327-4571-a3b0-cad2786172ac"},"vehicle_type_id":"4","last_reported":1729084687,"current_range_meters":39200,"station_id":"ce4bgpp2rcd13ifvqc3g","pricing_plan_id":"cebpf4jnsgd1na2vs0mg"},{"bike_id":"d41309ab-1a1f-4395-acaa-455483c3f8e1","system_id":"levelo_inurba_marseille","lat":43.23193,"lon":5.3556,"is_reserved":false,"is_disabled":false,"rental_uris":{"android":"levelo://app?vid=d41309ab-1a1f-4395-acaa-455483c3f8e1","ios":"levelo://app?vid=d41309ab-1a1f-4395-acaa-455483c3f8e1"},"vehicle_type_id":"4","last_reported":1729084687,"current_range_meters":27600,"station_id":"ce4bhu92rcd13ifvqi70","pricing_plan_id":"cebpf4jnsgd1na2vs0mg"},{"bike_id":"0beee719-bd69-491d-ab4f-202b7c488cf5","system_id":"levelo_inurba_marseille","lat":43.30551,"lon":5.36706,"is_reserved":false,"is_disabled":false,"rental_uris":{"android":"levelo://app?vid=0beee719-bd69-491d-ab4f-202b7c488cf5","ios":"levelo://app?vid=0beee719-bd69-491d-ab4f-202b7c488cf5"},"vehicle_type_id":"4","last_reported":1729084687,"current_range_meters":38800,"station_id":"ce4bgrp2rcd13ifvqc9g","pricing_plan_id":"cebpf4jnsgd1na2vs0mg"},{"bike_id":"94902fb1-a766-4d90-8978-e732725ca583","system_id":"levelo_inurba_marseille","lat":43.23184,"lon":5.39982,"is_reserved":false,"is_disabled":false,"rental_uris":{"android":"levelo://app?vid=94902fb1-a766-4d90-8978-e732725ca583","ios":"levelo://app?vid=94902fb1-a766-4d90-8978-e732725ca583"},"vehicle_type_id":"4","last_reported":1729084687,"current_range_meters":39200,"station_id":"ce4bhn12rcd13ifvqgqg","pricing_plan_id":"cebpf4jnsgd1na2vs0mg"},{"bike_id":"b6ba18ac-f9f7-47ce-97ee-a57309932db4","system_id":"levelo_inurba_marseille","lat":43.2781,"lon":5.40709,"is_reserved":false,"is_disabled":false,"rental_uris":{"android":"levelo://app?vid=b6ba18ac-f9f7-47ce-97ee-a57309932db4","ios":"levelo://app?vid=b6ba18ac-f9f7-47ce-97ee-a57309932db4"},"vehicle_type_id":"4","last_reported":1729084687,"current_range_meters":38800,"station_id":"ce4bhnh2rcd13ifvqgtg","pricing_plan_id":"cebpf4jnsgd1na2vs0mg"},{"bike_id":"a65d6fd2-3c23-4923-876a-bfcd2a893779","system_id":"levelo_inurba_marseille","lat":43.29912,"lon":5.37474,"is_reserved":false,"is_disabled":false,"rental_uris":{"android":"levelo://app?vid=a65d6fd2-3c23-4923-876a-bfcd2a893779","ios":"levelo://app?vid=a65d6fd2-3c23-4923-876a-bfcd2a893779"},"vehicle_type_id":"4","last_reported":1729084687,"current_range_meters":38800,"station_id":"ce4bgjh2rcd13ifvqbg0","pricing_plan_id":"cebpf4jnsgd1na2vs0mg"},{"bike_id":"665c3f8e-8be5-4d80-a8dc-dbb11d59399c","system_id":"levelo_inurba_marseille","lat":43.33027,"lon":5.39035,"is_reserved":false,"is_disabled":false,"rental_uris":{"android":"levelo://app?vid=665c3f8e-8be5-4d80-a8dc-dbb11d59399c","ios":"levelo://app?vid=665c3f8e-8be5-4d80-a8dc-dbb11d59399c"},"vehicle_type_id":"4","last_reported":1729084687,"current_range_meters":38800,"station_id":"ce4bhr92rcd13ifvqhrg","pricing_plan_id":"cebpf4jnsgd1na2vs0mg"},{"bike_id":"033a7f68-f273-426e-84a9-8a3b2c56f6f5","system_id":"levelo_inurba_marseille","lat":43.35096,"lon":5.36807,"is_reserved":false,"is_disabled":false,"rental_uris":{"android":"levelo://app?vid=033a7f68-f273-426e-84a9-8a3b2c56f6f5","ios":"levelo://app?vid=033a7f68-f273-426e-84a9-8a3b2c56f6f5"},"vehicle_type_id":"4","last_reported":1729084687,"current_range_meters":11600,"station_id":"","pricing_plan_id":"cebpf4jnsgd1na2vs0mg"},{"bike_id":"ce44f89e-d0cc-4555-a7a0-ec9f7bb0bef0","system_id":"levelo_inurba_marseille","lat":43.2871,"lon":5.37387,"is_reserved":false,"is_disabled":false,"rental_uris":{"android":"levelo://app?vid=ce44f89e-d0cc-4555-a7a0-ec9f7bb0bef0","ios":"levelo://app?vid=ce44f89e-d0cc-4555-a7a0-ec9f7bb0bef0"},"vehicle_type_id":"4","last_reported":1729084687,"current_range_meters":19600,"station_id":"ce4bh3p2rcd13ifvqdq0","pricing_plan_id":"cebpf4jnsgd1na2vs0mg"},{"bike_id":"a0c51bc2-039e-4643-8c93-e66ceaf6e95f","system_id":"levelo_inurba_marseille","lat":43.27671,"lon":5.38893,"is_reserved":false,"is_disabled":false,"rental_uris":{"android":"levelo://app?vid=a0c51bc2-039e-4643-8c93-e66ceaf6e95f","ios":"levelo://app?vid=a0c51bc2-039e-4643-8c93-e66ceaf6e95f"},"vehicle_type_id":"4","last_reported":1729084687,"current_range_meters":26800,"station_id":"ce4bhi12rcd13ifvqfo0","pricing_plan_id":"cebpf4jnsgd1na2vs0mg"},{"bike_id":"0cac5042-2075-4b66-8658-3a0f53449b77","system_id":"levelo_inurba_marseille","lat":43.30146,"lon":5.37416,"is_reserved":false,"is_disabled":false,"rental_uris":{"android":"levelo://app?vid=0cac5042-2075-4b66-8658-3a0f53449b77","ios":"levelo://app?vid=0cac5042-2075-4b66-8658-3a0f53449b77"},"vehicle_type_id":"4","last_reported":1729084687,"current_range_meters":31200,"station_id":"ce4bgs92rcd13ifvqcc0","pricing_plan_id":"cebpf4jnsgd1na2vs0mg"},{"bike_id":"902fcefc-b205-4fe4-aca6-189206cfc8c3","system_id":"levelo_inurba_marseille","lat":43.26208,"lon":5.37439,"is_reserved":false,"is_disabled":false,"rental_uris":{"android":"levelo://app?vid=902fcefc-b205-4fe4-aca6-189206cfc8c3","ios":"levelo://app?vid=902fcefc-b205-4fe4-aca6-189206cfc8c3"},"vehicle_type_id":"4","last_reported":1729084687,"current_range_meters":21600,"station_id":"ce4bhgp2rcd13ifvqfc0","pricing_plan_id":"cebpf4jnsgd1na2vs0mg"},{"bike_id":"1af2813b-98a0-4b62-aaf8-89652b30f639","system_id":"levelo_inurba_marseille","lat":43.22934,"lon":5.35375,"is_reserved":false,"is_disabled":false,"rental_uris":{"android":"levelo://app?vid=1af2813b-98a0-4b62-aaf8-89652b30f639","ios":"levelo://app?vid=1af2813b-98a0-4b62-aaf8-89652b30f639"},"vehicle_type_id":"4","last_reported":1729084687,"current_range_meters":25200,"station_id":"cpo3532slgdg3j2ikp40","pricing_plan_id":"cebpf4jnsgd1na2vs0mg"},{"bike_id":"43bb4f6f-b059-4d54-a07b-f047918a5f78","system_id":"levelo_inurba_marseille","lat":43.29634,"lon":5.40592,"is_reserved":false,"is_disabled":false,"rental_uris":{"android":"levelo://app?vid=43bb4f6f-b059-4d54-a07b-f047918a5f78","ios":"levelo://app?vid=43bb4f6f-b059-4d54-a07b-f047918a5f78"},"vehicle_type_id":"4","last_reported":1729084687,"current_range_meters":35600,"station_id":"ce4bh0h2rcd13ifvqd60","pricing_plan_id":"cebpf4jnsgd1na2vs0mg"},{"bike_id":"8e05c2b2-2929-40f9-99c2-9f6245e13b4d","system_id":"levelo_inurba_marseille","lat":43.301941,"lon":5.366939,"is_reserved":false,"is_disabled":false,"rental_uris":{"android":"levelo://app?vid=8e05c2b2-2929-40f9-99c2-9f6245e13b4d","ios":"levelo://app?vid=8e05c2b2-2929-40f9-99c2-9f6245e13b4d"},"vehicle_type_id":"4","last_reported":1729084687,"current_range_meters":8400,"station_id":"ce4bgrh2rcd13ifvqc8g","pricing_plan_id":"cebpf4jnsgd1na2vs0mg"},{"bike_id":"c4b8d994-ee15-4839-affc-1e6e27226d94","system_id":"levelo_inurba_marseille","lat":43.29633,"lon":5.40596,"is_reserved":false,"is_disabled":false,"rental_uris":{"android":"levelo://app?vid=c4b8d994-ee15-4839-affc-1e6e27226d94","ios":"levelo://app?vid=c4b8d994-ee15-4839-affc-1e6e27226d94"},"vehicle_type_id":"4","last_reported":1729084687,"current_range_meters":9200,"station_id":"ce4bh0h2rcd13ifvqd60","pricing_plan_id":"cebpf4jnsgd1na2vs0mg"},{"bike_id":"f93454e1-a669-4c63-a4ca-b572042c7971","system_id":"levelo_inurba_marseille","lat":43.23195,"lon":5.35552,"is_reserved":false,"is_disabled":false,"rental_uris":{"android":"levelo://app?vid=f93454e1-a669-4c63-a4ca-b572042c7971","ios":"levelo://app?vid=f93454e1-a669-4c63-a4ca-b572042c7971"},"vehicle_type_id":"4","last_reported":1729084687,"current_range_meters":19600,"station_id":"ce4bhu92rcd13ifvqi70","pricing_plan_id":"cebpf4jnsgd1na2vs0mg"},{"bike_id":"2af5859f-047a-4381-aac2-e3bd49c33a20","system_id":"levelo_inurba_marseille","lat":43.25115,"lon":5.40315,"is_reserved":false,"is_disabled":false,"rental_uris":{"android":"levelo://app?vid=2af5859f-047a-4381-aac2-e3bd49c33a20","ios":"levelo://app?vid=2af5859f-047a-4381-aac2-e3bd49c33a20"},"vehicle_type_id":"4","last_reported":1729084687,"current_range_meters":14800,"station_id":"ce4bhlh2rcd13ifvqgig","pricing_plan_id":"cebpf4jnsgd1na2vs0mg"},{"bike_id":"18413e25-833d-4600-98de-8f3d9ce89e1d","system_id":"levelo_inurba_marseille","lat":43.29711,"lon":5.36606,"is_reserved":false,"is_disabled":false,"rental_uris":{"android":"levelo://app?vid=18413e25-833d-4600-98de-8f3d9ce89e1d","ios":"levelo://app?vid=18413e25-833d-4600-98de-8f3d9ce89e1d"},"vehicle_type_id":"4","last_reported":1729084687,"current_range_meters":34800,"station_id":"ce4bgn12rcd13ifvqbt0","pricing_plan_id":"cebpf4jnsgd1na2vs0mg"},{"bike_id":"c8a8b01a-a52e-4f52-b059-e48cbd454932","system_id":"levelo_inurba_marseille","lat":43.28929,"lon":5.38389,"is_reserved":false,"is_disabled":false,"rental_uris":{"android":"levelo://app?vid=c8a8b01a-a52e-4f52-b059-e48cbd454932","ios":"levelo://app?vid=c8a8b01a-a52e-4f52-b059-e48cbd454932"},"vehicle_type_id":"4","last_reported":1729084687,"current_range_meters":11600,"station_id":"ce4bh612rcd13ifvqe6g","pricing_plan_id":"cebpf4jnsgd1na2vs0mg"},{"bike_id":"6200ac98-2d61-444c-8f76-20e163af8848","system_id":"levelo_inurba_marseille","lat":43.31686,"lon":5.40473,"is_reserved":false,"is_disabled":false,"rental_uris":{"android":"levelo://app?vid=6200ac98-2d61-444c-8f76-20e163af8848","ios":"levelo://app?vid=6200ac98-2d61-444c-8f76-20e163af8848"},"vehicle_type_id":"4","last_reported":1729084687,"current_range_meters":30400,"station_id":"ce4bh012rcd13ifvqd00","pricing_plan_id":"cebpf4jnsgd1na2vs0mg"},{"bike_id":"75630958-f0c6-45e0-b94e-26ad3cca2b2a","system_id":"levelo_inurba_marseille","lat":43.28082,"lon":5.39663,"is_reserved":false,"is_disabled":false,"rental_uris":{"android":"levelo://app?vid=75630958-f0c6-45e0-b94e-26ad3cca2b2a","ios":"levelo://app?vid=75630958-f0c6-45e0-b94e-26ad3cca2b2a"},"vehicle_type_id":"4","last_reported":1729084687,"current_range_meters":8400,"station_id":"ce4bho12rcd13ifvqh2g","pricing_plan_id":"cebpf4jnsgd1na2vs0mg"},{"bike_id":"2b43ba77-65a0-4518-8886-2e24500744f0","system_id":"levelo_inurba_marseille","lat":43.32368,"lon":5.38891,"is_reserved":false,"is_disabled":false,"rental_uris":{"android":"levelo://app?vid=2b43ba77-65a0-4518-8886-2e24500744f0","ios":"levelo://app?vid=2b43ba77-65a0-4518-8886-2e24500744f0"},"vehicle_type_id":"4","last_reported":1729084687,"current_range_meters":28800,"station_id":"ce4bhqp2rcd13ifvqhog","pricing_plan_id":"cebpf4jnsgd1na2vs0mg"},{"bike_id":"35e7b281-d52f-4de7-933c-d2b9bc62d3ed","system_id":"levelo_inurba_marseille","lat":43.23183,"lon":5.39977,"is_reserved":false,"is_disabled":false,"rental_uris":{"android":"levelo://app?vid=35e7b281-d52f-4de7-933c-d2b9bc62d3ed","ios":"levelo://app?vid=35e7b281-d52f-4de7-933c-d2b9bc62d3ed"},"vehicle_type_id":"4","last_reported":1729084687,"current_range_meters":15200,"station_id":"ce4bhn12rcd13ifvqgqg","pricing_plan_id":"cebpf4jnsgd1na2vs0mg"},{"bike_id":"ebe76b72-2cf3-4ca6-9cf9-d4fac3ac0995","system_id":"levelo_inurba_marseille","lat":43.25087,"lon":5.39526,"is_reserved":false,"is_disabled":false,"rental_uris":{"android":"levelo://app?vid=ebe76b72-2cf3-4ca6-9cf9-d4fac3ac0995","ios":"levelo://app?vid=ebe76b72-2cf3-4ca6-9cf9-d4fac3ac0995"},"vehicle_type_id":"4","last_reported":1729084687,"current_range_meters":32800,"station_id":"ce4bhm12rcd13ifvqgkg","pricing_plan_id":"cebpf4jnsgd1na2vs0mg"},{"bike_id":"299a0052-49f0-446a-933a-fb50ffa76840","system_id":"levelo_inurba_marseille","lat":43.26194,"lon":5.37451,"is_reserved":false,"is_disabled":false,"rental_uris":{"android":"levelo://app?vid=299a0052-49f0-446a-933a-fb50ffa76840","ios":"levelo://app?vid=299a0052-49f0-446a-933a-fb50ffa76840"},"vehicle_type_id":"4","last_reported":1729084687,"current_range_meters":32000,"station_id":"ce4bhgp2rcd13ifvqfc0","pricing_plan_id":"cebpf4jnsgd1na2vs0mg"},{"bike_id":"353a08f3-d971-4f9d-9102-eb081512539d","system_id":"levelo_inurba_marseille","lat":43.3042,"lon":5.39751,"is_reserved":false,"is_disabled":false,"rental_uris":{"android":"levelo://app?vid=353a08f3-d971-4f9d-9102-eb081512539d","ios":"levelo://app?vid=353a08f3-d971-4f9d-9102-eb081512539d"},"vehicle_type_id":"4","last_reported":1729084687,"current_range_meters":38000,"station_id":"ce4bh092rcd13ifvqd20","pricing_plan_id":"cebpf4jnsgd1na2vs0mg"},{"bike_id":"1e3f08a4-099c-4a6f-bf64-7f629976eb25","system_id":"levelo_inurba_marseille","lat":43.2573,"lon":5.41105,"is_reserved":false,"is_disabled":false,"rental_uris":{"android":"levelo://app?vid=1e3f08a4-099c-4a6f-bf64-7f629976eb25","ios":"levelo://app?vid=1e3f08a4-099c-4a6f-bf64-7f629976eb25"},"vehicle_type_id":"4","last_reported":1729084687,"current_range_meters":22400,"station_id":"ce4bhkp2rcd13ifvqgd0","pricing_plan_id":"cebpf4jnsgd1na2vs0mg"},{"bike_id":"eb149e04-552c-462a-981d-38c6c1f898b5","system_id":"levelo_inurba_marseille","lat":43.23196,"lon":5.35547,"is_reserved":false,"is_disabled":false,"rental_uris":{"android":"levelo://app?vid=eb149e04-552c-462a-981d-38c6c1f898b5","ios":"levelo://app?vid=eb149e04-552c-462a-981d-38c6c1f898b5"},"vehicle_type_id":"4","last_reported":1729084687,"current_range_meters":2800,"station_id":"ce4bhu92rcd13ifvqi70","pricing_plan_id":"cebpf4jnsgd1na2vs0mg"},{"bike_id":"257f77eb-784f-407e-8f00-43f7f8c5f406","system_id":"levelo_inurba_marseille","lat":43.27373,"lon":5.39849,"is_reserved":false,"is_disabled":false,"rental_uris":{"android":"levelo://app?vid=257f77eb-784f-407e-8f00-43f7f8c5f406","ios":"levelo://app?vid=257f77eb-784f-407e-8f00-43f7f8c5f406"},"vehicle_type_id":"4","last_reported":1729084687,"current_range_meters":3200,"station_id":"cjm6bp8fraef2m0cb0m0","pricing_plan_id":"cebpf4jnsgd1na2vs0mg"},{"bike_id":"3c4104b7-67f5-4e07-866d-b6f9395a3a4d","system_id":"levelo_inurba_marseille","lat":43.29941,"lon":5.37577,"is_reserved":false,"is_disabled":false,"rental_uris":{"android":"levelo://app?vid=3c4104b7-67f5-4e07-866d-b6f9395a3a4d","ios":"levelo://app?vid=3c4104b7-67f5-4e07-866d-b6f9395a3a4d"},"vehicle_type_id":"4","last_reported":1729084687,"current_range_meters":39200,"station_id":"ce4bgjh2rcd13ifvqbg0","pricing_plan_id":"cebpf4jnsgd1na2vs0mg"},{"bike_id":"5b5bc22c-766f-4316-a64b-689ce6668696","system_id":"levelo_inurba_marseille","lat":43.3107,"lon":5.40095,"is_reserved":false,"is_disabled":false,"rental_uris":{"android":"levelo://app?vid=5b5bc22c-766f-4316-a64b-689ce6668696","ios":"levelo://app?vid=5b5bc22c-766f-4316-a64b-689ce6668696"},"vehicle_type_id":"4","last_reported":1729084687,"current_range_meters":30400,"station_id":"","pricing_plan_id":"cebpf4jnsgd1na2vs0mg"},{"bike_id":"1743ee9b-44d8-4d45-b016-55524a45421e","system_id":"levelo_inurba_marseille","lat":43.30312,"lon":5.36894,"is_reserved":false,"is_disabled":false,"rental_uris":{"android":"levelo://app?vid=1743ee9b-44d8-4d45-b016-55524a45421e","ios":"levelo://app?vid=1743ee9b-44d8-4d45-b016-55524a45421e"},"vehicle_type_id":"4","last_reported":1729084687,"current_range_meters":16400,"station_id":"ce4bgqh2rcd13ifvqc5g","pricing_plan_id":"cebpf4jnsgd1na2vs0mg"},{"bike_id":"c1d86f49-8774-4439-b5e2-0912985649d3","system_id":"levelo_inurba_marseille","lat":43.25008,"lon":5.38913,"is_reserved":false,"is_disabled":false,"rental_uris":{"android":"levelo://app?vid=c1d86f49-8774-4439-b5e2-0912985649d3","ios":"levelo://app?vid=c1d86f49-8774-4439-b5e2-0912985649d3"},"vehicle_type_id":"4","last_reported":1729084687,"current_range_meters":30400,"station_id":"ce4bhgp2rcd13ifvqfd0","pricing_plan_id":"cebpf4jnsgd1na2vs0mg"},{"bike_id":"1001076e-b4f2-4e77-90ab-5080cf97a7a1","system_id":"levelo_inurba_marseille","lat":43.31365,"lon":5.38484,"is_reserved":false,"is_disabled":false,"rental_uris":{"android":"levelo://app?vid=1001076e-b4f2-4e77-90ab-5080cf97a7a1","ios":"levelo://app?vid=1001076e-b4f2-4e77-90ab-5080cf97a7a1"},"vehicle_type_id":"4","last_reported":1729084687,"current_range_meters":24000,"station_id":"ce4bgt92rcd13ifvqcf0","pricing_plan_id":"cebpf4jnsgd1na2vs0mg"},{"bike_id":"9606a084-08b9-44be-b96e-dd63006bb009","system_id":"levelo_inurba_marseille","lat":43.28438,"lon":5.3496,"is_reserved":false,"is_disabled":false,"rental_uris":{"android":"levelo://app?vid=9606a084-08b9-44be-b96e-dd63006bb009","ios":"levelo://app?vid=9606a084-08b9-44be-b96e-dd63006bb009"},"vehicle_type_id":"4","last_reported":1729084687,"current_range_meters":30400,"station_id":"ce4bhbh2rcd13ifvqepg","pricing_plan_id":"cebpf4jnsgd1na2vs0mg"},{"bike_id":"fed3fa13-fb58-41f7-9061-10d54436753e","system_id":"levelo_inurba_marseille","lat":43.30358,"lon":5.41882,"is_reserved":false,"is_disabled":false,"rental_uris":{"android":"levelo://app?vid=fed3fa13-fb58-41f7-9061-10d54436753e","ios":"levelo://app?vid=fed3fa13-fb58-41f7-9061-10d54436753e"},"vehicle_type_id":"4","last_reported":1729084687,"current_range_meters":20000,"station_id":"ce4bhop2rcd13ifvqh7g","pricing_plan_id":"cebpf4jnsgd1na2vs0mg"},{"bike_id":"cfe6f03a-319f-49e9-bc90-83b285b46cac","system_id":"levelo_inurba_marseille","lat":43.31765,"lon":5.3901,"is_reserved":false,"is_disabled":false,"rental_uris":{"android":"levelo://app?vid=cfe6f03a-319f-49e9-bc90-83b285b46cac","ios":"levelo://app?vid=cfe6f03a-319f-49e9-bc90-83b285b46cac"},"vehicle_type_id":"4","last_reported":1729084687,"current_range_meters":38400,"station_id":"ce4bhqp2rcd13ifvqhng","pricing_plan_id":"cebpf4jnsgd1na2vs0mg"},{"bike_id":"e5c53085-18b0-4068-a705-5ab89baff5fa","system_id":"levelo_inurba_marseille","lat":43.30184,"lon":5.36619,"is_reserved":false,"is_disabled":false,"rental_uris":{"android":"levelo://app?vid=e5c53085-18b0-4068-a705-5ab89baff5fa","ios":"levelo://app?vid=e5c53085-18b0-4068-a705-5ab89baff5fa"},"vehicle_type_id":"4","last_reported":1729084687,"current_range_meters":37600,"station_id":"ce4bgrh2rcd13ifvqc8g","pricing_plan_id":"cebpf4jnsgd1na2vs0mg"},{"bike_id":"8c76128e-4a8b-44dd-9919-043c4ff5ea52","system_id":"levelo_inurba_marseille","lat":43.300624,"lon":5.386806,"is_reserved":false,"is_disabled":false,"rental_uris":{"android":"levelo://app?vid=8c76128e-4a8b-44dd-9919-043c4ff5ea52","ios":"levelo://app?vid=8c76128e-4a8b-44dd-9919-043c4ff5ea52"},"vehicle_type_id":"4","last_reported":1729084687,"current_range_meters":24400,"station_id":"ce4bgj92rcd13ifvqbd0","pricing_plan_id":"cebpf4jnsgd1na2vs0mg"},{"bike_id":"f94da947-b1a0-40ed-8143-ed5ebffc5c44","system_id":"levelo_inurba_marseille","lat":43.27951,"lon":5.41041,"is_reserved":false,"is_disabled":false,"rental_uris":{"android":"levelo://app?vid=f94da947-b1a0-40ed-8143-ed5ebffc5c44","ios":"levelo://app?vid=f94da947-b1a0-40ed-8143-ed5ebffc5c44"},"vehicle_type_id":"4","last_reported":1729084687,"current_range_meters":35600,"station_id":"ce4bhnp2rcd13ifvqh0g","pricing_plan_id":"cebpf4jnsgd1na2vs0mg"},{"bike_id":"fe827aa5-39b7-4313-af09-2e4668ae156f","system_id":"levelo_inurba_marseille","lat":43.31356,"lon":5.36702,"is_reserved":false,"is_disabled":false,"rental_uris":{"android":"levelo://app?vid=fe827aa5-39b7-4313-af09-2e4668ae156f","ios":"levelo://app?vid=fe827aa5-39b7-4313-af09-2e4668ae156f"},"vehicle_type_id":"4","last_reported":1729084687,"current_range_meters":36400,"station_id":"ce4bgr92rcd13ifvqc6g","pricing_plan_id":"cebpf4jnsgd1na2vs0mg"},