{"last_updated":1736345321,"ttl":60,"version":"2.2","data":{"bikes":[{"bike_id":"de9f3905-3e53-4990-b4ec-ecc42b728163","system_id":"levelo_inurba_marseille","lat":43.32336,"lon":5.38927,"is_reserved":false,"is_disabled":false,"rental_uris":{"android":"levelo://app?vid=de9f3905-3e53-4990-b4ec-ecc42b728163","ios":"levelo://app?vid=de9f3905-3e53-4990-b4ec-ecc42b728163"},"vehicle_type_id":"4","last_reported":1736345321,"current_range_meters":17200,"station_id":"ce4bhqp2rcd13ifvqhog","pricing_plan_id":"cebpf4jnsgd1na2vs0mg"},{"bike_id":"e8d00445-9c22-4d9c-8d30-7068bfdd2701","system_id":"levelo_inurba_marseille","lat":43.29896,"lon":5.43669,"is_reserved":false,"is_disabled":false,"rental_uris":{"android":"levelo://app?vid=e8d00445-9c22-4d9c-8d30-7068bfdd2701","ios":"levelo://app?vid=e8d00445-9c22-4d9c-8d30-7068bfdd2701"},"vehicle_type_id":"4","last_reported":1736345321,"current_range_meters":8000,"station_id":"ce4bhpp2rcd13ifvqhfg","pricing_plan_id":"cebpf4jnsgd1na2vs0mg"},{"bike_id":"a3c187cb-66d2-4342-ab9b-574b9c8c1d43","system_id":"levelo_inurba_marseille","lat":43.29555,"lon":5.42291,"is_reserved":false,"is_disabled":false,"rental_uris":{"android":"levelo://app?vid=a3c187cb-66d2-4342-ab9b-574b9c8c1d43","ios":"levelo://app?vid=a3c187cb-66d2-4342-ab9b-574b9c8c1d43"},"vehicle_type_id":"4","last_reported":1736345321,"current_range_meters":38000,"station_id":"ce4bhph2rcd13ifvqhdg","pricing_plan_id":"cebpf4jnsgd1na2vs0mg"},{"bike_id":"2a990728-0430-4178-8081-ae72cfe0dff6","system_id":"levelo_inurba_marseille","lat":43.30911,"lon":5.38976,"is_reserved":false,"is_disabled":true,"rental_uris":{"android":"levelo://app?vid=2a990728-0430-4178-8081-ae72cfe0dff6","ios":"levelo://app?vid=2a990728-0430-4178-8081-ae72cfe0dff6"},"vehicle_type_id":"4","last_reported":1736345321,"current_range_meters":1600,"station_id":"","pricing_plan_id":"cebpf4jnsgd1na2vs0mg"},{"bike_id":"9b8537ff-c9cf-4364-ae6d-75084cb28fce","system_id":"levelo_inurba_marseille","lat":43.2895,"lon":5.37835,"is_reserved":false,"is_disabled":false,"rental_uris":{"android":"levelo://app?vid=9b8537ff-c9cf-4364-ae6d-75084cb28fce","ios":"levelo://app?vid=9b8537ff-c9cf-4364-ae6d-75084cb28fce"},"vehicle_type_id":"4","last_reported":1736345321,"current_range_meters":26800,"station_id":"ce4bh9p2rcd13ifvqed0","pricing_plan_id":"cebpf4jnsgd1na2vs0mg"},{"bike_id":"594a2010-d05d-4465-a76a-37b41e2fa375","system_id":"levelo_inurba_marseille","lat":43.31236,"lon":5.3686,"is_reserved":false,"is_disabled":false,"rental_uris":{"android":"levelo://app?vid=594a2010-d05d-4465-a76a-37b41e2fa375","ios":"levelo://app?vid=594a2010-d05d-4465-a76a-37b41e2fa375"},"vehicle_type_id":"4","last_reported":1736345321,"current_range_meters":10800,"station_id":"ce4bgl92rcd13ifvqbq0","pricing_plan_id":"cebpf4jnsgd1na2vs0mg"},{"bike_id":"d1244aa9-0aef-4cc0-95b0-1ab2bc0f68a2","system_id":"levelo_inurba_marseille","lat":43.271886,"lon":5.410004,"is_reserved":false,"is_disabled":false,"rental_uris":{"android":"levelo://app?vid=d1244aa9-0aef-4cc0-95b0-1ab2bc0f68a2","ios":"levelo://app?vid=d1244aa9-0aef-4cc0-95b0-1ab2bc0f68a2"},"vehicle_type_id":"4","last_reported":1736345321,"current_range_meters":37600,"station_id":"ce4bhl12rcd13ifvqgf0","pricing_plan_id":"cebpf4jnsgd1na2vs0mg"},{"bike_id":"95441836-7d57-4a6c-8cdb-64e7d50c6a32","system_id":"levelo_inurba_marseille","lat":43.2587,"lon":5.39899,"is_reserved":false,"is_disabled":false,"rental_uris":{"android":"levelo://app?vid=95441836-7d57-4a6c-8cdb-64e7d50c6a32","ios":"levelo://app?vid=95441836-7d57-4a6c-8cdb-64e7d50c6a32"},"vehicle_type_id":"4","last_reported":1736345321,"current_range_meters":39200,"station_id":"ce4bhl92rcd13ifvqghg","pricing_plan_id":"cebpf4jnsgd1na2vs0mg"},{"bike_id":"7be15c79-6453-4012-9b97-5b155ff5b159","system_id":"levelo_inurba_marseille","lat":43.2922,"lon":5.3606,"is_reserved":false,"is_disabled":false,"rental_uris":{"android":"levelo://app?vid=7be15c79-6453-4012-9b97-5b155ff5b159","ios":"levelo://app?vid=7be15c79-6453-4012-9b97-5b155ff5b159"},"vehicle_type_id":"4","last_reported":1736345321,"current_range_meters":9600,"station_id":"ce4bhbh2rcd13ifvqeqg","pricing_plan_id":"cebpf4jnsgd1na2vs0mg"},{"bike_id":"784c114c-6b4b-4d66-8437-8a364b7d7999","system_id":"levelo_inurba_marseille","lat":43.337267,"lon":5.391974,"is_reserved":false,"is_disabled":false,"rental_uris":{"android":"levelo://app?vid=784c114c-6b4b-4d66-8437-8a364b7d7999","ios":"levelo://app?vid=784c114c-6b4b-4d66-8437-8a364b7d7999"},"vehicle_type_id":"4","last_reported":1736345321,"current_range_meters":35600,"station_id":"ce4bhr92rcd13ifvqhsg","pricing_plan_id":"cebpf4jnsgd1na2vs0mg"},{"bike_id":"fa3d9b38-86a0-4e08-b5c1-47d508c55c4a","system_id":"levelo_inurba_marseille","lat":43.29975,"lon":5.38498,"is_reserved":false,"is_disabled":false,"rental_uris":{"android":"levelo://app?vid=fa3d9b38-86a0-4e08-b5c1-47d508c55c4a","ios":"levelo://app?vid=fa3d9b38-86a0-4e08-b5c1-47d508c55c4a"},"vehicle_type_id":"4","last_reported":1736345321,"current_range_meters":39200,"station_id":"ce4bgj92rcd13ifvqbd0","pricing_plan_id":"cebpf4jnsgd1na2vs0mg"},{"bike_id":"73fca3cd-5e56-42f1-866f-6e5dd57ec95e","system_id":"levelo_inurba_marseille","lat":43.31482,"lon":5.37312,"is_reserved":false,"is_disabled":false,"rental_uris":{"android":"levelo://app?vid=73fca3cd-5e56-42f1-866f-6e5dd57ec95e","ios":"levelo://app?vid=73fca3cd-5e56-42f1-866f-6e5dd57ec95e"},"vehicle_type_id":"4","last_reported":1736345321,"current_range_meters":36800,"station_id":"ce4bgt12rcd13ifvqcd0","pricing_plan_id":"cebpf4jnsgd1na2vs0mg"},{"bike_id":"86d3179c-1ffa-4f1a-9226-2d67796ace09","system_id":"levelo_inurba_marseille","lat":43.28448,"lon":5.3929,"is_reserved":false,"is_disabled":false,"rental_uris":{"android":"levelo://app?vid=86d3179c-1ffa-4f1a-9226-2d67796ace09","ios":"levelo://app?vid=86d3179c-1ffa-4f1a-9226-2d67796ace09"},"vehicle_type_id":"4","last_reported":1736345321,"current_range_meters":33200,"station_id":"ce4bh292rcd13ifvqdg0","pricing_plan_id":"cebpf4jnsgd1na2vs0mg"},{"bike_id":"181880e4-46aa-4a12-9bac-27fe3a058799","system_id":"levelo_inurba_marseille","lat":43.2672,"lon":5.38235,"is_reserved":false,"is_disabled":false,"rental_uris":{"android":"levelo://app?vid=181880e4-46aa-4a12-9bac-27fe3a058799","ios":"levelo://app?vid=181880e4-46aa-4a12-9bac-27fe3a058799"},"vehicle_type_id":"4","last_reported":1736345321,"current_range_meters":38800,"station_id":"ce4bhg92rcd13ifvqf90","pricing_plan_id":"cebpf4jnsgd1na2vs0mg"},{"bike_id":"f40a23e1-4db4-43c9-bf26-5d3436aadc87","system_id":"levelo_inurba_marseille","lat":43.28354,"lon":5.38646,"is_reserved":false,"is_disabled":true,"rental_uris":{"android":"levelo://app?vid=f40a23e1-4db4-43c9-bf26-5d3436aadc87","ios":"levelo://app?vid=f40a23e1-4db4-43c9-bf26-5d3436aadc87"},"vehicle_type_id":"4","last_reported":1736345321,"current_range_meters":37600,"station_id":"ce4bh492rcd13ifvqdvg","pricing_plan_id":"cebpf4jnsgd1na2vs0mg"},{"bike_id":"a8ce43be-4cc1-4b4c-a3a3-d5048bc9b7fa","system_id":"levelo_inurba_marseille","lat":43.33027,"lon":5.3904,"is_reserved":false,"is_disabled":false,"rental_uris":{"android":"levelo://app?vid=a8ce43be-4cc1-4b4c-a3a3-d5048bc9b7fa","ios":"levelo://app?vid=a8ce43be-4cc1-4b4c-a3a3-d5048bc9b7fa"},"vehicle_type_id":"4","last_reported":1736345321,"current_range_meters":32000,"station_id":"ce4bhr92rcd13ifvqhrg","pricing_plan_id":"cebpf4jnsgd1na2vs0mg"},{"bike_id":"73eb524f-2d58-4a00-9fa5-76f6077910dd","system_id":"levelo_inurba_marseille","lat":43.23189,"lon":5.39993,"is_reserved":false,"is_disabled":true,"rental_uris":{"android":"levelo://app?vid=73eb524f-2d58-4a00-9fa5-76f6077910dd","ios":"levelo://app?vid=73eb524f-2d58-4a00-9fa5-76f6077910dd"},"vehicle_type_id":"4","last_reported":1736345321,"current_range_meters":12800,"station_id":"ce4bhn12rcd13ifvqgqg","pricing_plan_id":"cebpf4jnsgd1na2vs0mg"},{"bike_id":"c13e404c-3822-47fa-98e3-b2f91eef48ac","system_id":"levelo_inurba_marseille","lat":43.28944,"lon":5.39701,"is_reserved":false,"is_disabled":false,"rental_uris":{"android":"levelo://app?vid=c13e404c-3822-47fa-98e3-b2f91eef48ac","ios":"levelo://app?vid=c13e404c-3822-47fa-98e3-b2f91eef48ac"},"vehicle_type_id":"4","last_reported":1736345321,"current_range_meters":16800,"station_id":"","pricing_plan_id":"cebpf4jnsgd1na2vs0mg"},{"bike_id":"2199d219-e0ca-4b28-a772-ba63161f237a","system_id":"levelo_inurba_marseille","lat":43.3211,"lon":5.36784,"is_reserved":false,"is_disabled":false,"rental_uris":{"android":"levelo://app?vid=2199d219-e0ca-4b28-a772-ba63161f237a","ios":"levelo://app?vid=2199d219-e0ca-4b28-a772-ba63161f237a"},"vehicle_type_id":"4","last_reported":1736345321,"current_range_meters":19200,"station_id":"ce4bhrh2rcd13ifvqhug","pricing_plan_id":"cebpf4jnsgd1na2vs0mg"},{"bike_id":"a81f0b25-2849-4974-9edb-1a08c6c0db79","system_id":"levelo_inurba_marseille","lat":43.231549,"lon":5.437146,"is_reserved":false,"is_disabled":false,"rental_uris":{"android":"levelo://app?vid=a81f0b25-2849-4974-9edb-1a08c6c0db79","ios":"levelo://app?vid=a81f0b25-2849-4974-9edb-1a08c6c0db79"},"vehicle_type_id":"4","last_reported":1736345321,"current_range_meters":38800,"station_id":"ce4bhmp2rcd13ifvqgog","pricing_plan_id":"cebpf4jnsgd1na2vs0mg"},{"bike_id":"3338ca9c-b9dc-4937-8362-1f230b4c76db","system_id":"levelo_inurba_marseille","lat":43.29014,"lon":5.3561,"is_reserved":false,"is_disabled":false,"rental_uris":{"android":"levelo://app?vid=3338ca9c-b9dc-4937-8362-1f230b4c76db","ios":"levelo://app?vid=3338ca9c-b9dc-4937-8362-1f230b4c76db"},"vehicle_type_id":"4","last_reported":1736345321,"current_range_meters":36800,"station_id":"ce4bhb92rcd13ifvqen0","pricing_plan_id":"cebpf4jnsgd1na2vs0mg"},{"bike_id":"cf2bd529-a291-4fa4-b157-c55a1a031bbb","system_id":"levelo_inurba_marseille","lat":43.30355,"lon":5.41887,"is_reserved":false,"is_disabled":false,"rental_uris":{"android":"levelo://app?vid=cf2bd529-a291-4fa4-b157-c55a1a031bbb","ios":"levelo://app?vid=cf2bd529-a291-4fa4-b157-c55a1a031bbb"},"vehicle_type_id":"4","last_reported":1736345321,"current_range_meters":11200,"station_id":"ce4bhop2rcd13ifvqh7g","pricing_plan_id":"cebpf4jnsgd1na2vs0mg"},{"bike_id":"e9811af6-2b58-44bf-8a8f-1cf010738c20","system_id":"levelo_inurba_marseille","lat":43.23186,"lon":5.3999,"is_reserved":false,"is_disabled":false,"rental_uris":{"android":"levelo://app?vid=e9811af6-2b58-44bf-8a8f-1cf010738c20","ios":"levelo://app?vid=e9811af6-2b58-44bf-8a8f-1cf010738c20"},"vehicle_type_id":"4","last_reported":1736345321,"current_range_meters":27600,"station_id":"ce4bhn12rcd13ifvqgqg","pricing_plan_id":"cebpf4jnsgd1na2vs0mg"},{"bike_id":"7a41c497-9d84-4c8f-a7a0-64c4405e19c5","system_id":"levelo_inurba_marseille","lat":43.27991,"lon":5.40032,"is_reserved":false,"is_disabled":false,"rental_uris":{"android":"levelo://app?vid=7a41c497-9d84-4c8f-a7a0-64c4405e19c5","ios":"levelo://app?vid=7a41c497-9d84-4c8f-a7a0-64c4405e19c5"},"vehicle_type_id":"4","last_reported":1736345321,"current_range_meters":38400,"station_id":"ce4bho92rcd13ifvqh4g","pricing_plan_id":"cebpf4jnsgd1na2vs0mg"},{"bike_id":"4746bea6-71d3-45b9-aef3-8bc50942d52a","system_id":"levelo_inurba_marseille","lat":43.28417,"lon":5.34995,"is_reserved":false,"is_disabled":false,"rental_uris":{"android":"levelo://app?vid=4746bea6-71d3-45b9-aef3-8bc50942d52a","ios":"levelo://app?vid=4746bea6-71d3-45b9-aef3-8bc50942d52a"},"vehicle_type_id":"4","last_reported":1736345321,"current_range_meters":18800,"station_id":"ce4bhbh2rcd13ifvqepg","pricing_plan_id":"cebpf4jnsgd1na2vs0mg"},{"bike_id":"dfcc14da-7aef-4d0c-99a2-b83ed10a02b9","system_id":"levelo_inurba_marseille","lat":43.28412,"lon":5.37511,"is_reserved":false,"is_disabled":false,"rental_uris":{"android":"levelo://app?vid=dfcc14da-7aef-4d0c-99a2-b83ed10a02b9","ios":"levelo://app?vid=dfcc14da-7aef-4d0c-99a2-b83ed10a02b9"},"vehicle_type_id":"4","last_reported":1736345321,"current_range_meters":14400,"station_id":"ce4bh412rcd13ifvqds0","pricing_plan_id":"cebpf4jnsgd1na2vs0mg"},{"bike_id":"6ef0cd9e-5e9e-4f7c-b5ca-9f2847ac70b7","system_id":"levelo_inurba_marseille","lat":43.29019,"lon":5.35608,"is_reserved":false,"is_disabled":false,"rental_uris":{"android":"levelo://app?vid=6ef0cd9e-5e9e-4f7c-b5ca-9f2847ac70b7","ios":"levelo://app?vid=6ef0cd9e-5e9e-4f7c-b5ca-9f2847ac70b7"},"vehicle_type_id":"4","last_reported":1736345321,"current_range_meters":39200,"station_id":"ce4bhb92rcd13ifvqen0","pricing_plan_id":"cebpf4jnsgd1na2vs0mg"},{"bike_id":"cb2b6336-78ab-4eb9-af67-e32e664641da","system_id":"levelo_inurba_marseille","lat":43.23159,"lon":5.43704,"is_reserved":false,"is_disabled":false,"rental_uris":{"android":"levelo://app?vid=cb2b6336-78ab-4eb9-af67-e32e664641da","ios":"levelo://app?vid=cb2b6336-78ab-4eb9-af67-e32e664641da"},"vehicle_type_id":"4","last_reported":1736345321,"current_range_meters":39200,"station_id":"ce4bhmp2rcd13ifvqgog","pricing_plan_id":"cebpf4jnsgd1na2vs0mg"},{"bike_id":"7a1580ca-8520-4de0-998b-610972b915e7","system_id":"levelo_inurba_marseille","lat":43.2926,"lon":5.38437,"is_reserved":false,"is_disabled":false,"rental_uris":{"android":"levelo://app?vid=7a1580ca-8520-4de0-998b-610972b915e7","ios":"levelo://app?vid=7a1580ca-8520-4de0-998b-610972b915e7"},"vehicle_type_id":"4","last_reported":1736345321,"current_range_meters":20800,"station_id":"ce4bh692rcd13ifvqea0","pricing_plan_id":"cebpf4jnsgd1na2vs0mg"},{"bike_id":"568b062a-58fe-46af-9ff5-d60c977e4bbf","system_id":"levelo_inurba_marseille","lat":43.28416,"lon":5.37508,"is_reserved":false,"is_disabled":false,"rental_uris":{"android":"levelo://app?vid=568b062a-58fe-46af-9ff5-d60c977e4bbf","ios":"levelo://app?vid=568b062a-58fe-46af-9ff5-d60c977e4bbf"},"vehicle_type_id":"4","last_reported":1736345321,"current_range_meters":38800,"station_id":"ce4bh412rcd13ifvqds0","pricing_plan_id":"cebpf4jnsgd1na2vs0mg"},{"bike_id":"4505ba7e-e544-414e-b06b-e1d1cb5e9bc4","system_id":"levelo_inurba_marseille","lat":43.30223,"lon":5.39479,"is_reserved":false,"is_disabled":false,"rental_uris":{"android":"levelo://app?vid=4505ba7e-e544-414e-b06b-e1d1cb5e9bc4","ios":"levelo://app?vid=4505ba7e-e544-414e-b06b-e1d1cb5e9bc4"},"vehicle_type_id":"4","last_reported":1736345321,"current_range_meters":39200,"station_id":"ce4bh0p2rcd13ifvqd70","pricing_plan_id":"cebpf4jnsgd1na2vs0mg"},{"bike_id":"2ecf72a7-3ec8-4aea-a70d-2f12eb350d0c","system_id":"levelo_inurba_marseille","lat":43.29358,"lon":5.37862,"is_reserved":false,"is_disabled":false,"rental_uris":{"android":"levelo://app?vid=2ecf72a7-3ec8-4aea-a70d-2f12eb350d0c","ios":"levelo://app?vid=2ecf72a7-3ec8-4aea-a70d-2f12eb350d0c"},"vehicle_type_id":"4","last_reported":1736345321,"current_range_meters":38800,"station_id":"ce4bgjh2rcd13ifvqbf0","pricing_plan_id":"cebpf4jnsgd1na2vs0mg"},{"bike_id":"be4c59f4-a498-44be-a430-245c96b05e75","system_id":"levelo_inurba_marseille","lat":43.32844,"lon":5.39193,"is_reserved":false,"is_disabled":false,"rental_uris":{"android":"levelo://app?vid=be4c59f4-a498-44be-a430-245c96b05e75","ios":"levelo://app?vid=be4c59f4-a498-44be-a430-245c96b05e75"},"vehicle_type_id":"4","last_reported":1736345321,"current_range_meters":16400,"station_id":"","pricing_plan_id":"cebpf4jnsgd1na2vs0mg"},{"bike_id":"feeeae9a-4bcc-477a-bc8c-e9391fa8aedd","system_id":"levelo_inurba_marseille","lat":43.2919,"lon":5.39311,"is_reserved":false,"is_disabled":true,"rental_uris":{"android":"levelo://app?vid=feeeae9a-4bcc-477a-bc8c-e9391fa8aedd","ios":"levelo://app?vid=feeeae9a-4bcc-477a-bc8c-e9391fa8aedd"},"vehicle_type_id":"4","last_reported":1736345321,"current_range_meters":3600,"station_id":"ce4bh192rcd13ifvqdd0","pricing_plan_id":"cebpf4jnsgd1na2vs0mg"},{"bike_id":"2a08f733-0f8c-4cb9-b45c-2a502029e158","system_id":"levelo_inurba_marseille","lat":43.23163,"lon":5.43684,"is_reserved":false,"is_disabled":false,"rental_uris":{"android":"levelo://app?vid=2a08f733-0f8c-4cb9-b45c-2a502029e158","ios":"levelo://app?vid=2a08f733-0f8c-4cb9-b45c-2a502029e158"},"vehicle_type_id":"4","last_reported":1736345321,"current_range_meters":38800,"station_id":"ce4bhmp2rcd13ifvqgog","pricing_plan_id":"cebpf4jnsgd1na2vs0mg"},{"bike_id":"dbe4d7d2-95f9-4a28-b000-f9ac7c3f52eb","system_id":"levelo_inurba_marseille","lat":43.29192,"lon":5.39314,"is_reserved":false,"is_disabled":true,"rental_uris":{"android":"levelo://app?vid=dbe4d7d2-95f9-4a28-b000-f9ac7c3f52eb","ios":"levelo://app?vid=dbe4d7d2-95f9-4a28-b000-f9ac7c3f52eb"},"vehicle_type_id":"4","last_reported":1736345321,"current_range_meters":3200,"station_id":"ce4bh192rcd13ifvqdd0","pricing_plan_id":"cebpf4jnsgd1na2vs0mg"},{"bike_id":"3d594fbc-b6a7-41d2-8eb5-624cfd4d0a07","system_id":"levelo_inurba_marseille","lat":43.289268,"lon":5.396355,"is_reserved":false,"is_disabled":false,"rental_uris":{"android":"levelo://app?vid=3d594fbc-b6a7-41d2-8eb5-624cfd4d0a07","ios":"levelo://app?vid=3d594fbc-b6a7-41d2-8eb5-624cfd4d0a07"},"vehicle_type_id":"4","last_reported":1736345321,"current_range_meters":19200,"station_id":"ce4bh3h2rcd13ifvqdn0","pricing_plan_id":"cebpf4jnsgd1na2vs0mg"},{"bike_id":"b02ae6ee-06d8-4b9f-9872-c8fcf9b7576a","system_id":"levelo_inurba_marseille","lat":43.30587,"lon":5.36517,"is_reserved":false,"is_disabled":true,"rental_uris":{"android":"levelo://app?vid=b02ae6ee-06d8-4b9f-9872-c8fcf9b7576a","ios":"levelo://app?vid=b02ae6ee-06d8-4b9f-9872-c8fcf9b7576a"},"vehicle_type_id":"4","last_reported":1736345321,"current_range_meters":25200,"station_id":"ce4bgs12rcd13ifvqcag","pricing_plan_id":"cebpf4jnsgd1na2vs0mg"},{"bike_id":"827ce437-865c-4e43-a148-c4c668eb7f94","system_id":"levelo_inurba_marseille","lat":43.28269,"lon":5.35077,"is_reserved":false,"is_disabled":false,"rental_uris":{"android":"levelo://app?vid=827ce437-865c-4e43-a148-c4c668eb7f94","ios":"levelo://app?vid=827ce437-865c-4e43-a148-c4c668eb7f94"},"vehicle_type_id":"4","last_reported":1736345321,"current_range_meters":9200,"station_id":"","pricing_plan_id":"cebpf4jnsgd1na2vs0mg"},{"bike_id":"1b1b7ebb-dc7a-44f7-ae39-416f31ab8e6a","system_id":"levelo_inurba_marseille","lat":43.26686,"lon":5.38286,"is_reserved":false,"is_disabled":false,"rental_uris":{"android":"levelo://app?vid=1b1b7ebb-dc7a-44f7-ae39-416f31ab8e6a","ios":"levelo://app?vid=1b1b7ebb-dc7a-44f7-ae39-416f31ab8e6a"},"vehicle_type_id":"4","last_reported":1736345321,"current_range_meters":20800,"station_id":"ce4bhg92rcd13ifvqf90","pricing_plan_id":"cebpf4jnsgd1na2vs0mg"},{"bike_id":"9aec225d-a400-4174-9206-a94af0438f62","system_id":"levelo_inurba_marseille","lat":43.295574,"lon":5.422744,"is_reserved":false,"is_disabled":false,"rental_uris":{"android":"levelo://app?vid=9aec225d-a400-4174-9206-a94af0438f62","ios":"levelo://app?vid=9aec225d-a400-4174-9206-a94af0438f62"},"vehicle_type_id":"4","last_reported":1736345321,"current_range_meters":11200,"station_id":"ce4bhph2rcd13ifvqhdg","pricing_plan_id":"cebpf4jnsgd1na2vs0mg"},{"bike_id":"59095574-0f2b-4d7b-b255-f8d6f6d68e9a","system_id":"levelo_inurba_marseille","lat":43.30309,"lon":5.36891,"is_reserved":false,"is_disabled":false,"rental_uris":{"android":"levelo://app?vid=59095574-0f2b-4d7b-b255-f8d6f6d68e9a","ios":"levelo://app?vid=59095574-0f2b-4d7b-b255-f8d6f6d68e9a"},"vehicle_type_id":"4","last_reported":1736345321,"current_range_meters":10800,"station_id":"ce4bgqh2rcd13ifvqc5g","pricing_plan_id":"cebpf4jnsgd1na2vs0mg"},{"bike_id":"951ce007-9c43-48a8-87a0-518f84e29e82","system_id":"levelo_inurba_marseille","lat":43.24646,"lon":5.38908,"is_reserved":false,"is_disabled":false,"rental_uris":{"android":"levelo://app?vid=951ce007-9c43-48a8-87a0-518f84e29e82","ios":"levelo://app?vid=951ce007-9c43-48a8-87a0-518f84e29e82"},"vehicle_type_id":"4","last_reported":1736345321,"current_range_meters":39200,"station_id":"ce4bhg12rcd13ifvqf60","pricing_plan_id":"cebpf4jnsgd1na2vs0mg"},{"bike_id":"ebf188ce-4b83-416a-a01c-4ef699376500","system_id":"levelo_inurba_marseille","lat":43.27638,"lon":5.36127,"is_reserved":false,"is_disabled":false,"rental_uris":{"android":"levelo://app?vid=ebf188ce-4b83-416a-a01c-4ef699376500","ios":"levelo://app?vid=ebf188ce-4b83-416a-a01c-4ef699376500"},"vehicle_type_id":"4","last_reported":1736345321,"current_range_meters":21600,"station_id":"ce4bgj92rcd13ifvqbe0","pricing_plan_id":"cebpf4jnsgd1na2vs0mg"},{"bike_id":"9cff0fbb-5bb0-4738-9933-ca250cffc362","system_id":"levelo_inurba_marseille","lat":43.28273,"lon":5.35076,"is_reserved":false,"is_disabled":false,"rental_uris":{"android":"levelo://app?vid=9cff0fbb-5bb0-4738-9933-ca250cffc362","ios":"levelo://app?vid=9cff0fbb-5bb0-4738-9933-ca250cffc362"},"vehicle_type_id":"4","last_reported":1736345321,"current_range_meters":38800,"station_id":"ce4bhbp2rcd13ifvqerg","pricing_plan_id":"cebpf4jnsgd1na2vs0mg"},{"bike_id":"4aced99d-c84f-4807-ae40-b3d6686ceb2d","system_id":"levelo_inurba_marseille","lat":43.29722,"lon":5.3769,"is_reserved":false,"is_disabled":false,"rental_uris":{"android":"levelo://app?vid=4aced99d-c84f-4807-ae40-b3d6686ceb2d","ios":"levelo://app?vid=4aced99d-c84f-4807-ae40-b3d6686ceb2d"},"vehicle_type_id":"4","last_reported":1736345321,"current_range_meters":38800,"station_id":"ce4bgkh2rcd13ifvqbl0","pricing_plan_id":"cebpf4jnsgd1na2vs0mg"},{"bike_id":"664dca7b-df4f-4b83-bb6e-bc731aaae690","system_id":"levelo_inurba_marseille","lat":43.28272,"lon":5.35083,"is_reserved":false,"is_disabled":false,"rental_uris":{"android":"levelo://app?vid=664dca7b-df4f-4b83-bb6e-bc731aaae690","ios":"levelo://app?vid=664dca7b-df4f-4b83-bb6e-bc731aaae690"},"vehicle_type_id":"4","last_reported":1736345321,"current_range_meters":33600,"station_id":"ce4bhbp2rcd13ifvqerg","pricing_plan_id":"cebpf4jnsgd1na2vs0mg"},{"bike_id":"f5ca1501-67dc-4227-a538-3638c9573471","system_id":"levelo_inurba_marseille","lat":43.25725,"lon":5.41112,"is_reserved":false,"is_disabled":false,"rental_uris":{"android":"levelo://app?vid=f5ca1501-67dc-4227-a538-3638c9573471","ios":"levelo://app?vid=f5ca1501-67dc-4227-a538-3638c9573471"},"vehicle_type_id":"4","last_reported":1736345321,"current_range_meters":38800,"station_id":"ce4bhkp2rcd13ifvqgd0","pricing_plan_id":"cebpf4jnsgd1na2vs0mg"},{"bike_id":"bd93e039-8312-422d-b562-d45f6831b1fa","system_id":"levelo_inurba_marseille","lat":43.26557,"lon":5.37322,"is_reserved":false,"is_disabled":false,"rental_uris":{"android":"levelo://app?vid=bd93e039-8312-422d-b562-d45f6831b1fa","ios":"levelo://app?vid=bd93e039-8312-422d-b562-d45f6831b1fa"},"vehicle_type_id":"4","last_reported":1736345321,"current_range_meters":27200,"station_id":"ce4bhg12rcd13ifvqf70","pricing_plan_id":"cebpf4jnsgd1na2vs0mg"},{"bike_id":"fd4ac284-a3b8-4ec9-bcf2-a42d0820146d","system_id":"levelo_inurba_marseille","lat":43.27491,"lon":5.36009,"is_reserved":false,"is_disabled":false,"rental_uris":{"android":"levelo://app?vid=fd4ac284-a3b8-4ec9-bcf2-a42d0820146d","ios":"levelo://app?vid=fd4ac284-a3b8-4ec9-bcf2-a42d0820146d"},"vehicle_type_id":"4","last_reported":1736345321,"current_range_meters":17200,"station_id":"ce4bgj92rcd13ifvqbe0","pricing_plan_id":"cebpf4jnsgd1na2vs0mg"},{"bike_id":"6bec6c75-6b31-41fe-90df-87f45a9f9f84","system_id":"levelo_inurba_marseille","lat":43.29602,"lon":5.38103,"is_reserved":false,"is_disabled":false,"rental_uris":{"android":"levelo://app?vid=6bec6c75-6b31-41fe-90df-87f45a9f9f84","ios":"levelo://app?vid=6bec6c75-6b31-41fe-90df-87f45a9f9f84"},"vehicle_type_id":"4","last_reported":1736345321,"current_range_meters":27200,"station_id":"ce4bgl12rcd13ifvqbo0","pricing_plan_id":"cebpf4jnsgd1na2vs0mg"},{"bike_id":"e0c5bcca-f38c-4415-8d3c-64dad8e411d9","system_id":"levelo_inurba_marseille","lat":43.27368,"lon":5.36252,"is_reserved":false,"is_disabled":false,"rental_uris":{"android":"levelo://app?vid=e0c5bcca-f38c-4415-8d3c-64dad8e411d9","ios":"levelo://app?vid=e0c5bcca-f38c-4415-8d3c-64dad8e411d9"},"vehicle_type_id":"4","last_reported":1736345321,"current_range_meters":39200,"station_id":"ce4bhbh2rcd13ifvqeo0","pricing_plan_id":"cebpf4jnsgd1na2vs0mg"},{"bike_id":"128e494f-c5f6-49d1-8da7-12ffc5ea9838","system_id":"levelo_inurba_marseille","lat":43.24163,"lon":5.36397,"is_reserved":false,"is_disabled":false,"rental_uris":{"android":"levelo://app?vid=128e494f-c5f6-49d1-8da7-12ffc5ea9838","ios":"levelo://app?vid=128e494f-c5f6-49d1-8da7-12ffc5ea9838"},"vehicle_type_id":"4","last_reported":1736345321,"current_range_meters":16800,"station_id":"cpo36qri1sfpv3e86is0","pricing_plan_id":"cebpf4jnsgd1na2vs0mg"},{"bike_id":"d3086a9e-7d4f-4ee6-8f19-5f5c4dfc2ce5","system_id":"levelo_inurba_marseille","lat":43.29532,"lon":5.38548,"is_reserved":false,"is_disabled":false,"rental_uris":{"android":"levelo://app?vid=d3086a9e-7d4f-4ee6-8f19-5f5c4dfc2ce5","ios":"levelo://app?vid=d3086a9e-7d4f-4ee6-8f19-5f5c4dfc2ce5"},"vehicle_type_id":"4","last_reported":1736345321,"current_range_meters":36400,"station_id":"ce4bgih2rcd13ifvqba0","pricing_plan_id":"cebpf4jnsgd1na2vs0mg"},{"bike_id":"87cd4c8e-dd31-49cb-a754-0e97614559ef","system_id":"levelo_inurba_marseille","lat":43.29392,"lon":5.37858,"is_reserved":false,"is_disabled":false,"rental_uris":{"android":"levelo://app?vid=87cd4c8e-dd31-49cb-a754-0e97614559ef","ios":"levelo://app?vid=87cd4c8e-dd31-49cb-a754-0e97614559ef"},"vehicle_type_id":"4","last_reported":1736345321,"current_range_meters":31200,"station_id":"ce4bgjh2rcd13ifvqbf0","pricing_plan_id":"cebpf4jnsgd1na2vs0mg"},{"bike_id":"afd4d053-5b2c-4b95-974c-108689eb1cdd","system_id":"levelo_inurba_marseille","lat":43.27195,"lon":5.41002,"is_reserved":false,"is_disabled":false,"rental_uris":{"android":"levelo://app?vid=afd4d053-5b2c-4b95-974c-108689eb1cdd","ios":"levelo://app?vid=afd4d053-5b2c-4b95-974c-108689eb1cdd"},"vehicle_type_id":"4","last_reported":1736345321,"current_range_meters":38000,"station_id":"ce4bhl12rcd13ifvqgf0","pricing_plan_id":"cebpf4jnsgd1na2vs0mg"},{"bike_id":"a89d83b2-34a2-48f5-bd62-c1b8e6478ad8","system_id":"levelo_inurba_marseille","lat":43.31479,"lon":5.37305,"is_reserved":false,"is_disabled":false,"rental_uris":{"android":"levelo://app?vid=a89d83b2-34a2-48f5-bd62-c1b8e6478ad8","ios":"levelo://app?vid=a89d83b2-34a2-48f5-bd62-c1b8e6478ad8"},"vehicle_type_id":"4","last_reported":1736345321,"current_range_meters":34000,"station_id":"ce4bgt12rcd13ifvqcd0","pricing_plan_id":"cebpf4jnsgd1na2vs0mg"},{"bike_id":"0b9babbc-4857-4bce-a15d-8e6016fc2d5e","system_id":"levelo_inurba_marseille","lat":43.29254,"lon":5.38449,"is_reserved":false,"is_disabled":false,"rental_uris":{"android":"levelo://app?vid=0b9babbc-4857-4bce-a15d-8e6016fc2d5e","ios":"levelo://app?vid=0b9babbc-4857-4bce-a15d-8e6016fc2d5e"},"vehicle_type_id":"4","last_reported":1736345321,"current_range_meters":32400,"station_id":"ce4bh692rcd13ifvqea0","pricing_plan_id":"cebpf4jnsgd1na2vs0mg"},{"bike_id":"da6c6534-8ab1-48da-9d99-aa2477aee4a0","system_id":"levelo_inurba_marseille","lat":43.310724,"lon":5.383201,"is_reserved":false,"is_disabled":false,"rental_uris":{"android":"levelo://app?vid=da6c6534-8ab1-48da-9d99-aa2477aee4a0","ios":"levelo://app?vid=da6c6534-8ab1-48da-9d99-aa2477aee4a0"},"vehicle_type_id":"4","last_reported":1736345321,"current_range_meters":2800,"station_id":"ce4bgv92rcd13ifvqcr0","pricing_plan_id":"cebpf4jnsgd1na2vs0mg"},{"bike_id":"7e647b87-ee39-48c8-8a57-8ca415c7293d","system_id":"levelo_inurba_marseille","lat":43.230586,"lon":5.35497,"is_reserved":false,"is_disabled":false,"rental_uris":{"android":"levelo://app?vid=7e647b87-ee39-48c8-8a57-8ca415c7293d","ios":"levelo://app?vid=7e647b87-ee39-48c8-8a57-8ca415c7293d"},"vehicle_type_id":"4","last_reported":1736345321,"current_range_meters":37600,"station_id":"cpo3342slgdg3j2ifvpg","pricing_plan_id":"cebpf4jnsgd1na2vs0mg"},{"bike_id":"0b2ae5f0-35aa-4038-afed-c6f5edc043e0","system_id":"levelo_inurba_marseille","lat":43.27369,"lon":5.36249,"is_reserved":false,"is_disabled":false,"rental_uris":{"android":"levelo://app?vid=0b2ae5f0-35aa-4038-afed-c6f5edc043e0","ios":"levelo://app?vid=0b2ae5f0-35aa-4038-afed-c6f5edc043e0"},"vehicle_type_id":"4","last_reported":1736345321,"current_range_meters":36400,"station_id":"ce4bhbh2rcd13ifvqeo0","pricing_plan_id":"cebpf4jnsgd1na2vs0mg"},{"bike_id":"ec871138-61ad-41e1-acd3-7372904dde2d","system_id":"levelo_inurba_marseille","lat":43.24547,"lon":5.39527,"is_reserved":false,"is_disabled":false,"rental_uris":{"android":"levelo://app?vid=ec871138-61ad-41e1-acd3-7372904dde2d","ios":"levelo://app?vid=ec871138-61ad-41e1-acd3-7372904dde2d"},"vehicle_type_id":"4","last_reported":1736345321,"current_range_meters":38800,"station_id":"ce4bhlp2rcd13ifvqgjg","pricing_plan_id":"cebpf4jnsgd1na2vs0mg"},{"bike_id":"afb6e634-e5dd-4e74-b556-91ddb56f896b","system_id":"levelo_inurba_marseille","lat":43.23177,"lon":5.39988,"is_reserved":false,"is_disabled":false,"rental_uris":{"android":"levelo://app?vid=afb6e634-e5dd-4e74-b556-91ddb56f896b","ios":"levelo://app?vid=afb6e634-e5dd-4e74-b556-91ddb56f896b"},"vehicle_type_id":"4","last_reported":1736345321,"current_range_meters":10800,"station_id":"ce4bhn12rcd13ifvqgqg","pricing_plan_id":"cebpf4jnsgd1na2vs0mg"},{"bike_id":"295b1cd6-ba86-4be2-a2a5-dfa1adb3f42f","system_id":"levelo_inurba_marseille","lat":43.31071,"lon":5.401,"is_reserved":false,"is_disabled":false,"rental_uris":{"android":"levelo://app?vid=295b1cd6-ba86-4be2-a2a5-dfa1adb3f42f","ios":"levelo://app?vid=295b1cd6-ba86-4be2-a2a5-dfa1adb3f42f"},"vehicle_type_id":"4","last_reported":1736345321,"current_range_meters":18800,"station_id":"","pricing_plan_id":"cebpf4jnsgd1na2vs0mg"},{"bike_id":"6914e0f5-168b-4ee0-bb14-aa91c87a809b","system_id":"levelo_inurba_marseille","lat":43.23154,"lon":5.43721,"is_reserved":false,"is_disabled":false,"rental_uris":{"android":"levelo://app?vid=6914e0f5-168b-4ee0-bb14-aa91c87a809b","ios":"levelo://app?vid=6914e0f5-168b-4ee0-bb14-aa91c87a809b"},"vehicle_type_id":"4","last_reported":1736345321,"current_range_meters":25200,"station_id":"ce4bhmp2rcd13ifvqgog","pricing_plan_id":"cebpf4jnsgd1na2vs0mg"},{"bike_id":"a59c61f5-3ca3-4e89-85e8-555e7ad52daf","system_id":"levelo_inurba_marseille","lat":43.25731,"lon":5.41113,"is_reserved":false,"is_disabled":false,"rental_uris":{"android":"levelo://app?vid=a59c61f5-3ca3-4e89-85e8-555e7ad52daf","ios":"levelo://app?vid=a59c61f5-3ca3-4e89-85e8-555e7ad52daf"},"vehicle_type_id":"4","last_reported":1736345321,"current_range_meters":38800,"station_id":"ce4bhkp2rcd13ifvqgd0","pricing_plan_id":"cebpf4jnsgd1na2vs0mg"},{"bike_id":"ce3b8c58-bbde-47fa-a1c2-6b9bc1a58dfd","system_id":"levelo_inurba_marseille","lat":43.26567,"lon":5.39041,"is_reserved":false,"is_disabled":false,"rental_uris":{"android":"levelo://app?vid=ce3b8c58-bbde-47fa-a1c2-6b9bc1a58dfd","ios":"levelo://app?vid=ce3b8c58-bbde-47fa-a1c2-6b9bc1a58dfd"},"vehicle_type_id":"4","last_reported":1736345321,"current_range_meters":34800,"station_id":"ce4bhe12rcd13ifvqf30","pricing_plan_id":"cebpf4jnsgd1na2vs0mg"},{"bike_id":"4db3f818-4750-4b0f-bfb7-7f7f491458d7","system_id":"levelo_inurba_marseille","lat":43.28858,"lon":5.35839,"is_reserved":false,"is_disabled":false,"rental_uris":{"android":"levelo://app?vid=4db3f818-4750-4b0f-bfb7-7f7f491458d7","ios":"levelo://app?vid=4db3f818-4750-4b0f-bfb7-7f7f491458d7"},"vehicle_type_id":"4","last_reported":1736345321,"current_range_meters":38800,"station_id":"ce4bhb12rcd13ifvqem0","pricing_plan_id":"cebpf4jnsgd1na2vs0mg"},{"bike_id":"11d07089-c5fa-485c-a301-bf7c13747aef","system_id":"levelo_inurba_marseille","lat":43.28605,"lon":5.37066,"is_reserved":false,"is_disabled":false,"rental_uris":{"android":"levelo://app?vid=11d07089-c5fa-485c-a301-bf7c13747aef","ios":"levelo://app?vid=11d07089-c5fa-485c-a301-bf7c13747aef"},"vehicle_type_id":"4","last_reported":1736345321,"current_range_meters":32800,"station_id":"ce4bht12rcd13ifvqi60","pricing_plan_id":"cebpf4jnsgd1na2vs0mg"},{"bike_id":"80716bfe-ce4c-458a-a817-cd7a4ffc01a2","system_id":"levelo_inurba_marseille","lat":43.31723,"lon":5.37852,"is_reserved":false,"is_disabled":false,"rental_uris":{"android":"levelo://app?vid=80716bfe-ce4c-458a-a817-cd7a4ffc01a2","ios":"levelo://app?vid=80716bfe-ce4c-458a-a817-cd7a4ffc01a2"},"vehicle_type_id":"4","last_reported":1736345321,"current_range_meters":30800,"station_id":"","pricing_plan_id":"cebpf4jnsgd1na2vs0mg"},{"bike_id":"48cc8a18-88da-4d98-8350-63e78b120003","system_id":"levelo_inurba_marseille","lat":43.29255,"lon":5.40915,"is_reserved":false,"is_disabled":false,"rental_uris":{"android":"levelo://app?vid=48cc8a18-88da-4d98-8350-63e78b120003","ios":"levelo://app?vid=48cc8a18-88da-4d98-8350-63e78b120003"},"vehicle_type_id":"4","last_reported":1736345321,"current_range_meters":24000,"station_id":"ce4bh192rcd13ifvqdc0","pricing_plan_id":"cebpf4jnsgd1na2vs0mg"},{"bike_id":"23ddbf06-748d-44f9-b24b-b8ae8d5072db","system_id":"levelo_inurba_marseille","lat":43.29224,"lon":5.36068,"is_reserved":false,"is_disabled":false,"rental_uris":{"android":"levelo://app?vid=23ddbf06-748d-44f9-b24b-b8ae8d5072db","ios":"levelo://app?vid=23ddbf06-748d-44f9-b24b-b8ae8d5072db"},"vehicle_type_id":"4","last_reported":1736345321,"current_range_meters":24400,"station_id":"ce4bhbh2rcd13ifvqeqg","pricing_plan_id":"cebpf4jnsgd1na2vs0mg"},{"bike_id":"a48ee251-975b-47cc-8bcf-5163b65b2f80","system_id":"levelo_inurba_marseille","lat":43.23961,"lon":5.36664,"is_reserved":false,"is_disabled":false,"rental_uris":{"android":"levelo://app?vid=a48ee251-975b-47cc-8bcf-5163b65b2f80","ios":"levelo://app?vid=a48ee251-975b-47cc-8bcf-5163b65b2f80"},"vehicle_type_id":"4","last_reported":1736345321,"current_range_meters":8000,"station_id":"ce4bhi12rcd13ifvqfp0","pricing_plan_id":"cebpf4jnsgd1na2vs0mg"},{"bike_id":"39faa2fe-395f-49c9-9056-e37436793a85","system_id":"levelo_inurba_marseille","lat":43.303233,"lon":5.404557,"is_reserved":false,"is_disabled":true,"rental_uris":{"android":"levelo://app?vid=39faa2fe-395f-49c9-9056-e37436793a85","ios":"levelo://app?vid=39faa2fe-395f-49c9-9056-e37436793a85"},"vehicle_type_id":"4","last_reported":1736345321,"current_range_meters":32400,"station_id":"ce4bh012rcd13ifvqd10","pricing_plan_id":"cebpf4jnsgd1na2vs0mg"},{"bike_id":"ad09d2f8-d1fd-4117-b032-9370ae2ea9db","system_id":"levelo_inurba_marseille","lat":43.25913,"lon":5.40916,"is_reserved":false,"is_disabled":false,"rental_uris":{"android":"levelo://app?vid=ad09d2f8-d1fd-4117-b032-9370ae2ea9db","ios":"levelo://app?vid=ad09d2f8-d1fd-4117-b032-9370ae2ea9db"},"vehicle_type_id":"4","last_reported":1736345321,"current_range_meters":36800,"station_id":"ce4bhm92rcd13ifvqglg","pricing_plan_id":"cebpf4jnsgd1na2vs0mg"},{"bike_id":"ff02a235-5fac-4689-9d0d-bafa263f706b","system_id":"levelo_inurba_marseille","lat":43.2511,"lon":5.40323,"is_reserved":false,"is_disabled":false,"rental_uris":{"android":"levelo://app?vid=ff02a235-5fac-4689-9d0d-bafa263f706b","ios":"levelo://app?vid=ff02a235-5fac-4689-9d0d-bafa263f706b"},"vehicle_type_id":"4","last_reported":1736345321,"current_range_meters":23200,"station_id":"ce4bhlh2rcd13ifvqgig","pricing_plan_id":"cebpf4jnsgd1na2vs0mg"},{"bike_id":"4e763ea2-88b3-4a0a-92ba-96fe73513400","system_id":"levelo_inurba_marseille","lat":43.26558,"lon":5.37285,"is_reserved":false,"is_disabled":false,"rental_uris":{"android":"levelo://app?vid=4e763ea2-88b3-4a0a-92ba-96fe73513400","ios":"levelo://app?vid=4e763ea2-88b3-4a0a-92ba-96fe73513400"},"vehicle_type_id":"4","last_reported":1736345321,"current_range_meters":8000,"station_id":"ce4bhg12rcd13ifvqf70","pricing_plan_id":"cebpf4jnsgd1na2vs0mg"},{"bike_id":"47d91d0b-9f85-48db-b81d-93ef232705fa","system_id":"levelo_inurba_marseille","lat":43.24179,"lon":5.39732,"is_reserved":false,"is_disabled":true,"rental_uris":{"android":"levelo://app?vid=47d91d0b-9f85-48db-b81d-93ef232705fa","ios":"levelo://app?vid=47d91d0b-9f85-48db-b81d-93ef232705fa"},"vehicle_type_id":"4","last_reported":1736345321,"current_range_meters":0,"station_id":"ce4bhn12rcd13ifvqgpg","pricing_plan_id":"cebpf4jnsgd1na2vs0mg"},{"bike_id":"f6729c56-9df8-4f53-92ad-71b91f2e7254","system_id":"levelo_inurba_marseille","lat":43.25835,"lon":5.39434,"is_reserved":false,"is_disabled":false,"rental_uris":{"android":"levelo://app?vid=f6729c56-9df8-4f53-92ad-71b91f2e7254","ios":"levelo://app?vid=f6729c56-9df8-4f53-92ad-71b91f2e7254"},"vehicle_type_id":"4","last_reported":1736345321,"current_range_meters":38400,"station_id":"ce4bhip2rcd13ifvqft0","pricing_plan_id":"cebpf4jnsgd1na2vs0mg"},{"bike_id":"aee7713f-4f69-4292-bc45-f3850ff5100d","system_id":"levelo_inurba_marseille","lat":43.30796,"lon":5.43537,"is_reserved":false,"is_disabled":false,"rental_uris":{"android":"levelo://app?vid=aee7713f-4f69-4292-bc45-f3850ff5100d","ios":"levelo://app?vid=aee7713f-4f69-4292-bc45-f3850ff5100d"},"vehicle_type_id":"4","last_reported":1736345321,"current_range_meters":32400,"station_id":"ce4bhph2rcd13ifvqheg","pricing_plan_id":"cebpf4jnsgd1na2vs0mg"},{"bike_id":"7bb4a7de-253c-441c-9699-15315f788406","system_id":"levelo_inurba_marseille","lat":43.3018,"lon":5.36618,"is_reserved":false,"is_disabled":false,"rental_uris":{"android":"levelo://app?vid=7bb4a7de-253c-441c-9699-15315f788406","ios":"levelo://app?vid=7bb4a7de-253c-441c-9699-15315f788406"},"vehicle_type_id":"4","last_reported":1736345321,"current_range_meters":23200,"station_id":"ce4bgrh2rcd13ifvqc8g","pricing_plan_id":"cebpf4jnsgd1na2vs0mg"},{"bike_id":"57105cad-b458-4d49-892c-3a99311d31a5","system_id":"levelo_inurba_marseille","lat":43.25726,"lon":5.41107,"is_reserved":false,"is_disabled":false,"rental_uris":{"android":"levelo://app?vid=57105cad-b458-4d49-892c-3a99311d31a5","ios":"levelo://app?vid=57105cad-b458-4d49-892c-3a99311d31a5"},"vehicle_type_id":"4","last_reported":1736345321,"current_range_meters":38800,"station_id":"ce4bhkp2rcd13ifvqgd0","pricing_plan_id":"cebpf4jnsgd1na2vs0mg"},{"bike_id":"f2536309-8d2b-4ccd-86e1-4c168080c77c","system_id":"levelo_inurba_marseille","lat":43.23201,"lon":5.35553,"is_reserved":false,"is_disabled":false,"rental_uris":{"android":"levelo://app?vid=f2536309-8d2b-4ccd-86e1-4c168080c77c","ios":"levelo://app?vid=f2536309-8d2b-4ccd-86e1-4c168080c77c"},"vehicle_type_id":"4","last_reported":1736345321,"current_range_meters":10000,"station_id":"ce4bhu92rcd13ifvqi70","pricing_plan_id":"cebpf4jnsgd1na2vs0mg"},{"bike_id":"dc520e37-5749-4b7e-9d71-c0cb3784f70d","system_id":"levelo_inurba_marseille","lat":43.30462,"lon":5.37904,"is_reserved":false,"is_disabled":true,"rental_uris":{"android":"levelo://app?vid=dc520e37-5749-4b7e-9d71-c0cb3784f70d","ios":"levelo://app?vid=dc520e37-5749-4b7e-9d71-c0cb3784f70d"},"vehicle_type_id":"4","last_reported":1736345321,"current_range_meters":1200,"station_id":"ce4bgup2rcd13ifvqcn0","pricing_plan_id":"cebpf4jnsgd1na2vs0mg"},{"bike_id":"1b9eeb91-1704-485d-9046-de6a0525e558","system_id":"levelo_inurba_marseille","lat":43.31481,"lon":5.37317,"is_reserved":false,"is_disabled":false,"rental_uris":{"android":"levelo://app?vid=1b9eeb91-1704-485d-9046-de6a0525e558","ios":"levelo://app?vid=1b9eeb91-1704-485d-9046-de6a0525e558"},"vehicle_type_id":"4","last_reported":1736345321,"current_range_meters":14800,"station_id":"ce4bgt12rcd13ifvqcd0","pricing_plan_id":"cebpf4jnsgd1na2vs0mg"},{"bike_id":"78ae9481-be4f-444a-b77f-1c3a47cbcdba","system_id":"levelo_inurba_marseille","lat":43.33024,"lon":5.39039,"is_reserved":false,"is_disabled":false,"rental_uris":{"android":"levelo://app?vid=78ae9481-be4f-444a-b77f-1c3a47cbcdba","ios":"levelo://app?vid=78ae9481-be4f-444a-b77f-1c3a47cbcdba"},"vehicle_type_id":"4","last_reported":1736345321,"current_range_meters":2800,"station_id":"ce4bhr92rcd13ifvqhrg","pricing_plan_id":"cebpf4jnsgd1na2vs0mg"},{"bike_id":"133a73dd-cdc6-4396-844a-232bcfdd1ea8","system_id":"levelo_inurba_marseille","lat":43.30541,"lon":5.36712,"is_reserved":false,"is_disabled":false,"rental_uris":{"android":"levelo://app?vid=133a73dd-cdc6-4396-844a-232bcfdd1ea8","ios":"levelo://app?vid=133a73dd-cdc6-4396-844a-232bcfdd1ea8"},"vehicle_type_id":"4","last_reported":1736345321,"current_range_meters":38800,"station_id":"ce4bgrp2rcd13ifvqc9g","pricing_plan_id":"cebpf4jnsgd1na2vs0mg"},{"bike_id":"b29c418f-e002-4e26-8d22-6ac4e76bf266","system_id":"levelo_inurba_marseille","lat":43.31698,"lon":5.37731,"is_reserved":false,"is_disabled":false,"rental_uris":{"android":"levelo://app?vid=b29c418f-e002-4e26-8d22-6ac4e76bf266","ios":"levelo://app?vid=b29c418f-e002-4e26-8d22-6ac4e76bf266"},"vehicle_type_id":"4","last_reported":1736345321,"current_range_meters":38800,"station_id":"ce4bgth2rcd13ifvqch0","pricing_plan_id":"cebpf4jnsgd1na2vs0mg"},{"bike_id":"6ce82496-1d25-4267-881f-07e98495a71d","system_id":"levelo_inurba_marseille","lat":43.25941,"lon":5.40906,"is_reserved":false,"is_disabled":false,"rental_uris":{"android":"levelo://app?vid=6ce82496-1d25-4267-881f-07e98495a71d","ios":"levelo://app?vid=6ce82496-1d25-4267-881f-07e98495a71d"},"vehicle_type_id":"4","last_reported":1736345321,"current_range_meters":26800,"station_id":"ce4bhm92rcd13ifvqglg","pricing_plan_id":"cebpf4jnsgd1na2vs0mg"},{"bike_id":"412641fb-1223-4549-a4fe-5d0cdf506cd0","system_id":"levelo_inurba_marseille","lat":43.29179,"lon":5.35815,"is_reserved":false,"is_disabled":false,"rental_uris":{"android":"levelo://app?vid=412641fb-1223-4549-a4fe-5d0cdf506cd0","ios":"levelo://app?vid=412641fb-1223-4549-a4fe-5d0cdf506cd0"},"vehicle_type_id":"4","last_reported":1736345321,"current_range_meters":39200,"station_id":"ce4bhb12rcd13ifvqel0","pricing_plan_id":"cebpf4jnsgd1na2vs0mg"},{"bike_id":"c5bdcbc9-5666-48cc-865a-d43ab7e609ca","system_id":"levelo_inurba_marseille","lat":43.292991,"lon":5.374633,"is_reserved":false,"is_disabled":true,"rental_uris":{"android":"levelo://app?vid=c5bdcbc9-5666-48cc-865a-d43ab7e609ca","ios":"levelo://app?vid=c5bdcbc9-5666-48cc-865a-d43ab7e609ca"},"vehicle_type_id":"4","last_reported":1736345321,"current_range_meters":34000,"station_id":"ce4bgi12rcd13ifvqb70","pricing_plan_id":"cebpf4jnsgd1na2vs0mg"},{"bike_id":"d9151d6c-1f4a-40c9-ac33-6ec48a9a705f","system_id":"levelo_inurba_marseille","lat":43.23074,"lon":5.35505,"is_reserved":false,"is_disabled":false,"rental_uris":{"android":"levelo://app?vid=d9151d6c-1f4a-40c9-ac33-6ec48a9a705f","ios":"levelo://app?vid=d9151d6c-1f4a-40c9-ac33-6ec48a9a705f"},"vehicle_type_id":"4","last_reported":1736345321,"current_range_meters":34800,"station_id":"cpo3342slgdg3j2ifvpg","pricing_plan_id":"cebpf4jnsgd1na2vs0mg"},{"bike_id":"412c961b-9eee-480e-9da4-be4fd2e54380","system_id":"levelo_inurba_marseille","lat":43.29554,"lon":5.42295,"is_reserved":false,"is_disabled":false,"rental_uris":{"android":"levelo://app?vid=412c961b-9eee-480e-9da4-be4fd2e54380","ios":"levelo://app?vid=412c961b-9eee-480e-9da4-be4fd2e54380"},"vehicle_type_id":"4","last_reported":1736345321,"current_range_meters":38800,"station_id":"ce4bhph2rcd13ifvqhdg","pricing_plan_id":"cebpf4jnsgd1na2vs0mg"},{"bike_id":"a7412a45-2296-4222-ba77-3e131a32fddd","system_id":"levelo_inurba_marseille","lat":43.28622,"lon":5.35095,"is_reserved":false,"is_disabled":false,"rental_uris":{"android":"levelo://app?vid=a7412a45-2296-4222-ba77-3e131a32fddd","ios":"levelo://app?vid=a7412a45-2296-4222-ba77-3e131a32fddd"},"vehicle_type_id":"4","last_reported":1736345321,"current_range_meters":38800,"station_id":"ce4bhch2rcd13ifvqeug","pricing_plan_id":"cebpf4jnsgd1na2vs0mg"},{"bike_id":"98438a57-d19a-4747-aab6-30e90bc1f7e4","system_id":"levelo_inurba_marseille","lat":43.29252,"lon":5.40909,"is_reserved":false,"is_disabled":false,"rental_uris":{"android":"levelo://app?vid=98438a57-d19a-4747-aab6-30e90bc1f7e4","ios":"levelo://app?vid=98438a57-d19a-4747-aab6-30e90bc1f7e4"},"vehicle_type_id":"4","last_reported":1736345321,"current_range_meters":36400,"station_id":"ce4bh192rcd13ifvqdc0","pricing_plan_id":"cebpf4jnsgd1na2vs0mg"},{"bike_id":"68bcb3bd-c66e-4fed-a80c-23b7b3bcf1a6","system_id":"levelo_inurba_marseille","lat":43.24166,"lon":5.36398,"is_reserved":false,"is_disabled":false,"rental_uris":{"android":"levelo://app?vid=68bcb3bd-c66e-4fed-a80c-23b7b3bcf1a6","ios":"levelo://app?vid=68bcb3bd-c66e-4fed-a80c-23b7b3bcf1a6"},"vehicle_type_id":"4","last_reported":1736345321,"current_range_meters":24000,"station_id":"cpo36qri1sfpv3e86is0","pricing_plan_id":"cebpf4jnsgd1na2vs0mg"},{"bike_id":"aa9ea99c-3ff5-4661-976e-6ed59352ab11","system_id":"levelo_inurba_marseille","lat":43.287165,"lon":5.379359,"is_reserved":false,"is_disabled":false,"rental_uris":{"android":"levelo://app?vid=aa9ea99c-3ff5-4661-976e-6ed59352ab11","ios":"levelo://app?vid=aa9ea99c-3ff5-4661-976e-6ed59352ab11"},"vehicle_type_id":"4","last_reported":1736345321,"current_range_meters":35200,"station_id":"ce4bh9p2rcd13ifvqec0","pricing_plan_id":"cebpf4jnsgd1na2vs0mg"},{"bike_id":"04c5f3d9-d069-49ba-9779-3dfe963da0d4","system_id":"levelo_inurba_marseille","lat":43.23179,"lon":5.39986,"is_reserved":false,"is_disabled":false,"rental_uris":{"android":"levelo://app?vid=04c5f3d9-d069-49ba-9779-3dfe963da0d4","ios":"levelo://app?vid=04c5f3d9-d069-49ba-9779-3dfe963da0d4"},"vehicle_type_id":"4","last_reported":1736345321,"current_range_meters":25600,"station_id":"ce4bhn12rcd13ifvqgqg","pricing_plan_id":"cebpf4jnsgd1na2vs0mg"},{"bike_id":"2825a119-5b5a-4630-b83a-5a86bf58ccad","system_id":"levelo_inurba_marseille","lat":43.31288,"lon":5.37362,"is_reserved":false,"is_disabled":false,"rental_uris":{"android":"levelo://app?vid=2825a119-5b5a-4630-b83a-5a86bf58ccad","ios":"levelo://app?vid=2825a119-5b5a-4630-b83a-5a86bf58ccad"},"vehicle_type_id":"4","last_reported":1736345321,"current_range_meters":9600,"station_id":"","pricing_plan_id":"cebpf4jnsgd1na2vs0mg"},{"bike_id":"027c7e84-a827-4e03-8a40-70ba4cde080d","system_id":"levelo_inurba_marseille","lat":43.26683,"lon":5.3825,"is_reserved":false,"is_disabled":false,"rental_uris":{"android":"levelo://app?vid=027c7e84-a827-4e03-8a40-70ba4cde080d","ios":"levelo://app?vid=027c7e84-a827-4e03-8a40-70ba4cde080d"},"vehicle_type_id":"4","last_reported":1736345321,"current_range_meters":6800,"station_id":"ce4bhg92rcd13ifvqf90","pricing_plan_id":"cebpf4jnsgd1na2vs0mg"},{"bike_id":"1a57d2b6-a414-4526-bdc0-279ac021f99a","system_id":"levelo_inurba_marseille","lat":43.29302,"lon":5.37172,"is_reserved":false,"is_disabled":false,"rental_uris":{"android":"levelo://app?vid=1a57d2b6-a414-4526-bdc0-279ac021f99a","ios":"levelo://app?vid=1a57d2b6-a414-4526-bdc0-279ac021f99a"},"vehicle_type_id":"4","last_reported":1736345321,"current_range_meters":31200,"station_id":"ce4bgh92rcd13ifvqb40","pricing_plan_id":"cebpf4jnsgd1na2vs0mg"},{"bike_id":"b93a5933-2b30-4af6-9d4c-741b325e4d7a","system_id":"levelo_inurba_marseille","lat":43.30198,"lon":5.36633,"is_reserved":false,"is_disabled":false,"rental_uris":{"android":"levelo://app?vid=b93a5933-2b30-4af6-9d4c-741b325e4d7a","ios":"levelo://app?vid=b93a5933-2b30-4af6-9d4c-741b325e4d7a"},"vehicle_type_id":"4","last_reported":1736345321,"current_range_meters":39200,"station_id":"ce4bgrh2rcd13ifvqc8g","pricing_plan_id":"cebpf4jnsgd1na2vs0mg"},{"bike_id":"f5b2de69-ea07-4b33-a436-49a7f21ea0f9","system_id":"levelo_inurba_marseille","lat":43.29592,"lon":5.3673,"is_reserved":false,"is_disabled":false,"rental_uris":{"android":"levelo://app?vid=f5b2de69-ea07-4b33-a436-49a7f21ea0f9","ios":"levelo://app?vid=f5b2de69-ea07-4b33-a436-49a7f21ea0f9"},"vehicle_type_id":"4","last_reported":1736345321,"current_range_meters":37600,"station_id":"ce4bgph2rcd13ifvqc2g","pricing_plan_id":"cebpf4jnsgd1na2vs0mg"},{"bike_id":"7a0a8a69-615c-43f3-a001-073b74f4a57b","system_id":"levelo_inurba_marseille","lat":43.25588,"lon":5.38238,"is_reserved":false,"is_disabled":false,"rental_uris":{"android":"levelo://app?vid=7a0a8a69-615c-43f3-a001-073b74f4a57b","ios":"levelo://app?vid=7a0a8a69-615c-43f3-a001-073b74f4a57b"},"vehicle_type_id":"4","last_reported":1736345321,"current_range_meters":36000,"station_id":"ce4bhih2rcd13ifvqfs0","pricing_plan_id":"cebpf4jnsgd1na2vs0mg"},{"bike_id":"16c041a2-2249-42ba-83f9-aa1e63bb87f4","system_id":"levelo_inurba_marseille","lat":43.28267,"lon":5.35068,"is_reserved":false,"is_disabled":false,"rental_uris":{"android":"levelo://app?vid=16c041a2-2249-42ba-83f9-aa1e63bb87f4","ios":"levelo://app?vid=16c041a2-2249-42ba-83f9-aa1e63bb87f4"},"vehicle_type_id":"4","last_reported":1736345321,"current_range_meters":32000,"station_id":"ce4bhbp2rcd13ifvqerg","pricing_plan_id":"cebpf4jnsgd1na2vs0mg"},{"bike_id":"d03baa4e-a1ff-4dbb-aa3a-8f7610789178","system_id":"levelo_inurba_marseille","lat":43.3373,"lon":5.39178,"is_reserved":false,"is_disabled":false,"rental_uris":{"android":"levelo://app?vid=d03baa4e-a1ff-4dbb-aa3a-8f7610789178","ios":"levelo://app?vid=d03baa4e-a1ff-4dbb-aa3a-8f7610789178"},"vehicle_type_id":"4","last_reported":1736345321,"current_range_meters":38800,"station_id":"ce4bhr92rcd13ifvqhsg","pricing_plan_id":"cebpf4jnsgd1na2vs0mg"},{"bike_id":"77f216d1-6f69-47fb-bb4c-6c4c5a5331f2","system_id":"levelo_inurba_marseille","lat":43.25827,"lon":5.39424,"is_reserved":false,"is_disabled":false,"rental_uris":{"android":"levelo://app?vid=77f216d1-6f69-47fb-bb4c-6c4c5a5331f2","ios":"levelo://app?vid=77f216d1-6f69-47fb-bb4c-6c4c5a5331f2"},"vehicle_type_id":"4","last_reported":1736345321,"current_range_meters":28400,"station_id":"ce4bhip2rcd13ifvqft0","pricing_plan_id":"cebpf4jnsgd1na2vs0mg"},{"bike_id":"5cbc2cb3-489b-4757-bef9-84c199a03c26","system_id":"levelo_inurba_marseille","lat":43.239644,"lon":5.366334,"is_reserved":false,"is_disabled":false,"rental_uris":{"android":"levelo://app?vid=5cbc2cb3-489b-4757-bef9-84c199a03c26","ios":"levelo://app?vid=5cbc2cb3-489b-4757-bef9-84c199a03c26"},"vehicle_type_id":"4","last_reported":1736345321,"current_range_meters":8400,"station_id":"ce4bhi12rcd13ifvqfp0","pricing_plan_id":"cebpf4jnsgd1na2vs0mg"},{"bike_id":"46422d9e-3d17-4978-a20a-a9d26cfc2622","system_id":"levelo_inurba_marseille","lat":43.28265,"lon":5.35076,"is_reserved":false,"is_disabled":false,"rental_uris":{"android":"levelo://app?vid=46422d9e-3d17-4978-a20a-a9d26cfc2622","ios":"levelo://app?vid=46422d9e-3d17-4978-a20a-a9d26cfc2622"},"vehicle_type_id":"4","last_reported":1736345321,"current_range_meters":28000,"station_id":"ce4bhbp2rcd13ifvqerg","pricing_plan_id":"cebpf4jnsgd1na2vs0mg"},{"bike_id":"c915b420-f51e-4ea3-8ddd-43180c9d4edb","system_id":"levelo_inurba_marseille","lat":43.28277,"lon":5.35072,"is_reserved":false,"is_disabled":false,"rental_uris":{"android":"levelo://app?vid=c915b420-f51e-4ea3-8ddd-43180c9d4edb","ios":"levelo://app?vid=c915b420-f51e-4ea3-8ddd-43180c9d4edb"},"vehicle_type_id":"4","last_reported":1736345321,"current_range_meters":29600,"station_id":"ce4bhbp2rcd13ifvqerg","pricing_plan_id":"cebpf4jnsgd1na2vs0mg"},{"bike_id":"bec44870-59c7-42c4-84e0-176ee46453be","system_id":"levelo_inurba_marseille","lat":43.2621,"lon":5.37928,"is_reserved":false,"is_disabled":false,"rental_uris":{"android":"levelo://app?vid=bec44870-59c7-42c4-84e0-176ee46453be","ios":"levelo://app?vid=bec44870-59c7-42c4-84e0-176ee46453be"},"vehicle_type_id":"4","last_reported":1736345321,"current_range_meters":8400,"station_id":"ce4bhjp2rcd13ifvqg90","pricing_plan_id":"cebpf4jnsgd1na2vs0mg"},{"bike_id":"4792f216-6e71-4eb7-8101-d7681e177c2b","system_id":"levelo_inurba_marseille","lat":43.33612,"lon":5.41023,"is_reserved":false,"is_disabled":false,"rental_uris":{"android":"levelo://app?vid=4792f216-6e71-4eb7-8101-d7681e177c2b","ios":"levelo://app?vid=4792f216-6e71-4eb7-8101-d7681e177c2b"},"vehicle_type_id":"4","last_reported":1736345321,"current_range_meters":39200,"station_id":"ce4bhqh2rcd13ifvqhmg","pricing_plan_id":"cebpf4jnsgd1na2vs0mg"},{"bike_id":"487f9a49-ad56-49eb-ab50-638d8f41c823","system_id":"levelo_inurba_marseille","lat":43.27972,"lon":5.38737,"is_reserved":false,"is_disabled":false,"rental_uris":{"android":"levelo://app?vid=487f9a49-ad56-49eb-ab50-638d8f41c823","ios":"levelo://app?vid=487f9a49-ad56-49eb-ab50-638d8f41c823"},"vehicle_type_id":"4","last_reported":1736345321,"current_range_meters":25600,"station_id":"ce4bhg12rcd13ifvqf80","pricing_plan_id":"cebpf4jnsgd1na2vs0mg"},{"bike_id":"5aff22fc-7da0-4fa1-950a-d0c864951366","system_id":"levelo_inurba_marseille","lat":43.24538,"lon":5.39534,"is_reserved":false,"is_disabled":false,"rental_uris":{"android":"levelo://app?vid=5aff22fc-7da0-4fa1-950a-d0c864951366","ios":"levelo://app?vid=5aff22fc-7da0-4fa1-950a-d0c864951366"},"vehicle_type_id":"4","last_reported":1736345321,"current_range_meters":20800,"station_id":"ce4bhlp2rcd13ifvqgjg","pricing_plan_id":"cebpf4jnsgd1na2vs0mg"},{"bike_id":"35fd1412-6032-4d72-91b8-ea3db54e2903","system_id":"levelo_inurba_marseille","lat":43.28677,"lon":5.38655,"is_reserved":false,"is_disabled":false,"rental_uris":{"android":"levelo://app?vid=35fd1412-6032-4d72-91b8-ea3db54e2903","ios":"levelo://app?vid=35fd1412-6032-4d72-91b8-ea3db54e2903"},"vehicle_type_id":"4","last_reported":1736345321,"current_range_meters":3200,"station_id":"ce4bh3p2rcd13ifvqdp0","pricing_plan_id":"cebpf4jnsgd1na2vs0mg"},{"bike_id":"b753435e-f6bb-4c1f-9e42-1ce67c2a1696","system_id":"levelo_inurba_marseille","lat":43.27499,"lon":5.42451,"is_reserved":false,"is_disabled":true,"rental_uris":{"android":"levelo://app?vid=b753435e-f6bb-4c1f-9e42-1ce67c2a1696","ios":"levelo://app?vid=b753435e-f6bb-4c1f-9e42-1ce67c2a1696"},"vehicle_type_id":"4","last_reported":1736345321,"current_range_meters":400,"station_id":"ce4bhn92rcd13ifvqgrg","pricing_plan_id":"cebpf4jnsgd1na2vs0mg"},{"bike_id":"c7e4e4e5-1847-44f3-96b6-ad216285bc92","system_id":"levelo_inurba_marseille","lat":43.33775,"lon":5.3744,"is_reserved":false,"is_disabled":false,"rental_uris":{"android":"levelo://app?vid=c7e4e4e5-1847-44f3-96b6-ad216285bc92","ios":"levelo://app?vid=c7e4e4e5-1847-44f3-96b6-ad216285bc92"},"vehicle_type_id":"4","last_reported":1736345321,"current_range_meters":33200,"station_id":"","pricing_plan_id":"cebpf4jnsgd1na2vs0mg"},{"bike_id":"bdaa3bef-66a9-4394-a00b-5b407d24db81","system_id":"levelo_inurba_marseille","lat":43.23196,"lon":5.35549,"is_reserved":false,"is_disabled":false,"rental_uris":{"android":"levelo://app?vid=bdaa3bef-66a9-4394-a00b-5b407d24db81","ios":"levelo://app?vid=bdaa3bef-66a9-4394-a00b-5b407d24db81"},"vehicle_type_id":"4","last_reported":1736345321,"current_range_meters":13600,"station_id":"ce4bhu92rcd13ifvqi70","pricing_plan_id":"cebpf4jnsgd1na2vs0mg"},{"bike_id":"7b71d2b1-0f5f-48b8-a921-ed516ad36cfa","system_id":"levelo_inurba_marseille","lat":43.23153,"lon":5.43707,"is_reserved":false,"is_disabled":false,"rental_uris":{"android":"levelo://app?vid=7b71d2b1-0f5f-48b8-a921-ed516ad36cfa","ios":"levelo://app?vid=7b71d2b1-0f5f-48b8-a921-ed516ad36cfa"},"vehicle_type_id":"4","last_reported":1736345321,"current_range_meters":18800,"station_id":"ce4bhmp2rcd13ifvqgog","pricing_plan_id":"cebpf4jnsgd1na2vs0mg"},{"bike_id":"3a1318d6-e0ec-4965-b6af-61d4c63f5f7d","system_id":"levelo_inurba_marseille","lat":43.26206,"lon":5.37941,"is_reserved":false,"is_disabled":false,"rental_uris":{"android":"levelo://app?vid=3a1318d6-e0ec-4965-b6af-61d4c63f5f7d","ios":"levelo://app?vid=3a1318d6-e0ec-4965-b6af-61d4c63f5f7d"},"vehicle_type_id":"4","last_reported":1736345321,"current_range_meters":36800,"station_id":"ce4bhjp2rcd13ifvqg90","pricing_plan_id":"cebpf4jnsgd1na2vs0mg"},{"bike_id":"ea3e52c1-5b66-480c-9ca4-a2ae2ec8a2e0","system_id":"levelo_inurba_marseille","lat":43.28299,"lon":5.37373,"is_reserved":false,"is_disabled":false,"rental_uris":{"android":"levelo://app?vid=ea3e52c1-5b66-480c-9ca4-a2ae2ec8a2e0","ios":"levelo://app?vid=ea3e52c1-5b66-480c-9ca4-a2ae2ec8a2e0"},"vehicle_type_id":"4","last_reported":1736345321,"current_range_meters":24400,"station_id":"ce4bha12rcd13ifvqef0","pricing_plan_id":"cebpf4jnsgd1na2vs0mg"},{"bike_id":"7618ced7-b343-464e-817b-57b857eb31e9","system_id":"levelo_inurba_marseille","lat":43.2862,"lon":5.35092,"is_reserved":false,"is_disabled":false,"rental_uris":{"android":"levelo://app?vid=7618ced7-b343-464e-817b-57b857eb31e9","ios":"levelo://app?vid=7618ced7-b343-464e-817b-57b857eb31e9"},"vehicle_type_id":"4","last_reported":1736345321,"current_range_meters":24400,"station_id":"ce4bhch2rcd13ifvqeug","pricing_plan_id":"cebpf4jnsgd1na2vs0mg"},{"bike_id":"d0644da0-536b-454d-9482-efecdb41ad21","system_id":"levelo_inurba_marseille","lat":43.25499,"lon":5.3765,"is_reserved":false,"is_disabled":false,"rental_uris":{"android":"levelo://app?vid=d0644da0-536b-454d-9482-efecdb41ad21","ios":"levelo://app?vid=d0644da0-536b-454d-9482-efecdb41ad21"},"vehicle_type_id":"4","last_reported":1736345321,"current_range_meters":25200,"station_id":"ce4bhh12rcd13ifvqff0","pricing_plan_id":"cebpf4jnsgd1na2vs0mg"},{"bike_id":"37d8e1ef-d932-49d7-b893-49542cf44d13","system_id":"levelo_inurba_marseille","lat":43.32345,"lon":5.40629,"is_reserved":false,"is_disabled":true,"rental_uris":{"android":"levelo://app?vid=37d8e1ef-d932-49d7-b893-49542cf44d13","ios":"levelo://app?vid=37d8e1ef-d932-49d7-b893-49542cf44d13"},"vehicle_type_id":"4","last_reported":1736345321,"current_range_meters":0,"station_id":"ce4bhq92rcd13ifvqhjg","pricing_plan_id":"cebpf4jnsgd1na2vs0mg"},{"bike_id":"32a4fb87-34f7-41cc-a1bf-df05e6828b58","system_id":"levelo_inurba_marseille","lat":43.31331,"lon":5.39679,"is_reserved":false,"is_disabled":false,"rental_uris":{"android":"levelo://app?vid=32a4fb87-34f7-41cc-a1bf-df05e6828b58","ios":"levelo://app?vid=32a4fb87-34f7-41cc-a1bf-df05e6828b58"},"vehicle_type_id":"4","last_reported":1736345321,"current_range_meters":9600,"station_id":"ce4bgvp2rcd13ifvqcu0","pricing_plan_id":"cebpf4jnsgd1na2vs0mg"},{"bike_id":"976924ed-93dc-476d-ac89-66b241ea5e03","system_id":"levelo_inurba_marseille","lat":43.2575,"lon":5.39729,"is_reserved":false,"is_disabled":false,"rental_uris":{"android":"levelo://app?vid=976924ed-93dc-476d-ac89-66b241ea5e03","ios":"levelo://app?vid=976924ed-93dc-476d-ac89-66b241ea5e03"},"vehicle_type_id":"4","last_reported":1736345321,"current_range_meters":9200,"station_id":"ce4bhm12rcd13ifvqgkg","pricing_plan_id":"cebpf4jnsgd1na2vs0mg"},{"bike_id":"cbb8af73-88b7-4bca-850d-df336251502e","system_id":"levelo_inurba_marseille","lat":43.28617,"lon":5.3511,"is_reserved":false,"is_disabled":false,"rental_uris":{"android":"levelo://app?vid=cbb8af73-88b7-4bca-850d-df336251502e","ios":"levelo://app?vid=cbb8af73-88b7-4bca-850d-df336251502e"},"vehicle_type_id":"4","last_reported":1736345321,"current_range_meters":36800,"station_id":"ce4bhch2rcd13ifvqeug","pricing_plan_id":"cebpf4jnsgd1na2vs0mg"},{"bike_id":"665b6f15-ae32-484c-8a18-f3992221abd2","system_id":"levelo_inurba_marseille","lat":43.25813,"lon":5.39422,"is_reserved":false,"is_disabled":false,"rental_uris":{"android":"levelo://app?vid=665b6f15-ae32-484c-8a18-f3992221abd2","ios":"levelo://app?vid=665b6f15-ae32-484c-8a18-f3992221abd2"},"vehicle_type_id":"4","last_reported":1736345321,"current_range_meters":12400,"station_id":"ce4bhip2rcd13ifvqft0","pricing_plan_id":"cebpf4jnsgd1na2vs0mg"},{"bike_id":"63c817a8-7fe4-4bba-9c1c-70e578257f97","system_id":"levelo_inurba_marseille","lat":43.23968,"lon":5.36637,"is_reserved":false,"is_disabled":false,"rental_uris":{"android":"levelo://app?vid=63c817a8-7fe4-4bba-9c1c-70e578257f97","ios":"levelo://app?vid=63c817a8-7fe4-4bba-9c1c-70e578257f97"},"vehicle_type_id":"4","last_reported":1736345321,"current_range_meters":4400,"station_id":"ce4bhi12rcd13ifvqfp0","pricing_plan_id":"cebpf4jnsgd1na2vs0mg"},{"bike_id":"9b2f55e0-edd8-4d6c-b73b-00ee1872c633","system_id":"levelo_inurba_marseille","lat":43.33024,"lon":5.39034,"is_reserved":false,"is_disabled":false,"rental_uris":{"android":"levelo://app?vid=9b2f55e0-edd8-4d6c-b73b-00ee1872c633","ios":"levelo://app?vid=9b2f55e0-edd8-4d6c-b73b-00ee1872c633"},"vehicle_type_id":"4","last_reported":1736345321,"current_range_meters":13600,"station_id":"ce4bhr92rcd13ifvqhrg","pricing_plan_id":"cebpf4jnsgd1na2vs0mg"},{"bike_id":"91aae5cf-068f-4218-a6f9-db21593b4dfe","system_id":"levelo_inurba_marseille","lat":43.25932,"lon":5.40911,"is_reserved":false,"is_disabled":false,"rental_uris":{"android":"levelo://app?vid=91aae5cf-068f-4218-a6f9-db21593b4dfe","ios":"levelo://app?vid=91aae5cf-068f-4218-a6f9-db21593b4dfe"},"vehicle_type_id":"4","last_reported":1736345321,"current_range_meters":38800,"station_id":"ce4bhm92rcd13ifvqglg","pricing_plan_id":"cebpf4jnsgd1na2vs0mg"},{"bike_id":"ec070c9b-b204-4195-8da4-627432f984a9","system_id":"levelo_inurba_marseille","lat":43.26214,"lon":5.37443,"is_reserved":false,"is_disabled":false,"rental_uris":{"android":"levelo://app?vid=ec070c9b-b204-4195-8da4-627432f984a9","ios":"levelo://app?vid=ec070c9b-b204-4195-8da4-627432f984a9"},"vehicle_type_id":"4","last_reported":1736345321,"current_range_meters":35200,"station_id":"ce4bhgp2rcd13ifvqfc0","pricing_plan_id":"cebpf4jnsgd1na2vs0mg"},{"bike_id":"62f17cb9-2c66-4cff-81db-916d063de829","system_id":"levelo_inurba_marseille","lat":43.33088,"lon":5.39024,"is_reserved":false,"is_disabled":false,"rental_uris":{"android":"levelo://app?vid=62f17cb9-2c66-4cff-81db-916d063de829","ios":"levelo://app?vid=62f17cb9-2c66-4cff-81db-916d063de829"},"vehicle_type_id":"4","last_reported":1736345321,"current_range_meters":38800,"station_id":"","pricing_plan_id":"cebpf4jnsgd1na2vs0mg"},{"bike_id":"c6470ca7-0d06-42bc-af5a-e3ecae92fae2","system_id":"levelo_inurba_marseille","lat":43.27945,"lon":5.38698,"is_reserved":false,"is_disabled":true,"rental_uris":{"android":"levelo://app?vid=c6470ca7-0d06-42bc-af5a-e3ecae92fae2","ios":"levelo://app?vid=c6470ca7-0d06-42bc-af5a-e3ecae92fae2"},"vehicle_type_id":"4","last_reported":1736345321,"current_range_meters":1200,"station_id":"ce4bhg12rcd13ifvqf80","pricing_plan_id":"cebpf4jnsgd1na2vs0mg"},{"bike_id":"f162e091-eaf8-40f8-b4ce-6d0b5a00bdb2","system_id":"levelo_inurba_marseille","lat":43.28042,"lon":5.36926,"is_reserved":false,"is_disabled":false,"rental_uris":{"android":"levelo://app?vid=f162e091-eaf8-40f8-b4ce-6d0b5a00bdb2","ios":"levelo://app?vid=f162e091-eaf8-40f8-b4ce-6d0b5a00bdb2"},"vehicle_type_id":"4","last_reported":1736345321,"current_range_meters":34800,"station_id":"ce4bha12rcd13ifvqef0","pricing_plan_id":"cebpf4jnsgd1na2vs0mg"},{"bike_id":"64e43754-579d-462e-a1e5-f17e1c068bca","system_id":"levelo_inurba_marseille","lat":43.28252,"lon":5.35087,"is_reserved":false,"is_disabled":false,"rental_uris":{"android":"levelo://app?vid=64e43754-579d-462e-a1e5-f17e1c068bca","ios":"levelo://app?vid=64e43754-579d-462e-a1e5-f17e1c068bca"},"vehicle_type_id":"4","last_reported":1736345321,"current_range_meters":19200,"station_id":"ce4bhbp2rcd13ifvqerg","pricing_plan_id":"cebpf4jnsgd1na2vs0mg"},{"bike_id":"181af7be-42d3-437b-b3b5-71db7d792f5d","system_id":"levelo_inurba_marseille","lat":43.32035,"lon":5.41579,"is_reserved":false,"is_disabled":false,"rental_uris":{"android":"levelo://app?vid=181af7be-42d3-437b-b3b5-71db7d792f5d","ios":"levelo://app?vid=181af7be-42d3-437b-b3b5-71db7d792f5d"},"vehicle_type_id":"4","last_reported":1736345321,"current_range_meters":38000,"station_id":"ce4bhq92rcd13ifvqhkg","pricing_plan_id":"cebpf4jnsgd1na2vs0mg"},{"bike_id":"7c81599f-0b26-41d8-9687-a7eb871a6b6f","system_id":"levelo_inurba_marseille","lat":43.24641,"lon":5.38903,"is_reserved":false,"is_disabled":false,"rental_uris":{"android":"levelo://app?vid=7c81599f-0b26-41d8-9687-a7eb871a6b6f","ios":"levelo://app?vid=7c81599f-0b26-41d8-9687-a7eb871a6b6f"},"vehicle_type_id":"4","last_reported":1736345321,"current_range_meters":39200,"station_id":"ce4bhg12rcd13ifvqf60","pricing_plan_id":"cebpf4jnsgd1na2vs0mg"},{"bike_id":"04b0af44-18b4-44ea-b08c-5f81db0a1374","system_id":"levelo_inurba_marseille","lat":43.30138,"lon":5.3877,"is_reserved":false,"is_disabled":false,"rental_uris":{"android":"levelo://app?vid=04b0af44-18b4-44ea-b08c-5f81db0a1374","ios":"levelo://app?vid=04b0af44-18b4-44ea-b08c-5f81db0a1374"},"vehicle_type_id":"4","last_reported":1736345321,"current_range_meters":14400,"station_id":"ce4bghh2rcd13ifvqb60","pricing_plan_id":"cebpf4jnsgd1na2vs0mg"},{"bike_id":"805ac0db-3bf6-4fe5-bf7f-f6cda41e35f2","system_id":"levelo_inurba_marseille","lat":43.26792,"lon":5.394,"is_reserved":false,"is_disabled":false,"rental_uris":{"android":"levelo://app?vid=805ac0db-3bf6-4fe5-bf7f-f6cda41e35f2","ios":"levelo://app?vid=805ac0db-3bf6-4fe5-bf7f-f6cda41e35f2"},"vehicle_type_id":"4","last_reported":1736345321,"current_range_meters":38800,"station_id":"ce4bhh12rcd13ifvqfg0","pricing_plan_id":"cebpf4jnsgd1na2vs0mg"},{"bike_id":"6334e71e-10f4-40c4-8360-44ef7aa5daad","system_id":"levelo_inurba_marseille","lat":43.31447,"lon":5.37378,"is_reserved":false,"is_disabled":false,"rental_uris":{"android":"levelo://app?vid=6334e71e-10f4-40c4-8360-44ef7aa5daad","ios":"levelo://app?vid=6334e71e-10f4-40c4-8360-44ef7aa5daad"},"vehicle_type_id":"4","last_reported":1736345321,"current_range_meters":31200,"station_id":"","pricing_plan_id":"cebpf4jnsgd1na2vs0mg"},{"bike_id":"ba2a18e9-d2a5-4fc8-a4b6-3b6ef76241df","system_id":"levelo_inurba_marseille","lat":43.25581,"lon":5.38222,"is_reserved":false,"is_disabled":false,"rental_uris":{"android":"levelo://app?vid=ba2a18e9-d2a5-4fc8-a4b6-3b6ef76241df","ios":"levelo://app?vid=ba2a18e9-d2a5-4fc8-a4b6-3b6ef76241df"},"vehicle_type_id":"4","last_reported":1736345321,"current_range_meters":24800,"station_id":"ce4bhih2rcd13ifvqfs0","pricing_plan_id":"cebpf4jnsgd1na2vs0mg"},{"bike_id":"48ce03f6-f3a8-490e-8671-5ca1c760d650","system_id":"levelo_inurba_marseille","lat":43.28949,"lon":5.36626,"is_reserved":false,"is_disabled":true,"rental_uris":{"android":"levelo://app?vid=48ce03f6-f3a8-490e-8671-5ca1c760d650","ios":"levelo://app?vid=48ce03f6-f3a8-490e-8671-5ca1c760d650"},"vehicle_type_id":"4","last_reported":1736345321,"current_range_meters":38800,"station_id":"ce4bhap2rcd13ifvqek0","pricing_plan_id":"cebpf4jnsgd1na2vs0mg"},{"bike_id":"f1ac381a-1b3b-49da-b4e2-849dcac1f0a1","system_id":"levelo_inurba_marseille","lat":43.25722,"lon":5.41108,"is_reserved":false,"is_disabled":false,"rental_uris":{"android":"levelo://app?vid=f1ac381a-1b3b-49da-b4e2-849dcac1f0a1","ios":"levelo://app?vid=f1ac381a-1b3b-49da-b4e2-849dcac1f0a1"},"vehicle_type_id":"4","last_reported":1736345321,"current_range_meters":38800,"station_id":"ce4bhkp2rcd13ifvqgd0","pricing_plan_id":"cebpf4jnsgd1na2vs0mg"},{"bike_id":"de6104c5-55cf-44a7-899a-c4051f07b1b9","system_id":"levelo_inurba_marseille","lat":43.28851,"lon":5.35849,"is_reserved":false,"is_disabled":false,"rental_uris":{"android":"levelo://app?vid=de6104c5-55cf-44a7-899a-c4051f07b1b9","ios":"levelo://app?vid=de6104c5-55cf-44a7-899a-c4051f07b1b9"},"vehicle_type_id":"4","last_reported":1736345321,"current_range_meters":38800,"station_id":"ce4bhb12rcd13ifvqem0","pricing_plan_id":"cebpf4jnsgd1na2vs0mg"},{"bike_id":"ec139761-d570-47fe-8322-343df8d21414","system_id":"levelo_inurba_marseille","lat":43.26683,"lon":5.38262,"is_reserved":false,"is_disabled":false,"rental_uris":{"android":"levelo://app?vid=ec139761-d570-47fe-8322-343df8d21414","ios":"levelo://app?vid=ec139761-d570-47fe-8322-343df8d21414"},"vehicle_type_id":"4","last_reported":1736345321,"current_range_meters":38800,"station_id":"ce4bhg92rcd13ifvqf90","pricing_plan_id":"cebpf4jnsgd1na2vs0mg"},{"bike_id":"6c9daffc-e174-4a9a-8b3e-30a6cf4027c8","system_id":"levelo_inurba_marseille","lat":43.32105,"lon":5.36777,"is_reserved":false,"is_disabled":false,"rental_uris":{"android":"levelo://app?vid=6c9daffc-e174-4a9a-8b3e-30a6cf4027c8","ios":"levelo://app?vid=6c9daffc-e174-4a9a-8b3e-30a6cf4027c8"},"vehicle_type_id":"4","last_reported":1736345321,"current_range_meters":20400,"station_id":"ce4bhrh2rcd13ifvqhug","pricing_plan_id":"cebpf4jnsgd1na2vs0mg"},{"bike_id":"80390567-821c-4025-8bc9-aa99a11d153e","system_id":"levelo_inurba_marseille","lat":43.26551,"lon":5.373077,"is_reserved":false,"is_disabled":false,"rental_uris":{"android":"levelo://app?vid=80390567-821c-4025-8bc9-aa99a11d153e","ios":"levelo://app?vid=80390567-821c-4025-8bc9-aa99a11d153e"},"vehicle_type_id":"4","last_reported":1736345321,"current_range_meters":16400,"station_id":"ce4bhg12rcd13ifvqf70","pricing_plan_id":"cebpf4jnsgd1na2vs0mg"},{"bike_id":"9eb509c7-473a-423c-bff1-95eb5d57d712","system_id":"levelo_inurba_marseille","lat":43.315462,"lon":5.380244,"is_reserved":false,"is_disabled":false,"rental_uris":{"android":"levelo://app?vid=9eb509c7-473a-423c-bff1-95eb5d57d712","ios":"levelo://app?vid=9eb509c7-473a-423c-bff1-95eb5d57d712"},"vehicle_type_id":"4","last_reported":1736345321,"current_range_meters":16800,"station_id":"ce4bhsp2rcd13ifvqi50","pricing_plan_id":"cebpf4jnsgd1na2vs0mg"},{"bike_id":"87610480-9ba3-4347-902f-c64a1e1fcb8e","system_id":"levelo_inurba_marseille","lat":43.272,"lon":5.40975,"is_reserved":false,"is_disabled":false,"rental_uris":{"android":"levelo://app?vid=87610480-9ba3-4347-902f-c64a1e1fcb8e","ios":"levelo://app?vid=87610480-9ba3-4347-902f-c64a1e1fcb8e"},"vehicle_type_id":"4","last_reported":1736345321,"current_range_meters":6800,"station_id":"ce4bhl12rcd13ifvqgf0","pricing_plan_id":"cebpf4jnsgd1na2vs0mg"},{"bike_id":"9bc08367-0578-4066-804d-469c1c224792","system_id":"levelo_inurba_marseille","lat":43.32048,"lon":5.41533,"is_reserved":false,"is_disabled":false,"rental_uris":{"android":"levelo://app?vid=9bc08367-0578-4066-804d-469c1c224792","ios":"levelo://app?vid=9bc08367-0578-4066-804d-469c1c224792"},"vehicle_type_id":"4","last_reported":1736345321,"current_range_meters":21600,"station_id":"ce4bhq92rcd13ifvqhkg","pricing_plan_id":"cebpf4jnsgd1na2vs0mg"},{"bike_id":"49f71cfb-5f4f-4efd-8023-2c4eb676a391","system_id":"levelo_inurba_marseille","lat":43.24164,"lon":5.36392,"is_reserved":false,"is_disabled":false,"rental_uris":{"android":"levelo://app?vid=49f71cfb-5f4f-4efd-8023-2c4eb676a391","ios":"levelo://app?vid=49f71cfb-5f4f-4efd-8023-2c4eb676a391"},"vehicle_type_id":"4","last_reported":1736345321,"current_range_meters":37600,"station_id":"cpo36qri1sfpv3e86is0","pricing_plan_id":"cebpf4jnsgd1na2vs0mg"},{"bike_id":"af2e8650-89f3-43be-a92a-518992206236","system_id":"levelo_inurba_marseille","lat":43.30063,"lon":5.40142,"is_reserved":false,"is_disabled":false,"rental_uris":{"android":"levelo://app?vid=af2e8650-89f3-43be-a92a-518992206236","ios":"levelo://app?vid=af2e8650-89f3-43be-a92a-518992206236"},"vehicle_type_id":"4","last_reported":1736345321,"current_range_meters":28400,"station_id":"ce4bh192rcd13ifvqdc0","pricing_plan_id":"cebpf4jnsgd1na2vs0mg"},{"bike_id":"f9ab61fc-15b7-4f61-ad4f-0454a98fe7e4","system_id":"levelo_inurba_marseille","lat":43.30234,"lon":5.40443,"is_reserved":false,"is_disabled":false,"rental_uris":{"android":"levelo://app?vid=f9ab61fc-15b7-4f61-ad4f-0454a98fe7e4","ios":"levelo://app?vid=f9ab61fc-15b7-4f61-ad4f-0454a98fe7e4"},"vehicle_type_id":"4","last_reported":1736345321,"current_range_meters":36800,"station_id":"ce4bh092rcd13ifvqd20","pricing_plan_id":"cebpf4jnsgd1na2vs0mg"},{"bike_id":"d50e1a7b-567e-4e57-9447-0ff76c201b37","system_id":"levelo_inurba_marseille","lat":43.23893,"lon":5.4082,"is_reserved":false,"is_disabled":false,"rental_uris":{"android":"levelo://app?vid=d50e1a7b-567e-4e57-9447-0ff76c201b37","ios":"levelo://app?vid=d50e1a7b-567e-4e57-9447-0ff76c201b37"},"vehicle_type_id":"4","last_reported":1736345321,"current_range_meters":5600,"station_id":"ce4bhn12rcd13ifvqgqg","pricing_plan_id":"cebpf4jnsgd1na2vs0mg"},{"bike_id":"32db8ff0-d672-4be3-aaef-c1b191b690dd","system_id":"levelo_inurba_marseille","lat":43.30199,"lon":5.39475,"is_reserved":false,"is_disabled":false,"rental_uris":{"android":"levelo://app?vid=32db8ff0-d672-4be3-aaef-c1b191b690dd","ios":"levelo://app?vid=32db8ff0-d672-4be3-aaef-c1b191b690dd"},"vehicle_type_id":"4","last_reported":1736345321,"current_range_meters":6400,"station_id":"ce4bh0p2rcd13ifvqd70","pricing_plan_id":"cebpf4jnsgd1na2vs0mg"},{"bike_id":"b1c05a28-e862-4024-a61b-ab8d551b8107","system_id":"levelo_inurba_marseille","lat":43.33025,"lon":5.39035,"is_reserved":false,"is_disabled":false,"rental_uris":{"android":"levelo://app?vid=b1c05a28-e862-4024-a61b-ab8d551b8107","ios":"levelo://app?vid=b1c05a28-e862-4024-a61b-ab8d551b8107"},"vehicle_type_id":"4","last_reported":1736345321,"current_range_meters":38000,"station_id":"ce4bhr92rcd13ifvqhrg","pricing_plan_id":"cebpf4jnsgd1na2vs0mg"},{"bike_id":"2875f589-d481-436a-bcd9-732200485325","system_id":"levelo_inurba_marseille","lat":43.27931,"lon":5.41045,"is_reserved":false,"is_disabled":false,"rental_uris":{"android":"levelo://app?vid=2875f589-d481-436a-bcd9-732200485325","ios":"levelo://app?vid=2875f589-d481-436a-bcd9-732200485325"},"vehicle_type_id":"4","last_reported":1736345321,"current_range_meters":6000,"station_id":"ce4bhnp2rcd13ifvqh0g","pricing_plan_id":"cebpf4jnsgd1na2vs0mg"},{"bike_id":"bc972982-3f4a-4485-bc1a-a2f6afbb3b39","system_id":"levelo_inurba_marseille","lat":43.28628,"lon":5.35106,"is_reserved":false,"is_disabled":false,"rental_uris":{"android":"levelo://app?vid=bc972982-3f4a-4485-bc1a-a2f6afbb3b39","ios":"levelo://app?vid=bc972982-3f4a-4485-bc1a-a2f6afbb3b39"},"vehicle_type_id":"4","last_reported":1736345321,"current_range_meters":38800,"station_id":"ce4bhch2rcd13ifvqeug","pricing_plan_id":"cebpf4jnsgd1na2vs0mg"},{"bike_id":"1e2223a2-c032-49e7-8dbf-982df86a0520","system_id":"levelo_inurba_marseille","lat":43.229225,"lon":5.353769,"is_reserved":false,"is_disabled":false,"rental_uris":{"android":"levelo://app?vid=1e2223a2-c032-49e7-8dbf-982df86a0520","ios":"levelo://app?vid=1e2223a2-c032-49e7-8dbf-982df86a0520"},"vehicle_type_id":"4","last_reported":1736345321,"current_range_meters":2800,"station_id":"cpo3532slgdg3j2ikp40","pricing_plan_id":"cebpf4jnsgd1na2vs0mg"},{"bike_id":"da2b7539-b6a7-411c-ad87-54bbd95c18e3","system_id":"levelo_inurba_marseille","lat":43.29843,"lon":5.36271,"is_reserved":false,"is_disabled":false,"rental_uris":{"android":"levelo://app?vid=da2b7539-b6a7-411c-ad87-54bbd95c18e3","ios":"levelo://app?vid=da2b7539-b6a7-411c-ad87-54bbd95c18e3"},"vehicle_type_id":"4","last_reported":1736345321,"current_range_meters":38800,"station_id":"ce4bgpp2rcd13ifvqc3g","pricing_plan_id":"cebpf4jnsgd1na2vs0mg"},{"bike_id":"84e6bb33-6370-4f3e-b154-2fafdafe32e1","system_id":"levelo_inurba_marseille","lat":43.29226,"lon":5.36063,"is_reserved":false,"is_disabled":false,"rental_uris":{"android":"levelo://app?vid=84e6bb33-6370-4f3e-b154-2fafdafe32e1","ios":"levelo://app?vid=84e6bb33-6370-4f3e-b154-2fafdafe32e1"},"vehicle_type_id":"4","last_reported":1736345321,"current_range_meters":26800,"station_id":"ce4bhbh2rcd13ifvqeqg","pricing_plan_id":"cebpf4jnsgd1na2vs0mg"},{"bike_id":"8938c717-7214-4127-a5d5-13fbcb9a21ba","system_id":"levelo_inurba_marseille","lat":43.30131,"lon":5.37408,"is_reserved":false,"is_disabled":false,"rental_uris":{"android":"levelo://app?vid=8938c717-7214-4127-a5d5-13fbcb9a21ba","ios":"levelo://app?vid=8938c717-7214-4127-a5d5-13fbcb9a21ba"},"vehicle_type_id":"4","last_reported":1736345321,"current_range_meters":36800,"station_id":"ce4bgs92rcd13ifvqcc0","pricing_plan_id":"cebpf4jnsgd1na2vs0mg"},{"bike_id":"be8a233f-ad85-41b2-af03-bfa1e3033438","system_id":"levelo_inurba_marseille","lat":43.23194,"lon":5.35552,"is_reserved":false,"is_disabled":false,"rental_uris":{"android":"levelo://app?vid=be8a233f-ad85-41b2-af03-bfa1e3033438","ios":"levelo://app?vid=be8a233f-ad85-41b2-af03-bfa1e3033438"},"vehicle_type_id":"4","last_reported":1736345321,"current_range_meters":32000,"station_id":"ce4bhu92rcd13ifvqi70","pricing_plan_id":"cebpf4jnsgd1na2vs0mg"},{"bike_id":"d4c39540-2dd9-4661-83e7-b669725a8870","system_id":"levelo_inurba_marseille","lat":43.28863,"lon":5.35847,"is_reserved":false,"is_disabled":false,"rental_uris":{"android":"levelo://app?vid=d4c39540-2dd9-4661-83e7-b669725a8870","ios":"levelo://app?vid=d4c39540-2dd9-4661-83e7-b669725a8870"},"vehicle_type_id":"4","last_reported":1736345321,"current_range_meters":38800,"station_id":"ce4bhb12rcd13ifvqem0","pricing_plan_id":"cebpf4jnsgd1na2vs0mg"},{"bike_id":"76ecdb38-82f7-42f8-bc49-5c78f7245442","system_id":"levelo_inurba_marseille","lat":43.29619,"lon":5.37163,"is_reserved":false,"is_disabled":false,"rental_uris":{"android":"levelo://app?vid=76ecdb38-82f7-42f8-bc49-5c78f7245442","ios":"levelo://app?vid=76ecdb38-82f7-42f8-bc49-5c78f7245442"},"vehicle_type_id":"4","last_reported":1736345321,"current_range_meters":19200,"station_id":"ce4bgnh2rcd13ifvqc0g","pricing_plan_id":"cebpf4jnsgd1na2vs0mg"},{"bike_id":"65e45bc2-89fc-4f49-a256-2a9100c411cb","system_id":"levelo_inurba_marseille","lat":43.26793,"lon":5.3943,"is_reserved":false,"is_disabled":false,"rental_uris":{"android":"levelo://app?vid=65e45bc2-89fc-4f49-a256-2a9100c411cb","ios":"levelo://app?vid=65e45bc2-89fc-4f49-a256-2a9100c411cb"},"vehicle_type_id":"4","last_reported":1736345321,"current_range_meters":35600,"station_id":"ce4bhh12rcd13ifvqfg0","pricing_plan_id":"cebpf4jnsgd1na2vs0mg"},{"bike_id":"3caf1977-8cfc-4575-b1fb-e5818f60eacd","system_id":"levelo_inurba_marseille","lat":43.29603,"lon":5.37714,"is_reserved":false,"is_disabled":false,"rental_uris":{"android":"levelo://app?vid=3caf1977-8cfc-4575-b1fb-e5818f60eacd","ios":"levelo://app?vid=3caf1977-8cfc-4575-b1fb-e5818f60eacd"},"vehicle_type_id":"4","last_reported":1736345321,"current_range_meters":30000,"station_id":"ce4bgi92rcd13ifvqb90","pricing_plan_id":"cebpf4jnsgd1na2vs0mg"},{"bike_id":"261d6baa-6908-4873-ace6-dde103e05e90","system_id":"levelo_inurba_marseille","lat":43.28272,"lon":5.35068,"is_reserved":false,"is_disabled":false,"rental_uris":{"android":"levelo://app?vid=261d6baa-6908-4873-ace6-dde103e05e90","ios":"levelo://app?vid=261d6baa-6908-4873-ace6-dde103e05e90"},"vehicle_type_id":"4","last_reported":1736345321,"current_range_meters":39200,"station_id":"ce4bhbp2rcd13ifvqerg","pricing_plan_id":"cebpf4jnsgd1na2vs0mg"},{"bike_id":"ad29a801-54b6-4280-bc37-850eb1ef3f7e","system_id":"levelo_inurba_marseille","lat":43.30935,"lon":5.40142,"is_reserved":false,"is_disabled":false,"rental_uris":{"android":"levelo://app?vid=ad29a801-54b6-4280-bc37-850eb1ef3f7e","ios":"levelo://app?vid=ad29a801-54b6-4280-bc37-850eb1ef3f7e"},"vehicle_type_id":"4","last_reported":1736345321,"current_range_meters":30400,"station_id":"ce4bgvp2rcd13ifvqct0","pricing_plan_id":"cebpf4jnsgd1na2vs0mg"},{"bike_id":"0686a8cb-2b76-4424-87d1-4f58c91d61f2","system_id":"levelo_inurba_marseille","lat":43.2572,"lon":5.4111,"is_reserved":false,"is_disabled":false,"rental_uris":{"android":"levelo://app?vid=0686a8cb-2b76-4424-87d1-4f58c91d61f2","ios":"levelo://app?vid=0686a8cb-2b76-4424-87d1-4f58c91d61f2"},"vehicle_type_id":"4","last_reported":1736345321,"current_range_meters":39200,"station_id":"ce4bhkp2rcd13ifvqgd0","pricing_plan_id":"cebpf4jnsgd1na2vs0mg"},{"bike_id":"d4fc8643-d3b7-48d5-abd1-4bc91915ffb5","system_id":"levelo_inurba_marseille","lat":43.27668,"lon":5.38935,"is_reserved":false,"is_disabled":false,"rental_uris":{"android":"levelo://app?vid=d4fc8643-d3b7-48d5-abd1-4bc91915ffb5","ios":"levelo://app?vid=d4fc8643-d3b7-48d5-abd1-4bc91915ffb5"},"vehicle_type_id":"4","last_reported":1736345321,"current_range_meters":25600,"station_id":"ce4bhi12rcd13ifvqfo0","pricing_plan_id":"cebpf4jnsgd1na2vs0mg"},{"bike_id":"ad1dff91-2f95-4984-91ce-84be50678298","system_id":"levelo_inurba_marseille","lat":43.26197,"lon":5.37921,"is_reserved":false,"is_disabled":false,"rental_uris":{"android":"levelo://app?vid=ad1dff91-2f95-4984-91ce-84be50678298","ios":"levelo://app?vid=ad1dff91-2f95-4984-91ce-84be50678298"},"vehicle_type_id":"4","last_reported":1736345321,"current_range_meters":35600,"station_id":"ce4bhjp2rcd13ifvqg90","pricing_plan_id":"cebpf4jnsgd1na2vs0mg"},{"bike_id":"ea4674e0-f281-4aae-9aa6-c7db6df66339","system_id":"levelo_inurba_marseille","lat":43.29566,"lon":5.37527,"is_reserved":false,"is_disabled":false,"rental_uris":{"android":"levelo://app?vid=ea4674e0-f281-4aae-9aa6-c7db6df66339","ios":"levelo://app?vid=ea4674e0-f281-4aae-9aa6-c7db6df66339"},"vehicle_type_id":"4","last_reported":1736345321,"current_range_meters":37600,"station_id":"ce4bgh92rcd13ifvqb50","pricing_plan_id":"cebpf4jnsgd1na2vs0mg"},{"bike_id":"aa126130-1d49-459b-b987-cd03572c6689","system_id":"levelo_inurba_marseille","lat":43.2835,"lon":5.38112,"is_reserved":false,"is_disabled":false,"rental_uris":{"android":"levelo://app?vid=aa126130-1d49-459b-b987-cd03572c6689","ios":"levelo://app?vid=aa126130-1d49-459b-b987-cd03572c6689"},"vehicle_type_id":"4","last_reported":1736345321,"current_range_meters":28800,"station_id":"ce4bh412rcd13ifvqdr0","pricing_plan_id":"cebpf4jnsgd1na2vs0mg"},{"bike_id":"ad28bd53-1c8c-44ea-9a1c-1e5a5b2498fe","system_id":"levelo_inurba_marseille","lat":43.241769,"lon":5.363986,"is_reserved":false,"is_disabled":false,"rental_uris":{"android":"levelo://app?vid=ad28bd53-1c8c-44ea-9a1c-1e5a5b2498fe","ios":"levelo://app?vid=ad28bd53-1c8c-44ea-9a1c-1e5a5b2498fe"},"vehicle_type_id":"4","last_reported":1736345321,"current_range_meters":19200,"station_id":"cpo36qri1sfpv3e86is0","pricing_plan_id":"cebpf4jnsgd1na2vs0mg"},{"bike_id":"247347ad-5bef-4bd7-b4b8-b4f9435b48aa","system_id":"levelo_inurba_marseille","lat":43.27054,"lon":5.40274,"is_reserved":false,"is_disabled":false,"rental_uris":{"android":"levelo://app?vid=247347ad-5bef-4bd7-b4b8-b4f9435b48aa","ios":"levelo://app?vid=247347ad-5bef-4bd7-b4b8-b4f9435b48aa"},"vehicle_type_id":"4","last_reported":1736345321,"current_range_meters":38800,"station_id":"ce4bhk92rcd13ifvqgc0","pricing_plan_id":"cebpf4jnsgd1na2vs0mg"},{"bike_id":"c8ebe7df-006f-4929-bdb9-97e0f784e301","system_id":"levelo_inurba_marseille","lat":43.29578,"lon":5.3674,"is_reserved":false,"is_disabled":false,"rental_uris":{"android":"levelo://app?vid=c8ebe7df-006f-4929-bdb9-97e0f784e301","ios":"levelo://app?vid=c8ebe7df-006f-4929-bdb9-97e0f784e301"},"vehicle_type_id":"4","last_reported":1736345321,"current_range_meters":39200,"station_id":"ce4bgph2rcd13ifvqc2g","pricing_plan_id":"cebpf4jnsgd1na2vs0mg"},{"bike_id":"dd2ed07d-aacc-4042-92e9-f341e7758bb3","system_id":"levelo_inurba_marseille","lat":43.26681,"lon":5.38266,"is_reserved":false,"is_disabled":false,"rental_uris":{"android":"levelo://app?vid=dd2ed07d-aacc-4042-92e9-f341e7758bb3","ios":"levelo://app?vid=dd2ed07d-aacc-4042-92e9-f341e7758bb3"},"vehicle_type_id":"4","last_reported":1736345321,"current_range_meters":34000,"station_id":"ce4bhg92rcd13ifvqf90","pricing_plan_id":"cebpf4jnsgd1na2vs0mg"},{"bike_id":"259cf233-df96-4c1f-976b-8c0c69ce55d0","system_id":"levelo_inurba_marseille","lat":43.2741,"lon":5.39414,"is_reserved":false,"is_disabled":false,"rental_uris":{"android":"levelo://app?vid=259cf233-df96-4c1f-976b-8c0c69ce55d0","ios":"levelo://app?vid=259cf233-df96-4c1f-976b-8c0c69ce55d0"},"vehicle_type_id":"4","last_reported":1736345321,"current_range_meters":21600,"station_id":"ce4bhdp2rcd13ifvqf20","pricing_plan_id":"cebpf4jnsgd1na2vs0mg"},{"bike_id":"cecb496a-19a6-4ad5-b31b-eac3846b2c8c","system_id":"levelo_inurba_marseille","lat":43.29372,"lon":5.37856,"is_reserved":false,"is_disabled":true,"rental_uris":{"android":"levelo://app?vid=cecb496a-19a6-4ad5-b31b-eac3846b2c8c","ios":"levelo://app?vid=cecb496a-19a6-4ad5-b31b-eac3846b2c8c"},"vehicle_type_id":"4","last_reported":1736345321,"current_range_meters":3200,"station_id":"ce4bgjh2rcd13ifvqbf0","pricing_plan_id":"cebpf4jnsgd1na2vs0mg"},{"bike_id":"5a6646f5-bf81-40ee-8a07-244a7035ee8f","system_id":"levelo_inurba_marseille","lat":43.2827,"lon":5.35092,"is_reserved":false,"is_disabled":false,"rental_uris":{"android":"levelo://app?vid=5a6646f5-bf81-40ee-8a07-244a7035ee8f","ios":"levelo://app?vid=5a6646f5-bf81-40ee-8a07-244a7035ee8f"},"vehicle_type_id":"4","last_reported":1736345321,"current_range_meters":39200,"station_id":"ce4bhbp2rcd13ifvqerg","pricing_plan_id":"cebpf4jnsgd1na2vs0mg"},{"bike_id":"addea89a-741d-4d75-ae5f-fc8a069a825b","system_id":"levelo_inurba_marseille","lat":43.30599,"lon":5.39356,"is_reserved":false,"is_disabled":true,"rental_uris":{"android":"levelo://app?vid=addea89a-741d-4d75-ae5f-fc8a069a825b","ios":"levelo://app?vid=addea89a-741d-4d75-ae5f-fc8a069a825b"},"vehicle_type_id":"4","last_reported":1736345321,"current_range_meters":1600,"station_id":"ce4bh0p2rcd13ifvqd80","pricing_plan_id":"cebpf4jnsgd1na2vs0mg"},{"bike_id":"606c5c4b-0be2-4e18-bcc7-d742618831cf","system_id":"levelo_inurba_marseille","lat":43.28428,"lon":5.39195,"is_reserved":false,"is_disabled":false,"rental_uris":{"android":"levelo://app?vid=606c5c4b-0be2-4e18-bcc7-d742618831cf","ios":"levelo://app?vid=606c5c4b-0be2-4e18-bcc7-d742618831cf"},"vehicle_type_id":"4","last_reported":1736345321,"current_range_meters":39200,"station_id":"ce4bhoh2rcd13ifvqh5g","pricing_plan_id":"cebpf4jnsgd1na2vs0mg"},{"bike_id":"867b2724-173e-4935-9078-e499308ce82e","system_id":"levelo_inurba_marseille","lat":43.27375,"lon":5.36251,"is_reserved":false,"is_disabled":false,"rental_uris":{"android":"levelo://app?vid=867b2724-173e-4935-9078-e499308ce82e","ios":"levelo://app?vid=867b2724-173e-4935-9078-e499308ce82e"},"vehicle_type_id":"4","last_reported":1736345321,"current_range_meters":34000,"station_id":"ce4bhbh2rcd13ifvqeo0","pricing_plan_id":"cebpf4jnsgd1na2vs0mg"},{"bike_id":"62ebd551-4014-4c16-b6b8-616f8fce73ef","system_id":"levelo_inurba_marseille","lat":43.30899,"lon":5.36838,"is_reserved":false,"is_disabled":false,"rental_uris":{"android":"levelo://app?vid=62ebd551-4014-4c16-b6b8-616f8fce73ef","ios":"levelo://app?vid=62ebd551-4014-4c16-b6b8-616f8fce73ef"},"vehicle_type_id":"4","last_reported":1736345321,"current_range_meters":38800,"station_id":"ce4bgn92rcd13ifvqbvg","pricing_plan_id":"cebpf4jnsgd1na2vs0mg"},{"bike_id":"810c6277-541a-4f23-83ba-d742513eac84","system_id":"levelo_inurba_marseille","lat":43.29971,"lon":5.37172,"is_reserved":false,"is_disabled":false,"rental_uris":{"android":"levelo://app?vid=810c6277-541a-4f23-83ba-d742513eac84","ios":"levelo://app?vid=810c6277-541a-4f23-83ba-d742513eac84"},"vehicle_type_id":"4","last_reported":1736345321,"current_range_meters":7200,"station_id":"ce4bgr92rcd13ifvqc7g","pricing_plan_id":"cebpf4jnsgd1na2vs0mg"},{"bike_id":"babfa938-4d9d-46c5-9949-5dd894d221bb","system_id":"levelo_inurba_marseille","lat":43.30179,"lon":5.36617,"is_reserved":false,"is_disabled":false,"rental_uris":{"android":"levelo://app?vid=babfa938-4d9d-46c5-9949-5dd894d221bb","ios":"levelo://app?vid=babfa938-4d9d-46c5-9949-5dd894d221bb"},"vehicle_type_id":"4","last_reported":1736345321,"current_range_meters":39200,"station_id":"ce4bgrh2rcd13ifvqc8g","pricing_plan_id":"cebpf4jnsgd1na2vs0mg"},{"bike_id":"91168b82-bb96-4f7f-86f4-dfc392532eeb","system_id":"levelo_inurba_marseille","lat":43.30872,"lon":5.39652,"is_reserved":false,"is_disabled":false,"rental_uris":{"android":"levelo://app?vid=91168b82-bb96-4f7f-86f4-dfc392532eeb","ios":"levelo://app?vid=91168b82-bb96-4f7f-86f4-dfc392532eeb"},"vehicle_type_id":"4","last_reported":1736345321,"current_range_meters":8800,"station_id":"ce4bh012rcd13ifvqcv0","pricing_plan_id":"cebpf4jnsgd1na2vs0mg"},{"bike_id":"4a8da2ba-676b-4202-95a6-d547f915e48e","system_id":"levelo_inurba_marseille","lat":43.32275,"lon":5.38339,"is_reserved":false,"is_disabled":false,"rental_uris":{"android":"levelo://app?vid=4a8da2ba-676b-4202-95a6-d547f915e48e","ios":"levelo://app?vid=4a8da2ba-676b-4202-95a6-d547f915e48e"},"vehicle_type_id":"4","last_reported":1736345321,"current_range_meters":38800,"station_id":"ce4bhr12rcd13ifvqhqg","pricing_plan_id":"cebpf4jnsgd1na2vs0mg"},{"bike_id":"e1c96e15-8c1f-44db-bd4b-d97fe47974bb","system_id":"levelo_inurba_marseille","lat":43.28623,"lon":5.351,"is_reserved":false,"is_disabled":false,"rental_uris":{"android":"levelo://app?vid=e1c96e15-8c1f-44db-bd4b-d97fe47974bb","ios":"levelo://app?vid=e1c96e15-8c1f-44db-bd4b-d97fe47974bb"},"vehicle_type_id":"4","last_reported":1736345321,"current_range_meters":38400,"station_id":"ce4bhch2rcd13ifvqeug","pricing_plan_id":"cebpf4jnsgd1na2vs0mg"},{"bike_id":"4978e809-d8c7-4267-a4c4-901e880136b2","system_id":"levelo_inurba_marseille","lat":43.2903,"lon":5.37575,"is_reserved":false,"is_disabled":false,"rental_uris":{"android":"levelo://app?vid=4978e809-d8c7-4267-a4c4-901e880136b2","ios":"levelo://app?vid=4978e809-d8c7-4267-a4c4-901e880136b2"},"vehicle_type_id":"4","last_reported":1736345321,"current_range_meters":30400,"station_id":"ce4bh692rcd13ifvqe90","pricing_plan_id":"cebpf4jnsgd1na2vs0mg"},{"bike_id":"ae57f230-ec9d-44b0-ad5b-3ee6d1ca4574","system_id":"levelo_inurba_marseille","lat":43.27075,"lon":5.40269,"is_reserved":false,"is_disabled":false,"rental_uris":{"android":"levelo://app?vid=ae57f230-ec9d-44b0-ad5b-3ee6d1ca4574","ios":"levelo://app?vid=ae57f230-ec9d-44b0-ad5b-3ee6d1ca4574"},"vehicle_type_id":"4","last_reported":1736345321,"current_range_meters":38400,"station_id":"ce4bhk92rcd13ifvqgc0","pricing_plan_id":"cebpf4jnsgd1na2vs0mg"},{"bike_id":"49d277ba-0922-4374-b1f9-02e2b78e2606","system_id":"levelo_inurba_marseille","lat":43.28699,"lon":5.37382,"is_reserved":false,"is_disabled":false,"rental_uris":{"android":"levelo://app?vid=49d277ba-0922-4374-b1f9-02e2b78e2606","ios":"levelo://app?vid=49d277ba-0922-4374-b1f9-02e2b78e2606"},"vehicle_type_id":"4","last_reported":1736345321,"current_range_meters":9200,"station_id":"ce4bh3p2rcd13ifvqdq0","pricing_plan_id":"cebpf4jnsgd1na2vs0mg"},{"bike_id":"51319175-ee32-4a41-9e56-3d7d71a16d4b","system_id":"levelo_inurba_marseille","lat":43.2704,"lon":5.40277,"is_reserved":false,"is_disabled":false,"rental_uris":{"android":"levelo://app?vid=51319175-ee32-4a41-9e56-3d7d71a16d4b","ios":"levelo://app?vid=51319175-ee32-4a41-9e56-3d7d71a16d4b"},"vehicle_type_id":"4","last_reported":1736345321,"current_range_meters":16400,"station_id":"ce4bhk92rcd13ifvqgc0","pricing_plan_id":"cebpf4jnsgd1na2vs0mg"},{"bike_id":"7bc5649e-6bf9-44e0-81e0-4779df803f45","system_id":"levelo_inurba_marseille","lat":43.28158,"lon":5.42635,"is_reserved":false,"is_disabled":true,"rental_uris":{"android":"levelo://app?vid=7bc5649e-6bf9-44e0-81e0-4779df803f45","ios":"levelo://app?vid=7bc5649e-6bf9-44e0-81e0-4779df803f45"},"vehicle_type_id":"4","last_reported":1736345321,"current_range_meters":400,"station_id":"ce4bhnh2rcd13ifvqgug","pricing_plan_id":"cebpf4jnsgd1na2vs0mg"},{"bike_id":"5550e6eb-fc8f-4045-babf-d4d3c96d7d71","system_id":"levelo_inurba_marseille","lat":43.289363,"lon":5.366417,"is_reserved":false,"is_disabled":false,"rental_uris":{"android":"levelo://app?vid=5550e6eb-fc8f-4045-babf-d4d3c96d7d71","ios":"levelo://app?vid=5550e6eb-fc8f-4045-babf-d4d3c96d7d71"},"vehicle_type_id":"4","last_reported":1736345321,"current_range_meters":34000,"station_id":"ce4bhap2rcd13ifvqek0","pricing_plan_id":"cebpf4jnsgd1na2vs0mg"},{"bike_id":"77140e92-43d3-4e9c-b1bf-1a7db1513194","system_id":"levelo_inurba_marseille","lat":43.27814,"lon":5.40712,"is_reserved":false,"is_disabled":false,"rental_uris":{"android":"levelo://app?vid=77140e92-43d3-4e9c-b1bf-1a7db1513194","ios":"levelo://app?vid=77140e92-43d3-4e9c-b1bf-1a7db1513194"},"vehicle_type_id":"4","last_reported":1736345321,"current_range_meters":38000,"station_id":"ce4bhnh2rcd13ifvqgtg","pricing_plan_id":"cebpf4jnsgd1na2vs0mg"},{"bike_id":"5a7ea273-101c-49dc-8390-c50e7932c2cb","system_id":"levelo_inurba_marseille","lat":43.2953,"lon":5.38538,"is_reserved":false,"is_disabled":false,"rental_uris":{"android":"levelo://app?vid=5a7ea273-101c-49dc-8390-c50e7932c2cb","ios":"levelo://app?vid=5a7ea273-101c-49dc-8390-c50e7932c2cb"},"vehicle_type_id":"4","last_reported":1736345321,"current_range_meters":7200,"station_id":"ce4bgih2rcd13ifvqba0","pricing_plan_id":"cebpf4jnsgd1na2vs0mg"},{"bike_id":"9f734721-07c4-4fb6-b677-9abc357155bb","system_id":"levelo_inurba_marseille","lat":43.29195,"lon":5.35805,"is_reserved":false,"is_disabled":false,"rental_uris":{"android":"levelo://app?vid=9f734721-07c4-4fb6-b677-9abc357155bb","ios":"levelo://app?vid=9f734721-07c4-4fb6-b677-9abc357155bb"},"vehicle_type_id":"4","last_reported":1736345321,"current_range_meters":30400,"station_id":"ce4bhb12rcd13ifvqel0","pricing_plan_id":"cebpf4jnsgd1na2vs0mg"},{"bike_id":"0ce73ae1-b154-43da-a4ed-8140bf82ff61","system_id":"levelo_inurba_marseille","lat":43.28604,"lon":5.35108,"is_reserved":false,"is_disabled":true,"rental_uris":{"android":"levelo://app?vid=0ce73ae1-b154-43da-a4ed-8140bf82ff61","ios":"levelo://app?vid=0ce73ae1-b154-43da-a4ed-8140bf82ff61"},"vehicle_type_id":"4","last_reported":1736345321,"current_range_meters":0,"station_id":"ce4bhch2rcd13ifvqeug","pricing_plan_id":"cebpf4jnsgd1na2vs0mg"},{"bike_id":"7973c7b4-cbca-4618-8594-095c39cd0d3c","system_id":"levelo_inurba_marseille","lat":43.30159,"lon":5.37402,"is_reserved":false,"is_disabled":false,"rental_uris":{"android":"levelo://app?vid=7973c7b4-cbca-4618-8594-095c39cd0d3c","ios":"levelo://app?vid=7973c7b4-cbca-4618-8594-095c39cd0d3c"},"vehicle_type_id":"4","last_reported":1736345321,"current_range_meters":34000,"station_id":"ce4bgs92rcd13ifvqcc0","pricing_plan_id":"cebpf4jnsgd1na2vs0mg"},{"bike_id":"fc16b4ca-3f6b-4afa-92ce-20d3d57aa176","system_id":"levelo_inurba_marseille","lat":43.24548,"lon":5.39524,"is_reserved":false,"is_disabled":false,"rental_uris":{"android":"levelo://app?vid=fc16b4ca-3f6b-4afa-92ce-20d3d57aa176","ios":"levelo://app?vid=fc16b4ca-3f6b-4afa-92ce-20d3d57aa176"},"vehicle_type_id":"4","last_reported":1736345321,"current_range_meters":36800,"station_id":"ce4bhlp2rcd13ifvqgjg","pricing_plan_id":"cebpf4jnsgd1na2vs0mg"},{"bike_id":"2087c673-8bc9-4b01-b827-0ee077a6c1a0","system_id":"levelo_inurba_marseille","lat":43.26192,"lon":5.37451,"is_reserved":false,"is_disabled":false,"rental_uris":{"android":"levelo://app?vid=2087c673-8bc9-4b01-b827-0ee077a6c1a0","ios":"levelo://app?vid=2087c673-8bc9-4b01-b827-0ee077a6c1a0"},"vehicle_type_id":"4","last_reported":1736345321,"current_range_meters":29600,"station_id":"ce4bhgp2rcd13ifvqfc0","pricing_plan_id":"cebpf4jnsgd1na2vs0mg"},{"bike_id":"8a3e6b18-2c2b-49ca-9f0a-506d1fa5a0a1","system_id":"levelo_inurba_marseille","lat":43.27555,"lon":5.38427,"is_reserved":false,"is_disabled":false,"rental_uris":{"android":"levelo://app?vid=8a3e6b18-2c2b-49ca-9f0a-506d1fa5a0a1","ios":"levelo://app?vid=8a3e6b18-2c2b-49ca-9f0a-506d1fa5a0a1"},"vehicle_type_id":"4","last_reported":1736345321,"current_range_meters":38800,"station_id":"ce4bhh92rcd13ifvqfi0","pricing_plan_id":"cebpf4jnsgd1na2vs0mg"},{"bike_id":"0143c133-b09a-49cc-809a-e579db831270","system_id":"levelo_inurba_marseille","lat":43.33603,"lon":5.41015,"is_reserved":false,"is_disabled":false,"rental_uris":{"android":"levelo://app?vid=0143c133-b09a-49cc-809a-e579db831270","ios":"levelo://app?vid=0143c133-b09a-49cc-809a-e579db831270"},"vehicle_type_id":"4","last_reported":1736345321,"current_range_meters":9600,"station_id":"ce4bhqh2rcd13ifvqhmg","pricing_plan_id":"cebpf4jnsgd1na2vs0mg"},{"bike_id":"7efd9a29-bdb7-4a0d-b17b-bc969e3a323b","system_id":"levelo_inurba_marseille","lat":43.25122,"lon":5.40309,"is_reserved":false,"is_disabled":false,"rental_uris":{"android":"levelo://app?vid=7efd9a29-bdb7-4a0d-b17b-bc969e3a323b","ios":"levelo://app?vid=7efd9a29-bdb7-4a0d-b17b-bc969e3a323b"},"vehicle_type_id":"4","last_reported":1736345321,"current_range_meters":27600,"station_id":"ce4bhlh2rcd13ifvqgig","pricing_plan_id":"cebpf4jnsgd1na2vs0mg"},{"bike_id":"c2a7d9e7-4327-4946-89c8-36c870c045a8","system_id":"levelo_inurba_marseille","lat":43.25927,"lon":5.40909,"is_reserved":false,"is_disabled":false,"rental_uris":{"android":"levelo://app?vid=c2a7d9e7-4327-4946-89c8-36c870c045a8","ios":"levelo://app?vid=c2a7d9e7-4327-4946-89c8-36c870c045a8"},"vehicle_type_id":"4","last_reported":1736345321,"current_range_meters":28800,"station_id":"ce4bhm92rcd13ifvqglg","pricing_plan_id":"cebpf4jnsgd1na2vs0mg"},{"bike_id":"fcade257-fc20-472f-8ff4-276625e58c40","system_id":"levelo_inurba_marseille","lat":43.29788,"lon":5.38095,"is_reserved":false,"is_disabled":false,"rental_uris":{"android":"levelo://app?vid=fcade257-fc20-472f-8ff4-276625e58c40","ios":"levelo://app?vid=fcade257-fc20-472f-8ff4-276625e58c40"},"vehicle_type_id":"4","last_reported":1736345321,"current_range_meters":39200,"station_id":"ce4bgip2rcd13ifvqbb0","pricing_plan_id":"cebpf4jnsgd1na2vs0mg"},{"bike_id":"665b4a83-1cf1-4acf-a485-ea7ef1f886b5","system_id":"levelo_inurba_marseille","lat":43.31225,"lon":5.36871,"is_reserved":false,"is_disabled":false,"rental_uris":{"android":"levelo://app?vid=665b4a83-1cf1-4acf-a485-ea7ef1f886b5","ios":"levelo://app?vid=665b4a83-1cf1-4acf-a485-ea7ef1f886b5"},"vehicle_type_id":"4","last_reported":1736345321,"current_range_meters":37600,"station_id":"ce4bgl92rcd13ifvqbq0","pricing_plan_id":"cebpf4jnsgd1na2vs0mg"},{"bike_id":"e2fa12c3-0e28-48d2-9654-83e1d589653f","system_id":"levelo_inurba_marseille","lat":43.25018,"lon":5.38922,"is_reserved":false,"is_disabled":true,"rental_uris":{"android":"levelo://app?vid=e2fa12c3-0e28-48d2-9654-83e1d589653f","ios":"levelo://app?vid=e2fa12c3-0e28-48d2-9654-83e1d589653f"},"vehicle_type_id":"4","last_reported":1736345321,"current_range_meters":0,"station_id":"ce4bhgp2rcd13ifvqfd0","pricing_plan_id":"cebpf4jnsgd1na2vs0mg"},{"bike_id":"a4d7b06f-0155-453e-b9a8-e50fcab29809","system_id":"levelo_inurba_marseille","lat":43.28364,"lon":5.38095,"is_reserved":false,"is_disabled":false,"rental_uris":{"android":"levelo://app?vid=a4d7b06f-0155-453e-b9a8-e50fcab29809","ios":"levelo://app?vid=a4d7b06f-0155-453e-b9a8-e50fcab29809"},"vehicle_type_id":"4","last_reported":1736345321,"current_range_meters":39200,"station_id":"ce4bh412rcd13ifvqdr0","pricing_plan_id":"cebpf4jnsgd1na2vs0mg"},{"bike_id":"c9a9b866-78de-4142-b4b0-d265a4ec9669","system_id":"levelo_inurba_marseille","lat":43.29819,"lon":5.43718,"is_reserved":false,"is_disabled":false,"rental_uris":{"android":"levelo://app?vid=c9a9b866-78de-4142-b4b0-d265a4ec9669","ios":"levelo://app?vid=c9a9b866-78de-4142-b4b0-d265a4ec9669"},"vehicle_type_id":"4","last_reported":1736345321,"current_range_meters":16800,"station_id":"","pricing_plan_id":"cebpf4jnsgd1na2vs0mg"},{"bike_id":"cd8984d3-85d3-4513-8f65-61eadd0f2c9c","system_id":"levelo_inurba_marseille","lat":43.28157,"lon":5.42654,"is_reserved":false,"is_disabled":false,"rental_uris":{"android":"levelo://app?vid=cd8984d3-85d3-4513-8f65-61eadd0f2c9c","ios":"levelo://app?vid=cd8984d3-85d3-4513-8f65-61eadd0f2c9c"},"vehicle_type_id":"4","last_reported":1736345321,"current_range_meters":18800,"station_id":"ce4bhnh2rcd13ifvqgug","pricing_plan_id":"cebpf4jnsgd1na2vs0mg"},{"bike_id":"9ecf8cc8-0420-4573-b501-de1b7a79ed9f","system_id":"levelo_inurba_marseille","lat":43.294198,"lon":5.386195,"is_reserved":false,"is_disabled":false,"rental_uris":{"android":"levelo://app?vid=9ecf8cc8-0420-4573-b501-de1b7a79ed9f","ios":"levelo://app?vid=9ecf8cc8-0420-4573-b501-de1b7a79ed9f"},"vehicle_type_id":"4","last_reported":1736345321,"current_range_meters":20800,"station_id":"ce4bh2h2rcd13ifvqdh0","pricing_plan_id":"cebpf4jnsgd1na2vs0mg"},{"bike_id":"42a24792-46dc-4349-b71a-2934b3062705","system_id":"levelo_inurba_marseille","lat":43.25922,"lon":5.40878,"is_reserved":false,"is_disabled":false,"rental_uris":{"android":"levelo://app?vid=42a24792-46dc-4349-b71a-2934b3062705","ios":"levelo://app?vid=42a24792-46dc-4349-b71a-2934b3062705"},"vehicle_type_id":"4","last_reported":1736345321,"current_range_meters":34000,"station_id":"ce4bhm92rcd13ifvqglg","pricing_plan_id":"cebpf4jnsgd1na2vs0mg"},{"bike_id":"c833d07d-e828-4a83-a675-76086963257a","system_id":"levelo_inurba_marseille","lat":43.24553,"lon":5.39534,"is_reserved":false,"is_disabled":false,"rental_uris":{"android":"levelo://app?vid=c833d07d-e828-4a83-a675-76086963257a","ios":"levelo://app?vid=c833d07d-e828-4a83-a675-76086963257a"},"vehicle_type_id":"4","last_reported":1736345321,"current_range_meters":38800,"station_id":"ce4bhlp2rcd13ifvqgjg","pricing_plan_id":"cebpf4jnsgd1na2vs0mg"},{"bike_id":"de0ce031-e8b3-4d07-ae0d-d807203f3e72","system_id":"levelo_inurba_marseille","lat":43.26197,"lon":5.37931,"is_reserved":false,"is_disabled":false,"rental_uris":{"android":"levelo://app?vid=de0ce031-e8b3-4d07-ae0d-d807203f3e72","ios":"levelo://app?vid=de0ce031-e8b3-4d07-ae0d-d807203f3e72"},"vehicle_type_id":"4","last_reported":1736345321,"current_range_meters":11600,"station_id":"ce4bhjp2rcd13ifvqg90","pricing_plan_id":"cebpf4jnsgd1na2vs0mg"},{"bike_id":"ed135d08-a3e4-474d-be32-58c07b77f210","system_id":"levelo_inurba_marseille","lat":43.27609,"lon":5.36112,"is_reserved":false,"is_disabled":false,"rental_uris":{"android":"levelo://app?vid=ed135d08-a3e4-474d-be32-58c07b77f210","ios":"levelo://app?vid=ed135d08-a3e4-474d-be32-58c07b77f210"},"vehicle_type_id":"4","last_reported":1736345321,"current_range_meters":8000,"station_id":"ce4bgj92rcd13ifvqbe0","pricing_plan_id":"cebpf4jnsgd1na2vs0mg"},