{"last_updated":1753110755,"ttl":60,"version":"2.2","data":{"bikes":[{"bike_id":"53b742a7-31ae-4272-9bba-7740339e2a2f","system_id":"levelo_inurba_marseille","lat":43.33747,"lon":5.37463,"is_reserved":false,"is_disabled":false,"rental_uris":{"android":"levelo://app?vid=53b742a7-31ae-4272-9bba-7740339e2a2f","ios":"levelo://app?vid=53b742a7-31ae-4272-9bba-7740339e2a2f"},"vehicle_type_id":"1","last_reported":1753110755,"current_range_meters":6000,"station_id":"","pricing_plan_id":"cebpf4jnsgd1na2vs0mg"},{"bike_id":"433415c1-acea-4306-b3ad-c55437db8988","system_id":"levelo_inurba_marseille","lat":43.2951,"lon":5.38191,"is_reserved":false,"is_disabled":false,"rental_uris":{"android":"levelo://app?vid=433415c1-acea-4306-b3ad-c55437db8988","ios":"levelo://app?vid=433415c1-acea-4306-b3ad-c55437db8988"},"vehicle_type_id":"4","last_reported":1753110755,"current_range_meters":3200,"station_id":"","pricing_plan_id":"cebpf4jnsgd1na2vs0mg"},{"bike_id":"ac141403-2eff-454e-8bd1-3d400d40ed2b","system_id":"levelo_inurba_marseille","lat":43.33125,"lon":5.40016,"is_reserved":false,"is_disabled":false,"rental_uris":{"android":"levelo://app?vid=ac141403-2eff-454e-8bd1-3d400d40ed2b","ios":"levelo://app?vid=ac141403-2eff-454e-8bd1-3d400d40ed2b"},"vehicle_type_id":"4","last_reported":1753110755,"current_range_meters":3200,"station_id":"","pricing_plan_id":"cebpf4jnsgd1na2vs0mg"},{"bike_id":"192c0fa5-c826-4847-bdd0-11edb7180ff9","system_id":"levelo_inurba_marseille","lat":43.30662,"lon":5.40087,"is_reserved":false,"is_disabled":true,"rental_uris":{"android":"levelo://app?vid=192c0fa5-c826-4847-bdd0-11edb7180ff9","ios":"levelo://app?vid=192c0fa5-c826-4847-bdd0-11edb7180ff9"},"vehicle_type_id":"4","last_reported":1753110755,"current_range_meters":3200,"station_id":"ce4bh112rcd13ifvqda0","pricing_plan_id":"cebpf4jnsgd1na2vs0mg"},{"bike_id":"5b32c865-0c7c-430e-822b-933956ec5443","system_id":"levelo_inurba_marseille","lat":43.27375,"lon":5.3626,"is_reserved":false,"is_disabled":false,"rental_uris":{"android":"levelo://app?vid=5b32c865-0c7c-430e-822b-933956ec5443","ios":"levelo://app?vid=5b32c865-0c7c-430e-822b-933956ec5443"},"vehicle_type_id":"4","last_reported":1753110755,"current_range_meters":3600,"station_id":"ce4bhbh2rcd13ifvqeo0","pricing_plan_id":"cebpf4jnsgd1na2vs0mg"},{"bike_id":"78d017cc-ddfa-49ba-9ef0-9355b5a69c32","system_id":"levelo_inurba_marseille","lat":43.31721,"lon":5.43697,"is_reserved":false,"is_disabled":false,"rental_uris":{"android":"levelo://app?vid=78d017cc-ddfa-49ba-9ef0-9355b5a69c32","ios":"levelo://app?vid=78d017cc-ddfa-49ba-9ef0-9355b5a69c32"},"vehicle_type_id":"4","last_reported":1753110755,"current_range_meters":3600,"station_id":"ce4bhp92rcd13ifvqhcg","pricing_plan_id":"cebpf4jnsgd1na2vs0mg"},{"bike_id":"63ca6fe6-1543-41fc-a295-bfaefe44c43d","system_id":"levelo_inurba_marseille","lat":43.30605,"lon":5.37232,"is_reserved":false,"is_disabled":false,"rental_uris":{"android":"levelo://app?vid=63ca6fe6-1543-41fc-a295-bfaefe44c43d","ios":"levelo://app?vid=63ca6fe6-1543-41fc-a295-bfaefe44c43d"},"vehicle_type_id":"4","last_reported":1753110755,"current_range_meters":4000,"station_id":"ce4bgqh2rcd13ifvqc4g","pricing_plan_id":"cebpf4jnsgd1na2vs0mg"},{"bike_id":"ea1a6282-ab65-41dd-bc5f-3d5a6c023285","system_id":"levelo_inurba_marseille","lat":43.29267,"lon":5.37638,"is_reserved":false,"is_disabled":false,"rental_uris":{"android":"levelo://app?vid=ea1a6282-ab65-41dd-bc5f-3d5a6c023285","ios":"levelo://app?vid=ea1a6282-ab65-41dd-bc5f-3d5a6c023285"},"vehicle_type_id":"4","last_reported":1753110755,"current_range_meters":4000,"station_id":"ce4bgi12rcd13ifvqb80","pricing_plan_id":"cebpf4jnsgd1na2vs0mg"},{"bike_id":"daf457d6-f08e-48eb-894b-d3818271e4b6","system_id":"levelo_inurba_marseille","lat":43.23186,"lon":5.3998,"is_reserved":false,"is_disabled":false,"rental_uris":{"android":"levelo://app?vid=daf457d6-f08e-48eb-894b-d3818271e4b6","ios":"levelo://app?vid=daf457d6-f08e-48eb-894b-d3818271e4b6"},"vehicle_type_id":"4","last_reported":1753110755,"current_range_meters":4400,"station_id":"ce4bhn12rcd13ifvqgqg","pricing_plan_id":"cebpf4jnsgd1na2vs0mg"},{"bike_id":"7c2d0368-c695-4314-bd98-6bcd33bdb47f","system_id":"levelo_inurba_marseille","lat":43.26555,"lon":5.37286,"is_reserved":false,"is_disabled":false,"rental_uris":{"android":"levelo://app?vid=7c2d0368-c695-4314-bd98-6bcd33bdb47f","ios":"levelo://app?vid=7c2d0368-c695-4314-bd98-6bcd33bdb47f"},"vehicle_type_id":"4","last_reported":1753110755,"current_range_meters":4400,"station_id":"ce4bhg12rcd13ifvqf70","pricing_plan_id":"cebpf4jnsgd1na2vs0mg"},{"bike_id":"0fd02cf6-67fb-4589-807f-241dd50b7e1a","system_id":"levelo_inurba_marseille","lat":43.29916,"lon":5.43658,"is_reserved":false,"is_disabled":true,"rental_uris":{"android":"levelo://app?vid=0fd02cf6-67fb-4589-807f-241dd50b7e1a","ios":"levelo://app?vid=0fd02cf6-67fb-4589-807f-241dd50b7e1a"},"vehicle_type_id":"4","last_reported":1753110755,"current_range_meters":4800,"station_id":"ce4bhpp2rcd13ifvqhfg","pricing_plan_id":"cebpf4jnsgd1na2vs0mg"},{"bike_id":"e4f86cb4-7f62-49ce-ae1c-bfae213ed2b1","system_id":"levelo_inurba_marseille","lat":43.31757,"lon":5.39021,"is_reserved":false,"is_disabled":false,"rental_uris":{"android":"levelo://app?vid=e4f86cb4-7f62-49ce-ae1c-bfae213ed2b1","ios":"levelo://app?vid=e4f86cb4-7f62-49ce-ae1c-bfae213ed2b1"},"vehicle_type_id":"4","last_reported":1753110755,"current_range_meters":4800,"station_id":"ce4bhqp2rcd13ifvqhng","pricing_plan_id":"cebpf4jnsgd1na2vs0mg"},{"bike_id":"4051bfd3-820d-492e-bf63-d6da87147f5e","system_id":"levelo_inurba_marseille","lat":43.29791,"lon":5.37102,"is_reserved":false,"is_disabled":false,"rental_uris":{"android":"levelo://app?vid=4051bfd3-820d-492e-bf63-d6da87147f5e","ios":"levelo://app?vid=4051bfd3-820d-492e-bf63-d6da87147f5e"},"vehicle_type_id":"4","last_reported":1753110755,"current_range_meters":5600,"station_id":"ce4bgop2rcd13ifvqc1g","pricing_plan_id":"cebpf4jnsgd1na2vs0mg"},{"bike_id":"9e4a46d8-759f-49c2-b247-18801949fe87","system_id":"levelo_inurba_marseille","lat":43.27422,"lon":5.39417,"is_reserved":false,"is_disabled":false,"rental_uris":{"android":"levelo://app?vid=9e4a46d8-759f-49c2-b247-18801949fe87","ios":"levelo://app?vid=9e4a46d8-759f-49c2-b247-18801949fe87"},"vehicle_type_id":"4","last_reported":1753110755,"current_range_meters":6000,"station_id":"ce4bhdp2rcd13ifvqf20","pricing_plan_id":"cebpf4jnsgd1na2vs0mg"},{"bike_id":"d0de7ef4-4e31-4697-8d90-306c2dcd76c9","system_id":"levelo_inurba_marseille","lat":43.27376,"lon":5.36256,"is_reserved":false,"is_disabled":false,"rental_uris":{"android":"levelo://app?vid=d0de7ef4-4e31-4697-8d90-306c2dcd76c9","ios":"levelo://app?vid=d0de7ef4-4e31-4697-8d90-306c2dcd76c9"},"vehicle_type_id":"4","last_reported":1753110755,"current_range_meters":6000,"station_id":"ce4bhbh2rcd13ifvqeo0","pricing_plan_id":"cebpf4jnsgd1na2vs0mg"},{"bike_id":"ed415a14-b4b4-4caf-8a06-7fd1c907bac5","system_id":"levelo_inurba_marseille","lat":43.21528,"lon":5.34621,"is_reserved":false,"is_disabled":false,"rental_uris":{"android":"levelo://app?vid=ed415a14-b4b4-4caf-8a06-7fd1c907bac5","ios":"levelo://app?vid=ed415a14-b4b4-4caf-8a06-7fd1c907bac5"},"vehicle_type_id":"4","last_reported":1753110755,"current_range_meters":6400,"station_id":"","pricing_plan_id":"cebpf4jnsgd1na2vs0mg"},{"bike_id":"af8eb8dd-aca4-4631-a9eb-b425df86c79b","system_id":"levelo_inurba_marseille","lat":43.27708,"lon":5.38897,"is_reserved":false,"is_disabled":false,"rental_uris":{"android":"levelo://app?vid=af8eb8dd-aca4-4631-a9eb-b425df86c79b","ios":"levelo://app?vid=af8eb8dd-aca4-4631-a9eb-b425df86c79b"},"vehicle_type_id":"4","last_reported":1753110755,"current_range_meters":6800,"station_id":"ce4bhi12rcd13ifvqfo0","pricing_plan_id":"cebpf4jnsgd1na2vs0mg"},{"bike_id":"a6de290b-5c15-427b-bc37-8301607e1735","system_id":"levelo_inurba_marseille","lat":43.3377,"lon":5.374405,"is_reserved":false,"is_disabled":false,"rental_uris":{"android":"levelo://app?vid=a6de290b-5c15-427b-bc37-8301607e1735","ios":"levelo://app?vid=a6de290b-5c15-427b-bc37-8301607e1735"},"vehicle_type_id":"4","last_reported":1753110755,"current_range_meters":6800,"station_id":"","pricing_plan_id":"cebpf4jnsgd1na2vs0mg"},{"bike_id":"ce2a2132-1553-4543-ab2d-bea0feca5d5f","system_id":"levelo_inurba_marseille","lat":43.26033,"lon":5.37544,"is_reserved":false,"is_disabled":false,"rental_uris":{"android":"levelo://app?vid=ce2a2132-1553-4543-ab2d-bea0feca5d5f","ios":"levelo://app?vid=ce2a2132-1553-4543-ab2d-bea0feca5d5f"},"vehicle_type_id":"4","last_reported":1753110755,"current_range_meters":6400,"station_id":"ce4bhgh2rcd13ifvqfa0","pricing_plan_id":"cebpf4jnsgd1na2vs0mg"},{"bike_id":"3fe67b28-4b64-436f-91ba-27e81dc3e44d","system_id":"levelo_inurba_marseille","lat":43.26019,"lon":5.37553,"is_reserved":false,"is_disabled":false,"rental_uris":{"android":"levelo://app?vid=3fe67b28-4b64-436f-91ba-27e81dc3e44d","ios":"levelo://app?vid=3fe67b28-4b64-436f-91ba-27e81dc3e44d"},"vehicle_type_id":"4","last_reported":1753110755,"current_range_meters":6800,"station_id":"","pricing_plan_id":"cebpf4jnsgd1na2vs0mg"},{"bike_id":"39f9e922-a07c-4f49-9865-0ceb92ef0bac","system_id":"levelo_inurba_marseille","lat":43.24551,"lon":5.39528,"is_reserved":false,"is_disabled":true,"rental_uris":{"android":"levelo://app?vid=39f9e922-a07c-4f49-9865-0ceb92ef0bac","ios":"levelo://app?vid=39f9e922-a07c-4f49-9865-0ceb92ef0bac"},"vehicle_type_id":"4","last_reported":1753110755,"current_range_meters":7200,"station_id":"ce4bhlp2rcd13ifvqgjg","pricing_plan_id":"cebpf4jnsgd1na2vs0mg"},{"bike_id":"84133b2c-54f7-40c0-9db6-ff896dc83184","system_id":"levelo_inurba_marseille","lat":43.30121,"lon":5.39875,"is_reserved":false,"is_disabled":true,"rental_uris":{"android":"levelo://app?vid=84133b2c-54f7-40c0-9db6-ff896dc83184","ios":"levelo://app?vid=84133b2c-54f7-40c0-9db6-ff896dc83184"},"vehicle_type_id":"4","last_reported":1753110755,"current_range_meters":7200,"station_id":"ce4bh0h2rcd13ifvqd40","pricing_plan_id":"cebpf4jnsgd1na2vs0mg"},{"bike_id":"f18952d9-de72-4b00-ac50-ca46d1bc16b9","system_id":"levelo_inurba_marseille","lat":43.21188,"lon":5.35074,"is_reserved":false,"is_disabled":false,"rental_uris":{"android":"levelo://app?vid=f18952d9-de72-4b00-ac50-ca46d1bc16b9","ios":"levelo://app?vid=f18952d9-de72-4b00-ac50-ca46d1bc16b9"},"vehicle_type_id":"4","last_reported":1753110755,"current_range_meters":7200,"station_id":"st_cvj6sg6p6f1abm77japg","pricing_plan_id":"cebpf4jnsgd1na2vs0mg"},{"bike_id":"02860f1e-d711-4398-b757-6c9dd2b46894","system_id":"levelo_inurba_marseille","lat":43.25936,"lon":5.40907,"is_reserved":false,"is_disabled":true,"rental_uris":{"android":"levelo://app?vid=02860f1e-d711-4398-b757-6c9dd2b46894","ios":"levelo://app?vid=02860f1e-d711-4398-b757-6c9dd2b46894"},"vehicle_type_id":"4","last_reported":1753110755,"current_range_meters":7200,"station_id":"ce4bhm92rcd13ifvqglg","pricing_plan_id":"cebpf4jnsgd1na2vs0mg"},{"bike_id":"b7082957-3a9f-4d91-9a0b-08d65eafeb7f","system_id":"levelo_inurba_marseille","lat":43.25017,"lon":5.38915,"is_reserved":false,"is_disabled":true,"rental_uris":{"android":"levelo://app?vid=b7082957-3a9f-4d91-9a0b-08d65eafeb7f","ios":"levelo://app?vid=b7082957-3a9f-4d91-9a0b-08d65eafeb7f"},"vehicle_type_id":"4","last_reported":1753110755,"current_range_meters":8000,"station_id":"ce4bhgp2rcd13ifvqfd0","pricing_plan_id":"cebpf4jnsgd1na2vs0mg"},{"bike_id":"aa060a46-926b-42cd-9c04-3f263c91a19f","system_id":"levelo_inurba_marseille","lat":43.225123,"lon":5.347878,"is_reserved":false,"is_disabled":false,"rental_uris":{"android":"levelo://app?vid=aa060a46-926b-42cd-9c04-3f263c91a19f","ios":"levelo://app?vid=aa060a46-926b-42cd-9c04-3f263c91a19f"},"vehicle_type_id":"4","last_reported":1753110755,"current_range_meters":8000,"station_id":"st_cvj5dfep6f1abm77gieg","pricing_plan_id":"cebpf4jnsgd1na2vs0mg"},{"bike_id":"da431369-3dbb-43ab-8c6f-ea00e9025ec9","system_id":"levelo_inurba_marseille","lat":43.3237,"lon":5.38889,"is_reserved":false,"is_disabled":false,"rental_uris":{"android":"levelo://app?vid=da431369-3dbb-43ab-8c6f-ea00e9025ec9","ios":"levelo://app?vid=da431369-3dbb-43ab-8c6f-ea00e9025ec9"},"vehicle_type_id":"4","last_reported":1753110755,"current_range_meters":8400,"station_id":"ce4bhqp2rcd13ifvqhog","pricing_plan_id":"cebpf4jnsgd1na2vs0mg"},{"bike_id":"3b339eb9-a045-487c-856b-0743b82d9595","system_id":"levelo_inurba_marseille","lat":43.28501,"lon":5.38435,"is_reserved":false,"is_disabled":false,"rental_uris":{"android":"levelo://app?vid=3b339eb9-a045-487c-856b-0743b82d9595","ios":"levelo://app?vid=3b339eb9-a045-487c-856b-0743b82d9595"},"vehicle_type_id":"4","last_reported":1753110755,"current_range_meters":8400,"station_id":"ce4bh512rcd13ifvqe3g","pricing_plan_id":"cebpf4jnsgd1na2vs0mg"},{"bike_id":"0d70263d-1367-4114-8d4a-fe94bdbd8c8d","system_id":"levelo_inurba_marseille","lat":43.299719,"lon":5.384854,"is_reserved":false,"is_disabled":false,"rental_uris":{"android":"levelo://app?vid=0d70263d-1367-4114-8d4a-fe94bdbd8c8d","ios":"levelo://app?vid=0d70263d-1367-4114-8d4a-fe94bdbd8c8d"},"vehicle_type_id":"4","last_reported":1753110755,"current_range_meters":8400,"station_id":"ce4bgj92rcd13ifvqbd0","pricing_plan_id":"cebpf4jnsgd1na2vs0mg"},{"bike_id":"c4e96d02-1c87-4539-88ca-e161c734a9a0","system_id":"levelo_inurba_marseille","lat":43.31069,"lon":5.38358,"is_reserved":false,"is_disabled":false,"rental_uris":{"android":"levelo://app?vid=c4e96d02-1c87-4539-88ca-e161c734a9a0","ios":"levelo://app?vid=c4e96d02-1c87-4539-88ca-e161c734a9a0"},"vehicle_type_id":"4","last_reported":1753110755,"current_range_meters":8400,"station_id":"ce4bgv92rcd13ifvqcr0","pricing_plan_id":"cebpf4jnsgd1na2vs0mg"},{"bike_id":"9036d315-4723-4cdd-9f68-856fe767f9c3","system_id":"levelo_inurba_marseille","lat":43.331463,"lon":5.381827,"is_reserved":false,"is_disabled":false,"rental_uris":{"android":"levelo://app?vid=9036d315-4723-4cdd-9f68-856fe767f9c3","ios":"levelo://app?vid=9036d315-4723-4cdd-9f68-856fe767f9c3"},"vehicle_type_id":"4","last_reported":1753110755,"current_range_meters":8800,"station_id":"","pricing_plan_id":"cebpf4jnsgd1na2vs0mg"},{"bike_id":"736c363b-3641-43dd-b890-bd43d8fd5283","system_id":"levelo_inurba_marseille","lat":43.21692,"lon":5.34642,"is_reserved":false,"is_disabled":false,"rental_uris":{"android":"levelo://app?vid=736c363b-3641-43dd-b890-bd43d8fd5283","ios":"levelo://app?vid=736c363b-3641-43dd-b890-bd43d8fd5283"},"vehicle_type_id":"4","last_reported":1753110755,"current_range_meters":8800,"station_id":"","pricing_plan_id":"cebpf4jnsgd1na2vs0mg"},{"bike_id":"f6ecd704-9712-49e4-9e88-98fe86bb5df6","system_id":"levelo_inurba_marseille","lat":43.2439,"lon":5.37063,"is_reserved":false,"is_disabled":false,"rental_uris":{"android":"levelo://app?vid=f6ecd704-9712-49e4-9e88-98fe86bb5df6","ios":"levelo://app?vid=f6ecd704-9712-49e4-9e88-98fe86bb5df6"},"vehicle_type_id":"4","last_reported":1753110755,"current_range_meters":8800,"station_id":"ce4bhhh2rcd13ifvqfk0","pricing_plan_id":"cebpf4jnsgd1na2vs0mg"},{"bike_id":"7f4967d0-1ab9-4d58-a79f-394fef3c4842","system_id":"levelo_inurba_marseille","lat":43.28135,"lon":5.395978,"is_reserved":false,"is_disabled":false,"rental_uris":{"android":"levelo://app?vid=7f4967d0-1ab9-4d58-a79f-394fef3c4842","ios":"levelo://app?vid=7f4967d0-1ab9-4d58-a79f-394fef3c4842"},"vehicle_type_id":"4","last_reported":1753110755,"current_range_meters":8800,"station_id":"ce4bho12rcd13ifvqh2g","pricing_plan_id":"cebpf4jnsgd1na2vs0mg"},{"bike_id":"1f87640d-cf49-40d4-b51d-e94673d9c446","system_id":"levelo_inurba_marseille","lat":43.26207,"lon":5.37929,"is_reserved":false,"is_disabled":false,"rental_uris":{"android":"levelo://app?vid=1f87640d-cf49-40d4-b51d-e94673d9c446","ios":"levelo://app?vid=1f87640d-cf49-40d4-b51d-e94673d9c446"},"vehicle_type_id":"4","last_reported":1753110755,"current_range_meters":8800,"station_id":"ce4bhjp2rcd13ifvqg90","pricing_plan_id":"cebpf4jnsgd1na2vs0mg"},{"bike_id":"6f069f9e-d72c-4983-9566-b19f6d5177b6","system_id":"levelo_inurba_marseille","lat":43.31043,"lon":5.38363,"is_reserved":false,"is_disabled":false,"rental_uris":{"android":"levelo://app?vid=6f069f9e-d72c-4983-9566-b19f6d5177b6","ios":"levelo://app?vid=6f069f9e-d72c-4983-9566-b19f6d5177b6"},"vehicle_type_id":"4","last_reported":1753110755,"current_range_meters":11600,"station_id":"ce4bgv92rcd13ifvqcr0","pricing_plan_id":"cebpf4jnsgd1na2vs0mg"},{"bike_id":"6427d4d6-7c64-42a2-a692-7efcaa097d1a","system_id":"levelo_inurba_marseille","lat":43.30327,"lon":5.4044,"is_reserved":false,"is_disabled":false,"rental_uris":{"android":"levelo://app?vid=6427d4d6-7c64-42a2-a692-7efcaa097d1a","ios":"levelo://app?vid=6427d4d6-7c64-42a2-a692-7efcaa097d1a"},"vehicle_type_id":"4","last_reported":1753110755,"current_range_meters":8800,"station_id":"ce4bh012rcd13ifvqd10","pricing_plan_id":"cebpf4jnsgd1na2vs0mg"},{"bike_id":"54c62cfd-190d-4a0a-99a0-7a5cc5804e08","system_id":"levelo_inurba_marseille","lat":43.21185,"lon":5.35071,"is_reserved":false,"is_disabled":false,"rental_uris":{"android":"levelo://app?vid=54c62cfd-190d-4a0a-99a0-7a5cc5804e08","ios":"levelo://app?vid=54c62cfd-190d-4a0a-99a0-7a5cc5804e08"},"vehicle_type_id":"4","last_reported":1753110755,"current_range_meters":9200,"station_id":"st_cvj6sg6p6f1abm77japg","pricing_plan_id":"cebpf4jnsgd1na2vs0mg"},{"bike_id":"f9e31561-8459-4210-aab8-aa4437a8b81e","system_id":"levelo_inurba_marseille","lat":43.27205,"lon":5.3919,"is_reserved":false,"is_disabled":true,"rental_uris":{"android":"levelo://app?vid=f9e31561-8459-4210-aab8-aa4437a8b81e","ios":"levelo://app?vid=f9e31561-8459-4210-aab8-aa4437a8b81e"},"vehicle_type_id":"4","last_reported":1753110755,"current_range_meters":6800,"station_id":"ce4bhhp2rcd13ifvqfm0","pricing_plan_id":"cebpf4jnsgd1na2vs0mg"},{"bike_id":"c290374e-4b54-4258-a313-216e7fdbcbcf","system_id":"levelo_inurba_marseille","lat":43.28616,"lon":5.35111,"is_reserved":false,"is_disabled":false,"rental_uris":{"android":"levelo://app?vid=c290374e-4b54-4258-a313-216e7fdbcbcf","ios":"levelo://app?vid=c290374e-4b54-4258-a313-216e7fdbcbcf"},"vehicle_type_id":"4","last_reported":1753110755,"current_range_meters":9200,"station_id":"ce4bhch2rcd13ifvqeug","pricing_plan_id":"cebpf4jnsgd1na2vs0mg"},{"bike_id":"db6d4d3c-da54-4df3-8edc-ca74a30a008e","system_id":"levelo_inurba_marseille","lat":43.273723,"lon":5.362603,"is_reserved":false,"is_disabled":false,"rental_uris":{"android":"levelo://app?vid=db6d4d3c-da54-4df3-8edc-ca74a30a008e","ios":"levelo://app?vid=db6d4d3c-da54-4df3-8edc-ca74a30a008e"},"vehicle_type_id":"4","last_reported":1753110755,"current_range_meters":9200,"station_id":"ce4bhbh2rcd13ifvqeo0","pricing_plan_id":"cebpf4jnsgd1na2vs0mg"},{"bike_id":"91c51ea9-9387-4cea-a361-dac06f07acd9","system_id":"levelo_inurba_marseille","lat":43.26191,"lon":5.37449,"is_reserved":false,"is_disabled":false,"rental_uris":{"android":"levelo://app?vid=91c51ea9-9387-4cea-a361-dac06f07acd9","ios":"levelo://app?vid=91c51ea9-9387-4cea-a361-dac06f07acd9"},"vehicle_type_id":"4","last_reported":1753110755,"current_range_meters":9200,"station_id":"ce4bhhp2rcd13ifvqfm0","pricing_plan_id":"cebpf4jnsgd1na2vs0mg"},{"bike_id":"6c044854-6f6d-4a86-85d3-68a507343a54","system_id":"levelo_inurba_marseille","lat":43.29038,"lon":5.37562,"is_reserved":false,"is_disabled":true,"rental_uris":{"android":"levelo://app?vid=6c044854-6f6d-4a86-85d3-68a507343a54","ios":"levelo://app?vid=6c044854-6f6d-4a86-85d3-68a507343a54"},"vehicle_type_id":"4","last_reported":1753110755,"current_range_meters":9200,"station_id":"ce4bh692rcd13ifvqe90","pricing_plan_id":"cebpf4jnsgd1na2vs0mg"},{"bike_id":"0226e0c6-5078-49f2-9eb4-54b72e426f9c","system_id":"levelo_inurba_marseille","lat":43.29896,"lon":5.43672,"is_reserved":false,"is_disabled":false,"rental_uris":{"android":"levelo://app?vid=0226e0c6-5078-49f2-9eb4-54b72e426f9c","ios":"levelo://app?vid=0226e0c6-5078-49f2-9eb4-54b72e426f9c"},"vehicle_type_id":"4","last_reported":1753110755,"current_range_meters":9600,"station_id":"ce4bhpp2rcd13ifvqhfg","pricing_plan_id":"cebpf4jnsgd1na2vs0mg"},{"bike_id":"a93dde99-7b3b-4907-828c-2b796f672160","system_id":"levelo_inurba_marseille","lat":43.28425,"lon":5.34996,"is_reserved":false,"is_disabled":false,"rental_uris":{"android":"levelo://app?vid=a93dde99-7b3b-4907-828c-2b796f672160","ios":"levelo://app?vid=a93dde99-7b3b-4907-828c-2b796f672160"},"vehicle_type_id":"4","last_reported":1753110755,"current_range_meters":9600,"station_id":"ce4bhbh2rcd13ifvqepg","pricing_plan_id":"cebpf4jnsgd1na2vs0mg"},{"bike_id":"a134d323-d172-479e-aefd-708007b3132f","system_id":"levelo_inurba_marseille","lat":43.29375,"lon":5.37863,"is_reserved":false,"is_disabled":false,"rental_uris":{"android":"levelo://app?vid=a134d323-d172-479e-aefd-708007b3132f","ios":"levelo://app?vid=a134d323-d172-479e-aefd-708007b3132f"},"vehicle_type_id":"4","last_reported":1753110755,"current_range_meters":9600,"station_id":"ce4bgjh2rcd13ifvqbf0","pricing_plan_id":"cebpf4jnsgd1na2vs0mg"},{"bike_id":"dee6628b-f370-478a-a4db-32c84542aee7","system_id":"levelo_inurba_marseille","lat":43.33301,"lon":5.39026,"is_reserved":false,"is_disabled":false,"rental_uris":{"android":"levelo://app?vid=dee6628b-f370-478a-a4db-32c84542aee7","ios":"levelo://app?vid=dee6628b-f370-478a-a4db-32c84542aee7"},"vehicle_type_id":"4","last_reported":1753110755,"current_range_meters":9600,"station_id":"","pricing_plan_id":"cebpf4jnsgd1na2vs0mg"},{"bike_id":"cfd7c1d9-7bcd-4971-afe4-64d706646a62","system_id":"levelo_inurba_marseille","lat":43.32379,"lon":5.36739,"is_reserved":false,"is_disabled":false,"rental_uris":{"android":"levelo://app?vid=cfd7c1d9-7bcd-4971-afe4-64d706646a62","ios":"levelo://app?vid=cfd7c1d9-7bcd-4971-afe4-64d706646a62"},"vehicle_type_id":"4","last_reported":1753110755,"current_range_meters":9600,"station_id":"ce4bhsh2rcd13ifvqi2g","pricing_plan_id":"cebpf4jnsgd1na2vs0mg"},{"bike_id":"696c5e5f-ee49-4cdd-b0d3-ceab6c87d298","system_id":"levelo_inurba_marseille","lat":43.321099,"lon":5.367967,"is_reserved":false,"is_disabled":false,"rental_uris":{"android":"levelo://app?vid=696c5e5f-ee49-4cdd-b0d3-ceab6c87d298","ios":"levelo://app?vid=696c5e5f-ee49-4cdd-b0d3-ceab6c87d298"},"vehicle_type_id":"4","last_reported":1753110755,"current_range_meters":10000,"station_id":"ce4bhrh2rcd13ifvqhug","pricing_plan_id":"cebpf4jnsgd1na2vs0mg"},{"bike_id":"8b70e333-db95-4dad-9f25-3f58617e52f2","system_id":"levelo_inurba_marseille","lat":43.29907,"lon":5.43635,"is_reserved":false,"is_disabled":false,"rental_uris":{"android":"levelo://app?vid=8b70e333-db95-4dad-9f25-3f58617e52f2","ios":"levelo://app?vid=8b70e333-db95-4dad-9f25-3f58617e52f2"},"vehicle_type_id":"4","last_reported":1753110755,"current_range_meters":10000,"station_id":"ce4bhpp2rcd13ifvqhfg","pricing_plan_id":"cebpf4jnsgd1na2vs0mg"},{"bike_id":"a28492a9-86c2-4db4-8471-b8fa5691da04","system_id":"levelo_inurba_marseille","lat":43.29303,"lon":5.37465,"is_reserved":false,"is_disabled":false,"rental_uris":{"android":"levelo://app?vid=a28492a9-86c2-4db4-8471-b8fa5691da04","ios":"levelo://app?vid=a28492a9-86c2-4db4-8471-b8fa5691da04"},"vehicle_type_id":"4","last_reported":1753110755,"current_range_meters":10000,"station_id":"ce4bgi12rcd13ifvqb70","pricing_plan_id":"cebpf4jnsgd1na2vs0mg"},{"bike_id":"37d8cb1b-1988-4390-9e4c-4eca73c82c19","system_id":"levelo_inurba_marseille","lat":43.26206,"lon":5.37459,"is_reserved":false,"is_disabled":true,"rental_uris":{"android":"levelo://app?vid=37d8cb1b-1988-4390-9e4c-4eca73c82c19","ios":"levelo://app?vid=37d8cb1b-1988-4390-9e4c-4eca73c82c19"},"vehicle_type_id":"4","last_reported":1753110755,"current_range_meters":10000,"station_id":"ce4bhgp2rcd13ifvqfc0","pricing_plan_id":"cebpf4jnsgd1na2vs0mg"},{"bike_id":"53cb4f43-b1af-4efe-9f40-e0338804f4d4","system_id":"levelo_inurba_marseille","lat":43.31274,"lon":5.38959,"is_reserved":false,"is_disabled":false,"rental_uris":{"android":"levelo://app?vid=53cb4f43-b1af-4efe-9f40-e0338804f4d4","ios":"levelo://app?vid=53cb4f43-b1af-4efe-9f40-e0338804f4d4"},"vehicle_type_id":"4","last_reported":1753110755,"current_range_meters":10800,"station_id":"","pricing_plan_id":"cebpf4jnsgd1na2vs0mg"},{"bike_id":"bf327049-768f-42e4-b4a1-8eda5eb683f8","system_id":"levelo_inurba_marseille","lat":43.27922,"lon":5.39579,"is_reserved":false,"is_disabled":false,"rental_uris":{"android":"levelo://app?vid=bf327049-768f-42e4-b4a1-8eda5eb683f8","ios":"levelo://app?vid=bf327049-768f-42e4-b4a1-8eda5eb683f8"},"vehicle_type_id":"4","last_reported":1753110755,"current_range_meters":10800,"station_id":"ce4bhf92rcd13ifvqf40","pricing_plan_id":"cebpf4jnsgd1na2vs0mg"},{"bike_id":"89954574-8c17-4192-a9ff-7a3c7f4c8faa","system_id":"levelo_inurba_marseille","lat":43.280008,"lon":5.400206,"is_reserved":false,"is_disabled":false,"rental_uris":{"android":"levelo://app?vid=89954574-8c17-4192-a9ff-7a3c7f4c8faa","ios":"levelo://app?vid=89954574-8c17-4192-a9ff-7a3c7f4c8faa"},"vehicle_type_id":"4","last_reported":1753110755,"current_range_meters":10800,"station_id":"ce4bho92rcd13ifvqh4g","pricing_plan_id":"cebpf4jnsgd1na2vs0mg"},{"bike_id":"3692982d-e997-4528-8ae4-2cd8752d7f88","system_id":"levelo_inurba_marseille","lat":43.23194,"lon":5.35552,"is_reserved":false,"is_disabled":false,"rental_uris":{"android":"levelo://app?vid=3692982d-e997-4528-8ae4-2cd8752d7f88","ios":"levelo://app?vid=3692982d-e997-4528-8ae4-2cd8752d7f88"},"vehicle_type_id":"4","last_reported":1753110755,"current_range_meters":11200,"station_id":"ce4bhu92rcd13ifvqi70","pricing_plan_id":"cebpf4jnsgd1na2vs0mg"},{"bike_id":"9f12a5cf-3689-47b5-9168-a495273e84c9","system_id":"levelo_inurba_marseille","lat":43.29764,"lon":5.38117,"is_reserved":false,"is_disabled":false,"rental_uris":{"android":"levelo://app?vid=9f12a5cf-3689-47b5-9168-a495273e84c9","ios":"levelo://app?vid=9f12a5cf-3689-47b5-9168-a495273e84c9"},"vehicle_type_id":"4","last_reported":1753110755,"current_range_meters":11200,"station_id":"","pricing_plan_id":"cebpf4jnsgd1na2vs0mg"},{"bike_id":"f4239a4e-c3a1-45c9-9435-8562c139833a","system_id":"levelo_inurba_marseille","lat":43.2319,"lon":5.39985,"is_reserved":false,"is_disabled":false,"rental_uris":{"android":"levelo://app?vid=f4239a4e-c3a1-45c9-9435-8562c139833a","ios":"levelo://app?vid=f4239a4e-c3a1-45c9-9435-8562c139833a"},"vehicle_type_id":"4","last_reported":1753110755,"current_range_meters":11200,"station_id":"ce4bhn12rcd13ifvqgqg","pricing_plan_id":"cebpf4jnsgd1na2vs0mg"},{"bike_id":"7fd7ba7e-8c4e-4e67-822d-00508285b85e","system_id":"levelo_inurba_marseille","lat":43.2622,"lon":5.37431,"is_reserved":false,"is_disabled":false,"rental_uris":{"android":"levelo://app?vid=7fd7ba7e-8c4e-4e67-822d-00508285b85e","ios":"levelo://app?vid=7fd7ba7e-8c4e-4e67-822d-00508285b85e"},"vehicle_type_id":"4","last_reported":1753110755,"current_range_meters":11200,"station_id":"ce4bhgp2rcd13ifvqfc0","pricing_plan_id":"cebpf4jnsgd1na2vs0mg"},{"bike_id":"523d528a-80ef-4c0a-986f-e24abf3cd641","system_id":"levelo_inurba_marseille","lat":43.27377,"lon":5.39118,"is_reserved":false,"is_disabled":true,"rental_uris":{"android":"levelo://app?vid=523d528a-80ef-4c0a-986f-e24abf3cd641","ios":"levelo://app?vid=523d528a-80ef-4c0a-986f-e24abf3cd641"},"vehicle_type_id":"4","last_reported":1753110755,"current_range_meters":11200,"station_id":"ce4bhgp2rcd13ifvqfe0","pricing_plan_id":"cebpf4jnsgd1na2vs0mg"},{"bike_id":"d853364e-21ba-46c8-bd1e-0ba7ae582893","system_id":"levelo_inurba_marseille","lat":43.30153,"lon":5.38101,"is_reserved":false,"is_disabled":false,"rental_uris":{"android":"levelo://app?vid=d853364e-21ba-46c8-bd1e-0ba7ae582893","ios":"levelo://app?vid=d853364e-21ba-46c8-bd1e-0ba7ae582893"},"vehicle_type_id":"4","last_reported":1753110755,"current_range_meters":11200,"station_id":"ce4bgjp2rcd13ifvqbh0","pricing_plan_id":"cebpf4jnsgd1na2vs0mg"},{"bike_id":"0cb2c80a-7457-4a4a-ad92-f0361b5225d6","system_id":"levelo_inurba_marseille","lat":43.24413,"lon":5.37413,"is_reserved":false,"is_disabled":false,"rental_uris":{"android":"levelo://app?vid=0cb2c80a-7457-4a4a-ad92-f0361b5225d6","ios":"levelo://app?vid=0cb2c80a-7457-4a4a-ad92-f0361b5225d6"},"vehicle_type_id":"4","last_reported":1753110755,"current_range_meters":11200,"station_id":"","pricing_plan_id":"cebpf4jnsgd1na2vs0mg"},{"bike_id":"4e5823ac-9313-4e20-81da-720a18c2dac7","system_id":"levelo_inurba_marseille","lat":43.32147,"lon":5.36747,"is_reserved":false,"is_disabled":false,"rental_uris":{"android":"levelo://app?vid=4e5823ac-9313-4e20-81da-720a18c2dac7","ios":"levelo://app?vid=4e5823ac-9313-4e20-81da-720a18c2dac7"},"vehicle_type_id":"4","last_reported":1753110755,"current_range_meters":11200,"station_id":"ce4bhrh2rcd13ifvqhug","pricing_plan_id":"cebpf4jnsgd1na2vs0mg"},{"bike_id":"162304a1-1e45-4b9d-a057-59b6e5171a71","system_id":"levelo_inurba_marseille","lat":43.32105,"lon":5.3677,"is_reserved":false,"is_disabled":false,"rental_uris":{"android":"levelo://app?vid=162304a1-1e45-4b9d-a057-59b6e5171a71","ios":"levelo://app?vid=162304a1-1e45-4b9d-a057-59b6e5171a71"},"vehicle_type_id":"4","last_reported":1753110755,"current_range_meters":11200,"station_id":"ce4bhrh2rcd13ifvqhug","pricing_plan_id":"cebpf4jnsgd1na2vs0mg"},{"bike_id":"b29e2d14-59cb-4e3a-a7d7-249c735e0321","system_id":"levelo_inurba_marseille","lat":43.24189,"lon":5.3638,"is_reserved":false,"is_disabled":false,"rental_uris":{"android":"levelo://app?vid=b29e2d14-59cb-4e3a-a7d7-249c735e0321","ios":"levelo://app?vid=b29e2d14-59cb-4e3a-a7d7-249c735e0321"},"vehicle_type_id":"4","last_reported":1753110755,"current_range_meters":11600,"station_id":"cpo36qri1sfpv3e86is0","pricing_plan_id":"cebpf4jnsgd1na2vs0mg"},{"bike_id":"081d3e57-4828-49d4-ac16-eaf325778232","system_id":"levelo_inurba_marseille","lat":43.30602,"lon":5.37216,"is_reserved":false,"is_disabled":false,"rental_uris":{"android":"levelo://app?vid=081d3e57-4828-49d4-ac16-eaf325778232","ios":"levelo://app?vid=081d3e57-4828-49d4-ac16-eaf325778232"},"vehicle_type_id":"4","last_reported":1753110755,"current_range_meters":11600,"station_id":"ce4bgqh2rcd13ifvqc4g","pricing_plan_id":"cebpf4jnsgd1na2vs0mg"},{"bike_id":"8671eb57-a410-463f-a1c9-51c8b81c3639","system_id":"levelo_inurba_marseille","lat":43.30327,"lon":5.40424,"is_reserved":false,"is_disabled":false,"rental_uris":{"android":"levelo://app?vid=8671eb57-a410-463f-a1c9-51c8b81c3639","ios":"levelo://app?vid=8671eb57-a410-463f-a1c9-51c8b81c3639"},"vehicle_type_id":"4","last_reported":1753110755,"current_range_meters":11200,"station_id":"ce4bh012rcd13ifvqd10","pricing_plan_id":"cebpf4jnsgd1na2vs0mg"},{"bike_id":"819d0834-cee1-4b2f-9b89-a76a3278c968","system_id":"levelo_inurba_marseille","lat":43.26248,"lon":5.37469,"is_reserved":false,"is_disabled":false,"rental_uris":{"android":"levelo://app?vid=819d0834-cee1-4b2f-9b89-a76a3278c968","ios":"levelo://app?vid=819d0834-cee1-4b2f-9b89-a76a3278c968"},"vehicle_type_id":"4","last_reported":1753110755,"current_range_meters":11600,"station_id":"ce4bhgp2rcd13ifvqfc0","pricing_plan_id":"cebpf4jnsgd1na2vs0mg"},{"bike_id":"5beda052-3355-4439-9d74-97d2a94fc3c7","system_id":"levelo_inurba_marseille","lat":43.3059,"lon":5.39357,"is_reserved":false,"is_disabled":false,"rental_uris":{"android":"levelo://app?vid=5beda052-3355-4439-9d74-97d2a94fc3c7","ios":"levelo://app?vid=5beda052-3355-4439-9d74-97d2a94fc3c7"},"vehicle_type_id":"4","last_reported":1753110755,"current_range_meters":12000,"station_id":"ce4bh0p2rcd13ifvqd80","pricing_plan_id":"cebpf4jnsgd1na2vs0mg"},{"bike_id":"b6e76832-b199-4086-875c-717f2f30f739","system_id":"levelo_inurba_marseille","lat":43.24165,"lon":5.364,"is_reserved":false,"is_disabled":false,"rental_uris":{"android":"levelo://app?vid=b6e76832-b199-4086-875c-717f2f30f739","ios":"levelo://app?vid=b6e76832-b199-4086-875c-717f2f30f739"},"vehicle_type_id":"4","last_reported":1753110755,"current_range_meters":12000,"station_id":"cpo36qri1sfpv3e86is0","pricing_plan_id":"cebpf4jnsgd1na2vs0mg"},{"bike_id":"7230cb4d-8cd2-4957-9d99-c27265ab6ce1","system_id":"levelo_inurba_marseille","lat":43.29299,"lon":5.37168,"is_reserved":false,"is_disabled":false,"rental_uris":{"android":"levelo://app?vid=7230cb4d-8cd2-4957-9d99-c27265ab6ce1","ios":"levelo://app?vid=7230cb4d-8cd2-4957-9d99-c27265ab6ce1"},"vehicle_type_id":"4","last_reported":1753110755,"current_range_meters":12000,"station_id":"","pricing_plan_id":"cebpf4jnsgd1na2vs0mg"},{"bike_id":"8bb0f313-b703-42e6-813a-255b45ffa6d6","system_id":"levelo_inurba_marseille","lat":43.31167,"lon":5.38724,"is_reserved":false,"is_disabled":false,"rental_uris":{"android":"levelo://app?vid=8bb0f313-b703-42e6-813a-255b45ffa6d6","ios":"levelo://app?vid=8bb0f313-b703-42e6-813a-255b45ffa6d6"},"vehicle_type_id":"4","last_reported":1753110755,"current_range_meters":12000,"station_id":"ce4bgv12rcd13ifvqcp0","pricing_plan_id":"cebpf4jnsgd1na2vs0mg"},{"bike_id":"82c7177e-7c5a-48c6-89a0-1b69924a192d","system_id":"levelo_inurba_marseille","lat":43.29277,"lon":5.40118,"is_reserved":false,"is_disabled":false,"rental_uris":{"android":"levelo://app?vid=82c7177e-7c5a-48c6-89a0-1b69924a192d","ios":"levelo://app?vid=82c7177e-7c5a-48c6-89a0-1b69924a192d"},"vehicle_type_id":"4","last_reported":1753110755,"current_range_meters":12400,"station_id":"ce4bh312rcd13ifvqdk0","pricing_plan_id":"cebpf4jnsgd1na2vs0mg"},{"bike_id":"90311444-779e-47ba-aae5-e918d2a82798","system_id":"levelo_inurba_marseille","lat":43.25494,"lon":5.37648,"is_reserved":false,"is_disabled":false,"rental_uris":{"android":"levelo://app?vid=90311444-779e-47ba-aae5-e918d2a82798","ios":"levelo://app?vid=90311444-779e-47ba-aae5-e918d2a82798"},"vehicle_type_id":"4","last_reported":1753110755,"current_range_meters":12400,"station_id":"ce4bhh12rcd13ifvqff0","pricing_plan_id":"cebpf4jnsgd1na2vs0mg"},{"bike_id":"01106173-db1e-4655-b51c-a9357e8a51e3","system_id":"levelo_inurba_marseille","lat":43.286999,"lon":5.373765,"is_reserved":false,"is_disabled":false,"rental_uris":{"android":"levelo://app?vid=01106173-db1e-4655-b51c-a9357e8a51e3","ios":"levelo://app?vid=01106173-db1e-4655-b51c-a9357e8a51e3"},"vehicle_type_id":"4","last_reported":1753110755,"current_range_meters":12400,"station_id":"ce4bh3p2rcd13ifvqdq0","pricing_plan_id":"cebpf4jnsgd1na2vs0mg"},{"bike_id":"5a42e90a-94ef-4a1b-b43d-3c279f1b53e1","system_id":"levelo_inurba_marseille","lat":43.2319,"lon":5.35569,"is_reserved":false,"is_disabled":false,"rental_uris":{"android":"levelo://app?vid=5a42e90a-94ef-4a1b-b43d-3c279f1b53e1","ios":"levelo://app?vid=5a42e90a-94ef-4a1b-b43d-3c279f1b53e1"},"vehicle_type_id":"4","last_reported":1753110755,"current_range_meters":12400,"station_id":"ce4bhu92rcd13ifvqi70","pricing_plan_id":"cebpf4jnsgd1na2vs0mg"},{"bike_id":"52fc553f-1e8c-4701-a604-31e90c76b1d4","system_id":"levelo_inurba_marseille","lat":43.31486,"lon":5.37264,"is_reserved":false,"is_disabled":false,"rental_uris":{"android":"levelo://app?vid=52fc553f-1e8c-4701-a604-31e90c76b1d4","ios":"levelo://app?vid=52fc553f-1e8c-4701-a604-31e90c76b1d4"},"vehicle_type_id":"4","last_reported":1753110755,"current_range_meters":12800,"station_id":"ce4bgt12rcd13ifvqcd0","pricing_plan_id":"cebpf4jnsgd1na2vs0mg"},{"bike_id":"0921f7df-2f57-4078-aed8-d9e6f4afda21","system_id":"levelo_inurba_marseille","lat":43.24173,"lon":5.364,"is_reserved":false,"is_disabled":false,"rental_uris":{"android":"levelo://app?vid=0921f7df-2f57-4078-aed8-d9e6f4afda21","ios":"levelo://app?vid=0921f7df-2f57-4078-aed8-d9e6f4afda21"},"vehicle_type_id":"4","last_reported":1753110755,"current_range_meters":12800,"station_id":"cpo36qri1sfpv3e86is0","pricing_plan_id":"cebpf4jnsgd1na2vs0mg"},{"bike_id":"d2a9ef2a-3ecf-454e-ac8d-c81b3a196753","system_id":"levelo_inurba_marseille","lat":43.28623,"lon":5.3822,"is_reserved":false,"is_disabled":false,"rental_uris":{"android":"levelo://app?vid=d2a9ef2a-3ecf-454e-ac8d-c81b3a196753","ios":"levelo://app?vid=d2a9ef2a-3ecf-454e-ac8d-c81b3a196753"},"vehicle_type_id":"4","last_reported":1753110755,"current_range_meters":12800,"station_id":"","pricing_plan_id":"cebpf4jnsgd1na2vs0mg"},{"bike_id":"8ec3987c-4e5e-4f67-aba7-96e36709e826","system_id":"levelo_inurba_marseille","lat":43.32733,"lon":5.40918,"is_reserved":false,"is_disabled":false,"rental_uris":{"android":"levelo://app?vid=8ec3987c-4e5e-4f67-aba7-96e36709e826","ios":"levelo://app?vid=8ec3987c-4e5e-4f67-aba7-96e36709e826"},"vehicle_type_id":"4","last_reported":1753110755,"current_range_meters":12800,"station_id":"","pricing_plan_id":"cebpf4jnsgd1na2vs0mg"},{"bike_id":"6c0c318c-5859-4f8c-8b39-1223e4b49349","system_id":"levelo_inurba_marseille","lat":43.25498,"lon":5.37649,"is_reserved":false,"is_disabled":false,"rental_uris":{"android":"levelo://app?vid=6c0c318c-5859-4f8c-8b39-1223e4b49349","ios":"levelo://app?vid=6c0c318c-5859-4f8c-8b39-1223e4b49349"},"vehicle_type_id":"4","last_reported":1753110755,"current_range_meters":13600,"station_id":"ce4bhh12rcd13ifvqff0","pricing_plan_id":"cebpf4jnsgd1na2vs0mg"},{"bike_id":"07481afa-6635-4dc1-8a31-8a97247e4afb","system_id":"levelo_inurba_marseille","lat":43.21206,"lon":5.35069,"is_reserved":false,"is_disabled":false,"rental_uris":{"android":"levelo://app?vid=07481afa-6635-4dc1-8a31-8a97247e4afb","ios":"levelo://app?vid=07481afa-6635-4dc1-8a31-8a97247e4afb"},"vehicle_type_id":"4","last_reported":1753110755,"current_range_meters":13600,"station_id":"st_cvj6sg6p6f1abm77japg","pricing_plan_id":"cebpf4jnsgd1na2vs0mg"},{"bike_id":"1779b213-4182-4f71-859f-042636a5d049","system_id":"levelo_inurba_marseille","lat":43.304248,"lon":5.388925,"is_reserved":false,"is_disabled":false,"rental_uris":{"android":"levelo://app?vid=1779b213-4182-4f71-859f-042636a5d049","ios":"levelo://app?vid=1779b213-4182-4f71-859f-042636a5d049"},"vehicle_type_id":"4","last_reported":1753110755,"current_range_meters":13600,"station_id":"ce4bgk12rcd13ifvqbi0","pricing_plan_id":"cebpf4jnsgd1na2vs0mg"},{"bike_id":"c695f162-6b42-40d7-8780-ed224e75f8e8","system_id":"levelo_inurba_marseille","lat":43.22485,"lon":5.34778,"is_reserved":false,"is_disabled":false,"rental_uris":{"android":"levelo://app?vid=c695f162-6b42-40d7-8780-ed224e75f8e8","ios":"levelo://app?vid=c695f162-6b42-40d7-8780-ed224e75f8e8"},"vehicle_type_id":"4","last_reported":1753110755,"current_range_meters":13600,"station_id":"","pricing_plan_id":"cebpf4jnsgd1na2vs0mg"},{"bike_id":"b355686e-9711-4834-88a1-57b23f58ae4b","system_id":"levelo_inurba_marseille","lat":43.23204,"lon":5.3554,"is_reserved":false,"is_disabled":false,"rental_uris":{"android":"levelo://app?vid=b355686e-9711-4834-88a1-57b23f58ae4b","ios":"levelo://app?vid=b355686e-9711-4834-88a1-57b23f58ae4b"},"vehicle_type_id":"4","last_reported":1753110755,"current_range_meters":13600,"station_id":"ce4bhu92rcd13ifvqi70","pricing_plan_id":"cebpf4jnsgd1na2vs0mg"},{"bike_id":"5d2b78a8-c880-4b02-9c4e-1b0f886ae3c8","system_id":"levelo_inurba_marseille","lat":43.29969,"lon":5.37169,"is_reserved":false,"is_disabled":false,"rental_uris":{"android":"levelo://app?vid=5d2b78a8-c880-4b02-9c4e-1b0f886ae3c8","ios":"levelo://app?vid=5d2b78a8-c880-4b02-9c4e-1b0f886ae3c8"},"vehicle_type_id":"4","last_reported":1753110755,"current_range_meters":12800,"station_id":"ce4bgr92rcd13ifvqc7g","pricing_plan_id":"cebpf4jnsgd1na2vs0mg"},{"bike_id":"7b2ed3f1-f735-4229-adf3-c560515d3a89","system_id":"levelo_inurba_marseille","lat":43.299734,"lon":5.371846,"is_reserved":false,"is_disabled":false,"rental_uris":{"android":"levelo://app?vid=7b2ed3f1-f735-4229-adf3-c560515d3a89","ios":"levelo://app?vid=7b2ed3f1-f735-4229-adf3-c560515d3a89"},"vehicle_type_id":"4","last_reported":1753110755,"current_range_meters":14000,"station_id":"ce4bgr92rcd13ifvqc7g","pricing_plan_id":"cebpf4jnsgd1na2vs0mg"},{"bike_id":"ac49738a-4d4f-43d3-9c67-46980e61ae95","system_id":"levelo_inurba_marseille","lat":43.31727,"lon":5.37686,"is_reserved":false,"is_disabled":false,"rental_uris":{"android":"levelo://app?vid=ac49738a-4d4f-43d3-9c67-46980e61ae95","ios":"levelo://app?vid=ac49738a-4d4f-43d3-9c67-46980e61ae95"},"vehicle_type_id":"4","last_reported":1753110755,"current_range_meters":14000,"station_id":"ce4bgth2rcd13ifvqch0","pricing_plan_id":"cebpf4jnsgd1na2vs0mg"},{"bike_id":"9c838529-2f8d-4cf1-ba58-27067ac84219","system_id":"levelo_inurba_marseille","lat":43.2417,"lon":5.364,"is_reserved":false,"is_disabled":false,"rental_uris":{"android":"levelo://app?vid=9c838529-2f8d-4cf1-ba58-27067ac84219","ios":"levelo://app?vid=9c838529-2f8d-4cf1-ba58-27067ac84219"},"vehicle_type_id":"4","last_reported":1753110755,"current_range_meters":14400,"station_id":"cpo36qri1sfpv3e86is0","pricing_plan_id":"cebpf4jnsgd1na2vs0mg"},{"bike_id":"369c6f27-9627-4e58-987f-7904fc8af900","system_id":"levelo_inurba_marseille","lat":43.31716,"lon":5.43697,"is_reserved":false,"is_disabled":false,"rental_uris":{"android":"levelo://app?vid=369c6f27-9627-4e58-987f-7904fc8af900","ios":"levelo://app?vid=369c6f27-9627-4e58-987f-7904fc8af900"},"vehicle_type_id":"4","last_reported":1753110755,"current_range_meters":14400,"station_id":"ce4bhp92rcd13ifvqhcg","pricing_plan_id":"cebpf4jnsgd1na2vs0mg"},{"bike_id":"6ffd4c23-86dc-43f0-ba9d-5aa16129b933","system_id":"levelo_inurba_marseille","lat":43.28404,"lon":5.37511,"is_reserved":false,"is_disabled":false,"rental_uris":{"android":"levelo://app?vid=6ffd4c23-86dc-43f0-ba9d-5aa16129b933","ios":"levelo://app?vid=6ffd4c23-86dc-43f0-ba9d-5aa16129b933"},"vehicle_type_id":"4","last_reported":1753110755,"current_range_meters":14800,"station_id":"ce4bh412rcd13ifvqds0","pricing_plan_id":"cebpf4jnsgd1na2vs0mg"},{"bike_id":"700d7f36-d959-4d68-972d-6e22f57e3129","system_id":"levelo_inurba_marseille","lat":43.28428,"lon":5.34993,"is_reserved":false,"is_disabled":false,"rental_uris":{"android":"levelo://app?vid=700d7f36-d959-4d68-972d-6e22f57e3129","ios":"levelo://app?vid=700d7f36-d959-4d68-972d-6e22f57e3129"},"vehicle_type_id":"4","last_reported":1753110755,"current_range_meters":14800,"station_id":"ce4bhbh2rcd13ifvqepg","pricing_plan_id":"cebpf4jnsgd1na2vs0mg"},{"bike_id":"eb5bd392-4f67-4169-8aeb-b38aa028b823","system_id":"levelo_inurba_marseille","lat":43.301342,"lon":5.398634,"is_reserved":false,"is_disabled":false,"rental_uris":{"android":"levelo://app?vid=eb5bd392-4f67-4169-8aeb-b38aa028b823","ios":"levelo://app?vid=eb5bd392-4f67-4169-8aeb-b38aa028b823"},"vehicle_type_id":"4","last_reported":1753110755,"current_range_meters":14800,"station_id":"ce4bh112rcd13ifvqda0","pricing_plan_id":"cebpf4jnsgd1na2vs0mg"},{"bike_id":"3117258b-a0b2-4038-960e-7505313a6719","system_id":"levelo_inurba_marseille","lat":43.32111,"lon":5.36764,"is_reserved":false,"is_disabled":false,"rental_uris":{"android":"levelo://app?vid=3117258b-a0b2-4038-960e-7505313a6719","ios":"levelo://app?vid=3117258b-a0b2-4038-960e-7505313a6719"},"vehicle_type_id":"4","last_reported":1753110755,"current_range_meters":14800,"station_id":"ce4bhrh2rcd13ifvqhug","pricing_plan_id":"cebpf4jnsgd1na2vs0mg"},{"bike_id":"545d99d7-6f42-40ce-b244-1c2376ed3ebf","system_id":"levelo_inurba_marseille","lat":43.28405,"lon":5.34979,"is_reserved":false,"is_disabled":false,"rental_uris":{"android":"levelo://app?vid=545d99d7-6f42-40ce-b244-1c2376ed3ebf","ios":"levelo://app?vid=545d99d7-6f42-40ce-b244-1c2376ed3ebf"},"vehicle_type_id":"4","last_reported":1753110755,"current_range_meters":14800,"station_id":"ce4bhbh2rcd13ifvqepg","pricing_plan_id":"cebpf4jnsgd1na2vs0mg"},{"bike_id":"42c6daca-a04f-4385-b335-d79919ebfbf3","system_id":"levelo_inurba_marseille","lat":43.3247,"lon":5.36597,"is_reserved":false,"is_disabled":false,"rental_uris":{"android":"levelo://app?vid=42c6daca-a04f-4385-b335-d79919ebfbf3","ios":"levelo://app?vid=42c6daca-a04f-4385-b335-d79919ebfbf3"},"vehicle_type_id":"4","last_reported":1753110755,"current_range_meters":14800,"station_id":"ce4bhs12rcd13ifvqhvg","pricing_plan_id":"cebpf4jnsgd1na2vs0mg"},{"bike_id":"43f3b61f-e0dd-45bb-8878-96ad2b2b0d21","system_id":"levelo_inurba_marseille","lat":43.27948,"lon":5.41043,"is_reserved":false,"is_disabled":false,"rental_uris":{"android":"levelo://app?vid=43f3b61f-e0dd-45bb-8878-96ad2b2b0d21","ios":"levelo://app?vid=43f3b61f-e0dd-45bb-8878-96ad2b2b0d21"},"vehicle_type_id":"4","last_reported":1753110755,"current_range_meters":14800,"station_id":"ce4bhnp2rcd13ifvqh0g","pricing_plan_id":"cebpf4jnsgd1na2vs0mg"},{"bike_id":"26d58edf-e097-42ea-8e3d-97a2780eb55f","system_id":"levelo_inurba_marseille","lat":43.29898,"lon":5.43665,"is_reserved":false,"is_disabled":false,"rental_uris":{"android":"levelo://app?vid=26d58edf-e097-42ea-8e3d-97a2780eb55f","ios":"levelo://app?vid=26d58edf-e097-42ea-8e3d-97a2780eb55f"},"vehicle_type_id":"4","last_reported":1753110755,"current_range_meters":15200,"station_id":"ce4bhpp2rcd13ifvqhfg","pricing_plan_id":"cebpf4jnsgd1na2vs0mg"},{"bike_id":"96e48d28-168f-4543-9328-a4bf44e820ec","system_id":"levelo_inurba_marseille","lat":43.26241,"lon":5.37415,"is_reserved":false,"is_disabled":false,"rental_uris":{"android":"levelo://app?vid=96e48d28-168f-4543-9328-a4bf44e820ec","ios":"levelo://app?vid=96e48d28-168f-4543-9328-a4bf44e820ec"},"vehicle_type_id":"4","last_reported":1753110755,"current_range_meters":15200,"station_id":"ce4bhgp2rcd13ifvqfc0","pricing_plan_id":"cebpf4jnsgd1na2vs0mg"},{"bike_id":"8002c71a-7809-4815-a9bb-c120cc9e3fbd","system_id":"levelo_inurba_marseille","lat":43.30378,"lon":5.4249,"is_reserved":false,"is_disabled":false,"rental_uris":{"android":"levelo://app?vid=8002c71a-7809-4815-a9bb-c120cc9e3fbd","ios":"levelo://app?vid=8002c71a-7809-4815-a9bb-c120cc9e3fbd"},"vehicle_type_id":"4","last_reported":1753110755,"current_range_meters":15200,"station_id":"ce4bhoh2rcd13ifvqh6g","pricing_plan_id":"cebpf4jnsgd1na2vs0mg"},{"bike_id":"1c22819b-ef69-41c3-af80-068c7a58af48","system_id":"levelo_inurba_marseille","lat":43.321214,"lon":5.367711,"is_reserved":false,"is_disabled":false,"rental_uris":{"android":"levelo://app?vid=1c22819b-ef69-41c3-af80-068c7a58af48","ios":"levelo://app?vid=1c22819b-ef69-41c3-af80-068c7a58af48"},"vehicle_type_id":"4","last_reported":1753110755,"current_range_meters":15200,"station_id":"ce4bhrh2rcd13ifvqhug","pricing_plan_id":"cebpf4jnsgd1na2vs0mg"},{"bike_id":"0ae21465-771a-4cbc-ad0d-afdf088f5d31","system_id":"levelo_inurba_marseille","lat":43.297,"lon":5.37284,"is_reserved":false,"is_disabled":false,"rental_uris":{"android":"levelo://app?vid=0ae21465-771a-4cbc-ad0d-afdf088f5d31","ios":"levelo://app?vid=0ae21465-771a-4cbc-ad0d-afdf088f5d31"},"vehicle_type_id":"4","last_reported":1753110755,"current_range_meters":15200,"station_id":"ce4bgk12rcd13ifvqbj0","pricing_plan_id":"cebpf4jnsgd1na2vs0mg"},{"bike_id":"d778a561-0abe-4676-9dca-d85a214615cb","system_id":"levelo_inurba_marseille","lat":43.337694,"lon":5.374249,"is_reserved":false,"is_disabled":false,"rental_uris":{"android":"levelo://app?vid=d778a561-0abe-4676-9dca-d85a214615cb","ios":"levelo://app?vid=d778a561-0abe-4676-9dca-d85a214615cb"},"vehicle_type_id":"4","last_reported":1753110755,"current_range_meters":16000,"station_id":"","pricing_plan_id":"cebpf4jnsgd1na2vs0mg"},{"bike_id":"c4ddf749-008b-4a14-af16-f3a13a431402","system_id":"levelo_inurba_marseille","lat":43.21208,"lon":5.35072,"is_reserved":false,"is_disabled":false,"rental_uris":{"android":"levelo://app?vid=c4ddf749-008b-4a14-af16-f3a13a431402","ios":"levelo://app?vid=c4ddf749-008b-4a14-af16-f3a13a431402"},"vehicle_type_id":"4","last_reported":1753110755,"current_range_meters":16000,"station_id":"st_cvj6sg6p6f1abm77japg","pricing_plan_id":"cebpf4jnsgd1na2vs0mg"},{"bike_id":"96e8762a-9322-40a9-8cc3-2faff8252528","system_id":"levelo_inurba_marseille","lat":43.28268,"lon":5.35058,"is_reserved":false,"is_disabled":false,"rental_uris":{"android":"levelo://app?vid=96e8762a-9322-40a9-8cc3-2faff8252528","ios":"levelo://app?vid=96e8762a-9322-40a9-8cc3-2faff8252528"},"vehicle_type_id":"4","last_reported":1753110755,"current_range_meters":16400,"station_id":"ce4bhbp2rcd13ifvqerg","pricing_plan_id":"cebpf4jnsgd1na2vs0mg"},{"bike_id":"92d6e190-2045-4626-be8c-94508bb8a5f7","system_id":"levelo_inurba_marseille","lat":43.28616,"lon":5.35115,"is_reserved":false,"is_disabled":false,"rental_uris":{"android":"levelo://app?vid=92d6e190-2045-4626-be8c-94508bb8a5f7","ios":"levelo://app?vid=92d6e190-2045-4626-be8c-94508bb8a5f7"},"vehicle_type_id":"4","last_reported":1753110755,"current_range_meters":16000,"station_id":"ce4bhch2rcd13ifvqeug","pricing_plan_id":"cebpf4jnsgd1na2vs0mg"},{"bike_id":"bedb6366-4135-4040-97e7-991e59428de8","system_id":"levelo_inurba_marseille","lat":43.287,"lon":5.3999,"is_reserved":false,"is_disabled":false,"rental_uris":{"android":"levelo://app?vid=bedb6366-4135-4040-97e7-991e59428de8","ios":"levelo://app?vid=bedb6366-4135-4040-97e7-991e59428de8"},"vehicle_type_id":"4","last_reported":1753110755,"current_range_meters":16000,"station_id":"ce4bho92rcd13ifvqh3g","pricing_plan_id":"cebpf4jnsgd1na2vs0mg"},{"bike_id":"50d16da1-39af-48c8-9080-8fc1a2184959","system_id":"levelo_inurba_marseille","lat":43.21184,"lon":5.35072,"is_reserved":false,"is_disabled":false,"rental_uris":{"android":"levelo://app?vid=50d16da1-39af-48c8-9080-8fc1a2184959","ios":"levelo://app?vid=50d16da1-39af-48c8-9080-8fc1a2184959"},"vehicle_type_id":"4","last_reported":1753110755,"current_range_meters":16000,"station_id":"st_cvj6sg6p6f1abm77japg","pricing_plan_id":"cebpf4jnsgd1na2vs0mg"},{"bike_id":"106a5476-c943-4134-bb03-ab88d66f8b91","system_id":"levelo_inurba_marseille","lat":43.27425,"lon":5.39415,"is_reserved":false,"is_disabled":false,"rental_uris":{"android":"levelo://app?vid=106a5476-c943-4134-bb03-ab88d66f8b91","ios":"levelo://app?vid=106a5476-c943-4134-bb03-ab88d66f8b91"},"vehicle_type_id":"4","last_reported":1753110755,"current_range_meters":16400,"station_id":"ce4bhdp2rcd13ifvqf20","pricing_plan_id":"cebpf4jnsgd1na2vs0mg"},{"bike_id":"85b008dd-0f9f-4205-aa28-4f549082c3e6","system_id":"levelo_inurba_marseille","lat":43.21202,"lon":5.35074,"is_reserved":false,"is_disabled":false,"rental_uris":{"android":"levelo://app?vid=85b008dd-0f9f-4205-aa28-4f549082c3e6","ios":"levelo://app?vid=85b008dd-0f9f-4205-aa28-4f549082c3e6"},"vehicle_type_id":"4","last_reported":1753110755,"current_range_meters":16400,"station_id":"st_cvj6sg6p6f1abm77japg","pricing_plan_id":"cebpf4jnsgd1na2vs0mg"},{"bike_id":"68ad25bf-3ce4-4219-aae6-b4b4ca3df214","system_id":"levelo_inurba_marseille","lat":43.22507,"lon":5.3478,"is_reserved":false,"is_disabled":false,"rental_uris":{"android":"levelo://app?vid=68ad25bf-3ce4-4219-aae6-b4b4ca3df214","ios":"levelo://app?vid=68ad25bf-3ce4-4219-aae6-b4b4ca3df214"},"vehicle_type_id":"4","last_reported":1753110755,"current_range_meters":16400,"station_id":"st_cvj5dfep6f1abm77gieg","pricing_plan_id":"cebpf4jnsgd1na2vs0mg"},{"bike_id":"37eb163c-27b6-4f21-8e81-022abe2385c0","system_id":"levelo_inurba_marseille","lat":43.28414,"lon":5.34996,"is_reserved":false,"is_disabled":false,"rental_uris":{"android":"levelo://app?vid=37eb163c-27b6-4f21-8e81-022abe2385c0","ios":"levelo://app?vid=37eb163c-27b6-4f21-8e81-022abe2385c0"},"vehicle_type_id":"4","last_reported":1753110755,"current_range_meters":16400,"station_id":"ce4bhbh2rcd13ifvqepg","pricing_plan_id":"cebpf4jnsgd1na2vs0mg"},{"bike_id":"e57606de-d549-4a50-8b75-91216215a181","system_id":"levelo_inurba_marseille","lat":43.274928,"lon":5.424473,"is_reserved":false,"is_disabled":true,"rental_uris":{"android":"levelo://app?vid=e57606de-d549-4a50-8b75-91216215a181","ios":"levelo://app?vid=e57606de-d549-4a50-8b75-91216215a181"},"vehicle_type_id":"4","last_reported":1753110755,"current_range_meters":16400,"station_id":"ce4bhn92rcd13ifvqgrg","pricing_plan_id":"cebpf4jnsgd1na2vs0mg"},{"bike_id":"9180d689-518c-4051-bf85-515becc255ec","system_id":"levelo_inurba_marseille","lat":43.27073,"lon":5.39259,"is_reserved":false,"is_disabled":false,"rental_uris":{"android":"levelo://app?vid=9180d689-518c-4051-bf85-515becc255ec","ios":"levelo://app?vid=9180d689-518c-4051-bf85-515becc255ec"},"vehicle_type_id":"4","last_reported":1753110755,"current_range_meters":16400,"station_id":"","pricing_plan_id":"cebpf4jnsgd1na2vs0mg"},{"bike_id":"029610c2-4925-483c-aee3-344039ca907d","system_id":"levelo_inurba_marseille","lat":43.31115,"lon":5.37775,"is_reserved":false,"is_disabled":false,"rental_uris":{"android":"levelo://app?vid=029610c2-4925-483c-aee3-344039ca907d","ios":"levelo://app?vid=029610c2-4925-483c-aee3-344039ca907d"},"vehicle_type_id":"4","last_reported":1753110755,"current_range_meters":16400,"station_id":"ce4bgt92rcd13ifvqcg0","pricing_plan_id":"cebpf4jnsgd1na2vs0mg"},{"bike_id":"8423e589-47bf-47a8-b90f-452fc938c46b","system_id":"levelo_inurba_marseille","lat":43.32389,"lon":5.36761,"is_reserved":false,"is_disabled":false,"rental_uris":{"android":"levelo://app?vid=8423e589-47bf-47a8-b90f-452fc938c46b","ios":"levelo://app?vid=8423e589-47bf-47a8-b90f-452fc938c46b"},"vehicle_type_id":"4","last_reported":1753110755,"current_range_meters":16400,"station_id":"ce4bhsh2rcd13ifvqi2g","pricing_plan_id":"cebpf4jnsgd1na2vs0mg"},{"bike_id":"8f286a53-11b4-4d84-b9ef-1762d5ab74d4","system_id":"levelo_inurba_marseille","lat":43.28425,"lon":5.34997,"is_reserved":false,"is_disabled":false,"rental_uris":{"android":"levelo://app?vid=8f286a53-11b4-4d84-b9ef-1762d5ab74d4","ios":"levelo://app?vid=8f286a53-11b4-4d84-b9ef-1762d5ab74d4"},"vehicle_type_id":"4","last_reported":1753110755,"current_range_meters":16400,"station_id":"ce4bhbh2rcd13ifvqepg","pricing_plan_id":"cebpf4jnsgd1na2vs0mg"},{"bike_id":"6cfc99de-9afc-45fd-9ee9-ec2cb98ebd72","system_id":"levelo_inurba_marseille","lat":43.2737,"lon":5.3625,"is_reserved":false,"is_disabled":false,"rental_uris":{"android":"levelo://app?vid=6cfc99de-9afc-45fd-9ee9-ec2cb98ebd72","ios":"levelo://app?vid=6cfc99de-9afc-45fd-9ee9-ec2cb98ebd72"},"vehicle_type_id":"4","last_reported":1753110755,"current_range_meters":16400,"station_id":"ce4bhbh2rcd13ifvqeo0","pricing_plan_id":"cebpf4jnsgd1na2vs0mg"},{"bike_id":"6ecd5a2b-6dae-44b3-a162-e5286af43d43","system_id":"levelo_inurba_marseille","lat":43.22535,"lon":5.34785,"is_reserved":false,"is_disabled":false,"rental_uris":{"android":"levelo://app?vid=6ecd5a2b-6dae-44b3-a162-e5286af43d43","ios":"levelo://app?vid=6ecd5a2b-6dae-44b3-a162-e5286af43d43"},"vehicle_type_id":"4","last_reported":1753110755,"current_range_meters":16400,"station_id":"st_cvj5dfep6f1abm77gieg","pricing_plan_id":"cebpf4jnsgd1na2vs0mg"},{"bike_id":"dd2ec96e-45f2-429f-afd6-975c9a17f691","system_id":"levelo_inurba_marseille","lat":43.2512,"lon":5.40327,"is_reserved":false,"is_disabled":false,"rental_uris":{"android":"levelo://app?vid=dd2ec96e-45f2-429f-afd6-975c9a17f691","ios":"levelo://app?vid=dd2ec96e-45f2-429f-afd6-975c9a17f691"},"vehicle_type_id":"4","last_reported":1753110755,"current_range_meters":16800,"station_id":"ce4bhlh2rcd13ifvqgig","pricing_plan_id":"cebpf4jnsgd1na2vs0mg"},{"bike_id":"813fdfa8-f8b2-4366-9cff-b1cb15aca41c","system_id":"levelo_inurba_marseille","lat":43.26372,"lon":5.42121,"is_reserved":false,"is_disabled":false,"rental_uris":{"android":"levelo://app?vid=813fdfa8-f8b2-4366-9cff-b1cb15aca41c","ios":"levelo://app?vid=813fdfa8-f8b2-4366-9cff-b1cb15aca41c"},"vehicle_type_id":"4","last_reported":1753110755,"current_range_meters":16800,"station_id":"","pricing_plan_id":"cebpf4jnsgd1na2vs0mg"},{"bike_id":"736f95e3-fd06-405d-9353-8765373539d0","system_id":"levelo_inurba_marseille","lat":43.28615,"lon":5.35116,"is_reserved":false,"is_disabled":false,"rental_uris":{"android":"levelo://app?vid=736f95e3-fd06-405d-9353-8765373539d0","ios":"levelo://app?vid=736f95e3-fd06-405d-9353-8765373539d0"},"vehicle_type_id":"4","last_reported":1753110755,"current_range_meters":16800,"station_id":"ce4bhch2rcd13ifvqeug","pricing_plan_id":"cebpf4jnsgd1na2vs0mg"},{"bike_id":"ccb3a2c1-5335-4346-b5bb-08cb08061e0e","system_id":"levelo_inurba_marseille","lat":43.297777,"lon":5.381044,"is_reserved":false,"is_disabled":true,"rental_uris":{"android":"levelo://app?vid=ccb3a2c1-5335-4346-b5bb-08cb08061e0e","ios":"levelo://app?vid=ccb3a2c1-5335-4346-b5bb-08cb08061e0e"},"vehicle_type_id":"4","last_reported":1753110755,"current_range_meters":16800,"station_id":"ce4bgip2rcd13ifvqbb0","pricing_plan_id":"cebpf4jnsgd1na2vs0mg"},{"bike_id":"bd5a0fd2-db4f-4bae-b094-6c531ed3b7ad","system_id":"levelo_inurba_marseille","lat":43.27915,"lon":5.39577,"is_reserved":false,"is_disabled":false,"rental_uris":{"android":"levelo://app?vid=bd5a0fd2-db4f-4bae-b094-6c531ed3b7ad","ios":"levelo://app?vid=bd5a0fd2-db4f-4bae-b094-6c531ed3b7ad"},"vehicle_type_id":"4","last_reported":1753110755,"current_range_meters":16800,"station_id":"ce4bhf92rcd13ifvqf40","pricing_plan_id":"cebpf4jnsgd1na2vs0mg"},{"bike_id":"2d6095ea-f882-494d-a187-fa879408181e","system_id":"levelo_inurba_marseille","lat":43.25145,"lon":5.37343,"is_reserved":false,"is_disabled":false,"rental_uris":{"android":"levelo://app?vid=2d6095ea-f882-494d-a187-fa879408181e","ios":"levelo://app?vid=2d6095ea-f882-494d-a187-fa879408181e"},"vehicle_type_id":"4","last_reported":1753110755,"current_range_meters":16800,"station_id":"","pricing_plan_id":"cebpf4jnsgd1na2vs0mg"},{"bike_id":"298d7476-28c7-4c61-8302-df95a7d5d3d6","system_id":"levelo_inurba_marseille","lat":43.22497,"lon":5.34781,"is_reserved":false,"is_disabled":false,"rental_uris":{"android":"levelo://app?vid=298d7476-28c7-4c61-8302-df95a7d5d3d6","ios":"levelo://app?vid=298d7476-28c7-4c61-8302-df95a7d5d3d6"},"vehicle_type_id":"4","last_reported":1753110755,"current_range_meters":17200,"station_id":"st_cvj5dfep6f1abm77gieg","pricing_plan_id":"cebpf4jnsgd1na2vs0mg"},{"bike_id":"b6191c96-af83-462f-a3cc-e4778a781fff","system_id":"levelo_inurba_marseille","lat":43.21197,"lon":5.35079,"is_reserved":false,"is_disabled":false,"rental_uris":{"android":"levelo://app?vid=b6191c96-af83-462f-a3cc-e4778a781fff","ios":"levelo://app?vid=b6191c96-af83-462f-a3cc-e4778a781fff"},"vehicle_type_id":"4","last_reported":1753110755,"current_range_meters":17200,"station_id":"st_cvj6sg6p6f1abm77japg","pricing_plan_id":"cebpf4jnsgd1na2vs0mg"},{"bike_id":"0cb19f5e-6a19-4fc0-9b18-698188d68bf4","system_id":"levelo_inurba_marseille","lat":43.29726,"lon":5.43265,"is_reserved":false,"is_disabled":false,"rental_uris":{"android":"levelo://app?vid=0cb19f5e-6a19-4fc0-9b18-698188d68bf4","ios":"levelo://app?vid=0cb19f5e-6a19-4fc0-9b18-698188d68bf4"},"vehicle_type_id":"4","last_reported":1753110755,"current_range_meters":17200,"station_id":"","pricing_plan_id":"cebpf4jnsgd1na2vs0mg"},{"bike_id":"3fb96fc8-d5fa-4cf5-a8ad-367ac5eda46c","system_id":"levelo_inurba_marseille","lat":43.32551,"lon":5.41439,"is_reserved":false,"is_disabled":false,"rental_uris":{"android":"levelo://app?vid=3fb96fc8-d5fa-4cf5-a8ad-367ac5eda46c","ios":"levelo://app?vid=3fb96fc8-d5fa-4cf5-a8ad-367ac5eda46c"},"vehicle_type_id":"4","last_reported":1753110755,"current_range_meters":17200,"station_id":"ce4bhq12rcd13ifvqhhg","pricing_plan_id":"cebpf4jnsgd1na2vs0mg"},{"bike_id":"740b7423-7a27-4daa-9991-c3141fb84b3f","system_id":"levelo_inurba_marseille","lat":43.27187,"lon":5.40956,"is_reserved":false,"is_disabled":false,"rental_uris":{"android":"levelo://app?vid=740b7423-7a27-4daa-9991-c3141fb84b3f","ios":"levelo://app?vid=740b7423-7a27-4daa-9991-c3141fb84b3f"},"vehicle_type_id":"4","last_reported":1753110755,"current_range_meters":17200,"station_id":"ce4bhl12rcd13ifvqgf0","pricing_plan_id":"cebpf4jnsgd1na2vs0mg"},{"bike_id":"51931bf6-1eb4-445c-8f29-98888cfaefc7","system_id":"levelo_inurba_marseille","lat":43.29395,"lon":5.3984,"is_reserved":false,"is_disabled":false,"rental_uris":{"android":"levelo://app?vid=51931bf6-1eb4-445c-8f29-98888cfaefc7","ios":"levelo://app?vid=51931bf6-1eb4-445c-8f29-98888cfaefc7"},"vehicle_type_id":"4","last_reported":1753110755,"current_range_meters":17200,"station_id":"","pricing_plan_id":"cebpf4jnsgd1na2vs0mg"},{"bike_id":"a5d420c1-6f63-4560-9fe2-e08db2c4fecb","system_id":"levelo_inurba_marseille","lat":43.21219,"lon":5.3506,"is_reserved":false,"is_disabled":false,"rental_uris":{"android":"levelo://app?vid=a5d420c1-6f63-4560-9fe2-e08db2c4fecb","ios":"levelo://app?vid=a5d420c1-6f63-4560-9fe2-e08db2c4fecb"},"vehicle_type_id":"4","last_reported":1753110755,"current_range_meters":17200,"station_id":"st_cvj6sg6p6f1abm77japg","pricing_plan_id":"cebpf4jnsgd1na2vs0mg"},{"bike_id":"91faf937-6768-4101-98da-411036d125c4","system_id":"levelo_inurba_marseille","lat":43.22926,"lon":5.35379,"is_reserved":false,"is_disabled":false,"rental_uris":{"android":"levelo://app?vid=91faf937-6768-4101-98da-411036d125c4","ios":"levelo://app?vid=91faf937-6768-4101-98da-411036d125c4"},"vehicle_type_id":"4","last_reported":1753110755,"current_range_meters":17200,"station_id":"cpo3532slgdg3j2ikp40","pricing_plan_id":"cebpf4jnsgd1na2vs0mg"},{"bike_id":"b13d7b0c-9cbe-4525-b330-0bd16b6a3033","system_id":"levelo_inurba_marseille","lat":43.2842,"lon":5.34987,"is_reserved":false,"is_disabled":false,"rental_uris":{"android":"levelo://app?vid=b13d7b0c-9cbe-4525-b330-0bd16b6a3033","ios":"levelo://app?vid=b13d7b0c-9cbe-4525-b330-0bd16b6a3033"},"vehicle_type_id":"4","last_reported":1753110755,"current_range_meters":17200,"station_id":"ce4bhbh2rcd13ifvqepg","pricing_plan_id":"cebpf4jnsgd1na2vs0mg"},{"bike_id":"ecdfd721-9355-47ec-bb72-adc3ee5af59a","system_id":"levelo_inurba_marseille","lat":43.27174,"lon":5.40993,"is_reserved":false,"is_disabled":false,"rental_uris":{"android":"levelo://app?vid=ecdfd721-9355-47ec-bb72-adc3ee5af59a","ios":"levelo://app?vid=ecdfd721-9355-47ec-bb72-adc3ee5af59a"},"vehicle_type_id":"4","last_reported":1753110755,"current_range_meters":16800,"station_id":"ce4bhl12rcd13ifvqgf0","pricing_plan_id":"cebpf4jnsgd1na2vs0mg"},{"bike_id":"f0d8d162-6040-4d04-bf93-cf5be6be6485","system_id":"levelo_inurba_marseille","lat":43.24409,"lon":5.37072,"is_reserved":false,"is_disabled":false,"rental_uris":{"android":"levelo://app?vid=f0d8d162-6040-4d04-bf93-cf5be6be6485","ios":"levelo://app?vid=f0d8d162-6040-4d04-bf93-cf5be6be6485"},"vehicle_type_id":"4","last_reported":1753110755,"current_range_meters":17200,"station_id":"ce4bhhh2rcd13ifvqfk0","pricing_plan_id":"cebpf4jnsgd1na2vs0mg"},{"bike_id":"6834b706-a618-40f6-8722-8e5e5439ff2c","system_id":"levelo_inurba_marseille","lat":43.21755,"lon":5.346071,"is_reserved":false,"is_disabled":false,"rental_uris":{"android":"levelo://app?vid=6834b706-a618-40f6-8722-8e5e5439ff2c","ios":"levelo://app?vid=6834b706-a618-40f6-8722-8e5e5439ff2c"},"vehicle_type_id":"4","last_reported":1753110755,"current_range_meters":17200,"station_id":"st_cvj6r9ubvosntc0bgbag","pricing_plan_id":"cebpf4jnsgd1na2vs0mg"},{"bike_id":"4d2fb385-600a-460f-817d-c81c8838ad28","system_id":"levelo_inurba_marseille","lat":43.32314,"lon":5.36724,"is_reserved":false,"is_disabled":false,"rental_uris":{"android":"levelo://app?vid=4d2fb385-600a-460f-817d-c81c8838ad28","ios":"levelo://app?vid=4d2fb385-600a-460f-817d-c81c8838ad28"},"vehicle_type_id":"4","last_reported":1753110755,"current_range_meters":17600,"station_id":"ce4bhsh2rcd13ifvqi2g","pricing_plan_id":"cebpf4jnsgd1na2vs0mg"},{"bike_id":"76e8a4c7-1966-4c02-a21a-c2d4f4e224d8","system_id":"levelo_inurba_marseille","lat":43.29267,"lon":5.37624,"is_reserved":false,"is_disabled":true,"rental_uris":{"android":"levelo://app?vid=76e8a4c7-1966-4c02-a21a-c2d4f4e224d8","ios":"levelo://app?vid=76e8a4c7-1966-4c02-a21a-c2d4f4e224d8"},"vehicle_type_id":"4","last_reported":1753110755,"current_range_meters":17600,"station_id":"ce4bgi12rcd13ifvqb80","pricing_plan_id":"cebpf4jnsgd1na2vs0mg"},{"bike_id":"8e3deb96-c66a-40c0-abbb-7b5a89f3c232","system_id":"levelo_inurba_marseille","lat":43.25016,"lon":5.38904,"is_reserved":false,"is_disabled":false,"rental_uris":{"android":"levelo://app?vid=8e3deb96-c66a-40c0-abbb-7b5a89f3c232","ios":"levelo://app?vid=8e3deb96-c66a-40c0-abbb-7b5a89f3c232"},"vehicle_type_id":"4","last_reported":1753110755,"current_range_meters":17600,"station_id":"ce4bhgp2rcd13ifvqfd0","pricing_plan_id":"cebpf4jnsgd1na2vs0mg"},{"bike_id":"74ae72dd-099b-4ece-855a-bb9b1c3b399d","system_id":"levelo_inurba_marseille","lat":43.2455,"lon":5.39517,"is_reserved":false,"is_disabled":false,"rental_uris":{"android":"levelo://app?vid=74ae72dd-099b-4ece-855a-bb9b1c3b399d","ios":"levelo://app?vid=74ae72dd-099b-4ece-855a-bb9b1c3b399d"},"vehicle_type_id":"4","last_reported":1753110755,"current_range_meters":17600,"station_id":"ce4bhlp2rcd13ifvqgjg","pricing_plan_id":"cebpf4jnsgd1na2vs0mg"},{"bike_id":"bfef84e9-8b7b-4f14-9a97-7a74788bf0a0","system_id":"levelo_inurba_marseille","lat":43.30479,"lon":5.37906,"is_reserved":false,"is_disabled":false,"rental_uris":{"android":"levelo://app?vid=bfef84e9-8b7b-4f14-9a97-7a74788bf0a0","ios":"levelo://app?vid=bfef84e9-8b7b-4f14-9a97-7a74788bf0a0"},"vehicle_type_id":"4","last_reported":1753110755,"current_range_meters":17600,"station_id":"ce4bgup2rcd13ifvqcn0","pricing_plan_id":"cebpf4jnsgd1na2vs0mg"},{"bike_id":"2fd31598-6312-4917-95ca-e2f408b1867d","system_id":"levelo_inurba_marseille","lat":43.27376,"lon":5.36259,"is_reserved":false,"is_disabled":false,"rental_uris":{"android":"levelo://app?vid=2fd31598-6312-4917-95ca-e2f408b1867d","ios":"levelo://app?vid=2fd31598-6312-4917-95ca-e2f408b1867d"},"vehicle_type_id":"4","last_reported":1753110755,"current_range_meters":17600,"station_id":"ce4bhbh2rcd13ifvqeo0","pricing_plan_id":"cebpf4jnsgd1na2vs0mg"},{"bike_id":"270a17cb-d400-4dcf-b95e-31f2bfe3b52d","system_id":"levelo_inurba_marseille","lat":43.22934,"lon":5.35384,"is_reserved":false,"is_disabled":false,"rental_uris":{"android":"levelo://app?vid=270a17cb-d400-4dcf-b95e-31f2bfe3b52d","ios":"levelo://app?vid=270a17cb-d400-4dcf-b95e-31f2bfe3b52d"},"vehicle_type_id":"4","last_reported":1753110755,"current_range_meters":17600,"station_id":"cpo3532slgdg3j2ikp40","pricing_plan_id":"cebpf4jnsgd1na2vs0mg"},{"bike_id":"263d4ced-6e04-4169-ac4b-7fa733c92fa6","system_id":"levelo_inurba_marseille","lat":43.32367,"lon":5.36757,"is_reserved":false,"is_disabled":false,"rental_uris":{"android":"levelo://app?vid=263d4ced-6e04-4169-ac4b-7fa733c92fa6","ios":"levelo://app?vid=263d4ced-6e04-4169-ac4b-7fa733c92fa6"},"vehicle_type_id":"4","last_reported":1753110755,"current_range_meters":17600,"station_id":"ce4bhsh2rcd13ifvqi2g","pricing_plan_id":"cebpf4jnsgd1na2vs0mg"},{"bike_id":"5d2b93ef-bfc6-4d6c-8637-14ac1a8734fd","system_id":"levelo_inurba_marseille","lat":43.27996,"lon":5.40014,"is_reserved":false,"is_disabled":false,"rental_uris":{"android":"levelo://app?vid=5d2b93ef-bfc6-4d6c-8637-14ac1a8734fd","ios":"levelo://app?vid=5d2b93ef-bfc6-4d6c-8637-14ac1a8734fd"},"vehicle_type_id":"4","last_reported":1753110755,"current_range_meters":18000,"station_id":"ce4bho92rcd13ifvqh4g","pricing_plan_id":"cebpf4jnsgd1na2vs0mg"},{"bike_id":"e2f86886-eff5-42f7-b7a6-9956f7a22dc5","system_id":"levelo_inurba_marseille","lat":43.28485,"lon":5.38536,"is_reserved":false,"is_disabled":false,"rental_uris":{"android":"levelo://app?vid=e2f86886-eff5-42f7-b7a6-9956f7a22dc5","ios":"levelo://app?vid=e2f86886-eff5-42f7-b7a6-9956f7a22dc5"},"vehicle_type_id":"4","last_reported":1753110755,"current_range_meters":18000,"station_id":"","pricing_plan_id":"cebpf4jnsgd1na2vs0mg"},{"bike_id":"97662646-2e67-43f3-b39d-37292cdb7854","system_id":"levelo_inurba_marseille","lat":43.30266,"lon":5.37687,"is_reserved":false,"is_disabled":false,"rental_uris":{"android":"levelo://app?vid=97662646-2e67-43f3-b39d-37292cdb7854","ios":"levelo://app?vid=97662646-2e67-43f3-b39d-37292cdb7854"},"vehicle_type_id":"4","last_reported":1753110755,"current_range_meters":18000,"station_id":"ce4bguh2rcd13ifvqcj0","pricing_plan_id":"cebpf4jnsgd1na2vs0mg"},{"bike_id":"4f19c5f6-e70b-4068-8f9e-2d12dbbe0f4c","system_id":"levelo_inurba_marseille","lat":43.27368,"lon":5.36256,"is_reserved":false,"is_disabled":false,"rental_uris":{"android":"levelo://app?vid=4f19c5f6-e70b-4068-8f9e-2d12dbbe0f4c","ios":"levelo://app?vid=4f19c5f6-e70b-4068-8f9e-2d12dbbe0f4c"},"vehicle_type_id":"4","last_reported":1753110755,"current_range_meters":18000,"station_id":"ce4bhbh2rcd13ifvqeo0","pricing_plan_id":"cebpf4jnsgd1na2vs0mg"},{"bike_id":"58cbfa7e-c704-4866-ba9b-204648f1391a","system_id":"levelo_inurba_marseille","lat":43.299579,"lon":5.380973,"is_reserved":false,"is_disabled":false,"rental_uris":{"android":"levelo://app?vid=58cbfa7e-c704-4866-ba9b-204648f1391a","ios":"levelo://app?vid=58cbfa7e-c704-4866-ba9b-204648f1391a"},"vehicle_type_id":"4","last_reported":1753110755,"current_range_meters":18000,"station_id":"","pricing_plan_id":"cebpf4jnsgd1na2vs0mg"},{"bike_id":"40b31e1e-a130-4440-9038-b6482798f785","system_id":"levelo_inurba_marseille","lat":43.2694,"lon":5.40249,"is_reserved":false,"is_disabled":false,"rental_uris":{"android":"levelo://app?vid=40b31e1e-a130-4440-9038-b6482798f785","ios":"levelo://app?vid=40b31e1e-a130-4440-9038-b6482798f785"},"vehicle_type_id":"4","last_reported":1753110755,"current_range_meters":17600,"station_id":"cjm6bp8fraef2m0cb0m0","pricing_plan_id":"cebpf4jnsgd1na2vs0mg"},{"bike_id":"e06695ae-a245-4711-a52d-2e4e9d5d9750","system_id":"levelo_inurba_marseille","lat":43.30174,"lon":5.38069,"is_reserved":false,"is_disabled":false,"rental_uris":{"android":"levelo://app?vid=e06695ae-a245-4711-a52d-2e4e9d5d9750","ios":"levelo://app?vid=e06695ae-a245-4711-a52d-2e4e9d5d9750"},"vehicle_type_id":"4","last_reported":1753110755,"current_range_meters":18800,"station_id":"ce4bgjp2rcd13ifvqbh0","pricing_plan_id":"cebpf4jnsgd1na2vs0mg"},{"bike_id":"fe732a6c-bff8-47cc-932a-3c976c2c7a76","system_id":"levelo_inurba_marseille","lat":43.280363,"lon":5.369555,"is_reserved":false,"is_disabled":true,"rental_uris":{"android":"levelo://app?vid=fe732a6c-bff8-47cc-932a-3c976c2c7a76","ios":"levelo://app?vid=fe732a6c-bff8-47cc-932a-3c976c2c7a76"},"vehicle_type_id":"4","last_reported":1753110755,"current_range_meters":18800,"station_id":"","pricing_plan_id":"cebpf4jnsgd1na2vs0mg"},{"bike_id":"f00edc13-f36f-48e1-91ef-9c20dba77eb5","system_id":"levelo_inurba_marseille","lat":43.33794,"lon":5.37419,"is_reserved":false,"is_disabled":false,"rental_uris":{"android":"levelo://app?vid=f00edc13-f36f-48e1-91ef-9c20dba77eb5","ios":"levelo://app?vid=f00edc13-f36f-48e1-91ef-9c20dba77eb5"},"vehicle_type_id":"4","last_reported":1753110755,"current_range_meters":18800,"station_id":"","pricing_plan_id":"cebpf4jnsgd1na2vs0mg"},{"bike_id":"1367b248-8421-4a8a-b4ce-b5b27d626155","system_id":"levelo_inurba_marseille","lat":43.28036,"lon":5.36948,"is_reserved":false,"is_disabled":false,"rental_uris":{"android":"levelo://app?vid=1367b248-8421-4a8a-b4ce-b5b27d626155","ios":"levelo://app?vid=1367b248-8421-4a8a-b4ce-b5b27d626155"},"vehicle_type_id":"4","last_reported":1753110755,"current_range_meters":18800,"station_id":"ce4bha12rcd13ifvqef0","pricing_plan_id":"cebpf4jnsgd1na2vs0mg"},{"bike_id":"b050b2a0-6d4d-4d6b-b7de-6a89501ce2b7","system_id":"levelo_inurba_marseille","lat":43.28946,"lon":5.36389,"is_reserved":false,"is_disabled":true,"rental_uris":{"android":"levelo://app?vid=b050b2a0-6d4d-4d6b-b7de-6a89501ce2b7","ios":"levelo://app?vid=b050b2a0-6d4d-4d6b-b7de-6a89501ce2b7"},"vehicle_type_id":"4","last_reported":1753110755,"current_range_meters":18800,"station_id":"ce4bhc92rcd13ifvqetg","pricing_plan_id":"cebpf4jnsgd1na2vs0mg"},{"bike_id":"668bfa40-7ae0-42dd-a6b6-6631a40f0c0f","system_id":"levelo_inurba_marseille","lat":43.33151,"lon":5.38589,"is_reserved":false,"is_disabled":false,"rental_uris":{"android":"levelo://app?vid=668bfa40-7ae0-42dd-a6b6-6631a40f0c0f","ios":"levelo://app?vid=668bfa40-7ae0-42dd-a6b6-6631a40f0c0f"},"vehicle_type_id":"4","last_reported":1753110755,"current_range_meters":18800,"station_id":"","pricing_plan_id":"cebpf4jnsgd1na2vs0mg"},{"bike_id":"51810feb-c9da-4f93-85f1-44fc0b989db6","system_id":"levelo_inurba_marseille","lat":43.22936,"lon":5.35376,"is_reserved":false,"is_disabled":false,"rental_uris":{"android":"levelo://app?vid=51810feb-c9da-4f93-85f1-44fc0b989db6","ios":"levelo://app?vid=51810feb-c9da-4f93-85f1-44fc0b989db6"},"vehicle_type_id":"4","last_reported":1753110755,"current_range_meters":18800,"station_id":"cpo3532slgdg3j2ikp40","pricing_plan_id":"cebpf4jnsgd1na2vs0mg"},{"bike_id":"a8425362-197a-4dc6-a73b-d17d37743a9c","system_id":"levelo_inurba_marseille","lat":43.21751,"lon":5.34601,"is_reserved":false,"is_disabled":false,"rental_uris":{"android":"levelo://app?vid=a8425362-197a-4dc6-a73b-d17d37743a9c","ios":"levelo://app?vid=a8425362-197a-4dc6-a73b-d17d37743a9c"},"vehicle_type_id":"4","last_reported":1753110755,"current_range_meters":18800,"station_id":"st_cvj6r9ubvosntc0bgbag","pricing_plan_id":"cebpf4jnsgd1na2vs0mg"},{"bike_id":"abd985b4-af70-426d-aa2e-094e066d72c1","system_id":"levelo_inurba_marseille","lat":43.28618,"lon":5.35109,"is_reserved":false,"is_disabled":false,"rental_uris":{"android":"levelo://app?vid=abd985b4-af70-426d-aa2e-094e066d72c1","ios":"levelo://app?vid=abd985b4-af70-426d-aa2e-094e066d72c1"},"vehicle_type_id":"4","last_reported":1753110755,"current_range_meters":18800,"station_id":"ce4bhch2rcd13ifvqeug","pricing_plan_id":"cebpf4jnsgd1na2vs0mg"},{"bike_id":"4a062b19-5034-4363-abce-0b66f8ef5116","system_id":"levelo_inurba_marseille","lat":43.30271,"lon":5.37702,"is_reserved":false,"is_disabled":false,"rental_uris":{"android":"levelo://app?vid=4a062b19-5034-4363-abce-0b66f8ef5116","ios":"levelo://app?vid=4a062b19-5034-4363-abce-0b66f8ef5116"},"vehicle_type_id":"4","last_reported":1753110755,"current_range_meters":19200,"station_id":"ce4bguh2rcd13ifvqcj0","pricing_plan_id":"cebpf4jnsgd1na2vs0mg"},{"bike_id":"07cad5da-863b-4dcd-9b5f-8a55c0a76449","system_id":"levelo_inurba_marseille","lat":43.28794,"lon":5.39124,"is_reserved":false,"is_disabled":false,"rental_uris":{"android":"levelo://app?vid=07cad5da-863b-4dcd-9b5f-8a55c0a76449","ios":"levelo://app?vid=07cad5da-863b-4dcd-9b5f-8a55c0a76449"},"vehicle_type_id":"4","last_reported":1753110755,"current_range_meters":19200,"station_id":"","pricing_plan_id":"cebpf4jnsgd1na2vs0mg"},{"bike_id":"13adf853-6ca7-4ebd-8c9f-f4512dd3a322","system_id":"levelo_inurba_marseille","lat":43.33276,"lon":5.39843,"is_reserved":false,"is_disabled":true,"rental_uris":{"android":"levelo://app?vid=13adf853-6ca7-4ebd-8c9f-f4512dd3a322","ios":"levelo://app?vid=13adf853-6ca7-4ebd-8c9f-f4512dd3a322"},"vehicle_type_id":"4","last_reported":1753110755,"current_range_meters":19200,"station_id":"","pricing_plan_id":"cebpf4jnsgd1na2vs0mg"},{"bike_id":"56c849d0-2fd7-4663-bd40-4459368ce979","system_id":"levelo_inurba_marseille","lat":43.31237,"lon":5.3684,"is_reserved":false,"is_disabled":false,"rental_uris":{"android":"levelo://app?vid=56c849d0-2fd7-4663-bd40-4459368ce979","ios":"levelo://app?vid=56c849d0-2fd7-4663-bd40-4459368ce979"},"vehicle_type_id":"4","last_reported":1753110755,"current_range_meters":19200,"station_id":"ce4bgl92rcd13ifvqbq0","pricing_plan_id":"cebpf4jnsgd1na2vs0mg"},{"bike_id":"b4c1aa2a-e931-4ce6-8816-30ad77bdd520","system_id":"levelo_inurba_marseille","lat":43.241448,"lon":5.363743,"is_reserved":false,"is_disabled":false,"rental_uris":{"android":"levelo://app?vid=b4c1aa2a-e931-4ce6-8816-30ad77bdd520","ios":"levelo://app?vid=b4c1aa2a-e931-4ce6-8816-30ad77bdd520"},"vehicle_type_id":"4","last_reported":1753110755,"current_range_meters":19200,"station_id":"","pricing_plan_id":"cebpf4jnsgd1na2vs0mg"},{"bike_id":"aedc5a87-da10-489b-985e-693fad8ab007","system_id":"levelo_inurba_marseille","lat":43.28268,"lon":5.3506,"is_reserved":false,"is_disabled":false,"rental_uris":{"android":"levelo://app?vid=aedc5a87-da10-489b-985e-693fad8ab007","ios":"levelo://app?vid=aedc5a87-da10-489b-985e-693fad8ab007"},"vehicle_type_id":"4","last_reported":1753110755,"current_range_meters":19200,"station_id":"ce4bhbp2rcd13ifvqerg","pricing_plan_id":"cebpf4jnsgd1na2vs0mg"},{"bike_id":"87bc9e6f-1d5b-4237-a1df-3b5cfd8a9777","system_id":"levelo_inurba_marseille","lat":43.21209,"lon":5.35062,"is_reserved":false,"is_disabled":false,"rental_uris":{"android":"levelo://app?vid=87bc9e6f-1d5b-4237-a1df-3b5cfd8a9777","ios":"levelo://app?vid=87bc9e6f-1d5b-4237-a1df-3b5cfd8a9777"},"vehicle_type_id":"4","last_reported":1753110755,"current_range_meters":19200,"station_id":"st_cvj6sg6p6f1abm77japg","pricing_plan_id":"cebpf4jnsgd1na2vs0mg"},{"bike_id":"ca8da7d0-fc1f-4569-a6f4-27831ffe432e","system_id":"levelo_inurba_marseille","lat":43.29966,"lon":5.38485,"is_reserved":false,"is_disabled":false,"rental_uris":{"android":"levelo://app?vid=ca8da7d0-fc1f-4569-a6f4-27831ffe432e","ios":"levelo://app?vid=ca8da7d0-fc1f-4569-a6f4-27831ffe432e"},"vehicle_type_id":"4","last_reported":1753110755,"current_range_meters":19200,"station_id":"ce4bgj92rcd13ifvqbd0","pricing_plan_id":"cebpf4jnsgd1na2vs0mg"},{"bike_id":"e9b80006-b301-485e-9ba1-e5fa35b2517f","system_id":"levelo_inurba_marseille","lat":43.28852,"lon":5.39305,"is_reserved":false,"is_disabled":false,"rental_uris":{"android":"levelo://app?vid=e9b80006-b301-485e-9ba1-e5fa35b2517f","ios":"levelo://app?vid=e9b80006-b301-485e-9ba1-e5fa35b2517f"},"vehicle_type_id":"4","last_reported":1753110755,"current_range_meters":17600,"station_id":"ce4bh2p2rcd13ifvqdi0","pricing_plan_id":"cebpf4jnsgd1na2vs0mg"},{"bike_id":"f2ae3914-afd9-4ae9-b087-b6a8c5753948","system_id":"levelo_inurba_marseille","lat":43.32279,"lon":5.36676,"is_reserved":false,"is_disabled":false,"rental_uris":{"android":"levelo://app?vid=f2ae3914-afd9-4ae9-b087-b6a8c5753948","ios":"levelo://app?vid=f2ae3914-afd9-4ae9-b087-b6a8c5753948"},"vehicle_type_id":"4","last_reported":1753110755,"current_range_meters":19200,"station_id":"","pricing_plan_id":"cebpf4jnsgd1na2vs0mg"},{"bike_id":"6f7d32d6-b088-4c20-b9e3-585ba0fc1933","system_id":"levelo_inurba_marseille","lat":43.30578,"lon":5.36537,"is_reserved":false,"is_disabled":false,"rental_uris":{"android":"levelo://app?vid=6f7d32d6-b088-4c20-b9e3-585ba0fc1933","ios":"levelo://app?vid=6f7d32d6-b088-4c20-b9e3-585ba0fc1933"},"vehicle_type_id":"4","last_reported":1753110755,"current_range_meters":19600,"station_id":"ce4bgs12rcd13ifvqcag","pricing_plan_id":"cebpf4jnsgd1na2vs0mg"},{"bike_id":"ee09eda1-e075-4f4d-9c5f-ac6a4aa881c4","system_id":"levelo_inurba_marseille","lat":43.278195,"lon":5.407193,"is_reserved":false,"is_disabled":false,"rental_uris":{"android":"levelo://app?vid=ee09eda1-e075-4f4d-9c5f-ac6a4aa881c4","ios":"levelo://app?vid=ee09eda1-e075-4f4d-9c5f-ac6a4aa881c4"},"vehicle_type_id":"4","last_reported":1753110755,"current_range_meters":19600,"station_id":"ce4bhnh2rcd13ifvqgtg","pricing_plan_id":"cebpf4jnsgd1na2vs0mg"},{"bike_id":"534098fe-a2b0-45be-a076-83fc2f5e28f9","system_id":"levelo_inurba_marseille","lat":43.32114,"lon":5.36774,"is_reserved":false,"is_disabled":false,"rental_uris":{"android":"levelo://app?vid=534098fe-a2b0-45be-a076-83fc2f5e28f9","ios":"levelo://app?vid=534098fe-a2b0-45be-a076-83fc2f5e28f9"},"vehicle_type_id":"4","last_reported":1753110755,"current_range_meters":19600,"station_id":"ce4bhrh2rcd13ifvqhug","pricing_plan_id":"cebpf4jnsgd1na2vs0mg"},{"bike_id":"0252eab3-c3f3-4486-b893-58cb3f957c57","system_id":"levelo_inurba_marseille","lat":43.31728,"lon":5.38509,"is_reserved":false,"is_disabled":false,"rental_uris":{"android":"levelo://app?vid=0252eab3-c3f3-4486-b893-58cb3f957c57","ios":"levelo://app?vid=0252eab3-c3f3-4486-b893-58cb3f957c57"},"vehicle_type_id":"4","last_reported":1753110755,"current_range_meters":19600,"station_id":"","pricing_plan_id":"cebpf4jnsgd1na2vs0mg"},{"bike_id":"7227f2a0-48ac-47a6-aa2d-661ad6a7a763","system_id":"levelo_inurba_marseille","lat":43.29058,"lon":5.3717,"is_reserved":false,"is_disabled":true,"rental_uris":{"android":"levelo://app?vid=7227f2a0-48ac-47a6-aa2d-661ad6a7a763","ios":"levelo://app?vid=7227f2a0-48ac-47a6-aa2d-661ad6a7a763"},"vehicle_type_id":"4","last_reported":1753110755,"current_range_meters":19600,"station_id":"ce4bgh92rcd13ifvqb40","pricing_plan_id":"cebpf4jnsgd1na2vs0mg"},{"bike_id":"02bda465-5730-4d42-a0d1-5ffc89217a3f","system_id":"levelo_inurba_marseille","lat":43.30658,"lon":5.38184,"is_reserved":false,"is_disabled":false,"rental_uris":{"android":"levelo://app?vid=02bda465-5730-4d42-a0d1-5ffc89217a3f","ios":"levelo://app?vid=02bda465-5730-4d42-a0d1-5ffc89217a3f"},"vehicle_type_id":"4","last_reported":1753110755,"current_range_meters":19600,"station_id":"","pricing_plan_id":"cebpf4jnsgd1na2vs0mg"},{"bike_id":"84d5db7d-a6c3-4b4f-8444-cf44e73a17b0","system_id":"levelo_inurba_marseille","lat":43.26945,"lon":5.38645,"is_reserved":false,"is_disabled":false,"rental_uris":{"android":"levelo://app?vid=84d5db7d-a6c3-4b4f-8444-cf44e73a17b0","ios":"levelo://app?vid=84d5db7d-a6c3-4b4f-8444-cf44e73a17b0"},"vehicle_type_id":"4","last_reported":1753110755,"current_range_meters":19600,"station_id":"ce4bhh92rcd13ifvqfh0","pricing_plan_id":"cebpf4jnsgd1na2vs0mg"},{"bike_id":"de5426ba-ae67-47a4-bece-c11c7065cd1e","system_id":"levelo_inurba_marseille","lat":43.21222,"lon":5.35087,"is_reserved":false,"is_disabled":false,"rental_uris":{"android":"levelo://app?vid=de5426ba-ae67-47a4-bece-c11c7065cd1e","ios":"levelo://app?vid=de5426ba-ae67-47a4-bece-c11c7065cd1e"},"vehicle_type_id":"4","last_reported":1753110755,"current_range_meters":19600,"station_id":"st_cvj6sg6p6f1abm77japg","pricing_plan_id":"cebpf4jnsgd1na2vs0mg"},{"bike_id":"ae526434-b1b3-4cf0-b9c7-9a4ea251d318","system_id":"levelo_inurba_marseille","lat":43.31064,"lon":5.38347,"is_reserved":false,"is_disabled":false,"rental_uris":{"android":"levelo://app?vid=ae526434-b1b3-4cf0-b9c7-9a4ea251d318","ios":"levelo://app?vid=ae526434-b1b3-4cf0-b9c7-9a4ea251d318"},"vehicle_type_id":"4","last_reported":1753110755,"current_range_meters":20000,"station_id":"ce4bgv92rcd13ifvqcr0","pricing_plan_id":"cebpf4jnsgd1na2vs0mg"},{"bike_id":"95cbb19e-cc15-466b-b8f4-b71f743271d7","system_id":"levelo_inurba_marseille","lat":43.30544,"lon":5.36555,"is_reserved":false,"is_disabled":false,"rental_uris":{"android":"levelo://app?vid=95cbb19e-cc15-466b-b8f4-b71f743271d7","ios":"levelo://app?vid=95cbb19e-cc15-466b-b8f4-b71f743271d7"},"vehicle_type_id":"4","last_reported":1753110755,"current_range_meters":20000,"station_id":"ce4bgs12rcd13ifvqcag","pricing_plan_id":"cebpf4jnsgd1na2vs0mg"},{"bike_id":"5153e984-1abc-4d5b-91ef-21249865a3e6","system_id":"levelo_inurba_marseille","lat":43.21199,"lon":5.35071,"is_reserved":false,"is_disabled":false,"rental_uris":{"android":"levelo://app?vid=5153e984-1abc-4d5b-91ef-21249865a3e6","ios":"levelo://app?vid=5153e984-1abc-4d5b-91ef-21249865a3e6"},"vehicle_type_id":"4","last_reported":1753110755,"current_range_meters":20000,"station_id":"st_cvj6sg6p6f1abm77japg","pricing_plan_id":"cebpf4jnsgd1na2vs0mg"},{"bike_id":"9c3a4b2d-b63e-4143-9015-8c998eae265c","system_id":"levelo_inurba_marseille","lat":43.29557,"lon":5.42287,"is_reserved":false,"is_disabled":false,"rental_uris":{"android":"levelo://app?vid=9c3a4b2d-b63e-4143-9015-8c998eae265c","ios":"levelo://app?vid=9c3a4b2d-b63e-4143-9015-8c998eae265c"},"vehicle_type_id":"4","last_reported":1753110755,"current_range_meters":20000,"station_id":"ce4bhph2rcd13ifvqhdg","pricing_plan_id":"cebpf4jnsgd1na2vs0mg"},{"bike_id":"67c3d3ad-af72-4325-a9c4-ed0e142c69fe","system_id":"levelo_inurba_marseille","lat":43.30548,"lon":5.36553,"is_reserved":false,"is_disabled":false,"rental_uris":{"android":"levelo://app?vid=67c3d3ad-af72-4325-a9c4-ed0e142c69fe","ios":"levelo://app?vid=67c3d3ad-af72-4325-a9c4-ed0e142c69fe"},"vehicle_type_id":"4","last_reported":1753110755,"current_range_meters":20000,"station_id":"ce4bgs12rcd13ifvqcag","pricing_plan_id":"cebpf4jnsgd1na2vs0mg"},{"bike_id":"5510ee41-91f5-4d91-be3a-6a9d872390ee","system_id":"levelo_inurba_marseille","lat":43.27413,"lon":5.39416,"is_reserved":false,"is_disabled":false,"rental_uris":{"android":"levelo://app?vid=5510ee41-91f5-4d91-be3a-6a9d872390ee","ios":"levelo://app?vid=5510ee41-91f5-4d91-be3a-6a9d872390ee"},"vehicle_type_id":"4","last_reported":1753110755,"current_range_meters":20000,"station_id":"ce4bhgp2rcd13ifvqfe0","pricing_plan_id":"cebpf4jnsgd1na2vs0mg"},{"bike_id":"64a2f514-4942-458d-b3fc-7d7fd0dfd1b1","system_id":"levelo_inurba_marseille","lat":43.21201,"lon":5.35081,"is_reserved":false,"is_disabled":false,"rental_uris":{"android":"levelo://app?vid=64a2f514-4942-458d-b3fc-7d7fd0dfd1b1","ios":"levelo://app?vid=64a2f514-4942-458d-b3fc-7d7fd0dfd1b1"},"vehicle_type_id":"4","last_reported":1753110755,"current_range_meters":20000,"station_id":"st_cvj6sg6p6f1abm77japg","pricing_plan_id":"cebpf4jnsgd1na2vs0mg"},{"bike_id":"43289c39-b43b-4745-8781-6d56ee0c5b1f","system_id":"levelo_inurba_marseille","lat":43.31195,"lon":5.36904,"is_reserved":false,"is_disabled":false,"rental_uris":{"android":"levelo://app?vid=43289c39-b43b-4745-8781-6d56ee0c5b1f","ios":"levelo://app?vid=43289c39-b43b-4745-8781-6d56ee0c5b1f"},"vehicle_type_id":"4","last_reported":1753110755,"current_range_meters":20000,"station_id":"","pricing_plan_id":"cebpf4jnsgd1na2vs0mg"},{"bike_id":"dda96cde-9f78-4371-a72f-1d24145c396a","system_id":"levelo_inurba_marseille","lat":43.21189,"lon":5.35058,"is_reserved":false,"is_disabled":false,"rental_uris":{"android":"levelo://app?vid=dda96cde-9f78-4371-a72f-1d24145c396a","ios":"levelo://app?vid=dda96cde-9f78-4371-a72f-1d24145c396a"},"vehicle_type_id":"4","last_reported":1753110755,"current_range_meters":20400,"station_id":"st_cvj6sg6p6f1abm77japg","pricing_plan_id":"cebpf4jnsgd1na2vs0mg"},{"bike_id":"c5ecae1d-27c6-49ad-84eb-f13ae21537dd","system_id":"levelo_inurba_marseille","lat":43.29976,"lon":5.3718,"is_reserved":false,"is_disabled":false,"rental_uris":{"android":"levelo://app?vid=c5ecae1d-27c6-49ad-84eb-f13ae21537dd","ios":"levelo://app?vid=c5ecae1d-27c6-49ad-84eb-f13ae21537dd"},"vehicle_type_id":"4","last_reported":1753110755,"current_range_meters":20400,"station_id":"ce4bgr92rcd13ifvqc7g","pricing_plan_id":"cebpf4jnsgd1na2vs0mg"},{"bike_id":"1b201660-08e0-4e35-8269-4929ff07affc","system_id":"levelo_inurba_marseille","lat":43.21739,"lon":5.34603,"is_reserved":false,"is_disabled":false,"rental_uris":{"android":"levelo://app?vid=1b201660-08e0-4e35-8269-4929ff07affc","ios":"levelo://app?vid=1b201660-08e0-4e35-8269-4929ff07affc"},"vehicle_type_id":"4","last_reported":1753110755,"current_range_meters":20400,"station_id":"st_cvj6r9ubvosntc0bgbag","pricing_plan_id":"cebpf4jnsgd1na2vs0mg"},{"bike_id":"f5767321-03ff-4c6c-8a78-ad57e022e0a0","system_id":"levelo_inurba_marseille","lat":43.29044,"lon":5.38135,"is_reserved":false,"is_disabled":true,"rental_uris":{"android":"levelo://app?vid=f5767321-03ff-4c6c-8a78-ad57e022e0a0","ios":"levelo://app?vid=f5767321-03ff-4c6c-8a78-ad57e022e0a0"},"vehicle_type_id":"4","last_reported":1753110755,"current_range_meters":20400,"station_id":"ce4bh4p2rcd13ifvqe1g","pricing_plan_id":"cebpf4jnsgd1na2vs0mg"},{"bike_id":"ce77ed30-76a6-46cf-94f3-a626fe24a481","system_id":"levelo_inurba_marseille","lat":43.24168,"lon":5.36397,"is_reserved":false,"is_disabled":false,"rental_uris":{"android":"levelo://app?vid=ce77ed30-76a6-46cf-94f3-a626fe24a481","ios":"levelo://app?vid=ce77ed30-76a6-46cf-94f3-a626fe24a481"},"vehicle_type_id":"4","last_reported":1753110755,"current_range_meters":20400,"station_id":"cpo36qri1sfpv3e86is0","pricing_plan_id":"cebpf4jnsgd1na2vs0mg"},{"bike_id":"2975a10e-052a-4ed4-8afb-b52549159b49","system_id":"levelo_inurba_marseille","lat":43.32416,"lon":5.38408,"is_reserved":false,"is_disabled":false,"rental_uris":{"android":"levelo://app?vid=2975a10e-052a-4ed4-8afb-b52549159b49","ios":"levelo://app?vid=2975a10e-052a-4ed4-8afb-b52549159b49"},"vehicle_type_id":"4","last_reported":1753110755,"current_range_meters":20400,"station_id":"","pricing_plan_id":"cebpf4jnsgd1na2vs0mg"},{"bike_id":"d6078be3-5b52-4485-9a75-4f05e5b3330b","system_id":"levelo_inurba_marseille","lat":43.23194,"lon":5.35559,"is_reserved":false,"is_disabled":false,"rental_uris":{"android":"levelo://app?vid=d6078be3-5b52-4485-9a75-4f05e5b3330b","ios":"levelo://app?vid=d6078be3-5b52-4485-9a75-4f05e5b3330b"},"vehicle_type_id":"4","last_reported":1753110755,"current_range_meters":20400,"station_id":"ce4bhu92rcd13ifvqi70","pricing_plan_id":"cebpf4jnsgd1na2vs0mg"},{"bike_id":"494f97be-feb6-4ce2-84dd-bdc5f14db45d","system_id":"levelo_inurba_marseille","lat":43.27497,"lon":5.42451,"is_reserved":false,"is_disabled":false,"rental_uris":{"android":"levelo://app?vid=494f97be-feb6-4ce2-84dd-bdc5f14db45d","ios":"levelo://app?vid=494f97be-feb6-4ce2-84dd-bdc5f14db45d"},"vehicle_type_id":"4","last_reported":1753110755,"current_range_meters":20400,"station_id":"ce4bhn92rcd13ifvqgrg","pricing_plan_id":"cebpf4jnsgd1na2vs0mg"},{"bike_id":"1acb0729-575c-4397-b38f-688dec34a801","system_id":"levelo_inurba_marseille","lat":43.30435,"lon":5.3889,"is_reserved":false,"is_disabled":false,"rental_uris":{"android":"levelo://app?vid=1acb0729-575c-4397-b38f-688dec34a801","ios":"levelo://app?vid=1acb0729-575c-4397-b38f-688dec34a801"},"vehicle_type_id":"4","last_reported":1753110755,"current_range_meters":20400,"station_id":"","pricing_plan_id":"cebpf4jnsgd1na2vs0mg"},{"bike_id":"5318d43a-4761-49f5-a226-f37048bd84eb","system_id":"levelo_inurba_marseille","lat":43.24666,"lon":5.38151,"is_reserved":false,"is_disabled":false,"rental_uris":{"android":"levelo://app?vid=5318d43a-4761-49f5-a226-f37048bd84eb","ios":"levelo://app?vid=5318d43a-4761-49f5-a226-f37048bd84eb"},"vehicle_type_id":"4","last_reported":1753110755,"current_range_meters":20800,"station_id":"ce4bhih2rcd13ifvqfr0","pricing_plan_id":"cebpf4jnsgd1na2vs0mg"},{"bike_id":"e730d36a-13f0-49bb-86fb-4a20da2e6767","system_id":"levelo_inurba_marseille","lat":43.24169,"lon":5.36397,"is_reserved":false,"is_disabled":false,"rental_uris":{"android":"levelo://app?vid=e730d36a-13f0-49bb-86fb-4a20da2e6767","ios":"levelo://app?vid=e730d36a-13f0-49bb-86fb-4a20da2e6767"},"vehicle_type_id":"4","last_reported":1753110755,"current_range_meters":20800,"station_id":"cpo36qri1sfpv3e86is0","pricing_plan_id":"cebpf4jnsgd1na2vs0mg"},{"bike_id":"e80f062d-07e0-4564-b2a0-f9c94e191f16","system_id":"levelo_inurba_marseille","lat":43.261898,"lon":5.374664,"is_reserved":false,"is_disabled":false,"rental_uris":{"android":"levelo://app?vid=e80f062d-07e0-4564-b2a0-f9c94e191f16","ios":"levelo://app?vid=e80f062d-07e0-4564-b2a0-f9c94e191f16"},"vehicle_type_id":"4","last_reported":1753110755,"current_range_meters":20800,"station_id":"ce4bhgp2rcd13ifvqfc0","pricing_plan_id":"cebpf4jnsgd1na2vs0mg"},{"bike_id":"d4ae3d20-9dc0-4d9e-ad31-1b1b5924c74e","system_id":"levelo_inurba_marseille","lat":43.30537,"lon":5.36682,"is_reserved":false,"is_disabled":false,"rental_uris":{"android":"levelo://app?vid=d4ae3d20-9dc0-4d9e-ad31-1b1b5924c74e","ios":"levelo://app?vid=d4ae3d20-9dc0-4d9e-ad31-1b1b5924c74e"},"vehicle_type_id":"4","last_reported":1753110755,"current_range_meters":20800,"station_id":"ce4bgrp2rcd13ifvqc9g","pricing_plan_id":"cebpf4jnsgd1na2vs0mg"},{"bike_id":"91f528de-626e-46cf-ba56-2b41f50873fe","system_id":"levelo_inurba_marseille","lat":43.29771,"lon":5.38126,"is_reserved":false,"is_disabled":false,"rental_uris":{"android":"levelo://app?vid=91f528de-626e-46cf-ba56-2b41f50873fe","ios":"levelo://app?vid=91f528de-626e-46cf-ba56-2b41f50873fe"},"vehicle_type_id":"4","last_reported":1753110755,"current_range_meters":20800,"station_id":"ce4bgip2rcd13ifvqbb0","pricing_plan_id":"cebpf4jnsgd1na2vs0mg"},{"bike_id":"7a3e8286-d23a-436c-a229-6ffa0c627ba2","system_id":"levelo_inurba_marseille","lat":43.211886,"lon":5.350737,"is_reserved":false,"is_disabled":false,"rental_uris":{"android":"levelo://app?vid=7a3e8286-d23a-436c-a229-6ffa0c627ba2","ios":"levelo://app?vid=7a3e8286-d23a-436c-a229-6ffa0c627ba2"},"vehicle_type_id":"4","last_reported":1753110755,"current_range_meters":20800,"station_id":"st_cvj6sg6p6f1abm77japg","pricing_plan_id":"cebpf4jnsgd1na2vs0mg"},{"bike_id":"773ce45a-6cb1-4c9d-9f59-6e78f60692dd","system_id":"levelo_inurba_marseille","lat":43.27372,"lon":5.36255,"is_reserved":false,"is_disabled":false,"rental_uris":{"android":"levelo://app?vid=773ce45a-6cb1-4c9d-9f59-6e78f60692dd","ios":"levelo://app?vid=773ce45a-6cb1-4c9d-9f59-6e78f60692dd"},"vehicle_type_id":"4","last_reported":1753110755,"current_range_meters":20800,"station_id":"ce4bhbh2rcd13ifvqeo0","pricing_plan_id":"cebpf4jnsgd1na2vs0mg"},{"bike_id":"99841499-c958-4e5a-a8a8-f74cf9b2d2c7","system_id":"levelo_inurba_marseille","lat":43.259705,"lon":5.40851,"is_reserved":false,"is_disabled":false,"rental_uris":{"android":"levelo://app?vid=99841499-c958-4e5a-a8a8-f74cf9b2d2c7","ios":"levelo://app?vid=99841499-c958-4e5a-a8a8-f74cf9b2d2c7"},"vehicle_type_id":"4","last_reported":1753110755,"current_range_meters":20800,"station_id":"ce4bht12rcd13ifvqi60","pricing_plan_id":"cebpf4jnsgd1na2vs0mg"},{"bike_id":"815b0b45-4cd2-43fa-9cd5-3e64d39dbc16","system_id":"levelo_inurba_marseille","lat":43.306,"lon":5.37235,"is_reserved":false,"is_disabled":true,"rental_uris":{"android":"levelo://app?vid=815b0b45-4cd2-43fa-9cd5-3e64d39dbc16","ios":"levelo://app?vid=815b0b45-4cd2-43fa-9cd5-3e64d39dbc16"},"vehicle_type_id":"4","last_reported":1753110755,"current_range_meters":20800,"station_id":"ce4bgqh2rcd13ifvqc4g","pricing_plan_id":"cebpf4jnsgd1na2vs0mg"},{"bike_id":"7ce349df-1e0d-4ba9-bbd5-37caaf1b790a","system_id":"levelo_inurba_marseille","lat":43.28617,"lon":5.35099,"is_reserved":false,"is_disabled":false,"rental_uris":{"android":"levelo://app?vid=7ce349df-1e0d-4ba9-bbd5-37caaf1b790a","ios":"levelo://app?vid=7ce349df-1e0d-4ba9-bbd5-37caaf1b790a"},"vehicle_type_id":"4","last_reported":1753110755,"current_range_meters":20800,"station_id":"ce4bhch2rcd13ifvqeug","pricing_plan_id":"cebpf4jnsgd1na2vs0mg"},{"bike_id":"0c18c21b-8232-4709-94a5-191396b3881b","system_id":"levelo_inurba_marseille","lat":43.27498,"lon":5.42445,"is_reserved":false,"is_disabled":false,"rental_uris":{"android":"levelo://app?vid=0c18c21b-8232-4709-94a5-191396b3881b","ios":"levelo://app?vid=0c18c21b-8232-4709-94a5-191396b3881b"},"vehicle_type_id":"4","last_reported":1753110755,"current_range_meters":20800,"station_id":"ce4bhn92rcd13ifvqgrg","pricing_plan_id":"cebpf4jnsgd1na2vs0mg"},{"bike_id":"32742f31-a49e-4d40-8526-1e91078b0215","system_id":"levelo_inurba_marseille","lat":43.27999,"lon":5.4001,"is_reserved":false,"is_disabled":false,"rental_uris":{"android":"levelo://app?vid=32742f31-a49e-4d40-8526-1e91078b0215","ios":"levelo://app?vid=32742f31-a49e-4d40-8526-1e91078b0215"},"vehicle_type_id":"4","last_reported":1753110755,"current_range_meters":20800,"station_id":"ce4bho92rcd13ifvqh4g","pricing_plan_id":"cebpf4jnsgd1na2vs0mg"},{"bike_id":"48fd4826-e3ff-4fbe-8125-4d0780fbd443","system_id":"levelo_inurba_marseille","lat":43.31497,"lon":5.37312,"is_reserved":false,"is_disabled":false,"rental_uris":{"android":"levelo://app?vid=48fd4826-e3ff-4fbe-8125-4d0780fbd443","ios":"levelo://app?vid=48fd4826-e3ff-4fbe-8125-4d0780fbd443"},"vehicle_type_id":"4","last_reported":1753110755,"current_range_meters":21600,"station_id":"ce4bgt12rcd13ifvqcd0","pricing_plan_id":"cebpf4jnsgd1na2vs0mg"},{"bike_id":"4d7ed3e5-e6e5-43b0-a00b-984ba41bdc50","system_id":"levelo_inurba_marseille","lat":43.23215,"lon":5.35562,"is_reserved":false,"is_disabled":false,"rental_uris":{"android":"levelo://app?vid=4d7ed3e5-e6e5-43b0-a00b-984ba41bdc50","ios":"levelo://app?vid=4d7ed3e5-e6e5-43b0-a00b-984ba41bdc50"},"vehicle_type_id":"4","last_reported":1753110755,"current_range_meters":21600,"station_id":"ce4bhu92rcd13ifvqi70","pricing_plan_id":"cebpf4jnsgd1na2vs0mg"},{"bike_id":"9b736a6b-5d75-4bab-a09e-48fd5c69a464","system_id":"levelo_inurba_marseille","lat":43.282607,"lon":5.350697,"is_reserved":false,"is_disabled":false,"rental_uris":{"android":"levelo://app?vid=9b736a6b-5d75-4bab-a09e-48fd5c69a464","ios":"levelo://app?vid=9b736a6b-5d75-4bab-a09e-48fd5c69a464"},"vehicle_type_id":"4","last_reported":1753110755,"current_range_meters":21600,"station_id":"ce4bhbp2rcd13ifvqerg","pricing_plan_id":"cebpf4jnsgd1na2vs0mg"},{"bike_id":"cb1eed87-707a-4cb6-874b-9e00df2e933f","system_id":"levelo_inurba_marseille","lat":43.2841,"lon":5.34999,"is_reserved":false,"is_disabled":false,"rental_uris":{"android":"levelo://app?vid=cb1eed87-707a-4cb6-874b-9e00df2e933f","ios":"levelo://app?vid=cb1eed87-707a-4cb6-874b-9e00df2e933f"},"vehicle_type_id":"4","last_reported":1753110755,"current_range_meters":21600,"station_id":"ce4bhbh2rcd13ifvqepg","pricing_plan_id":"cebpf4jnsgd1na2vs0mg"},{"bike_id":"8ff95b57-7279-4c28-a8db-d898e9db8585","system_id":"levelo_inurba_marseille","lat":43.26779,"lon":5.3942,"is_reserved":false,"is_disabled":false,"rental_uris":{"android":"levelo://app?vid=8ff95b57-7279-4c28-a8db-d898e9db8585","ios":"levelo://app?vid=8ff95b57-7279-4c28-a8db-d898e9db8585"},"vehicle_type_id":"4","last_reported":1753110755,"current_range_meters":21600,"station_id":"ce4bhh12rcd13ifvqfg0","pricing_plan_id":"cebpf4jnsgd1na2vs0mg"},{"bike_id":"99541896-89ef-4830-b0f2-f605e1fffb10","system_id":"levelo_inurba_marseille","lat":43.30591,"lon":5.39358,"is_reserved":false,"is_disabled":false,"rental_uris":{"android":"levelo://app?vid=99541896-89ef-4830-b0f2-f605e1fffb10","ios":"levelo://app?vid=99541896-89ef-4830-b0f2-f605e1fffb10"},"vehicle_type_id":"4","last_reported":1753110755,"current_range_meters":20800,"station_id":"ce4bh0p2rcd13ifvqd80","pricing_plan_id":"cebpf4jnsgd1na2vs0mg"},{"bike_id":"09ce1f37-5b07-45c4-a76c-7ba0d0176051","system_id":"levelo_inurba_marseille","lat":43.323664,"lon":5.367505,"is_reserved":false,"is_disabled":false,"rental_uris":{"android":"levelo://app?vid=09ce1f37-5b07-45c4-a76c-7ba0d0176051","ios":"levelo://app?vid=09ce1f37-5b07-45c4-a76c-7ba0d0176051"},"vehicle_type_id":"4","last_reported":1753110755,"current_range_meters":21600,"station_id":"ce4bhsh2rcd13ifvqi2g","pricing_plan_id":"cebpf4jnsgd1na2vs0mg"},{"bike_id":"c6c14d34-3324-4890-84ce-4f40196343ed","system_id":"levelo_inurba_marseille","lat":43.29784,"lon":5.39343,"is_reserved":false,"is_disabled":false,"rental_uris":{"android":"levelo://app?vid=c6c14d34-3324-4890-84ce-4f40196343ed","ios":"levelo://app?vid=c6c14d34-3324-4890-84ce-4f40196343ed"},"vehicle_type_id":"4","last_reported":1753110755,"current_range_meters":20800,"station_id":"chh1huq6cuj3fo74tm60","pricing_plan_id":"cebpf4jnsgd1na2vs0mg"},{"bike_id":"cc9ca87f-04c1-44bd-a097-5eb3595bbe87","system_id":"levelo_inurba_marseille","lat":43.30545,"lon":5.38415,"is_reserved":false,"is_disabled":false,"rental_uris":{"android":"levelo://app?vid=cc9ca87f-04c1-44bd-a097-5eb3595bbe87","ios":"levelo://app?vid=cc9ca87f-04c1-44bd-a097-5eb3595bbe87"},"vehicle_type_id":"4","last_reported":1753110755,"current_range_meters":21600,"station_id":"ce4bgg92rcd13ifvqb30","pricing_plan_id":"cebpf4jnsgd1na2vs0mg"},{"bike_id":"4702d6fd-a0af-473e-90d9-86e927e1d422","system_id":"levelo_inurba_marseille","lat":43.290154,"lon":5.386346,"is_reserved":false,"is_disabled":false,"rental_uris":{"android":"levelo://app?vid=4702d6fd-a0af-473e-90d9-86e927e1d422","ios":"levelo://app?vid=4702d6fd-a0af-473e-90d9-86e927e1d422"},"vehicle_type_id":"4","last_reported":1753110755,"current_range_meters":21600,"station_id":"ce4bh4p2rcd13ifvqe0g","pricing_plan_id":"cebpf4jnsgd1na2vs0mg"},{"bike_id":"02fbf5e0-24fe-4dee-96a8-ddeb9b37e273","system_id":"levelo_inurba_marseille","lat":43.29617,"lon":5.3773,"is_reserved":false,"is_disabled":false,"rental_uris":{"android":"levelo://app?vid=02fbf5e0-24fe-4dee-96a8-ddeb9b37e273","ios":"levelo://app?vid=02fbf5e0-24fe-4dee-96a8-ddeb9b37e273"},"vehicle_type_id":"4","last_reported":1753110755,"current_range_meters":22000,"station_id":"ce4bgi92rcd13ifvqb90","pricing_plan_id":"cebpf4jnsgd1na2vs0mg"},{"bike_id":"3876af6e-a868-4aa6-afbb-deb3bffdb10a","system_id":"levelo_inurba_marseille","lat":43.229268,"lon":5.353889,"is_reserved":false,"is_disabled":false,"rental_uris":{"android":"levelo://app?vid=3876af6e-a868-4aa6-afbb-deb3bffdb10a","ios":"levelo://app?vid=3876af6e-a868-4aa6-afbb-deb3bffdb10a"},"vehicle_type_id":"4","last_reported":1753110755,"current_range_meters":22000,"station_id":"cpo3532slgdg3j2ikp40","pricing_plan_id":"cebpf4jnsgd1na2vs0mg"},{"bike_id":"ed718932-99dc-4d23-af31-b335e4cbc618","system_id":"levelo_inurba_marseille","lat":43.24648,"lon":5.3889,"is_reserved":false,"is_disabled":false,"rental_uris":{"android":"levelo://app?vid=ed718932-99dc-4d23-af31-b335e4cbc618","ios":"levelo://app?vid=ed718932-99dc-4d23-af31-b335e4cbc618"},"vehicle_type_id":"4","last_reported":1753110755,"current_range_meters":22000,"station_id":"ce4bhg12rcd13ifvqf60","pricing_plan_id":"cebpf4jnsgd1na2vs0mg"},