{"last_updated":1719504580,"ttl":30,"version":"2.2","data":{"bikes":[{"bike_id":"e0271909-3103-4d00-b02e-54f50ee26aa4","system_id":"levelo_inurba_marseille","lat":43.31341,"lon":5.367098,"is_reserved":false,"is_disabled":false,"rental_uris":{"android":"levelo://app?vid=e0271909-3103-4d00-b02e-54f50ee26aa4","ios":"levelo://app?vid=e0271909-3103-4d00-b02e-54f50ee26aa4"},"vehicle_type_id":"4","last_reported":1719504580,"current_range_meters":14800,"station_id":"ce4bgr92rcd13ifvqc6g","pricing_plan_id":"cebpf4jnsgd1na2vs0mg"},{"bike_id":"bcc3e4e7-49ad-4827-ad72-a8aac5cd29e6","system_id":"levelo_inurba_marseille","lat":43.31509,"lon":5.37089,"is_reserved":false,"is_disabled":false,"rental_uris":{"android":"levelo://app?vid=bcc3e4e7-49ad-4827-ad72-a8aac5cd29e6","ios":"levelo://app?vid=bcc3e4e7-49ad-4827-ad72-a8aac5cd29e6"},"vehicle_type_id":"4","last_reported":1719504580,"current_range_meters":11200,"station_id":"","pricing_plan_id":"cebpf4jnsgd1na2vs0mg"},{"bike_id":"ad9c11c5-227f-44f9-827c-b3a736004e2f","system_id":"levelo_inurba_marseille","lat":43.309076,"lon":5.368465,"is_reserved":false,"is_disabled":false,"rental_uris":{"android":"levelo://app?vid=ad9c11c5-227f-44f9-827c-b3a736004e2f","ios":"levelo://app?vid=ad9c11c5-227f-44f9-827c-b3a736004e2f"},"vehicle_type_id":"4","last_reported":1719504580,"current_range_meters":22800,"station_id":"ce4bgn92rcd13ifvqbvg","pricing_plan_id":"cebpf4jnsgd1na2vs0mg"},{"bike_id":"f1a869d5-1843-45f6-815a-98718c5a3b5b","system_id":"levelo_inurba_marseille","lat":43.314811,"lon":5.373103,"is_reserved":false,"is_disabled":false,"rental_uris":{"android":"levelo://app?vid=f1a869d5-1843-45f6-815a-98718c5a3b5b","ios":"levelo://app?vid=f1a869d5-1843-45f6-815a-98718c5a3b5b"},"vehicle_type_id":"4","last_reported":1719504580,"current_range_meters":31200,"station_id":"ce4bgt12rcd13ifvqcd0","pricing_plan_id":"cebpf4jnsgd1na2vs0mg"},{"bike_id":"6d4b91a7-8c12-430c-885e-9db29307fac7","system_id":"levelo_inurba_marseille","lat":43.30546,"lon":5.36656,"is_reserved":false,"is_disabled":false,"rental_uris":{"android":"levelo://app?vid=6d4b91a7-8c12-430c-885e-9db29307fac7","ios":"levelo://app?vid=6d4b91a7-8c12-430c-885e-9db29307fac7"},"vehicle_type_id":"4","last_reported":1719504580,"current_range_meters":28800,"station_id":"","pricing_plan_id":"cebpf4jnsgd1na2vs0mg"},{"bike_id":"80fe93d5-1ab7-4530-8e95-6e4ef6ac10ed","system_id":"levelo_inurba_marseille","lat":43.30535,"lon":5.36659,"is_reserved":false,"is_disabled":false,"rental_uris":{"android":"levelo://app?vid=80fe93d5-1ab7-4530-8e95-6e4ef6ac10ed","ios":"levelo://app?vid=80fe93d5-1ab7-4530-8e95-6e4ef6ac10ed"},"vehicle_type_id":"4","last_reported":1719504580,"current_range_meters":0,"station_id":"","pricing_plan_id":"cebpf4jnsgd1na2vs0mg"},{"bike_id":"057b4d49-f64f-4bfe-8389-33e0797d8c53","system_id":"levelo_inurba_marseille","lat":43.30533,"lon":5.36647,"is_reserved":false,"is_disabled":false,"rental_uris":{"android":"levelo://app?vid=057b4d49-f64f-4bfe-8389-33e0797d8c53","ios":"levelo://app?vid=057b4d49-f64f-4bfe-8389-33e0797d8c53"},"vehicle_type_id":"4","last_reported":1719504580,"current_range_meters":15600,"station_id":"","pricing_plan_id":"cebpf4jnsgd1na2vs0mg"},{"bike_id":"f34e9ed9-b154-454b-bb1e-1d0a713c00e7","system_id":"levelo_inurba_marseille","lat":43.305368,"lon":5.367343,"is_reserved":false,"is_disabled":false,"rental_uris":{"android":"levelo://app?vid=f34e9ed9-b154-454b-bb1e-1d0a713c00e7","ios":"levelo://app?vid=f34e9ed9-b154-454b-bb1e-1d0a713c00e7"},"vehicle_type_id":"4","last_reported":1719504580,"current_range_meters":4400,"station_id":"ce4bgrp2rcd13ifvqc9g","pricing_plan_id":"cebpf4jnsgd1na2vs0mg"},{"bike_id":"2ecb3fbb-d70d-4628-9472-286a128508c8","system_id":"levelo_inurba_marseille","lat":43.306272,"lon":5.372296,"is_reserved":false,"is_disabled":false,"rental_uris":{"android":"levelo://app?vid=2ecb3fbb-d70d-4628-9472-286a128508c8","ios":"levelo://app?vid=2ecb3fbb-d70d-4628-9472-286a128508c8"},"vehicle_type_id":"4","last_reported":1719504580,"current_range_meters":30000,"station_id":"ce4bgqh2rcd13ifvqc4g","pricing_plan_id":"cebpf4jnsgd1na2vs0mg"},{"bike_id":"6adf6592-8cf3-4d22-8ee7-d9185dda4023","system_id":"levelo_inurba_marseille","lat":43.311131,"lon":5.377651,"is_reserved":false,"is_disabled":false,"rental_uris":{"android":"levelo://app?vid=6adf6592-8cf3-4d22-8ee7-d9185dda4023","ios":"levelo://app?vid=6adf6592-8cf3-4d22-8ee7-d9185dda4023"},"vehicle_type_id":"4","last_reported":1719504580,"current_range_meters":13600,"station_id":"ce4bgt92rcd13ifvqcg0","pricing_plan_id":"cebpf4jnsgd1na2vs0mg"},{"bike_id":"36c140fe-d18f-4ff5-be8f-386de33eddf0","system_id":"levelo_inurba_marseille","lat":43.311178,"lon":5.377647,"is_reserved":false,"is_disabled":false,"rental_uris":{"android":"levelo://app?vid=36c140fe-d18f-4ff5-be8f-386de33eddf0","ios":"levelo://app?vid=36c140fe-d18f-4ff5-be8f-386de33eddf0"},"vehicle_type_id":"4","last_reported":1719504580,"current_range_meters":21200,"station_id":"ce4bgt92rcd13ifvqcg0","pricing_plan_id":"cebpf4jnsgd1na2vs0mg"},{"bike_id":"8e787ea1-ae82-4fc2-88f8-3085affd919f","system_id":"levelo_inurba_marseille","lat":43.311131,"lon":5.377651,"is_reserved":false,"is_disabled":false,"rental_uris":{"android":"levelo://app?vid=8e787ea1-ae82-4fc2-88f8-3085affd919f","ios":"levelo://app?vid=8e787ea1-ae82-4fc2-88f8-3085affd919f"},"vehicle_type_id":"4","last_reported":1719504580,"current_range_meters":0,"station_id":"ce4bgt92rcd13ifvqcg0","pricing_plan_id":"cebpf4jnsgd1na2vs0mg"},{"bike_id":"f3218191-15a9-4d2e-bf37-3a6d1a456038","system_id":"levelo_inurba_marseille","lat":43.311131,"lon":5.377651,"is_reserved":false,"is_disabled":false,"rental_uris":{"android":"levelo://app?vid=f3218191-15a9-4d2e-bf37-3a6d1a456038","ios":"levelo://app?vid=f3218191-15a9-4d2e-bf37-3a6d1a456038"},"vehicle_type_id":"4","last_reported":1719504580,"current_range_meters":0,"station_id":"ce4bgt92rcd13ifvqcg0","pricing_plan_id":"cebpf4jnsgd1na2vs0mg"},{"bike_id":"b995b381-4758-46ef-8fb0-09b741504e62","system_id":"levelo_inurba_marseille","lat":43.311131,"lon":5.377651,"is_reserved":false,"is_disabled":false,"rental_uris":{"android":"levelo://app?vid=b995b381-4758-46ef-8fb0-09b741504e62","ios":"levelo://app?vid=b995b381-4758-46ef-8fb0-09b741504e62"},"vehicle_type_id":"4","last_reported":1719504580,"current_range_meters":0,"station_id":"ce4bgt92rcd13ifvqcg0","pricing_plan_id":"cebpf4jnsgd1na2vs0mg"},{"bike_id":"9d09204f-159e-46ea-811c-283191dd49cb","system_id":"levelo_inurba_marseille","lat":43.307945,"lon":5.376487,"is_reserved":false,"is_disabled":false,"rental_uris":{"android":"levelo://app?vid=9d09204f-159e-46ea-811c-283191dd49cb","ios":"levelo://app?vid=9d09204f-159e-46ea-811c-283191dd49cb"},"vehicle_type_id":"4","last_reported":1719504580,"current_range_meters":5200,"station_id":"ce4bgv92rcd13ifvqcq0","pricing_plan_id":"cebpf4jnsgd1na2vs0mg"},{"bike_id":"2440ca82-17bb-417e-8900-e7129eea4f6e","system_id":"levelo_inurba_marseille","lat":43.307945,"lon":5.376487,"is_reserved":false,"is_disabled":false,"rental_uris":{"android":"levelo://app?vid=2440ca82-17bb-417e-8900-e7129eea4f6e","ios":"levelo://app?vid=2440ca82-17bb-417e-8900-e7129eea4f6e"},"vehicle_type_id":"4","last_reported":1719504580,"current_range_meters":4800,"station_id":"ce4bgv92rcd13ifvqcq0","pricing_plan_id":"cebpf4jnsgd1na2vs0mg"},{"bike_id":"cb89f713-5aad-4b71-bc18-fd93a1238bd4","system_id":"levelo_inurba_marseille","lat":43.303046,"lon":5.368981,"is_reserved":false,"is_disabled":false,"rental_uris":{"android":"levelo://app?vid=cb89f713-5aad-4b71-bc18-fd93a1238bd4","ios":"levelo://app?vid=cb89f713-5aad-4b71-bc18-fd93a1238bd4"},"vehicle_type_id":"4","last_reported":1719504580,"current_range_meters":0,"station_id":"ce4bgqh2rcd13ifvqc5g","pricing_plan_id":"cebpf4jnsgd1na2vs0mg"},{"bike_id":"f71c5e69-fef9-44e4-9955-59e0983a02a2","system_id":"levelo_inurba_marseille","lat":43.30304,"lon":5.368987,"is_reserved":false,"is_disabled":false,"rental_uris":{"android":"levelo://app?vid=f71c5e69-fef9-44e4-9955-59e0983a02a2","ios":"levelo://app?vid=f71c5e69-fef9-44e4-9955-59e0983a02a2"},"vehicle_type_id":"4","last_reported":1719504580,"current_range_meters":9200,"station_id":"ce4bgqh2rcd13ifvqc5g","pricing_plan_id":"cebpf4jnsgd1na2vs0mg"},{"bike_id":"6fa570eb-d32f-42bf-996f-148fd969253b","system_id":"levelo_inurba_marseille","lat":43.315289,"lon":5.380349,"is_reserved":false,"is_disabled":false,"rental_uris":{"android":"levelo://app?vid=6fa570eb-d32f-42bf-996f-148fd969253b","ios":"levelo://app?vid=6fa570eb-d32f-42bf-996f-148fd969253b"},"vehicle_type_id":"4","last_reported":1719504580,"current_range_meters":9600,"station_id":"ce4bhsp2rcd13ifvqi50","pricing_plan_id":"cebpf4jnsgd1na2vs0mg"},{"bike_id":"753c49f0-b836-44fd-85f6-2a98828cfe26","system_id":"levelo_inurba_marseille","lat":43.304606,"lon":5.379026,"is_reserved":false,"is_disabled":false,"rental_uris":{"android":"levelo://app?vid=753c49f0-b836-44fd-85f6-2a98828cfe26","ios":"levelo://app?vid=753c49f0-b836-44fd-85f6-2a98828cfe26"},"vehicle_type_id":"4","last_reported":1719504580,"current_range_meters":6000,"station_id":"ce4bgup2rcd13ifvqcn0","pricing_plan_id":"cebpf4jnsgd1na2vs0mg"},{"bike_id":"a0e40fd7-d3cf-4a98-b19a-4c099c550219","system_id":"levelo_inurba_marseille","lat":43.32471,"lon":5.36549,"is_reserved":false,"is_disabled":false,"rental_uris":{"android":"levelo://app?vid=a0e40fd7-d3cf-4a98-b19a-4c099c550219","ios":"levelo://app?vid=a0e40fd7-d3cf-4a98-b19a-4c099c550219"},"vehicle_type_id":"4","last_reported":1719504580,"current_range_meters":10000,"station_id":"ce4bhs12rcd13ifvqhvg","pricing_plan_id":"cebpf4jnsgd1na2vs0mg"},{"bike_id":"856d2aef-a696-486c-9dd1-df8bf14eb4dc","system_id":"levelo_inurba_marseille","lat":43.324771,"lon":5.36557,"is_reserved":false,"is_disabled":false,"rental_uris":{"android":"levelo://app?vid=856d2aef-a696-486c-9dd1-df8bf14eb4dc","ios":"levelo://app?vid=856d2aef-a696-486c-9dd1-df8bf14eb4dc"},"vehicle_type_id":"4","last_reported":1719504580,"current_range_meters":12400,"station_id":"ce4bhs12rcd13ifvqhvg","pricing_plan_id":"cebpf4jnsgd1na2vs0mg"},{"bike_id":"ff33a521-5af2-429e-b343-71edbd1e268a","system_id":"levelo_inurba_marseille","lat":43.324771,"lon":5.36557,"is_reserved":false,"is_disabled":false,"rental_uris":{"android":"levelo://app?vid=ff33a521-5af2-429e-b343-71edbd1e268a","ios":"levelo://app?vid=ff33a521-5af2-429e-b343-71edbd1e268a"},"vehicle_type_id":"4","last_reported":1719504580,"current_range_meters":22800,"station_id":"ce4bhs12rcd13ifvqhvg","pricing_plan_id":"cebpf4jnsgd1na2vs0mg"},{"bike_id":"82d48533-6792-41f2-8218-078b2451d70a","system_id":"levelo_inurba_marseille","lat":43.324771,"lon":5.36557,"is_reserved":false,"is_disabled":false,"rental_uris":{"android":"levelo://app?vid=82d48533-6792-41f2-8218-078b2451d70a","ios":"levelo://app?vid=82d48533-6792-41f2-8218-078b2451d70a"},"vehicle_type_id":"4","last_reported":1719504580,"current_range_meters":4400,"station_id":"ce4bhs12rcd13ifvqhvg","pricing_plan_id":"cebpf4jnsgd1na2vs0mg"},{"bike_id":"e8b895bb-d2f4-421b-a076-338cca484c3c","system_id":"levelo_inurba_marseille","lat":43.324771,"lon":5.36557,"is_reserved":false,"is_disabled":false,"rental_uris":{"android":"levelo://app?vid=e8b895bb-d2f4-421b-a076-338cca484c3c","ios":"levelo://app?vid=e8b895bb-d2f4-421b-a076-338cca484c3c"},"vehicle_type_id":"4","last_reported":1719504580,"current_range_meters":2000,"station_id":"ce4bhs12rcd13ifvqhvg","pricing_plan_id":"cebpf4jnsgd1na2vs0mg"},{"bike_id":"b715ad7c-a165-4316-a5fb-682d94a703b1","system_id":"levelo_inurba_marseille","lat":43.31073,"lon":5.38353,"is_reserved":false,"is_disabled":false,"rental_uris":{"android":"levelo://app?vid=b715ad7c-a165-4316-a5fb-682d94a703b1","ios":"levelo://app?vid=b715ad7c-a165-4316-a5fb-682d94a703b1"},"vehicle_type_id":"4","last_reported":1719504580,"current_range_meters":2000,"station_id":"ce4bgv92rcd13ifvqcr0","pricing_plan_id":"cebpf4jnsgd1na2vs0mg"},{"bike_id":"3491480d-5019-46ef-85d7-89e5e96953e7","system_id":"levelo_inurba_marseille","lat":43.310804,"lon":5.38359,"is_reserved":false,"is_disabled":false,"rental_uris":{"android":"levelo://app?vid=3491480d-5019-46ef-85d7-89e5e96953e7","ios":"levelo://app?vid=3491480d-5019-46ef-85d7-89e5e96953e7"},"vehicle_type_id":"4","last_reported":1719504580,"current_range_meters":16800,"station_id":"ce4bgv92rcd13ifvqcr0","pricing_plan_id":"cebpf4jnsgd1na2vs0mg"},{"bike_id":"716f851e-d770-4cae-9abc-4d6b7775a506","system_id":"levelo_inurba_marseille","lat":43.310694,"lon":5.383624,"is_reserved":false,"is_disabled":false,"rental_uris":{"android":"levelo://app?vid=716f851e-d770-4cae-9abc-4d6b7775a506","ios":"levelo://app?vid=716f851e-d770-4cae-9abc-4d6b7775a506"},"vehicle_type_id":"4","last_reported":1719504580,"current_range_meters":0,"station_id":"ce4bgv92rcd13ifvqcr0","pricing_plan_id":"cebpf4jnsgd1na2vs0mg"},{"bike_id":"d800f826-6448-4cfd-9ba9-261c166c55d9","system_id":"levelo_inurba_marseille","lat":43.310804,"lon":5.38359,"is_reserved":false,"is_disabled":false,"rental_uris":{"android":"levelo://app?vid=d800f826-6448-4cfd-9ba9-261c166c55d9","ios":"levelo://app?vid=d800f826-6448-4cfd-9ba9-261c166c55d9"},"vehicle_type_id":"4","last_reported":1719504580,"current_range_meters":18400,"station_id":"ce4bgv92rcd13ifvqcr0","pricing_plan_id":"cebpf4jnsgd1na2vs0mg"},{"bike_id":"49792d97-03b7-403a-a28e-f4f86c12f943","system_id":"levelo_inurba_marseille","lat":43.301429,"lon":5.37413,"is_reserved":false,"is_disabled":false,"rental_uris":{"android":"levelo://app?vid=49792d97-03b7-403a-a28e-f4f86c12f943","ios":"levelo://app?vid=49792d97-03b7-403a-a28e-f4f86c12f943"},"vehicle_type_id":"4","last_reported":1719504580,"current_range_meters":0,"station_id":"ce4bgs92rcd13ifvqcc0","pricing_plan_id":"cebpf4jnsgd1na2vs0mg"},{"bike_id":"2f0e0c11-bc68-4462-b25b-631131512636","system_id":"levelo_inurba_marseille","lat":43.319935,"lon":5.381699,"is_reserved":false,"is_disabled":false,"rental_uris":{"android":"levelo://app?vid=2f0e0c11-bc68-4462-b25b-631131512636","ios":"levelo://app?vid=2f0e0c11-bc68-4462-b25b-631131512636"},"vehicle_type_id":"4","last_reported":1719504580,"current_range_meters":8800,"station_id":"ce4bhr12rcd13ifvqhpg","pricing_plan_id":"cebpf4jnsgd1na2vs0mg"},{"bike_id":"129d5b4b-4e6f-4704-9cbe-7b9117828680","system_id":"levelo_inurba_marseille","lat":43.319935,"lon":5.381699,"is_reserved":false,"is_disabled":false,"rental_uris":{"android":"levelo://app?vid=129d5b4b-4e6f-4704-9cbe-7b9117828680","ios":"levelo://app?vid=129d5b4b-4e6f-4704-9cbe-7b9117828680"},"vehicle_type_id":"4","last_reported":1719504580,"current_range_meters":22800,"station_id":"ce4bhr12rcd13ifvqhpg","pricing_plan_id":"cebpf4jnsgd1na2vs0mg"},{"bike_id":"dfb8e16e-5d18-4dca-94f3-56fa22161ea2","system_id":"levelo_inurba_marseille","lat":43.319935,"lon":5.381699,"is_reserved":false,"is_disabled":false,"rental_uris":{"android":"levelo://app?vid=dfb8e16e-5d18-4dca-94f3-56fa22161ea2","ios":"levelo://app?vid=dfb8e16e-5d18-4dca-94f3-56fa22161ea2"},"vehicle_type_id":"4","last_reported":1719504580,"current_range_meters":28400,"station_id":"ce4bhr12rcd13ifvqhpg","pricing_plan_id":"cebpf4jnsgd1na2vs0mg"},{"bike_id":"3d6742c9-8582-4f4b-8e2c-17c090e4cf9c","system_id":"levelo_inurba_marseille","lat":43.31994,"lon":5.38153,"is_reserved":false,"is_disabled":false,"rental_uris":{"android":"levelo://app?vid=3d6742c9-8582-4f4b-8e2c-17c090e4cf9c","ios":"levelo://app?vid=3d6742c9-8582-4f4b-8e2c-17c090e4cf9c"},"vehicle_type_id":"4","last_reported":1719504580,"current_range_meters":23600,"station_id":"ce4bhr12rcd13ifvqhpg","pricing_plan_id":"cebpf4jnsgd1na2vs0mg"},{"bike_id":"477f0ab2-c9fd-4b20-ad1d-9d0062c95811","system_id":"levelo_inurba_marseille","lat":43.319935,"lon":5.381699,"is_reserved":false,"is_disabled":false,"rental_uris":{"android":"levelo://app?vid=477f0ab2-c9fd-4b20-ad1d-9d0062c95811","ios":"levelo://app?vid=477f0ab2-c9fd-4b20-ad1d-9d0062c95811"},"vehicle_type_id":"4","last_reported":1719504580,"current_range_meters":18800,"station_id":"ce4bhr12rcd13ifvqhpg","pricing_plan_id":"cebpf4jnsgd1na2vs0mg"},{"bike_id":"ce60301d-b85f-4bb0-857f-0f80bd83974d","system_id":"levelo_inurba_marseille","lat":43.313571,"lon":5.384829,"is_reserved":false,"is_disabled":false,"rental_uris":{"android":"levelo://app?vid=ce60301d-b85f-4bb0-857f-0f80bd83974d","ios":"levelo://app?vid=ce60301d-b85f-4bb0-857f-0f80bd83974d"},"vehicle_type_id":"4","last_reported":1719504580,"current_range_meters":21200,"station_id":"ce4bgt92rcd13ifvqcf0","pricing_plan_id":"cebpf4jnsgd1na2vs0mg"},{"bike_id":"1b665810-5b62-42b2-a0c6-f6fd3519bb93","system_id":"levelo_inurba_marseille","lat":43.32069,"lon":5.38178,"is_reserved":false,"is_disabled":false,"rental_uris":{"android":"levelo://app?vid=1b665810-5b62-42b2-a0c6-f6fd3519bb93","ios":"levelo://app?vid=1b665810-5b62-42b2-a0c6-f6fd3519bb93"},"vehicle_type_id":"4","last_reported":1719504580,"current_range_meters":22400,"station_id":"","pricing_plan_id":"cebpf4jnsgd1na2vs0mg"},{"bike_id":"954020d1-9300-4510-ad81-e6ec80332f97","system_id":"levelo_inurba_marseille","lat":43.299222,"lon":5.365554,"is_reserved":false,"is_disabled":false,"rental_uris":{"android":"levelo://app?vid=954020d1-9300-4510-ad81-e6ec80332f97","ios":"levelo://app?vid=954020d1-9300-4510-ad81-e6ec80332f97"},"vehicle_type_id":"4","last_reported":1719504580,"current_range_meters":31200,"station_id":"ce4bgm92rcd13ifvqbr0","pricing_plan_id":"cebpf4jnsgd1na2vs0mg"},{"bike_id":"22f27adc-487a-4be4-89b8-38aca635a2ff","system_id":"levelo_inurba_marseille","lat":43.299222,"lon":5.365554,"is_reserved":false,"is_disabled":false,"rental_uris":{"android":"levelo://app?vid=22f27adc-487a-4be4-89b8-38aca635a2ff","ios":"levelo://app?vid=22f27adc-487a-4be4-89b8-38aca635a2ff"},"vehicle_type_id":"4","last_reported":1719504580,"current_range_meters":27600,"station_id":"ce4bgm92rcd13ifvqbr0","pricing_plan_id":"cebpf4jnsgd1na2vs0mg"},{"bike_id":"b4e90371-b51b-4bb3-9f26-7d543acd8573","system_id":"levelo_inurba_marseille","lat":43.30927,"lon":5.38633,"is_reserved":false,"is_disabled":false,"rental_uris":{"android":"levelo://app?vid=b4e90371-b51b-4bb3-9f26-7d543acd8573","ios":"levelo://app?vid=b4e90371-b51b-4bb3-9f26-7d543acd8573"},"vehicle_type_id":"4","last_reported":1719504580,"current_range_meters":26800,"station_id":"","pricing_plan_id":"cebpf4jnsgd1na2vs0mg"},{"bike_id":"998b1494-07e7-480a-93a7-e29cba83ddc6","system_id":"levelo_inurba_marseille","lat":43.298433,"lon":5.362774,"is_reserved":false,"is_disabled":false,"rental_uris":{"android":"levelo://app?vid=998b1494-07e7-480a-93a7-e29cba83ddc6","ios":"levelo://app?vid=998b1494-07e7-480a-93a7-e29cba83ddc6"},"vehicle_type_id":"4","last_reported":1719504580,"current_range_meters":4400,"station_id":"ce4bgpp2rcd13ifvqc3g","pricing_plan_id":"cebpf4jnsgd1na2vs0mg"},{"bike_id":"580bdff5-cd7c-4186-ae6f-e9b94b7127ec","system_id":"levelo_inurba_marseille","lat":43.297774,"lon":5.370875,"is_reserved":false,"is_disabled":false,"rental_uris":{"android":"levelo://app?vid=580bdff5-cd7c-4186-ae6f-e9b94b7127ec","ios":"levelo://app?vid=580bdff5-cd7c-4186-ae6f-e9b94b7127ec"},"vehicle_type_id":"4","last_reported":1719504580,"current_range_meters":24800,"station_id":"ce4bgop2rcd13ifvqc1g","pricing_plan_id":"cebpf4jnsgd1na2vs0mg"},{"bike_id":"2b03aa56-c843-4ec0-8735-f3a35627f094","system_id":"levelo_inurba_marseille","lat":43.297774,"lon":5.370875,"is_reserved":false,"is_disabled":false,"rental_uris":{"android":"levelo://app?vid=2b03aa56-c843-4ec0-8735-f3a35627f094","ios":"levelo://app?vid=2b03aa56-c843-4ec0-8735-f3a35627f094"},"vehicle_type_id":"4","last_reported":1719504580,"current_range_meters":30400,"station_id":"ce4bgop2rcd13ifvqc1g","pricing_plan_id":"cebpf4jnsgd1na2vs0mg"},{"bike_id":"7e0be38d-708b-46a9-ac70-2c5ee11cade5","system_id":"levelo_inurba_marseille","lat":43.297794,"lon":5.370888,"is_reserved":false,"is_disabled":false,"rental_uris":{"android":"levelo://app?vid=7e0be38d-708b-46a9-ac70-2c5ee11cade5","ios":"levelo://app?vid=7e0be38d-708b-46a9-ac70-2c5ee11cade5"},"vehicle_type_id":"4","last_reported":1719504580,"current_range_meters":11600,"station_id":"ce4bgop2rcd13ifvqc1g","pricing_plan_id":"cebpf4jnsgd1na2vs0mg"},{"bike_id":"6f8bf239-eec8-4464-91be-c0a91753eb0d","system_id":"levelo_inurba_marseille","lat":43.322872,"lon":5.382756,"is_reserved":false,"is_disabled":false,"rental_uris":{"android":"levelo://app?vid=6f8bf239-eec8-4464-91be-c0a91753eb0d","ios":"levelo://app?vid=6f8bf239-eec8-4464-91be-c0a91753eb0d"},"vehicle_type_id":"4","last_reported":1719504580,"current_range_meters":27600,"station_id":"ce4bhr12rcd13ifvqhqg","pricing_plan_id":"cebpf4jnsgd1na2vs0mg"},{"bike_id":"23a7f147-22bd-4b03-ac99-6126caf8aeb0","system_id":"levelo_inurba_marseille","lat":43.322872,"lon":5.382756,"is_reserved":false,"is_disabled":false,"rental_uris":{"android":"levelo://app?vid=23a7f147-22bd-4b03-ac99-6126caf8aeb0","ios":"levelo://app?vid=23a7f147-22bd-4b03-ac99-6126caf8aeb0"},"vehicle_type_id":"4","last_reported":1719504580,"current_range_meters":6000,"station_id":"ce4bhr12rcd13ifvqhqg","pricing_plan_id":"cebpf4jnsgd1na2vs0mg"},{"bike_id":"453257d1-cb89-4846-b5bd-d05ac1d6ade4","system_id":"levelo_inurba_marseille","lat":43.297163,"lon":5.365866,"is_reserved":false,"is_disabled":false,"rental_uris":{"android":"levelo://app?vid=453257d1-cb89-4846-b5bd-d05ac1d6ade4","ios":"levelo://app?vid=453257d1-cb89-4846-b5bd-d05ac1d6ade4"},"vehicle_type_id":"4","last_reported":1719504580,"current_range_meters":22000,"station_id":"ce4bgn12rcd13ifvqbt0","pricing_plan_id":"cebpf4jnsgd1na2vs0mg"},{"bike_id":"ac940820-c11d-4935-a766-3f20f9e30268","system_id":"levelo_inurba_marseille","lat":43.29704,"lon":5.3662,"is_reserved":false,"is_disabled":false,"rental_uris":{"android":"levelo://app?vid=ac940820-c11d-4935-a766-3f20f9e30268","ios":"levelo://app?vid=ac940820-c11d-4935-a766-3f20f9e30268"},"vehicle_type_id":"4","last_reported":1719504580,"current_range_meters":24000,"station_id":"ce4bgn12rcd13ifvqbt0","pricing_plan_id":"cebpf4jnsgd1na2vs0mg"},{"bike_id":"37973c19-a7b1-4656-a30a-e6e49fcf45f2","system_id":"levelo_inurba_marseille","lat":43.328936,"lon":5.367368,"is_reserved":false,"is_disabled":false,"rental_uris":{"android":"levelo://app?vid=37973c19-a7b1-4656-a30a-e6e49fcf45f2","ios":"levelo://app?vid=37973c19-a7b1-4656-a30a-e6e49fcf45f2"},"vehicle_type_id":"4","last_reported":1719504580,"current_range_meters":29200,"station_id":"","pricing_plan_id":"cebpf4jnsgd1na2vs0mg"},{"bike_id":"e1c7d339-97c0-4f57-b119-e7568f3971ca","system_id":"levelo_inurba_marseille","lat":43.296131,"lon":5.370791,"is_reserved":false,"is_disabled":false,"rental_uris":{"android":"levelo://app?vid=e1c7d339-97c0-4f57-b119-e7568f3971ca","ios":"levelo://app?vid=e1c7d339-97c0-4f57-b119-e7568f3971ca"},"vehicle_type_id":"4","last_reported":1719504580,"current_range_meters":0,"station_id":"ce4bgnh2rcd13ifvqc0g","pricing_plan_id":"cebpf4jnsgd1na2vs0mg"},{"bike_id":"faa69715-3f82-4d9c-948b-829eb9e3bac3","system_id":"levelo_inurba_marseille","lat":43.29573,"lon":5.367355,"is_reserved":false,"is_disabled":false,"rental_uris":{"android":"levelo://app?vid=faa69715-3f82-4d9c-948b-829eb9e3bac3","ios":"levelo://app?vid=faa69715-3f82-4d9c-948b-829eb9e3bac3"},"vehicle_type_id":"4","last_reported":1719504580,"current_range_meters":30000,"station_id":"ce4bgph2rcd13ifvqc2g","pricing_plan_id":"cebpf4jnsgd1na2vs0mg"},{"bike_id":"237184dc-6355-487c-b6da-2e05d92e3bb2","system_id":"levelo_inurba_marseille","lat":43.29585,"lon":5.3674,"is_reserved":false,"is_disabled":false,"rental_uris":{"android":"levelo://app?vid=237184dc-6355-487c-b6da-2e05d92e3bb2","ios":"levelo://app?vid=237184dc-6355-487c-b6da-2e05d92e3bb2"},"vehicle_type_id":"4","last_reported":1719504580,"current_range_meters":0,"station_id":"ce4bgph2rcd13ifvqc2g","pricing_plan_id":"cebpf4jnsgd1na2vs0mg"},{"bike_id":"3259aca0-c952-4e37-a9d4-8c957acd0782","system_id":"levelo_inurba_marseille","lat":43.296921,"lon":5.376579,"is_reserved":false,"is_disabled":false,"rental_uris":{"android":"levelo://app?vid=3259aca0-c952-4e37-a9d4-8c957acd0782","ios":"levelo://app?vid=3259aca0-c952-4e37-a9d4-8c957acd0782"},"vehicle_type_id":"4","last_reported":1719504580,"current_range_meters":17600,"station_id":"ce4bgkh2rcd13ifvqbl0","pricing_plan_id":"cebpf4jnsgd1na2vs0mg"},{"bike_id":"162a5916-5407-4910-89d0-2a81d57129cb","system_id":"levelo_inurba_marseille","lat":43.29573,"lon":5.367355,"is_reserved":false,"is_disabled":false,"rental_uris":{"android":"levelo://app?vid=162a5916-5407-4910-89d0-2a81d57129cb","ios":"levelo://app?vid=162a5916-5407-4910-89d0-2a81d57129cb"},"vehicle_type_id":"4","last_reported":1719504580,"current_range_meters":27600,"station_id":"ce4bgph2rcd13ifvqc2g","pricing_plan_id":"cebpf4jnsgd1na2vs0mg"},{"bike_id":"32a17907-6f6d-432b-958b-2dcbab0da954","system_id":"levelo_inurba_marseille","lat":43.29573,"lon":5.367355,"is_reserved":false,"is_disabled":false,"rental_uris":{"android":"levelo://app?vid=32a17907-6f6d-432b-958b-2dcbab0da954","ios":"levelo://app?vid=32a17907-6f6d-432b-958b-2dcbab0da954"},"vehicle_type_id":"4","last_reported":1719504580,"current_range_meters":5200,"station_id":"ce4bgph2rcd13ifvqc2g","pricing_plan_id":"cebpf4jnsgd1na2vs0mg"},{"bike_id":"acee6817-395e-4665-9147-c5c1c6606285","system_id":"levelo_inurba_marseille","lat":43.29576,"lon":5.36744,"is_reserved":false,"is_disabled":false,"rental_uris":{"android":"levelo://app?vid=acee6817-395e-4665-9147-c5c1c6606285","ios":"levelo://app?vid=acee6817-395e-4665-9147-c5c1c6606285"},"vehicle_type_id":"4","last_reported":1719504580,"current_range_meters":23200,"station_id":"","pricing_plan_id":"cebpf4jnsgd1na2vs0mg"},{"bike_id":"8d28f10f-d5cd-4003-8c2e-5e2c9de2fd98","system_id":"levelo_inurba_marseille","lat":43.309589,"lon":5.390258,"is_reserved":false,"is_disabled":false,"rental_uris":{"android":"levelo://app?vid=8d28f10f-d5cd-4003-8c2e-5e2c9de2fd98","ios":"levelo://app?vid=8d28f10f-d5cd-4003-8c2e-5e2c9de2fd98"},"vehicle_type_id":"4","last_reported":1719504580,"current_range_meters":8000,"station_id":"ce4bgup2rcd13ifvqco0","pricing_plan_id":"cebpf4jnsgd1na2vs0mg"},{"bike_id":"c26ccbb3-4762-430e-911b-38d0b6bf5410","system_id":"levelo_inurba_marseille","lat":43.309589,"lon":5.390258,"is_reserved":false,"is_disabled":false,"rental_uris":{"android":"levelo://app?vid=c26ccbb3-4762-430e-911b-38d0b6bf5410","ios":"levelo://app?vid=c26ccbb3-4762-430e-911b-38d0b6bf5410"},"vehicle_type_id":"4","last_reported":1719504580,"current_range_meters":4800,"station_id":"ce4bgup2rcd13ifvqco0","pricing_plan_id":"cebpf4jnsgd1na2vs0mg"},{"bike_id":"93ef709b-5827-43d3-80b0-b42989eb6e73","system_id":"levelo_inurba_marseille","lat":43.309589,"lon":5.390258,"is_reserved":false,"is_disabled":false,"rental_uris":{"android":"levelo://app?vid=93ef709b-5827-43d3-80b0-b42989eb6e73","ios":"levelo://app?vid=93ef709b-5827-43d3-80b0-b42989eb6e73"},"vehicle_type_id":"4","last_reported":1719504580,"current_range_meters":0,"station_id":"ce4bgup2rcd13ifvqco0","pricing_plan_id":"cebpf4jnsgd1na2vs0mg"},{"bike_id":"2f979e15-8582-4b4d-bcbb-880477aeeeb8","system_id":"levelo_inurba_marseille","lat":43.309589,"lon":5.390258,"is_reserved":false,"is_disabled":false,"rental_uris":{"android":"levelo://app?vid=2f979e15-8582-4b4d-bcbb-880477aeeeb8","ios":"levelo://app?vid=2f979e15-8582-4b4d-bcbb-880477aeeeb8"},"vehicle_type_id":"4","last_reported":1719504580,"current_range_meters":0,"station_id":"ce4bgup2rcd13ifvqco0","pricing_plan_id":"cebpf4jnsgd1na2vs0mg"},{"bike_id":"edd8c95b-46c7-471c-85d6-66eeca4a166a","system_id":"levelo_inurba_marseille","lat":43.309589,"lon":5.390258,"is_reserved":false,"is_disabled":false,"rental_uris":{"android":"levelo://app?vid=edd8c95b-46c7-471c-85d6-66eeca4a166a","ios":"levelo://app?vid=edd8c95b-46c7-471c-85d6-66eeca4a166a"},"vehicle_type_id":"4","last_reported":1719504580,"current_range_meters":0,"station_id":"ce4bgup2rcd13ifvqco0","pricing_plan_id":"cebpf4jnsgd1na2vs0mg"},{"bike_id":"25143503-e79c-4ea1-8634-6ad00d8fd8b9","system_id":"levelo_inurba_marseille","lat":43.296935,"lon":5.376544,"is_reserved":false,"is_disabled":false,"rental_uris":{"android":"levelo://app?vid=25143503-e79c-4ea1-8634-6ad00d8fd8b9","ios":"levelo://app?vid=25143503-e79c-4ea1-8634-6ad00d8fd8b9"},"vehicle_type_id":"4","last_reported":1719504580,"current_range_meters":0,"station_id":"ce4bgkh2rcd13ifvqbl0","pricing_plan_id":"cebpf4jnsgd1na2vs0mg"},{"bike_id":"e2fa2e43-8fda-4120-9993-9895cb814bb7","system_id":"levelo_inurba_marseille","lat":43.298037,"lon":5.381066,"is_reserved":false,"is_disabled":false,"rental_uris":{"android":"levelo://app?vid=e2fa2e43-8fda-4120-9993-9895cb814bb7","ios":"levelo://app?vid=e2fa2e43-8fda-4120-9993-9895cb814bb7"},"vehicle_type_id":"4","last_reported":1719504580,"current_range_meters":0,"station_id":"ce4bgip2rcd13ifvqbb0","pricing_plan_id":"cebpf4jnsgd1na2vs0mg"},{"bike_id":"616ceda4-f8fa-4f51-a45e-145c8576c453","system_id":"levelo_inurba_marseille","lat":43.29585,"lon":5.37506,"is_reserved":false,"is_disabled":false,"rental_uris":{"android":"levelo://app?vid=616ceda4-f8fa-4f51-a45e-145c8576c453","ios":"levelo://app?vid=616ceda4-f8fa-4f51-a45e-145c8576c453"},"vehicle_type_id":"4","last_reported":1719504580,"current_range_meters":28400,"station_id":"ce4bgh92rcd13ifvqb50","pricing_plan_id":"cebpf4jnsgd1na2vs0mg"},{"bike_id":"af752829-244b-4e12-a0af-cd9b1802d14c","system_id":"levelo_inurba_marseille","lat":43.29902,"lon":5.382833,"is_reserved":false,"is_disabled":false,"rental_uris":{"android":"levelo://app?vid=af752829-244b-4e12-a0af-cd9b1802d14c","ios":"levelo://app?vid=af752829-244b-4e12-a0af-cd9b1802d14c"},"vehicle_type_id":"4","last_reported":1719504580,"current_range_meters":21200,"station_id":"ce4bgj12rcd13ifvqbc0","pricing_plan_id":"cebpf4jnsgd1na2vs0mg"},{"bike_id":"5869e091-bb05-4f9c-95b6-8fb0a0247ac6","system_id":"levelo_inurba_marseille","lat":43.2958,"lon":5.37513,"is_reserved":false,"is_disabled":false,"rental_uris":{"android":"levelo://app?vid=5869e091-bb05-4f9c-95b6-8fb0a0247ac6","ios":"levelo://app?vid=5869e091-bb05-4f9c-95b6-8fb0a0247ac6"},"vehicle_type_id":"4","last_reported":1719504580,"current_range_meters":31200,"station_id":"","pricing_plan_id":"cebpf4jnsgd1na2vs0mg"},{"bike_id":"ddabe0e5-8d59-4124-84cd-4fe12775fedf","system_id":"levelo_inurba_marseille","lat":43.304274,"lon":5.388873,"is_reserved":false,"is_disabled":false,"rental_uris":{"android":"levelo://app?vid=ddabe0e5-8d59-4124-84cd-4fe12775fedf","ios":"levelo://app?vid=ddabe0e5-8d59-4124-84cd-4fe12775fedf"},"vehicle_type_id":"4","last_reported":1719504580,"current_range_meters":6400,"station_id":"ce4bgk12rcd13ifvqbi0","pricing_plan_id":"cebpf4jnsgd1na2vs0mg"},{"bike_id":"ce297fd3-cd2f-4f19-954a-40736efb402a","system_id":"levelo_inurba_marseille","lat":43.304274,"lon":5.388873,"is_reserved":false,"is_disabled":false,"rental_uris":{"android":"levelo://app?vid=ce297fd3-cd2f-4f19-954a-40736efb402a","ios":"levelo://app?vid=ce297fd3-cd2f-4f19-954a-40736efb402a"},"vehicle_type_id":"4","last_reported":1719504580,"current_range_meters":23200,"station_id":"ce4bgk12rcd13ifvqbi0","pricing_plan_id":"cebpf4jnsgd1na2vs0mg"},{"bike_id":"2913d9e3-2b2a-44bc-88ab-3a4ebd681a9b","system_id":"levelo_inurba_marseille","lat":43.304278,"lon":5.388868,"is_reserved":false,"is_disabled":false,"rental_uris":{"android":"levelo://app?vid=2913d9e3-2b2a-44bc-88ab-3a4ebd681a9b","ios":"levelo://app?vid=2913d9e3-2b2a-44bc-88ab-3a4ebd681a9b"},"vehicle_type_id":"4","last_reported":1719504580,"current_range_meters":15200,"station_id":"ce4bgk12rcd13ifvqbi0","pricing_plan_id":"cebpf4jnsgd1na2vs0mg"},{"bike_id":"8e4da974-fbfb-4eae-ade7-4b7e37c32eae","system_id":"levelo_inurba_marseille","lat":43.304278,"lon":5.388868,"is_reserved":false,"is_disabled":false,"rental_uris":{"android":"levelo://app?vid=8e4da974-fbfb-4eae-ade7-4b7e37c32eae","ios":"levelo://app?vid=8e4da974-fbfb-4eae-ade7-4b7e37c32eae"},"vehicle_type_id":"4","last_reported":1719504580,"current_range_meters":7600,"station_id":"ce4bgk12rcd13ifvqbi0","pricing_plan_id":"cebpf4jnsgd1na2vs0mg"},{"bike_id":"19481578-8308-4ee8-877d-6cc1ea05ec0c","system_id":"levelo_inurba_marseille","lat":43.304278,"lon":5.388868,"is_reserved":false,"is_disabled":false,"rental_uris":{"android":"levelo://app?vid=19481578-8308-4ee8-877d-6cc1ea05ec0c","ios":"levelo://app?vid=19481578-8308-4ee8-877d-6cc1ea05ec0c"},"vehicle_type_id":"4","last_reported":1719504580,"current_range_meters":18000,"station_id":"ce4bgk12rcd13ifvqbi0","pricing_plan_id":"cebpf4jnsgd1na2vs0mg"},{"bike_id":"a042667b-77e7-4d86-80f7-afa001b121da","system_id":"levelo_inurba_marseille","lat":43.304278,"lon":5.388868,"is_reserved":false,"is_disabled":false,"rental_uris":{"android":"levelo://app?vid=a042667b-77e7-4d86-80f7-afa001b121da","ios":"levelo://app?vid=a042667b-77e7-4d86-80f7-afa001b121da"},"vehicle_type_id":"4","last_reported":1719504580,"current_range_meters":5200,"station_id":"ce4bgk12rcd13ifvqbi0","pricing_plan_id":"cebpf4jnsgd1na2vs0mg"},{"bike_id":"a99440cb-2618-44c7-8fd9-1059bef96596","system_id":"levelo_inurba_marseille","lat":43.296277,"lon":5.377108,"is_reserved":false,"is_disabled":false,"rental_uris":{"android":"levelo://app?vid=a99440cb-2618-44c7-8fd9-1059bef96596","ios":"levelo://app?vid=a99440cb-2618-44c7-8fd9-1059bef96596"},"vehicle_type_id":"4","last_reported":1719504580,"current_range_meters":9600,"station_id":"ce4bgi92rcd13ifvqb90","pricing_plan_id":"cebpf4jnsgd1na2vs0mg"},{"bike_id":"c951baca-56b4-44f1-a0d3-9766c44ea1cc","system_id":"levelo_inurba_marseille","lat":43.299724,"lon":5.384848,"is_reserved":false,"is_disabled":false,"rental_uris":{"android":"levelo://app?vid=c951baca-56b4-44f1-a0d3-9766c44ea1cc","ios":"levelo://app?vid=c951baca-56b4-44f1-a0d3-9766c44ea1cc"},"vehicle_type_id":"4","last_reported":1719504580,"current_range_meters":1200,"station_id":"ce4bgj92rcd13ifvqbd0","pricing_plan_id":"cebpf4jnsgd1na2vs0mg"},{"bike_id":"7c87de19-2cf7-4b1b-825d-01ae5f274643","system_id":"levelo_inurba_marseille","lat":43.32367,"lon":5.388836,"is_reserved":false,"is_disabled":false,"rental_uris":{"android":"levelo://app?vid=7c87de19-2cf7-4b1b-825d-01ae5f274643","ios":"levelo://app?vid=7c87de19-2cf7-4b1b-825d-01ae5f274643"},"vehicle_type_id":"0","last_reported":1719504580,"current_range_meters":26400,"station_id":"ce4bhqp2rcd13ifvqhog","pricing_plan_id":"cebpf4jnsgd1na2vs0mg"},{"bike_id":"0f477ff0-3bae-4faf-b7b4-e17c212e3c41","system_id":"levelo_inurba_marseille","lat":43.323695,"lon":5.388845,"is_reserved":false,"is_disabled":false,"rental_uris":{"android":"levelo://app?vid=0f477ff0-3bae-4faf-b7b4-e17c212e3c41","ios":"levelo://app?vid=0f477ff0-3bae-4faf-b7b4-e17c212e3c41"},"vehicle_type_id":"4","last_reported":1719504580,"current_range_meters":0,"station_id":"ce4bhqp2rcd13ifvqhog","pricing_plan_id":"cebpf4jnsgd1na2vs0mg"},{"bike_id":"b23806b2-2c5d-4f2a-a3ef-695d1e02cad8","system_id":"levelo_inurba_marseille","lat":43.32374,"lon":5.38882,"is_reserved":false,"is_disabled":false,"rental_uris":{"android":"levelo://app?vid=b23806b2-2c5d-4f2a-a3ef-695d1e02cad8","ios":"levelo://app?vid=b23806b2-2c5d-4f2a-a3ef-695d1e02cad8"},"vehicle_type_id":"4","last_reported":1719504580,"current_range_meters":26800,"station_id":"ce4bhqp2rcd13ifvqhog","pricing_plan_id":"cebpf4jnsgd1na2vs0mg"},{"bike_id":"c1c70c2f-d783-4e8c-a22a-358b0af2275f","system_id":"levelo_inurba_marseille","lat":43.304274,"lon":5.388873,"is_reserved":false,"is_disabled":false,"rental_uris":{"android":"levelo://app?vid=c1c70c2f-d783-4e8c-a22a-358b0af2275f","ios":"levelo://app?vid=c1c70c2f-d783-4e8c-a22a-358b0af2275f"},"vehicle_type_id":"4","last_reported":1719504580,"current_range_meters":2000,"station_id":"ce4bgk12rcd13ifvqbi0","pricing_plan_id":"cebpf4jnsgd1na2vs0mg"},{"bike_id":"734c3355-6f40-4b5f-a2b8-d3e595dacf45","system_id":"levelo_inurba_marseille","lat":43.292767,"lon":5.3684,"is_reserved":false,"is_disabled":false,"rental_uris":{"android":"levelo://app?vid=734c3355-6f40-4b5f-a2b8-d3e595dacf45","ios":"levelo://app?vid=734c3355-6f40-4b5f-a2b8-d3e595dacf45"},"vehicle_type_id":"4","last_reported":1719504580,"current_range_meters":31200,"station_id":"ce4bgi12rcd13ifvqb70","pricing_plan_id":"cebpf4jnsgd1na2vs0mg"},{"bike_id":"002efbf6-3eeb-4baa-adbe-21a4082723e8","system_id":"levelo_inurba_marseille","lat":43.292767,"lon":5.36846,"is_reserved":false,"is_disabled":false,"rental_uris":{"android":"levelo://app?vid=002efbf6-3eeb-4baa-adbe-21a4082723e8","ios":"levelo://app?vid=002efbf6-3eeb-4baa-adbe-21a4082723e8"},"vehicle_type_id":"4","last_reported":1719504580,"current_range_meters":0,"station_id":"ce4bhbp2rcd13ifvqesg","pricing_plan_id":"cebpf4jnsgd1na2vs0mg"},{"bike_id":"32b72cfb-d17f-4f2b-8b47-ef83f2e1b8f9","system_id":"levelo_inurba_marseille","lat":43.293009,"lon":5.374584,"is_reserved":false,"is_disabled":false,"rental_uris":{"android":"levelo://app?vid=32b72cfb-d17f-4f2b-8b47-ef83f2e1b8f9","ios":"levelo://app?vid=32b72cfb-d17f-4f2b-8b47-ef83f2e1b8f9"},"vehicle_type_id":"4","last_reported":1719504580,"current_range_meters":0,"station_id":"ce4bgi12rcd13ifvqb70","pricing_plan_id":"cebpf4jnsgd1na2vs0mg"},{"bike_id":"c907d09c-1690-40a3-bac7-f0df476216c5","system_id":"levelo_inurba_marseille","lat":43.309589,"lon":5.390258,"is_reserved":false,"is_disabled":false,"rental_uris":{"android":"levelo://app?vid=c907d09c-1690-40a3-bac7-f0df476216c5","ios":"levelo://app?vid=c907d09c-1690-40a3-bac7-f0df476216c5"},"vehicle_type_id":"4","last_reported":1719504580,"current_range_meters":17200,"station_id":"ce4bgup2rcd13ifvqco0","pricing_plan_id":"cebpf4jnsgd1na2vs0mg"},{"bike_id":"8db10bd9-a58a-425a-8174-950b42347c7b","system_id":"levelo_inurba_marseille","lat":43.293009,"lon":5.374584,"is_reserved":false,"is_disabled":false,"rental_uris":{"android":"levelo://app?vid=8db10bd9-a58a-425a-8174-950b42347c7b","ios":"levelo://app?vid=8db10bd9-a58a-425a-8174-950b42347c7b"},"vehicle_type_id":"4","last_reported":1719504580,"current_range_meters":15200,"station_id":"ce4bgi12rcd13ifvqb70","pricing_plan_id":"cebpf4jnsgd1na2vs0mg"},{"bike_id":"31891791-ddfc-4bdf-8afd-6fc68b09e5c5","system_id":"levelo_inurba_marseille","lat":43.305994,"lon":5.393687,"is_reserved":false,"is_disabled":false,"rental_uris":{"android":"levelo://app?vid=31891791-ddfc-4bdf-8afd-6fc68b09e5c5","ios":"levelo://app?vid=31891791-ddfc-4bdf-8afd-6fc68b09e5c5"},"vehicle_type_id":"4","last_reported":1719504580,"current_range_meters":2000,"station_id":"ce4bh0p2rcd13ifvqd80","pricing_plan_id":"cebpf4jnsgd1na2vs0mg"},{"bike_id":"31cf2e91-206d-41e9-a9fb-c72adf7bed13","system_id":"levelo_inurba_marseille","lat":43.305994,"lon":5.393687,"is_reserved":false,"is_disabled":false,"rental_uris":{"android":"levelo://app?vid=31cf2e91-206d-41e9-a9fb-c72adf7bed13","ios":"levelo://app?vid=31cf2e91-206d-41e9-a9fb-c72adf7bed13"},"vehicle_type_id":"4","last_reported":1719504580,"current_range_meters":13600,"station_id":"ce4bh0p2rcd13ifvqd80","pricing_plan_id":"cebpf4jnsgd1na2vs0mg"},{"bike_id":"d32989fa-abd8-4583-b4f8-99a370540b8b","system_id":"levelo_inurba_marseille","lat":43.302992,"lon":5.392136,"is_reserved":false,"is_disabled":false,"rental_uris":{"android":"levelo://app?vid=d32989fa-abd8-4583-b4f8-99a370540b8b","ios":"levelo://app?vid=d32989fa-abd8-4583-b4f8-99a370540b8b"},"vehicle_type_id":"4","last_reported":1719504580,"current_range_meters":4000,"station_id":"ce4bgkh2rcd13ifvqbk0","pricing_plan_id":"cebpf4jnsgd1na2vs0mg"},{"bike_id":"0bbf976a-e02b-446d-813f-dc8dfa6d3db7","system_id":"levelo_inurba_marseille","lat":43.303002,"lon":5.392142,"is_reserved":false,"is_disabled":false,"rental_uris":{"android":"levelo://app?vid=0bbf976a-e02b-446d-813f-dc8dfa6d3db7","ios":"levelo://app?vid=0bbf976a-e02b-446d-813f-dc8dfa6d3db7"},"vehicle_type_id":"4","last_reported":1719504580,"current_range_meters":0,"station_id":"ce4bgkh2rcd13ifvqbk0","pricing_plan_id":"cebpf4jnsgd1na2vs0mg"},{"bike_id":"6ad406fc-82f3-457d-909b-5c8d685e3563","system_id":"levelo_inurba_marseille","lat":43.2936,"lon":5.37835,"is_reserved":false,"is_disabled":false,"rental_uris":{"android":"levelo://app?vid=6ad406fc-82f3-457d-909b-5c8d685e3563","ios":"levelo://app?vid=6ad406fc-82f3-457d-909b-5c8d685e3563"},"vehicle_type_id":"4","last_reported":1719504580,"current_range_meters":17600,"station_id":"ce4bgjh2rcd13ifvqbf0","pricing_plan_id":"cebpf4jnsgd1na2vs0mg"},{"bike_id":"060b4075-93e0-41be-a226-65c99f93805f","system_id":"levelo_inurba_marseille","lat":43.302992,"lon":5.392136,"is_reserved":false,"is_disabled":false,"rental_uris":{"android":"levelo://app?vid=060b4075-93e0-41be-a226-65c99f93805f","ios":"levelo://app?vid=060b4075-93e0-41be-a226-65c99f93805f"},"vehicle_type_id":"4","last_reported":1719504580,"current_range_meters":0,"station_id":"ce4bgkh2rcd13ifvqbk0","pricing_plan_id":"cebpf4jnsgd1na2vs0mg"},{"bike_id":"ad262792-6c4e-4975-94c0-619e00d1829b","system_id":"levelo_inurba_marseille","lat":43.2936,"lon":5.37835,"is_reserved":false,"is_disabled":false,"rental_uris":{"android":"levelo://app?vid=ad262792-6c4e-4975-94c0-619e00d1829b","ios":"levelo://app?vid=ad262792-6c4e-4975-94c0-619e00d1829b"},"vehicle_type_id":"4","last_reported":1719504580,"current_range_meters":0,"station_id":"ce4bgjh2rcd13ifvqbf0","pricing_plan_id":"cebpf4jnsgd1na2vs0mg"},{"bike_id":"9265c84a-8396-4664-b9ec-1bee007ea1f7","system_id":"levelo_inurba_marseille","lat":43.30298,"lon":5.39223,"is_reserved":false,"is_disabled":false,"rental_uris":{"android":"levelo://app?vid=9265c84a-8396-4664-b9ec-1bee007ea1f7","ios":"levelo://app?vid=9265c84a-8396-4664-b9ec-1bee007ea1f7"},"vehicle_type_id":"4","last_reported":1719504580,"current_range_meters":0,"station_id":"ce4bgkh2rcd13ifvqbk0","pricing_plan_id":"cebpf4jnsgd1na2vs0mg"},{"bike_id":"b6c6c8e7-5a47-424f-b97e-dd42f8881029","system_id":"levelo_inurba_marseille","lat":43.292311,"lon":5.360731,"is_reserved":false,"is_disabled":false,"rental_uris":{"android":"levelo://app?vid=b6c6c8e7-5a47-424f-b97e-dd42f8881029","ios":"levelo://app?vid=b6c6c8e7-5a47-424f-b97e-dd42f8881029"},"vehicle_type_id":"4","last_reported":1719504580,"current_range_meters":29600,"station_id":"ce4bhbh2rcd13ifvqeqg","pricing_plan_id":"cebpf4jnsgd1na2vs0mg"},{"bike_id":"6a6d5e15-f643-40f2-86bb-6e169f834247","system_id":"levelo_inurba_marseille","lat":43.292311,"lon":5.360731,"is_reserved":false,"is_disabled":false,"rental_uris":{"android":"levelo://app?vid=6a6d5e15-f643-40f2-86bb-6e169f834247","ios":"levelo://app?vid=6a6d5e15-f643-40f2-86bb-6e169f834247"},"vehicle_type_id":"4","last_reported":1719504580,"current_range_meters":0,"station_id":"ce4bhbh2rcd13ifvqeqg","pricing_plan_id":"cebpf4jnsgd1na2vs0mg"},{"bike_id":"48f8daa6-11da-4280-8b44-73b91858b670","system_id":"levelo_inurba_marseille","lat":43.30088,"lon":5.39076,"is_reserved":false,"is_disabled":false,"rental_uris":{"android":"levelo://app?vid=48f8daa6-11da-4280-8b44-73b91858b670","ios":"levelo://app?vid=48f8daa6-11da-4280-8b44-73b91858b670"},"vehicle_type_id":"4","last_reported":1719504580,"current_range_meters":12800,"station_id":"ce4bh192rcd13ifvqdb0","pricing_plan_id":"cebpf4jnsgd1na2vs0mg"},{"bike_id":"0e53193d-2a00-4c4e-9076-4ac0b7ddbecc","system_id":"levelo_inurba_marseille","lat":43.292311,"lon":5.360731,"is_reserved":false,"is_disabled":false,"rental_uris":{"android":"levelo://app?vid=0e53193d-2a00-4c4e-9076-4ac0b7ddbecc","ios":"levelo://app?vid=0e53193d-2a00-4c4e-9076-4ac0b7ddbecc"},"vehicle_type_id":"4","last_reported":1719504580,"current_range_meters":0,"station_id":"ce4bhbh2rcd13ifvqeqg","pricing_plan_id":"cebpf4jnsgd1na2vs0mg"},{"bike_id":"170e4870-ea06-44d0-aace-af6c607678e6","system_id":"levelo_inurba_marseille","lat":43.292311,"lon":5.360731,"is_reserved":false,"is_disabled":false,"rental_uris":{"android":"levelo://app?vid=170e4870-ea06-44d0-aace-af6c607678e6","ios":"levelo://app?vid=170e4870-ea06-44d0-aace-af6c607678e6"},"vehicle_type_id":"4","last_reported":1719504580,"current_range_meters":31600,"station_id":"ce4bhbh2rcd13ifvqeqg","pricing_plan_id":"cebpf4jnsgd1na2vs0mg"},{"bike_id":"2eb624fa-59f7-4643-a01b-ec7d6a4d8447","system_id":"levelo_inurba_marseille","lat":43.298764,"lon":5.388973,"is_reserved":false,"is_disabled":false,"rental_uris":{"android":"levelo://app?vid=2eb624fa-59f7-4643-a01b-ec7d6a4d8447","ios":"levelo://app?vid=2eb624fa-59f7-4643-a01b-ec7d6a4d8447"},"vehicle_type_id":"4","last_reported":1719504580,"current_range_meters":0,"station_id":"ce4bh392rcd13ifvqdl0","pricing_plan_id":"cebpf4jnsgd1na2vs0mg"},{"bike_id":"9d60db4e-1fa7-4372-b20d-eaf301220a65","system_id":"levelo_inurba_marseille","lat":43.298764,"lon":5.388973,"is_reserved":false,"is_disabled":false,"rental_uris":{"android":"levelo://app?vid=9d60db4e-1fa7-4372-b20d-eaf301220a65","ios":"levelo://app?vid=9d60db4e-1fa7-4372-b20d-eaf301220a65"},"vehicle_type_id":"4","last_reported":1719504580,"current_range_meters":7200,"station_id":"ce4bh392rcd13ifvqdl0","pricing_plan_id":"cebpf4jnsgd1na2vs0mg"},{"bike_id":"2099b09e-c4eb-4bee-88c9-baa8bb0f407d","system_id":"levelo_inurba_marseille","lat":43.298764,"lon":5.388973,"is_reserved":false,"is_disabled":false,"rental_uris":{"android":"levelo://app?vid=2099b09e-c4eb-4bee-88c9-baa8bb0f407d","ios":"levelo://app?vid=2099b09e-c4eb-4bee-88c9-baa8bb0f407d"},"vehicle_type_id":"4","last_reported":1719504580,"current_range_meters":0,"station_id":"ce4bh392rcd13ifvqdl0","pricing_plan_id":"cebpf4jnsgd1na2vs0mg"},{"bike_id":"7250e77e-9dda-4a01-92bc-7265aab79931","system_id":"levelo_inurba_marseille","lat":43.29801,"lon":5.38833,"is_reserved":false,"is_disabled":false,"rental_uris":{"android":"levelo://app?vid=7250e77e-9dda-4a01-92bc-7265aab79931","ios":"levelo://app?vid=7250e77e-9dda-4a01-92bc-7265aab79931"},"vehicle_type_id":"4","last_reported":1719504580,"current_range_meters":8800,"station_id":"","pricing_plan_id":"cebpf4jnsgd1na2vs0mg"},{"bike_id":"421d7a3a-f4d9-4c5d-b6c1-c9d0715d70e8","system_id":"levelo_inurba_marseille","lat":43.291994,"lon":5.357886,"is_reserved":false,"is_disabled":false,"rental_uris":{"android":"levelo://app?vid=421d7a3a-f4d9-4c5d-b6c1-c9d0715d70e8","ios":"levelo://app?vid=421d7a3a-f4d9-4c5d-b6c1-c9d0715d70e8"},"vehicle_type_id":"4","last_reported":1719504580,"current_range_meters":2000,"station_id":"ce4bhb12rcd13ifvqel0","pricing_plan_id":"cebpf4jnsgd1na2vs0mg"},{"bike_id":"cd1bfb1a-ccd3-4f23-9617-379cdef75710","system_id":"levelo_inurba_marseille","lat":43.313291,"lon":5.396838,"is_reserved":false,"is_disabled":false,"rental_uris":{"android":"levelo://app?vid=cd1bfb1a-ccd3-4f23-9617-379cdef75710","ios":"levelo://app?vid=cd1bfb1a-ccd3-4f23-9617-379cdef75710"},"vehicle_type_id":"4","last_reported":1719504580,"current_range_meters":18800,"station_id":"ce4bgvp2rcd13ifvqcu0","pricing_plan_id":"cebpf4jnsgd1na2vs0mg"},{"bike_id":"b0eb289a-fd16-442a-8dd6-169bb22542f6","system_id":"levelo_inurba_marseille","lat":43.313291,"lon":5.396838,"is_reserved":false,"is_disabled":false,"rental_uris":{"android":"levelo://app?vid=b0eb289a-fd16-442a-8dd6-169bb22542f6","ios":"levelo://app?vid=b0eb289a-fd16-442a-8dd6-169bb22542f6"},"vehicle_type_id":"4","last_reported":1719504580,"current_range_meters":1600,"station_id":"ce4bgvp2rcd13ifvqcu0","pricing_plan_id":"cebpf4jnsgd1na2vs0mg"},{"bike_id":"c195333b-6d32-4cf0-bd27-87dd33c10600","system_id":"levelo_inurba_marseille","lat":43.309038,"lon":5.396546,"is_reserved":false,"is_disabled":false,"rental_uris":{"android":"levelo://app?vid=c195333b-6d32-4cf0-bd27-87dd33c10600","ios":"levelo://app?vid=c195333b-6d32-4cf0-bd27-87dd33c10600"},"vehicle_type_id":"4","last_reported":1719504580,"current_range_meters":20400,"station_id":"ce4bh012rcd13ifvqcv0","pricing_plan_id":"cebpf4jnsgd1na2vs0mg"},{"bike_id":"b4881af9-5ea4-440a-b634-91da36bcbe19","system_id":"levelo_inurba_marseille","lat":43.313291,"lon":5.396838,"is_reserved":false,"is_disabled":false,"rental_uris":{"android":"levelo://app?vid=b4881af9-5ea4-440a-b634-91da36bcbe19","ios":"levelo://app?vid=b4881af9-5ea4-440a-b634-91da36bcbe19"},"vehicle_type_id":"4","last_reported":1719504580,"current_range_meters":9600,"station_id":"ce4bgvp2rcd13ifvqcu0","pricing_plan_id":"cebpf4jnsgd1na2vs0mg"},{"bike_id":"4e82f3db-a56a-495b-94ed-2ab623fe64cf","system_id":"levelo_inurba_marseille","lat":43.291994,"lon":5.357886,"is_reserved":false,"is_disabled":false,"rental_uris":{"android":"levelo://app?vid=4e82f3db-a56a-495b-94ed-2ab623fe64cf","ios":"levelo://app?vid=4e82f3db-a56a-495b-94ed-2ab623fe64cf"},"vehicle_type_id":"4","last_reported":1719504580,"current_range_meters":0,"station_id":"ce4bhb12rcd13ifvqel0","pricing_plan_id":"cebpf4jnsgd1na2vs0mg"},{"bike_id":"38ab8348-ea30-4fd0-b2bb-5492b9f65d33","system_id":"levelo_inurba_marseille","lat":43.309038,"lon":5.396546,"is_reserved":false,"is_disabled":false,"rental_uris":{"android":"levelo://app?vid=38ab8348-ea30-4fd0-b2bb-5492b9f65d33","ios":"levelo://app?vid=38ab8348-ea30-4fd0-b2bb-5492b9f65d33"},"vehicle_type_id":"4","last_reported":1719504580,"current_range_meters":0,"station_id":"ce4bh012rcd13ifvqcv0","pricing_plan_id":"cebpf4jnsgd1na2vs0mg"},{"bike_id":"21004755-7e42-4296-b41a-3c0e1e82c802","system_id":"levelo_inurba_marseille","lat":43.309047,"lon":5.396551,"is_reserved":false,"is_disabled":false,"rental_uris":{"android":"levelo://app?vid=21004755-7e42-4296-b41a-3c0e1e82c802","ios":"levelo://app?vid=21004755-7e42-4296-b41a-3c0e1e82c802"},"vehicle_type_id":"4","last_reported":1719504580,"current_range_meters":10400,"station_id":"ce4bh012rcd13ifvqcv0","pricing_plan_id":"cebpf4jnsgd1na2vs0mg"},{"bike_id":"615c504c-a6aa-4bad-a030-4f850375db73","system_id":"levelo_inurba_marseille","lat":43.313291,"lon":5.396838,"is_reserved":false,"is_disabled":false,"rental_uris":{"android":"levelo://app?vid=615c504c-a6aa-4bad-a030-4f850375db73","ios":"levelo://app?vid=615c504c-a6aa-4bad-a030-4f850375db73"},"vehicle_type_id":"4","last_reported":1719504580,"current_range_meters":28800,"station_id":"ce4bgvp2rcd13ifvqcu0","pricing_plan_id":"cebpf4jnsgd1na2vs0mg"},{"bike_id":"20e0e95b-4eb7-4522-b9de-b5f0ea4a9639","system_id":"levelo_inurba_marseille","lat":43.309038,"lon":5.396546,"is_reserved":false,"is_disabled":false,"rental_uris":{"android":"levelo://app?vid=20e0e95b-4eb7-4522-b9de-b5f0ea4a9639","ios":"levelo://app?vid=20e0e95b-4eb7-4522-b9de-b5f0ea4a9639"},"vehicle_type_id":"4","last_reported":1719504580,"current_range_meters":2800,"station_id":"ce4bh012rcd13ifvqcv0","pricing_plan_id":"cebpf4jnsgd1na2vs0mg"},{"bike_id":"89845d95-bcec-4461-947a-5ca3b43de2d5","system_id":"levelo_inurba_marseille","lat":43.29535,"lon":5.38544,"is_reserved":false,"is_disabled":false,"rental_uris":{"android":"levelo://app?vid=89845d95-bcec-4461-947a-5ca3b43de2d5","ios":"levelo://app?vid=89845d95-bcec-4461-947a-5ca3b43de2d5"},"vehicle_type_id":"4","last_reported":1719504580,"current_range_meters":0,"station_id":"ce4bgih2rcd13ifvqba0","pricing_plan_id":"cebpf4jnsgd1na2vs0mg"},{"bike_id":"1af98726-326e-491f-9d32-1f2d4a5b43d9","system_id":"levelo_inurba_marseille","lat":43.309038,"lon":5.396546,"is_reserved":false,"is_disabled":false,"rental_uris":{"android":"levelo://app?vid=1af98726-326e-491f-9d32-1f2d4a5b43d9","ios":"levelo://app?vid=1af98726-326e-491f-9d32-1f2d4a5b43d9"},"vehicle_type_id":"4","last_reported":1719504580,"current_range_meters":23200,"station_id":"ce4bh012rcd13ifvqcv0","pricing_plan_id":"cebpf4jnsgd1na2vs0mg"},{"bike_id":"184b96b5-4c5a-45b0-9e75-55b2e410e904","system_id":"levelo_inurba_marseille","lat":43.29529,"lon":5.385581,"is_reserved":false,"is_disabled":false,"rental_uris":{"android":"levelo://app?vid=184b96b5-4c5a-45b0-9e75-55b2e410e904","ios":"levelo://app?vid=184b96b5-4c5a-45b0-9e75-55b2e410e904"},"vehicle_type_id":"4","last_reported":1719504580,"current_range_meters":10800,"station_id":"ce4bgih2rcd13ifvqba0","pricing_plan_id":"cebpf4jnsgd1na2vs0mg"},{"bike_id":"82210e6d-39c2-4946-b022-38fd7c92db3f","system_id":"levelo_inurba_marseille","lat":43.30152,"lon":5.39299,"is_reserved":false,"is_disabled":false,"rental_uris":{"android":"levelo://app?vid=82210e6d-39c2-4946-b022-38fd7c92db3f","ios":"levelo://app?vid=82210e6d-39c2-4946-b022-38fd7c92db3f"},"vehicle_type_id":"4","last_reported":1719504580,"current_range_meters":4000,"station_id":"","pricing_plan_id":"cebpf4jnsgd1na2vs0mg"},{"bike_id":"72d4aba5-3a75-4295-a815-aae871c97335","system_id":"levelo_inurba_marseille","lat":43.313291,"lon":5.396838,"is_reserved":false,"is_disabled":false,"rental_uris":{"android":"levelo://app?vid=72d4aba5-3a75-4295-a815-aae871c97335","ios":"levelo://app?vid=72d4aba5-3a75-4295-a815-aae871c97335"},"vehicle_type_id":"4","last_reported":1719504580,"current_range_meters":9200,"station_id":"ce4bgvp2rcd13ifvqcu0","pricing_plan_id":"cebpf4jnsgd1na2vs0mg"},{"bike_id":"5e43ad1c-ffca-4859-97e4-267d6ea4a381","system_id":"levelo_inurba_marseille","lat":43.289184,"lon":5.366408,"is_reserved":false,"is_disabled":false,"rental_uris":{"android":"levelo://app?vid=5e43ad1c-ffca-4859-97e4-267d6ea4a381","ios":"levelo://app?vid=5e43ad1c-ffca-4859-97e4-267d6ea4a381"},"vehicle_type_id":"4","last_reported":1719504580,"current_range_meters":12400,"station_id":"ce4bhap2rcd13ifvqek0","pricing_plan_id":"cebpf4jnsgd1na2vs0mg"},{"bike_id":"d130a7df-08fa-4b13-b329-6590322b6322","system_id":"levelo_inurba_marseille","lat":43.302008,"lon":5.394694,"is_reserved":false,"is_disabled":false,"rental_uris":{"android":"levelo://app?vid=d130a7df-08fa-4b13-b329-6590322b6322","ios":"levelo://app?vid=d130a7df-08fa-4b13-b329-6590322b6322"},"vehicle_type_id":"4","last_reported":1719504580,"current_range_meters":6000,"station_id":"ce4bh0p2rcd13ifvqd70","pricing_plan_id":"cebpf4jnsgd1na2vs0mg"},{"bike_id":"11d8bd7c-093a-4939-9693-d7be179181e5","system_id":"levelo_inurba_marseille","lat":43.294153,"lon":5.386305,"is_reserved":false,"is_disabled":false,"rental_uris":{"android":"levelo://app?vid=11d8bd7c-093a-4939-9693-d7be179181e5","ios":"levelo://app?vid=11d8bd7c-093a-4939-9693-d7be179181e5"},"vehicle_type_id":"4","last_reported":1719504580,"current_range_meters":12400,"station_id":"ce4bh2h2rcd13ifvqdh0","pricing_plan_id":"cebpf4jnsgd1na2vs0mg"},{"bike_id":"21b4ba2e-ffc5-421d-af87-baa6df835853","system_id":"levelo_inurba_marseille","lat":43.290327,"lon":5.375711,"is_reserved":false,"is_disabled":false,"rental_uris":{"android":"levelo://app?vid=21b4ba2e-ffc5-421d-af87-baa6df835853","ios":"levelo://app?vid=21b4ba2e-ffc5-421d-af87-baa6df835853"},"vehicle_type_id":"4","last_reported":1719504580,"current_range_meters":0,"station_id":"ce4bh692rcd13ifvqe90","pricing_plan_id":"cebpf4jnsgd1na2vs0mg"},{"bike_id":"faf6995a-df4d-4d80-85c8-b05e6022b32f","system_id":"levelo_inurba_marseille","lat":43.290327,"lon":5.375711,"is_reserved":false,"is_disabled":false,"rental_uris":{"android":"levelo://app?vid=faf6995a-df4d-4d80-85c8-b05e6022b32f","ios":"levelo://app?vid=faf6995a-df4d-4d80-85c8-b05e6022b32f"},"vehicle_type_id":"4","last_reported":1719504580,"current_range_meters":2800,"station_id":"ce4bh692rcd13ifvqe90","pricing_plan_id":"cebpf4jnsgd1na2vs0mg"},{"bike_id":"7bd68256-f7ce-4c0e-8283-415509176d8f","system_id":"levelo_inurba_marseille","lat":43.294153,"lon":5.386305,"is_reserved":false,"is_disabled":false,"rental_uris":{"android":"levelo://app?vid=7bd68256-f7ce-4c0e-8283-415509176d8f","ios":"levelo://app?vid=7bd68256-f7ce-4c0e-8283-415509176d8f"},"vehicle_type_id":"4","last_reported":1719504580,"current_range_meters":27200,"station_id":"ce4bh2h2rcd13ifvqdh0","pricing_plan_id":"cebpf4jnsgd1na2vs0mg"},{"bike_id":"75a70e6c-459b-4097-96af-790383f4a6cc","system_id":"levelo_inurba_marseille","lat":43.294153,"lon":5.386305,"is_reserved":false,"is_disabled":false,"rental_uris":{"android":"levelo://app?vid=75a70e6c-459b-4097-96af-790383f4a6cc","ios":"levelo://app?vid=75a70e6c-459b-4097-96af-790383f4a6cc"},"vehicle_type_id":"4","last_reported":1719504580,"current_range_meters":24000,"station_id":"ce4bh2h2rcd13ifvqdh0","pricing_plan_id":"cebpf4jnsgd1na2vs0mg"},{"bike_id":"54d80b51-1917-434c-b08d-06f021ccb604","system_id":"levelo_inurba_marseille","lat":43.2942,"lon":5.38624,"is_reserved":false,"is_disabled":false,"rental_uris":{"android":"levelo://app?vid=54d80b51-1917-434c-b08d-06f021ccb604","ios":"levelo://app?vid=54d80b51-1917-434c-b08d-06f021ccb604"},"vehicle_type_id":"4","last_reported":1719504580,"current_range_meters":12800,"station_id":"ce4bh2h2rcd13ifvqdh0","pricing_plan_id":"cebpf4jnsgd1na2vs0mg"},{"bike_id":"5e58ce94-c79c-4e2e-9ca6-f433afe33373","system_id":"levelo_inurba_marseille","lat":43.294153,"lon":5.386305,"is_reserved":false,"is_disabled":false,"rental_uris":{"android":"levelo://app?vid=5e58ce94-c79c-4e2e-9ca6-f433afe33373","ios":"levelo://app?vid=5e58ce94-c79c-4e2e-9ca6-f433afe33373"},"vehicle_type_id":"4","last_reported":1719504580,"current_range_meters":6800,"station_id":"ce4bh2h2rcd13ifvqdh0","pricing_plan_id":"cebpf4jnsgd1na2vs0mg"},{"bike_id":"5606bf60-8dad-435c-b322-88506665b56a","system_id":"levelo_inurba_marseille","lat":43.2942,"lon":5.38626,"is_reserved":false,"is_disabled":false,"rental_uris":{"android":"levelo://app?vid=5606bf60-8dad-435c-b322-88506665b56a","ios":"levelo://app?vid=5606bf60-8dad-435c-b322-88506665b56a"},"vehicle_type_id":"4","last_reported":1719504580,"current_range_meters":2400,"station_id":"","pricing_plan_id":"cebpf4jnsgd1na2vs0mg"},{"bike_id":"9c8ac1ea-9606-443c-a0b2-2fe0b981127b","system_id":"levelo_inurba_marseille","lat":43.294162,"lon":5.386292,"is_reserved":false,"is_disabled":false,"rental_uris":{"android":"levelo://app?vid=9c8ac1ea-9606-443c-a0b2-2fe0b981127b","ios":"levelo://app?vid=9c8ac1ea-9606-443c-a0b2-2fe0b981127b"},"vehicle_type_id":"4","last_reported":1719504580,"current_range_meters":1600,"station_id":"ce4bh2h2rcd13ifvqdh0","pricing_plan_id":"cebpf4jnsgd1na2vs0mg"},{"bike_id":"efe9ffbb-537a-476c-9638-4bea71a919f9","system_id":"levelo_inurba_marseille","lat":43.289184,"lon":5.366408,"is_reserved":false,"is_disabled":false,"rental_uris":{"android":"levelo://app?vid=efe9ffbb-537a-476c-9638-4bea71a919f9","ios":"levelo://app?vid=efe9ffbb-537a-476c-9638-4bea71a919f9"},"vehicle_type_id":"4","last_reported":1719504580,"current_range_meters":0,"station_id":"ce4bhap2rcd13ifvqek0","pricing_plan_id":"cebpf4jnsgd1na2vs0mg"},{"bike_id":"34e04f6c-0955-42bc-b01c-edee112119af","system_id":"levelo_inurba_marseille","lat":43.294162,"lon":5.386292,"is_reserved":false,"is_disabled":false,"rental_uris":{"android":"levelo://app?vid=34e04f6c-0955-42bc-b01c-edee112119af","ios":"levelo://app?vid=34e04f6c-0955-42bc-b01c-edee112119af"},"vehicle_type_id":"4","last_reported":1719504580,"current_range_meters":0,"station_id":"ce4bh2h2rcd13ifvqdh0","pricing_plan_id":"cebpf4jnsgd1na2vs0mg"},{"bike_id":"ca760c6a-c18e-4c9b-895e-07f34aa0063a","system_id":"levelo_inurba_marseille","lat":43.294162,"lon":5.386292,"is_reserved":false,"is_disabled":false,"rental_uris":{"android":"levelo://app?vid=ca760c6a-c18e-4c9b-895e-07f34aa0063a","ios":"levelo://app?vid=ca760c6a-c18e-4c9b-895e-07f34aa0063a"},"vehicle_type_id":"4","last_reported":1719504580,"current_range_meters":23200,"station_id":"ce4bh2h2rcd13ifvqdh0","pricing_plan_id":"cebpf4jnsgd1na2vs0mg"},{"bike_id":"11da4ed1-8821-4660-b814-b98a1dcbd4f3","system_id":"levelo_inurba_marseille","lat":43.289184,"lon":5.366408,"is_reserved":false,"is_disabled":false,"rental_uris":{"android":"levelo://app?vid=11da4ed1-8821-4660-b814-b98a1dcbd4f3","ios":"levelo://app?vid=11da4ed1-8821-4660-b814-b98a1dcbd4f3"},"vehicle_type_id":"4","last_reported":1719504580,"current_range_meters":4400,"station_id":"ce4bhap2rcd13ifvqek0","pricing_plan_id":"cebpf4jnsgd1na2vs0mg"},{"bike_id":"dab31a39-0961-42af-a82a-1b24c8b13308","system_id":"levelo_inurba_marseille","lat":43.289184,"lon":5.366408,"is_reserved":false,"is_disabled":false,"rental_uris":{"android":"levelo://app?vid=dab31a39-0961-42af-a82a-1b24c8b13308","ios":"levelo://app?vid=dab31a39-0961-42af-a82a-1b24c8b13308"},"vehicle_type_id":"4","last_reported":1719504580,"current_range_meters":10800,"station_id":"ce4bhap2rcd13ifvqek0","pricing_plan_id":"cebpf4jnsgd1na2vs0mg"},{"bike_id":"8b257633-3ce2-4f12-a625-65421f6d1d48","system_id":"levelo_inurba_marseille","lat":43.289468,"lon":5.363719,"is_reserved":false,"is_disabled":false,"rental_uris":{"android":"levelo://app?vid=8b257633-3ce2-4f12-a625-65421f6d1d48","ios":"levelo://app?vid=8b257633-3ce2-4f12-a625-65421f6d1d48"},"vehicle_type_id":"4","last_reported":1719504580,"current_range_meters":6000,"station_id":"ce4bhc92rcd13ifvqetg","pricing_plan_id":"cebpf4jnsgd1na2vs0mg"},{"bike_id":"fa2324a2-74cd-4911-89bc-d5096a136347","system_id":"levelo_inurba_marseille","lat":43.2927,"lon":5.38445,"is_reserved":false,"is_disabled":false,"rental_uris":{"android":"levelo://app?vid=fa2324a2-74cd-4911-89bc-d5096a136347","ios":"levelo://app?vid=fa2324a2-74cd-4911-89bc-d5096a136347"},"vehicle_type_id":"4","last_reported":1719504580,"current_range_meters":3600,"station_id":"ce4bh692rcd13ifvqea0","pricing_plan_id":"cebpf4jnsgd1na2vs0mg"},{"bike_id":"43348c29-b871-4d67-95ea-6a8a4fd5b752","system_id":"levelo_inurba_marseille","lat":43.29263,"lon":5.38445,"is_reserved":false,"is_disabled":false,"rental_uris":{"android":"levelo://app?vid=43348c29-b871-4d67-95ea-6a8a4fd5b752","ios":"levelo://app?vid=43348c29-b871-4d67-95ea-6a8a4fd5b752"},"vehicle_type_id":"4","last_reported":1719504580,"current_range_meters":30800,"station_id":"ce4bh692rcd13ifvqea0","pricing_plan_id":"cebpf4jnsgd1na2vs0mg"},{"bike_id":"e12d0bda-ef00-4709-84ad-6a6aa96b2a35","system_id":"levelo_inurba_marseille","lat":43.290104,"lon":5.356111,"is_reserved":false,"is_disabled":false,"rental_uris":{"android":"levelo://app?vid=e12d0bda-ef00-4709-84ad-6a6aa96b2a35","ios":"levelo://app?vid=e12d0bda-ef00-4709-84ad-6a6aa96b2a35"},"vehicle_type_id":"4","last_reported":1719504580,"current_range_meters":4400,"station_id":"ce4bhb92rcd13ifvqen0","pricing_plan_id":"cebpf4jnsgd1na2vs0mg"},{"bike_id":"6d320d35-41ee-4d2f-9780-43c673f2aad6","system_id":"levelo_inurba_marseille","lat":43.29005,"lon":5.3562,"is_reserved":false,"is_disabled":false,"rental_uris":{"android":"levelo://app?vid=6d320d35-41ee-4d2f-9780-43c673f2aad6","ios":"levelo://app?vid=6d320d35-41ee-4d2f-9780-43c673f2aad6"},"vehicle_type_id":"4","last_reported":1719504580,"current_range_meters":28800,"station_id":"ce4bhb92rcd13ifvqen0","pricing_plan_id":"cebpf4jnsgd1na2vs0mg"},{"bike_id":"6677a51f-0247-422f-a2a5-84b87c17b986","system_id":"levelo_inurba_marseille","lat":43.29002,"lon":5.35617,"is_reserved":false,"is_disabled":false,"rental_uris":{"android":"levelo://app?vid=6677a51f-0247-422f-a2a5-84b87c17b986","ios":"levelo://app?vid=6677a51f-0247-422f-a2a5-84b87c17b986"},"vehicle_type_id":"4","last_reported":1719504580,"current_range_meters":31600,"station_id":"ce4bhb92rcd13ifvqen0","pricing_plan_id":"cebpf4jnsgd1na2vs0mg"},{"bike_id":"d2b49b5f-0645-49a6-8f2c-08efabe054aa","system_id":"levelo_inurba_marseille","lat":43.29791,"lon":5.39344,"is_reserved":false,"is_disabled":false,"rental_uris":{"android":"levelo://app?vid=d2b49b5f-0645-49a6-8f2c-08efabe054aa","ios":"levelo://app?vid=d2b49b5f-0645-49a6-8f2c-08efabe054aa"},"vehicle_type_id":"4","last_reported":1719504580,"current_range_meters":14000,"station_id":"chh1huq6cuj3fo74tm60","pricing_plan_id":"cebpf4jnsgd1na2vs0mg"},{"bike_id":"5e719df0-408b-47cf-b30c-2de3fd4f37f9","system_id":"levelo_inurba_marseille","lat":43.29784,"lon":5.39346,"is_reserved":false,"is_disabled":false,"rental_uris":{"android":"levelo://app?vid=5e719df0-408b-47cf-b30c-2de3fd4f37f9","ios":"levelo://app?vid=5e719df0-408b-47cf-b30c-2de3fd4f37f9"},"vehicle_type_id":"4","last_reported":1719504580,"current_range_meters":0,"station_id":"chh1huq6cuj3fo74tm60","pricing_plan_id":"cebpf4jnsgd1na2vs0mg"},{"bike_id":"1defef79-a63f-4c0b-8fd2-d66f400550f4","system_id":"levelo_inurba_marseille","lat":43.28977,"lon":5.37835,"is_reserved":false,"is_disabled":false,"rental_uris":{"android":"levelo://app?vid=1defef79-a63f-4c0b-8fd2-d66f400550f4","ios":"levelo://app?vid=1defef79-a63f-4c0b-8fd2-d66f400550f4"},"vehicle_type_id":"4","last_reported":1719504580,"current_range_meters":0,"station_id":"ce4bh9p2rcd13ifvqed0","pricing_plan_id":"cebpf4jnsgd1na2vs0mg"},{"bike_id":"e0bcab4a-f2ce-4a67-bc3d-77734911e61c","system_id":"levelo_inurba_marseille","lat":43.295169,"lon":5.390426,"is_reserved":false,"is_disabled":false,"rental_uris":{"android":"levelo://app?vid=e0bcab4a-f2ce-4a67-bc3d-77734911e61c","ios":"levelo://app?vid=e0bcab4a-f2ce-4a67-bc3d-77734911e61c"},"vehicle_type_id":"4","last_reported":1719504580,"current_range_meters":1200,"station_id":"ce4bh3p2rcd13ifvqdp0","pricing_plan_id":"cebpf4jnsgd1na2vs0mg"},{"bike_id":"9daade15-455a-4f7f-baf7-ec65fa7cee27","system_id":"levelo_inurba_marseille","lat":43.295169,"lon":5.390426,"is_reserved":false,"is_disabled":false,"rental_uris":{"android":"levelo://app?vid=9daade15-455a-4f7f-baf7-ec65fa7cee27","ios":"levelo://app?vid=9daade15-455a-4f7f-baf7-ec65fa7cee27"},"vehicle_type_id":"4","last_reported":1719504580,"current_range_meters":14000,"station_id":"ce4bh3p2rcd13ifvqdp0","pricing_plan_id":"cebpf4jnsgd1na2vs0mg"},{"bike_id":"59323794-bd71-4510-bca7-a7eeacab8a0b","system_id":"levelo_inurba_marseille","lat":43.295169,"lon":5.390426,"is_reserved":false,"is_disabled":false,"rental_uris":{"android":"levelo://app?vid=59323794-bd71-4510-bca7-a7eeacab8a0b","ios":"levelo://app?vid=59323794-bd71-4510-bca7-a7eeacab8a0b"},"vehicle_type_id":"4","last_reported":1719504580,"current_range_meters":10400,"station_id":"ce4bh3p2rcd13ifvqdp0","pricing_plan_id":"cebpf4jnsgd1na2vs0mg"},{"bike_id":"6cb841b1-e3d8-48e6-a5b9-c65a2f18b91e","system_id":"levelo_inurba_marseille","lat":43.31059,"lon":5.40098,"is_reserved":false,"is_disabled":false,"rental_uris":{"android":"levelo://app?vid=6cb841b1-e3d8-48e6-a5b9-c65a2f18b91e","ios":"levelo://app?vid=6cb841b1-e3d8-48e6-a5b9-c65a2f18b91e"},"vehicle_type_id":"4","last_reported":1719504580,"current_range_meters":9200,"station_id":"","pricing_plan_id":"cebpf4jnsgd1na2vs0mg"},{"bike_id":"7194c0d4-302f-4e26-a13d-627958f86301","system_id":"levelo_inurba_marseille","lat":43.28856,"lon":5.358371,"is_reserved":false,"is_disabled":false,"rental_uris":{"android":"levelo://app?vid=7194c0d4-302f-4e26-a13d-627958f86301","ios":"levelo://app?vid=7194c0d4-302f-4e26-a13d-627958f86301"},"vehicle_type_id":"4","last_reported":1719504580,"current_range_meters":4800,"station_id":"ce4bhb12rcd13ifvqem0","pricing_plan_id":"cebpf4jnsgd1na2vs0mg"},{"bike_id":"68ebb57d-f69a-4a5f-b3eb-4e8c4c39ce2c","system_id":"levelo_inurba_marseille","lat":43.28856,"lon":5.358371,"is_reserved":false,"is_disabled":false,"rental_uris":{"android":"levelo://app?vid=68ebb57d-f69a-4a5f-b3eb-4e8c4c39ce2c","ios":"levelo://app?vid=68ebb57d-f69a-4a5f-b3eb-4e8c4c39ce2c"},"vehicle_type_id":"4","last_reported":1719504580,"current_range_meters":20800,"station_id":"ce4bhb12rcd13ifvqem0","pricing_plan_id":"cebpf4jnsgd1na2vs0mg"},{"bike_id":"6ba51988-fab5-472f-b0fb-2013a0424cf0","system_id":"levelo_inurba_marseille","lat":43.28856,"lon":5.358371,"is_reserved":false,"is_disabled":false,"rental_uris":{"android":"levelo://app?vid=6ba51988-fab5-472f-b0fb-2013a0424cf0","ios":"levelo://app?vid=6ba51988-fab5-472f-b0fb-2013a0424cf0"},"vehicle_type_id":"4","last_reported":1719504580,"current_range_meters":11600,"station_id":"ce4bhb12rcd13ifvqem0","pricing_plan_id":"cebpf4jnsgd1na2vs0mg"},{"bike_id":"bd9a6c26-2db3-4e30-92c7-c85ae97147aa","system_id":"levelo_inurba_marseille","lat":43.33735,"lon":5.37448,"is_reserved":false,"is_disabled":false,"rental_uris":{"android":"levelo://app?vid=bd9a6c26-2db3-4e30-92c7-c85ae97147aa","ios":"levelo://app?vid=bd9a6c26-2db3-4e30-92c7-c85ae97147aa"},"vehicle_type_id":"0","last_reported":1719504580,"current_range_meters":22400,"station_id":"","pricing_plan_id":"cebpf4jnsgd1na2vs0mg"},{"bike_id":"11da98ef-d0c3-43c2-a7e4-890f2c23ccbc","system_id":"levelo_inurba_marseille","lat":43.337359,"lon":5.374673,"is_reserved":false,"is_disabled":false,"rental_uris":{"android":"levelo://app?vid=11da98ef-d0c3-43c2-a7e4-890f2c23ccbc","ios":"levelo://app?vid=11da98ef-d0c3-43c2-a7e4-890f2c23ccbc"},"vehicle_type_id":"4","last_reported":1719504580,"current_range_meters":10400,"station_id":"","pricing_plan_id":"cebpf4jnsgd1na2vs0mg"},{"bike_id":"bb65fb70-df82-47d8-b27f-438620895501","system_id":"levelo_inurba_marseille","lat":43.33735,"lon":5.37474,"is_reserved":false,"is_disabled":false,"rental_uris":{"android":"levelo://app?vid=bb65fb70-df82-47d8-b27f-438620895501","ios":"levelo://app?vid=bb65fb70-df82-47d8-b27f-438620895501"},"vehicle_type_id":"4","last_reported":1719504580,"current_range_meters":17200,"station_id":"","pricing_plan_id":"cebpf4jnsgd1na2vs0mg"},{"bike_id":"8043cc8a-f702-4e45-9523-d56dfd7ee432","system_id":"levelo_inurba_marseille","lat":43.337383,"lon":5.374716,"is_reserved":false,"is_disabled":false,"rental_uris":{"android":"levelo://app?vid=8043cc8a-f702-4e45-9523-d56dfd7ee432","ios":"levelo://app?vid=8043cc8a-f702-4e45-9523-d56dfd7ee432"},"vehicle_type_id":"0","last_reported":1719504580,"current_range_meters":17600,"station_id":"","pricing_plan_id":"cebpf4jnsgd1na2vs0mg"},{"bike_id":"c25a3696-e1cc-43ba-8656-23d4a118ee2e","system_id":"levelo_inurba_marseille","lat":43.337388,"lon":5.374716,"is_reserved":false,"is_disabled":false,"rental_uris":{"android":"levelo://app?vid=c25a3696-e1cc-43ba-8656-23d4a118ee2e","ios":"levelo://app?vid=c25a3696-e1cc-43ba-8656-23d4a118ee2e"},"vehicle_type_id":"4","last_reported":1719504580,"current_range_meters":14800,"station_id":"","pricing_plan_id":"cebpf4jnsgd1na2vs0mg"},{"bike_id":"bf709b1a-1e81-4c69-a36a-dfef45d67fee","system_id":"levelo_inurba_marseille","lat":43.337391,"lon":5.374707,"is_reserved":false,"is_disabled":false,"rental_uris":{"android":"levelo://app?vid=bf709b1a-1e81-4c69-a36a-dfef45d67fee","ios":"levelo://app?vid=bf709b1a-1e81-4c69-a36a-dfef45d67fee"},"vehicle_type_id":"4","last_reported":1719504580,"current_range_meters":16800,"station_id":"","pricing_plan_id":"cebpf4jnsgd1na2vs0mg"},{"bike_id":"2a0fb516-a307-4861-b129-104556c40f00","system_id":"levelo_inurba_marseille","lat":43.337404,"lon":5.374671,"is_reserved":false,"is_disabled":false,"rental_uris":{"android":"levelo://app?vid=2a0fb516-a307-4861-b129-104556c40f00","ios":"levelo://app?vid=2a0fb516-a307-4861-b129-104556c40f00"},"vehicle_type_id":"0","last_reported":1719504580,"current_range_meters":10400,"station_id":"","pricing_plan_id":"cebpf4jnsgd1na2vs0mg"},{"bike_id":"aa527c2c-31a5-479b-bfbe-daae0d9bb514","system_id":"levelo_inurba_marseille","lat":43.337411,"lon":5.374639,"is_reserved":false,"is_disabled":false,"rental_uris":{"android":"levelo://app?vid=aa527c2c-31a5-479b-bfbe-daae0d9bb514","ios":"levelo://app?vid=aa527c2c-31a5-479b-bfbe-daae0d9bb514"},"vehicle_type_id":"0","last_reported":1719504580,"current_range_meters":8000,"station_id":"","pricing_plan_id":"cebpf4jnsgd1na2vs0mg"},{"bike_id":"9b81675f-44cd-4cbe-9733-2d36a516d8f7","system_id":"levelo_inurba_marseille","lat":43.337416,"lon":5.374689,"is_reserved":false,"is_disabled":false,"rental_uris":{"android":"levelo://app?vid=9b81675f-44cd-4cbe-9733-2d36a516d8f7","ios":"levelo://app?vid=9b81675f-44cd-4cbe-9733-2d36a516d8f7"},"vehicle_type_id":"0","last_reported":1719504580,"current_range_meters":20400,"station_id":"","pricing_plan_id":"cebpf4jnsgd1na2vs0mg"},{"bike_id":"70df0eff-7892-4d64-8b33-f9b25d3cdb77","system_id":"levelo_inurba_marseille","lat":43.337426,"lon":5.374672,"is_reserved":false,"is_disabled":false,"rental_uris":{"android":"levelo://app?vid=70df0eff-7892-4d64-8b33-f9b25d3cdb77","ios":"levelo://app?vid=70df0eff-7892-4d64-8b33-f9b25d3cdb77"},"vehicle_type_id":"4","last_reported":1719504580,"current_range_meters":16800,"station_id":"","pricing_plan_id":"cebpf4jnsgd1na2vs0mg"},{"bike_id":"cbff8e2e-87ad-4d9e-a09d-9b1fba1c0aeb","system_id":"levelo_inurba_marseille","lat":43.337424,"lon":5.374709,"is_reserved":false,"is_disabled":false,"rental_uris":{"android":"levelo://app?vid=cbff8e2e-87ad-4d9e-a09d-9b1fba1c0aeb","ios":"levelo://app?vid=cbff8e2e-87ad-4d9e-a09d-9b1fba1c0aeb"},"vehicle_type_id":"0","last_reported":1719504580,"current_range_meters":18400,"station_id":"","pricing_plan_id":"cebpf4jnsgd1na2vs0mg"},{"bike_id":"c52305ff-66a4-4939-bb8b-32e08a4ff045","system_id":"levelo_inurba_marseille","lat":43.312609,"lon":5.401662,"is_reserved":false,"is_disabled":false,"rental_uris":{"android":"levelo://app?vid=c52305ff-66a4-4939-bb8b-32e08a4ff045","ios":"levelo://app?vid=c52305ff-66a4-4939-bb8b-32e08a4ff045"},"vehicle_type_id":"4","last_reported":1719504580,"current_range_meters":6800,"station_id":"ce4bh092rcd13ifvqd30","pricing_plan_id":"cebpf4jnsgd1na2vs0mg"},{"bike_id":"985eda3a-8205-4c72-8b0d-a44593dd15b5","system_id":"levelo_inurba_marseille","lat":43.337444,"lon":5.374693,"is_reserved":false,"is_disabled":false,"rental_uris":{"android":"levelo://app?vid=985eda3a-8205-4c72-8b0d-a44593dd15b5","ios":"levelo://app?vid=985eda3a-8205-4c72-8b0d-a44593dd15b5"},"vehicle_type_id":"0","last_reported":1719504580,"current_range_meters":11600,"station_id":"","pricing_plan_id":"cebpf4jnsgd1na2vs0mg"},{"bike_id":"e18c7ad4-bf47-456e-af37-9839c56570dd","system_id":"levelo_inurba_marseille","lat":43.33747,"lon":5.374647,"is_reserved":false,"is_disabled":false,"rental_uris":{"android":"levelo://app?vid=e18c7ad4-bf47-456e-af37-9839c56570dd","ios":"levelo://app?vid=e18c7ad4-bf47-456e-af37-9839c56570dd"},"vehicle_type_id":"4","last_reported":1719504580,"current_range_meters":30000,"station_id":"","pricing_plan_id":"cebpf4jnsgd1na2vs0mg"},{"bike_id":"45dc1e30-135f-4d36-86d0-d9bd32c0413a","system_id":"levelo_inurba_marseille","lat":43.309371,"lon":5.401449,"is_reserved":false,"is_disabled":false,"rental_uris":{"android":"levelo://app?vid=45dc1e30-135f-4d36-86d0-d9bd32c0413a","ios":"levelo://app?vid=45dc1e30-135f-4d36-86d0-d9bd32c0413a"},"vehicle_type_id":"4","last_reported":1719504580,"current_range_meters":5600,"station_id":"ce4bgvp2rcd13ifvqct0","pricing_plan_id":"cebpf4jnsgd1na2vs0mg"},{"bike_id":"cfc48aa0-5492-4032-a849-2f4f91e0679f","system_id":"levelo_inurba_marseille","lat":43.300769,"lon":5.397706,"is_reserved":false,"is_disabled":false,"rental_uris":{"android":"levelo://app?vid=cfc48aa0-5492-4032-a849-2f4f91e0679f","ios":"levelo://app?vid=cfc48aa0-5492-4032-a849-2f4f91e0679f"},"vehicle_type_id":"4","last_reported":1719504580,"current_range_meters":26800,"station_id":"","pricing_plan_id":"cebpf4jnsgd1na2vs0mg"},{"bike_id":"77e24bbd-542e-4bbc-b4c6-7dff57d180db","system_id":"levelo_inurba_marseille","lat":43.33758,"lon":5.37442,"is_reserved":false,"is_disabled":false,"rental_uris":{"android":"levelo://app?vid=77e24bbd-542e-4bbc-b4c6-7dff57d180db","ios":"levelo://app?vid=77e24bbd-542e-4bbc-b4c6-7dff57d180db"},"vehicle_type_id":"4","last_reported":1719504580,"current_range_meters":26800,"station_id":"","pricing_plan_id":"cebpf4jnsgd1na2vs0mg"},{"bike_id":"9c212851-943a-4b41-a824-e19458f60cad","system_id":"levelo_inurba_marseille","lat":43.3376,"lon":5.37498,"is_reserved":false,"is_disabled":false,"rental_uris":{"android":"levelo://app?vid=9c212851-943a-4b41-a824-e19458f60cad","ios":"levelo://app?vid=9c212851-943a-4b41-a824-e19458f60cad"},"vehicle_type_id":"4","last_reported":1719504580,"current_range_meters":21600,"station_id":"","pricing_plan_id":"cebpf4jnsgd1na2vs0mg"},{"bike_id":"e88d5ce1-a90b-4a3b-b93e-0eb48e700802","system_id":"levelo_inurba_marseille","lat":43.33772,"lon":5.37436,"is_reserved":false,"is_disabled":false,"rental_uris":{"android":"levelo://app?vid=e88d5ce1-a90b-4a3b-b93e-0eb48e700802","ios":"levelo://app?vid=e88d5ce1-a90b-4a3b-b93e-0eb48e700802"},"vehicle_type_id":"4","last_reported":1719504580,"current_range_meters":14800,"station_id":"","pricing_plan_id":"cebpf4jnsgd1na2vs0mg"},{"bike_id":"d1ef4820-c750-4e39-82b5-fc269fbaafca","system_id":"levelo_inurba_marseille","lat":43.306412,"lon":5.401035,"is_reserved":false,"is_disabled":false,"rental_uris":{"android":"levelo://app?vid=d1ef4820-c750-4e39-82b5-fc269fbaafca","ios":"levelo://app?vid=d1ef4820-c750-4e39-82b5-fc269fbaafca"},"vehicle_type_id":"4","last_reported":1719504580,"current_range_meters":11200,"station_id":"ce4bh112rcd13ifvqda0","pricing_plan_id":"cebpf4jnsgd1na2vs0mg"},{"bike_id":"34b9c811-d9ab-4f72-90bd-672e4ac698ae","system_id":"levelo_inurba_marseille","lat":43.28727,"lon":5.36078,"is_reserved":false,"is_disabled":false,"rental_uris":{"android":"levelo://app?vid=34b9c811-d9ab-4f72-90bd-672e4ac698ae","ios":"levelo://app?vid=34b9c811-d9ab-4f72-90bd-672e4ac698ae"},"vehicle_type_id":"4","last_reported":1719504580,"current_range_meters":10800,"station_id":"cki0cbj6b192h4jlfktg","pricing_plan_id":"cebpf4jnsgd1na2vs0mg"},{"bike_id":"4a6f48a2-f80f-4245-bf71-499fd906a842","system_id":"levelo_inurba_marseille","lat":43.28727,"lon":5.36078,"is_reserved":false,"is_disabled":false,"rental_uris":{"android":"levelo://app?vid=4a6f48a2-f80f-4245-bf71-499fd906a842","ios":"levelo://app?vid=4a6f48a2-f80f-4245-bf71-499fd906a842"},"vehicle_type_id":"4","last_reported":1719504580,"current_range_meters":13600,"station_id":"cki0cbj6b192h4jlfktg","pricing_plan_id":"cebpf4jnsgd1na2vs0mg"},{"bike_id":"ca7c214d-36d5-4c14-9c0c-bcf3d44d8fbf","system_id":"levelo_inurba_marseille","lat":43.28718,"lon":5.36074,"is_reserved":false,"is_disabled":false,"rental_uris":{"android":"levelo://app?vid=ca7c214d-36d5-4c14-9c0c-bcf3d44d8fbf","ios":"levelo://app?vid=ca7c214d-36d5-4c14-9c0c-bcf3d44d8fbf"},"vehicle_type_id":"4","last_reported":1719504580,"current_range_meters":2400,"station_id":"cki0cbj6b192h4jlfktg","pricing_plan_id":"cebpf4jnsgd1na2vs0mg"},{"bike_id":"e2864b33-f6ef-4120-88e4-53f9b873e949","system_id":"levelo_inurba_marseille","lat":43.286591,"lon":5.363346,"is_reserved":false,"is_disabled":false,"rental_uris":{"android":"levelo://app?vid=e2864b33-f6ef-4120-88e4-53f9b873e949","ios":"levelo://app?vid=e2864b33-f6ef-4120-88e4-53f9b873e949"},"vehicle_type_id":"4","last_reported":1719504580,"current_range_meters":1600,"station_id":"ce4bhah2rcd13ifvqej0","pricing_plan_id":"cebpf4jnsgd1na2vs0mg"},{"bike_id":"4d281007-52df-42b1-9c88-a1fbe7b84c07","system_id":"levelo_inurba_marseille","lat":43.286591,"lon":5.363346,"is_reserved":false,"is_disabled":false,"rental_uris":{"android":"levelo://app?vid=4d281007-52df-42b1-9c88-a1fbe7b84c07","ios":"levelo://app?vid=4d281007-52df-42b1-9c88-a1fbe7b84c07"},"vehicle_type_id":"4","last_reported":1719504580,"current_range_meters":6000,"station_id":"ce4bhah2rcd13ifvqej0","pricing_plan_id":"cebpf4jnsgd1na2vs0mg"},{"bike_id":"480e2574-9ac2-477d-bc0b-af60cce71f26","system_id":"levelo_inurba_marseille","lat":43.295196,"lon":5.39397,"is_reserved":false,"is_disabled":false,"rental_uris":{"android":"levelo://app?vid=480e2574-9ac2-477d-bc0b-af60cce71f26","ios":"levelo://app?vid=480e2574-9ac2-477d-bc0b-af60cce71f26"},"vehicle_type_id":"4","last_reported":1719504580,"current_range_meters":800,"station_id":"ce4bh292rcd13ifvqdf0","pricing_plan_id":"cebpf4jnsgd1na2vs0mg"},{"bike_id":"62a5144e-8e33-4dc2-83be-2fc3c91002c1","system_id":"levelo_inurba_marseille","lat":43.295194,"lon":5.39397,"is_reserved":false,"is_disabled":false,"rental_uris":{"android":"levelo://app?vid=62a5144e-8e33-4dc2-83be-2fc3c91002c1","ios":"levelo://app?vid=62a5144e-8e33-4dc2-83be-2fc3c91002c1"},"vehicle_type_id":"4","last_reported":1719504580,"current_range_meters":14800,"station_id":"ce4bh292rcd13ifvqdf0","pricing_plan_id":"cebpf4jnsgd1na2vs0mg"},{"bike_id":"ee98323c-fa17-4d51-b72f-bd127ef11093","system_id":"levelo_inurba_marseille","lat":43.28936,"lon":5.38406,"is_reserved":false,"is_disabled":false,"rental_uris":{"android":"levelo://app?vid=ee98323c-fa17-4d51-b72f-bd127ef11093","ios":"levelo://app?vid=ee98323c-fa17-4d51-b72f-bd127ef11093"},"vehicle_type_id":"4","last_reported":1719504580,"current_range_meters":0,"station_id":"ce4bh612rcd13ifvqe6g","pricing_plan_id":"cebpf4jnsgd1na2vs0mg"},{"bike_id":"80e9cf2e-0edb-44f7-a0d6-cd0819c6279e","system_id":"levelo_inurba_marseille","lat":43.290345,"lon":5.38646,"is_reserved":false,"is_disabled":false,"rental_uris":{"android":"levelo://app?vid=80e9cf2e-0edb-44f7-a0d6-cd0819c6279e","ios":"levelo://app?vid=80e9cf2e-0edb-44f7-a0d6-cd0819c6279e"},"vehicle_type_id":"4","last_reported":1719504580,"current_range_meters":18000,"station_id":"ce4bh4p2rcd13ifvqe0g","pricing_plan_id":"cebpf4jnsgd1na2vs0mg"},{"bike_id":"48c58f30-ef7b-477c-9ed0-fe74a1f7400c","system_id":"levelo_inurba_marseille","lat":43.290336,"lon":5.386425,"is_reserved":false,"is_disabled":false,"rental_uris":{"android":"levelo://app?vid=48c58f30-ef7b-477c-9ed0-fe74a1f7400c","ios":"levelo://app?vid=48c58f30-ef7b-477c-9ed0-fe74a1f7400c"},"vehicle_type_id":"4","last_reported":1719504580,"current_range_meters":2000,"station_id":"ce4bh4p2rcd13ifvqe0g","pricing_plan_id":"cebpf4jnsgd1na2vs0mg"},{"bike_id":"4b8ba75e-92f4-4252-be01-c443197d48f6","system_id":"levelo_inurba_marseille","lat":43.290336,"lon":5.386425,"is_reserved":false,"is_disabled":false,"rental_uris":{"android":"levelo://app?vid=4b8ba75e-92f4-4252-be01-c443197d48f6","ios":"levelo://app?vid=4b8ba75e-92f4-4252-be01-c443197d48f6"},"vehicle_type_id":"4","last_reported":1719504580,"current_range_meters":22400,"station_id":"ce4bh4p2rcd13ifvqe0g","pricing_plan_id":"cebpf4jnsgd1na2vs0mg"},{"bike_id":"1990d30f-bd24-4116-8848-e6d66e42415a","system_id":"levelo_inurba_marseille","lat":43.290336,"lon":5.386425,"is_reserved":false,"is_disabled":false,"rental_uris":{"android":"levelo://app?vid=1990d30f-bd24-4116-8848-e6d66e42415a","ios":"levelo://app?vid=1990d30f-bd24-4116-8848-e6d66e42415a"},"vehicle_type_id":"4","last_reported":1719504580,"current_range_meters":6400,"station_id":"ce4bh4p2rcd13ifvqe0g","pricing_plan_id":"cebpf4jnsgd1na2vs0mg"},{"bike_id":"4a94410f-4cd0-41af-95cb-4edeba7e486c","system_id":"levelo_inurba_marseille","lat":43.33924,"lon":5.36367,"is_reserved":false,"is_disabled":false,"rental_uris":{"android":"levelo://app?vid=4a94410f-4cd0-41af-95cb-4edeba7e486c","ios":"levelo://app?vid=4a94410f-4cd0-41af-95cb-4edeba7e486c"},"vehicle_type_id":"4","last_reported":1719504580,"current_range_meters":30800,"station_id":"","pricing_plan_id":"cebpf4jnsgd1na2vs0mg"},{"bike_id":"2971a3f2-93ca-428f-888d-b391cf05bdbf","system_id":"levelo_inurba_marseille","lat":43.289307,"lon":5.38406,"is_reserved":false,"is_disabled":false,"rental_uris":{"android":"levelo://app?vid=2971a3f2-93ca-428f-888d-b391cf05bdbf","ios":"levelo://app?vid=2971a3f2-93ca-428f-888d-b391cf05bdbf"},"vehicle_type_id":"4","last_reported":1719504580,"current_range_meters":20800,"station_id":"ce4bh612rcd13ifvqe6g","pricing_plan_id":"cebpf4jnsgd1na2vs0mg"},{"bike_id":"16631fe1-6e78-4a9c-8b1c-e28838c8b465","system_id":"levelo_inurba_marseille","lat":43.28581,"lon":5.37027,"is_reserved":false,"is_disabled":false,"rental_uris":{"android":"levelo://app?vid=16631fe1-6e78-4a9c-8b1c-e28838c8b465","ios":"levelo://app?vid=16631fe1-6e78-4a9c-8b1c-e28838c8b465"},"vehicle_type_id":"4","last_reported":1719504580,"current_range_meters":17200,"station_id":"ce4bht12rcd13ifvqi60","pricing_plan_id":"cebpf4jnsgd1na2vs0mg"},{"bike_id":"722c67a2-548e-438a-b635-3bce8cd50896","system_id":"levelo_inurba_marseille","lat":43.287185,"lon":5.379373,"is_reserved":false,"is_disabled":false,"rental_uris":{"android":"levelo://app?vid=722c67a2-548e-438a-b635-3bce8cd50896","ios":"levelo://app?vid=722c67a2-548e-438a-b635-3bce8cd50896"},"vehicle_type_id":"4","last_reported":1719504580,"current_range_meters":14400,"station_id":"ce4bh9p2rcd13ifvqec0","pricing_plan_id":"cebpf4jnsgd1na2vs0mg"},{"bike_id":"c21d5083-086a-4942-be5e-304200f73e70","system_id":"levelo_inurba_marseille","lat":43.287185,"lon":5.379373,"is_reserved":false,"is_disabled":false,"rental_uris":{"android":"levelo://app?vid=c21d5083-086a-4942-be5e-304200f73e70","ios":"levelo://app?vid=c21d5083-086a-4942-be5e-304200f73e70"},"vehicle_type_id":"4","last_reported":1719504580,"current_range_meters":400,"station_id":"ce4bh9p2rcd13ifvqec0","pricing_plan_id":"cebpf4jnsgd1na2vs0mg"},{"bike_id":"8f013216-118e-4b2d-a1e3-66b283fb47c6","system_id":"levelo_inurba_marseille","lat":43.291994,"lon":5.392907,"is_reserved":false,"is_disabled":false,"rental_uris":{"android":"levelo://app?vid=8f013216-118e-4b2d-a1e3-66b283fb47c6","ios":"levelo://app?vid=8f013216-118e-4b2d-a1e3-66b283fb47c6"},"vehicle_type_id":"4","last_reported":1719504580,"current_range_meters":24800,"station_id":"ce4bh192rcd13ifvqdd0","pricing_plan_id":"cebpf4jnsgd1na2vs0mg"},{"bike_id":"5f34ea0a-9deb-4806-948a-6807117a9624","system_id":"levelo_inurba_marseille","lat":43.284534,"lon":5.358662,"is_reserved":false,"is_disabled":false,"rental_uris":{"android":"levelo://app?vid=5f34ea0a-9deb-4806-948a-6807117a9624","ios":"levelo://app?vid=5f34ea0a-9deb-4806-948a-6807117a9624"},"vehicle_type_id":"4","last_reported":1719504580,"current_range_meters":23200,"station_id":"ce4bhah2rcd13ifvqei0","pricing_plan_id":"cebpf4jnsgd1na2vs0mg"},{"bike_id":"b8531ccd-51b5-40e2-8da1-d68280d8db1a","system_id":"levelo_inurba_marseille","lat":43.284534,"lon":5.358662,"is_reserved":false,"is_disabled":false,"rental_uris":{"android":"levelo://app?vid=b8531ccd-51b5-40e2-8da1-d68280d8db1a","ios":"levelo://app?vid=b8531ccd-51b5-40e2-8da1-d68280d8db1a"},"vehicle_type_id":"4","last_reported":1719504580,"current_range_meters":2000,"station_id":"ce4bhah2rcd13ifvqei0","pricing_plan_id":"cebpf4jnsgd1na2vs0mg"},{"bike_id":"cd01e40f-3434-46cf-bb1f-9147cedabc52","system_id":"levelo_inurba_marseille","lat":43.284538,"lon":5.358657,"is_reserved":false,"is_disabled":false,"rental_uris":{"android":"levelo://app?vid=cd01e40f-3434-46cf-bb1f-9147cedabc52","ios":"levelo://app?vid=cd01e40f-3434-46cf-bb1f-9147cedabc52"},"vehicle_type_id":"4","last_reported":1719504580,"current_range_meters":11600,"station_id":"ce4bhah2rcd13ifvqei0","pricing_plan_id":"cebpf4jnsgd1na2vs0mg"},{"bike_id":"d99ba4e4-6d6b-4bef-b1eb-9ff01734d2af","system_id":"levelo_inurba_marseille","lat":43.284538,"lon":5.358657,"is_reserved":false,"is_disabled":false,"rental_uris":{"android":"levelo://app?vid=d99ba4e4-6d6b-4bef-b1eb-9ff01734d2af","ios":"levelo://app?vid=d99ba4e4-6d6b-4bef-b1eb-9ff01734d2af"},"vehicle_type_id":"4","last_reported":1719504580,"current_range_meters":400,"station_id":"ce4bhah2rcd13ifvqei0","pricing_plan_id":"cebpf4jnsgd1na2vs0mg"},{"bike_id":"a563819c-0f80-4a78-abb6-2d2e5ac6d96d","system_id":"levelo_inurba_marseille","lat":43.284538,"lon":5.358657,"is_reserved":false,"is_disabled":false,"rental_uris":{"android":"levelo://app?vid=a563819c-0f80-4a78-abb6-2d2e5ac6d96d","ios":"levelo://app?vid=a563819c-0f80-4a78-abb6-2d2e5ac6d96d"},"vehicle_type_id":"4","last_reported":1719504580,"current_range_meters":1600,"station_id":"ce4bhah2rcd13ifvqei0","pricing_plan_id":"cebpf4jnsgd1na2vs0mg"},{"bike_id":"89621909-6228-4eac-bea9-c38ec8a03835","system_id":"levelo_inurba_marseille","lat":43.284538,"lon":5.358657,"is_reserved":false,"is_disabled":false,"rental_uris":{"android":"levelo://app?vid=89621909-6228-4eac-bea9-c38ec8a03835","ios":"levelo://app?vid=89621909-6228-4eac-bea9-c38ec8a03835"},"vehicle_type_id":"4","last_reported":1719504580,"current_range_meters":30400,"station_id":"ce4bhah2rcd13ifvqei0","pricing_plan_id":"cebpf4jnsgd1na2vs0mg"},{"bike_id":"01b58877-e682-4720-bda1-8e8f33270835","system_id":"levelo_inurba_marseille","lat":43.284597,"lon":5.35888,"is_reserved":false,"is_disabled":false,"rental_uris":{"android":"levelo://app?vid=01b58877-e682-4720-bda1-8e8f33270835","ios":"levelo://app?vid=01b58877-e682-4720-bda1-8e8f33270835"},"vehicle_type_id":"4","last_reported":1719504580,"current_range_meters":1600,"station_id":"ce4bhah2rcd13ifvqei0","pricing_plan_id":"cebpf4jnsgd1na2vs0mg"},{"bike_id":"de0693e0-f2e6-41c6-9c69-7520c217989b","system_id":"levelo_inurba_marseille","lat":43.284534,"lon":5.358662,"is_reserved":false,"is_disabled":false,"rental_uris":{"android":"levelo://app?vid=de0693e0-f2e6-41c6-9c69-7520c217989b","ios":"levelo://app?vid=de0693e0-f2e6-41c6-9c69-7520c217989b"},"vehicle_type_id":"4","last_reported":1719504580,"current_range_meters":28800,"station_id":"ce4bhah2rcd13ifvqei0","pricing_plan_id":"cebpf4jnsgd1na2vs0mg"},{"bike_id":"04032f83-8132-4adf-a507-972bb72d1c3e","system_id":"levelo_inurba_marseille","lat":43.284534,"lon":5.358662,"is_reserved":false,"is_disabled":false,"rental_uris":{"android":"levelo://app?vid=04032f83-8132-4adf-a507-972bb72d1c3e","ios":"levelo://app?vid=04032f83-8132-4adf-a507-972bb72d1c3e"},"vehicle_type_id":"4","last_reported":1719504580,"current_range_meters":0,"station_id":"ce4bhah2rcd13ifvqei0","pricing_plan_id":"cebpf4jnsgd1na2vs0mg"},{"bike_id":"3b734cf4-b58e-433f-bbfe-323c75244201","system_id":"levelo_inurba_marseille","lat":43.294314,"lon":5.397498,"is_reserved":false,"is_disabled":false,"rental_uris":{"android":"levelo://app?vid=3b734cf4-b58e-433f-bbfe-323c75244201","ios":"levelo://app?vid=3b734cf4-b58e-433f-bbfe-323c75244201"},"vehicle_type_id":"4","last_reported":1719504580,"current_range_meters":5600,"station_id":"ce4bh3h2rcd13ifvqdo0","pricing_plan_id":"cebpf4jnsgd1na2vs0mg"},{"bike_id":"9a0e96fa-3567-4f0c-bc6d-0995afdbab14","system_id":"levelo_inurba_marseille","lat":43.28628,"lon":5.35094,"is_reserved":false,"is_disabled":false,"rental_uris":{"android":"levelo://app?vid=9a0e96fa-3567-4f0c-bc6d-0995afdbab14","ios":"levelo://app?vid=9a0e96fa-3567-4f0c-bc6d-0995afdbab14"},"vehicle_type_id":"4","last_reported":1719504580,"current_range_meters":17200,"station_id":"ce4bhch2rcd13ifvqeug","pricing_plan_id":"cebpf4jnsgd1na2vs0mg"},{"bike_id":"9393010d-e1d9-4218-bac3-8fd5456de2d0","system_id":"levelo_inurba_marseille","lat":43.294314,"lon":5.397498,"is_reserved":false,"is_disabled":false,"rental_uris":{"android":"levelo://app?vid=9393010d-e1d9-4218-bac3-8fd5456de2d0","ios":"levelo://app?vid=9393010d-e1d9-4218-bac3-8fd5456de2d0"},"vehicle_type_id":"4","last_reported":1719504580,"current_range_meters":13200,"station_id":"ce4bh3h2rcd13ifvqdo0","pricing_plan_id":"cebpf4jnsgd1na2vs0mg"},{"bike_id":"a4a1ed08-9443-4b94-905d-d069ef6cd2f4","system_id":"levelo_inurba_marseille","lat":43.286155,"lon":5.351291,"is_reserved":false,"is_disabled":false,"rental_uris":{"android":"levelo://app?vid=a4a1ed08-9443-4b94-905d-d069ef6cd2f4","ios":"levelo://app?vid=a4a1ed08-9443-4b94-905d-d069ef6cd2f4"},"vehicle_type_id":"4","last_reported":1719504580,"current_range_meters":3200,"station_id":"","pricing_plan_id":"cebpf4jnsgd1na2vs0mg"},{"bike_id":"6d8b008a-eae0-4589-b4a4-1bfab10a871d","system_id":"levelo_inurba_marseille","lat":43.285856,"lon":5.350771,"is_reserved":false,"is_disabled":false,"rental_uris":{"android":"levelo://app?vid=6d8b008a-eae0-4589-b4a4-1bfab10a871d","ios":"levelo://app?vid=6d8b008a-eae0-4589-b4a4-1bfab10a871d"},"vehicle_type_id":"4","last_reported":1719504580,"current_range_meters":4000,"station_id":"ce4bhch2rcd13ifvqeug","pricing_plan_id":"cebpf4jnsgd1na2vs0mg"},{"bike_id":"e8d8e92a-2d4a-49a4-9b5e-2a45d4dfd270","system_id":"levelo_inurba_marseille","lat":43.2862,"lon":5.3511,"is_reserved":false,"is_disabled":false,"rental_uris":{"android":"levelo://app?vid=e8d8e92a-2d4a-49a4-9b5e-2a45d4dfd270","ios":"levelo://app?vid=e8d8e92a-2d4a-49a4-9b5e-2a45d4dfd270"},"vehicle_type_id":"4","last_reported":1719504580,"current_range_meters":20000,"station_id":"ce4bhch2rcd13ifvqeug","pricing_plan_id":"cebpf4jnsgd1na2vs0mg"},{"bike_id":"259525e8-7f85-4392-aaa3-de6901fcfdf4","system_id":"levelo_inurba_marseille","lat":43.285856,"lon":5.350771,"is_reserved":false,"is_disabled":false,"rental_uris":{"android":"levelo://app?vid=259525e8-7f85-4392-aaa3-de6901fcfdf4","ios":"levelo://app?vid=259525e8-7f85-4392-aaa3-de6901fcfdf4"},"vehicle_type_id":"4","last_reported":1719504580,"current_range_meters":31200,"station_id":"ce4bhch2rcd13ifvqeug","pricing_plan_id":"cebpf4jnsgd1na2vs0mg"},{"bike_id":"338f75ca-3518-4089-993c-c0d99cefc61c","system_id":"levelo_inurba_marseille","lat":43.286163,"lon":5.351183,"is_reserved":false,"is_disabled":false,"rental_uris":{"android":"levelo://app?vid=338f75ca-3518-4089-993c-c0d99cefc61c","ios":"levelo://app?vid=338f75ca-3518-4089-993c-c0d99cefc61c"},"vehicle_type_id":"4","last_reported":1719504580,"current_range_meters":31200,"station_id":"ce4bhch2rcd13ifvqeug","pricing_plan_id":"cebpf4jnsgd1na2vs0mg"},{"bike_id":"a8588227-3b61-450b-b25c-cffc1e88698f","system_id":"levelo_inurba_marseille","lat":43.285856,"lon":5.350771,"is_reserved":false,"is_disabled":false,"rental_uris":{"android":"levelo://app?vid=a8588227-3b61-450b-b25c-cffc1e88698f","ios":"levelo://app?vid=a8588227-3b61-450b-b25c-cffc1e88698f"},"vehicle_type_id":"4","last_reported":1719504580,"current_range_meters":26400,"station_id":"ce4bhch2rcd13ifvqeug","pricing_plan_id":"cebpf4jnsgd1na2vs0mg"},{"bike_id":"cc878a66-3a38-4323-a02c-0777e895a1a9","system_id":"levelo_inurba_marseille","lat":43.28618,"lon":5.35107,"is_reserved":false,"is_disabled":false,"rental_uris":{"android":"levelo://app?vid=cc878a66-3a38-4323-a02c-0777e895a1a9","ios":"levelo://app?vid=cc878a66-3a38-4323-a02c-0777e895a1a9"},"vehicle_type_id":"4","last_reported":1719504580,"current_range_meters":24400,"station_id":"ce4bhch2rcd13ifvqeug","pricing_plan_id":"cebpf4jnsgd1na2vs0mg"},{"bike_id":"1c7d30cb-9ae9-48cb-8069-a2271cab277c","system_id":"levelo_inurba_marseille","lat":43.28618,"lon":5.35107,"is_reserved":false,"is_disabled":false,"rental_uris":{"android":"levelo://app?vid=1c7d30cb-9ae9-48cb-8069-a2271cab277c","ios":"levelo://app?vid=1c7d30cb-9ae9-48cb-8069-a2271cab277c"},"vehicle_type_id":"4","last_reported":1719504580,"current_range_meters":18800,"station_id":"ce4bhch2rcd13ifvqeug","pricing_plan_id":"cebpf4jnsgd1na2vs0mg"},{"bike_id":"ff4758d1-7911-4608-9294-c78bd4978d31","system_id":"levelo_inurba_marseille","lat":43.28619,"lon":5.35103,"is_reserved":false,"is_disabled":false,"rental_uris":{"android":"levelo://app?vid=ff4758d1-7911-4608-9294-c78bd4978d31","ios":"levelo://app?vid=ff4758d1-7911-4608-9294-c78bd4978d31"},"vehicle_type_id":"4","last_reported":1719504580,"current_range_meters":22000,"station_id":"ce4bhch2rcd13ifvqeug","pricing_plan_id":"cebpf4jnsgd1na2vs0mg"},{"bike_id":"4e824511-dfc0-4c67-9631-6923828fe619","system_id":"levelo_inurba_marseille","lat":43.285856,"lon":5.350771,"is_reserved":false,"is_disabled":false,"rental_uris":{"android":"levelo://app?vid=4e824511-dfc0-4c67-9631-6923828fe619","ios":"levelo://app?vid=4e824511-dfc0-4c67-9631-6923828fe619"},"vehicle_type_id":"4","last_reported":1719504580,"current_range_meters":31200,"station_id":"ce4bhch2rcd13ifvqeug","pricing_plan_id":"cebpf4jnsgd1na2vs0mg"},{"bike_id":"3a24a34b-e0c4-4cb1-a9f3-72cc408cfa25","system_id":"levelo_inurba_marseille","lat":43.286171,"lon":5.351061,"is_reserved":false,"is_disabled":false,"rental_uris":{"android":"levelo://app?vid=3a24a34b-e0c4-4cb1-a9f3-72cc408cfa25","ios":"levelo://app?vid=3a24a34b-e0c4-4cb1-a9f3-72cc408cfa25"},"vehicle_type_id":"4","last_reported":1719504580,"current_range_meters":31200,"station_id":"ce4bhch2rcd13ifvqeug","pricing_plan_id":"cebpf4jnsgd1na2vs0mg"},{"bike_id":"dda72ca0-63f9-46a2-975a-e5e097e71009","system_id":"levelo_inurba_marseille","lat":43.286171,"lon":5.351051,"is_reserved":false,"is_disabled":false,"rental_uris":{"android":"levelo://app?vid=dda72ca0-63f9-46a2-975a-e5e097e71009","ios":"levelo://app?vid=dda72ca0-63f9-46a2-975a-e5e097e71009"},"vehicle_type_id":"4","last_reported":1719504580,"current_range_meters":28000,"station_id":"ce4bhch2rcd13ifvqeug","pricing_plan_id":"cebpf4jnsgd1na2vs0mg"},{"bike_id":"f048efb4-ebac-4a9f-81f4-1bdd8420ae1b","system_id":"levelo_inurba_marseille","lat":43.285856,"lon":5.350771,"is_reserved":false,"is_disabled":false,"rental_uris":{"android":"levelo://app?vid=f048efb4-ebac-4a9f-81f4-1bdd8420ae1b","ios":"levelo://app?vid=f048efb4-ebac-4a9f-81f4-1bdd8420ae1b"},"vehicle_type_id":"4","last_reported":1719504580,"current_range_meters":14400,"station_id":"ce4bhch2rcd13ifvqeug","pricing_plan_id":"cebpf4jnsgd1na2vs0mg"},{"bike_id":"871fcfe3-c943-4440-9c5a-6ba8b7a8821d","system_id":"levelo_inurba_marseille","lat":43.285856,"lon":5.350771,"is_reserved":false,"is_disabled":false,"rental_uris":{"android":"levelo://app?vid=871fcfe3-c943-4440-9c5a-6ba8b7a8821d","ios":"levelo://app?vid=871fcfe3-c943-4440-9c5a-6ba8b7a8821d"},"vehicle_type_id":"4","last_reported":1719504580,"current_range_meters":31200,"station_id":"ce4bhch2rcd13ifvqeug","pricing_plan_id":"cebpf4jnsgd1na2vs0mg"},{"bike_id":"3437be90-3143-4de6-8f3f-4c28d20cfaee","system_id":"levelo_inurba_marseille","lat":43.285856,"lon":5.350771,"is_reserved":false,"is_disabled":false,"rental_uris":{"android":"levelo://app?vid=3437be90-3143-4de6-8f3f-4c28d20cfaee","ios":"levelo://app?vid=3437be90-3143-4de6-8f3f-4c28d20cfaee"},"vehicle_type_id":"4","last_reported":1719504580,"current_range_meters":18800,"station_id":"ce4bhch2rcd13ifvqeug","pricing_plan_id":"cebpf4jnsgd1na2vs0mg"},{"bike_id":"fdb98c11-f94d-445e-99d1-a01e82c779d7","system_id":"levelo_inurba_marseille","lat":43.285856,"lon":5.350771,"is_reserved":false,"is_disabled":false,"rental_uris":{"android":"levelo://app?vid=fdb98c11-f94d-445e-99d1-a01e82c779d7","ios":"levelo://app?vid=fdb98c11-f94d-445e-99d1-a01e82c779d7"},"vehicle_type_id":"4","last_reported":1719504580,"current_range_meters":25200,"station_id":"ce4bhch2rcd13ifvqeug","pricing_plan_id":"cebpf4jnsgd1na2vs0mg"},{"bike_id":"ee577d28-7d13-45c2-b484-dd8e4002f57f","system_id":"levelo_inurba_marseille","lat":43.285848,"lon":5.350787,"is_reserved":false,"is_disabled":false,"rental_uris":{"android":"levelo://app?vid=ee577d28-7d13-45c2-b484-dd8e4002f57f","ios":"levelo://app?vid=ee577d28-7d13-45c2-b484-dd8e4002f57f"},"vehicle_type_id":"4","last_reported":1719504580,"current_range_meters":29600,"station_id":"ce4bhch2rcd13ifvqeug","pricing_plan_id":"cebpf4jnsgd1na2vs0mg"},{"bike_id":"d4c34de4-ea22-49fb-b700-33067fc09ffd","system_id":"levelo_inurba_marseille","lat":43.28615,"lon":5.35105,"is_reserved":false,"is_disabled":false,"rental_uris":{"android":"levelo://app?vid=d4c34de4-ea22-49fb-b700-33067fc09ffd","ios":"levelo://app?vid=d4c34de4-ea22-49fb-b700-33067fc09ffd"},"vehicle_type_id":"4","last_reported":1719504580,"current_range_meters":8800,"station_id":"ce4bhch2rcd13ifvqeug","pricing_plan_id":"cebpf4jnsgd1na2vs0mg"},{"bike_id":"243eb848-7b79-4c3e-8b50-1f2eeb741b62","system_id":"levelo_inurba_marseille","lat":43.28615,"lon":5.35104,"is_reserved":false,"is_disabled":false,"rental_uris":{"android":"levelo://app?vid=243eb848-7b79-4c3e-8b50-1f2eeb741b62","ios":"levelo://app?vid=243eb848-7b79-4c3e-8b50-1f2eeb741b62"},"vehicle_type_id":"4","last_reported":1719504580,"current_range_meters":30800,"station_id":"ce4bhch2rcd13ifvqeug","pricing_plan_id":"cebpf4jnsgd1na2vs0mg"},{"bike_id":"ad7a2ae8-547a-4791-8bf7-a882eeb50a71","system_id":"levelo_inurba_marseille","lat":43.28612,"lon":5.35111,"is_reserved":false,"is_disabled":false,"rental_uris":{"android":"levelo://app?vid=ad7a2ae8-547a-4791-8bf7-a882eeb50a71","ios":"levelo://app?vid=ad7a2ae8-547a-4791-8bf7-a882eeb50a71"},"vehicle_type_id":"4","last_reported":1719504580,"current_range_meters":27600,"station_id":"ce4bhch2rcd13ifvqeug","pricing_plan_id":"cebpf4jnsgd1na2vs0mg"},{"bike_id":"604ebc9d-ec24-4a93-be94-0ed856433080","system_id":"levelo_inurba_marseille","lat":43.285856,"lon":5.350771,"is_reserved":false,"is_disabled":false,"rental_uris":{"android":"levelo://app?vid=604ebc9d-ec24-4a93-be94-0ed856433080","ios":"levelo://app?vid=604ebc9d-ec24-4a93-be94-0ed856433080"},"vehicle_type_id":"4","last_reported":1719504580,"current_range_meters":14800,"station_id":"ce4bhch2rcd13ifvqeug","pricing_plan_id":"cebpf4jnsgd1na2vs0mg"},{"bike_id":"61e4fd55-4699-439d-85eb-d83f4382d875","system_id":"levelo_inurba_marseille","lat":43.285848,"lon":5.350787,"is_reserved":false,"is_disabled":false,"rental_uris":{"android":"levelo://app?vid=61e4fd55-4699-439d-85eb-d83f4382d875","ios":"levelo://app?vid=61e4fd55-4699-439d-85eb-d83f4382d875"},"vehicle_type_id":"4","last_reported":1719504580,"current_range_meters":31200,"station_id":"ce4bhch2rcd13ifvqeug","pricing_plan_id":"cebpf4jnsgd1na2vs0mg"},{"bike_id":"f30fb9c3-b4d6-47f5-85bb-d2b9bc57635d","system_id":"levelo_inurba_marseille","lat":43.285848,"lon":5.350787,"is_reserved":false,"is_disabled":false,"rental_uris":{"android":"levelo://app?vid=f30fb9c3-b4d6-47f5-85bb-d2b9bc57635d","ios":"levelo://app?vid=f30fb9c3-b4d6-47f5-85bb-d2b9bc57635d"},