{"last_updated":1737724481,"ttl":60,"version":"2.2","data":{"bikes":[{"bike_id":"71025e83-daff-40eb-8f70-b8e1fc9300fb","system_id":"levelo_inurba_marseille","lat":43.22935,"lon":5.35383,"is_reserved":false,"is_disabled":false,"rental_uris":{"android":"levelo://app?vid=71025e83-daff-40eb-8f70-b8e1fc9300fb","ios":"levelo://app?vid=71025e83-daff-40eb-8f70-b8e1fc9300fb"},"vehicle_type_id":"4","last_reported":1737724481,"current_range_meters":39200,"station_id":"cpo3532slgdg3j2ikp40","pricing_plan_id":"cebpf4jnsgd1na2vs0mg"},{"bike_id":"ebbe391d-f1e8-4ff2-b709-e772b2444b74","system_id":"levelo_inurba_marseille","lat":43.30558,"lon":5.36522,"is_reserved":false,"is_disabled":false,"rental_uris":{"android":"levelo://app?vid=ebbe391d-f1e8-4ff2-b709-e772b2444b74","ios":"levelo://app?vid=ebbe391d-f1e8-4ff2-b709-e772b2444b74"},"vehicle_type_id":"4","last_reported":1737724481,"current_range_meters":28400,"station_id":"ce4bgs12rcd13ifvqcag","pricing_plan_id":"cebpf4jnsgd1na2vs0mg"},{"bike_id":"f0484877-b138-4617-a95b-28fe454637b4","system_id":"levelo_inurba_marseille","lat":43.29602,"lon":5.3773,"is_reserved":false,"is_disabled":false,"rental_uris":{"android":"levelo://app?vid=f0484877-b138-4617-a95b-28fe454637b4","ios":"levelo://app?vid=f0484877-b138-4617-a95b-28fe454637b4"},"vehicle_type_id":"4","last_reported":1737724481,"current_range_meters":25600,"station_id":"ce4bgi92rcd13ifvqb90","pricing_plan_id":"cebpf4jnsgd1na2vs0mg"},{"bike_id":"9c7eaa63-fad9-42a1-ac6c-648c1755a7f5","system_id":"levelo_inurba_marseille","lat":43.28518,"lon":5.39159,"is_reserved":false,"is_disabled":false,"rental_uris":{"android":"levelo://app?vid=9c7eaa63-fad9-42a1-ac6c-648c1755a7f5","ios":"levelo://app?vid=9c7eaa63-fad9-42a1-ac6c-648c1755a7f5"},"vehicle_type_id":"4","last_reported":1737724481,"current_range_meters":30800,"station_id":"","pricing_plan_id":"cebpf4jnsgd1na2vs0mg"},{"bike_id":"07edd97a-fe78-43dc-93ea-f42d397b65fc","system_id":"levelo_inurba_marseille","lat":43.30249,"lon":5.40083,"is_reserved":false,"is_disabled":false,"rental_uris":{"android":"levelo://app?vid=07edd97a-fe78-43dc-93ea-f42d397b65fc","ios":"levelo://app?vid=07edd97a-fe78-43dc-93ea-f42d397b65fc"},"vehicle_type_id":"4","last_reported":1737724481,"current_range_meters":16400,"station_id":"ce4bgvh2rcd13ifvqcs0","pricing_plan_id":"cebpf4jnsgd1na2vs0mg"},{"bike_id":"abae30d7-015c-45d0-baf7-7bebb0c952c3","system_id":"levelo_inurba_marseille","lat":43.2293,"lon":5.3538,"is_reserved":false,"is_disabled":false,"rental_uris":{"android":"levelo://app?vid=abae30d7-015c-45d0-baf7-7bebb0c952c3","ios":"levelo://app?vid=abae30d7-015c-45d0-baf7-7bebb0c952c3"},"vehicle_type_id":"4","last_reported":1737724481,"current_range_meters":39200,"station_id":"cpo3532slgdg3j2ikp40","pricing_plan_id":"cebpf4jnsgd1na2vs0mg"},{"bike_id":"5ca1b0d9-e907-4880-8a5c-e9faab2c55a0","system_id":"levelo_inurba_marseille","lat":43.305049,"lon":5.36548,"is_reserved":false,"is_disabled":false,"rental_uris":{"android":"levelo://app?vid=5ca1b0d9-e907-4880-8a5c-e9faab2c55a0","ios":"levelo://app?vid=5ca1b0d9-e907-4880-8a5c-e9faab2c55a0"},"vehicle_type_id":"4","last_reported":1737724481,"current_range_meters":9200,"station_id":"","pricing_plan_id":"cebpf4jnsgd1na2vs0mg"},{"bike_id":"ee83f019-e0ae-4a08-ae59-988db7ade397","system_id":"levelo_inurba_marseille","lat":43.29035,"lon":5.3997,"is_reserved":false,"is_disabled":false,"rental_uris":{"android":"levelo://app?vid=ee83f019-e0ae-4a08-ae59-988db7ade397","ios":"levelo://app?vid=ee83f019-e0ae-4a08-ae59-988db7ade397"},"vehicle_type_id":"4","last_reported":1737724481,"current_range_meters":21600,"station_id":"ce4bh392rcd13ifvqdm0","pricing_plan_id":"cebpf4jnsgd1na2vs0mg"},{"bike_id":"0793f05d-0029-4d54-a0fe-9c0436426db5","system_id":"levelo_inurba_marseille","lat":43.231938,"lon":5.35556,"is_reserved":false,"is_disabled":false,"rental_uris":{"android":"levelo://app?vid=0793f05d-0029-4d54-a0fe-9c0436426db5","ios":"levelo://app?vid=0793f05d-0029-4d54-a0fe-9c0436426db5"},"vehicle_type_id":"4","last_reported":1737724481,"current_range_meters":19600,"station_id":"ce4bhu92rcd13ifvqi70","pricing_plan_id":"cebpf4jnsgd1na2vs0mg"},{"bike_id":"25190956-9f09-46c4-b87f-67f052dbe175","system_id":"levelo_inurba_marseille","lat":43.30127,"lon":5.39843,"is_reserved":false,"is_disabled":false,"rental_uris":{"android":"levelo://app?vid=25190956-9f09-46c4-b87f-67f052dbe175","ios":"levelo://app?vid=25190956-9f09-46c4-b87f-67f052dbe175"},"vehicle_type_id":"4","last_reported":1737724481,"current_range_meters":21600,"station_id":"ce4bh0h2rcd13ifvqd40","pricing_plan_id":"cebpf4jnsgd1na2vs0mg"},{"bike_id":"b3652e62-0380-4387-9478-0d519e935d2f","system_id":"levelo_inurba_marseille","lat":43.31111,"lon":5.37772,"is_reserved":false,"is_disabled":false,"rental_uris":{"android":"levelo://app?vid=b3652e62-0380-4387-9478-0d519e935d2f","ios":"levelo://app?vid=b3652e62-0380-4387-9478-0d519e935d2f"},"vehicle_type_id":"4","last_reported":1737724481,"current_range_meters":20800,"station_id":"ce4bgt92rcd13ifvqcg0","pricing_plan_id":"cebpf4jnsgd1na2vs0mg"},{"bike_id":"eb97554e-9784-452b-b85e-e8331efd4fe5","system_id":"levelo_inurba_marseille","lat":43.31365,"lon":5.36725,"is_reserved":false,"is_disabled":false,"rental_uris":{"android":"levelo://app?vid=eb97554e-9784-452b-b85e-e8331efd4fe5","ios":"levelo://app?vid=eb97554e-9784-452b-b85e-e8331efd4fe5"},"vehicle_type_id":"4","last_reported":1737724481,"current_range_meters":38800,"station_id":"ce4bgr92rcd13ifvqc6g","pricing_plan_id":"cebpf4jnsgd1na2vs0mg"},{"bike_id":"cb0ff26d-12db-4f4f-8a1e-edf0f3766303","system_id":"levelo_inurba_marseille","lat":43.31218,"lon":5.36861,"is_reserved":false,"is_disabled":false,"rental_uris":{"android":"levelo://app?vid=cb0ff26d-12db-4f4f-8a1e-edf0f3766303","ios":"levelo://app?vid=cb0ff26d-12db-4f4f-8a1e-edf0f3766303"},"vehicle_type_id":"4","last_reported":1737724481,"current_range_meters":8800,"station_id":"ce4bgl92rcd13ifvqbq0","pricing_plan_id":"cebpf4jnsgd1na2vs0mg"},{"bike_id":"6d80f215-ddf3-4448-abd9-11f3b32ea7fe","system_id":"levelo_inurba_marseille","lat":43.31086,"lon":5.42435,"is_reserved":false,"is_disabled":false,"rental_uris":{"android":"levelo://app?vid=6d80f215-ddf3-4448-abd9-11f3b32ea7fe","ios":"levelo://app?vid=6d80f215-ddf3-4448-abd9-11f3b32ea7fe"},"vehicle_type_id":"4","last_reported":1737724481,"current_range_meters":9200,"station_id":"ce4bhp92rcd13ifvqhag","pricing_plan_id":"cebpf4jnsgd1na2vs0mg"},{"bike_id":"025728b7-b6ec-4eb1-921e-b5a83c942a9b","system_id":"levelo_inurba_marseille","lat":43.30158,"lon":5.38082,"is_reserved":false,"is_disabled":false,"rental_uris":{"android":"levelo://app?vid=025728b7-b6ec-4eb1-921e-b5a83c942a9b","ios":"levelo://app?vid=025728b7-b6ec-4eb1-921e-b5a83c942a9b"},"vehicle_type_id":"4","last_reported":1737724481,"current_range_meters":34800,"station_id":"ce4bgjp2rcd13ifvqbh0","pricing_plan_id":"cebpf4jnsgd1na2vs0mg"},{"bike_id":"22ea9929-e21c-42f0-b68b-01dd0b91aa91","system_id":"levelo_inurba_marseille","lat":43.28914,"lon":5.36406,"is_reserved":false,"is_disabled":false,"rental_uris":{"android":"levelo://app?vid=22ea9929-e21c-42f0-b68b-01dd0b91aa91","ios":"levelo://app?vid=22ea9929-e21c-42f0-b68b-01dd0b91aa91"},"vehicle_type_id":"4","last_reported":1737724481,"current_range_meters":38800,"station_id":"ce4bhc92rcd13ifvqetg","pricing_plan_id":"cebpf4jnsgd1na2vs0mg"},{"bike_id":"541586f9-3a23-49a0-bf40-8afca97ea1e1","system_id":"levelo_inurba_marseille","lat":43.30933,"lon":5.4014,"is_reserved":false,"is_disabled":false,"rental_uris":{"android":"levelo://app?vid=541586f9-3a23-49a0-bf40-8afca97ea1e1","ios":"levelo://app?vid=541586f9-3a23-49a0-bf40-8afca97ea1e1"},"vehicle_type_id":"4","last_reported":1737724481,"current_range_meters":24800,"station_id":"ce4bgvp2rcd13ifvqct0","pricing_plan_id":"cebpf4jnsgd1na2vs0mg"},{"bike_id":"367c1a4d-e3ef-4cc4-8a53-e7c1e322176a","system_id":"levelo_inurba_marseille","lat":43.30154,"lon":5.38081,"is_reserved":false,"is_disabled":false,"rental_uris":{"android":"levelo://app?vid=367c1a4d-e3ef-4cc4-8a53-e7c1e322176a","ios":"levelo://app?vid=367c1a4d-e3ef-4cc4-8a53-e7c1e322176a"},"vehicle_type_id":"4","last_reported":1737724481,"current_range_meters":39200,"station_id":"ce4bgjp2rcd13ifvqbh0","pricing_plan_id":"cebpf4jnsgd1na2vs0mg"},{"bike_id":"637cf45d-cd8a-4700-9a5f-fca22f97ab8f","system_id":"levelo_inurba_marseille","lat":43.27565,"lon":5.38415,"is_reserved":false,"is_disabled":false,"rental_uris":{"android":"levelo://app?vid=637cf45d-cd8a-4700-9a5f-fca22f97ab8f","ios":"levelo://app?vid=637cf45d-cd8a-4700-9a5f-fca22f97ab8f"},"vehicle_type_id":"4","last_reported":1737724481,"current_range_meters":38400,"station_id":"ce4bhh92rcd13ifvqfi0","pricing_plan_id":"cebpf4jnsgd1na2vs0mg"},{"bike_id":"4e4e2c5b-cc5c-4c85-b6db-73249c8c5767","system_id":"levelo_inurba_marseille","lat":43.27985,"lon":5.40021,"is_reserved":false,"is_disabled":false,"rental_uris":{"android":"levelo://app?vid=4e4e2c5b-cc5c-4c85-b6db-73249c8c5767","ios":"levelo://app?vid=4e4e2c5b-cc5c-4c85-b6db-73249c8c5767"},"vehicle_type_id":"4","last_reported":1737724481,"current_range_meters":32800,"station_id":"ce4bho92rcd13ifvqh4g","pricing_plan_id":"cebpf4jnsgd1na2vs0mg"},{"bike_id":"3169bea1-794e-4a56-bb06-3b17a235f305","system_id":"levelo_inurba_marseille","lat":43.25722,"lon":5.41117,"is_reserved":false,"is_disabled":false,"rental_uris":{"android":"levelo://app?vid=3169bea1-794e-4a56-bb06-3b17a235f305","ios":"levelo://app?vid=3169bea1-794e-4a56-bb06-3b17a235f305"},"vehicle_type_id":"4","last_reported":1737724481,"current_range_meters":38800,"station_id":"ce4bhkp2rcd13ifvqgd0","pricing_plan_id":"cebpf4jnsgd1na2vs0mg"},{"bike_id":"727f7a6d-5d4f-45c1-a412-670094a6cbf6","system_id":"levelo_inurba_marseille","lat":43.32366,"lon":5.38889,"is_reserved":false,"is_disabled":false,"rental_uris":{"android":"levelo://app?vid=727f7a6d-5d4f-45c1-a412-670094a6cbf6","ios":"levelo://app?vid=727f7a6d-5d4f-45c1-a412-670094a6cbf6"},"vehicle_type_id":"4","last_reported":1737724481,"current_range_meters":20800,"station_id":"ce4bhqp2rcd13ifvqhog","pricing_plan_id":"cebpf4jnsgd1na2vs0mg"},{"bike_id":"412ec7aa-37a9-4550-8459-498cd166b735","system_id":"levelo_inurba_marseille","lat":43.27376,"lon":5.36257,"is_reserved":false,"is_disabled":false,"rental_uris":{"android":"levelo://app?vid=412ec7aa-37a9-4550-8459-498cd166b735","ios":"levelo://app?vid=412ec7aa-37a9-4550-8459-498cd166b735"},"vehicle_type_id":"4","last_reported":1737724481,"current_range_meters":16800,"station_id":"ce4bhbh2rcd13ifvqeo0","pricing_plan_id":"cebpf4jnsgd1na2vs0mg"},{"bike_id":"056ed343-b9c5-4ee1-9000-c71459c47098","system_id":"levelo_inurba_marseille","lat":43.31701,"lon":5.40459,"is_reserved":false,"is_disabled":true,"rental_uris":{"android":"levelo://app?vid=056ed343-b9c5-4ee1-9000-c71459c47098","ios":"levelo://app?vid=056ed343-b9c5-4ee1-9000-c71459c47098"},"vehicle_type_id":"4","last_reported":1737724481,"current_range_meters":32400,"station_id":"ce4bh012rcd13ifvqd00","pricing_plan_id":"cebpf4jnsgd1na2vs0mg"},{"bike_id":"0f91c880-c9fc-4ac9-8972-986b782da834","system_id":"levelo_inurba_marseille","lat":43.29066,"lon":5.3718,"is_reserved":false,"is_disabled":false,"rental_uris":{"android":"levelo://app?vid=0f91c880-c9fc-4ac9-8972-986b782da834","ios":"levelo://app?vid=0f91c880-c9fc-4ac9-8972-986b782da834"},"vehicle_type_id":"4","last_reported":1737724481,"current_range_meters":35200,"station_id":"ce4bh5p2rcd13ifvqe4g","pricing_plan_id":"cebpf4jnsgd1na2vs0mg"},{"bike_id":"beea651e-b643-4267-b8f7-2eb06eca9c24","system_id":"levelo_inurba_marseille","lat":43.30785,"lon":5.3764,"is_reserved":false,"is_disabled":false,"rental_uris":{"android":"levelo://app?vid=beea651e-b643-4267-b8f7-2eb06eca9c24","ios":"levelo://app?vid=beea651e-b643-4267-b8f7-2eb06eca9c24"},"vehicle_type_id":"4","last_reported":1737724481,"current_range_meters":38400,"station_id":"ce4bgv92rcd13ifvqcq0","pricing_plan_id":"cebpf4jnsgd1na2vs0mg"},{"bike_id":"aca73e7e-fdc6-4173-80c4-6af15e95aff7","system_id":"levelo_inurba_marseille","lat":43.30145,"lon":5.38075,"is_reserved":false,"is_disabled":false,"rental_uris":{"android":"levelo://app?vid=aca73e7e-fdc6-4173-80c4-6af15e95aff7","ios":"levelo://app?vid=aca73e7e-fdc6-4173-80c4-6af15e95aff7"},"vehicle_type_id":"4","last_reported":1737724481,"current_range_meters":20800,"station_id":"ce4bgjp2rcd13ifvqbh0","pricing_plan_id":"cebpf4jnsgd1na2vs0mg"},{"bike_id":"90d227fb-a85f-43b0-b6d9-c7fa709e1e5e","system_id":"levelo_inurba_marseille","lat":43.30459,"lon":5.37909,"is_reserved":false,"is_disabled":false,"rental_uris":{"android":"levelo://app?vid=90d227fb-a85f-43b0-b6d9-c7fa709e1e5e","ios":"levelo://app?vid=90d227fb-a85f-43b0-b6d9-c7fa709e1e5e"},"vehicle_type_id":"4","last_reported":1737724481,"current_range_meters":22800,"station_id":"ce4bgup2rcd13ifvqcn0","pricing_plan_id":"cebpf4jnsgd1na2vs0mg"},{"bike_id":"21c89861-37f6-4c39-8ec6-3d880c37e92d","system_id":"levelo_inurba_marseille","lat":43.30461,"lon":5.37922,"is_reserved":false,"is_disabled":false,"rental_uris":{"android":"levelo://app?vid=21c89861-37f6-4c39-8ec6-3d880c37e92d","ios":"levelo://app?vid=21c89861-37f6-4c39-8ec6-3d880c37e92d"},"vehicle_type_id":"4","last_reported":1737724481,"current_range_meters":24800,"station_id":"ce4bgup2rcd13ifvqcn0","pricing_plan_id":"cebpf4jnsgd1na2vs0mg"},{"bike_id":"e59e2bad-ab9b-4050-bf77-faf39f2485d4","system_id":"levelo_inurba_marseille","lat":43.26795,"lon":5.39413,"is_reserved":false,"is_disabled":false,"rental_uris":{"android":"levelo://app?vid=e59e2bad-ab9b-4050-bf77-faf39f2485d4","ios":"levelo://app?vid=e59e2bad-ab9b-4050-bf77-faf39f2485d4"},"vehicle_type_id":"4","last_reported":1737724481,"current_range_meters":29600,"station_id":"ce4bhh12rcd13ifvqfg0","pricing_plan_id":"cebpf4jnsgd1na2vs0mg"},{"bike_id":"6ef9b078-758c-484c-88ff-72c3a69da2c0","system_id":"levelo_inurba_marseille","lat":43.336,"lon":5.41027,"is_reserved":false,"is_disabled":false,"rental_uris":{"android":"levelo://app?vid=6ef9b078-758c-484c-88ff-72c3a69da2c0","ios":"levelo://app?vid=6ef9b078-758c-484c-88ff-72c3a69da2c0"},"vehicle_type_id":"4","last_reported":1737724481,"current_range_meters":38800,"station_id":"ce4bhqh2rcd13ifvqhmg","pricing_plan_id":"cebpf4jnsgd1na2vs0mg"},{"bike_id":"79b62dc5-0950-4747-84d8-5afed7dfcd45","system_id":"levelo_inurba_marseille","lat":43.30551,"lon":5.36559,"is_reserved":false,"is_disabled":false,"rental_uris":{"android":"levelo://app?vid=79b62dc5-0950-4747-84d8-5afed7dfcd45","ios":"levelo://app?vid=79b62dc5-0950-4747-84d8-5afed7dfcd45"},"vehicle_type_id":"4","last_reported":1737724481,"current_range_meters":27600,"station_id":"ce4bgs12rcd13ifvqcag","pricing_plan_id":"cebpf4jnsgd1na2vs0mg"},{"bike_id":"7dafa7e7-757d-4898-abdf-cf5305599df2","system_id":"levelo_inurba_marseille","lat":43.29885,"lon":5.37489,"is_reserved":false,"is_disabled":false,"rental_uris":{"android":"levelo://app?vid=7dafa7e7-757d-4898-abdf-cf5305599df2","ios":"levelo://app?vid=7dafa7e7-757d-4898-abdf-cf5305599df2"},"vehicle_type_id":"4","last_reported":1737724481,"current_range_meters":8400,"station_id":"ce4bgjh2rcd13ifvqbg0","pricing_plan_id":"cebpf4jnsgd1na2vs0mg"},{"bike_id":"db66f339-4089-40f1-a697-ffe39010de14","system_id":"levelo_inurba_marseille","lat":43.30443,"lon":5.39743,"is_reserved":false,"is_disabled":false,"rental_uris":{"android":"levelo://app?vid=db66f339-4089-40f1-a697-ffe39010de14","ios":"levelo://app?vid=db66f339-4089-40f1-a697-ffe39010de14"},"vehicle_type_id":"4","last_reported":1737724481,"current_range_meters":37600,"station_id":"ce4bh092rcd13ifvqd20","pricing_plan_id":"cebpf4jnsgd1na2vs0mg"},{"bike_id":"5e306136-1d0e-455e-a12c-772753c93301","system_id":"levelo_inurba_marseille","lat":43.29783,"lon":5.38101,"is_reserved":false,"is_disabled":false,"rental_uris":{"android":"levelo://app?vid=5e306136-1d0e-455e-a12c-772753c93301","ios":"levelo://app?vid=5e306136-1d0e-455e-a12c-772753c93301"},"vehicle_type_id":"4","last_reported":1737724481,"current_range_meters":9200,"station_id":"ce4bgip2rcd13ifvqbb0","pricing_plan_id":"cebpf4jnsgd1na2vs0mg"},{"bike_id":"4976480c-cdc2-4ba7-911a-6ff0383cca59","system_id":"levelo_inurba_marseille","lat":43.28939,"lon":5.39629,"is_reserved":false,"is_disabled":false,"rental_uris":{"android":"levelo://app?vid=4976480c-cdc2-4ba7-911a-6ff0383cca59","ios":"levelo://app?vid=4976480c-cdc2-4ba7-911a-6ff0383cca59"},"vehicle_type_id":"4","last_reported":1737724481,"current_range_meters":27600,"station_id":"ce4bh3h2rcd13ifvqdn0","pricing_plan_id":"cebpf4jnsgd1na2vs0mg"},{"bike_id":"fd10f70a-e795-4949-a41a-3a567f5fc130","system_id":"levelo_inurba_marseille","lat":43.29534,"lon":5.38543,"is_reserved":false,"is_disabled":false,"rental_uris":{"android":"levelo://app?vid=fd10f70a-e795-4949-a41a-3a567f5fc130","ios":"levelo://app?vid=fd10f70a-e795-4949-a41a-3a567f5fc130"},"vehicle_type_id":"4","last_reported":1737724481,"current_range_meters":32800,"station_id":"ce4bgih2rcd13ifvqba0","pricing_plan_id":"cebpf4jnsgd1na2vs0mg"},{"bike_id":"ddf81976-3270-4657-840b-e6c521fd7634","system_id":"levelo_inurba_marseille","lat":43.28467,"lon":5.38428,"is_reserved":false,"is_disabled":false,"rental_uris":{"android":"levelo://app?vid=ddf81976-3270-4657-840b-e6c521fd7634","ios":"levelo://app?vid=ddf81976-3270-4657-840b-e6c521fd7634"},"vehicle_type_id":"4","last_reported":1737724481,"current_range_meters":10800,"station_id":"ce4bh512rcd13ifvqe3g","pricing_plan_id":"cebpf4jnsgd1na2vs0mg"},{"bike_id":"b214cadd-e18d-499d-bd11-205c2e43cccd","system_id":"levelo_inurba_marseille","lat":43.32108,"lon":5.36779,"is_reserved":false,"is_disabled":false,"rental_uris":{"android":"levelo://app?vid=b214cadd-e18d-499d-bd11-205c2e43cccd","ios":"levelo://app?vid=b214cadd-e18d-499d-bd11-205c2e43cccd"},"vehicle_type_id":"4","last_reported":1737724481,"current_range_meters":30800,"station_id":"ce4bhrh2rcd13ifvqhug","pricing_plan_id":"cebpf4jnsgd1na2vs0mg"},{"bike_id":"2b5f67dd-f0e0-4724-bc4a-a13b0862ca51","system_id":"levelo_inurba_marseille","lat":43.29925,"lon":5.38105,"is_reserved":false,"is_disabled":false,"rental_uris":{"android":"levelo://app?vid=2b5f67dd-f0e0-4724-bc4a-a13b0862ca51","ios":"levelo://app?vid=2b5f67dd-f0e0-4724-bc4a-a13b0862ca51"},"vehicle_type_id":"4","last_reported":1737724481,"current_range_meters":38800,"station_id":"ce4bgj12rcd13ifvqbc0","pricing_plan_id":"cebpf4jnsgd1na2vs0mg"},{"bike_id":"e179efed-9719-4409-8d7a-7ac74947d312","system_id":"levelo_inurba_marseille","lat":43.24075,"lon":5.37734,"is_reserved":false,"is_disabled":false,"rental_uris":{"android":"levelo://app?vid=e179efed-9719-4409-8d7a-7ac74947d312","ios":"levelo://app?vid=e179efed-9719-4409-8d7a-7ac74947d312"},"vehicle_type_id":"4","last_reported":1737724481,"current_range_meters":15200,"station_id":"ce4bhnp2rcd13ifvqgvg","pricing_plan_id":"cebpf4jnsgd1na2vs0mg"},{"bike_id":"61911627-aff3-49b3-8d7a-ea9f5e77eca7","system_id":"levelo_inurba_marseille","lat":43.2893,"lon":5.36641,"is_reserved":false,"is_disabled":false,"rental_uris":{"android":"levelo://app?vid=61911627-aff3-49b3-8d7a-ea9f5e77eca7","ios":"levelo://app?vid=61911627-aff3-49b3-8d7a-ea9f5e77eca7"},"vehicle_type_id":"4","last_reported":1737724481,"current_range_meters":25600,"station_id":"ce4bhap2rcd13ifvqek0","pricing_plan_id":"cebpf4jnsgd1na2vs0mg"},{"bike_id":"c491b9d7-9629-4215-bdb7-4fec9c846c78","system_id":"levelo_inurba_marseille","lat":43.3176,"lon":5.39014,"is_reserved":false,"is_disabled":false,"rental_uris":{"android":"levelo://app?vid=c491b9d7-9629-4215-bdb7-4fec9c846c78","ios":"levelo://app?vid=c491b9d7-9629-4215-bdb7-4fec9c846c78"},"vehicle_type_id":"4","last_reported":1737724481,"current_range_meters":35600,"station_id":"ce4bhqp2rcd13ifvqhng","pricing_plan_id":"cebpf4jnsgd1na2vs0mg"},{"bike_id":"7e47f404-af0f-45fe-82e0-fbcc8350a698","system_id":"levelo_inurba_marseille","lat":43.23066,"lon":5.35496,"is_reserved":false,"is_disabled":false,"rental_uris":{"android":"levelo://app?vid=7e47f404-af0f-45fe-82e0-fbcc8350a698","ios":"levelo://app?vid=7e47f404-af0f-45fe-82e0-fbcc8350a698"},"vehicle_type_id":"4","last_reported":1737724481,"current_range_meters":12400,"station_id":"cpo3342slgdg3j2ifvpg","pricing_plan_id":"cebpf4jnsgd1na2vs0mg"},{"bike_id":"d93ff833-6299-4022-8efc-bf29518913b9","system_id":"levelo_inurba_marseille","lat":43.31339,"lon":5.36709,"is_reserved":false,"is_disabled":true,"rental_uris":{"android":"levelo://app?vid=d93ff833-6299-4022-8efc-bf29518913b9","ios":"levelo://app?vid=d93ff833-6299-4022-8efc-bf29518913b9"},"vehicle_type_id":"4","last_reported":1737724481,"current_range_meters":0,"station_id":"ce4bgr92rcd13ifvqc6g","pricing_plan_id":"cebpf4jnsgd1na2vs0mg"},{"bike_id":"f44b001f-4781-4041-a683-ae0b2c33ae9c","system_id":"levelo_inurba_marseille","lat":43.30937,"lon":5.40144,"is_reserved":false,"is_disabled":false,"rental_uris":{"android":"levelo://app?vid=f44b001f-4781-4041-a683-ae0b2c33ae9c","ios":"levelo://app?vid=f44b001f-4781-4041-a683-ae0b2c33ae9c"},"vehicle_type_id":"4","last_reported":1737724481,"current_range_meters":16000,"station_id":"ce4bgvp2rcd13ifvqct0","pricing_plan_id":"cebpf4jnsgd1na2vs0mg"},{"bike_id":"ee6f79ff-ee0c-4b32-9b90-1515da1a04d7","system_id":"levelo_inurba_marseille","lat":43.30937,"lon":5.40144,"is_reserved":false,"is_disabled":false,"rental_uris":{"android":"levelo://app?vid=ee6f79ff-ee0c-4b32-9b90-1515da1a04d7","ios":"levelo://app?vid=ee6f79ff-ee0c-4b32-9b90-1515da1a04d7"},"vehicle_type_id":"4","last_reported":1737724481,"current_range_meters":16000,"station_id":"ce4bgvp2rcd13ifvqct0","pricing_plan_id":"cebpf4jnsgd1na2vs0mg"},{"bike_id":"be86d3f9-a8fa-4cc8-af16-6b8534331eb6","system_id":"levelo_inurba_marseille","lat":43.31309,"lon":5.3674,"is_reserved":false,"is_disabled":false,"rental_uris":{"android":"levelo://app?vid=be86d3f9-a8fa-4cc8-af16-6b8534331eb6","ios":"levelo://app?vid=be86d3f9-a8fa-4cc8-af16-6b8534331eb6"},"vehicle_type_id":"4","last_reported":1737724481,"current_range_meters":32000,"station_id":"ce4bgr92rcd13ifvqc6g","pricing_plan_id":"cebpf4jnsgd1na2vs0mg"},{"bike_id":"7218d20e-6ade-4c14-9f86-3a45d86de5b5","system_id":"levelo_inurba_marseille","lat":43.28368,"lon":5.38638,"is_reserved":false,"is_disabled":false,"rental_uris":{"android":"levelo://app?vid=7218d20e-6ade-4c14-9f86-3a45d86de5b5","ios":"levelo://app?vid=7218d20e-6ade-4c14-9f86-3a45d86de5b5"},"vehicle_type_id":"4","last_reported":1737724481,"current_range_meters":22400,"station_id":"ce4bh492rcd13ifvqdvg","pricing_plan_id":"cebpf4jnsgd1na2vs0mg"},{"bike_id":"0bc71879-f319-4ffa-a1d8-dc0c68ac136c","system_id":"levelo_inurba_marseille","lat":43.29623,"lon":5.37173,"is_reserved":false,"is_disabled":false,"rental_uris":{"android":"levelo://app?vid=0bc71879-f319-4ffa-a1d8-dc0c68ac136c","ios":"levelo://app?vid=0bc71879-f319-4ffa-a1d8-dc0c68ac136c"},"vehicle_type_id":"4","last_reported":1737724481,"current_range_meters":4400,"station_id":"ce4bgnh2rcd13ifvqc0g","pricing_plan_id":"cebpf4jnsgd1na2vs0mg"},{"bike_id":"26103d86-85c8-4212-a459-a0d77584a130","system_id":"levelo_inurba_marseille","lat":43.25492,"lon":5.37649,"is_reserved":false,"is_disabled":false,"rental_uris":{"android":"levelo://app?vid=26103d86-85c8-4212-a459-a0d77584a130","ios":"levelo://app?vid=26103d86-85c8-4212-a459-a0d77584a130"},"vehicle_type_id":"4","last_reported":1737724481,"current_range_meters":6000,"station_id":"ce4bhh12rcd13ifvqff0","pricing_plan_id":"cebpf4jnsgd1na2vs0mg"},{"bike_id":"6d1c7757-cbfa-452f-8195-daacd34f212b","system_id":"levelo_inurba_marseille","lat":43.23065,"lon":5.355,"is_reserved":false,"is_disabled":true,"rental_uris":{"android":"levelo://app?vid=6d1c7757-cbfa-452f-8195-daacd34f212b","ios":"levelo://app?vid=6d1c7757-cbfa-452f-8195-daacd34f212b"},"vehicle_type_id":"4","last_reported":1737724481,"current_range_meters":1200,"station_id":"cpo3342slgdg3j2ifvpg","pricing_plan_id":"cebpf4jnsgd1na2vs0mg"},{"bike_id":"890dd099-8418-4d8e-90a6-dfedf2e0aba0","system_id":"levelo_inurba_marseille","lat":43.23149,"lon":5.43722,"is_reserved":false,"is_disabled":false,"rental_uris":{"android":"levelo://app?vid=890dd099-8418-4d8e-90a6-dfedf2e0aba0","ios":"levelo://app?vid=890dd099-8418-4d8e-90a6-dfedf2e0aba0"},"vehicle_type_id":"4","last_reported":1737724481,"current_range_meters":8000,"station_id":"ce4bhmp2rcd13ifvqgog","pricing_plan_id":"cebpf4jnsgd1na2vs0mg"},{"bike_id":"7b2ba910-e9e5-4de0-bf3e-e9ae731a6702","system_id":"levelo_inurba_marseille","lat":43.24078,"lon":5.3776,"is_reserved":false,"is_disabled":false,"rental_uris":{"android":"levelo://app?vid=7b2ba910-e9e5-4de0-bf3e-e9ae731a6702","ios":"levelo://app?vid=7b2ba910-e9e5-4de0-bf3e-e9ae731a6702"},"vehicle_type_id":"4","last_reported":1737724481,"current_range_meters":13600,"station_id":"ce4bhnp2rcd13ifvqgvg","pricing_plan_id":"cebpf4jnsgd1na2vs0mg"},{"bike_id":"4346b768-d52b-4022-a9fb-e1dcaa521e43","system_id":"levelo_inurba_marseille","lat":43.29711,"lon":5.37701,"is_reserved":false,"is_disabled":false,"rental_uris":{"android":"levelo://app?vid=4346b768-d52b-4022-a9fb-e1dcaa521e43","ios":"levelo://app?vid=4346b768-d52b-4022-a9fb-e1dcaa521e43"},"vehicle_type_id":"4","last_reported":1737724481,"current_range_meters":7200,"station_id":"ce4bgkh2rcd13ifvqbl0","pricing_plan_id":"cebpf4jnsgd1na2vs0mg"},{"bike_id":"1f4cc9a1-a6f1-42ee-8f62-d3fd1b2849a6","system_id":"levelo_inurba_marseille","lat":43.23191,"lon":5.3998,"is_reserved":false,"is_disabled":false,"rental_uris":{"android":"levelo://app?vid=1f4cc9a1-a6f1-42ee-8f62-d3fd1b2849a6","ios":"levelo://app?vid=1f4cc9a1-a6f1-42ee-8f62-d3fd1b2849a6"},"vehicle_type_id":"4","last_reported":1737724481,"current_range_meters":38800,"station_id":"ce4bhn12rcd13ifvqgqg","pricing_plan_id":"cebpf4jnsgd1na2vs0mg"},{"bike_id":"59767ab0-c777-48db-a2ff-2c2eeb72fd84","system_id":"levelo_inurba_marseille","lat":43.25572,"lon":5.38246,"is_reserved":false,"is_disabled":false,"rental_uris":{"android":"levelo://app?vid=59767ab0-c777-48db-a2ff-2c2eeb72fd84","ios":"levelo://app?vid=59767ab0-c777-48db-a2ff-2c2eeb72fd84"},"vehicle_type_id":"4","last_reported":1737724481,"current_range_meters":28000,"station_id":"ce4bhih2rcd13ifvqfs0","pricing_plan_id":"cebpf4jnsgd1na2vs0mg"},{"bike_id":"f253fc82-7ca1-4c38-a41a-566478bb536e","system_id":"levelo_inurba_marseille","lat":43.2803,"lon":5.36944,"is_reserved":false,"is_disabled":false,"rental_uris":{"android":"levelo://app?vid=f253fc82-7ca1-4c38-a41a-566478bb536e","ios":"levelo://app?vid=f253fc82-7ca1-4c38-a41a-566478bb536e"},"vehicle_type_id":"4","last_reported":1737724481,"current_range_meters":28400,"station_id":"ce4bha12rcd13ifvqef0","pricing_plan_id":"cebpf4jnsgd1na2vs0mg"},{"bike_id":"17c94a70-57bd-45e1-8fee-c8cc97a06643","system_id":"levelo_inurba_marseille","lat":43.27605,"lon":5.3614,"is_reserved":false,"is_disabled":false,"rental_uris":{"android":"levelo://app?vid=17c94a70-57bd-45e1-8fee-c8cc97a06643","ios":"levelo://app?vid=17c94a70-57bd-45e1-8fee-c8cc97a06643"},"vehicle_type_id":"4","last_reported":1737724481,"current_range_meters":36000,"station_id":"ce4bgj92rcd13ifvqbe0","pricing_plan_id":"cebpf4jnsgd1na2vs0mg"},{"bike_id":"9838cc78-2b53-49d3-ae13-82df62c4fd64","system_id":"levelo_inurba_marseille","lat":43.284347,"lon":5.409351,"is_reserved":false,"is_disabled":true,"rental_uris":{"android":"levelo://app?vid=9838cc78-2b53-49d3-ae13-82df62c4fd64","ios":"levelo://app?vid=9838cc78-2b53-49d3-ae13-82df62c4fd64"},"vehicle_type_id":"4","last_reported":1737724481,"current_range_meters":800,"station_id":"","pricing_plan_id":"cebpf4jnsgd1na2vs0mg"},{"bike_id":"70f4baca-3d50-4fff-8ed7-e04bde78ff10","system_id":"levelo_inurba_marseille","lat":43.26207,"lon":5.37956,"is_reserved":false,"is_disabled":false,"rental_uris":{"android":"levelo://app?vid=70f4baca-3d50-4fff-8ed7-e04bde78ff10","ios":"levelo://app?vid=70f4baca-3d50-4fff-8ed7-e04bde78ff10"},"vehicle_type_id":"4","last_reported":1737724481,"current_range_meters":38800,"station_id":"ce4bhjp2rcd13ifvqg90","pricing_plan_id":"cebpf4jnsgd1na2vs0mg"},{"bike_id":"cc7d09d0-6ac5-4e19-b16c-b0b912d2f1e2","system_id":"levelo_inurba_marseille","lat":43.32475,"lon":5.3657,"is_reserved":false,"is_disabled":false,"rental_uris":{"android":"levelo://app?vid=cc7d09d0-6ac5-4e19-b16c-b0b912d2f1e2","ios":"levelo://app?vid=cc7d09d0-6ac5-4e19-b16c-b0b912d2f1e2"},"vehicle_type_id":"4","last_reported":1737724481,"current_range_meters":24800,"station_id":"ce4bhs12rcd13ifvqhvg","pricing_plan_id":"cebpf4jnsgd1na2vs0mg"},{"bike_id":"bf096a89-ee72-4f37-85bd-7b3cf9f0cb41","system_id":"levelo_inurba_marseille","lat":43.31933,"lon":5.37905,"is_reserved":false,"is_disabled":false,"rental_uris":{"android":"levelo://app?vid=bf096a89-ee72-4f37-85bd-7b3cf9f0cb41","ios":"levelo://app?vid=bf096a89-ee72-4f37-85bd-7b3cf9f0cb41"},"vehicle_type_id":"4","last_reported":1737724481,"current_range_meters":35600,"station_id":"","pricing_plan_id":"cebpf4jnsgd1na2vs0mg"},{"bike_id":"11410044-3034-4881-b749-c4d08783cac0","system_id":"levelo_inurba_marseille","lat":43.28078,"lon":5.39662,"is_reserved":false,"is_disabled":false,"rental_uris":{"android":"levelo://app?vid=11410044-3034-4881-b749-c4d08783cac0","ios":"levelo://app?vid=11410044-3034-4881-b749-c4d08783cac0"},"vehicle_type_id":"4","last_reported":1737724481,"current_range_meters":10000,"station_id":"ce4bho12rcd13ifvqh2g","pricing_plan_id":"cebpf4jnsgd1na2vs0mg"},{"bike_id":"43c95a9f-bd06-49f3-a089-73bdf992218d","system_id":"levelo_inurba_marseille","lat":43.23181,"lon":5.39983,"is_reserved":false,"is_disabled":false,"rental_uris":{"android":"levelo://app?vid=43c95a9f-bd06-49f3-a089-73bdf992218d","ios":"levelo://app?vid=43c95a9f-bd06-49f3-a089-73bdf992218d"},"vehicle_type_id":"4","last_reported":1737724481,"current_range_meters":6800,"station_id":"ce4bhn12rcd13ifvqgqg","pricing_plan_id":"cebpf4jnsgd1na2vs0mg"},{"bike_id":"7e84a6b9-d4b5-435a-b398-a1bffd1e9813","system_id":"levelo_inurba_marseille","lat":43.32363,"lon":5.42068,"is_reserved":false,"is_disabled":false,"rental_uris":{"android":"levelo://app?vid=7e84a6b9-d4b5-435a-b398-a1bffd1e9813","ios":"levelo://app?vid=7e84a6b9-d4b5-435a-b398-a1bffd1e9813"},"vehicle_type_id":"4","last_reported":1737724481,"current_range_meters":26800,"station_id":"","pricing_plan_id":"cebpf4jnsgd1na2vs0mg"},{"bike_id":"44a53934-a7dc-4317-896c-0c9f8619ba3c","system_id":"levelo_inurba_marseille","lat":43.31322,"lon":5.39692,"is_reserved":false,"is_disabled":false,"rental_uris":{"android":"levelo://app?vid=44a53934-a7dc-4317-896c-0c9f8619ba3c","ios":"levelo://app?vid=44a53934-a7dc-4317-896c-0c9f8619ba3c"},"vehicle_type_id":"4","last_reported":1737724481,"current_range_meters":36400,"station_id":"ce4bgvp2rcd13ifvqcu0","pricing_plan_id":"cebpf4jnsgd1na2vs0mg"},{"bike_id":"96bd59ea-dbbd-49c2-b26b-9369c7ed90ac","system_id":"levelo_inurba_marseille","lat":43.30458,"lon":5.37902,"is_reserved":false,"is_disabled":false,"rental_uris":{"android":"levelo://app?vid=96bd59ea-dbbd-49c2-b26b-9369c7ed90ac","ios":"levelo://app?vid=96bd59ea-dbbd-49c2-b26b-9369c7ed90ac"},"vehicle_type_id":"4","last_reported":1737724481,"current_range_meters":37600,"station_id":"ce4bgup2rcd13ifvqcn0","pricing_plan_id":"cebpf4jnsgd1na2vs0mg"},{"bike_id":"c964a905-9270-455d-8da3-260e623933e5","system_id":"levelo_inurba_marseille","lat":43.26691,"lon":5.38263,"is_reserved":false,"is_disabled":false,"rental_uris":{"android":"levelo://app?vid=c964a905-9270-455d-8da3-260e623933e5","ios":"levelo://app?vid=c964a905-9270-455d-8da3-260e623933e5"},"vehicle_type_id":"4","last_reported":1737724481,"current_range_meters":38800,"station_id":"ce4bhg92rcd13ifvqf90","pricing_plan_id":"cebpf4jnsgd1na2vs0mg"},{"bike_id":"7e4325cc-44d8-428f-b996-5967f46ca3d0","system_id":"levelo_inurba_marseille","lat":43.27997,"lon":5.41671,"is_reserved":false,"is_disabled":false,"rental_uris":{"android":"levelo://app?vid=7e4325cc-44d8-428f-b996-5967f46ca3d0","ios":"levelo://app?vid=7e4325cc-44d8-428f-b996-5967f46ca3d0"},"vehicle_type_id":"4","last_reported":1737724481,"current_range_meters":32400,"station_id":"ce4bho12rcd13ifvqh1g","pricing_plan_id":"cebpf4jnsgd1na2vs0mg"},{"bike_id":"2068ce80-1659-42b4-945e-19e0e5710b37","system_id":"levelo_inurba_marseille","lat":43.29712,"lon":5.36613,"is_reserved":false,"is_disabled":false,"rental_uris":{"android":"levelo://app?vid=2068ce80-1659-42b4-945e-19e0e5710b37","ios":"levelo://app?vid=2068ce80-1659-42b4-945e-19e0e5710b37"},"vehicle_type_id":"4","last_reported":1737724481,"current_range_meters":30800,"station_id":"ce4bgn12rcd13ifvqbt0","pricing_plan_id":"cebpf4jnsgd1na2vs0mg"},{"bike_id":"4f50eb9f-2dce-4420-ae78-7df96fbb41e6","system_id":"levelo_inurba_marseille","lat":43.3032,"lon":5.36901,"is_reserved":false,"is_disabled":false,"rental_uris":{"android":"levelo://app?vid=4f50eb9f-2dce-4420-ae78-7df96fbb41e6","ios":"levelo://app?vid=4f50eb9f-2dce-4420-ae78-7df96fbb41e6"},"vehicle_type_id":"4","last_reported":1737724481,"current_range_meters":3600,"station_id":"ce4bgqh2rcd13ifvqc5g","pricing_plan_id":"cebpf4jnsgd1na2vs0mg"},{"bike_id":"0d523cb4-824a-4f30-9f94-216dd58ad552","system_id":"levelo_inurba_marseille","lat":43.31991,"lon":5.38149,"is_reserved":false,"is_disabled":false,"rental_uris":{"android":"levelo://app?vid=0d523cb4-824a-4f30-9f94-216dd58ad552","ios":"levelo://app?vid=0d523cb4-824a-4f30-9f94-216dd58ad552"},"vehicle_type_id":"4","last_reported":1737724481,"current_range_meters":38000,"station_id":"ce4bhr12rcd13ifvqhpg","pricing_plan_id":"cebpf4jnsgd1na2vs0mg"},{"bike_id":"b1350c89-a295-42ef-b3a2-f01d5d977dd1","system_id":"levelo_inurba_marseille","lat":43.30153,"lon":5.38091,"is_reserved":false,"is_disabled":false,"rental_uris":{"android":"levelo://app?vid=b1350c89-a295-42ef-b3a2-f01d5d977dd1","ios":"levelo://app?vid=b1350c89-a295-42ef-b3a2-f01d5d977dd1"},"vehicle_type_id":"4","last_reported":1737724481,"current_range_meters":16800,"station_id":"ce4bgjp2rcd13ifvqbh0","pricing_plan_id":"cebpf4jnsgd1na2vs0mg"},{"bike_id":"ed37f0d1-6828-4023-8716-7b44aa0e4ebe","system_id":"levelo_inurba_marseille","lat":43.30563,"lon":5.36537,"is_reserved":false,"is_disabled":false,"rental_uris":{"android":"levelo://app?vid=ed37f0d1-6828-4023-8716-7b44aa0e4ebe","ios":"levelo://app?vid=ed37f0d1-6828-4023-8716-7b44aa0e4ebe"},"vehicle_type_id":"4","last_reported":1737724481,"current_range_meters":23200,"station_id":"ce4bgs12rcd13ifvqcag","pricing_plan_id":"cebpf4jnsgd1na2vs0mg"},{"bike_id":"bab54419-c160-44a7-908e-d65053ec03a3","system_id":"levelo_inurba_marseille","lat":43.29925,"lon":5.36542,"is_reserved":false,"is_disabled":false,"rental_uris":{"android":"levelo://app?vid=bab54419-c160-44a7-908e-d65053ec03a3","ios":"levelo://app?vid=bab54419-c160-44a7-908e-d65053ec03a3"},"vehicle_type_id":"4","last_reported":1737724481,"current_range_meters":29600,"station_id":"ce4bgm92rcd13ifvqbr0","pricing_plan_id":"cebpf4jnsgd1na2vs0mg"},{"bike_id":"02df7d22-c6b1-41ad-9bd1-f5552fc2757f","system_id":"levelo_inurba_marseille","lat":43.30204,"lon":5.39472,"is_reserved":false,"is_disabled":false,"rental_uris":{"android":"levelo://app?vid=02df7d22-c6b1-41ad-9bd1-f5552fc2757f","ios":"levelo://app?vid=02df7d22-c6b1-41ad-9bd1-f5552fc2757f"},"vehicle_type_id":"4","last_reported":1737724481,"current_range_meters":8400,"station_id":"ce4bh0p2rcd13ifvqd70","pricing_plan_id":"cebpf4jnsgd1na2vs0mg"},{"bike_id":"3bc2c02c-3da6-4bd6-b29d-5c74a814b2ac","system_id":"levelo_inurba_marseille","lat":43.30542,"lon":5.36554,"is_reserved":false,"is_disabled":false,"rental_uris":{"android":"levelo://app?vid=3bc2c02c-3da6-4bd6-b29d-5c74a814b2ac","ios":"levelo://app?vid=3bc2c02c-3da6-4bd6-b29d-5c74a814b2ac"},"vehicle_type_id":"4","last_reported":1737724481,"current_range_meters":28400,"station_id":"ce4bgs12rcd13ifvqcag","pricing_plan_id":"cebpf4jnsgd1na2vs0mg"},{"bike_id":"347dd29e-9a9e-4a37-8ddd-6e2050aaff03","system_id":"levelo_inurba_marseille","lat":43.33742,"lon":5.39204,"is_reserved":false,"is_disabled":false,"rental_uris":{"android":"levelo://app?vid=347dd29e-9a9e-4a37-8ddd-6e2050aaff03","ios":"levelo://app?vid=347dd29e-9a9e-4a37-8ddd-6e2050aaff03"},"vehicle_type_id":"4","last_reported":1737724481,"current_range_meters":38000,"station_id":"ce4bhr92rcd13ifvqhsg","pricing_plan_id":"cebpf4jnsgd1na2vs0mg"},{"bike_id":"9a5bb72f-9564-424f-8b3e-638aad0af9ff","system_id":"levelo_inurba_marseille","lat":43.28452,"lon":5.35884,"is_reserved":false,"is_disabled":false,"rental_uris":{"android":"levelo://app?vid=9a5bb72f-9564-424f-8b3e-638aad0af9ff","ios":"levelo://app?vid=9a5bb72f-9564-424f-8b3e-638aad0af9ff"},"vehicle_type_id":"4","last_reported":1737724481,"current_range_meters":7200,"station_id":"ce4bhah2rcd13ifvqei0","pricing_plan_id":"cebpf4jnsgd1na2vs0mg"},{"bike_id":"d7dbec56-3cb4-42dd-970e-b1e8e7b8f352","system_id":"levelo_inurba_marseille","lat":43.2668,"lon":5.38291,"is_reserved":false,"is_disabled":false,"rental_uris":{"android":"levelo://app?vid=d7dbec56-3cb4-42dd-970e-b1e8e7b8f352","ios":"levelo://app?vid=d7dbec56-3cb4-42dd-970e-b1e8e7b8f352"},"vehicle_type_id":"4","last_reported":1737724481,"current_range_meters":39200,"station_id":"ce4bhg92rcd13ifvqf90","pricing_plan_id":"cebpf4jnsgd1na2vs0mg"},{"bike_id":"68f2ccb3-f174-4230-b667-71cfa289852c","system_id":"levelo_inurba_marseille","lat":43.2808,"lon":5.39655,"is_reserved":false,"is_disabled":false,"rental_uris":{"android":"levelo://app?vid=68f2ccb3-f174-4230-b667-71cfa289852c","ios":"levelo://app?vid=68f2ccb3-f174-4230-b667-71cfa289852c"},"vehicle_type_id":"4","last_reported":1737724481,"current_range_meters":38800,"station_id":"ce4bho12rcd13ifvqh2g","pricing_plan_id":"cebpf4jnsgd1na2vs0mg"},{"bike_id":"e6f11b4c-c4e2-4f78-9e3b-5b5c8124d2c6","system_id":"levelo_inurba_marseille","lat":43.24073,"lon":5.37749,"is_reserved":false,"is_disabled":false,"rental_uris":{"android":"levelo://app?vid=e6f11b4c-c4e2-4f78-9e3b-5b5c8124d2c6","ios":"levelo://app?vid=e6f11b4c-c4e2-4f78-9e3b-5b5c8124d2c6"},"vehicle_type_id":"4","last_reported":1737724481,"current_range_meters":37600,"station_id":"ce4bhnp2rcd13ifvqgvg","pricing_plan_id":"cebpf4jnsgd1na2vs0mg"},{"bike_id":"72d9b6cd-34c5-4ed5-8923-04c66a1ec59d","system_id":"levelo_inurba_marseille","lat":43.28938,"lon":5.36629,"is_reserved":false,"is_disabled":false,"rental_uris":{"android":"levelo://app?vid=72d9b6cd-34c5-4ed5-8923-04c66a1ec59d","ios":"levelo://app?vid=72d9b6cd-34c5-4ed5-8923-04c66a1ec59d"},"vehicle_type_id":"4","last_reported":1737724481,"current_range_meters":8400,"station_id":"ce4bhap2rcd13ifvqek0","pricing_plan_id":"cebpf4jnsgd1na2vs0mg"},{"bike_id":"90b8a1b1-ad54-458d-9362-f5197bbdf048","system_id":"levelo_inurba_marseille","lat":43.22938,"lon":5.35371,"is_reserved":false,"is_disabled":false,"rental_uris":{"android":"levelo://app?vid=90b8a1b1-ad54-458d-9362-f5197bbdf048","ios":"levelo://app?vid=90b8a1b1-ad54-458d-9362-f5197bbdf048"},"vehicle_type_id":"4","last_reported":1737724481,"current_range_meters":38800,"station_id":"cpo3532slgdg3j2ikp40","pricing_plan_id":"cebpf4jnsgd1na2vs0mg"},{"bike_id":"36b29aff-d400-4b91-b97b-1aa981a30818","system_id":"levelo_inurba_marseille","lat":43.24648,"lon":5.38894,"is_reserved":false,"is_disabled":false,"rental_uris":{"android":"levelo://app?vid=36b29aff-d400-4b91-b97b-1aa981a30818","ios":"levelo://app?vid=36b29aff-d400-4b91-b97b-1aa981a30818"},"vehicle_type_id":"4","last_reported":1737724481,"current_range_meters":11200,"station_id":"ce4bhg12rcd13ifvqf60","pricing_plan_id":"cebpf4jnsgd1na2vs0mg"},{"bike_id":"40d317df-1c58-4e05-bf2a-ee4b77c416be","system_id":"levelo_inurba_marseille","lat":43.29796,"lon":5.38096,"is_reserved":false,"is_disabled":false,"rental_uris":{"android":"levelo://app?vid=40d317df-1c58-4e05-bf2a-ee4b77c416be","ios":"levelo://app?vid=40d317df-1c58-4e05-bf2a-ee4b77c416be"},"vehicle_type_id":"4","last_reported":1737724481,"current_range_meters":23200,"station_id":"ce4bgip2rcd13ifvqbb0","pricing_plan_id":"cebpf4jnsgd1na2vs0mg"},{"bike_id":"dc6e3d32-a291-4b70-8bf0-8040f7271e19","system_id":"levelo_inurba_marseille","lat":43.29044,"lon":5.35911,"is_reserved":false,"is_disabled":false,"rental_uris":{"android":"levelo://app?vid=dc6e3d32-a291-4b70-8bf0-8040f7271e19","ios":"levelo://app?vid=dc6e3d32-a291-4b70-8bf0-8040f7271e19"},"vehicle_type_id":"4","last_reported":1737724481,"current_range_meters":36800,"station_id":"ce4bha92rcd13ifvqeg0","pricing_plan_id":"cebpf4jnsgd1na2vs0mg"},{"bike_id":"ac331144-232c-43b7-9c44-ec84952821c0","system_id":"levelo_inurba_marseille","lat":43.29166,"lon":5.37165,"is_reserved":false,"is_disabled":false,"rental_uris":{"android":"levelo://app?vid=ac331144-232c-43b7-9c44-ec84952821c0","ios":"levelo://app?vid=ac331144-232c-43b7-9c44-ec84952821c0"},"vehicle_type_id":"4","last_reported":1737724481,"current_range_meters":30400,"station_id":"ce4bha92rcd13ifvqeh0","pricing_plan_id":"cebpf4jnsgd1na2vs0mg"},{"bike_id":"b442f8f4-eae9-42f1-a88d-506eb2fb0203","system_id":"levelo_inurba_marseille","lat":43.30432,"lon":5.38891,"is_reserved":false,"is_disabled":false,"rental_uris":{"android":"levelo://app?vid=b442f8f4-eae9-42f1-a88d-506eb2fb0203","ios":"levelo://app?vid=b442f8f4-eae9-42f1-a88d-506eb2fb0203"},"vehicle_type_id":"4","last_reported":1737724481,"current_range_meters":26000,"station_id":"ce4bgk12rcd13ifvqbi0","pricing_plan_id":"cebpf4jnsgd1na2vs0mg"},{"bike_id":"f65d5dfc-63e8-44e6-8ed3-b52f0022f6e6","system_id":"levelo_inurba_marseille","lat":43.29561,"lon":5.42294,"is_reserved":false,"is_disabled":false,"rental_uris":{"android":"levelo://app?vid=f65d5dfc-63e8-44e6-8ed3-b52f0022f6e6","ios":"levelo://app?vid=f65d5dfc-63e8-44e6-8ed3-b52f0022f6e6"},"vehicle_type_id":"4","last_reported":1737724481,"current_range_meters":37600,"station_id":"ce4bhph2rcd13ifvqhdg","pricing_plan_id":"cebpf4jnsgd1na2vs0mg"},{"bike_id":"cb6022c4-92ea-4a76-a949-ae46829faf99","system_id":"levelo_inurba_marseille","lat":43.30465,"lon":5.37917,"is_reserved":false,"is_disabled":false,"rental_uris":{"android":"levelo://app?vid=cb6022c4-92ea-4a76-a949-ae46829faf99","ios":"levelo://app?vid=cb6022c4-92ea-4a76-a949-ae46829faf99"},"vehicle_type_id":"4","last_reported":1737724481,"current_range_meters":14000,"station_id":"ce4bgup2rcd13ifvqcn0","pricing_plan_id":"cebpf4jnsgd1na2vs0mg"},{"bike_id":"f5355114-8530-4ebb-b548-4192d005700b","system_id":"levelo_inurba_marseille","lat":43.28938,"lon":5.36641,"is_reserved":false,"is_disabled":false,"rental_uris":{"android":"levelo://app?vid=f5355114-8530-4ebb-b548-4192d005700b","ios":"levelo://app?vid=f5355114-8530-4ebb-b548-4192d005700b"},"vehicle_type_id":"4","last_reported":1737724481,"current_range_meters":29600,"station_id":"ce4bhap2rcd13ifvqek0","pricing_plan_id":"cebpf4jnsgd1na2vs0mg"},{"bike_id":"a0e00665-ceec-4a63-a1c0-9944712cc305","system_id":"levelo_inurba_marseille","lat":43.28844,"lon":5.35858,"is_reserved":false,"is_disabled":false,"rental_uris":{"android":"levelo://app?vid=a0e00665-ceec-4a63-a1c0-9944712cc305","ios":"levelo://app?vid=a0e00665-ceec-4a63-a1c0-9944712cc305"},"vehicle_type_id":"4","last_reported":1737724481,"current_range_meters":30400,"station_id":"ce4bgkp2rcd13ifvqbmg","pricing_plan_id":"cebpf4jnsgd1na2vs0mg"},{"bike_id":"66557ccd-fcbb-4f0e-9992-7c0b2c5020c8","system_id":"levelo_inurba_marseille","lat":43.30152,"lon":5.38097,"is_reserved":false,"is_disabled":false,"rental_uris":{"android":"levelo://app?vid=66557ccd-fcbb-4f0e-9992-7c0b2c5020c8","ios":"levelo://app?vid=66557ccd-fcbb-4f0e-9992-7c0b2c5020c8"},"vehicle_type_id":"4","last_reported":1737724481,"current_range_meters":32000,"station_id":"ce4bgjp2rcd13ifvqbh0","pricing_plan_id":"cebpf4jnsgd1na2vs0mg"},{"bike_id":"ce90fea6-ff2a-4d0b-bd4f-45ced0acf4c0","system_id":"levelo_inurba_marseille","lat":43.32369,"lon":5.36754,"is_reserved":false,"is_disabled":false,"rental_uris":{"android":"levelo://app?vid=ce90fea6-ff2a-4d0b-bd4f-45ced0acf4c0","ios":"levelo://app?vid=ce90fea6-ff2a-4d0b-bd4f-45ced0acf4c0"},"vehicle_type_id":"4","last_reported":1737724481,"current_range_meters":8000,"station_id":"ce4bhsh2rcd13ifvqi2g","pricing_plan_id":"cebpf4jnsgd1na2vs0mg"},{"bike_id":"ab13439f-1c4b-4b83-ac72-9f4e6d1f64cb","system_id":"levelo_inurba_marseille","lat":43.31256,"lon":5.38004,"is_reserved":false,"is_disabled":true,"rental_uris":{"android":"levelo://app?vid=ab13439f-1c4b-4b83-ac72-9f4e6d1f64cb","ios":"levelo://app?vid=ab13439f-1c4b-4b83-ac72-9f4e6d1f64cb"},"vehicle_type_id":"4","last_reported":1737724481,"current_range_meters":7200,"station_id":"","pricing_plan_id":"cebpf4jnsgd1na2vs0mg"},{"bike_id":"431299a0-21ec-4f6a-93fe-0d0fe6e96565","system_id":"levelo_inurba_marseille","lat":43.30315,"lon":5.36905,"is_reserved":false,"is_disabled":false,"rental_uris":{"android":"levelo://app?vid=431299a0-21ec-4f6a-93fe-0d0fe6e96565","ios":"levelo://app?vid=431299a0-21ec-4f6a-93fe-0d0fe6e96565"},"vehicle_type_id":"4","last_reported":1737724481,"current_range_meters":38000,"station_id":"ce4bgqh2rcd13ifvqc5g","pricing_plan_id":"cebpf4jnsgd1na2vs0mg"},{"bike_id":"f2c24814-ace8-4785-84ed-4e0de6e4cc92","system_id":"levelo_inurba_marseille","lat":43.24075,"lon":5.37763,"is_reserved":false,"is_disabled":false,"rental_uris":{"android":"levelo://app?vid=f2c24814-ace8-4785-84ed-4e0de6e4cc92","ios":"levelo://app?vid=f2c24814-ace8-4785-84ed-4e0de6e4cc92"},"vehicle_type_id":"4","last_reported":1737724481,"current_range_meters":10800,"station_id":"ce4bhnp2rcd13ifvqgvg","pricing_plan_id":"cebpf4jnsgd1na2vs0mg"},{"bike_id":"a5085c9e-42dd-4758-9ef9-ea13c3f02b13","system_id":"levelo_inurba_marseille","lat":43.292053,"lon":5.393275,"is_reserved":false,"is_disabled":false,"rental_uris":{"android":"levelo://app?vid=a5085c9e-42dd-4758-9ef9-ea13c3f02b13","ios":"levelo://app?vid=a5085c9e-42dd-4758-9ef9-ea13c3f02b13"},"vehicle_type_id":"4","last_reported":1737724481,"current_range_meters":38400,"station_id":"ce4bh192rcd13ifvqdd0","pricing_plan_id":"cebpf4jnsgd1na2vs0mg"},{"bike_id":"08ddc84c-0cf0-43b6-8658-02e253c04c3a","system_id":"levelo_inurba_marseille","lat":43.30144,"lon":5.38083,"is_reserved":false,"is_disabled":false,"rental_uris":{"android":"levelo://app?vid=08ddc84c-0cf0-43b6-8658-02e253c04c3a","ios":"levelo://app?vid=08ddc84c-0cf0-43b6-8658-02e253c04c3a"},"vehicle_type_id":"4","last_reported":1737724481,"current_range_meters":32400,"station_id":"ce4bgjp2rcd13ifvqbh0","pricing_plan_id":"cebpf4jnsgd1na2vs0mg"},{"bike_id":"cf6285a9-f75c-4f38-bb8a-70ce67a4ee67","system_id":"levelo_inurba_marseille","lat":43.25813,"lon":5.39463,"is_reserved":false,"is_disabled":true,"rental_uris":{"android":"levelo://app?vid=cf6285a9-f75c-4f38-bb8a-70ce67a4ee67","ios":"levelo://app?vid=cf6285a9-f75c-4f38-bb8a-70ce67a4ee67"},"vehicle_type_id":"4","last_reported":1737724481,"current_range_meters":1200,"station_id":"ce4bhip2rcd13ifvqft0","pricing_plan_id":"cebpf4jnsgd1na2vs0mg"},{"bike_id":"adf37ecb-7a79-450c-982d-303eae1f41ff","system_id":"levelo_inurba_marseille","lat":43.26682,"lon":5.38261,"is_reserved":false,"is_disabled":false,"rental_uris":{"android":"levelo://app?vid=adf37ecb-7a79-450c-982d-303eae1f41ff","ios":"levelo://app?vid=adf37ecb-7a79-450c-982d-303eae1f41ff"},"vehicle_type_id":"4","last_reported":1737724481,"current_range_meters":38800,"station_id":"ce4bhg92rcd13ifvqf90","pricing_plan_id":"cebpf4jnsgd1na2vs0mg"},{"bike_id":"78b03264-0c2d-45b5-9b0a-cf7cc454c0c6","system_id":"levelo_inurba_marseille","lat":43.32439,"lon":5.36549,"is_reserved":false,"is_disabled":false,"rental_uris":{"android":"levelo://app?vid=78b03264-0c2d-45b5-9b0a-cf7cc454c0c6","ios":"levelo://app?vid=78b03264-0c2d-45b5-9b0a-cf7cc454c0c6"},"vehicle_type_id":"4","last_reported":1737724481,"current_range_meters":37600,"station_id":"ce4bhs12rcd13ifvqhvg","pricing_plan_id":"cebpf4jnsgd1na2vs0mg"},{"bike_id":"a5f7b0ec-6daa-4e15-b0da-df118092518f","system_id":"levelo_inurba_marseille","lat":43.2313,"lon":5.43727,"is_reserved":false,"is_disabled":false,"rental_uris":{"android":"levelo://app?vid=a5f7b0ec-6daa-4e15-b0da-df118092518f","ios":"levelo://app?vid=a5f7b0ec-6daa-4e15-b0da-df118092518f"},"vehicle_type_id":"4","last_reported":1737724481,"current_range_meters":8000,"station_id":"ce4bhmp2rcd13ifvqgog","pricing_plan_id":"cebpf4jnsgd1na2vs0mg"},{"bike_id":"610b06d9-d6b8-493e-925e-29958eda2fc5","system_id":"levelo_inurba_marseille","lat":43.27368,"lon":5.36267,"is_reserved":false,"is_disabled":false,"rental_uris":{"android":"levelo://app?vid=610b06d9-d6b8-493e-925e-29958eda2fc5","ios":"levelo://app?vid=610b06d9-d6b8-493e-925e-29958eda2fc5"},"vehicle_type_id":"4","last_reported":1737724481,"current_range_meters":39200,"station_id":"ce4bhbh2rcd13ifvqeo0","pricing_plan_id":"cebpf4jnsgd1na2vs0mg"},{"bike_id":"3b4bf9ee-2289-4266-be38-4d84eee2a11a","system_id":"levelo_inurba_marseille","lat":43.30657,"lon":5.40087,"is_reserved":false,"is_disabled":false,"rental_uris":{"android":"levelo://app?vid=3b4bf9ee-2289-4266-be38-4d84eee2a11a","ios":"levelo://app?vid=3b4bf9ee-2289-4266-be38-4d84eee2a11a"},"vehicle_type_id":"4","last_reported":1737724481,"current_range_meters":20800,"station_id":"ce4bh112rcd13ifvqda0","pricing_plan_id":"cebpf4jnsgd1na2vs0mg"},{"bike_id":"cf315a4c-50b7-4dfd-ab6a-024c9109b5ff","system_id":"levelo_inurba_marseille","lat":43.29068,"lon":5.37161,"is_reserved":false,"is_disabled":false,"rental_uris":{"android":"levelo://app?vid=cf315a4c-50b7-4dfd-ab6a-024c9109b5ff","ios":"levelo://app?vid=cf315a4c-50b7-4dfd-ab6a-024c9109b5ff"},"vehicle_type_id":"4","last_reported":1737724481,"current_range_meters":34000,"station_id":"ce4bh5p2rcd13ifvqe4g","pricing_plan_id":"cebpf4jnsgd1na2vs0mg"},{"bike_id":"86e74e3b-996a-4975-88d9-d5a7ed191bca","system_id":"levelo_inurba_marseille","lat":43.305208,"lon":5.365494,"is_reserved":false,"is_disabled":false,"rental_uris":{"android":"levelo://app?vid=86e74e3b-996a-4975-88d9-d5a7ed191bca","ios":"levelo://app?vid=86e74e3b-996a-4975-88d9-d5a7ed191bca"},"vehicle_type_id":"4","last_reported":1737724481,"current_range_meters":38800,"station_id":"ce4bgs12rcd13ifvqcag","pricing_plan_id":"cebpf4jnsgd1na2vs0mg"},{"bike_id":"51a38997-3581-4337-8f27-b99ed382982d","system_id":"levelo_inurba_marseille","lat":43.306257,"lon":5.393437,"is_reserved":false,"is_disabled":false,"rental_uris":{"android":"levelo://app?vid=51a38997-3581-4337-8f27-b99ed382982d","ios":"levelo://app?vid=51a38997-3581-4337-8f27-b99ed382982d"},"vehicle_type_id":"4","last_reported":1737724481,"current_range_meters":32400,"station_id":"ce4bh0p2rcd13ifvqd80","pricing_plan_id":"cebpf4jnsgd1na2vs0mg"},{"bike_id":"8ef3fa62-0a6f-4835-9ef6-faeb3804ec0a","system_id":"levelo_inurba_marseille","lat":43.30917,"lon":5.36965,"is_reserved":false,"is_disabled":false,"rental_uris":{"android":"levelo://app?vid=8ef3fa62-0a6f-4835-9ef6-faeb3804ec0a","ios":"levelo://app?vid=8ef3fa62-0a6f-4835-9ef6-faeb3804ec0a"},"vehicle_type_id":"4","last_reported":1737724481,"current_range_meters":38000,"station_id":"","pricing_plan_id":"cebpf4jnsgd1na2vs0mg"},{"bike_id":"f8d47279-9ba1-467f-a5c2-954f8bee37fb","system_id":"levelo_inurba_marseille","lat":43.3254,"lon":5.4146,"is_reserved":false,"is_disabled":false,"rental_uris":{"android":"levelo://app?vid=f8d47279-9ba1-467f-a5c2-954f8bee37fb","ios":"levelo://app?vid=f8d47279-9ba1-467f-a5c2-954f8bee37fb"},"vehicle_type_id":"4","last_reported":1737724481,"current_range_meters":8000,"station_id":"ce4bhq12rcd13ifvqhhg","pricing_plan_id":"cebpf4jnsgd1na2vs0mg"},{"bike_id":"85a3042a-99ef-4a57-92d9-e9fccf7a3989","system_id":"levelo_inurba_marseille","lat":43.304805,"lon":5.379075,"is_reserved":false,"is_disabled":false,"rental_uris":{"android":"levelo://app?vid=85a3042a-99ef-4a57-92d9-e9fccf7a3989","ios":"levelo://app?vid=85a3042a-99ef-4a57-92d9-e9fccf7a3989"},"vehicle_type_id":"4","last_reported":1737724481,"current_range_meters":33600,"station_id":"ce4bgup2rcd13ifvqcn0","pricing_plan_id":"cebpf4jnsgd1na2vs0mg"},{"bike_id":"21dccd44-123d-4fb8-a3e3-64f6bfaa0ef2","system_id":"levelo_inurba_marseille","lat":43.27995,"lon":5.41664,"is_reserved":false,"is_disabled":false,"rental_uris":{"android":"levelo://app?vid=21dccd44-123d-4fb8-a3e3-64f6bfaa0ef2","ios":"levelo://app?vid=21dccd44-123d-4fb8-a3e3-64f6bfaa0ef2"},"vehicle_type_id":"4","last_reported":1737724481,"current_range_meters":6000,"station_id":"ce4bho12rcd13ifvqh1g","pricing_plan_id":"cebpf4jnsgd1na2vs0mg"},{"bike_id":"85c4b304-0a15-4fc1-b75d-cfc16b5afe60","system_id":"levelo_inurba_marseille","lat":43.22938,"lon":5.35385,"is_reserved":false,"is_disabled":false,"rental_uris":{"android":"levelo://app?vid=85c4b304-0a15-4fc1-b75d-cfc16b5afe60","ios":"levelo://app?vid=85c4b304-0a15-4fc1-b75d-cfc16b5afe60"},"vehicle_type_id":"4","last_reported":1737724481,"current_range_meters":38800,"station_id":"cpo3532slgdg3j2ikp40","pricing_plan_id":"cebpf4jnsgd1na2vs0mg"},{"bike_id":"72bca693-6299-400e-8130-c642ac080ed7","system_id":"levelo_inurba_marseille","lat":43.31724,"lon":5.43696,"is_reserved":false,"is_disabled":false,"rental_uris":{"android":"levelo://app?vid=72bca693-6299-400e-8130-c642ac080ed7","ios":"levelo://app?vid=72bca693-6299-400e-8130-c642ac080ed7"},"vehicle_type_id":"4","last_reported":1737724481,"current_range_meters":38400,"station_id":"ce4bhp92rcd13ifvqhcg","pricing_plan_id":"cebpf4jnsgd1na2vs0mg"},{"bike_id":"f2e3b5c2-d077-4514-b020-0850f3051bdb","system_id":"levelo_inurba_marseille","lat":43.29603,"lon":5.37746,"is_reserved":false,"is_disabled":false,"rental_uris":{"android":"levelo://app?vid=f2e3b5c2-d077-4514-b020-0850f3051bdb","ios":"levelo://app?vid=f2e3b5c2-d077-4514-b020-0850f3051bdb"},"vehicle_type_id":"4","last_reported":1737724481,"current_range_meters":39200,"station_id":"ce4bgi92rcd13ifvqb90","pricing_plan_id":"cebpf4jnsgd1na2vs0mg"},{"bike_id":"2aeb1fe7-2455-4a37-a484-bbbf324c7cf2","system_id":"levelo_inurba_marseille","lat":43.32106,"lon":5.36777,"is_reserved":false,"is_disabled":false,"rental_uris":{"android":"levelo://app?vid=2aeb1fe7-2455-4a37-a484-bbbf324c7cf2","ios":"levelo://app?vid=2aeb1fe7-2455-4a37-a484-bbbf324c7cf2"},"vehicle_type_id":"4","last_reported":1737724481,"current_range_meters":7200,"station_id":"ce4bhrh2rcd13ifvqhug","pricing_plan_id":"cebpf4jnsgd1na2vs0mg"},{"bike_id":"0abf22d3-72ef-4439-89d4-26729fbafd27","system_id":"levelo_inurba_marseille","lat":43.3021,"lon":5.394749,"is_reserved":false,"is_disabled":false,"rental_uris":{"android":"levelo://app?vid=0abf22d3-72ef-4439-89d4-26729fbafd27","ios":"levelo://app?vid=0abf22d3-72ef-4439-89d4-26729fbafd27"},"vehicle_type_id":"4","last_reported":1737724481,"current_range_meters":34800,"station_id":"","pricing_plan_id":"cebpf4jnsgd1na2vs0mg"},{"bike_id":"7adee84c-870a-46b5-b69e-0c07649ea134","system_id":"levelo_inurba_marseille","lat":43.33748,"lon":5.39187,"is_reserved":false,"is_disabled":false,"rental_uris":{"android":"levelo://app?vid=7adee84c-870a-46b5-b69e-0c07649ea134","ios":"levelo://app?vid=7adee84c-870a-46b5-b69e-0c07649ea134"},"vehicle_type_id":"4","last_reported":1737724481,"current_range_meters":14400,"station_id":"ce4bhr92rcd13ifvqhsg","pricing_plan_id":"cebpf4jnsgd1na2vs0mg"},{"bike_id":"1d51cb01-b3d9-4cd3-98cf-a30cf755d9d6","system_id":"levelo_inurba_marseille","lat":43.30888,"lon":5.36853,"is_reserved":false,"is_disabled":false,"rental_uris":{"android":"levelo://app?vid=1d51cb01-b3d9-4cd3-98cf-a30cf755d9d6","ios":"levelo://app?vid=1d51cb01-b3d9-4cd3-98cf-a30cf755d9d6"},"vehicle_type_id":"4","last_reported":1737724481,"current_range_meters":28000,"station_id":"ce4bgn92rcd13ifvqbvg","pricing_plan_id":"cebpf4jnsgd1na2vs0mg"},{"bike_id":"7a55f28a-5a5b-4ca4-9825-dee123c17d08","system_id":"levelo_inurba_marseille","lat":43.32112,"lon":5.36776,"is_reserved":false,"is_disabled":false,"rental_uris":{"android":"levelo://app?vid=7a55f28a-5a5b-4ca4-9825-dee123c17d08","ios":"levelo://app?vid=7a55f28a-5a5b-4ca4-9825-dee123c17d08"},"vehicle_type_id":"4","last_reported":1737724481,"current_range_meters":37600,"station_id":"ce4bhrh2rcd13ifvqhug","pricing_plan_id":"cebpf4jnsgd1na2vs0mg"},{"bike_id":"fa8d78eb-e4d3-478c-924c-1bcea3e36896","system_id":"levelo_inurba_marseille","lat":43.27305,"lon":5.39145,"is_reserved":false,"is_disabled":false,"rental_uris":{"android":"levelo://app?vid=fa8d78eb-e4d3-478c-924c-1bcea3e36896","ios":"levelo://app?vid=fa8d78eb-e4d3-478c-924c-1bcea3e36896"},"vehicle_type_id":"4","last_reported":1737724481,"current_range_meters":38800,"station_id":"ce4bhgp2rcd13ifvqfe0","pricing_plan_id":"cebpf4jnsgd1na2vs0mg"},{"bike_id":"ffe2742c-407f-46b3-8ff8-4a379a0d59c5","system_id":"levelo_inurba_marseille","lat":43.25503,"lon":5.37653,"is_reserved":false,"is_disabled":false,"rental_uris":{"android":"levelo://app?vid=ffe2742c-407f-46b3-8ff8-4a379a0d59c5","ios":"levelo://app?vid=ffe2742c-407f-46b3-8ff8-4a379a0d59c5"},"vehicle_type_id":"4","last_reported":1737724481,"current_range_meters":39200,"station_id":"ce4bhh12rcd13ifvqff0","pricing_plan_id":"cebpf4jnsgd1na2vs0mg"},{"bike_id":"2b1e0dda-6b2a-4529-addf-f76226c429bf","system_id":"levelo_inurba_marseille","lat":43.28847,"lon":5.3933,"is_reserved":false,"is_disabled":false,"rental_uris":{"android":"levelo://app?vid=2b1e0dda-6b2a-4529-addf-f76226c429bf","ios":"levelo://app?vid=2b1e0dda-6b2a-4529-addf-f76226c429bf"},"vehicle_type_id":"4","last_reported":1737724481,"current_range_meters":36800,"station_id":"ce4bh2p2rcd13ifvqdi0","pricing_plan_id":"cebpf4jnsgd1na2vs0mg"},{"bike_id":"7ae57d4a-987c-4a94-bf67-7089b41c8d83","system_id":"levelo_inurba_marseille","lat":43.27607,"lon":5.36114,"is_reserved":false,"is_disabled":false,"rental_uris":{"android":"levelo://app?vid=7ae57d4a-987c-4a94-bf67-7089b41c8d83","ios":"levelo://app?vid=7ae57d4a-987c-4a94-bf67-7089b41c8d83"},"vehicle_type_id":"4","last_reported":1737724481,"current_range_meters":38000,"station_id":"ce4bgj92rcd13ifvqbe0","pricing_plan_id":"cebpf4jnsgd1na2vs0mg"},{"bike_id":"dcace9d1-9017-43f4-8f64-f5da9681deb7","system_id":"levelo_inurba_marseille","lat":43.28853,"lon":5.35864,"is_reserved":false,"is_disabled":false,"rental_uris":{"android":"levelo://app?vid=dcace9d1-9017-43f4-8f64-f5da9681deb7","ios":"levelo://app?vid=dcace9d1-9017-43f4-8f64-f5da9681deb7"},"vehicle_type_id":"4","last_reported":1737724481,"current_range_meters":10000,"station_id":"ce4bhb12rcd13ifvqem0","pricing_plan_id":"cebpf4jnsgd1na2vs0mg"},{"bike_id":"35614ed7-a0df-4792-bca2-a1978fcd9fab","system_id":"levelo_inurba_marseille","lat":43.30803,"lon":5.43514,"is_reserved":false,"is_disabled":false,"rental_uris":{"android":"levelo://app?vid=35614ed7-a0df-4792-bca2-a1978fcd9fab","ios":"levelo://app?vid=35614ed7-a0df-4792-bca2-a1978fcd9fab"},"vehicle_type_id":"4","last_reported":1737724481,"current_range_meters":38000,"station_id":"ce4bhph2rcd13ifvqheg","pricing_plan_id":"cebpf4jnsgd1na2vs0mg"},{"bike_id":"c2b1d898-8d95-4b49-b324-a24f4f18a4a0","system_id":"levelo_inurba_marseille","lat":43.32528,"lon":5.415,"is_reserved":false,"is_disabled":false,"rental_uris":{"android":"levelo://app?vid=c2b1d898-8d95-4b49-b324-a24f4f18a4a0","ios":"levelo://app?vid=c2b1d898-8d95-4b49-b324-a24f4f18a4a0"},"vehicle_type_id":"4","last_reported":1737724481,"current_range_meters":36000,"station_id":"ce4bhq12rcd13ifvqhhg","pricing_plan_id":"cebpf4jnsgd1na2vs0mg"},{"bike_id":"4ed65a0a-87be-4b05-b8f2-da869178bf00","system_id":"levelo_inurba_marseille","lat":43.24073,"lon":5.37759,"is_reserved":false,"is_disabled":false,"rental_uris":{"android":"levelo://app?vid=4ed65a0a-87be-4b05-b8f2-da869178bf00","ios":"levelo://app?vid=4ed65a0a-87be-4b05-b8f2-da869178bf00"},"vehicle_type_id":"4","last_reported":1737724481,"current_range_meters":36000,"station_id":"ce4bhnp2rcd13ifvqgvg","pricing_plan_id":"cebpf4jnsgd1na2vs0mg"},{"bike_id":"aa7afb36-d608-40c9-9cfe-0d5ad9824784","system_id":"levelo_inurba_marseille","lat":43.30325,"lon":5.4044,"is_reserved":false,"is_disabled":false,"rental_uris":{"android":"levelo://app?vid=aa7afb36-d608-40c9-9cfe-0d5ad9824784","ios":"levelo://app?vid=aa7afb36-d608-40c9-9cfe-0d5ad9824784"},"vehicle_type_id":"4","last_reported":1737724481,"current_range_meters":39200,"station_id":"ce4bh012rcd13ifvqd10","pricing_plan_id":"cebpf4jnsgd1na2vs0mg"},{"bike_id":"302ad34d-83f9-4e3a-8246-16aa28274e3a","system_id":"levelo_inurba_marseille","lat":43.29599,"lon":5.37729,"is_reserved":false,"is_disabled":false,"rental_uris":{"android":"levelo://app?vid=302ad34d-83f9-4e3a-8246-16aa28274e3a","ios":"levelo://app?vid=302ad34d-83f9-4e3a-8246-16aa28274e3a"},"vehicle_type_id":"4","last_reported":1737724481,"current_range_meters":16400,"station_id":"ce4bgi92rcd13ifvqb90","pricing_plan_id":"cebpf4jnsgd1na2vs0mg"},{"bike_id":"5f760866-c598-4660-b386-c9c889f0733e","system_id":"levelo_inurba_marseille","lat":43.26054,"lon":5.39399,"is_reserved":false,"is_disabled":false,"rental_uris":{"android":"levelo://app?vid=5f760866-c598-4660-b386-c9c889f0733e","ios":"levelo://app?vid=5f760866-c598-4660-b386-c9c889f0733e"},"vehicle_type_id":"4","last_reported":1737724481,"current_range_meters":38000,"station_id":"ce4bhh92rcd13ifvqfj0","pricing_plan_id":"cebpf4jnsgd1na2vs0mg"},{"bike_id":"dca7396c-192d-4247-bc53-b1f87e22543b","system_id":"levelo_inurba_marseille","lat":43.30141,"lon":5.39846,"is_reserved":false,"is_disabled":false,"rental_uris":{"android":"levelo://app?vid=dca7396c-192d-4247-bc53-b1f87e22543b","ios":"levelo://app?vid=dca7396c-192d-4247-bc53-b1f87e22543b"},"vehicle_type_id":"4","last_reported":1737724481,"current_range_meters":24400,"station_id":"ce4bh0h2rcd13ifvqd40","pricing_plan_id":"cebpf4jnsgd1na2vs0mg"},{"bike_id":"bce5b737-eb70-4339-9352-9b379016152f","system_id":"levelo_inurba_marseille","lat":43.30147,"lon":5.37413,"is_reserved":false,"is_disabled":false,"rental_uris":{"android":"levelo://app?vid=bce5b737-eb70-4339-9352-9b379016152f","ios":"levelo://app?vid=bce5b737-eb70-4339-9352-9b379016152f"},"vehicle_type_id":"4","last_reported":1737724481,"current_range_meters":36800,"station_id":"ce4bgs92rcd13ifvqcc0","pricing_plan_id":"cebpf4jnsgd1na2vs0mg"},{"bike_id":"c5332c32-f726-4644-b824-15429296eaca","system_id":"levelo_inurba_marseille","lat":43.25503,"lon":5.37651,"is_reserved":false,"is_disabled":false,"rental_uris":{"android":"levelo://app?vid=c5332c32-f726-4644-b824-15429296eaca","ios":"levelo://app?vid=c5332c32-f726-4644-b824-15429296eaca"},"vehicle_type_id":"4","last_reported":1737724481,"current_range_meters":22800,"station_id":"ce4bhh12rcd13ifvqff0","pricing_plan_id":"cebpf4jnsgd1na2vs0mg"},{"bike_id":"cd32657e-7579-4b76-8e63-317cb2807967","system_id":"levelo_inurba_marseille","lat":43.28852,"lon":5.3586,"is_reserved":false,"is_disabled":false,"rental_uris":{"android":"levelo://app?vid=cd32657e-7579-4b76-8e63-317cb2807967","ios":"levelo://app?vid=cd32657e-7579-4b76-8e63-317cb2807967"},"vehicle_type_id":"4","last_reported":1737724481,"current_range_meters":29600,"station_id":"ce4bhb12rcd13ifvqem0","pricing_plan_id":"cebpf4jnsgd1na2vs0mg"},{"bike_id":"90562b19-8802-4e76-a682-f90dad6ec469","system_id":"levelo_inurba_marseille","lat":43.29539,"lon":5.38549,"is_reserved":false,"is_disabled":true,"rental_uris":{"android":"levelo://app?vid=90562b19-8802-4e76-a682-f90dad6ec469","ios":"levelo://app?vid=90562b19-8802-4e76-a682-f90dad6ec469"},"vehicle_type_id":"4","last_reported":1737724481,"current_range_meters":0,"station_id":"ce4bgih2rcd13ifvqba0","pricing_plan_id":"cebpf4jnsgd1na2vs0mg"},{"bike_id":"9863b7f9-4316-4322-9f6c-3cc66b0448e2","system_id":"levelo_inurba_marseille","lat":43.279439,"lon":5.389008,"is_reserved":false,"is_disabled":true,"rental_uris":{"android":"levelo://app?vid=9863b7f9-4316-4322-9f6c-3cc66b0448e2","ios":"levelo://app?vid=9863b7f9-4316-4322-9f6c-3cc66b0448e2"},"vehicle_type_id":"4","last_reported":1737724481,"current_range_meters":20000,"station_id":"","pricing_plan_id":"cebpf4jnsgd1na2vs0mg"},{"bike_id":"9fff4ea0-e02e-4ea9-bc41-4259ae25015c","system_id":"levelo_inurba_marseille","lat":43.30281,"lon":5.3771,"is_reserved":false,"is_disabled":false,"rental_uris":{"android":"levelo://app?vid=9fff4ea0-e02e-4ea9-bc41-4259ae25015c","ios":"levelo://app?vid=9fff4ea0-e02e-4ea9-bc41-4259ae25015c"},"vehicle_type_id":"4","last_reported":1737724481,"current_range_meters":33600,"station_id":"ce4bguh2rcd13ifvqcj0","pricing_plan_id":"cebpf4jnsgd1na2vs0mg"},{"bike_id":"da5d9e2a-6569-4e24-a1b1-a8b0dd28c817","system_id":"levelo_inurba_marseille","lat":43.32541,"lon":5.41437,"is_reserved":false,"is_disabled":false,"rental_uris":{"android":"levelo://app?vid=da5d9e2a-6569-4e24-a1b1-a8b0dd28c817","ios":"levelo://app?vid=da5d9e2a-6569-4e24-a1b1-a8b0dd28c817"},"vehicle_type_id":"4","last_reported":1737724481,"current_range_meters":36400,"station_id":"ce4bhq12rcd13ifvqhhg","pricing_plan_id":"cebpf4jnsgd1na2vs0mg"},{"bike_id":"b6469807-58db-4201-ae75-21723f2a516a","system_id":"levelo_inurba_marseille","lat":43.26592,"lon":5.39038,"is_reserved":false,"is_disabled":false,"rental_uris":{"android":"levelo://app?vid=b6469807-58db-4201-ae75-21723f2a516a","ios":"levelo://app?vid=b6469807-58db-4201-ae75-21723f2a516a"},"vehicle_type_id":"4","last_reported":1737724481,"current_range_meters":38800,"station_id":"ce4bhe12rcd13ifvqf30","pricing_plan_id":"cebpf4jnsgd1na2vs0mg"},{"bike_id":"a66ee18f-967a-413d-8e12-54799281b565","system_id":"levelo_inurba_marseille","lat":43.337444,"lon":5.374475,"is_reserved":false,"is_disabled":false,"rental_uris":{"android":"levelo://app?vid=a66ee18f-967a-413d-8e12-54799281b565","ios":"levelo://app?vid=a66ee18f-967a-413d-8e12-54799281b565"},"vehicle_type_id":"4","last_reported":1737724481,"current_range_meters":7200,"station_id":"ce4bh0h2rcd13ifvqd50","pricing_plan_id":"cebpf4jnsgd1na2vs0mg"},{"bike_id":"1451baee-679d-4d56-b07f-349b5e186d75","system_id":"levelo_inurba_marseille","lat":43.28727,"lon":5.37929,"is_reserved":false,"is_disabled":false,"rental_uris":{"android":"levelo://app?vid=1451baee-679d-4d56-b07f-349b5e186d75","ios":"levelo://app?vid=1451baee-679d-4d56-b07f-349b5e186d75"},"vehicle_type_id":"4","last_reported":1737724481,"current_range_meters":19600,"station_id":"ce4bh9p2rcd13ifvqec0","pricing_plan_id":"cebpf4jnsgd1na2vs0mg"},{"bike_id":"6db1e521-cb90-4879-8241-dece18233a1c","system_id":"levelo_inurba_marseille","lat":43.29548,"lon":5.4228,"is_reserved":false,"is_disabled":false,"rental_uris":{"android":"levelo://app?vid=6db1e521-cb90-4879-8241-dece18233a1c","ios":"levelo://app?vid=6db1e521-cb90-4879-8241-dece18233a1c"},"vehicle_type_id":"4","last_reported":1737724481,"current_range_meters":22400,"station_id":"ce4bhph2rcd13ifvqhdg","pricing_plan_id":"cebpf4jnsgd1na2vs0mg"},{"bike_id":"eb82a4fa-b45d-4357-8410-47675bcbc568","system_id":"levelo_inurba_marseille","lat":43.29594,"lon":5.36739,"is_reserved":false,"is_disabled":false,"rental_uris":{"android":"levelo://app?vid=eb82a4fa-b45d-4357-8410-47675bcbc568","ios":"levelo://app?vid=eb82a4fa-b45d-4357-8410-47675bcbc568"},"vehicle_type_id":"4","last_reported":1737724481,"current_range_meters":39200,"station_id":"ce4bgph2rcd13ifvqc2g","pricing_plan_id":"cebpf4jnsgd1na2vs0mg"},{"bike_id":"fb96c333-d038-4b1c-9f7d-d3a5abfa6e1c","system_id":"levelo_inurba_marseille","lat":43.32477,"lon":5.36577,"is_reserved":false,"is_disabled":false,"rental_uris":{"android":"levelo://app?vid=fb96c333-d038-4b1c-9f7d-d3a5abfa6e1c","ios":"levelo://app?vid=fb96c333-d038-4b1c-9f7d-d3a5abfa6e1c"},"vehicle_type_id":"4","last_reported":1737724481,"current_range_meters":20800,"station_id":"ce4bhs12rcd13ifvqhvg","pricing_plan_id":"cebpf4jnsgd1na2vs0mg"},{"bike_id":"fe36f9e3-5066-4758-b495-4e830abf33a6","system_id":"levelo_inurba_marseille","lat":43.29037,"lon":5.37567,"is_reserved":false,"is_disabled":false,"rental_uris":{"android":"levelo://app?vid=fe36f9e3-5066-4758-b495-4e830abf33a6","ios":"levelo://app?vid=fe36f9e3-5066-4758-b495-4e830abf33a6"},"vehicle_type_id":"4","last_reported":1737724481,"current_range_meters":12800,"station_id":"ce4bh692rcd13ifvqe90","pricing_plan_id":"cebpf4jnsgd1na2vs0mg"},{"bike_id":"934196af-5ffb-4509-b6e8-608b435748a6","system_id":"levelo_inurba_marseille","lat":43.31535,"lon":5.38031,"is_reserved":false,"is_disabled":false,"rental_uris":{"android":"levelo://app?vid=934196af-5ffb-4509-b6e8-608b435748a6","ios":"levelo://app?vid=934196af-5ffb-4509-b6e8-608b435748a6"},"vehicle_type_id":"4","last_reported":1737724481,"current_range_meters":39200,"station_id":"ce4bhsp2rcd13ifvqi50","pricing_plan_id":"cebpf4jnsgd1na2vs0mg"},{"bike_id":"c400706d-11d8-4109-af7f-04e1a2259d9b","system_id":"levelo_inurba_marseille","lat":43.29897,"lon":5.43663,"is_reserved":false,"is_disabled":false,"rental_uris":{"android":"levelo://app?vid=c400706d-11d8-4109-af7f-04e1a2259d9b","ios":"levelo://app?vid=c400706d-11d8-4109-af7f-04e1a2259d9b"},"vehicle_type_id":"4","last_reported":1737724481,"current_range_meters":6400,"station_id":"ce4bhpp2rcd13ifvqhfg","pricing_plan_id":"cebpf4jnsgd1na2vs0mg"},{"bike_id":"71f52d6b-b04a-44ac-bcaf-49c5bd066bef","system_id":"levelo_inurba_marseille","lat":43.2669,"lon":5.38261,"is_reserved":false,"is_disabled":false,"rental_uris":{"android":"levelo://app?vid=71f52d6b-b04a-44ac-bcaf-49c5bd066bef","ios":"levelo://app?vid=71f52d6b-b04a-44ac-bcaf-49c5bd066bef"},"vehicle_type_id":"4","last_reported":1737724481,"current_range_meters":38000,"station_id":"ce4bhg92rcd13ifvqf90","pricing_plan_id":"cebpf4jnsgd1na2vs0mg"},{"bike_id":"e5bcb72f-4660-482d-8f72-fd1331220c27","system_id":"levelo_inurba_marseille","lat":43.29359,"lon":5.40142,"is_reserved":false,"is_disabled":false,"rental_uris":{"android":"levelo://app?vid=e5bcb72f-4660-482d-8f72-fd1331220c27","ios":"levelo://app?vid=e5bcb72f-4660-482d-8f72-fd1331220c27"},"vehicle_type_id":"4","last_reported":1737724481,"current_range_meters":8000,"station_id":"","pricing_plan_id":"cebpf4jnsgd1na2vs0mg"},{"bike_id":"c3ccfefb-c1f2-459b-aeea-f7492233dca7","system_id":"levelo_inurba_marseille","lat":43.25938,"lon":5.40908,"is_reserved":false,"is_disabled":false,"rental_uris":{"android":"levelo://app?vid=c3ccfefb-c1f2-459b-aeea-f7492233dca7","ios":"levelo://app?vid=c3ccfefb-c1f2-459b-aeea-f7492233dca7"},"vehicle_type_id":"4","last_reported":1737724481,"current_range_meters":36800,"station_id":"ce4bhm92rcd13ifvqglg","pricing_plan_id":"cebpf4jnsgd1na2vs0mg"},{"bike_id":"eccee9cc-ca1d-4b35-aaa5-b35f76fbb83f","system_id":"levelo_inurba_marseille","lat":43.25826,"lon":5.39438,"is_reserved":false,"is_disabled":false,"rental_uris":{"android":"levelo://app?vid=eccee9cc-ca1d-4b35-aaa5-b35f76fbb83f","ios":"levelo://app?vid=eccee9cc-ca1d-4b35-aaa5-b35f76fbb83f"},"vehicle_type_id":"4","last_reported":1737724481,"current_range_meters":12400,"station_id":"ce4bhip2rcd13ifvqft0","pricing_plan_id":"cebpf4jnsgd1na2vs0mg"},{"bike_id":"7c78a755-c7f5-4f07-a96b-621451d47948","system_id":"levelo_inurba_marseille","lat":43.298994,"lon":5.436635,"is_reserved":false,"is_disabled":false,"rental_uris":{"android":"levelo://app?vid=7c78a755-c7f5-4f07-a96b-621451d47948","ios":"levelo://app?vid=7c78a755-c7f5-4f07-a96b-621451d47948"},"vehicle_type_id":"4","last_reported":1737724481,"current_range_meters":8000,"station_id":"ce4bhpp2rcd13ifvqhfg","pricing_plan_id":"cebpf4jnsgd1na2vs0mg"},{"bike_id":"32b6ca88-74ef-44ca-8cf1-8c56cd1b9220","system_id":"levelo_inurba_marseille","lat":43.2667,"lon":5.38261,"is_reserved":false,"is_disabled":false,"rental_uris":{"android":"levelo://app?vid=32b6ca88-74ef-44ca-8cf1-8c56cd1b9220","ios":"levelo://app?vid=32b6ca88-74ef-44ca-8cf1-8c56cd1b9220"},"vehicle_type_id":"4","last_reported":1737724481,"current_range_meters":8000,"station_id":"ce4bhg92rcd13ifvqf90","pricing_plan_id":"cebpf4jnsgd1na2vs0mg"},{"bike_id":"81481363-ee60-4805-9da0-e33c51b4f172","system_id":"levelo_inurba_marseille","lat":43.28441,"lon":5.39186,"is_reserved":false,"is_disabled":false,"rental_uris":{"android":"levelo://app?vid=81481363-ee60-4805-9da0-e33c51b4f172","ios":"levelo://app?vid=81481363-ee60-4805-9da0-e33c51b4f172"},"vehicle_type_id":"4","last_reported":1737724481,"current_range_meters":32000,"station_id":"ce4bhoh2rcd13ifvqh5g","pricing_plan_id":"cebpf4jnsgd1na2vs0mg"},{"bike_id":"1aed7b80-d93a-4904-8f20-7f823bd7e53e","system_id":"levelo_inurba_marseille","lat":43.28337,"lon":5.3811,"is_reserved":false,"is_disabled":false,"rental_uris":{"android":"levelo://app?vid=1aed7b80-d93a-4904-8f20-7f823bd7e53e","ios":"levelo://app?vid=1aed7b80-d93a-4904-8f20-7f823bd7e53e"},"vehicle_type_id":"4","last_reported":1737724481,"current_range_meters":29600,"station_id":"ce4bh412rcd13ifvqdr0","pricing_plan_id":"cebpf4jnsgd1na2vs0mg"},{"bike_id":"924bb50b-5c31-4cab-ad43-1f80bc71824c","system_id":"levelo_inurba_marseille","lat":43.28936,"lon":5.36638,"is_reserved":false,"is_disabled":false,"rental_uris":{"android":"levelo://app?vid=924bb50b-5c31-4cab-ad43-1f80bc71824c","ios":"levelo://app?vid=924bb50b-5c31-4cab-ad43-1f80bc71824c"},"vehicle_type_id":"4","last_reported":1737724481,"current_range_meters":27600,"station_id":"ce4bhap2rcd13ifvqek0","pricing_plan_id":"cebpf4jnsgd1na2vs0mg"},{"bike_id":"2c46ed70-12dc-46f7-af78-b1afb53dbd14","system_id":"levelo_inurba_marseille","lat":43.30933,"lon":5.40146,"is_reserved":false,"is_disabled":false,"rental_uris":{"android":"levelo://app?vid=2c46ed70-12dc-46f7-af78-b1afb53dbd14","ios":"levelo://app?vid=2c46ed70-12dc-46f7-af78-b1afb53dbd14"},"vehicle_type_id":"4","last_reported":1737724481,"current_range_meters":19200,"station_id":"ce4bgvp2rcd13ifvqct0","pricing_plan_id":"cebpf4jnsgd1na2vs0mg"},{"bike_id":"1c31ef18-1c9a-4bcc-ac54-523c048a82f5","system_id":"levelo_inurba_marseille","lat":43.24071,"lon":5.37768,"is_reserved":false,"is_disabled":false,"rental_uris":{"android":"levelo://app?vid=1c31ef18-1c9a-4bcc-ac54-523c048a82f5","ios":"levelo://app?vid=1c31ef18-1c9a-4bcc-ac54-523c048a82f5"},"vehicle_type_id":"4","last_reported":1737724481,"current_range_meters":32000,"station_id":"ce4bhnp2rcd13ifvqgvg","pricing_plan_id":"cebpf4jnsgd1na2vs0mg"},{"bike_id":"1470ca42-04cc-4b23-81ca-1d82c6cc777e","system_id":"levelo_inurba_marseille","lat":43.269428,"lon":5.38656,"is_reserved":false,"is_disabled":false,"rental_uris":{"android":"levelo://app?vid=1470ca42-04cc-4b23-81ca-1d82c6cc777e","ios":"levelo://app?vid=1470ca42-04cc-4b23-81ca-1d82c6cc777e"},"vehicle_type_id":"4","last_reported":1737724481,"current_range_meters":38800,"station_id":"ce4bhh92rcd13ifvqfh0","pricing_plan_id":"cebpf4jnsgd1na2vs0mg"},{"bike_id":"4a13ea03-ec6c-4773-aab6-bf9a860cd9fc","system_id":"levelo_inurba_marseille","lat":43.27899,"lon":5.37995,"is_reserved":false,"is_disabled":false,"rental_uris":{"android":"levelo://app?vid=4a13ea03-ec6c-4773-aab6-bf9a860cd9fc","ios":"levelo://app?vid=4a13ea03-ec6c-4773-aab6-bf9a860cd9fc"},"vehicle_type_id":"4","last_reported":1737724481,"current_range_meters":39200,"station_id":"ce4bhf92rcd13ifvqf50","pricing_plan_id":"cebpf4jnsgd1na2vs0mg"},{"bike_id":"fb6c295d-1724-4d33-a3c9-a298a0f0c5f2","system_id":"levelo_inurba_marseille","lat":43.28719,"lon":5.3793,"is_reserved":false,"is_disabled":false,"rental_uris":{"android":"levelo://app?vid=fb6c295d-1724-4d33-a3c9-a298a0f0c5f2","ios":"levelo://app?vid=fb6c295d-1724-4d33-a3c9-a298a0f0c5f2"},"vehicle_type_id":"4","last_reported":1737724481,"current_range_meters":16800,"station_id":"ce4bh9p2rcd13ifvqec0","pricing_plan_id":"cebpf4jnsgd1na2vs0mg"},{"bike_id":"73f0a483-06c6-43e4-8150-96acc4952fc2","system_id":"levelo_inurba_marseille","lat":43.30607,"lon":5.37174,"is_reserved":false,"is_disabled":false,"rental_uris":{"android":"levelo://app?vid=73f0a483-06c6-43e4-8150-96acc4952fc2","ios":"levelo://app?vid=73f0a483-06c6-43e4-8150-96acc4952fc2"},"vehicle_type_id":"4","last_reported":1737724481,"current_range_meters":20800,"station_id":"ce4bgqh2rcd13ifvqc4g","pricing_plan_id":"cebpf4jnsgd1na2vs0mg"},{"bike_id":"cf24a7dc-d833-4357-8165-2514ac46fba4","system_id":"levelo_inurba_marseille","lat":43.240652,"lon":5.377705,"is_reserved":false,"is_disabled":false,"rental_uris":{"android":"levelo://app?vid=cf24a7dc-d833-4357-8165-2514ac46fba4","ios":"levelo://app?vid=cf24a7dc-d833-4357-8165-2514ac46fba4"},"vehicle_type_id":"4","last_reported":1737724481,"current_range_meters":39200,"station_id":"ce4bhnp2rcd13ifvqgvg","pricing_plan_id":"cebpf4jnsgd1na2vs0mg"},{"bike_id":"0f6f1f28-264c-42b7-9014-efb1bc5cfecb","system_id":"levelo_inurba_marseille","lat":43.29905,"lon":5.37464,"is_reserved":false,"is_disabled":false,"rental_uris":{"android":"levelo://app?vid=0f6f1f28-264c-42b7-9014-efb1bc5cfecb","ios":"levelo://app?vid=0f6f1f28-264c-42b7-9014-efb1bc5cfecb"},"vehicle_type_id":"4","last_reported":1737724481,"current_range_meters":39200,"station_id":"ce4bgjh2rcd13ifvqbg0","pricing_plan_id":"cebpf4jnsgd1na2vs0mg"},{"bike_id":"1c042460-752b-42ae-84f8-35d4bdb9aca8","system_id":"levelo_inurba_marseille","lat":43.26802,"lon":5.40271,"is_reserved":false,"is_disabled":false,"rental_uris":{"android":"levelo://app?vid=1c042460-752b-42ae-84f8-35d4bdb9aca8","ios":"levelo://app?vid=1c042460-752b-42ae-84f8-35d4bdb9aca8"},"vehicle_type_id":"4","last_reported":1737724481,"current_range_meters":21600,"station_id":"ce501612rcd8frsf0b60","pricing_plan_id":"cebpf4jnsgd1na2vs0mg"},{"bike_id":"0ada2b19-59a4-4b0d-9b3b-7bcc0c7f9e2c","system_id":"levelo_inurba_marseille","lat":43.26489,"lon":5.39552,"is_reserved":false,"is_disabled":false,"rental_uris":{"android":"levelo://app?vid=0ada2b19-59a4-4b0d-9b3b-7bcc0c7f9e2c","ios":"levelo://app?vid=0ada2b19-59a4-4b0d-9b3b-7bcc0c7f9e2c"},"vehicle_type_id":"4","last_reported":1737724481,"current_range_meters":38400,"station_id":"ce4bhi12rcd13ifvqfq0","pricing_plan_id":"cebpf4jnsgd1na2vs0mg"},{"bike_id":"2d09f6c2-0a95-42dd-b273-6c37bca47794","system_id":"levelo_inurba_marseille","lat":43.29905,"lon":5.37476,"is_reserved":false,"is_disabled":false,"rental_uris":{"android":"levelo://app?vid=2d09f6c2-0a95-42dd-b273-6c37bca47794","ios":"levelo://app?vid=2d09f6c2-0a95-42dd-b273-6c37bca47794"},"vehicle_type_id":"4","last_reported":1737724481,"current_range_meters":38800,"station_id":"ce4bgjh2rcd13ifvqbg0","pricing_plan_id":"cebpf4jnsgd1na2vs0mg"},{"bike_id":"4c6ace24-8fa1-4251-bdd2-2f7b7944df6a","system_id":"levelo_inurba_marseille","lat":43.29245,"lon":5.40911,"is_reserved":false,"is_disabled":false,"rental_uris":{"android":"levelo://app?vid=4c6ace24-8fa1-4251-bdd2-2f7b7944df6a","ios":"levelo://app?vid=4c6ace24-8fa1-4251-bdd2-2f7b7944df6a"},"vehicle_type_id":"4","last_reported":1737724481,"current_range_meters":36000,"station_id":"ce4bh192rcd13ifvqdc0","pricing_plan_id":"cebpf4jnsgd1na2vs0mg"},{"bike_id":"fe3679b4-09f6-4e41-9aae-9d00892cb93e","system_id":"levelo_inurba_marseille","lat":43.23194,"lon":5.35562,"is_reserved":false,"is_disabled":false,"rental_uris":{"android":"levelo://app?vid=fe3679b4-09f6-4e41-9aae-9d00892cb93e","ios":"levelo://app?vid=fe3679b4-09f6-4e41-9aae-9d00892cb93e"},"vehicle_type_id":"4","last_reported":1737724481,"current_range_meters":18000,"station_id":"ce4bhu92rcd13ifvqi70","pricing_plan_id":"cebpf4jnsgd1na2vs0mg"},{"bike_id":"de6fd782-7134-4e64-b9c3-cc2cfbe12552","system_id":"levelo_inurba_marseille","lat":43.311186,"lon":5.388339,"is_reserved":false,"is_disabled":false,"rental_uris":{"android":"levelo://app?vid=de6fd782-7134-4e64-b9c3-cc2cfbe12552","ios":"levelo://app?vid=de6fd782-7134-4e64-b9c3-cc2cfbe12552"},"vehicle_type_id":"4","last_reported":1737724481,"current_range_meters":32400,"station_id":"","pricing_plan_id":"cebpf4jnsgd1na2vs0mg"},{"bike_id":"13ff516e-16cf-4543-8540-9030b8b296b4","system_id":"levelo_inurba_marseille","lat":43.23192,"lon":5.35563,"is_reserved":false,"is_disabled":false,"rental_uris":{"android":"levelo://app?vid=13ff516e-16cf-4543-8540-9030b8b296b4","ios":"levelo://app?vid=13ff516e-16cf-4543-8540-9030b8b296b4"},"vehicle_type_id":"4","last_reported":1737724481,"current_range_meters":25200,"station_id":"ce4bhu92rcd13ifvqi70","pricing_plan_id":"cebpf4jnsgd1na2vs0mg"},{"bike_id":"639b392a-f817-4b6e-ba22-962f157403c0","system_id":"levelo_inurba_marseille","lat":43.2961,"lon":5.3811,"is_reserved":false,"is_disabled":false,"rental_uris":{"android":"levelo://app?vid=639b392a-f817-4b6e-ba22-962f157403c0","ios":"levelo://app?vid=639b392a-f817-4b6e-ba22-962f157403c0"},"vehicle_type_id":"4","last_reported":1737724481,"current_range_meters":11200,"station_id":"ce4bgl12rcd13ifvqbo0","pricing_plan_id":"cebpf4jnsgd1na2vs0mg"},{"bike_id":"7c5742b4-6005-4de6-a3cf-df4c9e88d63b","system_id":"levelo_inurba_marseille","lat":43.28264,"lon":5.35059,"is_reserved":false,"is_disabled":false,"rental_uris":{"android":"levelo://app?vid=7c5742b4-6005-4de6-a3cf-df4c9e88d63b","ios":"levelo://app?vid=7c5742b4-6005-4de6-a3cf-df4c9e88d63b"},"vehicle_type_id":"4","last_reported":1737724481,"current_range_meters":5600,"station_id":"ce4bhbp2rcd13ifvqerg","pricing_plan_id":"cebpf4jnsgd1na2vs0mg"},{"bike_id":"94b6e43a-b204-4920-9522-0373da12e4e1","system_id":"levelo_inurba_marseille","lat":43.3043,"lon":5.39752,"is_reserved":false,"is_disabled":false,"rental_uris":{"android":"levelo://app?vid=94b6e43a-b204-4920-9522-0373da12e4e1","ios":"levelo://app?vid=94b6e43a-b204-4920-9522-0373da12e4e1"},"vehicle_type_id":"4","last_reported":1737724481,"current_range_meters":38400,"station_id":"ce4bh092rcd13ifvqd20","pricing_plan_id":"cebpf4jnsgd1na2vs0mg"},{"bike_id":"0559d6d4-37c7-46c4-8936-9ba759799326","system_id":"levelo_inurba_marseille","lat":43.24804,"lon":5.37458,"is_reserved":false,"is_disabled":false,"rental_uris":{"android":"levelo://app?vid=0559d6d4-37c7-46c4-8936-9ba759799326","ios":"levelo://app?vid=0559d6d4-37c7-46c4-8936-9ba759799326"},"vehicle_type_id":"4","last_reported":1737724481,"current_range_meters":38800,"station_id":"ce4bhgh2rcd13ifvqfb0","pricing_plan_id":"cebpf4jnsgd1na2vs0mg"},{"bike_id":"8a151ccc-edf6-40ab-a6a3-42b4ac96f698","system_id":"levelo_inurba_marseille","lat":43.28284,"lon":5.35076,"is_reserved":false,"is_disabled":false,"rental_uris":{"android":"levelo://app?vid=8a151ccc-edf6-40ab-a6a3-42b4ac96f698","ios":"levelo://app?vid=8a151ccc-edf6-40ab-a6a3-42b4ac96f698"},"vehicle_type_id":"4","last_reported":1737724481,"current_range_meters":24000,"station_id":"ce4bhbp2rcd13ifvqerg","pricing_plan_id":"cebpf4jnsgd1na2vs0mg"},{"bike_id":"3580c5c1-dc70-4ba1-a8a7-c1a2b51491bb","system_id":"levelo_inurba_marseille","lat":43.23192,"lon":5.39978,"is_reserved":false,"is_disabled":false,"rental_uris":{"android":"levelo://app?vid=3580c5c1-dc70-4ba1-a8a7-c1a2b51491bb","ios":"levelo://app?vid=3580c5c1-dc70-4ba1-a8a7-c1a2b51491bb"},"vehicle_type_id":"4","last_reported":1737724481,"current_range_meters":16400,"station_id":"ce4bhn12rcd13ifvqgqg","pricing_plan_id":"cebpf4jnsgd1na2vs0mg"},{"bike_id":"cdc5a8ed-4598-4bee-9b07-4cc607fa93ef","system_id":"levelo_inurba_marseille","lat":43.32058,"lon":5.4154,"is_reserved":false,"is_disabled":false,"rental_uris":{"android":"levelo://app?vid=cdc5a8ed-4598-4bee-9b07-4cc607fa93ef","ios":"levelo://app?vid=cdc5a8ed-4598-4bee-9b07-4cc607fa93ef"},"vehicle_type_id":"4","last_reported":1737724481,"current_range_meters":23200,"station_id":"ce4bhq92rcd13ifvqhkg","pricing_plan_id":"cebpf4jnsgd1na2vs0mg"},{"bike_id":"c07ffe20-21f2-4b01-b153-b7e93fc6ba8d","system_id":"levelo_inurba_marseille","lat":43.31723,"lon":5.4242,"is_reserved":false,"is_disabled":true,"rental_uris":{"android":"levelo://app?vid=c07ffe20-21f2-4b01-b153-b7e93fc6ba8d","ios":"levelo://app?vid=c07ffe20-21f2-4b01-b153-b7e93fc6ba8d"},"vehicle_type_id":"4","last_reported":1737724481,"current_range_meters":1200,"station_id":"ce4bhp92rcd13ifvqhbg","pricing_plan_id":"cebpf4jnsgd1na2vs0mg"},{"bike_id":"ab030d26-2088-401e-b9d4-e14ebf12b53b","system_id":"levelo_inurba_marseille","lat":43.29591,"lon":5.37513,"is_reserved":false,"is_disabled":false,"rental_uris":{"android":"levelo://app?vid=ab030d26-2088-401e-b9d4-e14ebf12b53b","ios":"levelo://app?vid=ab030d26-2088-401e-b9d4-e14ebf12b53b"},"vehicle_type_id":"4","last_reported":1737724481,"current_range_meters":26000,"station_id":"ce4bgh92rcd13ifvqb50","pricing_plan_id":"cebpf4jnsgd1na2vs0mg"},{"bike_id":"2ae1a011-e4fd-483d-9166-3ddacb41769e","system_id":"levelo_inurba_marseille","lat":43.29793,"lon":5.39344,"is_reserved":false,"is_disabled":false,"rental_uris":{"android":"levelo://app?vid=2ae1a011-e4fd-483d-9166-3ddacb41769e","ios":"levelo://app?vid=2ae1a011-e4fd-483d-9166-3ddacb41769e"},"vehicle_type_id":"4","last_reported":1737724481,"current_range_meters":3200,"station_id":"chh1huq6cuj3fo74tm60","pricing_plan_id":"cebpf4jnsgd1na2vs0mg"},{"bike_id":"10821c11-dc7b-400b-8caf-d89d5ed879d8","system_id":"levelo_inurba_marseille","lat":43.30931,"lon":5.40149,"is_reserved":false,"is_disabled":false,"rental_uris":{"android":"levelo://app?vid=10821c11-dc7b-400b-8caf-d89d5ed879d8","ios":"levelo://app?vid=10821c11-dc7b-400b-8caf-d89d5ed879d8"},"vehicle_type_id":"4","last_reported":1737724481,"current_range_meters":32000,"station_id":"ce4bgvp2rcd13ifvqct0","pricing_plan_id":"cebpf4jnsgd1na2vs0mg"},{"bike_id":"52f93219-6795-4559-bcf9-267dd9e46a74","system_id":"levelo_inurba_marseille","lat":43.3121,"lon":5.36831,"is_reserved":false,"is_disabled":false,"rental_uris":{"android":"levelo://app?vid=52f93219-6795-4559-bcf9-267dd9e46a74","ios":"levelo://app?vid=52f93219-6795-4559-bcf9-267dd9e46a74"},"vehicle_type_id":"4","last_reported":1737724481,"current_range_meters":37600,"station_id":"ce4bgl92rcd13ifvqbq0","pricing_plan_id":"cebpf4jnsgd1na2vs0mg"},{"bike_id":"3b5db362-e586-4843-ac19-b18328203e89","system_id":"levelo_inurba_marseille","lat":43.30307,"lon":5.36888,"is_reserved":false,"is_disabled":false,"rental_uris":{"android":"levelo://app?vid=3b5db362-e586-4843-ac19-b18328203e89","ios":"levelo://app?vid=3b5db362-e586-4843-ac19-b18328203e89"},"vehicle_type_id":"4","last_reported":1737724481,"current_range_meters":28800,"station_id":"ce4bgqh2rcd13ifvqc5g","pricing_plan_id":"cebpf4jnsgd1na2vs0mg"},{"bike_id":"8263b869-2897-4aec-bb52-47e72d21bc1d","system_id":"levelo_inurba_marseille","lat":43.29249,"lon":5.40919,"is_reserved":false,"is_disabled":false,"rental_uris":{"android":"levelo://app?vid=8263b869-2897-4aec-bb52-47e72d21bc1d","ios":"levelo://app?vid=8263b869-2897-4aec-bb52-47e72d21bc1d"},"vehicle_type_id":"4","last_reported":1737724481,"current_range_meters":39200,"station_id":"ce4bh192rcd13ifvqdc0","pricing_plan_id":"cebpf4jnsgd1na2vs0mg"},{"bike_id":"45b366a6-6abc-4401-bb9e-1aee69db2cae","system_id":"levelo_inurba_marseille","lat":43.28084,"lon":5.39667,"is_reserved":false,"is_disabled":false,"rental_uris":{"android":"levelo://app?vid=45b366a6-6abc-4401-bb9e-1aee69db2cae","ios":"levelo://app?vid=45b366a6-6abc-4401-bb9e-1aee69db2cae"},"vehicle_type_id":"4","last_reported":1737724481,"current_range_meters":32000,"station_id":"ce4bho12rcd13ifvqh2g","pricing_plan_id":"cebpf4jnsgd1na2vs0mg"},{"bike_id":"3444053c-9b78-40b6-b7e5-b021dc04c8c1","system_id":"levelo_inurba_marseille","lat":43.283513,"lon":5.381007,"is_reserved":false,"is_disabled":false,"rental_uris":{"android":"levelo://app?vid=3444053c-9b78-40b6-b7e5-b021dc04c8c1","ios":"levelo://app?vid=3444053c-9b78-40b6-b7e5-b021dc04c8c1"},"vehicle_type_id":"4","last_reported":1737724481,"current_range_meters":36400,"station_id":"ce4bh412rcd13ifvqdr0","pricing_plan_id":"cebpf4jnsgd1na2vs0mg"},{"bike_id":"d04f7cea-c0f0-4bfc-a0c7-6e2585e0e91a","system_id":"levelo_inurba_marseille","lat":43.28677,"lon":5.39344,"is_reserved":false,"is_disabled":false,"rental_uris":{"android":"levelo://app?vid=d04f7cea-c0f0-4bfc-a0c7-6e2585e0e91a","ios":"levelo://app?vid=d04f7cea-c0f0-4bfc-a0c7-6e2585e0e91a"},"vehicle_type_id":"4","last_reported":1737724481,"current_range_meters":36400,"station_id":"","pricing_plan_id":"cebpf4jnsgd1na2vs0mg"},{"bike_id":"8d6c105b-a979-4d49-9ed9-36a139435b82","system_id":"levelo_inurba_marseille","lat":43.29801,"lon":5.38096,"is_reserved":false,"is_disabled":false,"rental_uris":{"android":"levelo://app?vid=8d6c105b-a979-4d49-9ed9-36a139435b82","ios":"levelo://app?vid=8d6c105b-a979-4d49-9ed9-36a139435b82"},"vehicle_type_id":"4","last_reported":1737724481,"current_range_meters":6800,"station_id":"ce4bgip2rcd13ifvqbb0","pricing_plan_id":"cebpf4jnsgd1na2vs0mg"},{"bike_id":"421d447e-f137-48f8-b50a-3cef6ba73d00","system_id":"levelo_inurba_marseille","lat":43.32362,"lon":5.36763,"is_reserved":false,"is_disabled":false,"rental_uris":{"android":"levelo://app?vid=421d447e-f137-48f8-b50a-3cef6ba73d00","ios":"levelo://app?vid=421d447e-f137-48f8-b50a-3cef6ba73d00"},"vehicle_type_id":"4","last_reported":1737724481,"current_range_meters":9600,"station_id":"ce4bhsh2rcd13ifvqi2g","pricing_plan_id":"cebpf4jnsgd1na2vs0mg"},{"bike_id":"816285b9-576b-4f8d-9307-04455007c47f","system_id":"levelo_inurba_marseille","lat":43.28933,"lon":5.36399,"is_reserved":false,"is_disabled":false,"rental_uris":{"android":"levelo://app?vid=816285b9-576b-4f8d-9307-04455007c47f","ios":"levelo://app?vid=816285b9-576b-4f8d-9307-04455007c47f"},"vehicle_type_id":"4","last_reported":1737724481,"current_range_meters":3200,"station_id":"ce4bhc92rcd13ifvqetg","pricing_plan_id":"cebpf4jnsgd1na2vs0mg"},{"bike_id":"5a362b09-4c79-42c9-950b-77c8a3146560","system_id":"levelo_inurba_marseille","lat":43.30199,"lon":5.36628,"is_reserved":false,"is_disabled":false,"rental_uris":{"android":"levelo://app?vid=5a362b09-4c79-42c9-950b-77c8a3146560","ios":"levelo://app?vid=5a362b09-4c79-42c9-950b-77c8a3146560"},"vehicle_type_id":"4","last_reported":1737724481,"current_range_meters":27600,"station_id":"ce4bgrh2rcd13ifvqc8g","pricing_plan_id":"cebpf4jnsgd1na2vs0mg"},{"bike_id":"56267fab-8f5a-4c8f-ab88-03578dbedfec","system_id":"levelo_inurba_marseille","lat":43.24164,"lon":5.39744,"is_reserved":false,"is_disabled":false,"rental_uris":{"android":"levelo://app?vid=56267fab-8f5a-4c8f-ab88-03578dbedfec","ios":"levelo://app?vid=56267fab-8f5a-4c8f-ab88-03578dbedfec"},"vehicle_type_id":"4","last_reported":1737724481,"current_range_meters":18800,"station_id":"ce4bhn12rcd13ifvqgpg","pricing_plan_id":"cebpf4jnsgd1na2vs0mg"},{"bike_id":"b87e15a9-7854-4ef9-b19f-acb2282c8bbc","system_id":"levelo_inurba_marseille","lat":43.289373,"lon":5.366357,"is_reserved":false,"is_disabled":false,"rental_uris":{"android":"levelo://app?vid=b87e15a9-7854-4ef9-b19f-acb2282c8bbc","ios":"levelo://app?vid=b87e15a9-7854-4ef9-b19f-acb2282c8bbc"},"vehicle_type_id":"4","last_reported":1737724481,"current_range_meters":32400,"station_id":"ce4bhap2rcd13ifvqek0","pricing_plan_id":"cebpf4jnsgd1na2vs0mg"},{"bike_id":"75495e7c-20bd-4569-84c6-35df34ab244d","system_id":"levelo_inurba_marseille","lat":43.29893,"lon":5.43667,"is_reserved":false,"is_disabled":true,"rental_uris":{"android":"levelo://app?vid=75495e7c-20bd-4569-84c6-35df34ab244d","ios":"levelo://app?vid=75495e7c-20bd-4569-84c6-35df34ab244d"},"vehicle_type_id":"4","last_reported":1737724481,"current_range_meters":0,"station_id":"ce4bhpp2rcd13ifvqhfg","pricing_plan_id":"cebpf4jnsgd1na2vs0mg"},{"bike_id":"504c6de4-294f-4a27-a0ad-f24fa453ed39","system_id":"levelo_inurba_marseille","lat":43.30143,"lon":5.39845,"is_reserved":false,"is_disabled":false,"rental_uris":{"android":"levelo://app?vid=504c6de4-294f-4a27-a0ad-f24fa453ed39","ios":"levelo://app?vid=504c6de4-294f-4a27-a0ad-f24fa453ed39"},"vehicle_type_id":"4","last_reported":1737724481,"current_range_meters":34000,"station_id":"ce4bh0h2rcd13ifvqd40","pricing_plan_id":"cebpf4jnsgd1na2vs0mg"},{"bike_id":"2693e099-578a-4462-b03c-cb6a658dc0f3","system_id":"levelo_inurba_marseille","lat":43.29903,"lon":5.43662,"is_reserved":false,"is_disabled":false,"rental_uris":{"android":"levelo://app?vid=2693e099-578a-4462-b03c-cb6a658dc0f3","ios":"levelo://app?vid=2693e099-578a-4462-b03c-cb6a658dc0f3"},"vehicle_type_id":"4","last_reported":1737724481,"current_range_meters":38800,"station_id":"ce4bhpp2rcd13ifvqhfg","pricing_plan_id":"cebpf4jnsgd1na2vs0mg"},{"bike_id":"b7f2908a-6040-48b1-be14-805ce8547e72","system_id":"levelo_inurba_marseille","lat":43.28938,"lon":5.36639,"is_reserved":false,"is_disabled":false,"rental_uris":{"android":"levelo://app?vid=b7f2908a-6040-48b1-be14-805ce8547e72","ios":"levelo://app?vid=b7f2908a-6040-48b1-be14-805ce8547e72"},"vehicle_type_id":"4","last_reported":1737724481,"current_range_meters":8400,"station_id":"ce4bhap2rcd13ifvqek0","pricing_plan_id":"cebpf4jnsgd1na2vs0mg"},{"bike_id":"0683b8fa-bf66-4a85-b23f-305b1ef8e2c5","system_id":"levelo_inurba_marseille","lat":43.29932,"lon":5.4369,"is_reserved":false,"is_disabled":true,"rental_uris":{"android":"levelo://app?vid=0683b8fa-bf66-4a85-b23f-305b1ef8e2c5","ios":"levelo://app?vid=0683b8fa-bf66-4a85-b23f-305b1ef8e2c5"},"vehicle_type_id":"4","last_reported":1737724481,"current_range_meters":1200,"station_id":"","pricing_plan_id":"cebpf4jnsgd1na2vs0mg"},{"bike_id":"7e3c1bd6-7159-4a2b-9bbd-c2724d8e2f1d","system_id":"levelo_inurba_marseille","lat":43.31351,"lon":5.36713,"is_reserved":false,"is_disabled":false,"rental_uris":{"android":"levelo://app?vid=7e3c1bd6-7159-4a2b-9bbd-c2724d8e2f1d","ios":"levelo://app?vid=7e3c1bd6-7159-4a2b-9bbd-c2724d8e2f1d"},"vehicle_type_id":"4","last_reported":1737724481,"current_range_meters":19200,"station_id":"ce4bgr92rcd13ifvqc6g","pricing_plan_id":"cebpf4jnsgd1na2vs0mg"},{"bike_id":"b6663470-0bb2-4d25-96c5-fa533bc2c675","system_id":"levelo_inurba_marseille","lat":43.33722,"lon":5.39197,"is_reserved":false,"is_disabled":false,"rental_uris":{"android":"levelo://app?vid=b6663470-0bb2-4d25-96c5-fa533bc2c675","ios":"levelo://app?vid=b6663470-0bb2-4d25-96c5-fa533bc2c675"},"vehicle_type_id":"4","last_reported":1737724481,"current_range_meters":36000,"station_id":"ce4bhr92rcd13ifvqhsg","pricing_plan_id":"cebpf4jnsgd1na2vs0mg"},{"bike_id":"b49702c0-b4c0-4a2a-b0b6-7113b4a9dba6","system_id":"levelo_inurba_marseille","lat":43.26066,"lon":5.39399,"is_reserved":false,"is_disabled":true,"rental_uris":{"android":"levelo://app?vid=b49702c0-b4c0-4a2a-b0b6-7113b4a9dba6","ios":"levelo://app?vid=b49702c0-b4c0-4a2a-b0b6-7113b4a9dba6"},"vehicle_type_id":"4","last_reported":1737724481,"current_range_meters":3600,"station_id":"ce4bhh92rcd13ifvqfj0","pricing_plan_id":"cebpf4jnsgd1na2vs0mg"},{"bike_id":"18f16f0d-edf7-470d-944c-0a0c2ccd3df8","system_id":"levelo_inurba_marseille","lat":43.29534,"lon":5.39401,"is_reserved":false,"is_disabled":true,"rental_uris":{"android":"levelo://app?vid=18f16f0d-edf7-470d-944c-0a0c2ccd3df8","ios":"levelo://app?vid=18f16f0d-edf7-470d-944c-0a0c2ccd3df8"},"vehicle_type_id":"4","last_reported":1737724481,"current_range_meters":28400,"station_id":"ce4bh292rcd13ifvqdf0","pricing_plan_id":"cebpf4jnsgd1na2vs0mg"},{"bike_id":"19291a53-13fe-4100-bf55-117dbb84ce5d","system_id":"levelo_inurba_marseille","lat":43.30149,"lon":5.37417,"is_reserved":false,"is_disabled":false,"rental_uris":{"android":"levelo://app?vid=19291a53-13fe-4100-bf55-117dbb84ce5d","ios":"levelo://app?vid=19291a53-13fe-4100-bf55-117dbb84ce5d"},"vehicle_type_id":"4","last_reported":1737724481,"current_range_meters":26000,"station_id":"ce4bgs92rcd13ifvqcc0","pricing_plan_id":"cebpf4jnsgd1na2vs0mg"},{"bike_id":"55fa9a63-1046-4c0c-8d88-973abc543598","system_id":"levelo_inurba_marseille","lat":43.24996,"lon":5.38933,"is_reserved":false,"is_disabled":false,"rental_uris":{"android":"levelo://app?vid=55fa9a63-1046-4c0c-8d88-973abc543598","ios":"levelo://app?vid=55fa9a63-1046-4c0c-8d88-973abc543598"},"vehicle_type_id":"4","last_reported":1737724481,"current_range_meters":14800,"station_id":"ce4bhgp2rcd13ifvqfd0","pricing_plan_id":"cebpf4jnsgd1na2vs0mg"},{"bike_id":"a3334257-a0ea-4252-8479-4a258f68d0d5","system_id":"levelo_inurba_marseille","lat":43.29003,"lon":5.35619,"is_reserved":false,"is_disabled":false,"rental_uris":{"android":"levelo://app?vid=a3334257-a0ea-4252-8479-4a258f68d0d5","ios":"levelo://app?vid=a3334257-a0ea-4252-8479-4a258f68d0d5"},"vehicle_type_id":"4","last_reported":1737724481,"current_range_meters":25200,"station_id":"ce4bhb92rcd13ifvqen0","pricing_plan_id":"cebpf4jnsgd1na2vs0mg"},{"bike_id":"0c31cc0e-479f-430b-91b6-7a48b7af00b9","system_id":"levelo_inurba_marseille","lat":43.31328,"lon":5.39704,"is_reserved":false,"is_disabled":false,"rental_uris":{"android":"levelo://app?vid=0c31cc0e-479f-430b-91b6-7a48b7af00b9","ios":"levelo://app?vid=0c31cc0e-479f-430b-91b6-7a48b7af00b9"},"vehicle_type_id":"4","last_reported":1737724481,"current_range_meters":36800,"station_id":"ce4bgvp2rcd13ifvqcu0","pricing_plan_id":"cebpf4jnsgd1na2vs0mg"},{"bike_id":"d9e7d026-b3d6-4d8e-8c11-1f549c3b10cd","system_id":"levelo_inurba_marseille","lat":43.29806,"lon":5.38099,"is_reserved":false,"is_disabled":false,"rental_uris":{"android":"levelo://app?vid=d9e7d026-b3d6-4d8e-8c11-1f549c3b10cd","ios":"levelo://app?vid=d9e7d026-b3d6-4d8e-8c11-1f549c3b10cd"},"vehicle_type_id":"4","last_reported":1737724481,"current_range_meters":35600,"station_id":"ce4bgip2rcd13ifvqbb0","pricing_plan_id":"cebpf4jnsgd1na2vs0mg"},{"bike_id":"f3e1e0cc-e386-4335-a525-4da71585ccf5","system_id":"levelo_inurba_marseille","lat":43.32564,"lon":5.41472,"is_reserved":false,"is_disabled":false,"rental_uris":{"android":"levelo://app?vid=f3e1e0cc-e386-4335-a525-4da71585ccf5","ios":"levelo://app?vid=f3e1e0cc-e386-4335-a525-4da71585ccf5"},"vehicle_type_id":"4","last_reported":1737724481,"current_range_meters":6400,"station_id":"ce4bhq12rcd13ifvqhhg","pricing_plan_id":"cebpf4jnsgd1na2vs0mg"},{"bike_id":"cba064fd-960d-49db-9c3e-d44224ddb378","system_id":"levelo_inurba_marseille","lat":43.30939,"lon":5.3904,"is_reserved":false,"is_disabled":false,"rental_uris":{"android":"levelo://app?vid=cba064fd-960d-49db-9c3e-d44224ddb378","ios":"levelo://app?vid=cba064fd-960d-49db-9c3e-d44224ddb378"},"vehicle_type_id":"4","last_reported":1737724481,"current_range_meters":9200,"station_id":"ce4bgup2rcd13ifvqco0","pricing_plan_id":"cebpf4jnsgd1na2vs0mg"},{"bike_id":"51b0771d-93d5-4386-8936-39724ec5b829","system_id":"levelo_inurba_marseille","lat":43.2797,"lon":5.38739,"is_reserved":false,"is_disabled":false,"rental_uris":{"android":"levelo://app?vid=51b0771d-93d5-4386-8936-39724ec5b829","ios":"levelo://app?vid=51b0771d-93d5-4386-8936-39724ec5b829"},"vehicle_type_id":"4","last_reported":1737724481,"current_range_meters":38800,"station_id":"ce4bhg12rcd13ifvqf80","pricing_plan_id":"cebpf4jnsgd1na2vs0mg"},{"bike_id":"69516ad1-668c-4504-883e-fcf74a59aa68","system_id":"levelo_inurba_marseille","lat":43.29805,"lon":5.38101,"is_reserved":false,"is_disabled":false,"rental_uris":{"android":"levelo://app?vid=69516ad1-668c-4504-883e-fcf74a59aa68","ios":"levelo://app?vid=69516ad1-668c-4504-883e-fcf74a59aa68"},"vehicle_type_id":"4","last_reported":1737724481,"current_range_meters":5600,"station_id":"ce4bgip2rcd13ifvqbb0","pricing_plan_id":"cebpf4jnsgd1na2vs0mg"},{"bike_id":"2f6b3aa7-b4b0-438a-b2e8-50cb9a2c097e","system_id":"levelo_inurba_marseille","lat":43.29576,"lon":5.37506,"is_reserved":false,"is_disabled":false,"rental_uris":{"android":"levelo://app?vid=2f6b3aa7-b4b0-438a-b2e8-50cb9a2c097e","ios":"levelo://app?vid=2f6b3aa7-b4b0-438a-b2e8-50cb9a2c097e"},"vehicle_type_id":"4","last_reported":1737724481,"current_range_meters":25200,"station_id":"ce4bgh92rcd13ifvqb50","pricing_plan_id":"cebpf4jnsgd1na2vs0mg"},{"bike_id":"0d83521e-3d92-4a9f-808d-7928e3e76837","system_id":"levelo_inurba_marseille","lat":43.28666,"lon":5.38676,"is_reserved":false,"is_disabled":false,"rental_uris":{"android":"levelo://app?vid=0d83521e-3d92-4a9f-808d-7928e3e76837","ios":"levelo://app?vid=0d83521e-3d92-4a9f-808d-7928e3e76837"},"vehicle_type_id":"4","last_reported":1737724481,"current_range_meters":19200,"station_id":"ce4bh492rcd13ifvqdug","pricing_plan_id":"cebpf4jnsgd1na2vs0mg"},{"bike_id":"ff968ece-8d85-41ea-a0b5-35944c5ee298","system_id":"levelo_inurba_marseille","lat":43.28272,"lon":5.3506,"is_reserved":false,"is_disabled":false,"rental_uris":{"android":"levelo://app?vid=ff968ece-8d85-41ea-a0b5-35944c5ee298","ios":"levelo://app?vid=ff968ece-8d85-41ea-a0b5-35944c5ee298"},"vehicle_type_id":"4","last_reported":1737724481,"current_range_meters":22400,"station_id":"ce4bhbp2rcd13ifvqerg","pricing_plan_id":"cebpf4jnsgd1na2vs0mg"},{"bike_id":"008ddec0-9652-4869-bb3b-b61e7706320b","system_id":"levelo_inurba_marseille","lat":43.2991,"lon":5.37477,"is_reserved":false,"is_disabled":false,"rental_uris":{"android":"levelo://app?vid=008ddec0-9652-4869-bb3b-b61e7706320b","ios":"levelo://app?vid=008ddec0-9652-4869-bb3b-b61e7706320b"},"vehicle_type_id":"4","last_reported":1737724481,"current_range_meters":16400,"station_id":"ce4bgjh2rcd13ifvqbg0","pricing_plan_id":"cebpf4jnsgd1na2vs0mg"},