{"last_updated":1718917633,"ttl":30,"version":"2.2","data":{"bikes":[{"bike_id":"494364cb-a2f6-4f53-9687-0ddc08169f08","system_id":"levelo_inurba_marseille","lat":43.31341,"lon":5.367098,"is_reserved":false,"is_disabled":false,"rental_uris":{"android":"levelo://app?vid=494364cb-a2f6-4f53-9687-0ddc08169f08","ios":"levelo://app?vid=494364cb-a2f6-4f53-9687-0ddc08169f08"},"vehicle_type_id":"4","last_reported":1718917633,"current_range_meters":6800,"station_id":"ce4bgr92rcd13ifvqc6g","pricing_plan_id":"cebpf4jnsgd1na2vs0mg"},{"bike_id":"c8d810fd-24de-43f0-a67b-57fd446ab090","system_id":"levelo_inurba_marseille","lat":43.312239,"lon":5.368562,"is_reserved":false,"is_disabled":false,"rental_uris":{"android":"levelo://app?vid=c8d810fd-24de-43f0-a67b-57fd446ab090","ios":"levelo://app?vid=c8d810fd-24de-43f0-a67b-57fd446ab090"},"vehicle_type_id":"4","last_reported":1718917633,"current_range_meters":17600,"station_id":"ce4bgl92rcd13ifvqbq0","pricing_plan_id":"cebpf4jnsgd1na2vs0mg"},{"bike_id":"ca17e23d-e9c9-4c35-bd7e-80ec9cefe68a","system_id":"levelo_inurba_marseille","lat":43.314811,"lon":5.373103,"is_reserved":false,"is_disabled":false,"rental_uris":{"android":"levelo://app?vid=ca17e23d-e9c9-4c35-bd7e-80ec9cefe68a","ios":"levelo://app?vid=ca17e23d-e9c9-4c35-bd7e-80ec9cefe68a"},"vehicle_type_id":"4","last_reported":1718917633,"current_range_meters":0,"station_id":"ce4bgt12rcd13ifvqcd0","pricing_plan_id":"cebpf4jnsgd1na2vs0mg"},{"bike_id":"800d5c65-8034-41e2-a115-0ba3c4598f70","system_id":"levelo_inurba_marseille","lat":43.314811,"lon":5.373103,"is_reserved":false,"is_disabled":false,"rental_uris":{"android":"levelo://app?vid=800d5c65-8034-41e2-a115-0ba3c4598f70","ios":"levelo://app?vid=800d5c65-8034-41e2-a115-0ba3c4598f70"},"vehicle_type_id":"4","last_reported":1718917633,"current_range_meters":18000,"station_id":"ce4bgt12rcd13ifvqcd0","pricing_plan_id":"cebpf4jnsgd1na2vs0mg"},{"bike_id":"83e83c36-0fc2-445b-84fb-81bd00510e72","system_id":"levelo_inurba_marseille","lat":43.314811,"lon":5.373103,"is_reserved":false,"is_disabled":false,"rental_uris":{"android":"levelo://app?vid=83e83c36-0fc2-445b-84fb-81bd00510e72","ios":"levelo://app?vid=83e83c36-0fc2-445b-84fb-81bd00510e72"},"vehicle_type_id":"4","last_reported":1718917633,"current_range_meters":5600,"station_id":"ce4bgt12rcd13ifvqcd0","pricing_plan_id":"cebpf4jnsgd1na2vs0mg"},{"bike_id":"769a15a4-3602-4d0c-b76b-63a5f4227d03","system_id":"levelo_inurba_marseille","lat":43.314811,"lon":5.373104,"is_reserved":false,"is_disabled":false,"rental_uris":{"android":"levelo://app?vid=769a15a4-3602-4d0c-b76b-63a5f4227d03","ios":"levelo://app?vid=769a15a4-3602-4d0c-b76b-63a5f4227d03"},"vehicle_type_id":"4","last_reported":1718917633,"current_range_meters":9200,"station_id":"ce4bgt12rcd13ifvqcd0","pricing_plan_id":"cebpf4jnsgd1na2vs0mg"},{"bike_id":"b12d78f7-b15d-476d-9ca3-8b842c6e827a","system_id":"levelo_inurba_marseille","lat":43.309039,"lon":5.371797,"is_reserved":false,"is_disabled":false,"rental_uris":{"android":"levelo://app?vid=b12d78f7-b15d-476d-9ca3-8b842c6e827a","ios":"levelo://app?vid=b12d78f7-b15d-476d-9ca3-8b842c6e827a"},"vehicle_type_id":"4","last_reported":1718917633,"current_range_meters":4800,"station_id":"ce4bguh2rcd13ifvqckg","pricing_plan_id":"cebpf4jnsgd1na2vs0mg"},{"bike_id":"69b90dce-c630-45c9-bb68-bcd15cf6968b","system_id":"levelo_inurba_marseille","lat":43.30882,"lon":5.37186,"is_reserved":false,"is_disabled":false,"rental_uris":{"android":"levelo://app?vid=69b90dce-c630-45c9-bb68-bcd15cf6968b","ios":"levelo://app?vid=69b90dce-c630-45c9-bb68-bcd15cf6968b"},"vehicle_type_id":"4","last_reported":1718917633,"current_range_meters":31200,"station_id":"","pricing_plan_id":"cebpf4jnsgd1na2vs0mg"},{"bike_id":"4ee88671-9b80-401d-87a2-2ac167b7ebb3","system_id":"levelo_inurba_marseille","lat":43.309034,"lon":5.371783,"is_reserved":false,"is_disabled":false,"rental_uris":{"android":"levelo://app?vid=4ee88671-9b80-401d-87a2-2ac167b7ebb3","ios":"levelo://app?vid=4ee88671-9b80-401d-87a2-2ac167b7ebb3"},"vehicle_type_id":"4","last_reported":1718917633,"current_range_meters":10400,"station_id":"ce4bguh2rcd13ifvqckg","pricing_plan_id":"cebpf4jnsgd1na2vs0mg"},{"bike_id":"9f343050-7df0-4de3-9996-a3657976266e","system_id":"levelo_inurba_marseille","lat":43.316906,"lon":5.372806,"is_reserved":false,"is_disabled":false,"rental_uris":{"android":"levelo://app?vid=9f343050-7df0-4de3-9996-a3657976266e","ios":"levelo://app?vid=9f343050-7df0-4de3-9996-a3657976266e"},"vehicle_type_id":"4","last_reported":1718917633,"current_range_meters":24400,"station_id":"","pricing_plan_id":"cebpf4jnsgd1na2vs0mg"},{"bike_id":"72631adc-b327-4e67-8867-96e32eba49f1","system_id":"levelo_inurba_marseille","lat":43.30537,"lon":5.367345,"is_reserved":false,"is_disabled":false,"rental_uris":{"android":"levelo://app?vid=72631adc-b327-4e67-8867-96e32eba49f1","ios":"levelo://app?vid=72631adc-b327-4e67-8867-96e32eba49f1"},"vehicle_type_id":"4","last_reported":1718917633,"current_range_meters":22400,"station_id":"ce4bgrp2rcd13ifvqc9g","pricing_plan_id":"cebpf4jnsgd1na2vs0mg"},{"bike_id":"d95ed3f7-4f66-43a5-b342-64a5c6ad9c56","system_id":"levelo_inurba_marseille","lat":43.305304,"lon":5.366974,"is_reserved":false,"is_disabled":false,"rental_uris":{"android":"levelo://app?vid=d95ed3f7-4f66-43a5-b342-64a5c6ad9c56","ios":"levelo://app?vid=d95ed3f7-4f66-43a5-b342-64a5c6ad9c56"},"vehicle_type_id":"4","last_reported":1718917633,"current_range_meters":0,"station_id":"ce4bgrp2rcd13ifvqc9g","pricing_plan_id":"cebpf4jnsgd1na2vs0mg"},{"bike_id":"7dd66e75-4fa5-4541-8480-48e10a0a213a","system_id":"levelo_inurba_marseille","lat":43.305706,"lon":5.365654,"is_reserved":false,"is_disabled":false,"rental_uris":{"android":"levelo://app?vid=7dd66e75-4fa5-4541-8480-48e10a0a213a","ios":"levelo://app?vid=7dd66e75-4fa5-4541-8480-48e10a0a213a"},"vehicle_type_id":"4","last_reported":1718917633,"current_range_meters":6800,"station_id":"ce4bgs12rcd13ifvqcag","pricing_plan_id":"cebpf4jnsgd1na2vs0mg"},{"bike_id":"3dcaab0d-1a85-43bd-9822-bf0d996ccce2","system_id":"levelo_inurba_marseille","lat":43.305989,"lon":5.37225,"is_reserved":false,"is_disabled":false,"rental_uris":{"android":"levelo://app?vid=3dcaab0d-1a85-43bd-9822-bf0d996ccce2","ios":"levelo://app?vid=3dcaab0d-1a85-43bd-9822-bf0d996ccce2"},"vehicle_type_id":"4","last_reported":1718917633,"current_range_meters":9600,"station_id":"ce4bgqh2rcd13ifvqc4g","pricing_plan_id":"cebpf4jnsgd1na2vs0mg"},{"bike_id":"8c1b9240-0f1f-408c-a7cf-15a838fb7e6d","system_id":"levelo_inurba_marseille","lat":43.305989,"lon":5.37225,"is_reserved":false,"is_disabled":false,"rental_uris":{"android":"levelo://app?vid=8c1b9240-0f1f-408c-a7cf-15a838fb7e6d","ios":"levelo://app?vid=8c1b9240-0f1f-408c-a7cf-15a838fb7e6d"},"vehicle_type_id":"4","last_reported":1718917633,"current_range_meters":31200,"station_id":"ce4bgqh2rcd13ifvqc4g","pricing_plan_id":"cebpf4jnsgd1na2vs0mg"},{"bike_id":"c9c0bc13-0ac0-47c7-8521-ba60503093e8","system_id":"levelo_inurba_marseille","lat":43.305989,"lon":5.37225,"is_reserved":false,"is_disabled":false,"rental_uris":{"android":"levelo://app?vid=c9c0bc13-0ac0-47c7-8521-ba60503093e8","ios":"levelo://app?vid=c9c0bc13-0ac0-47c7-8521-ba60503093e8"},"vehicle_type_id":"4","last_reported":1718917633,"current_range_meters":29600,"station_id":"ce4bgqh2rcd13ifvqc4g","pricing_plan_id":"cebpf4jnsgd1na2vs0mg"},{"bike_id":"9c4803c8-6863-4747-84f6-d12d5328ccb3","system_id":"levelo_inurba_marseille","lat":43.311125,"lon":5.377624,"is_reserved":false,"is_disabled":false,"rental_uris":{"android":"levelo://app?vid=9c4803c8-6863-4747-84f6-d12d5328ccb3","ios":"levelo://app?vid=9c4803c8-6863-4747-84f6-d12d5328ccb3"},"vehicle_type_id":"4","last_reported":1718917633,"current_range_meters":5600,"station_id":"ce4bgt92rcd13ifvqcg0","pricing_plan_id":"cebpf4jnsgd1na2vs0mg"},{"bike_id":"98654416-a4f9-4ab5-bb3c-04f500814227","system_id":"levelo_inurba_marseille","lat":43.311252,"lon":5.377684,"is_reserved":false,"is_disabled":false,"rental_uris":{"android":"levelo://app?vid=98654416-a4f9-4ab5-bb3c-04f500814227","ios":"levelo://app?vid=98654416-a4f9-4ab5-bb3c-04f500814227"},"vehicle_type_id":"4","last_reported":1718917633,"current_range_meters":0,"station_id":"ce4bgt92rcd13ifvqcg0","pricing_plan_id":"cebpf4jnsgd1na2vs0mg"},{"bike_id":"df421ce9-6413-434f-a8c2-fdf23411855d","system_id":"levelo_inurba_marseille","lat":43.307945,"lon":5.376487,"is_reserved":false,"is_disabled":false,"rental_uris":{"android":"levelo://app?vid=df421ce9-6413-434f-a8c2-fdf23411855d","ios":"levelo://app?vid=df421ce9-6413-434f-a8c2-fdf23411855d"},"vehicle_type_id":"4","last_reported":1718917633,"current_range_meters":400,"station_id":"ce4bgv92rcd13ifvqcq0","pricing_plan_id":"cebpf4jnsgd1na2vs0mg"},{"bike_id":"9bfe0f78-e249-4239-8381-128eff593fe3","system_id":"levelo_inurba_marseille","lat":43.307945,"lon":5.376487,"is_reserved":false,"is_disabled":false,"rental_uris":{"android":"levelo://app?vid=9bfe0f78-e249-4239-8381-128eff593fe3","ios":"levelo://app?vid=9bfe0f78-e249-4239-8381-128eff593fe3"},"vehicle_type_id":"4","last_reported":1718917633,"current_range_meters":800,"station_id":"ce4bgv92rcd13ifvqcq0","pricing_plan_id":"cebpf4jnsgd1na2vs0mg"},{"bike_id":"a9bc289e-98c6-401c-814b-d1d9fbe01c4e","system_id":"levelo_inurba_marseille","lat":43.3078,"lon":5.37655,"is_reserved":false,"is_disabled":false,"rental_uris":{"android":"levelo://app?vid=a9bc289e-98c6-401c-814b-d1d9fbe01c4e","ios":"levelo://app?vid=a9bc289e-98c6-401c-814b-d1d9fbe01c4e"},"vehicle_type_id":"4","last_reported":1718917633,"current_range_meters":19200,"station_id":"","pricing_plan_id":"cebpf4jnsgd1na2vs0mg"},{"bike_id":"dba496f7-6a33-4972-a2c9-0a102948bb3b","system_id":"levelo_inurba_marseille","lat":43.307945,"lon":5.376487,"is_reserved":false,"is_disabled":false,"rental_uris":{"android":"levelo://app?vid=dba496f7-6a33-4972-a2c9-0a102948bb3b","ios":"levelo://app?vid=dba496f7-6a33-4972-a2c9-0a102948bb3b"},"vehicle_type_id":"4","last_reported":1718917633,"current_range_meters":31600,"station_id":"ce4bgv92rcd13ifvqcq0","pricing_plan_id":"cebpf4jnsgd1na2vs0mg"},{"bike_id":"88c1c68d-e1cf-4289-98b5-7d1e019d488c","system_id":"levelo_inurba_marseille","lat":43.317075,"lon":5.377367,"is_reserved":false,"is_disabled":false,"rental_uris":{"android":"levelo://app?vid=88c1c68d-e1cf-4289-98b5-7d1e019d488c","ios":"levelo://app?vid=88c1c68d-e1cf-4289-98b5-7d1e019d488c"},"vehicle_type_id":"4","last_reported":1718917633,"current_range_meters":7200,"station_id":"ce4bgth2rcd13ifvqch0","pricing_plan_id":"cebpf4jnsgd1na2vs0mg"},{"bike_id":"3119dbaa-35ee-4b95-8c6b-ff94d16c2e3c","system_id":"levelo_inurba_marseille","lat":43.317075,"lon":5.377367,"is_reserved":false,"is_disabled":false,"rental_uris":{"android":"levelo://app?vid=3119dbaa-35ee-4b95-8c6b-ff94d16c2e3c","ios":"levelo://app?vid=3119dbaa-35ee-4b95-8c6b-ff94d16c2e3c"},"vehicle_type_id":"4","last_reported":1718917633,"current_range_meters":8000,"station_id":"ce4bgth2rcd13ifvqch0","pricing_plan_id":"cebpf4jnsgd1na2vs0mg"},{"bike_id":"d3d198f2-5da1-45cd-9428-63c2fbabb694","system_id":"levelo_inurba_marseille","lat":43.317075,"lon":5.377367,"is_reserved":false,"is_disabled":false,"rental_uris":{"android":"levelo://app?vid=d3d198f2-5da1-45cd-9428-63c2fbabb694","ios":"levelo://app?vid=d3d198f2-5da1-45cd-9428-63c2fbabb694"},"vehicle_type_id":"4","last_reported":1718917633,"current_range_meters":23600,"station_id":"ce4bgth2rcd13ifvqch0","pricing_plan_id":"cebpf4jnsgd1na2vs0mg"},{"bike_id":"2c7c94fd-726c-404e-9c3a-d59a9bcacb35","system_id":"levelo_inurba_marseille","lat":43.3157,"lon":5.38005,"is_reserved":false,"is_disabled":false,"rental_uris":{"android":"levelo://app?vid=2c7c94fd-726c-404e-9c3a-d59a9bcacb35","ios":"levelo://app?vid=2c7c94fd-726c-404e-9c3a-d59a9bcacb35"},"vehicle_type_id":"4","last_reported":1718917633,"current_range_meters":25200,"station_id":"","pricing_plan_id":"cebpf4jnsgd1na2vs0mg"},{"bike_id":"22b3dbde-496a-4157-bd1a-ddf8a6b5c649","system_id":"levelo_inurba_marseille","lat":43.3156,"lon":5.38011,"is_reserved":false,"is_disabled":false,"rental_uris":{"android":"levelo://app?vid=22b3dbde-496a-4157-bd1a-ddf8a6b5c649","ios":"levelo://app?vid=22b3dbde-496a-4157-bd1a-ddf8a6b5c649"},"vehicle_type_id":"4","last_reported":1718917633,"current_range_meters":2400,"station_id":"ce4bhsp2rcd13ifvqi50","pricing_plan_id":"cebpf4jnsgd1na2vs0mg"},{"bike_id":"806a4145-947f-47ba-b6c0-556776295ebc","system_id":"levelo_inurba_marseille","lat":43.315289,"lon":5.380349,"is_reserved":false,"is_disabled":false,"rental_uris":{"android":"levelo://app?vid=806a4145-947f-47ba-b6c0-556776295ebc","ios":"levelo://app?vid=806a4145-947f-47ba-b6c0-556776295ebc"},"vehicle_type_id":"4","last_reported":1718917633,"current_range_meters":4000,"station_id":"ce4bhsp2rcd13ifvqi50","pricing_plan_id":"cebpf4jnsgd1na2vs0mg"},{"bike_id":"b51bd151-e486-4ff8-9148-53722473931d","system_id":"levelo_inurba_marseille","lat":43.30928,"lon":5.38,"is_reserved":false,"is_disabled":false,"rental_uris":{"android":"levelo://app?vid=b51bd151-e486-4ff8-9148-53722473931d","ios":"levelo://app?vid=b51bd151-e486-4ff8-9148-53722473931d"},"vehicle_type_id":"4","last_reported":1718917633,"current_range_meters":6800,"station_id":"","pricing_plan_id":"cebpf4jnsgd1na2vs0mg"},{"bike_id":"d09437a8-7dfd-43e4-8616-bbaf218eb373","system_id":"levelo_inurba_marseille","lat":43.301939,"lon":5.366286,"is_reserved":false,"is_disabled":false,"rental_uris":{"android":"levelo://app?vid=d09437a8-7dfd-43e4-8616-bbaf218eb373","ios":"levelo://app?vid=d09437a8-7dfd-43e4-8616-bbaf218eb373"},"vehicle_type_id":"4","last_reported":1718917633,"current_range_meters":0,"station_id":"ce4bgrh2rcd13ifvqc8g","pricing_plan_id":"cebpf4jnsgd1na2vs0mg"},{"bike_id":"2ea030ff-54e4-4e61-852c-e17caefd6d4c","system_id":"levelo_inurba_marseille","lat":43.30192,"lon":5.36606,"is_reserved":false,"is_disabled":false,"rental_uris":{"android":"levelo://app?vid=2ea030ff-54e4-4e61-852c-e17caefd6d4c","ios":"levelo://app?vid=2ea030ff-54e4-4e61-852c-e17caefd6d4c"},"vehicle_type_id":"4","last_reported":1718917633,"current_range_meters":29600,"station_id":"ce4bgrh2rcd13ifvqc8g","pricing_plan_id":"cebpf4jnsgd1na2vs0mg"},{"bike_id":"7dd4dc81-12d2-4e46-99b4-556a19d87e8d","system_id":"levelo_inurba_marseille","lat":43.301939,"lon":5.366286,"is_reserved":false,"is_disabled":false,"rental_uris":{"android":"levelo://app?vid=7dd4dc81-12d2-4e46-99b4-556a19d87e8d","ios":"levelo://app?vid=7dd4dc81-12d2-4e46-99b4-556a19d87e8d"},"vehicle_type_id":"4","last_reported":1718917633,"current_range_meters":16400,"station_id":"ce4bgrh2rcd13ifvqc8g","pricing_plan_id":"cebpf4jnsgd1na2vs0mg"},{"bike_id":"349e3b6e-98e7-4c47-8f04-7c13db32f0b3","system_id":"levelo_inurba_marseille","lat":43.301939,"lon":5.366286,"is_reserved":false,"is_disabled":false,"rental_uris":{"android":"levelo://app?vid=349e3b6e-98e7-4c47-8f04-7c13db32f0b3","ios":"levelo://app?vid=349e3b6e-98e7-4c47-8f04-7c13db32f0b3"},"vehicle_type_id":"4","last_reported":1718917633,"current_range_meters":28000,"station_id":"ce4bgrh2rcd13ifvqc8g","pricing_plan_id":"cebpf4jnsgd1na2vs0mg"},{"bike_id":"cc888e80-6249-476b-8331-72df87fcbe05","system_id":"levelo_inurba_marseille","lat":43.308012,"lon":5.381511,"is_reserved":false,"is_disabled":false,"rental_uris":{"android":"levelo://app?vid=cc888e80-6249-476b-8331-72df87fcbe05","ios":"levelo://app?vid=cc888e80-6249-476b-8331-72df87fcbe05"},"vehicle_type_id":"4","last_reported":1718917633,"current_range_meters":17600,"station_id":"ce4bgt12rcd13ifvqce0","pricing_plan_id":"cebpf4jnsgd1na2vs0mg"},{"bike_id":"a45255d1-7df2-413d-8e10-28c5df183fd2","system_id":"levelo_inurba_marseille","lat":43.308012,"lon":5.381511,"is_reserved":false,"is_disabled":false,"rental_uris":{"android":"levelo://app?vid=a45255d1-7df2-413d-8e10-28c5df183fd2","ios":"levelo://app?vid=a45255d1-7df2-413d-8e10-28c5df183fd2"},"vehicle_type_id":"4","last_reported":1718917633,"current_range_meters":17200,"station_id":"ce4bgt12rcd13ifvqce0","pricing_plan_id":"cebpf4jnsgd1na2vs0mg"},{"bike_id":"1437fc1f-6165-4387-afaa-197ffa08e1bf","system_id":"levelo_inurba_marseille","lat":43.308012,"lon":5.381511,"is_reserved":false,"is_disabled":false,"rental_uris":{"android":"levelo://app?vid=1437fc1f-6165-4387-afaa-197ffa08e1bf","ios":"levelo://app?vid=1437fc1f-6165-4387-afaa-197ffa08e1bf"},"vehicle_type_id":"4","last_reported":1718917633,"current_range_meters":20000,"station_id":"ce4bgt12rcd13ifvqce0","pricing_plan_id":"cebpf4jnsgd1na2vs0mg"},{"bike_id":"33d0abf7-d5ad-4b52-a0c4-0cbdb2f03d1a","system_id":"levelo_inurba_marseille","lat":43.324771,"lon":5.36557,"is_reserved":false,"is_disabled":false,"rental_uris":{"android":"levelo://app?vid=33d0abf7-d5ad-4b52-a0c4-0cbdb2f03d1a","ios":"levelo://app?vid=33d0abf7-d5ad-4b52-a0c4-0cbdb2f03d1a"},"vehicle_type_id":"4","last_reported":1718917633,"current_range_meters":5200,"station_id":"ce4bhs12rcd13ifvqhvg","pricing_plan_id":"cebpf4jnsgd1na2vs0mg"},{"bike_id":"3847e38c-07cb-4a91-b5bf-40bb22bd76ae","system_id":"levelo_inurba_marseille","lat":43.324826,"lon":5.366905,"is_reserved":false,"is_disabled":false,"rental_uris":{"android":"levelo://app?vid=3847e38c-07cb-4a91-b5bf-40bb22bd76ae","ios":"levelo://app?vid=3847e38c-07cb-4a91-b5bf-40bb22bd76ae"},"vehicle_type_id":"4","last_reported":1718917633,"current_range_meters":24400,"station_id":"","pricing_plan_id":"cebpf4jnsgd1na2vs0mg"},{"bike_id":"3d3be425-8b2a-403b-be0d-a88f90fdca44","system_id":"levelo_inurba_marseille","lat":43.324771,"lon":5.36557,"is_reserved":false,"is_disabled":false,"rental_uris":{"android":"levelo://app?vid=3d3be425-8b2a-403b-be0d-a88f90fdca44","ios":"levelo://app?vid=3d3be425-8b2a-403b-be0d-a88f90fdca44"},"vehicle_type_id":"4","last_reported":1718917633,"current_range_meters":7600,"station_id":"ce4bhs12rcd13ifvqhvg","pricing_plan_id":"cebpf4jnsgd1na2vs0mg"},{"bike_id":"f1df7c7d-5282-4d0a-9566-19734c560016","system_id":"levelo_inurba_marseille","lat":43.324771,"lon":5.36557,"is_reserved":false,"is_disabled":false,"rental_uris":{"android":"levelo://app?vid=f1df7c7d-5282-4d0a-9566-19734c560016","ios":"levelo://app?vid=f1df7c7d-5282-4d0a-9566-19734c560016"},"vehicle_type_id":"4","last_reported":1718917633,"current_range_meters":23200,"station_id":"ce4bhs12rcd13ifvqhvg","pricing_plan_id":"cebpf4jnsgd1na2vs0mg"},{"bike_id":"2e4eedb6-9f53-4953-9163-a76b1ba2d868","system_id":"levelo_inurba_marseille","lat":43.324771,"lon":5.36557,"is_reserved":false,"is_disabled":false,"rental_uris":{"android":"levelo://app?vid=2e4eedb6-9f53-4953-9163-a76b1ba2d868","ios":"levelo://app?vid=2e4eedb6-9f53-4953-9163-a76b1ba2d868"},"vehicle_type_id":"4","last_reported":1718917633,"current_range_meters":18000,"station_id":"ce4bhs12rcd13ifvqhvg","pricing_plan_id":"cebpf4jnsgd1na2vs0mg"},{"bike_id":"148ceb2c-a3f0-4524-8ab6-093fb6312bff","system_id":"levelo_inurba_marseille","lat":43.310804,"lon":5.38359,"is_reserved":false,"is_disabled":false,"rental_uris":{"android":"levelo://app?vid=148ceb2c-a3f0-4524-8ab6-093fb6312bff","ios":"levelo://app?vid=148ceb2c-a3f0-4524-8ab6-093fb6312bff"},"vehicle_type_id":"4","last_reported":1718917633,"current_range_meters":16800,"station_id":"ce4bgv92rcd13ifvqcr0","pricing_plan_id":"cebpf4jnsgd1na2vs0mg"},{"bike_id":"db38d731-673b-4ff1-9894-d9d4525232c9","system_id":"levelo_inurba_marseille","lat":43.310804,"lon":5.38359,"is_reserved":false,"is_disabled":false,"rental_uris":{"android":"levelo://app?vid=db38d731-673b-4ff1-9894-d9d4525232c9","ios":"levelo://app?vid=db38d731-673b-4ff1-9894-d9d4525232c9"},"vehicle_type_id":"4","last_reported":1718917633,"current_range_meters":26400,"station_id":"ce4bgv92rcd13ifvqcr0","pricing_plan_id":"cebpf4jnsgd1na2vs0mg"},{"bike_id":"f7b53347-f4ab-41b0-be40-5fe775cc60cd","system_id":"levelo_inurba_marseille","lat":43.308012,"lon":5.381511,"is_reserved":false,"is_disabled":false,"rental_uris":{"android":"levelo://app?vid=f7b53347-f4ab-41b0-be40-5fe775cc60cd","ios":"levelo://app?vid=f7b53347-f4ab-41b0-be40-5fe775cc60cd"},"vehicle_type_id":"4","last_reported":1718917633,"current_range_meters":1600,"station_id":"ce4bgt12rcd13ifvqce0","pricing_plan_id":"cebpf4jnsgd1na2vs0mg"},{"bike_id":"9fd5b32b-c103-463f-beda-4f46c7d98495","system_id":"levelo_inurba_marseille","lat":43.310804,"lon":5.38359,"is_reserved":false,"is_disabled":false,"rental_uris":{"android":"levelo://app?vid=9fd5b32b-c103-463f-beda-4f46c7d98495","ios":"levelo://app?vid=9fd5b32b-c103-463f-beda-4f46c7d98495"},"vehicle_type_id":"4","last_reported":1718917633,"current_range_meters":5200,"station_id":"ce4bgv92rcd13ifvqcr0","pricing_plan_id":"cebpf4jnsgd1na2vs0mg"},{"bike_id":"e3a35b89-7049-4345-be83-76deedd5707e","system_id":"levelo_inurba_marseille","lat":43.310804,"lon":5.38359,"is_reserved":false,"is_disabled":false,"rental_uris":{"android":"levelo://app?vid=e3a35b89-7049-4345-be83-76deedd5707e","ios":"levelo://app?vid=e3a35b89-7049-4345-be83-76deedd5707e"},"vehicle_type_id":"4","last_reported":1718917633,"current_range_meters":12800,"station_id":"ce4bgv92rcd13ifvqcr0","pricing_plan_id":"cebpf4jnsgd1na2vs0mg"},{"bike_id":"a9a2b211-c435-422a-9434-1fe708449dda","system_id":"levelo_inurba_marseille","lat":43.310804,"lon":5.38359,"is_reserved":false,"is_disabled":false,"rental_uris":{"android":"levelo://app?vid=a9a2b211-c435-422a-9434-1fe708449dda","ios":"levelo://app?vid=a9a2b211-c435-422a-9434-1fe708449dda"},"vehicle_type_id":"4","last_reported":1718917633,"current_range_meters":26800,"station_id":"ce4bgv92rcd13ifvqcr0","pricing_plan_id":"cebpf4jnsgd1na2vs0mg"},{"bike_id":"b5c32e22-dcec-4475-81de-836419b8bb35","system_id":"levelo_inurba_marseille","lat":43.310804,"lon":5.38359,"is_reserved":false,"is_disabled":false,"rental_uris":{"android":"levelo://app?vid=b5c32e22-dcec-4475-81de-836419b8bb35","ios":"levelo://app?vid=b5c32e22-dcec-4475-81de-836419b8bb35"},"vehicle_type_id":"4","last_reported":1718917633,"current_range_meters":0,"station_id":"ce4bgv92rcd13ifvqcr0","pricing_plan_id":"cebpf4jnsgd1na2vs0mg"},{"bike_id":"aaf6b731-0c4f-4225-a161-1f0641b0c756","system_id":"levelo_inurba_marseille","lat":43.31072,"lon":5.38357,"is_reserved":false,"is_disabled":false,"rental_uris":{"android":"levelo://app?vid=aaf6b731-0c4f-4225-a161-1f0641b0c756","ios":"levelo://app?vid=aaf6b731-0c4f-4225-a161-1f0641b0c756"},"vehicle_type_id":"4","last_reported":1718917633,"current_range_meters":4800,"station_id":"","pricing_plan_id":"cebpf4jnsgd1na2vs0mg"},{"bike_id":"b81f3baa-184d-4ba6-a7da-ae7fd0052931","system_id":"levelo_inurba_marseille","lat":43.310804,"lon":5.38359,"is_reserved":false,"is_disabled":false,"rental_uris":{"android":"levelo://app?vid=b81f3baa-184d-4ba6-a7da-ae7fd0052931","ios":"levelo://app?vid=b81f3baa-184d-4ba6-a7da-ae7fd0052931"},"vehicle_type_id":"4","last_reported":1718917633,"current_range_meters":4400,"station_id":"ce4bgv92rcd13ifvqcr0","pricing_plan_id":"cebpf4jnsgd1na2vs0mg"},{"bike_id":"5459f7b4-50f2-410a-9d86-439a2d84813e","system_id":"levelo_inurba_marseille","lat":43.301429,"lon":5.37413,"is_reserved":false,"is_disabled":false,"rental_uris":{"android":"levelo://app?vid=5459f7b4-50f2-410a-9d86-439a2d84813e","ios":"levelo://app?vid=5459f7b4-50f2-410a-9d86-439a2d84813e"},"vehicle_type_id":"4","last_reported":1718917633,"current_range_meters":31200,"station_id":"ce4bgs92rcd13ifvqcc0","pricing_plan_id":"cebpf4jnsgd1na2vs0mg"},{"bike_id":"b9be6dc8-007b-4bc8-b8ee-50d92b1b182b","system_id":"levelo_inurba_marseille","lat":43.301429,"lon":5.37413,"is_reserved":false,"is_disabled":false,"rental_uris":{"android":"levelo://app?vid=b9be6dc8-007b-4bc8-b8ee-50d92b1b182b","ios":"levelo://app?vid=b9be6dc8-007b-4bc8-b8ee-50d92b1b182b"},"vehicle_type_id":"4","last_reported":1718917633,"current_range_meters":31200,"station_id":"ce4bgs92rcd13ifvqcc0","pricing_plan_id":"cebpf4jnsgd1na2vs0mg"},{"bike_id":"a791e37b-112d-432f-a0bd-612039f13ddc","system_id":"levelo_inurba_marseille","lat":43.319935,"lon":5.381699,"is_reserved":false,"is_disabled":false,"rental_uris":{"android":"levelo://app?vid=a791e37b-112d-432f-a0bd-612039f13ddc","ios":"levelo://app?vid=a791e37b-112d-432f-a0bd-612039f13ddc"},"vehicle_type_id":"4","last_reported":1718917633,"current_range_meters":3600,"station_id":"ce4bhr12rcd13ifvqhpg","pricing_plan_id":"cebpf4jnsgd1na2vs0mg"},{"bike_id":"d18c46dd-b3c1-4e24-a712-147090dd7e75","system_id":"levelo_inurba_marseille","lat":43.319935,"lon":5.381699,"is_reserved":false,"is_disabled":false,"rental_uris":{"android":"levelo://app?vid=d18c46dd-b3c1-4e24-a712-147090dd7e75","ios":"levelo://app?vid=d18c46dd-b3c1-4e24-a712-147090dd7e75"},"vehicle_type_id":"4","last_reported":1718917633,"current_range_meters":0,"station_id":"ce4bhr12rcd13ifvqhpg","pricing_plan_id":"cebpf4jnsgd1na2vs0mg"},{"bike_id":"f67a3453-64cd-4f48-934d-a26fd6acbef2","system_id":"levelo_inurba_marseille","lat":43.31997,"lon":5.38166,"is_reserved":false,"is_disabled":false,"rental_uris":{"android":"levelo://app?vid=f67a3453-64cd-4f48-934d-a26fd6acbef2","ios":"levelo://app?vid=f67a3453-64cd-4f48-934d-a26fd6acbef2"},"vehicle_type_id":"4","last_reported":1718917633,"current_range_meters":9200,"station_id":"ce4bhr12rcd13ifvqhpg","pricing_plan_id":"cebpf4jnsgd1na2vs0mg"},{"bike_id":"5ef14db4-b750-473c-873d-cc431c796412","system_id":"levelo_inurba_marseille","lat":43.319935,"lon":5.381699,"is_reserved":false,"is_disabled":false,"rental_uris":{"android":"levelo://app?vid=5ef14db4-b750-473c-873d-cc431c796412","ios":"levelo://app?vid=5ef14db4-b750-473c-873d-cc431c796412"},"vehicle_type_id":"4","last_reported":1718917633,"current_range_meters":11600,"station_id":"ce4bhr12rcd13ifvqhpg","pricing_plan_id":"cebpf4jnsgd1na2vs0mg"},{"bike_id":"6fb525be-4f83-40a0-b7c2-2eb028eb18b3","system_id":"levelo_inurba_marseille","lat":43.319935,"lon":5.381699,"is_reserved":false,"is_disabled":false,"rental_uris":{"android":"levelo://app?vid=6fb525be-4f83-40a0-b7c2-2eb028eb18b3","ios":"levelo://app?vid=6fb525be-4f83-40a0-b7c2-2eb028eb18b3"},"vehicle_type_id":"4","last_reported":1718917633,"current_range_meters":1600,"station_id":"ce4bhr12rcd13ifvqhpg","pricing_plan_id":"cebpf4jnsgd1na2vs0mg"},{"bike_id":"624b9996-fc5d-4b87-8a0c-6598343c99c1","system_id":"levelo_inurba_marseille","lat":43.313571,"lon":5.384829,"is_reserved":false,"is_disabled":false,"rental_uris":{"android":"levelo://app?vid=624b9996-fc5d-4b87-8a0c-6598343c99c1","ios":"levelo://app?vid=624b9996-fc5d-4b87-8a0c-6598343c99c1"},"vehicle_type_id":"4","last_reported":1718917633,"current_range_meters":12800,"station_id":"ce4bgt92rcd13ifvqcf0","pricing_plan_id":"cebpf4jnsgd1na2vs0mg"},{"bike_id":"fb1dbbb3-b93d-4359-9f90-b2712704902b","system_id":"levelo_inurba_marseille","lat":43.313571,"lon":5.384829,"is_reserved":false,"is_disabled":false,"rental_uris":{"android":"levelo://app?vid=fb1dbbb3-b93d-4359-9f90-b2712704902b","ios":"levelo://app?vid=fb1dbbb3-b93d-4359-9f90-b2712704902b"},"vehicle_type_id":"4","last_reported":1718917633,"current_range_meters":6400,"station_id":"ce4bgt92rcd13ifvqcf0","pricing_plan_id":"cebpf4jnsgd1na2vs0mg"},{"bike_id":"871b53f7-c46d-4517-9e05-c9494218fed6","system_id":"levelo_inurba_marseille","lat":43.313571,"lon":5.384829,"is_reserved":false,"is_disabled":false,"rental_uris":{"android":"levelo://app?vid=871b53f7-c46d-4517-9e05-c9494218fed6","ios":"levelo://app?vid=871b53f7-c46d-4517-9e05-c9494218fed6"},"vehicle_type_id":"4","last_reported":1718917633,"current_range_meters":20400,"station_id":"ce4bgt92rcd13ifvqcf0","pricing_plan_id":"cebpf4jnsgd1na2vs0mg"},{"bike_id":"09b4bde7-b8f8-4d42-a901-b03aeb2f784f","system_id":"levelo_inurba_marseille","lat":43.31361,"lon":5.3849,"is_reserved":false,"is_disabled":false,"rental_uris":{"android":"levelo://app?vid=09b4bde7-b8f8-4d42-a901-b03aeb2f784f","ios":"levelo://app?vid=09b4bde7-b8f8-4d42-a901-b03aeb2f784f"},"vehicle_type_id":"4","last_reported":1718917633,"current_range_meters":0,"station_id":"ce4bgt92rcd13ifvqcf0","pricing_plan_id":"cebpf4jnsgd1na2vs0mg"},{"bike_id":"b8b603fe-50a2-49b1-a524-c9177a27eafd","system_id":"levelo_inurba_marseille","lat":43.313571,"lon":5.384829,"is_reserved":false,"is_disabled":false,"rental_uris":{"android":"levelo://app?vid=b8b603fe-50a2-49b1-a524-c9177a27eafd","ios":"levelo://app?vid=b8b603fe-50a2-49b1-a524-c9177a27eafd"},"vehicle_type_id":"4","last_reported":1718917633,"current_range_meters":19200,"station_id":"ce4bgt92rcd13ifvqcf0","pricing_plan_id":"cebpf4jnsgd1na2vs0mg"},{"bike_id":"f25a9fe3-f97b-45cb-bdcd-8b5f24c00e2f","system_id":"levelo_inurba_marseille","lat":43.313571,"lon":5.384829,"is_reserved":false,"is_disabled":false,"rental_uris":{"android":"levelo://app?vid=f25a9fe3-f97b-45cb-bdcd-8b5f24c00e2f","ios":"levelo://app?vid=f25a9fe3-f97b-45cb-bdcd-8b5f24c00e2f"},"vehicle_type_id":"4","last_reported":1718917633,"current_range_meters":22400,"station_id":"ce4bgt92rcd13ifvqcf0","pricing_plan_id":"cebpf4jnsgd1na2vs0mg"},{"bike_id":"b4724355-938d-428d-9869-e1869ab2a4da","system_id":"levelo_inurba_marseille","lat":43.313571,"lon":5.384829,"is_reserved":false,"is_disabled":false,"rental_uris":{"android":"levelo://app?vid=b4724355-938d-428d-9869-e1869ab2a4da","ios":"levelo://app?vid=b4724355-938d-428d-9869-e1869ab2a4da"},"vehicle_type_id":"4","last_reported":1718917633,"current_range_meters":0,"station_id":"ce4bgt92rcd13ifvqcf0","pricing_plan_id":"cebpf4jnsgd1na2vs0mg"},{"bike_id":"61b7f469-9c9e-4189-8fa9-3ac23d54fe58","system_id":"levelo_inurba_marseille","lat":43.313571,"lon":5.384829,"is_reserved":false,"is_disabled":false,"rental_uris":{"android":"levelo://app?vid=61b7f469-9c9e-4189-8fa9-3ac23d54fe58","ios":"levelo://app?vid=61b7f469-9c9e-4189-8fa9-3ac23d54fe58"},"vehicle_type_id":"4","last_reported":1718917633,"current_range_meters":21600,"station_id":"ce4bgt92rcd13ifvqcf0","pricing_plan_id":"cebpf4jnsgd1na2vs0mg"},{"bike_id":"ebca349e-ed67-4565-9c19-e4a37ed8a7db","system_id":"levelo_inurba_marseille","lat":43.308012,"lon":5.381511,"is_reserved":false,"is_disabled":false,"rental_uris":{"android":"levelo://app?vid=ebca349e-ed67-4565-9c19-e4a37ed8a7db","ios":"levelo://app?vid=ebca349e-ed67-4565-9c19-e4a37ed8a7db"},"vehicle_type_id":"4","last_reported":1718917633,"current_range_meters":9600,"station_id":"ce4bgt12rcd13ifvqce0","pricing_plan_id":"cebpf4jnsgd1na2vs0mg"},{"bike_id":"faf23bbf-18db-4c0c-8350-5ba70ec6e009","system_id":"levelo_inurba_marseille","lat":43.299822,"lon":5.371816,"is_reserved":false,"is_disabled":false,"rental_uris":{"android":"levelo://app?vid=faf23bbf-18db-4c0c-8350-5ba70ec6e009","ios":"levelo://app?vid=faf23bbf-18db-4c0c-8350-5ba70ec6e009"},"vehicle_type_id":"4","last_reported":1718917633,"current_range_meters":0,"station_id":"ce4bgr92rcd13ifvqc7g","pricing_plan_id":"cebpf4jnsgd1na2vs0mg"},{"bike_id":"1a8e255b-c072-4eff-85d2-58614c03307e","system_id":"levelo_inurba_marseille","lat":43.299222,"lon":5.365554,"is_reserved":false,"is_disabled":false,"rental_uris":{"android":"levelo://app?vid=1a8e255b-c072-4eff-85d2-58614c03307e","ios":"levelo://app?vid=1a8e255b-c072-4eff-85d2-58614c03307e"},"vehicle_type_id":"4","last_reported":1718917633,"current_range_meters":24000,"station_id":"ce4bgm92rcd13ifvqbr0","pricing_plan_id":"cebpf4jnsgd1na2vs0mg"},{"bike_id":"fa163d5b-5b86-4e16-985f-795cf6ff05ed","system_id":"levelo_inurba_marseille","lat":43.299724,"lon":5.371829,"is_reserved":false,"is_disabled":false,"rental_uris":{"android":"levelo://app?vid=fa163d5b-5b86-4e16-985f-795cf6ff05ed","ios":"levelo://app?vid=fa163d5b-5b86-4e16-985f-795cf6ff05ed"},"vehicle_type_id":"4","last_reported":1718917633,"current_range_meters":1600,"station_id":"ce4bgr92rcd13ifvqc7g","pricing_plan_id":"cebpf4jnsgd1na2vs0mg"},{"bike_id":"f342be20-e904-4290-9350-3ac3b1140a75","system_id":"levelo_inurba_marseille","lat":43.299724,"lon":5.371829,"is_reserved":false,"is_disabled":false,"rental_uris":{"android":"levelo://app?vid=f342be20-e904-4290-9350-3ac3b1140a75","ios":"levelo://app?vid=f342be20-e904-4290-9350-3ac3b1140a75"},"vehicle_type_id":"4","last_reported":1718917633,"current_range_meters":18800,"station_id":"ce4bgr92rcd13ifvqc7g","pricing_plan_id":"cebpf4jnsgd1na2vs0mg"},{"bike_id":"1b3d20a4-943b-4793-90b4-d90936b716cd","system_id":"levelo_inurba_marseille","lat":43.30107,"lon":5.37751,"is_reserved":false,"is_disabled":false,"rental_uris":{"android":"levelo://app?vid=1b3d20a4-943b-4793-90b4-d90936b716cd","ios":"levelo://app?vid=1b3d20a4-943b-4793-90b4-d90936b716cd"},"vehicle_type_id":"4","last_reported":1718917633,"current_range_meters":21200,"station_id":"","pricing_plan_id":"cebpf4jnsgd1na2vs0mg"},{"bike_id":"7ad78b5b-5255-48e6-bf46-833fe33a9c89","system_id":"levelo_inurba_marseille","lat":43.29849,"lon":5.36466,"is_reserved":false,"is_disabled":false,"rental_uris":{"android":"levelo://app?vid=7ad78b5b-5255-48e6-bf46-833fe33a9c89","ios":"levelo://app?vid=7ad78b5b-5255-48e6-bf46-833fe33a9c89"},"vehicle_type_id":"4","last_reported":1718917633,"current_range_meters":800,"station_id":"","pricing_plan_id":"cebpf4jnsgd1na2vs0mg"},{"bike_id":"202fb2e5-89ca-4538-8bb7-cdb63339fd18","system_id":"levelo_inurba_marseille","lat":43.298646,"lon":5.372132,"is_reserved":false,"is_disabled":false,"rental_uris":{"android":"levelo://app?vid=202fb2e5-89ca-4538-8bb7-cdb63339fd18","ios":"levelo://app?vid=202fb2e5-89ca-4538-8bb7-cdb63339fd18"},"vehicle_type_id":"4","last_reported":1718917633,"current_range_meters":31200,"station_id":"","pricing_plan_id":"cebpf4jnsgd1na2vs0mg"},{"bike_id":"089268a6-e485-471c-b6a0-f3f6c4ae725f","system_id":"levelo_inurba_marseille","lat":43.298433,"lon":5.362774,"is_reserved":false,"is_disabled":false,"rental_uris":{"android":"levelo://app?vid=089268a6-e485-471c-b6a0-f3f6c4ae725f","ios":"levelo://app?vid=089268a6-e485-471c-b6a0-f3f6c4ae725f"},"vehicle_type_id":"4","last_reported":1718917633,"current_range_meters":18400,"station_id":"ce4bgpp2rcd13ifvqc3g","pricing_plan_id":"cebpf4jnsgd1na2vs0mg"},{"bike_id":"34a463ff-b6da-41d8-aefb-6145190a050a","system_id":"levelo_inurba_marseille","lat":43.298433,"lon":5.362774,"is_reserved":false,"is_disabled":false,"rental_uris":{"android":"levelo://app?vid=34a463ff-b6da-41d8-aefb-6145190a050a","ios":"levelo://app?vid=34a463ff-b6da-41d8-aefb-6145190a050a"},"vehicle_type_id":"4","last_reported":1718917633,"current_range_meters":24400,"station_id":"ce4bgpp2rcd13ifvqc3g","pricing_plan_id":"cebpf4jnsgd1na2vs0mg"},{"bike_id":"79e17655-e69b-4e1f-b6a0-24b41e7c0703","system_id":"levelo_inurba_marseille","lat":43.311829,"lon":5.387061,"is_reserved":false,"is_disabled":false,"rental_uris":{"android":"levelo://app?vid=79e17655-e69b-4e1f-b6a0-24b41e7c0703","ios":"levelo://app?vid=79e17655-e69b-4e1f-b6a0-24b41e7c0703"},"vehicle_type_id":"4","last_reported":1718917633,"current_range_meters":6400,"station_id":"ce4bgv12rcd13ifvqcp0","pricing_plan_id":"cebpf4jnsgd1na2vs0mg"},{"bike_id":"22f73c25-8b4a-42bc-9a90-7e43fade9509","system_id":"levelo_inurba_marseille","lat":43.311722,"lon":5.387247,"is_reserved":false,"is_disabled":false,"rental_uris":{"android":"levelo://app?vid=22f73c25-8b4a-42bc-9a90-7e43fade9509","ios":"levelo://app?vid=22f73c25-8b4a-42bc-9a90-7e43fade9509"},"vehicle_type_id":"4","last_reported":1718917633,"current_range_meters":0,"station_id":"ce4bgv12rcd13ifvqcp0","pricing_plan_id":"cebpf4jnsgd1na2vs0mg"},{"bike_id":"cdcf4b6b-7830-43ea-a8b3-f58be1648475","system_id":"levelo_inurba_marseille","lat":43.311722,"lon":5.387247,"is_reserved":false,"is_disabled":false,"rental_uris":{"android":"levelo://app?vid=cdcf4b6b-7830-43ea-a8b3-f58be1648475","ios":"levelo://app?vid=cdcf4b6b-7830-43ea-a8b3-f58be1648475"},"vehicle_type_id":"4","last_reported":1718917633,"current_range_meters":12800,"station_id":"ce4bgv12rcd13ifvqcp0","pricing_plan_id":"cebpf4jnsgd1na2vs0mg"},{"bike_id":"1d46d269-2784-4c8c-96c7-b83288f2a79b","system_id":"levelo_inurba_marseille","lat":43.311722,"lon":5.387247,"is_reserved":false,"is_disabled":false,"rental_uris":{"android":"levelo://app?vid=1d46d269-2784-4c8c-96c7-b83288f2a79b","ios":"levelo://app?vid=1d46d269-2784-4c8c-96c7-b83288f2a79b"},"vehicle_type_id":"4","last_reported":1718917633,"current_range_meters":12400,"station_id":"ce4bgv12rcd13ifvqcp0","pricing_plan_id":"cebpf4jnsgd1na2vs0mg"},{"bike_id":"17020a8e-0d1f-4af8-ade4-9dacd39fc21e","system_id":"levelo_inurba_marseille","lat":43.311722,"lon":5.387247,"is_reserved":false,"is_disabled":false,"rental_uris":{"android":"levelo://app?vid=17020a8e-0d1f-4af8-ade4-9dacd39fc21e","ios":"levelo://app?vid=17020a8e-0d1f-4af8-ade4-9dacd39fc21e"},"vehicle_type_id":"4","last_reported":1718917633,"current_range_meters":3600,"station_id":"ce4bgv12rcd13ifvqcp0","pricing_plan_id":"cebpf4jnsgd1na2vs0mg"},{"bike_id":"ef407630-1af0-44c2-b455-30aa0e615ed4","system_id":"levelo_inurba_marseille","lat":43.311722,"lon":5.387247,"is_reserved":false,"is_disabled":false,"rental_uris":{"android":"levelo://app?vid=ef407630-1af0-44c2-b455-30aa0e615ed4","ios":"levelo://app?vid=ef407630-1af0-44c2-b455-30aa0e615ed4"},"vehicle_type_id":"4","last_reported":1718917633,"current_range_meters":16000,"station_id":"ce4bgv12rcd13ifvqcp0","pricing_plan_id":"cebpf4jnsgd1na2vs0mg"},{"bike_id":"b7457832-8aa2-4d34-81a2-0093d04fe151","system_id":"levelo_inurba_marseille","lat":43.311722,"lon":5.387247,"is_reserved":false,"is_disabled":false,"rental_uris":{"android":"levelo://app?vid=b7457832-8aa2-4d34-81a2-0093d04fe151","ios":"levelo://app?vid=b7457832-8aa2-4d34-81a2-0093d04fe151"},"vehicle_type_id":"4","last_reported":1718917633,"current_range_meters":17200,"station_id":"ce4bgv12rcd13ifvqcp0","pricing_plan_id":"cebpf4jnsgd1na2vs0mg"},{"bike_id":"fba9f178-bc31-48d6-901d-e4feadd9b3f9","system_id":"levelo_inurba_marseille","lat":43.311722,"lon":5.387247,"is_reserved":false,"is_disabled":false,"rental_uris":{"android":"levelo://app?vid=fba9f178-bc31-48d6-901d-e4feadd9b3f9","ios":"levelo://app?vid=fba9f178-bc31-48d6-901d-e4feadd9b3f9"},"vehicle_type_id":"4","last_reported":1718917633,"current_range_meters":5600,"station_id":"ce4bgv12rcd13ifvqcp0","pricing_plan_id":"cebpf4jnsgd1na2vs0mg"},{"bike_id":"495fa6ae-221a-4944-b530-52ad6939814f","system_id":"levelo_inurba_marseille","lat":43.311722,"lon":5.387247,"is_reserved":false,"is_disabled":false,"rental_uris":{"android":"levelo://app?vid=495fa6ae-221a-4944-b530-52ad6939814f","ios":"levelo://app?vid=495fa6ae-221a-4944-b530-52ad6939814f"},"vehicle_type_id":"4","last_reported":1718917633,"current_range_meters":24800,"station_id":"ce4bgv12rcd13ifvqcp0","pricing_plan_id":"cebpf4jnsgd1na2vs0mg"},{"bike_id":"c0ff29be-1b5a-43c1-9ee8-37b142781efb","system_id":"levelo_inurba_marseille","lat":43.311722,"lon":5.387247,"is_reserved":false,"is_disabled":false,"rental_uris":{"android":"levelo://app?vid=c0ff29be-1b5a-43c1-9ee8-37b142781efb","ios":"levelo://app?vid=c0ff29be-1b5a-43c1-9ee8-37b142781efb"},"vehicle_type_id":"4","last_reported":1718917633,"current_range_meters":22800,"station_id":"ce4bgv12rcd13ifvqcp0","pricing_plan_id":"cebpf4jnsgd1na2vs0mg"},{"bike_id":"490cbc0e-3a93-4683-9c4c-9b7240674d81","system_id":"levelo_inurba_marseille","lat":43.311722,"lon":5.387247,"is_reserved":false,"is_disabled":false,"rental_uris":{"android":"levelo://app?vid=490cbc0e-3a93-4683-9c4c-9b7240674d81","ios":"levelo://app?vid=490cbc0e-3a93-4683-9c4c-9b7240674d81"},"vehicle_type_id":"4","last_reported":1718917633,"current_range_meters":26000,"station_id":"ce4bgv12rcd13ifvqcp0","pricing_plan_id":"cebpf4jnsgd1na2vs0mg"},{"bike_id":"874d35c0-0db0-4134-a842-41456a92f667","system_id":"levelo_inurba_marseille","lat":43.311722,"lon":5.387247,"is_reserved":false,"is_disabled":false,"rental_uris":{"android":"levelo://app?vid=874d35c0-0db0-4134-a842-41456a92f667","ios":"levelo://app?vid=874d35c0-0db0-4134-a842-41456a92f667"},"vehicle_type_id":"4","last_reported":1718917633,"current_range_meters":6000,"station_id":"ce4bgv12rcd13ifvqcp0","pricing_plan_id":"cebpf4jnsgd1na2vs0mg"},{"bike_id":"5753353f-c988-4df6-975d-1156f28c62f9","system_id":"levelo_inurba_marseille","lat":43.311722,"lon":5.387247,"is_reserved":false,"is_disabled":false,"rental_uris":{"android":"levelo://app?vid=5753353f-c988-4df6-975d-1156f28c62f9","ios":"levelo://app?vid=5753353f-c988-4df6-975d-1156f28c62f9"},"vehicle_type_id":"4","last_reported":1718917633,"current_range_meters":17600,"station_id":"ce4bgv12rcd13ifvqcp0","pricing_plan_id":"cebpf4jnsgd1na2vs0mg"},{"bike_id":"bf40a7aa-cbb4-4da2-8c1a-345fe3583a45","system_id":"levelo_inurba_marseille","lat":43.311722,"lon":5.387247,"is_reserved":false,"is_disabled":false,"rental_uris":{"android":"levelo://app?vid=bf40a7aa-cbb4-4da2-8c1a-345fe3583a45","ios":"levelo://app?vid=bf40a7aa-cbb4-4da2-8c1a-345fe3583a45"},"vehicle_type_id":"4","last_reported":1718917633,"current_range_meters":13600,"station_id":"ce4bgv12rcd13ifvqcp0","pricing_plan_id":"cebpf4jnsgd1na2vs0mg"},{"bike_id":"0416d516-4787-4ff0-b2c2-57414e8d8a62","system_id":"levelo_inurba_marseille","lat":43.311722,"lon":5.387247,"is_reserved":false,"is_disabled":false,"rental_uris":{"android":"levelo://app?vid=0416d516-4787-4ff0-b2c2-57414e8d8a62","ios":"levelo://app?vid=0416d516-4787-4ff0-b2c2-57414e8d8a62"},"vehicle_type_id":"4","last_reported":1718917633,"current_range_meters":6400,"station_id":"ce4bgv12rcd13ifvqcp0","pricing_plan_id":"cebpf4jnsgd1na2vs0mg"},{"bike_id":"02a37c7e-e1ce-464f-811b-e564cc2dd376","system_id":"levelo_inurba_marseille","lat":43.30154,"lon":5.380605,"is_reserved":false,"is_disabled":false,"rental_uris":{"android":"levelo://app?vid=02a37c7e-e1ce-464f-811b-e564cc2dd376","ios":"levelo://app?vid=02a37c7e-e1ce-464f-811b-e564cc2dd376"},"vehicle_type_id":"4","last_reported":1718917633,"current_range_meters":10000,"station_id":"","pricing_plan_id":"cebpf4jnsgd1na2vs0mg"},{"bike_id":"2e452a41-55ea-4d4e-87f0-1b8ebe96891f","system_id":"levelo_inurba_marseille","lat":43.322872,"lon":5.382756,"is_reserved":false,"is_disabled":false,"rental_uris":{"android":"levelo://app?vid=2e452a41-55ea-4d4e-87f0-1b8ebe96891f","ios":"levelo://app?vid=2e452a41-55ea-4d4e-87f0-1b8ebe96891f"},"vehicle_type_id":"4","last_reported":1718917633,"current_range_meters":31200,"station_id":"ce4bhr12rcd13ifvqhqg","pricing_plan_id":"cebpf4jnsgd1na2vs0mg"},{"bike_id":"7fbd0601-ff79-437d-acea-a529b53be018","system_id":"levelo_inurba_marseille","lat":43.322872,"lon":5.382756,"is_reserved":false,"is_disabled":false,"rental_uris":{"android":"levelo://app?vid=7fbd0601-ff79-437d-acea-a529b53be018","ios":"levelo://app?vid=7fbd0601-ff79-437d-acea-a529b53be018"},"vehicle_type_id":"4","last_reported":1718917633,"current_range_meters":27200,"station_id":"ce4bhr12rcd13ifvqhqg","pricing_plan_id":"cebpf4jnsgd1na2vs0mg"},{"bike_id":"9506c2ef-53a8-4801-88d7-395ec2da19db","system_id":"levelo_inurba_marseille","lat":43.322872,"lon":5.382756,"is_reserved":false,"is_disabled":false,"rental_uris":{"android":"levelo://app?vid=9506c2ef-53a8-4801-88d7-395ec2da19db","ios":"levelo://app?vid=9506c2ef-53a8-4801-88d7-395ec2da19db"},"vehicle_type_id":"4","last_reported":1718917633,"current_range_meters":400,"station_id":"ce4bhr12rcd13ifvqhqg","pricing_plan_id":"cebpf4jnsgd1na2vs0mg"},{"bike_id":"8bc5a871-93d0-44d8-a3d8-e546b2b93406","system_id":"levelo_inurba_marseille","lat":43.322872,"lon":5.382756,"is_reserved":false,"is_disabled":false,"rental_uris":{"android":"levelo://app?vid=8bc5a871-93d0-44d8-a3d8-e546b2b93406","ios":"levelo://app?vid=8bc5a871-93d0-44d8-a3d8-e546b2b93406"},"vehicle_type_id":"4","last_reported":1718917633,"current_range_meters":24000,"station_id":"ce4bhr12rcd13ifvqhqg","pricing_plan_id":"cebpf4jnsgd1na2vs0mg"},{"bike_id":"20f31c62-307b-4c16-93b6-6fcc5accd677","system_id":"levelo_inurba_marseille","lat":43.298243,"lon":5.377327,"is_reserved":false,"is_disabled":false,"rental_uris":{"android":"levelo://app?vid=20f31c62-307b-4c16-93b6-6fcc5accd677","ios":"levelo://app?vid=20f31c62-307b-4c16-93b6-6fcc5accd677"},"vehicle_type_id":"4","last_reported":1718917633,"current_range_meters":16400,"station_id":"","pricing_plan_id":"cebpf4jnsgd1na2vs0mg"},{"bike_id":"6e7355eb-6f4d-4446-a110-2aa7be7ac042","system_id":"levelo_inurba_marseille","lat":43.296131,"lon":5.370791,"is_reserved":false,"is_disabled":false,"rental_uris":{"android":"levelo://app?vid=6e7355eb-6f4d-4446-a110-2aa7be7ac042","ios":"levelo://app?vid=6e7355eb-6f4d-4446-a110-2aa7be7ac042"},"vehicle_type_id":"4","last_reported":1718917633,"current_range_meters":16400,"station_id":"ce4bgnh2rcd13ifvqc0g","pricing_plan_id":"cebpf4jnsgd1na2vs0mg"},{"bike_id":"b0905005-f0b2-4c34-90a3-927c7e265c26","system_id":"levelo_inurba_marseille","lat":43.29573,"lon":5.367355,"is_reserved":false,"is_disabled":false,"rental_uris":{"android":"levelo://app?vid=b0905005-f0b2-4c34-90a3-927c7e265c26","ios":"levelo://app?vid=b0905005-f0b2-4c34-90a3-927c7e265c26"},"vehicle_type_id":"4","last_reported":1718917633,"current_range_meters":14400,"station_id":"ce4bgph2rcd13ifvqc2g","pricing_plan_id":"cebpf4jnsgd1na2vs0mg"},{"bike_id":"1d4f0dd0-a3ec-4cce-8166-b6e110265313","system_id":"levelo_inurba_marseille","lat":43.29573,"lon":5.367355,"is_reserved":false,"is_disabled":false,"rental_uris":{"android":"levelo://app?vid=1d4f0dd0-a3ec-4cce-8166-b6e110265313","ios":"levelo://app?vid=1d4f0dd0-a3ec-4cce-8166-b6e110265313"},"vehicle_type_id":"4","last_reported":1718917633,"current_range_meters":26000,"station_id":"ce4bgph2rcd13ifvqc2g","pricing_plan_id":"cebpf4jnsgd1na2vs0mg"},{"bike_id":"7a1c6910-6a90-4360-ad4c-e7d8cf5a8dbb","system_id":"levelo_inurba_marseille","lat":43.296921,"lon":5.376579,"is_reserved":false,"is_disabled":false,"rental_uris":{"android":"levelo://app?vid=7a1c6910-6a90-4360-ad4c-e7d8cf5a8dbb","ios":"levelo://app?vid=7a1c6910-6a90-4360-ad4c-e7d8cf5a8dbb"},"vehicle_type_id":"4","last_reported":1718917633,"current_range_meters":8800,"station_id":"ce4bgkh2rcd13ifvqbl0","pricing_plan_id":"cebpf4jnsgd1na2vs0mg"},{"bike_id":"f149e019-6e57-40ce-bce0-5636dd77cdd5","system_id":"levelo_inurba_marseille","lat":43.29726,"lon":5.37689,"is_reserved":false,"is_disabled":false,"rental_uris":{"android":"levelo://app?vid=f149e019-6e57-40ce-bce0-5636dd77cdd5","ios":"levelo://app?vid=f149e019-6e57-40ce-bce0-5636dd77cdd5"},"vehicle_type_id":"4","last_reported":1718917633,"current_range_meters":0,"station_id":"ce4bgkh2rcd13ifvqbl0","pricing_plan_id":"cebpf4jnsgd1na2vs0mg"},{"bike_id":"ce28e87b-5fe4-433b-9b50-f396d4bd8be1","system_id":"levelo_inurba_marseille","lat":43.30963,"lon":5.39024,"is_reserved":false,"is_disabled":false,"rental_uris":{"android":"levelo://app?vid=ce28e87b-5fe4-433b-9b50-f396d4bd8be1","ios":"levelo://app?vid=ce28e87b-5fe4-433b-9b50-f396d4bd8be1"},"vehicle_type_id":"4","last_reported":1718917633,"current_range_meters":25600,"station_id":"ce4bgup2rcd13ifvqco0","pricing_plan_id":"cebpf4jnsgd1na2vs0mg"},{"bike_id":"bd6f77e0-04d7-432f-9bdd-c9e464635874","system_id":"levelo_inurba_marseille","lat":43.309486,"lon":5.390246,"is_reserved":false,"is_disabled":false,"rental_uris":{"android":"levelo://app?vid=bd6f77e0-04d7-432f-9bdd-c9e464635874","ios":"levelo://app?vid=bd6f77e0-04d7-432f-9bdd-c9e464635874"},"vehicle_type_id":"4","last_reported":1718917633,"current_range_meters":31200,"station_id":"ce4bgup2rcd13ifvqco0","pricing_plan_id":"cebpf4jnsgd1na2vs0mg"},{"bike_id":"7180413b-e338-40b1-9831-aeef7caa3531","system_id":"levelo_inurba_marseille","lat":43.30952,"lon":5.39038,"is_reserved":false,"is_disabled":false,"rental_uris":{"android":"levelo://app?vid=7180413b-e338-40b1-9831-aeef7caa3531","ios":"levelo://app?vid=7180413b-e338-40b1-9831-aeef7caa3531"},"vehicle_type_id":"4","last_reported":1718917633,"current_range_meters":31200,"station_id":"ce4bgup2rcd13ifvqco0","pricing_plan_id":"cebpf4jnsgd1na2vs0mg"},{"bike_id":"728fb4d7-0fb8-4ee4-bba4-d0768f2385c6","system_id":"levelo_inurba_marseille","lat":43.30954,"lon":5.39039,"is_reserved":false,"is_disabled":false,"rental_uris":{"android":"levelo://app?vid=728fb4d7-0fb8-4ee4-bba4-d0768f2385c6","ios":"levelo://app?vid=728fb4d7-0fb8-4ee4-bba4-d0768f2385c6"},"vehicle_type_id":"4","last_reported":1718917633,"current_range_meters":31200,"station_id":"ce4bgup2rcd13ifvqco0","pricing_plan_id":"cebpf4jnsgd1na2vs0mg"},{"bike_id":"1c078ec5-81e0-4f56-87ea-de76b7b38858","system_id":"levelo_inurba_marseille","lat":43.31754,"lon":5.39013,"is_reserved":false,"is_disabled":false,"rental_uris":{"android":"levelo://app?vid=1c078ec5-81e0-4f56-87ea-de76b7b38858","ios":"levelo://app?vid=1c078ec5-81e0-4f56-87ea-de76b7b38858"},"vehicle_type_id":"4","last_reported":1718917633,"current_range_meters":28800,"station_id":"ce4bhqp2rcd13ifvqhng","pricing_plan_id":"cebpf4jnsgd1na2vs0mg"},{"bike_id":"ebbfc6d4-bfe5-47da-bb97-efe302f9bfa1","system_id":"levelo_inurba_marseille","lat":43.317602,"lon":5.390178,"is_reserved":false,"is_disabled":false,"rental_uris":{"android":"levelo://app?vid=ebbfc6d4-bfe5-47da-bb97-efe302f9bfa1","ios":"levelo://app?vid=ebbfc6d4-bfe5-47da-bb97-efe302f9bfa1"},"vehicle_type_id":"4","last_reported":1718917633,"current_range_meters":4800,"station_id":"ce4bhqp2rcd13ifvqhng","pricing_plan_id":"cebpf4jnsgd1na2vs0mg"},{"bike_id":"94a26fef-f45b-48bd-b619-f219d8f733b6","system_id":"levelo_inurba_marseille","lat":43.317557,"lon":5.390173,"is_reserved":false,"is_disabled":false,"rental_uris":{"android":"levelo://app?vid=94a26fef-f45b-48bd-b619-f219d8f733b6","ios":"levelo://app?vid=94a26fef-f45b-48bd-b619-f219d8f733b6"},"vehicle_type_id":"4","last_reported":1718917633,"current_range_meters":0,"station_id":"ce4bhqp2rcd13ifvqhng","pricing_plan_id":"cebpf4jnsgd1na2vs0mg"},{"bike_id":"8f36ef74-00ee-43b2-97df-1bf4c01a66a5","system_id":"levelo_inurba_marseille","lat":43.304274,"lon":5.388873,"is_reserved":false,"is_disabled":false,"rental_uris":{"android":"levelo://app?vid=8f36ef74-00ee-43b2-97df-1bf4c01a66a5","ios":"levelo://app?vid=8f36ef74-00ee-43b2-97df-1bf4c01a66a5"},"vehicle_type_id":"4","last_reported":1718917633,"current_range_meters":25600,"station_id":"ce4bgk12rcd13ifvqbi0","pricing_plan_id":"cebpf4jnsgd1na2vs0mg"},{"bike_id":"84edea08-c24e-44fd-9577-5be3c237f653","system_id":"levelo_inurba_marseille","lat":43.304274,"lon":5.388873,"is_reserved":false,"is_disabled":false,"rental_uris":{"android":"levelo://app?vid=84edea08-c24e-44fd-9577-5be3c237f653","ios":"levelo://app?vid=84edea08-c24e-44fd-9577-5be3c237f653"},"vehicle_type_id":"4","last_reported":1718917633,"current_range_meters":6800,"station_id":"ce4bgk12rcd13ifvqbi0","pricing_plan_id":"cebpf4jnsgd1na2vs0mg"},{"bike_id":"3726963a-9cd7-49b9-a681-841b8939a0b3","system_id":"levelo_inurba_marseille","lat":43.304274,"lon":5.388873,"is_reserved":false,"is_disabled":false,"rental_uris":{"android":"levelo://app?vid=3726963a-9cd7-49b9-a681-841b8939a0b3","ios":"levelo://app?vid=3726963a-9cd7-49b9-a681-841b8939a0b3"},"vehicle_type_id":"4","last_reported":1718917633,"current_range_meters":22800,"station_id":"ce4bgk12rcd13ifvqbi0","pricing_plan_id":"cebpf4jnsgd1na2vs0mg"},{"bike_id":"16a13a42-0730-44e1-ac42-f4f11af4df13","system_id":"levelo_inurba_marseille","lat":43.304274,"lon":5.388873,"is_reserved":false,"is_disabled":false,"rental_uris":{"android":"levelo://app?vid=16a13a42-0730-44e1-ac42-f4f11af4df13","ios":"levelo://app?vid=16a13a42-0730-44e1-ac42-f4f11af4df13"},"vehicle_type_id":"4","last_reported":1718917633,"current_range_meters":17200,"station_id":"ce4bgk12rcd13ifvqbi0","pricing_plan_id":"cebpf4jnsgd1na2vs0mg"},{"bike_id":"fb392f5b-0aff-409f-9891-f92e22f7c309","system_id":"levelo_inurba_marseille","lat":43.304278,"lon":5.388868,"is_reserved":false,"is_disabled":false,"rental_uris":{"android":"levelo://app?vid=fb392f5b-0aff-409f-9891-f92e22f7c309","ios":"levelo://app?vid=fb392f5b-0aff-409f-9891-f92e22f7c309"},"vehicle_type_id":"4","last_reported":1718917633,"current_range_meters":6000,"station_id":"ce4bgk12rcd13ifvqbi0","pricing_plan_id":"cebpf4jnsgd1na2vs0mg"},{"bike_id":"3476770b-202e-49c9-8eec-8589a13c0fc8","system_id":"levelo_inurba_marseille","lat":43.304274,"lon":5.388873,"is_reserved":false,"is_disabled":false,"rental_uris":{"android":"levelo://app?vid=3476770b-202e-49c9-8eec-8589a13c0fc8","ios":"levelo://app?vid=3476770b-202e-49c9-8eec-8589a13c0fc8"},"vehicle_type_id":"4","last_reported":1718917633,"current_range_meters":5600,"station_id":"ce4bgk12rcd13ifvqbi0","pricing_plan_id":"cebpf4jnsgd1na2vs0mg"},{"bike_id":"61b86d3a-7302-4fd7-b5d6-ceee02a6b1fc","system_id":"levelo_inurba_marseille","lat":43.29616,"lon":5.37701,"is_reserved":false,"is_disabled":false,"rental_uris":{"android":"levelo://app?vid=61b86d3a-7302-4fd7-b5d6-ceee02a6b1fc","ios":"levelo://app?vid=61b86d3a-7302-4fd7-b5d6-ceee02a6b1fc"},"vehicle_type_id":"4","last_reported":1718917633,"current_range_meters":0,"station_id":"ce4bgi92rcd13ifvqb90","pricing_plan_id":"cebpf4jnsgd1na2vs0mg"},{"bike_id":"23394150-2c9a-4165-a630-c456cb9f311f","system_id":"levelo_inurba_marseille","lat":43.304278,"lon":5.388868,"is_reserved":false,"is_disabled":false,"rental_uris":{"android":"levelo://app?vid=23394150-2c9a-4165-a630-c456cb9f311f","ios":"levelo://app?vid=23394150-2c9a-4165-a630-c456cb9f311f"},"vehicle_type_id":"4","last_reported":1718917633,"current_range_meters":0,"station_id":"ce4bgk12rcd13ifvqbi0","pricing_plan_id":"cebpf4jnsgd1na2vs0mg"},{"bike_id":"7773c2d7-6e5e-4de0-8ae3-c20355abf790","system_id":"levelo_inurba_marseille","lat":43.299707,"lon":5.384859,"is_reserved":false,"is_disabled":false,"rental_uris":{"android":"levelo://app?vid=7773c2d7-6e5e-4de0-8ae3-c20355abf790","ios":"levelo://app?vid=7773c2d7-6e5e-4de0-8ae3-c20355abf790"},"vehicle_type_id":"4","last_reported":1718917633,"current_range_meters":26400,"station_id":"ce4bgj92rcd13ifvqbd0","pricing_plan_id":"cebpf4jnsgd1na2vs0mg"},{"bike_id":"eb1a0e2c-31de-48c1-8cd4-e2c1b59607c8","system_id":"levelo_inurba_marseille","lat":43.295279,"lon":5.375048,"is_reserved":false,"is_disabled":false,"rental_uris":{"android":"levelo://app?vid=eb1a0e2c-31de-48c1-8cd4-e2c1b59607c8","ios":"levelo://app?vid=eb1a0e2c-31de-48c1-8cd4-e2c1b59607c8"},"vehicle_type_id":"4","last_reported":1718917633,"current_range_meters":10000,"station_id":"ce4bgkp2rcd13ifvqbmg","pricing_plan_id":"cebpf4jnsgd1na2vs0mg"},{"bike_id":"e851b06e-340c-4f18-bc72-9f4c933cf076","system_id":"levelo_inurba_marseille","lat":43.299717,"lon":5.384845,"is_reserved":false,"is_disabled":false,"rental_uris":{"android":"levelo://app?vid=e851b06e-340c-4f18-bc72-9f4c933cf076","ios":"levelo://app?vid=e851b06e-340c-4f18-bc72-9f4c933cf076"},"vehicle_type_id":"4","last_reported":1718917633,"current_range_meters":0,"station_id":"ce4bgj92rcd13ifvqbd0","pricing_plan_id":"cebpf4jnsgd1na2vs0mg"},{"bike_id":"1159ba63-5c3e-4c82-81d4-9c4e1cfcfba3","system_id":"levelo_inurba_marseille","lat":43.32372,"lon":5.38873,"is_reserved":false,"is_disabled":false,"rental_uris":{"android":"levelo://app?vid=1159ba63-5c3e-4c82-81d4-9c4e1cfcfba3","ios":"levelo://app?vid=1159ba63-5c3e-4c82-81d4-9c4e1cfcfba3"},"vehicle_type_id":"4","last_reported":1718917633,"current_range_meters":0,"station_id":"ce4bhqp2rcd13ifvqhog","pricing_plan_id":"cebpf4jnsgd1na2vs0mg"},{"bike_id":"b3898f6d-9ee3-4402-9de4-71d88d23e49b","system_id":"levelo_inurba_marseille","lat":43.323686,"lon":5.388816,"is_reserved":false,"is_disabled":false,"rental_uris":{"android":"levelo://app?vid=b3898f6d-9ee3-4402-9de4-71d88d23e49b","ios":"levelo://app?vid=b3898f6d-9ee3-4402-9de4-71d88d23e49b"},"vehicle_type_id":"4","last_reported":1718917633,"current_range_meters":13600,"station_id":"ce4bhqp2rcd13ifvqhog","pricing_plan_id":"cebpf4jnsgd1na2vs0mg"},{"bike_id":"90c5ac0b-6616-403d-97d1-af3dcd8fa5f7","system_id":"levelo_inurba_marseille","lat":43.296,"lon":5.3809,"is_reserved":false,"is_disabled":false,"rental_uris":{"android":"levelo://app?vid=90c5ac0b-6616-403d-97d1-af3dcd8fa5f7","ios":"levelo://app?vid=90c5ac0b-6616-403d-97d1-af3dcd8fa5f7"},"vehicle_type_id":"4","last_reported":1718917633,"current_range_meters":25600,"station_id":"ce4bgl12rcd13ifvqbo0","pricing_plan_id":"cebpf4jnsgd1na2vs0mg"},{"bike_id":"304a6122-c342-47dc-965f-8ccad1e3afef","system_id":"levelo_inurba_marseille","lat":43.29602,"lon":5.381084,"is_reserved":false,"is_disabled":false,"rental_uris":{"android":"levelo://app?vid=304a6122-c342-47dc-965f-8ccad1e3afef","ios":"levelo://app?vid=304a6122-c342-47dc-965f-8ccad1e3afef"},"vehicle_type_id":"4","last_reported":1718917633,"current_range_meters":8800,"station_id":"ce4bgl12rcd13ifvqbo0","pricing_plan_id":"cebpf4jnsgd1na2vs0mg"},{"bike_id":"3f2f2b65-5aa1-4f62-ad38-7566cc6d327a","system_id":"levelo_inurba_marseille","lat":43.292749,"lon":5.368402,"is_reserved":false,"is_disabled":false,"rental_uris":{"android":"levelo://app?vid=3f2f2b65-5aa1-4f62-ad38-7566cc6d327a","ios":"levelo://app?vid=3f2f2b65-5aa1-4f62-ad38-7566cc6d327a"},"vehicle_type_id":"4","last_reported":1718917633,"current_range_meters":18800,"station_id":"ce4bhbp2rcd13ifvqesg","pricing_plan_id":"cebpf4jnsgd1na2vs0mg"},{"bike_id":"02101617-52d4-4057-b4b4-8c6e054ac095","system_id":"levelo_inurba_marseille","lat":43.29278,"lon":5.36837,"is_reserved":false,"is_disabled":false,"rental_uris":{"android":"levelo://app?vid=02101617-52d4-4057-b4b4-8c6e054ac095","ios":"levelo://app?vid=02101617-52d4-4057-b4b4-8c6e054ac095"},"vehicle_type_id":"4","last_reported":1718917633,"current_range_meters":0,"station_id":"ce4bhbp2rcd13ifvqesg","pricing_plan_id":"cebpf4jnsgd1na2vs0mg"},{"bike_id":"ce542ffb-66cf-4b3e-bb1f-e5c9ca792297","system_id":"levelo_inurba_marseille","lat":43.292749,"lon":5.368402,"is_reserved":false,"is_disabled":false,"rental_uris":{"android":"levelo://app?vid=ce542ffb-66cf-4b3e-bb1f-e5c9ca792297","ios":"levelo://app?vid=ce542ffb-66cf-4b3e-bb1f-e5c9ca792297"},"vehicle_type_id":"4","last_reported":1718917633,"current_range_meters":22000,"station_id":"ce4bhbp2rcd13ifvqesg","pricing_plan_id":"cebpf4jnsgd1na2vs0mg"},{"bike_id":"46561864-400a-4b04-8288-a94201da0649","system_id":"levelo_inurba_marseille","lat":43.293249,"lon":5.371578,"is_reserved":false,"is_disabled":false,"rental_uris":{"android":"levelo://app?vid=46561864-400a-4b04-8288-a94201da0649","ios":"levelo://app?vid=46561864-400a-4b04-8288-a94201da0649"},"vehicle_type_id":"4","last_reported":1718917633,"current_range_meters":28400,"station_id":"ce4bgh92rcd13ifvqb40","pricing_plan_id":"cebpf4jnsgd1na2vs0mg"},{"bike_id":"da45fdcd-0ea0-4091-9b28-c7be924773b1","system_id":"levelo_inurba_marseille","lat":43.305994,"lon":5.393687,"is_reserved":false,"is_disabled":false,"rental_uris":{"android":"levelo://app?vid=da45fdcd-0ea0-4091-9b28-c7be924773b1","ios":"levelo://app?vid=da45fdcd-0ea0-4091-9b28-c7be924773b1"},"vehicle_type_id":"4","last_reported":1718917633,"current_range_meters":17600,"station_id":"ce4bh0p2rcd13ifvqd80","pricing_plan_id":"cebpf4jnsgd1na2vs0mg"},{"bike_id":"3ba1ff58-8226-4444-a255-23173223d171","system_id":"levelo_inurba_marseille","lat":43.305994,"lon":5.393687,"is_reserved":false,"is_disabled":false,"rental_uris":{"android":"levelo://app?vid=3ba1ff58-8226-4444-a255-23173223d171","ios":"levelo://app?vid=3ba1ff58-8226-4444-a255-23173223d171"},"vehicle_type_id":"4","last_reported":1718917633,"current_range_meters":16400,"station_id":"ce4bh0p2rcd13ifvqd80","pricing_plan_id":"cebpf4jnsgd1na2vs0mg"},{"bike_id":"934f55d5-415f-4b90-b18a-a716b000fd3b","system_id":"levelo_inurba_marseille","lat":43.305994,"lon":5.393687,"is_reserved":false,"is_disabled":false,"rental_uris":{"android":"levelo://app?vid=934f55d5-415f-4b90-b18a-a716b000fd3b","ios":"levelo://app?vid=934f55d5-415f-4b90-b18a-a716b000fd3b"},"vehicle_type_id":"4","last_reported":1718917633,"current_range_meters":31200,"station_id":"ce4bh0p2rcd13ifvqd80","pricing_plan_id":"cebpf4jnsgd1na2vs0mg"},{"bike_id":"e37766a1-5ae5-4b70-aeeb-4fa6f74c1050","system_id":"levelo_inurba_marseille","lat":43.305994,"lon":5.393687,"is_reserved":false,"is_disabled":false,"rental_uris":{"android":"levelo://app?vid=e37766a1-5ae5-4b70-aeeb-4fa6f74c1050","ios":"levelo://app?vid=e37766a1-5ae5-4b70-aeeb-4fa6f74c1050"},"vehicle_type_id":"4","last_reported":1718917633,"current_range_meters":24800,"station_id":"ce4bh0p2rcd13ifvqd80","pricing_plan_id":"cebpf4jnsgd1na2vs0mg"},{"bike_id":"69ac5d5a-a55f-49fb-9315-3450889771c2","system_id":"levelo_inurba_marseille","lat":43.305994,"lon":5.393687,"is_reserved":false,"is_disabled":false,"rental_uris":{"android":"levelo://app?vid=69ac5d5a-a55f-49fb-9315-3450889771c2","ios":"levelo://app?vid=69ac5d5a-a55f-49fb-9315-3450889771c2"},"vehicle_type_id":"4","last_reported":1718917633,"current_range_meters":0,"station_id":"ce4bh0p2rcd13ifvqd80","pricing_plan_id":"cebpf4jnsgd1na2vs0mg"},{"bike_id":"7732ad66-8f2d-4132-aacb-11bc10e35c47","system_id":"levelo_inurba_marseille","lat":43.305994,"lon":5.393687,"is_reserved":false,"is_disabled":false,"rental_uris":{"android":"levelo://app?vid=7732ad66-8f2d-4132-aacb-11bc10e35c47","ios":"levelo://app?vid=7732ad66-8f2d-4132-aacb-11bc10e35c47"},"vehicle_type_id":"4","last_reported":1718917633,"current_range_meters":6400,"station_id":"ce4bh0p2rcd13ifvqd80","pricing_plan_id":"cebpf4jnsgd1na2vs0mg"},{"bike_id":"3db4ab97-5298-4953-8f15-4832aa30f728","system_id":"levelo_inurba_marseille","lat":43.303002,"lon":5.392142,"is_reserved":false,"is_disabled":false,"rental_uris":{"android":"levelo://app?vid=3db4ab97-5298-4953-8f15-4832aa30f728","ios":"levelo://app?vid=3db4ab97-5298-4953-8f15-4832aa30f728"},"vehicle_type_id":"4","last_reported":1718917633,"current_range_meters":24800,"station_id":"ce4bgkh2rcd13ifvqbk0","pricing_plan_id":"cebpf4jnsgd1na2vs0mg"},{"bike_id":"b7856473-7fb1-44b3-af2c-dad367750ee9","system_id":"levelo_inurba_marseille","lat":43.29209,"lon":5.365,"is_reserved":false,"is_disabled":false,"rental_uris":{"android":"levelo://app?vid=b7856473-7fb1-44b3-af2c-dad367750ee9","ios":"levelo://app?vid=b7856473-7fb1-44b3-af2c-dad367750ee9"},"vehicle_type_id":"4","last_reported":1718917633,"current_range_meters":4000,"station_id":"","pricing_plan_id":"cebpf4jnsgd1na2vs0mg"},{"bike_id":"016a2da0-23ea-47ba-aee3-ac81e222cd53","system_id":"levelo_inurba_marseille","lat":43.302992,"lon":5.392136,"is_reserved":false,"is_disabled":false,"rental_uris":{"android":"levelo://app?vid=016a2da0-23ea-47ba-aee3-ac81e222cd53","ios":"levelo://app?vid=016a2da0-23ea-47ba-aee3-ac81e222cd53"},"vehicle_type_id":"4","last_reported":1718917633,"current_range_meters":27200,"station_id":"ce4bgkh2rcd13ifvqbk0","pricing_plan_id":"cebpf4jnsgd1na2vs0mg"},{"bike_id":"9e32ccf9-f8c4-4614-8b61-38ad8d84bfa8","system_id":"levelo_inurba_marseille","lat":43.2936,"lon":5.37835,"is_reserved":false,"is_disabled":false,"rental_uris":{"android":"levelo://app?vid=9e32ccf9-f8c4-4614-8b61-38ad8d84bfa8","ios":"levelo://app?vid=9e32ccf9-f8c4-4614-8b61-38ad8d84bfa8"},"vehicle_type_id":"4","last_reported":1718917633,"current_range_meters":28000,"station_id":"ce4bgjh2rcd13ifvqbf0","pricing_plan_id":"cebpf4jnsgd1na2vs0mg"},{"bike_id":"cce12d5c-c837-47aa-aeae-bb3c73987599","system_id":"levelo_inurba_marseille","lat":43.298764,"lon":5.388973,"is_reserved":false,"is_disabled":false,"rental_uris":{"android":"levelo://app?vid=cce12d5c-c837-47aa-aeae-bb3c73987599","ios":"levelo://app?vid=cce12d5c-c837-47aa-aeae-bb3c73987599"},"vehicle_type_id":"4","last_reported":1718917633,"current_range_meters":31200,"station_id":"ce4bh392rcd13ifvqdl0","pricing_plan_id":"cebpf4jnsgd1na2vs0mg"},{"bike_id":"ff724cf7-24c8-4ca5-acab-b01ba004e8e5","system_id":"levelo_inurba_marseille","lat":43.298764,"lon":5.388973,"is_reserved":false,"is_disabled":false,"rental_uris":{"android":"levelo://app?vid=ff724cf7-24c8-4ca5-acab-b01ba004e8e5","ios":"levelo://app?vid=ff724cf7-24c8-4ca5-acab-b01ba004e8e5"},"vehicle_type_id":"4","last_reported":1718917633,"current_range_meters":31200,"station_id":"ce4bh392rcd13ifvqdl0","pricing_plan_id":"cebpf4jnsgd1na2vs0mg"},{"bike_id":"797226b6-2925-41c1-b928-b88caed9c4dd","system_id":"levelo_inurba_marseille","lat":43.308804,"lon":5.396332,"is_reserved":false,"is_disabled":false,"rental_uris":{"android":"levelo://app?vid=797226b6-2925-41c1-b928-b88caed9c4dd","ios":"levelo://app?vid=797226b6-2925-41c1-b928-b88caed9c4dd"},"vehicle_type_id":"4","last_reported":1718917633,"current_range_meters":0,"station_id":"ce4bh012rcd13ifvqcv0","pricing_plan_id":"cebpf4jnsgd1na2vs0mg"},{"bike_id":"34379dad-3668-4893-bd8c-d336fea45c8b","system_id":"levelo_inurba_marseille","lat":43.3133,"lon":5.39686,"is_reserved":false,"is_disabled":false,"rental_uris":{"android":"levelo://app?vid=34379dad-3668-4893-bd8c-d336fea45c8b","ios":"levelo://app?vid=34379dad-3668-4893-bd8c-d336fea45c8b"},"vehicle_type_id":"4","last_reported":1718917633,"current_range_meters":0,"station_id":"ce4bgvp2rcd13ifvqcu0","pricing_plan_id":"cebpf4jnsgd1na2vs0mg"},{"bike_id":"a37fbe27-8b1a-4138-ba44-b31c9df490fc","system_id":"levelo_inurba_marseille","lat":43.313291,"lon":5.396838,"is_reserved":false,"is_disabled":false,"rental_uris":{"android":"levelo://app?vid=a37fbe27-8b1a-4138-ba44-b31c9df490fc","ios":"levelo://app?vid=a37fbe27-8b1a-4138-ba44-b31c9df490fc"},"vehicle_type_id":"4","last_reported":1718917633,"current_range_meters":1200,"station_id":"ce4bgvp2rcd13ifvqcu0","pricing_plan_id":"cebpf4jnsgd1na2vs0mg"},{"bike_id":"7c327da9-a7cf-4026-940a-19a75777cb59","system_id":"levelo_inurba_marseille","lat":43.313291,"lon":5.396838,"is_reserved":false,"is_disabled":false,"rental_uris":{"android":"levelo://app?vid=7c327da9-a7cf-4026-940a-19a75777cb59","ios":"levelo://app?vid=7c327da9-a7cf-4026-940a-19a75777cb59"},"vehicle_type_id":"4","last_reported":1718917633,"current_range_meters":25200,"station_id":"ce4bgvp2rcd13ifvqcu0","pricing_plan_id":"cebpf4jnsgd1na2vs0mg"},{"bike_id":"8d78a410-1384-46ff-9836-a4485882dc34","system_id":"levelo_inurba_marseille","lat":43.3133,"lon":5.39693,"is_reserved":false,"is_disabled":false,"rental_uris":{"android":"levelo://app?vid=8d78a410-1384-46ff-9836-a4485882dc34","ios":"levelo://app?vid=8d78a410-1384-46ff-9836-a4485882dc34"},"vehicle_type_id":"4","last_reported":1718917633,"current_range_meters":0,"station_id":"ce4bgvp2rcd13ifvqcu0","pricing_plan_id":"cebpf4jnsgd1na2vs0mg"},{"bike_id":"eb05c3f0-863f-4177-b661-396965fb1e08","system_id":"levelo_inurba_marseille","lat":43.309038,"lon":5.396546,"is_reserved":false,"is_disabled":false,"rental_uris":{"android":"levelo://app?vid=eb05c3f0-863f-4177-b661-396965fb1e08","ios":"levelo://app?vid=eb05c3f0-863f-4177-b661-396965fb1e08"},"vehicle_type_id":"4","last_reported":1718917633,"current_range_meters":20400,"station_id":"ce4bh012rcd13ifvqcv0","pricing_plan_id":"cebpf4jnsgd1na2vs0mg"},{"bike_id":"166c3e5e-dda9-4ebe-a61a-2db174538338","system_id":"levelo_inurba_marseille","lat":43.309047,"lon":5.396551,"is_reserved":false,"is_disabled":false,"rental_uris":{"android":"levelo://app?vid=166c3e5e-dda9-4ebe-a61a-2db174538338","ios":"levelo://app?vid=166c3e5e-dda9-4ebe-a61a-2db174538338"},"vehicle_type_id":"4","last_reported":1718917633,"current_range_meters":7600,"station_id":"ce4bh012rcd13ifvqcv0","pricing_plan_id":"cebpf4jnsgd1na2vs0mg"},{"bike_id":"b137d64e-5687-43fc-b42f-5663ad0e1e47","system_id":"levelo_inurba_marseille","lat":43.29529,"lon":5.385581,"is_reserved":false,"is_disabled":false,"rental_uris":{"android":"levelo://app?vid=b137d64e-5687-43fc-b42f-5663ad0e1e47","ios":"levelo://app?vid=b137d64e-5687-43fc-b42f-5663ad0e1e47"},"vehicle_type_id":"4","last_reported":1718917633,"current_range_meters":31200,"station_id":"ce4bgih2rcd13ifvqba0","pricing_plan_id":"cebpf4jnsgd1na2vs0mg"},{"bike_id":"fdcfffeb-0f46-447f-848b-8b460b20cb0e","system_id":"levelo_inurba_marseille","lat":43.29529,"lon":5.385581,"is_reserved":false,"is_disabled":false,"rental_uris":{"android":"levelo://app?vid=fdcfffeb-0f46-447f-848b-8b460b20cb0e","ios":"levelo://app?vid=fdcfffeb-0f46-447f-848b-8b460b20cb0e"},"vehicle_type_id":"4","last_reported":1718917633,"current_range_meters":26000,"station_id":"ce4bgih2rcd13ifvqba0","pricing_plan_id":"cebpf4jnsgd1na2vs0mg"},{"bike_id":"9f4f77b1-0b60-45bf-b0ac-2913a88f9d3c","system_id":"levelo_inurba_marseille","lat":43.29529,"lon":5.385581,"is_reserved":false,"is_disabled":false,"rental_uris":{"android":"levelo://app?vid=9f4f77b1-0b60-45bf-b0ac-2913a88f9d3c","ios":"levelo://app?vid=9f4f77b1-0b60-45bf-b0ac-2913a88f9d3c"},"vehicle_type_id":"4","last_reported":1718917633,"current_range_meters":3200,"station_id":"ce4bgih2rcd13ifvqba0","pricing_plan_id":"cebpf4jnsgd1na2vs0mg"},{"bike_id":"e51329bd-7353-4fa5-be9e-20bea31bc981","system_id":"levelo_inurba_marseille","lat":43.29529,"lon":5.385581,"is_reserved":false,"is_disabled":false,"rental_uris":{"android":"levelo://app?vid=e51329bd-7353-4fa5-be9e-20bea31bc981","ios":"levelo://app?vid=e51329bd-7353-4fa5-be9e-20bea31bc981"},"vehicle_type_id":"4","last_reported":1718917633,"current_range_meters":31200,"station_id":"ce4bgih2rcd13ifvqba0","pricing_plan_id":"cebpf4jnsgd1na2vs0mg"},{"bike_id":"e15a0cdf-d6eb-46e7-804d-3e4bb5925df4","system_id":"levelo_inurba_marseille","lat":43.29529,"lon":5.385581,"is_reserved":false,"is_disabled":false,"rental_uris":{"android":"levelo://app?vid=e15a0cdf-d6eb-46e7-804d-3e4bb5925df4","ios":"levelo://app?vid=e15a0cdf-d6eb-46e7-804d-3e4bb5925df4"},"vehicle_type_id":"4","last_reported":1718917633,"current_range_meters":21600,"station_id":"ce4bgih2rcd13ifvqba0","pricing_plan_id":"cebpf4jnsgd1na2vs0mg"},{"bike_id":"0c949227-2c73-44d6-9eba-828a76850e0d","system_id":"levelo_inurba_marseille","lat":43.29529,"lon":5.385581,"is_reserved":false,"is_disabled":false,"rental_uris":{"android":"levelo://app?vid=0c949227-2c73-44d6-9eba-828a76850e0d","ios":"levelo://app?vid=0c949227-2c73-44d6-9eba-828a76850e0d"},"vehicle_type_id":"4","last_reported":1718917633,"current_range_meters":10000,"station_id":"ce4bgih2rcd13ifvqba0","pricing_plan_id":"cebpf4jnsgd1na2vs0mg"},{"bike_id":"99aeb155-475d-419c-9b51-e9a38c0a281f","system_id":"levelo_inurba_marseille","lat":43.29529,"lon":5.385581,"is_reserved":false,"is_disabled":false,"rental_uris":{"android":"levelo://app?vid=99aeb155-475d-419c-9b51-e9a38c0a281f","ios":"levelo://app?vid=99aeb155-475d-419c-9b51-e9a38c0a281f"},"vehicle_type_id":"4","last_reported":1718917633,"current_range_meters":17200,"station_id":"ce4bgih2rcd13ifvqba0","pricing_plan_id":"cebpf4jnsgd1na2vs0mg"},{"bike_id":"82b7f291-e81d-417e-b3ee-21e3702337f0","system_id":"levelo_inurba_marseille","lat":43.29529,"lon":5.385581,"is_reserved":false,"is_disabled":false,"rental_uris":{"android":"levelo://app?vid=82b7f291-e81d-417e-b3ee-21e3702337f0","ios":"levelo://app?vid=82b7f291-e81d-417e-b3ee-21e3702337f0"},"vehicle_type_id":"4","last_reported":1718917633,"current_range_meters":31200,"station_id":"ce4bgih2rcd13ifvqba0","pricing_plan_id":"cebpf4jnsgd1na2vs0mg"},{"bike_id":"a4cfe611-f61d-45f3-af4d-519cdd8b9978","system_id":"levelo_inurba_marseille","lat":43.29529,"lon":5.385581,"is_reserved":false,"is_disabled":false,"rental_uris":{"android":"levelo://app?vid=a4cfe611-f61d-45f3-af4d-519cdd8b9978","ios":"levelo://app?vid=a4cfe611-f61d-45f3-af4d-519cdd8b9978"},"vehicle_type_id":"4","last_reported":1718917633,"current_range_meters":19200,"station_id":"ce4bgih2rcd13ifvqba0","pricing_plan_id":"cebpf4jnsgd1na2vs0mg"},{"bike_id":"5c54588d-93b9-4994-a852-055edeb97278","system_id":"levelo_inurba_marseille","lat":43.29529,"lon":5.385581,"is_reserved":false,"is_disabled":false,"rental_uris":{"android":"levelo://app?vid=5c54588d-93b9-4994-a852-055edeb97278","ios":"levelo://app?vid=5c54588d-93b9-4994-a852-055edeb97278"},"vehicle_type_id":"4","last_reported":1718917633,"current_range_meters":20000,"station_id":"ce4bgih2rcd13ifvqba0","pricing_plan_id":"cebpf4jnsgd1na2vs0mg"},{"bike_id":"c7e6bdd7-d156-407c-86de-c82160e2c540","system_id":"levelo_inurba_marseille","lat":43.29529,"lon":5.385581,"is_reserved":false,"is_disabled":false,"rental_uris":{"android":"levelo://app?vid=c7e6bdd7-d156-407c-86de-c82160e2c540","ios":"levelo://app?vid=c7e6bdd7-d156-407c-86de-c82160e2c540"},"vehicle_type_id":"4","last_reported":1718917633,"current_range_meters":26400,"station_id":"ce4bgih2rcd13ifvqba0","pricing_plan_id":"cebpf4jnsgd1na2vs0mg"},{"bike_id":"7a0430ef-8387-410c-9c3f-efb6daaae732","system_id":"levelo_inurba_marseille","lat":43.29529,"lon":5.385581,"is_reserved":false,"is_disabled":false,"rental_uris":{"android":"levelo://app?vid=7a0430ef-8387-410c-9c3f-efb6daaae732","ios":"levelo://app?vid=7a0430ef-8387-410c-9c3f-efb6daaae732"},"vehicle_type_id":"4","last_reported":1718917633,"current_range_meters":12400,"station_id":"ce4bgih2rcd13ifvqba0","pricing_plan_id":"cebpf4jnsgd1na2vs0mg"},{"bike_id":"d8e33e0b-d450-45e0-87ba-524f64af61bf","system_id":"levelo_inurba_marseille","lat":43.29529,"lon":5.385581,"is_reserved":false,"is_disabled":false,"rental_uris":{"android":"levelo://app?vid=d8e33e0b-d450-45e0-87ba-524f64af61bf","ios":"levelo://app?vid=d8e33e0b-d450-45e0-87ba-524f64af61bf"},"vehicle_type_id":"4","last_reported":1718917633,"current_range_meters":14800,"station_id":"ce4bgih2rcd13ifvqba0","pricing_plan_id":"cebpf4jnsgd1na2vs0mg"},{"bike_id":"67018607-862a-415d-b55d-3f0e65cb6478","system_id":"levelo_inurba_marseille","lat":43.29534,"lon":5.38547,"is_reserved":false,"is_disabled":false,"rental_uris":{"android":"levelo://app?vid=67018607-862a-415d-b55d-3f0e65cb6478","ios":"levelo://app?vid=67018607-862a-415d-b55d-3f0e65cb6478"},"vehicle_type_id":"4","last_reported":1718917633,"current_range_meters":31200,"station_id":"ce4bgih2rcd13ifvqba0","pricing_plan_id":"cebpf4jnsgd1na2vs0mg"},{"bike_id":"48d35319-928a-4d3a-9f6a-6361f3668b88","system_id":"levelo_inurba_marseille","lat":43.29527,"lon":5.38544,"is_reserved":false,"is_disabled":false,"rental_uris":{"android":"levelo://app?vid=48d35319-928a-4d3a-9f6a-6361f3668b88","ios":"levelo://app?vid=48d35319-928a-4d3a-9f6a-6361f3668b88"},"vehicle_type_id":"4","last_reported":1718917633,"current_range_meters":2000,"station_id":"","pricing_plan_id":"cebpf4jnsgd1na2vs0mg"},{"bike_id":"d402e684-be62-4dd7-8409-dab78a687f13","system_id":"levelo_inurba_marseille","lat":43.29529,"lon":5.385581,"is_reserved":false,"is_disabled":false,"rental_uris":{"android":"levelo://app?vid=d402e684-be62-4dd7-8409-dab78a687f13","ios":"levelo://app?vid=d402e684-be62-4dd7-8409-dab78a687f13"},"vehicle_type_id":"4","last_reported":1718917633,"current_range_meters":20000,"station_id":"ce4bgih2rcd13ifvqba0","pricing_plan_id":"cebpf4jnsgd1na2vs0mg"},{"bike_id":"570fd21b-b0fb-4c68-85ca-dc809cb0fc20","system_id":"levelo_inurba_marseille","lat":43.29529,"lon":5.385581,"is_reserved":false,"is_disabled":false,"rental_uris":{"android":"levelo://app?vid=570fd21b-b0fb-4c68-85ca-dc809cb0fc20","ios":"levelo://app?vid=570fd21b-b0fb-4c68-85ca-dc809cb0fc20"},"vehicle_type_id":"4","last_reported":1718917633,"current_range_meters":22800,"station_id":"ce4bgih2rcd13ifvqba0","pricing_plan_id":"cebpf4jnsgd1na2vs0mg"},{"bike_id":"9000e446-1f56-4531-927f-b70680e0152c","system_id":"levelo_inurba_marseille","lat":43.290779,"lon":5.371482,"is_reserved":false,"is_disabled":false,"rental_uris":{"android":"levelo://app?vid=9000e446-1f56-4531-927f-b70680e0152c","ios":"levelo://app?vid=9000e446-1f56-4531-927f-b70680e0152c"},"vehicle_type_id":"4","last_reported":1718917633,"current_range_meters":0,"station_id":"ce4bh5p2rcd13ifvqe4g","pricing_plan_id":"cebpf4jnsgd1na2vs0mg"},{"bike_id":"0e498a82-c1e6-45ee-b05a-c66e3267ed3c","system_id":"levelo_inurba_marseille","lat":43.290779,"lon":5.371482,"is_reserved":false,"is_disabled":false,"rental_uris":{"android":"levelo://app?vid=0e498a82-c1e6-45ee-b05a-c66e3267ed3c","ios":"levelo://app?vid=0e498a82-c1e6-45ee-b05a-c66e3267ed3c"},"vehicle_type_id":"4","last_reported":1718917633,"current_range_meters":14800,"station_id":"ce4bh5p2rcd13ifvqe4g","pricing_plan_id":"cebpf4jnsgd1na2vs0mg"},{"bike_id":"0aa76266-2d33-446b-a9bb-850bfc662df5","system_id":"levelo_inurba_marseille","lat":43.290779,"lon":5.371482,"is_reserved":false,"is_disabled":false,"rental_uris":{"android":"levelo://app?vid=0aa76266-2d33-446b-a9bb-850bfc662df5","ios":"levelo://app?vid=0aa76266-2d33-446b-a9bb-850bfc662df5"},"vehicle_type_id":"4","last_reported":1718917633,"current_range_meters":0,"station_id":"ce4bh5p2rcd13ifvqe4g","pricing_plan_id":"cebpf4jnsgd1na2vs0mg"},{"bike_id":"e23f565d-caf7-4452-976a-5a08238afc75","system_id":"levelo_inurba_marseille","lat":43.30216,"lon":5.39468,"is_reserved":false,"is_disabled":false,"rental_uris":{"android":"levelo://app?vid=e23f565d-caf7-4452-976a-5a08238afc75","ios":"levelo://app?vid=e23f565d-caf7-4452-976a-5a08238afc75"},"vehicle_type_id":"4","last_reported":1718917633,"current_range_meters":30000,"station_id":"","pricing_plan_id":"cebpf4jnsgd1na2vs0mg"},{"bike_id":"386ae3a5-b258-4d64-a9cf-3ccd074d3f67","system_id":"levelo_inurba_marseille","lat":43.302008,"lon":5.394694,"is_reserved":false,"is_disabled":false,"rental_uris":{"android":"levelo://app?vid=386ae3a5-b258-4d64-a9cf-3ccd074d3f67","ios":"levelo://app?vid=386ae3a5-b258-4d64-a9cf-3ccd074d3f67"},"vehicle_type_id":"4","last_reported":1718917633,"current_range_meters":2800,"station_id":"ce4bh0p2rcd13ifvqd70","pricing_plan_id":"cebpf4jnsgd1na2vs0mg"},{"bike_id":"f5fac054-fb6f-4354-9003-d561933abee6","system_id":"levelo_inurba_marseille","lat":43.29041,"lon":5.35911,"is_reserved":false,"is_disabled":false,"rental_uris":{"android":"levelo://app?vid=f5fac054-fb6f-4354-9003-d561933abee6","ios":"levelo://app?vid=f5fac054-fb6f-4354-9003-d561933abee6"},"vehicle_type_id":"4","last_reported":1718917633,"current_range_meters":31200,"station_id":"","pricing_plan_id":"cebpf4jnsgd1na2vs0mg"},{"bike_id":"3a6a56d2-0d8e-48ca-a6e9-d79aa07acaae","system_id":"levelo_inurba_marseille","lat":43.290327,"lon":5.375711,"is_reserved":false,"is_disabled":false,"rental_uris":{"android":"levelo://app?vid=3a6a56d2-0d8e-48ca-a6e9-d79aa07acaae","ios":"levelo://app?vid=3a6a56d2-0d8e-48ca-a6e9-d79aa07acaae"},"vehicle_type_id":"4","last_reported":1718917633,"current_range_meters":29200,"station_id":"ce4bh692rcd13ifvqe90","pricing_plan_id":"cebpf4jnsgd1na2vs0mg"},{"bike_id":"48d4b03e-c7dc-4382-b0a7-860e3fb73bad","system_id":"levelo_inurba_marseille","lat":43.29415,"lon":5.38619,"is_reserved":false,"is_disabled":false,"rental_uris":{"android":"levelo://app?vid=48d4b03e-c7dc-4382-b0a7-860e3fb73bad","ios":"levelo://app?vid=48d4b03e-c7dc-4382-b0a7-860e3fb73bad"},"vehicle_type_id":"4","last_reported":1718917633,"current_range_meters":0,"station_id":"ce4bh2h2rcd13ifvqdh0","pricing_plan_id":"cebpf4jnsgd1na2vs0mg"},{"bike_id":"09956d51-9575-41b2-b605-420fa065d9cf","system_id":"levelo_inurba_marseille","lat":43.28952,"lon":5.36441,"is_reserved":false,"is_disabled":false,"rental_uris":{"android":"levelo://app?vid=09956d51-9575-41b2-b605-420fa065d9cf","ios":"levelo://app?vid=09956d51-9575-41b2-b605-420fa065d9cf"},"vehicle_type_id":"4","last_reported":1718917633,"current_range_meters":17600,"station_id":"","pricing_plan_id":"cebpf4jnsgd1na2vs0mg"},{"bike_id":"61e593ea-bce6-46d2-bb4d-c02dd4e46f9b","system_id":"levelo_inurba_marseille","lat":43.289184,"lon":5.366408,"is_reserved":false,"is_disabled":false,"rental_uris":{"android":"levelo://app?vid=61e593ea-bce6-46d2-bb4d-c02dd4e46f9b","ios":"levelo://app?vid=61e593ea-bce6-46d2-bb4d-c02dd4e46f9b"},"vehicle_type_id":"4","last_reported":1718917633,"current_range_meters":22400,"station_id":"ce4bhap2rcd13ifvqek0","pricing_plan_id":"cebpf4jnsgd1na2vs0mg"},{"bike_id":"84377b3f-eaf9-4f13-8643-f3fb294fff07","system_id":"levelo_inurba_marseille","lat":43.289184,"lon":5.366408,"is_reserved":false,"is_disabled":false,"rental_uris":{"android":"levelo://app?vid=84377b3f-eaf9-4f13-8643-f3fb294fff07","ios":"levelo://app?vid=84377b3f-eaf9-4f13-8643-f3fb294fff07"},"vehicle_type_id":"4","last_reported":1718917633,"current_range_meters":26000,"station_id":"ce4bhap2rcd13ifvqek0","pricing_plan_id":"cebpf4jnsgd1na2vs0mg"},{"bike_id":"45e3b357-d0eb-43e0-9960-2f6596b19383","system_id":"levelo_inurba_marseille","lat":43.289184,"lon":5.366408,"is_reserved":false,"is_disabled":false,"rental_uris":{"android":"levelo://app?vid=45e3b357-d0eb-43e0-9960-2f6596b19383","ios":"levelo://app?vid=45e3b357-d0eb-43e0-9960-2f6596b19383"},"vehicle_type_id":"4","last_reported":1718917633,"current_range_meters":12400,"station_id":"ce4bhap2rcd13ifvqek0","pricing_plan_id":"cebpf4jnsgd1na2vs0mg"},{"bike_id":"1b645a24-5761-4f58-b914-5b862d09cc22","system_id":"levelo_inurba_marseille","lat":43.289184,"lon":5.366408,"is_reserved":false,"is_disabled":false,"rental_uris":{"android":"levelo://app?vid=1b645a24-5761-4f58-b914-5b862d09cc22","ios":"levelo://app?vid=1b645a24-5761-4f58-b914-5b862d09cc22"},"vehicle_type_id":"4","last_reported":1718917633,"current_range_meters":31200,"station_id":"ce4bhap2rcd13ifvqek0","pricing_plan_id":"cebpf4jnsgd1na2vs0mg"},{"bike_id":"c43eeec0-c772-451a-8848-7609484092fa","system_id":"levelo_inurba_marseille","lat":43.28943,"lon":5.36386,"is_reserved":false,"is_disabled":false,"rental_uris":{"android":"levelo://app?vid=c43eeec0-c772-451a-8848-7609484092fa","ios":"levelo://app?vid=c43eeec0-c772-451a-8848-7609484092fa"},"vehicle_type_id":"4","last_reported":1718917633,"current_range_meters":31200,"station_id":"ce4bhc92rcd13ifvqetg","pricing_plan_id":"cebpf4jnsgd1na2vs0mg"},{"bike_id":"135cc199-7613-4b6c-ba9a-ead34dba0b0a","system_id":"levelo_inurba_marseille","lat":43.289372,"lon":5.364088,"is_reserved":false,"is_disabled":false,"rental_uris":{"android":"levelo://app?vid=135cc199-7613-4b6c-ba9a-ead34dba0b0a","ios":"levelo://app?vid=135cc199-7613-4b6c-ba9a-ead34dba0b0a"},"vehicle_type_id":"4","last_reported":1718917633,"current_range_meters":31200,"station_id":"ce4bhc92rcd13ifvqetg","pricing_plan_id":"cebpf4jnsgd1na2vs0mg"},{"bike_id":"5042770f-6a8d-4063-9e0b-5f97e5b3fd73","system_id":"levelo_inurba_marseille","lat":43.29024,"lon":5.35729,"is_reserved":false,"is_disabled":false,"rental_uris":{"android":"levelo://app?vid=5042770f-6a8d-4063-9e0b-5f97e5b3fd73","ios":"levelo://app?vid=5042770f-6a8d-4063-9e0b-5f97e5b3fd73"},"vehicle_type_id":"4","last_reported":1718917633,"current_range_meters":8400,"station_id":"ce4bhb92rcd13ifvqen0","pricing_plan_id":"cebpf4jnsgd1na2vs0mg"},{"bike_id":"96f92477-3ad6-447a-a60d-d9f0478ffb86","system_id":"levelo_inurba_marseille","lat":43.304274,"lon":5.397513,"is_reserved":false,"is_disabled":false,"rental_uris":{"android":"levelo://app?vid=96f92477-3ad6-447a-a60d-d9f0478ffb86","ios":"levelo://app?vid=96f92477-3ad6-447a-a60d-d9f0478ffb86"},"vehicle_type_id":"4","last_reported":1718917633,"current_range_meters":6000,"station_id":"ce4bh092rcd13ifvqd20","pricing_plan_id":"cebpf4jnsgd1na2vs0mg"},{"bike_id":"7a2e1636-ed30-4eb3-ad68-4e4ffbff8434","system_id":"levelo_inurba_marseille","lat":43.304296,"lon":5.397513,"is_reserved":false,"is_disabled":false,"rental_uris":{"android":"levelo://app?vid=7a2e1636-ed30-4eb3-ad68-4e4ffbff8434","ios":"levelo://app?vid=7a2e1636-ed30-4eb3-ad68-4e4ffbff8434"},"vehicle_type_id":"4","last_reported":1718917633,"current_range_meters":29200,"station_id":"ce4bh092rcd13ifvqd20","pricing_plan_id":"cebpf4jnsgd1na2vs0mg"},{"bike_id":"56a92b16-d34b-45bb-9d95-4c12124be4d6","system_id":"levelo_inurba_marseille","lat":43.304274,"lon":5.397513,"is_reserved":false,"is_disabled":false,"rental_uris":{"android":"levelo://app?vid=56a92b16-d34b-45bb-9d95-4c12124be4d6","ios":"levelo://app?vid=56a92b16-d34b-45bb-9d95-4c12124be4d6"},"vehicle_type_id":"4","last_reported":1718917633,"current_range_meters":27600,"station_id":"ce4bh092rcd13ifvqd20","pricing_plan_id":"cebpf4jnsgd1na2vs0mg"},{"bike_id":"03a137f8-5bc7-4f6b-98f4-a7a16158dd84","system_id":"levelo_inurba_marseille","lat":43.304296,"lon":5.397513,"is_reserved":false,"is_disabled":false,"rental_uris":{"android":"levelo://app?vid=03a137f8-5bc7-4f6b-98f4-a7a16158dd84","ios":"levelo://app?vid=03a137f8-5bc7-4f6b-98f4-a7a16158dd84"},"vehicle_type_id":"4","last_reported":1718917633,"current_range_meters":9600,"station_id":"ce4bh092rcd13ifvqd20","pricing_plan_id":"cebpf4jnsgd1na2vs0mg"},{"bike_id":"bcc62547-2759-4bd8-9acd-b9b5bcce1fd6","system_id":"levelo_inurba_marseille","lat":43.292653,"lon":5.38438,"is_reserved":false,"is_disabled":false,"rental_uris":{"android":"levelo://app?vid=bcc62547-2759-4bd8-9acd-b9b5bcce1fd6","ios":"levelo://app?vid=bcc62547-2759-4bd8-9acd-b9b5bcce1fd6"},"vehicle_type_id":"4","last_reported":1718917633,"current_range_meters":30800,"station_id":"ce4bh692rcd13ifvqea0","pricing_plan_id":"cebpf4jnsgd1na2vs0mg"},{"bike_id":"be3c60ed-0e5f-45e4-95a1-8eb622c04f66","system_id":"levelo_inurba_marseille","lat":43.29265,"lon":5.38438,"is_reserved":false,"is_disabled":false,"rental_uris":{"android":"levelo://app?vid=be3c60ed-0e5f-45e4-95a1-8eb622c04f66","ios":"levelo://app?vid=be3c60ed-0e5f-45e4-95a1-8eb622c04f66"},"vehicle_type_id":"4","last_reported":1718917633,"current_range_meters":25200,"station_id":"ce4bh692rcd13ifvqea0","pricing_plan_id":"cebpf4jnsgd1na2vs0mg"},{"bike_id":"77992b8e-ff84-4b20-9ae9-5ab5ce467df3","system_id":"levelo_inurba_marseille","lat":43.292624,"lon":5.384487,"is_reserved":false,"is_disabled":false,"rental_uris":{"android":"levelo://app?vid=77992b8e-ff84-4b20-9ae9-5ab5ce467df3","ios":"levelo://app?vid=77992b8e-ff84-4b20-9ae9-5ab5ce467df3"},"vehicle_type_id":"4","last_reported":1718917633,"current_range_meters":25600,"station_id":"ce4bh692rcd13ifvqea0","pricing_plan_id":"cebpf4jnsgd1na2vs0mg"},{"bike_id":"51087e11-bf45-482a-aeb8-7e31ac47fc2f","system_id":"levelo_inurba_marseille","lat":43.31047,"lon":5.40005,"is_reserved":false,"is_disabled":false,"rental_uris":{"android":"levelo://app?vid=51087e11-bf45-482a-aeb8-7e31ac47fc2f","ios":"levelo://app?vid=51087e11-bf45-482a-aeb8-7e31ac47fc2f"},"vehicle_type_id":"4","last_reported":1718917633,"current_range_meters":18400,"station_id":"","pricing_plan_id":"cebpf4jnsgd1na2vs0mg"},{"bike_id":"c7117699-7250-46ff-a066-f3b5228516a1","system_id":"levelo_inurba_marseille","lat":43.290995,"lon":5.381361,"is_reserved":false,"is_disabled":false,"rental_uris":{"android":"levelo://app?vid=c7117699-7250-46ff-a066-f3b5228516a1","ios":"levelo://app?vid=c7117699-7250-46ff-a066-f3b5228516a1"},"vehicle_type_id":"4","last_reported":1718917633,"current_range_meters":21200,"station_id":"ce4bh512rcd13ifvqe2g","pricing_plan_id":"cebpf4jnsgd1na2vs0mg"},{"bike_id":"8827d72a-a326-4556-aaed-773d6e462781","system_id":"levelo_inurba_marseille","lat":43.2979,"lon":5.39334,"is_reserved":false,"is_disabled":false,"rental_uris":{"android":"levelo://app?vid=8827d72a-a326-4556-aaed-773d6e462781","ios":"levelo://app?vid=8827d72a-a326-4556-aaed-773d6e462781"},"vehicle_type_id":"4","last_reported":1718917633,"current_range_meters":24000,"station_id":"chh1huq6cuj3fo74tm60","pricing_plan_id":"cebpf4jnsgd1na2vs0mg"},{"bike_id":"fe08988a-f0ba-472d-a7e3-e1e0a3cc6db3","system_id":"levelo_inurba_marseille","lat":43.297815,"lon":5.393548,"is_reserved":false,"is_disabled":false,"rental_uris":{"android":"levelo://app?vid=fe08988a-f0ba-472d-a7e3-e1e0a3cc6db3","ios":"levelo://app?vid=fe08988a-f0ba-472d-a7e3-e1e0a3cc6db3"},"vehicle_type_id":"4","last_reported":1718917633,"current_range_meters":22000,"station_id":"chh1huq6cuj3fo74tm60","pricing_plan_id":"cebpf4jnsgd1na2vs0mg"},{"bike_id":"224f2168-34f2-44d7-953f-df054fecd2f8","system_id":"levelo_inurba_marseille","lat":43.297815,"lon":5.393548,"is_reserved":false,"is_disabled":false,"rental_uris":{"android":"levelo://app?vid=224f2168-34f2-44d7-953f-df054fecd2f8","ios":"levelo://app?vid=224f2168-34f2-44d7-953f-df054fecd2f8"},"vehicle_type_id":"4","last_reported":1718917633,"current_range_meters":8000,"station_id":"chh1huq6cuj3fo74tm60","pricing_plan_id":"cebpf4jnsgd1na2vs0mg"},{"bike_id":"3c89eeba-bc81-4aec-a224-8039c4d9661f","system_id":"levelo_inurba_marseille","lat":43.297815,"lon":5.393548,"is_reserved":false,"is_disabled":false,"rental_uris":{"android":"levelo://app?vid=3c89eeba-bc81-4aec-a224-8039c4d9661f","ios":"levelo://app?vid=3c89eeba-bc81-4aec-a224-8039c4d9661f"},"vehicle_type_id":"4","last_reported":1718917633,"current_range_meters":18000,"station_id":"chh1huq6cuj3fo74tm60","pricing_plan_id":"cebpf4jnsgd1na2vs0mg"},{"bike_id":"50351c82-8bb3-4ff9-8560-502f2fcc4737","system_id":"levelo_inurba_marseille","lat":43.295169,"lon":5.390426,"is_reserved":false,"is_disabled":false,"rental_uris":{"android":"levelo://app?vid=50351c82-8bb3-4ff9-8560-502f2fcc4737","ios":"levelo://app?vid=50351c82-8bb3-4ff9-8560-502f2fcc4737"},"vehicle_type_id":"4","last_reported":1718917633,"current_range_meters":29200,"station_id":"ce4bh3p2rcd13ifvqdp0","pricing_plan_id":"cebpf4jnsgd1na2vs0mg"},{"bike_id":"5372b9d3-1065-4ae7-b7ce-160bc8f87012","system_id":"levelo_inurba_marseille","lat":43.295169,"lon":5.390426,"is_reserved":false,"is_disabled":false,"rental_uris":{"android":"levelo://app?vid=5372b9d3-1065-4ae7-b7ce-160bc8f87012","ios":"levelo://app?vid=5372b9d3-1065-4ae7-b7ce-160bc8f87012"},"vehicle_type_id":"4","last_reported":1718917633,"current_range_meters":30400,"station_id":"ce4bh3p2rcd13ifvqdp0","pricing_plan_id":"cebpf4jnsgd1na2vs0mg"},{"bike_id":"25221645-c9c1-4ae5-bbb2-08b84b3da146","system_id":"levelo_inurba_marseille","lat":43.295169,"lon":5.390426,"is_reserved":false,"is_disabled":false,"rental_uris":{"android":"levelo://app?vid=25221645-c9c1-4ae5-bbb2-08b84b3da146","ios":"levelo://app?vid=25221645-c9c1-4ae5-bbb2-08b84b3da146"},"vehicle_type_id":"4","last_reported":1718917633,"current_range_meters":6000,"station_id":"ce4bh3p2rcd13ifvqdp0","pricing_plan_id":"cebpf4jnsgd1na2vs0mg"},{"bike_id":"1b2ba2b8-8a14-41bd-a745-fc1ed4e747bf","system_id":"levelo_inurba_marseille","lat":43.330442,"lon":5.389148,"is_reserved":false,"is_disabled":false,"rental_uris":{"android":"levelo://app?vid=1b2ba2b8-8a14-41bd-a745-fc1ed4e747bf","ios":"levelo://app?vid=1b2ba2b8-8a14-41bd-a745-fc1ed4e747bf"},"vehicle_type_id":"4","last_reported":1718917633,"current_range_meters":22800,"station_id":"ce4bhr92rcd13ifvqhrg","pricing_plan_id":"cebpf4jnsgd1na2vs0mg"},{"bike_id":"f1be8d72-5eda-4707-a9da-267f054e2c0a","system_id":"levelo_inurba_marseille","lat":43.295169,"lon":5.390426,"is_reserved":false,"is_disabled":false,"rental_uris":{"android":"levelo://app?vid=f1be8d72-5eda-4707-a9da-267f054e2c0a","ios":"levelo://app?vid=f1be8d72-5eda-4707-a9da-267f054e2c0a"},"vehicle_type_id":"4","last_reported":1718917633,"current_range_meters":22000,"station_id":"ce4bh3p2rcd13ifvqdp0","pricing_plan_id":"cebpf4jnsgd1na2vs0mg"},{"bike_id":"91cc6f93-4b3d-483f-b941-647992c1ddab","system_id":"levelo_inurba_marseille","lat":43.330442,"lon":5.389148,"is_reserved":false,"is_disabled":false,"rental_uris":{"android":"levelo://app?vid=91cc6f93-4b3d-483f-b941-647992c1ddab","ios":"levelo://app?vid=91cc6f93-4b3d-483f-b941-647992c1ddab"},"vehicle_type_id":"4","last_reported":1718917633,"current_range_meters":1200,"station_id":"ce4bhr92rcd13ifvqhrg","pricing_plan_id":"cebpf4jnsgd1na2vs0mg"},{"bike_id":"338ae2d0-7db7-4957-8d3b-51a4f9183f3a","system_id":"levelo_inurba_marseille","lat":43.33025,"lon":5.39041,"is_reserved":false,"is_disabled":false,"rental_uris":{"android":"levelo://app?vid=338ae2d0-7db7-4957-8d3b-51a4f9183f3a","ios":"levelo://app?vid=338ae2d0-7db7-4957-8d3b-51a4f9183f3a"},"vehicle_type_id":"4","last_reported":1718917633,"current_range_meters":24400,"station_id":"ce4bhr92rcd13ifvqhrg","pricing_plan_id":"cebpf4jnsgd1na2vs0mg"},{"bike_id":"f0d10023-2f9e-43b5-a7ed-fef80065c39c","system_id":"levelo_inurba_marseille","lat":43.330442,"lon":5.389148,"is_reserved":false,"is_disabled":false,"rental_uris":{"android":"levelo://app?vid=f0d10023-2f9e-43b5-a7ed-fef80065c39c","ios":"levelo://app?vid=f0d10023-2f9e-43b5-a7ed-fef80065c39c"},"vehicle_type_id":"4","last_reported":1718917633,"current_range_meters":23600,"station_id":"ce4bhr92rcd13ifvqhrg","pricing_plan_id":"cebpf4jnsgd1na2vs0mg"},{"bike_id":"1f243108-1d50-4650-a8cd-ede3535c3a07","system_id":"levelo_inurba_marseille","lat":43.330442,"lon":5.389148,"is_reserved":false,"is_disabled":false,"rental_uris":{"android":"levelo://app?vid=1f243108-1d50-4650-a8cd-ede3535c3a07","ios":"levelo://app?vid=1f243108-1d50-4650-a8cd-ede3535c3a07"},"vehicle_type_id":"4","last_reported":1718917633,"current_range_meters":22400,"station_id":"ce4bhr92rcd13ifvqhrg","pricing_plan_id":"cebpf4jnsgd1na2vs0mg"},{"bike_id":"f95ae27a-00ba-4039-9988-3d6b422868e7","system_id":"levelo_inurba_marseille","lat":43.301117,"lon":5.398795,"is_reserved":false,"is_disabled":false,"rental_uris":{"android":"levelo://app?vid=f95ae27a-00ba-4039-9988-3d6b422868e7","ios":"levelo://app?vid=f95ae27a-00ba-4039-9988-3d6b422868e7"},"vehicle_type_id":"4","last_reported":1718917633,"current_range_meters":10000,"station_id":"ce4bh0h2rcd13ifvqd40","pricing_plan_id":"cebpf4jnsgd1na2vs0mg"},{"bike_id":"88f357c2-34de-4604-9b63-cd623809feab","system_id":"levelo_inurba_marseille","lat":43.295169,"lon":5.390426,"is_reserved":false,"is_disabled":false,"rental_uris":{"android":"levelo://app?vid=88f357c2-34de-4604-9b63-cd623809feab","ios":"levelo://app?vid=88f357c2-34de-4604-9b63-cd623809feab"},"vehicle_type_id":"4","last_reported":1718917633,"current_range_meters":30000,"station_id":"ce4bh3p2rcd13ifvqdp0","pricing_plan_id":"cebpf4jnsgd1na2vs0mg"},{"bike_id":"a050e984-a7a6-4c0f-a7c8-4b509bc534ab","system_id":"levelo_inurba_marseille","lat":43.28856,"lon":5.358371,"is_reserved":false,"is_disabled":false,"rental_uris":{"android":"levelo://app?vid=a050e984-a7a6-4c0f-a7c8-4b509bc534ab","ios":"levelo://app?vid=a050e984-a7a6-4c0f-a7c8-4b509bc534ab"},"vehicle_type_id":"4","last_reported":1718917633,"current_range_meters":28000,"station_id":"ce4bhb12rcd13ifvqem0","pricing_plan_id":"cebpf4jnsgd1na2vs0mg"},{"bike_id":"b93683d8-7b88-4fa7-be9d-eac01d755a08","system_id":"levelo_inurba_marseille","lat":43.28856,"lon":5.358371,"is_reserved":false,"is_disabled":false,"rental_uris":{"android":"levelo://app?vid=b93683d8-7b88-4fa7-be9d-eac01d755a08","ios":"levelo://app?vid=b93683d8-7b88-4fa7-be9d-eac01d755a08"},"vehicle_type_id":"4","last_reported":1718917633,"current_range_meters":9600,"station_id":"ce4bhb12rcd13ifvqem0","pricing_plan_id":"cebpf4jnsgd1na2vs0mg"},{"bike_id":"8e48be88-ae90-4b7b-9965-976e01f4da1a","system_id":"levelo_inurba_marseille","lat":43.28856,"lon":5.358371,"is_reserved":false,"is_disabled":false,"rental_uris":{"android":"levelo://app?vid=8e48be88-ae90-4b7b-9965-976e01f4da1a","ios":"levelo://app?vid=8e48be88-ae90-4b7b-9965-976e01f4da1a"},"vehicle_type_id":"4","last_reported":1718917633,"current_range_meters":23200,"station_id":"ce4bhb12rcd13ifvqem0","pricing_plan_id":"cebpf4jnsgd1na2vs0mg"},{"bike_id":"6649f763-1564-4bd2-a4d8-04b118440976","system_id":"levelo_inurba_marseille","lat":43.312609,"lon":5.401662,"is_reserved":false,"is_disabled":false,"rental_uris":{"android":"levelo://app?vid=6649f763-1564-4bd2-a4d8-04b118440976","ios":"levelo://app?vid=6649f763-1564-4bd2-a4d8-04b118440976"},"vehicle_type_id":"4","last_reported":1718917633,"current_range_meters":28400,"station_id":"ce4bh092rcd13ifvqd30","pricing_plan_id":"cebpf4jnsgd1na2vs0mg"},{"bike_id":"ee23d7a5-234a-420e-8c7d-b5633a658d2c","system_id":"levelo_inurba_marseille","lat":43.312609,"lon":5.401662,"is_reserved":false,"is_disabled":false,"rental_uris":{"android":"levelo://app?vid=ee23d7a5-234a-420e-8c7d-b5633a658d2c","ios":"levelo://app?vid=ee23d7a5-234a-420e-8c7d-b5633a658d2c"},"vehicle_type_id":"4","last_reported":1718917633,"current_range_meters":31600,"station_id":"ce4bh092rcd13ifvqd30","pricing_plan_id":"cebpf4jnsgd1na2vs0mg"},{"bike_id":"1e9e8b5b-c718-452f-a287-47dd5786760b","system_id":"levelo_inurba_marseille","lat":43.312609,"lon":5.401662,"is_reserved":false,"is_disabled":false,"rental_uris":{"android":"levelo://app?vid=1e9e8b5b-c718-452f-a287-47dd5786760b","ios":"levelo://app?vid=1e9e8b5b-c718-452f-a287-47dd5786760b"},"vehicle_type_id":"4","last_reported":1718917633,"current_range_meters":31200,"station_id":"ce4bh092rcd13ifvqd30","pricing_plan_id":"cebpf4jnsgd1na2vs0mg"},{"bike_id":"5e3d7496-0f00-415a-9652-c05c0d2d3f90","system_id":"levelo_inurba_marseille","lat":43.312609,"lon":5.401662,"is_reserved":false,"is_disabled":false,"rental_uris":{"android":"levelo://app?vid=5e3d7496-0f00-415a-9652-c05c0d2d3f90","ios":"levelo://app?vid=5e3d7496-0f00-415a-9652-c05c0d2d3f90"},"vehicle_type_id":"4","last_reported":1718917633,"current_range_meters":15600,"station_id":"ce4bh092rcd13ifvqd30","pricing_plan_id":"cebpf4jnsgd1na2vs0mg"},{"bike_id":"4a19fca7-e61c-4e46-9165-ea91cb1fde63","system_id":"levelo_inurba_marseille","lat":43.312609,"lon":5.401662,"is_reserved":false,"is_disabled":false,"rental_uris":{"android":"levelo://app?vid=4a19fca7-e61c-4e46-9165-ea91cb1fde63","ios":"levelo://app?vid=4a19fca7-e61c-4e46-9165-ea91cb1fde63"},"vehicle_type_id":"4","last_reported":1718917633,"current_range_meters":15600,"station_id":"ce4bh092rcd13ifvqd30","pricing_plan_id":"cebpf4jnsgd1na2vs0mg"},{"bike_id":"539bf309-08e9-4e49-954b-c9287516ec39","system_id":"levelo_inurba_marseille","lat":43.309371,"lon":5.401449,"is_reserved":false,"is_disabled":false,"rental_uris":{"android":"levelo://app?vid=539bf309-08e9-4e49-954b-c9287516ec39","ios":"levelo://app?vid=539bf309-08e9-4e49-954b-c9287516ec39"},"vehicle_type_id":"4","last_reported":1718917633,"current_range_meters":18800,"station_id":"ce4bgvp2rcd13ifvqct0","pricing_plan_id":"cebpf4jnsgd1na2vs0mg"},{"bike_id":"800b6b4b-57a4-48e3-af00-218424a805bd","system_id":"levelo_inurba_marseille","lat":43.309371,"lon":5.401449,"is_reserved":false,"is_disabled":false,"rental_uris":{"android":"levelo://app?vid=800b6b4b-57a4-48e3-af00-218424a805bd","ios":"levelo://app?vid=800b6b4b-57a4-48e3-af00-218424a805bd"},"vehicle_type_id":"4","last_reported":1718917633,"current_range_meters":2000,"station_id":"ce4bgvp2rcd13ifvqct0","pricing_plan_id":"cebpf4jnsgd1na2vs0mg"},{"bike_id":"e3eeeefd-0b03-4bef-a8e6-42e7bf08d5a3","system_id":"levelo_inurba_marseille","lat":43.312609,"lon":5.401662,"is_reserved":false,"is_disabled":false,"rental_uris":{"android":"levelo://app?vid=e3eeeefd-0b03-4bef-a8e6-42e7bf08d5a3","ios":"levelo://app?vid=e3eeeefd-0b03-4bef-a8e6-42e7bf08d5a3"},"vehicle_type_id":"4","last_reported":1718917633,"current_range_meters":2000,"station_id":"ce4bh092rcd13ifvqd30","pricing_plan_id":"cebpf4jnsgd1na2vs0mg"},{"bike_id":"2556f5e1-8fd6-4aeb-8995-b345f9ac10e2","system_id":"levelo_inurba_marseille","lat":43.309371,"lon":5.401449,"is_reserved":false,"is_disabled":false,"rental_uris":{"android":"levelo://app?vid=2556f5e1-8fd6-4aeb-8995-b345f9ac10e2","ios":"levelo://app?vid=2556f5e1-8fd6-4aeb-8995-b345f9ac10e2"},"vehicle_type_id":"4","last_reported":1718917633,"current_range_meters":10000,"station_id":"ce4bgvp2rcd13ifvqct0","pricing_plan_id":"cebpf4jnsgd1na2vs0mg"},{"bike_id":"de475248-fb49-4ab7-8421-e8e1ead40325","system_id":"levelo_inurba_marseille","lat":43.309371,"lon":5.401449,"is_reserved":false,"is_disabled":false,"rental_uris":{"android":"levelo://app?vid=de475248-fb49-4ab7-8421-e8e1ead40325","ios":"levelo://app?vid=de475248-fb49-4ab7-8421-e8e1ead40325"},"vehicle_type_id":"4","last_reported":1718917633,"current_range_meters":20400,"station_id":"ce4bgvp2rcd13ifvqct0","pricing_plan_id":"cebpf4jnsgd1na2vs0mg"},{"bike_id":"df8b96b9-c0b4-439f-be93-729c3b253f59","system_id":"levelo_inurba_marseille","lat":43.309371,"lon":5.401449,"is_reserved":false,"is_disabled":false,"rental_uris":{"android":"levelo://app?vid=df8b96b9-c0b4-439f-be93-729c3b253f59","ios":"levelo://app?vid=df8b96b9-c0b4-439f-be93-729c3b253f59"},"vehicle_type_id":"4","last_reported":1718917633,"current_range_meters":28800,"station_id":"ce4bgvp2rcd13ifvqct0","pricing_plan_id":"cebpf4jnsgd1na2vs0mg"},{"bike_id":"12aea8d9-9f66-4ae3-a6fa-68c21a4a8ea9","system_id":"levelo_inurba_marseille","lat":43.309371,"lon":5.401449,"is_reserved":false,"is_disabled":false,"rental_uris":{"android":"levelo://app?vid=12aea8d9-9f66-4ae3-a6fa-68c21a4a8ea9","ios":"levelo://app?vid=12aea8d9-9f66-4ae3-a6fa-68c21a4a8ea9"},"vehicle_type_id":"4","last_reported":1718917633,"current_range_meters":3200,"station_id":"ce4bgvp2rcd13ifvqct0","pricing_plan_id":"cebpf4jnsgd1na2vs0mg"},{"bike_id":"c6dc8b24-86a6-4b4a-8e99-42e9a990b693","system_id":"levelo_inurba_marseille","lat":43.309371,"lon":5.401449,"is_reserved":false,"is_disabled":false,"rental_uris":{"android":"levelo://app?vid=c6dc8b24-86a6-4b4a-8e99-42e9a990b693","ios":"levelo://app?vid=c6dc8b24-86a6-4b4a-8e99-42e9a990b693"},"vehicle_type_id":"4","last_reported":1718917633,"current_range_meters":23200,"station_id":"ce4bgvp2rcd13ifvqct0","pricing_plan_id":"cebpf4jnsgd1na2vs0mg"},