{"last_updated":1731622097,"ttl":60,"version":"2.2","data":{"bikes":[{"bike_id":"56fd2d8a-006a-4fe7-b503-b5e93b9874ad","system_id":"levelo_inurba_marseille","lat":43.29531,"lon":5.39398,"is_reserved":false,"is_disabled":false,"rental_uris":{"android":"levelo://app?vid=56fd2d8a-006a-4fe7-b503-b5e93b9874ad","ios":"levelo://app?vid=56fd2d8a-006a-4fe7-b503-b5e93b9874ad"},"vehicle_type_id":"4","last_reported":1731622097,"current_range_meters":28400,"station_id":"ce4bh292rcd13ifvqdf0","pricing_plan_id":"cebpf4jnsgd1na2vs0mg"},{"bike_id":"10494d96-9881-4e51-8e2a-8bcab418527e","system_id":"levelo_inurba_marseille","lat":43.31886,"lon":5.40734,"is_reserved":false,"is_disabled":false,"rental_uris":{"android":"levelo://app?vid=10494d96-9881-4e51-8e2a-8bcab418527e","ios":"levelo://app?vid=10494d96-9881-4e51-8e2a-8bcab418527e"},"vehicle_type_id":"4","last_reported":1731622097,"current_range_meters":16800,"station_id":"ce4bhq12rcd13ifvqhig","pricing_plan_id":"cebpf4jnsgd1na2vs0mg"},{"bike_id":"1d936b62-1bb8-40f6-afdf-7dac3ed8caa9","system_id":"levelo_inurba_marseille","lat":43.28451,"lon":5.35897,"is_reserved":false,"is_disabled":false,"rental_uris":{"android":"levelo://app?vid=1d936b62-1bb8-40f6-afdf-7dac3ed8caa9","ios":"levelo://app?vid=1d936b62-1bb8-40f6-afdf-7dac3ed8caa9"},"vehicle_type_id":"4","last_reported":1731622097,"current_range_meters":17600,"station_id":"ce4bhah2rcd13ifvqei0","pricing_plan_id":"cebpf4jnsgd1na2vs0mg"},{"bike_id":"2c96f6ca-2597-4e0f-bec7-ba4c545d4690","system_id":"levelo_inurba_marseille","lat":43.28725,"lon":5.361,"is_reserved":false,"is_disabled":false,"rental_uris":{"android":"levelo://app?vid=2c96f6ca-2597-4e0f-bec7-ba4c545d4690","ios":"levelo://app?vid=2c96f6ca-2597-4e0f-bec7-ba4c545d4690"},"vehicle_type_id":"4","last_reported":1731622097,"current_range_meters":38800,"station_id":"cki0cbj6b192h4jlfktg","pricing_plan_id":"cebpf4jnsgd1na2vs0mg"},{"bike_id":"93ee4e53-0b08-432a-8df5-beb35cdea60c","system_id":"levelo_inurba_marseille","lat":43.24386,"lon":5.37055,"is_reserved":false,"is_disabled":false,"rental_uris":{"android":"levelo://app?vid=93ee4e53-0b08-432a-8df5-beb35cdea60c","ios":"levelo://app?vid=93ee4e53-0b08-432a-8df5-beb35cdea60c"},"vehicle_type_id":"4","last_reported":1731622097,"current_range_meters":38000,"station_id":"ce4bhhh2rcd13ifvqfk0","pricing_plan_id":"cebpf4jnsgd1na2vs0mg"},{"bike_id":"c64a60b6-317d-4054-8f52-b03871d4495a","system_id":"levelo_inurba_marseille","lat":43.30804,"lon":5.4352,"is_reserved":false,"is_disabled":false,"rental_uris":{"android":"levelo://app?vid=c64a60b6-317d-4054-8f52-b03871d4495a","ios":"levelo://app?vid=c64a60b6-317d-4054-8f52-b03871d4495a"},"vehicle_type_id":"4","last_reported":1731622097,"current_range_meters":7200,"station_id":"ce4bhph2rcd13ifvqheg","pricing_plan_id":"cebpf4jnsgd1na2vs0mg"},{"bike_id":"5993bac6-5c24-49b7-a326-e88b8c1f8cc7","system_id":"levelo_inurba_marseille","lat":43.3136,"lon":5.38502,"is_reserved":false,"is_disabled":false,"rental_uris":{"android":"levelo://app?vid=5993bac6-5c24-49b7-a326-e88b8c1f8cc7","ios":"levelo://app?vid=5993bac6-5c24-49b7-a326-e88b8c1f8cc7"},"vehicle_type_id":"4","last_reported":1731622097,"current_range_meters":37600,"station_id":"ce4bgt92rcd13ifvqcf0","pricing_plan_id":"cebpf4jnsgd1na2vs0mg"},{"bike_id":"44611800-1428-408c-9660-04824b7466ef","system_id":"levelo_inurba_marseille","lat":43.25866,"lon":5.39905,"is_reserved":false,"is_disabled":false,"rental_uris":{"android":"levelo://app?vid=44611800-1428-408c-9660-04824b7466ef","ios":"levelo://app?vid=44611800-1428-408c-9660-04824b7466ef"},"vehicle_type_id":"4","last_reported":1731622097,"current_range_meters":33600,"station_id":"ce4bhl92rcd13ifvqghg","pricing_plan_id":"cebpf4jnsgd1na2vs0mg"},{"bike_id":"16fde11b-ad8b-4dc1-964d-0dcff4c00b3f","system_id":"levelo_inurba_marseille","lat":43.27996,"lon":5.40019,"is_reserved":false,"is_disabled":false,"rental_uris":{"android":"levelo://app?vid=16fde11b-ad8b-4dc1-964d-0dcff4c00b3f","ios":"levelo://app?vid=16fde11b-ad8b-4dc1-964d-0dcff4c00b3f"},"vehicle_type_id":"4","last_reported":1731622097,"current_range_meters":30000,"station_id":"ce4bho92rcd13ifvqh4g","pricing_plan_id":"cebpf4jnsgd1na2vs0mg"},{"bike_id":"8b22f74b-1b72-47ca-8c5e-a56972a0285b","system_id":"levelo_inurba_marseille","lat":43.30888,"lon":5.39646,"is_reserved":false,"is_disabled":false,"rental_uris":{"android":"levelo://app?vid=8b22f74b-1b72-47ca-8c5e-a56972a0285b","ios":"levelo://app?vid=8b22f74b-1b72-47ca-8c5e-a56972a0285b"},"vehicle_type_id":"4","last_reported":1731622097,"current_range_meters":38800,"station_id":"ce4bh012rcd13ifvqcv0","pricing_plan_id":"cebpf4jnsgd1na2vs0mg"},{"bike_id":"78b77ac8-4c63-432d-b19f-de7fa33d9847","system_id":"levelo_inurba_marseille","lat":43.34152,"lon":5.40911,"is_reserved":false,"is_disabled":false,"rental_uris":{"android":"levelo://app?vid=78b77ac8-4c63-432d-b19f-de7fa33d9847","ios":"levelo://app?vid=78b77ac8-4c63-432d-b19f-de7fa33d9847"},"vehicle_type_id":"4","last_reported":1731622097,"current_range_meters":37600,"station_id":"ce4bhqh2rcd13ifvqhlg","pricing_plan_id":"cebpf4jnsgd1na2vs0mg"},{"bike_id":"03a975f5-5857-4808-ac83-1e08fd421270","system_id":"levelo_inurba_marseille","lat":43.32365,"lon":5.38886,"is_reserved":false,"is_disabled":false,"rental_uris":{"android":"levelo://app?vid=03a975f5-5857-4808-ac83-1e08fd421270","ios":"levelo://app?vid=03a975f5-5857-4808-ac83-1e08fd421270"},"vehicle_type_id":"4","last_reported":1731622097,"current_range_meters":32800,"station_id":"ce4bhqp2rcd13ifvqhog","pricing_plan_id":"cebpf4jnsgd1na2vs0mg"},{"bike_id":"8fe6870c-d4e4-4cf1-ae49-95374b449b00","system_id":"levelo_inurba_marseille","lat":43.300949,"lon":5.391017,"is_reserved":false,"is_disabled":false,"rental_uris":{"android":"levelo://app?vid=8fe6870c-d4e4-4cf1-ae49-95374b449b00","ios":"levelo://app?vid=8fe6870c-d4e4-4cf1-ae49-95374b449b00"},"vehicle_type_id":"4","last_reported":1731622097,"current_range_meters":24400,"station_id":"ce4bh192rcd13ifvqdb0","pricing_plan_id":"cebpf4jnsgd1na2vs0mg"},{"bike_id":"322929c1-8f42-441c-a8e7-5b80c2019ad2","system_id":"levelo_inurba_marseille","lat":43.282627,"lon":5.350585,"is_reserved":false,"is_disabled":false,"rental_uris":{"android":"levelo://app?vid=322929c1-8f42-441c-a8e7-5b80c2019ad2","ios":"levelo://app?vid=322929c1-8f42-441c-a8e7-5b80c2019ad2"},"vehicle_type_id":"4","last_reported":1731622097,"current_range_meters":39200,"station_id":"ce4bhbp2rcd13ifvqerg","pricing_plan_id":"cebpf4jnsgd1na2vs0mg"},{"bike_id":"e3cb1a55-4148-430e-8e94-feb4c70ed1b6","system_id":"levelo_inurba_marseille","lat":43.241776,"lon":5.397183,"is_reserved":false,"is_disabled":false,"rental_uris":{"android":"levelo://app?vid=e3cb1a55-4148-430e-8e94-feb4c70ed1b6","ios":"levelo://app?vid=e3cb1a55-4148-430e-8e94-feb4c70ed1b6"},"vehicle_type_id":"4","last_reported":1731622097,"current_range_meters":9200,"station_id":"ce4bhn12rcd13ifvqgpg","pricing_plan_id":"cebpf4jnsgd1na2vs0mg"},{"bike_id":"bd976e31-5225-4116-a406-80069dff21f2","system_id":"levelo_inurba_marseille","lat":43.28038,"lon":5.36941,"is_reserved":false,"is_disabled":false,"rental_uris":{"android":"levelo://app?vid=bd976e31-5225-4116-a406-80069dff21f2","ios":"levelo://app?vid=bd976e31-5225-4116-a406-80069dff21f2"},"vehicle_type_id":"4","last_reported":1731622097,"current_range_meters":38800,"station_id":"ce4bha12rcd13ifvqef0","pricing_plan_id":"cebpf4jnsgd1na2vs0mg"},{"bike_id":"9ef76943-592f-4d3b-a0f1-da70d440e9b4","system_id":"levelo_inurba_marseille","lat":43.29898,"lon":5.43668,"is_reserved":false,"is_disabled":false,"rental_uris":{"android":"levelo://app?vid=9ef76943-592f-4d3b-a0f1-da70d440e9b4","ios":"levelo://app?vid=9ef76943-592f-4d3b-a0f1-da70d440e9b4"},"vehicle_type_id":"4","last_reported":1731622097,"current_range_meters":26000,"station_id":"ce4bhpp2rcd13ifvqhfg","pricing_plan_id":"cebpf4jnsgd1na2vs0mg"},{"bike_id":"ff9e8fbd-afb5-4332-8f0e-8863372f7ff1","system_id":"levelo_inurba_marseille","lat":43.28149,"lon":5.42645,"is_reserved":false,"is_disabled":false,"rental_uris":{"android":"levelo://app?vid=ff9e8fbd-afb5-4332-8f0e-8863372f7ff1","ios":"levelo://app?vid=ff9e8fbd-afb5-4332-8f0e-8863372f7ff1"},"vehicle_type_id":"4","last_reported":1731622097,"current_range_meters":19200,"station_id":"ce4bhnh2rcd13ifvqgug","pricing_plan_id":"cebpf4jnsgd1na2vs0mg"},{"bike_id":"a2824603-538d-4f20-8dcc-bb0102e732b8","system_id":"levelo_inurba_marseille","lat":43.2781,"lon":5.40701,"is_reserved":false,"is_disabled":false,"rental_uris":{"android":"levelo://app?vid=a2824603-538d-4f20-8dcc-bb0102e732b8","ios":"levelo://app?vid=a2824603-538d-4f20-8dcc-bb0102e732b8"},"vehicle_type_id":"4","last_reported":1731622097,"current_range_meters":39200,"station_id":"ce4bhnh2rcd13ifvqgtg","pricing_plan_id":"cebpf4jnsgd1na2vs0mg"},{"bike_id":"12be8816-9edc-48be-afea-bec14c436cd5","system_id":"levelo_inurba_marseille","lat":43.323419,"lon":5.406196,"is_reserved":false,"is_disabled":false,"rental_uris":{"android":"levelo://app?vid=12be8816-9edc-48be-afea-bec14c436cd5","ios":"levelo://app?vid=12be8816-9edc-48be-afea-bec14c436cd5"},"vehicle_type_id":"4","last_reported":1731622097,"current_range_meters":38400,"station_id":"ce4bhq92rcd13ifvqhjg","pricing_plan_id":"cebpf4jnsgd1na2vs0mg"},{"bike_id":"9d799bfc-f0b2-4562-b6fa-e2aea1f67f5d","system_id":"levelo_inurba_marseille","lat":43.28855,"lon":5.3586,"is_reserved":false,"is_disabled":false,"rental_uris":{"android":"levelo://app?vid=9d799bfc-f0b2-4562-b6fa-e2aea1f67f5d","ios":"levelo://app?vid=9d799bfc-f0b2-4562-b6fa-e2aea1f67f5d"},"vehicle_type_id":"4","last_reported":1731622097,"current_range_meters":22800,"station_id":"ce4bhb12rcd13ifvqem0","pricing_plan_id":"cebpf4jnsgd1na2vs0mg"},{"bike_id":"354f040a-9ab6-488a-9d26-4c39ec3baaa7","system_id":"levelo_inurba_marseille","lat":43.23205,"lon":5.35547,"is_reserved":false,"is_disabled":false,"rental_uris":{"android":"levelo://app?vid=354f040a-9ab6-488a-9d26-4c39ec3baaa7","ios":"levelo://app?vid=354f040a-9ab6-488a-9d26-4c39ec3baaa7"},"vehicle_type_id":"4","last_reported":1731622097,"current_range_meters":38800,"station_id":"ce4bhu92rcd13ifvqi70","pricing_plan_id":"cebpf4jnsgd1na2vs0mg"},{"bike_id":"238dc81d-120a-41e0-a5be-506cc79c5c19","system_id":"levelo_inurba_marseille","lat":43.2885,"lon":5.35855,"is_reserved":false,"is_disabled":false,"rental_uris":{"android":"levelo://app?vid=238dc81d-120a-41e0-a5be-506cc79c5c19","ios":"levelo://app?vid=238dc81d-120a-41e0-a5be-506cc79c5c19"},"vehicle_type_id":"4","last_reported":1731622097,"current_range_meters":12800,"station_id":"ce4bhb12rcd13ifvqem0","pricing_plan_id":"cebpf4jnsgd1na2vs0mg"},{"bike_id":"cc999a11-b6da-4e1f-8619-c6896eff70e7","system_id":"levelo_inurba_marseille","lat":43.295751,"lon":5.399791,"is_reserved":false,"is_disabled":false,"rental_uris":{"android":"levelo://app?vid=cc999a11-b6da-4e1f-8619-c6896eff70e7","ios":"levelo://app?vid=cc999a11-b6da-4e1f-8619-c6896eff70e7"},"vehicle_type_id":"4","last_reported":1731622097,"current_range_meters":21600,"station_id":"","pricing_plan_id":"cebpf4jnsgd1na2vs0mg"},{"bike_id":"0260fce1-189f-4c03-8fc8-ab055174978c","system_id":"levelo_inurba_marseille","lat":43.28096,"lon":5.37831,"is_reserved":false,"is_disabled":false,"rental_uris":{"android":"levelo://app?vid=0260fce1-189f-4c03-8fc8-ab055174978c","ios":"levelo://app?vid=0260fce1-189f-4c03-8fc8-ab055174978c"},"vehicle_type_id":"4","last_reported":1731622097,"current_range_meters":6800,"station_id":"ce4bha12rcd13ifvqee0","pricing_plan_id":"cebpf4jnsgd1na2vs0mg"},{"bike_id":"b983f6e5-3fdf-4e84-afe9-f31e1871bb9a","system_id":"levelo_inurba_marseille","lat":43.2846,"lon":5.35885,"is_reserved":false,"is_disabled":false,"rental_uris":{"android":"levelo://app?vid=b983f6e5-3fdf-4e84-afe9-f31e1871bb9a","ios":"levelo://app?vid=b983f6e5-3fdf-4e84-afe9-f31e1871bb9a"},"vehicle_type_id":"4","last_reported":1731622097,"current_range_meters":22000,"station_id":"ce4bhah2rcd13ifvqei0","pricing_plan_id":"cebpf4jnsgd1na2vs0mg"},{"bike_id":"4a74f469-1d99-48ee-a8ca-9199898c00a4","system_id":"levelo_inurba_marseille","lat":43.2319,"lon":5.35543,"is_reserved":false,"is_disabled":false,"rental_uris":{"android":"levelo://app?vid=4a74f469-1d99-48ee-a8ca-9199898c00a4","ios":"levelo://app?vid=4a74f469-1d99-48ee-a8ca-9199898c00a4"},"vehicle_type_id":"4","last_reported":1731622097,"current_range_meters":18800,"station_id":"ce4bhu92rcd13ifvqi70","pricing_plan_id":"cebpf4jnsgd1na2vs0mg"},{"bike_id":"d13a87f9-953a-4c4d-9d1f-b8db7eaf93ea","system_id":"levelo_inurba_marseille","lat":43.30325,"lon":5.40443,"is_reserved":false,"is_disabled":false,"rental_uris":{"android":"levelo://app?vid=d13a87f9-953a-4c4d-9d1f-b8db7eaf93ea","ios":"levelo://app?vid=d13a87f9-953a-4c4d-9d1f-b8db7eaf93ea"},"vehicle_type_id":"4","last_reported":1731622097,"current_range_meters":33200,"station_id":"ce4bh012rcd13ifvqd10","pricing_plan_id":"cebpf4jnsgd1na2vs0mg"},{"bike_id":"f9e23001-9d7e-4d65-bab4-fde64f764db9","system_id":"levelo_inurba_marseille","lat":43.293365,"lon":5.371594,"is_reserved":false,"is_disabled":false,"rental_uris":{"android":"levelo://app?vid=f9e23001-9d7e-4d65-bab4-fde64f764db9","ios":"levelo://app?vid=f9e23001-9d7e-4d65-bab4-fde64f764db9"},"vehicle_type_id":"4","last_reported":1731622097,"current_range_meters":16000,"station_id":"ce4bh612rcd13ifvqe6g","pricing_plan_id":"cebpf4jnsgd1na2vs0mg"},{"bike_id":"5a9487f5-1f4a-4526-91df-278697abb58b","system_id":"levelo_inurba_marseille","lat":43.2816,"lon":5.42647,"is_reserved":false,"is_disabled":false,"rental_uris":{"android":"levelo://app?vid=5a9487f5-1f4a-4526-91df-278697abb58b","ios":"levelo://app?vid=5a9487f5-1f4a-4526-91df-278697abb58b"},"vehicle_type_id":"4","last_reported":1731622097,"current_range_meters":23200,"station_id":"ce4bhnh2rcd13ifvqgug","pricing_plan_id":"cebpf4jnsgd1na2vs0mg"},{"bike_id":"27d06be6-0f29-44e6-815e-eb87b790327b","system_id":"levelo_inurba_marseille","lat":43.2794,"lon":5.41038,"is_reserved":false,"is_disabled":false,"rental_uris":{"android":"levelo://app?vid=27d06be6-0f29-44e6-815e-eb87b790327b","ios":"levelo://app?vid=27d06be6-0f29-44e6-815e-eb87b790327b"},"vehicle_type_id":"4","last_reported":1731622097,"current_range_meters":8800,"station_id":"ce4bhnp2rcd13ifvqh0g","pricing_plan_id":"cebpf4jnsgd1na2vs0mg"},{"bike_id":"12491cd5-0566-4373-af79-d3a99275b0f7","system_id":"levelo_inurba_marseille","lat":43.30319,"lon":5.40438,"is_reserved":false,"is_disabled":false,"rental_uris":{"android":"levelo://app?vid=12491cd5-0566-4373-af79-d3a99275b0f7","ios":"levelo://app?vid=12491cd5-0566-4373-af79-d3a99275b0f7"},"vehicle_type_id":"4","last_reported":1731622097,"current_range_meters":36000,"station_id":"ce4bh012rcd13ifvqd10","pricing_plan_id":"cebpf4jnsgd1na2vs0mg"},{"bike_id":"b84919f5-2a67-42b6-8358-c3ba73182bca","system_id":"levelo_inurba_marseille","lat":43.280738,"lon":5.396574,"is_reserved":false,"is_disabled":false,"rental_uris":{"android":"levelo://app?vid=b84919f5-2a67-42b6-8358-c3ba73182bca","ios":"levelo://app?vid=b84919f5-2a67-42b6-8358-c3ba73182bca"},"vehicle_type_id":"4","last_reported":1731622097,"current_range_meters":38000,"station_id":"ce4bho12rcd13ifvqh2g","pricing_plan_id":"cebpf4jnsgd1na2vs0mg"},{"bike_id":"ac9ff0e2-0c2f-4cb0-8b16-0d7bb3087fdf","system_id":"levelo_inurba_marseille","lat":43.26951,"lon":5.3863,"is_reserved":false,"is_disabled":false,"rental_uris":{"android":"levelo://app?vid=ac9ff0e2-0c2f-4cb0-8b16-0d7bb3087fdf","ios":"levelo://app?vid=ac9ff0e2-0c2f-4cb0-8b16-0d7bb3087fdf"},"vehicle_type_id":"4","last_reported":1731622097,"current_range_meters":39200,"station_id":"ce4bhh92rcd13ifvqfh0","pricing_plan_id":"cebpf4jnsgd1na2vs0mg"},{"bike_id":"89913496-209d-42f3-83b0-621a9e82faa6","system_id":"levelo_inurba_marseille","lat":43.317559,"lon":5.39016,"is_reserved":false,"is_disabled":false,"rental_uris":{"android":"levelo://app?vid=89913496-209d-42f3-83b0-621a9e82faa6","ios":"levelo://app?vid=89913496-209d-42f3-83b0-621a9e82faa6"},"vehicle_type_id":"4","last_reported":1731622097,"current_range_meters":36800,"station_id":"ce4bhqp2rcd13ifvqhng","pricing_plan_id":"cebpf4jnsgd1na2vs0mg"},{"bike_id":"2c35c49c-dc15-40b0-90c8-c6504305c667","system_id":"levelo_inurba_marseille","lat":43.28721,"lon":5.36081,"is_reserved":false,"is_disabled":false,"rental_uris":{"android":"levelo://app?vid=2c35c49c-dc15-40b0-90c8-c6504305c667","ios":"levelo://app?vid=2c35c49c-dc15-40b0-90c8-c6504305c667"},"vehicle_type_id":"4","last_reported":1731622097,"current_range_meters":40000,"station_id":"cki0cbj6b192h4jlfktg","pricing_plan_id":"cebpf4jnsgd1na2vs0mg"},{"bike_id":"cdce8673-200c-455e-8f7f-c78d0fab3e45","system_id":"levelo_inurba_marseille","lat":43.30323,"lon":5.40427,"is_reserved":false,"is_disabled":false,"rental_uris":{"android":"levelo://app?vid=cdce8673-200c-455e-8f7f-c78d0fab3e45","ios":"levelo://app?vid=cdce8673-200c-455e-8f7f-c78d0fab3e45"},"vehicle_type_id":"4","last_reported":1731622097,"current_range_meters":37600,"station_id":"ce4bh012rcd13ifvqd10","pricing_plan_id":"cebpf4jnsgd1na2vs0mg"},{"bike_id":"ea5ad0b2-48a6-4d38-99d0-8a91e3a1cf4e","system_id":"levelo_inurba_marseille","lat":43.23959,"lon":5.36629,"is_reserved":false,"is_disabled":false,"rental_uris":{"android":"levelo://app?vid=ea5ad0b2-48a6-4d38-99d0-8a91e3a1cf4e","ios":"levelo://app?vid=ea5ad0b2-48a6-4d38-99d0-8a91e3a1cf4e"},"vehicle_type_id":"4","last_reported":1731622097,"current_range_meters":38800,"station_id":"ce4bhi12rcd13ifvqfp0","pricing_plan_id":"cebpf4jnsgd1na2vs0mg"},{"bike_id":"81117fe0-1e47-4966-a7e0-0145c8ef9c98","system_id":"levelo_inurba_marseille","lat":43.25859,"lon":5.39909,"is_reserved":false,"is_disabled":false,"rental_uris":{"android":"levelo://app?vid=81117fe0-1e47-4966-a7e0-0145c8ef9c98","ios":"levelo://app?vid=81117fe0-1e47-4966-a7e0-0145c8ef9c98"},"vehicle_type_id":"4","last_reported":1731622097,"current_range_meters":5600,"station_id":"ce4bhl92rcd13ifvqghg","pricing_plan_id":"cebpf4jnsgd1na2vs0mg"},{"bike_id":"5c495074-f0a5-4b38-b863-af2e25b66c81","system_id":"levelo_inurba_marseille","lat":43.31492,"lon":5.37301,"is_reserved":false,"is_disabled":false,"rental_uris":{"android":"levelo://app?vid=5c495074-f0a5-4b38-b863-af2e25b66c81","ios":"levelo://app?vid=5c495074-f0a5-4b38-b863-af2e25b66c81"},"vehicle_type_id":"4","last_reported":1731622097,"current_range_meters":16800,"station_id":"ce4bgt12rcd13ifvqcd0","pricing_plan_id":"cebpf4jnsgd1na2vs0mg"},{"bike_id":"1cd6853f-ffdd-4358-bc58-45b6b9d8d7be","system_id":"levelo_inurba_marseille","lat":43.28852,"lon":5.35858,"is_reserved":false,"is_disabled":false,"rental_uris":{"android":"levelo://app?vid=1cd6853f-ffdd-4358-bc58-45b6b9d8d7be","ios":"levelo://app?vid=1cd6853f-ffdd-4358-bc58-45b6b9d8d7be"},"vehicle_type_id":"4","last_reported":1731622097,"current_range_meters":38000,"station_id":"ce4bhb12rcd13ifvqem0","pricing_plan_id":"cebpf4jnsgd1na2vs0mg"},{"bike_id":"f3261bfe-54e6-422d-9a80-717eea542e06","system_id":"levelo_inurba_marseille","lat":43.28862,"lon":5.35859,"is_reserved":false,"is_disabled":false,"rental_uris":{"android":"levelo://app?vid=f3261bfe-54e6-422d-9a80-717eea542e06","ios":"levelo://app?vid=f3261bfe-54e6-422d-9a80-717eea542e06"},"vehicle_type_id":"4","last_reported":1731622097,"current_range_meters":30800,"station_id":"ce4bhb12rcd13ifvqem0","pricing_plan_id":"cebpf4jnsgd1na2vs0mg"},{"bike_id":"75e4bcf7-fd2c-48cf-9ce4-e635708ac52b","system_id":"levelo_inurba_marseille","lat":43.293675,"lon":5.38718,"is_reserved":false,"is_disabled":false,"rental_uris":{"android":"levelo://app?vid=75e4bcf7-fd2c-48cf-9ce4-e635708ac52b","ios":"levelo://app?vid=75e4bcf7-fd2c-48cf-9ce4-e635708ac52b"},"vehicle_type_id":"4","last_reported":1731622097,"current_range_meters":30400,"station_id":"ce4bh112rcd13ifvqda0","pricing_plan_id":"cebpf4jnsgd1na2vs0mg"},{"bike_id":"05fb42e7-b4d9-498f-8ace-2aea46ef664f","system_id":"levelo_inurba_marseille","lat":43.31267,"lon":5.40167,"is_reserved":false,"is_disabled":false,"rental_uris":{"android":"levelo://app?vid=05fb42e7-b4d9-498f-8ace-2aea46ef664f","ios":"levelo://app?vid=05fb42e7-b4d9-498f-8ace-2aea46ef664f"},"vehicle_type_id":"4","last_reported":1731622097,"current_range_meters":30800,"station_id":"ce4bh092rcd13ifvqd30","pricing_plan_id":"cebpf4jnsgd1na2vs0mg"},{"bike_id":"94c1df7f-9573-4b5a-b9cd-8bc2ab009242","system_id":"levelo_inurba_marseille","lat":43.27811,"lon":5.40707,"is_reserved":false,"is_disabled":false,"rental_uris":{"android":"levelo://app?vid=94c1df7f-9573-4b5a-b9cd-8bc2ab009242","ios":"levelo://app?vid=94c1df7f-9573-4b5a-b9cd-8bc2ab009242"},"vehicle_type_id":"4","last_reported":1731622097,"current_range_meters":39200,"station_id":"ce4bhnh2rcd13ifvqgtg","pricing_plan_id":"cebpf4jnsgd1na2vs0mg"},{"bike_id":"f81262a3-c4a2-4466-a803-f2f2fe03c106","system_id":"levelo_inurba_marseille","lat":43.29194,"lon":5.3933,"is_reserved":false,"is_disabled":false,"rental_uris":{"android":"levelo://app?vid=f81262a3-c4a2-4466-a803-f2f2fe03c106","ios":"levelo://app?vid=f81262a3-c4a2-4466-a803-f2f2fe03c106"},"vehicle_type_id":"4","last_reported":1731622097,"current_range_meters":38800,"station_id":"ce4bh192rcd13ifvqdd0","pricing_plan_id":"cebpf4jnsgd1na2vs0mg"},{"bike_id":"efa8c3d1-15b0-406a-a10a-ef5ffefd3156","system_id":"levelo_inurba_marseille","lat":43.28109,"lon":5.37844,"is_reserved":false,"is_disabled":false,"rental_uris":{"android":"levelo://app?vid=efa8c3d1-15b0-406a-a10a-ef5ffefd3156","ios":"levelo://app?vid=efa8c3d1-15b0-406a-a10a-ef5ffefd3156"},"vehicle_type_id":"4","last_reported":1731622097,"current_range_meters":9600,"station_id":"ce4bha12rcd13ifvqee0","pricing_plan_id":"cebpf4jnsgd1na2vs0mg"},{"bike_id":"6849b40a-d2cb-405b-8d12-27bb6776ee63","system_id":"levelo_inurba_marseille","lat":43.29074,"lon":5.37181,"is_reserved":false,"is_disabled":false,"rental_uris":{"android":"levelo://app?vid=6849b40a-d2cb-405b-8d12-27bb6776ee63","ios":"levelo://app?vid=6849b40a-d2cb-405b-8d12-27bb6776ee63"},"vehicle_type_id":"4","last_reported":1731622097,"current_range_meters":38400,"station_id":"ce4bh5p2rcd13ifvqe4g","pricing_plan_id":"cebpf4jnsgd1na2vs0mg"},{"bike_id":"9b537900-f91c-4869-bd85-85b7a0aad3e9","system_id":"levelo_inurba_marseille","lat":43.2797,"lon":5.38735,"is_reserved":false,"is_disabled":false,"rental_uris":{"android":"levelo://app?vid=9b537900-f91c-4869-bd85-85b7a0aad3e9","ios":"levelo://app?vid=9b537900-f91c-4869-bd85-85b7a0aad3e9"},"vehicle_type_id":"4","last_reported":1731622097,"current_range_meters":30800,"station_id":"ce4bhg12rcd13ifvqf80","pricing_plan_id":"cebpf4jnsgd1na2vs0mg"},{"bike_id":"96a87de2-2230-4da2-b75f-01c5c0e27949","system_id":"levelo_inurba_marseille","lat":43.26212,"lon":5.37446,"is_reserved":false,"is_disabled":false,"rental_uris":{"android":"levelo://app?vid=96a87de2-2230-4da2-b75f-01c5c0e27949","ios":"levelo://app?vid=96a87de2-2230-4da2-b75f-01c5c0e27949"},"vehicle_type_id":"4","last_reported":1731622097,"current_range_meters":34800,"station_id":"ce4bhgp2rcd13ifvqfc0","pricing_plan_id":"cebpf4jnsgd1na2vs0mg"},{"bike_id":"a5d62cce-cc9c-41aa-ac86-0eec74aeed9a","system_id":"levelo_inurba_marseille","lat":43.32367,"lon":5.38885,"is_reserved":false,"is_disabled":false,"rental_uris":{"android":"levelo://app?vid=a5d62cce-cc9c-41aa-ac86-0eec74aeed9a","ios":"levelo://app?vid=a5d62cce-cc9c-41aa-ac86-0eec74aeed9a"},"vehicle_type_id":"4","last_reported":1731622097,"current_range_meters":12800,"station_id":"ce4bhqp2rcd13ifvqhog","pricing_plan_id":"cebpf4jnsgd1na2vs0mg"},{"bike_id":"424cff11-b483-4184-8dab-be42e72b648e","system_id":"levelo_inurba_marseille","lat":43.31319,"lon":5.39694,"is_reserved":false,"is_disabled":false,"rental_uris":{"android":"levelo://app?vid=424cff11-b483-4184-8dab-be42e72b648e","ios":"levelo://app?vid=424cff11-b483-4184-8dab-be42e72b648e"},"vehicle_type_id":"4","last_reported":1731622097,"current_range_meters":18800,"station_id":"ce4bgvp2rcd13ifvqcu0","pricing_plan_id":"cebpf4jnsgd1na2vs0mg"},{"bike_id":"653a4563-33db-4194-9bb5-387d16bacd01","system_id":"levelo_inurba_marseille","lat":43.29029,"lon":5.37566,"is_reserved":false,"is_disabled":false,"rental_uris":{"android":"levelo://app?vid=653a4563-33db-4194-9bb5-387d16bacd01","ios":"levelo://app?vid=653a4563-33db-4194-9bb5-387d16bacd01"},"vehicle_type_id":"4","last_reported":1731622097,"current_range_meters":38800,"station_id":"ce4bh692rcd13ifvqe90","pricing_plan_id":"cebpf4jnsgd1na2vs0mg"},{"bike_id":"3f972a24-5744-4a24-bd78-0b23937d4da8","system_id":"levelo_inurba_marseille","lat":43.31535,"lon":5.38025,"is_reserved":false,"is_disabled":false,"rental_uris":{"android":"levelo://app?vid=3f972a24-5744-4a24-bd78-0b23937d4da8","ios":"levelo://app?vid=3f972a24-5744-4a24-bd78-0b23937d4da8"},"vehicle_type_id":"4","last_reported":1731622097,"current_range_meters":29600,"station_id":"ce4bhsp2rcd13ifvqi50","pricing_plan_id":"cebpf4jnsgd1na2vs0mg"},{"bike_id":"905e9d7f-4c09-4eaa-97a7-99bf75673614","system_id":"levelo_inurba_marseille","lat":43.30931,"lon":5.40142,"is_reserved":false,"is_disabled":false,"rental_uris":{"android":"levelo://app?vid=905e9d7f-4c09-4eaa-97a7-99bf75673614","ios":"levelo://app?vid=905e9d7f-4c09-4eaa-97a7-99bf75673614"},"vehicle_type_id":"4","last_reported":1731622097,"current_range_meters":38000,"station_id":"ce4bgvp2rcd13ifvqct0","pricing_plan_id":"cebpf4jnsgd1na2vs0mg"},{"bike_id":"167e501f-4cdd-48cd-8ef5-684c0a5dd309","system_id":"levelo_inurba_marseille","lat":43.28461,"lon":5.35892,"is_reserved":false,"is_disabled":false,"rental_uris":{"android":"levelo://app?vid=167e501f-4cdd-48cd-8ef5-684c0a5dd309","ios":"levelo://app?vid=167e501f-4cdd-48cd-8ef5-684c0a5dd309"},"vehicle_type_id":"4","last_reported":1731622097,"current_range_meters":11200,"station_id":"ce4bhah2rcd13ifvqei0","pricing_plan_id":"cebpf4jnsgd1na2vs0mg"},{"bike_id":"9b2b2486-f3ad-43dd-9972-051be7f2ddba","system_id":"levelo_inurba_marseille","lat":43.28155,"lon":5.42636,"is_reserved":false,"is_disabled":false,"rental_uris":{"android":"levelo://app?vid=9b2b2486-f3ad-43dd-9972-051be7f2ddba","ios":"levelo://app?vid=9b2b2486-f3ad-43dd-9972-051be7f2ddba"},"vehicle_type_id":"4","last_reported":1731622097,"current_range_meters":38400,"station_id":"ce4bhnh2rcd13ifvqgug","pricing_plan_id":"cebpf4jnsgd1na2vs0mg"},{"bike_id":"675fe710-f9e5-46cf-95f1-88cbcbaf9606","system_id":"levelo_inurba_marseille","lat":43.2815,"lon":5.42645,"is_reserved":false,"is_disabled":false,"rental_uris":{"android":"levelo://app?vid=675fe710-f9e5-46cf-95f1-88cbcbaf9606","ios":"levelo://app?vid=675fe710-f9e5-46cf-95f1-88cbcbaf9606"},"vehicle_type_id":"4","last_reported":1731622097,"current_range_meters":28400,"station_id":"ce4bhnh2rcd13ifvqgug","pricing_plan_id":"cebpf4jnsgd1na2vs0mg"},{"bike_id":"467e06f8-8e59-4c72-950d-efe3464d762a","system_id":"levelo_inurba_marseille","lat":43.30352,"lon":5.41882,"is_reserved":false,"is_disabled":false,"rental_uris":{"android":"levelo://app?vid=467e06f8-8e59-4c72-950d-efe3464d762a","ios":"levelo://app?vid=467e06f8-8e59-4c72-950d-efe3464d762a"},"vehicle_type_id":"4","last_reported":1731622097,"current_range_meters":25200,"station_id":"ce4bhop2rcd13ifvqh7g","pricing_plan_id":"cebpf4jnsgd1na2vs0mg"},{"bike_id":"bb65540a-63bf-482e-ae28-4c05953402e5","system_id":"levelo_inurba_marseille","lat":43.23191,"lon":5.39968,"is_reserved":false,"is_disabled":false,"rental_uris":{"android":"levelo://app?vid=bb65540a-63bf-482e-ae28-4c05953402e5","ios":"levelo://app?vid=bb65540a-63bf-482e-ae28-4c05953402e5"},"vehicle_type_id":"4","last_reported":1731622097,"current_range_meters":8800,"station_id":"ce4bhn12rcd13ifvqgqg","pricing_plan_id":"cebpf4jnsgd1na2vs0mg"},{"bike_id":"df7f14e8-03da-402b-ad76-8e5a3da7bc84","system_id":"levelo_inurba_marseille","lat":43.30877,"lon":5.39629,"is_reserved":false,"is_disabled":false,"rental_uris":{"android":"levelo://app?vid=df7f14e8-03da-402b-ad76-8e5a3da7bc84","ios":"levelo://app?vid=df7f14e8-03da-402b-ad76-8e5a3da7bc84"},"vehicle_type_id":"4","last_reported":1731622097,"current_range_meters":27200,"station_id":"ce4bh012rcd13ifvqcv0","pricing_plan_id":"cebpf4jnsgd1na2vs0mg"},{"bike_id":"a271cbfc-3cc6-4a9e-bc9d-57e735019ddf","system_id":"levelo_inurba_marseille","lat":43.31324,"lon":5.39688,"is_reserved":false,"is_disabled":false,"rental_uris":{"android":"levelo://app?vid=a271cbfc-3cc6-4a9e-bc9d-57e735019ddf","ios":"levelo://app?vid=a271cbfc-3cc6-4a9e-bc9d-57e735019ddf"},"vehicle_type_id":"4","last_reported":1731622097,"current_range_meters":32800,"station_id":"ce4bgvp2rcd13ifvqcu0","pricing_plan_id":"cebpf4jnsgd1na2vs0mg"},{"bike_id":"19403e5b-9388-47f8-803d-8d1235a538c6","system_id":"levelo_inurba_marseille","lat":43.23185,"lon":5.35556,"is_reserved":false,"is_disabled":false,"rental_uris":{"android":"levelo://app?vid=19403e5b-9388-47f8-803d-8d1235a538c6","ios":"levelo://app?vid=19403e5b-9388-47f8-803d-8d1235a538c6"},"vehicle_type_id":"4","last_reported":1731622097,"current_range_meters":39200,"station_id":"ce4bhu92rcd13ifvqi70","pricing_plan_id":"cebpf4jnsgd1na2vs0mg"},{"bike_id":"dff7b9a3-d1f1-446b-94fd-a71bb1847898","system_id":"levelo_inurba_marseille","lat":43.23955,"lon":5.36628,"is_reserved":false,"is_disabled":false,"rental_uris":{"android":"levelo://app?vid=dff7b9a3-d1f1-446b-94fd-a71bb1847898","ios":"levelo://app?vid=dff7b9a3-d1f1-446b-94fd-a71bb1847898"},"vehicle_type_id":"4","last_reported":1731622097,"current_range_meters":38800,"station_id":"ce4bhi12rcd13ifvqfp0","pricing_plan_id":"cebpf4jnsgd1na2vs0mg"},{"bike_id":"e950bf4f-a36a-44c8-99fb-91246952c7ba","system_id":"levelo_inurba_marseille","lat":43.28406,"lon":5.37512,"is_reserved":false,"is_disabled":false,"rental_uris":{"android":"levelo://app?vid=e950bf4f-a36a-44c8-99fb-91246952c7ba","ios":"levelo://app?vid=e950bf4f-a36a-44c8-99fb-91246952c7ba"},"vehicle_type_id":"4","last_reported":1731622097,"current_range_meters":33200,"station_id":"ce4bh412rcd13ifvqds0","pricing_plan_id":"cebpf4jnsgd1na2vs0mg"},{"bike_id":"9a8b7443-707a-4209-b2c8-7cb879bc18a4","system_id":"levelo_inurba_marseille","lat":43.23189,"lon":5.39972,"is_reserved":false,"is_disabled":false,"rental_uris":{"android":"levelo://app?vid=9a8b7443-707a-4209-b2c8-7cb879bc18a4","ios":"levelo://app?vid=9a8b7443-707a-4209-b2c8-7cb879bc18a4"},"vehicle_type_id":"4","last_reported":1731622097,"current_range_meters":8000,"station_id":"ce4bhn12rcd13ifvqgqg","pricing_plan_id":"cebpf4jnsgd1na2vs0mg"},{"bike_id":"eb6a4667-f9a5-4a18-86c1-d3298bcb5fa1","system_id":"levelo_inurba_marseille","lat":43.30436,"lon":5.38889,"is_reserved":false,"is_disabled":false,"rental_uris":{"android":"levelo://app?vid=eb6a4667-f9a5-4a18-86c1-d3298bcb5fa1","ios":"levelo://app?vid=eb6a4667-f9a5-4a18-86c1-d3298bcb5fa1"},"vehicle_type_id":"4","last_reported":1731622097,"current_range_meters":36800,"station_id":"ce4bgk12rcd13ifvqbi0","pricing_plan_id":"cebpf4jnsgd1na2vs0mg"},{"bike_id":"ddc6d324-d171-4e7b-808f-6ce988cebed4","system_id":"levelo_inurba_marseille","lat":43.28847,"lon":5.39326,"is_reserved":false,"is_disabled":false,"rental_uris":{"android":"levelo://app?vid=ddc6d324-d171-4e7b-808f-6ce988cebed4","ios":"levelo://app?vid=ddc6d324-d171-4e7b-808f-6ce988cebed4"},"vehicle_type_id":"4","last_reported":1731622097,"current_range_meters":8400,"station_id":"ce4bh2p2rcd13ifvqdi0","pricing_plan_id":"cebpf4jnsgd1na2vs0mg"},{"bike_id":"1bda7f93-5e07-4d55-9634-1c55956005d0","system_id":"levelo_inurba_marseille","lat":43.25868,"lon":5.39899,"is_reserved":false,"is_disabled":false,"rental_uris":{"android":"levelo://app?vid=1bda7f93-5e07-4d55-9634-1c55956005d0","ios":"levelo://app?vid=1bda7f93-5e07-4d55-9634-1c55956005d0"},"vehicle_type_id":"4","last_reported":1731622097,"current_range_meters":39200,"station_id":"ce4bhl92rcd13ifvqghg","pricing_plan_id":"cebpf4jnsgd1na2vs0mg"},{"bike_id":"2e0c23ca-9fe5-4c7d-a9ae-bd7366942622","system_id":"levelo_inurba_marseille","lat":43.27899,"lon":5.41224,"is_reserved":false,"is_disabled":false,"rental_uris":{"android":"levelo://app?vid=2e0c23ca-9fe5-4c7d-a9ae-bd7366942622","ios":"levelo://app?vid=2e0c23ca-9fe5-4c7d-a9ae-bd7366942622"},"vehicle_type_id":"4","last_reported":1731622097,"current_range_meters":6000,"station_id":"","pricing_plan_id":"cebpf4jnsgd1na2vs0mg"},{"bike_id":"d99bff46-e3e0-4c25-9719-3fa3dd9a1a6e","system_id":"levelo_inurba_marseille","lat":43.31874,"lon":5.37364,"is_reserved":false,"is_disabled":false,"rental_uris":{"android":"levelo://app?vid=d99bff46-e3e0-4c25-9719-3fa3dd9a1a6e","ios":"levelo://app?vid=d99bff46-e3e0-4c25-9719-3fa3dd9a1a6e"},"vehicle_type_id":"4","last_reported":1731622097,"current_range_meters":22000,"station_id":"","pricing_plan_id":"cebpf4jnsgd1na2vs0mg"},{"bike_id":"e4ad93bf-2bc8-4f9d-aacc-66ec3cab1268","system_id":"levelo_inurba_marseille","lat":43.26954,"lon":5.38634,"is_reserved":false,"is_disabled":false,"rental_uris":{"android":"levelo://app?vid=e4ad93bf-2bc8-4f9d-aacc-66ec3cab1268","ios":"levelo://app?vid=e4ad93bf-2bc8-4f9d-aacc-66ec3cab1268"},"vehicle_type_id":"4","last_reported":1731622097,"current_range_meters":12400,"station_id":"ce4bhh92rcd13ifvqfh0","pricing_plan_id":"cebpf4jnsgd1na2vs0mg"},{"bike_id":"61e4d8f2-6ee3-4d4d-86ee-2c2682bb17bc","system_id":"levelo_inurba_marseille","lat":43.26054,"lon":5.39389,"is_reserved":false,"is_disabled":false,"rental_uris":{"android":"levelo://app?vid=61e4d8f2-6ee3-4d4d-86ee-2c2682bb17bc","ios":"levelo://app?vid=61e4d8f2-6ee3-4d4d-86ee-2c2682bb17bc"},"vehicle_type_id":"4","last_reported":1731622097,"current_range_meters":39200,"station_id":"ce4bhh92rcd13ifvqfj0","pricing_plan_id":"cebpf4jnsgd1na2vs0mg"},{"bike_id":"1d74bc52-c8fd-442b-946b-e61aa82e32f3","system_id":"levelo_inurba_marseille","lat":43.28413,"lon":5.37521,"is_reserved":false,"is_disabled":false,"rental_uris":{"android":"levelo://app?vid=1d74bc52-c8fd-442b-946b-e61aa82e32f3","ios":"levelo://app?vid=1d74bc52-c8fd-442b-946b-e61aa82e32f3"},"vehicle_type_id":"4","last_reported":1731622097,"current_range_meters":38800,"station_id":"ce4bh412rcd13ifvqds0","pricing_plan_id":"cebpf4jnsgd1na2vs0mg"},{"bike_id":"4d6402b1-57e5-4b0a-b809-dd29febde586","system_id":"levelo_inurba_marseille","lat":43.3151,"lon":5.36834,"is_reserved":false,"is_disabled":false,"rental_uris":{"android":"levelo://app?vid=4d6402b1-57e5-4b0a-b809-dd29febde586","ios":"levelo://app?vid=4d6402b1-57e5-4b0a-b809-dd29febde586"},"vehicle_type_id":"4","last_reported":1731622097,"current_range_meters":32400,"station_id":"","pricing_plan_id":"cebpf4jnsgd1na2vs0mg"},{"bike_id":"ef750473-b38f-438c-a262-61095095d9f9","system_id":"levelo_inurba_marseille","lat":43.23177,"lon":5.39997,"is_reserved":false,"is_disabled":false,"rental_uris":{"android":"levelo://app?vid=ef750473-b38f-438c-a262-61095095d9f9","ios":"levelo://app?vid=ef750473-b38f-438c-a262-61095095d9f9"},"vehicle_type_id":"4","last_reported":1731622097,"current_range_meters":37600,"station_id":"ce4bhn12rcd13ifvqgqg","pricing_plan_id":"cebpf4jnsgd1na2vs0mg"},{"bike_id":"d86a40ff-dc3f-4903-81b6-e6416151db65","system_id":"levelo_inurba_marseille","lat":43.28151,"lon":5.42638,"is_reserved":false,"is_disabled":false,"rental_uris":{"android":"levelo://app?vid=d86a40ff-dc3f-4903-81b6-e6416151db65","ios":"levelo://app?vid=d86a40ff-dc3f-4903-81b6-e6416151db65"},"vehicle_type_id":"4","last_reported":1731622097,"current_range_meters":38000,"station_id":"ce4bhnh2rcd13ifvqgug","pricing_plan_id":"cebpf4jnsgd1na2vs0mg"},{"bike_id":"1ce85507-4c6d-46a4-8a00-0c77b288f505","system_id":"levelo_inurba_marseille","lat":43.2832,"lon":5.40901,"is_reserved":false,"is_disabled":false,"rental_uris":{"android":"levelo://app?vid=1ce85507-4c6d-46a4-8a00-0c77b288f505","ios":"levelo://app?vid=1ce85507-4c6d-46a4-8a00-0c77b288f505"},"vehicle_type_id":"4","last_reported":1731622097,"current_range_meters":37600,"station_id":"","pricing_plan_id":"cebpf4jnsgd1na2vs0mg"},{"bike_id":"33f3b127-483d-4da6-8039-0335b8c2990a","system_id":"levelo_inurba_marseille","lat":43.29084,"lon":5.38131,"is_reserved":false,"is_disabled":false,"rental_uris":{"android":"levelo://app?vid=33f3b127-483d-4da6-8039-0335b8c2990a","ios":"levelo://app?vid=33f3b127-483d-4da6-8039-0335b8c2990a"},"vehicle_type_id":"4","last_reported":1731622097,"current_range_meters":38800,"station_id":"ce4bh512rcd13ifvqe2g","pricing_plan_id":"cebpf4jnsgd1na2vs0mg"},{"bike_id":"3f1eab25-bbd0-4519-b2ce-b4566d191542","system_id":"levelo_inurba_marseille","lat":43.2509,"lon":5.3951,"is_reserved":false,"is_disabled":false,"rental_uris":{"android":"levelo://app?vid=3f1eab25-bbd0-4519-b2ce-b4566d191542","ios":"levelo://app?vid=3f1eab25-bbd0-4519-b2ce-b4566d191542"},"vehicle_type_id":"4","last_reported":1731622097,"current_range_meters":38800,"station_id":"ce4bhm12rcd13ifvqgkg","pricing_plan_id":"cebpf4jnsgd1na2vs0mg"},{"bike_id":"572a7c25-7037-40a3-9da8-9cbf4edb113f","system_id":"levelo_inurba_marseille","lat":43.30602,"lon":5.37229,"is_reserved":false,"is_disabled":false,"rental_uris":{"android":"levelo://app?vid=572a7c25-7037-40a3-9da8-9cbf4edb113f","ios":"levelo://app?vid=572a7c25-7037-40a3-9da8-9cbf4edb113f"},"vehicle_type_id":"4","last_reported":1731622097,"current_range_meters":39200,"station_id":"ce4bgqh2rcd13ifvqc4g","pricing_plan_id":"cebpf4jnsgd1na2vs0mg"},{"bike_id":"b15ad833-99dc-427d-b9bc-2e07a14741f6","system_id":"levelo_inurba_marseille","lat":43.25725,"lon":5.4111,"is_reserved":false,"is_disabled":false,"rental_uris":{"android":"levelo://app?vid=b15ad833-99dc-427d-b9bc-2e07a14741f6","ios":"levelo://app?vid=b15ad833-99dc-427d-b9bc-2e07a14741f6"},"vehicle_type_id":"4","last_reported":1731622097,"current_range_meters":11200,"station_id":"ce4bhkp2rcd13ifvqgd0","pricing_plan_id":"cebpf4jnsgd1na2vs0mg"},{"bike_id":"d88ffd8e-ab33-465b-a518-2942e65393ab","system_id":"levelo_inurba_marseille","lat":43.31498,"lon":5.37317,"is_reserved":false,"is_disabled":false,"rental_uris":{"android":"levelo://app?vid=d88ffd8e-ab33-465b-a518-2942e65393ab","ios":"levelo://app?vid=d88ffd8e-ab33-465b-a518-2942e65393ab"},"vehicle_type_id":"4","last_reported":1731622097,"current_range_meters":16400,"station_id":"ce4bgt12rcd13ifvqcd0","pricing_plan_id":"cebpf4jnsgd1na2vs0mg"},{"bike_id":"1d3cc564-10df-44d3-af01-f1e4eb647d38","system_id":"levelo_inurba_marseille","lat":43.29297,"lon":5.37462,"is_reserved":false,"is_disabled":false,"rental_uris":{"android":"levelo://app?vid=1d3cc564-10df-44d3-af01-f1e4eb647d38","ios":"levelo://app?vid=1d3cc564-10df-44d3-af01-f1e4eb647d38"},"vehicle_type_id":"4","last_reported":1731622097,"current_range_meters":28000,"station_id":"ce4bgi12rcd13ifvqb70","pricing_plan_id":"cebpf4jnsgd1na2vs0mg"},{"bike_id":"e5bb307a-3df0-48bc-bf15-4b9a012fd2e4","system_id":"levelo_inurba_marseille","lat":43.25726,"lon":5.41107,"is_reserved":false,"is_disabled":false,"rental_uris":{"android":"levelo://app?vid=e5bb307a-3df0-48bc-bf15-4b9a012fd2e4","ios":"levelo://app?vid=e5bb307a-3df0-48bc-bf15-4b9a012fd2e4"},"vehicle_type_id":"4","last_reported":1731622097,"current_range_meters":38000,"station_id":"ce4bhkp2rcd13ifvqgd0","pricing_plan_id":"cebpf4jnsgd1na2vs0mg"},{"bike_id":"089f9525-c372-4942-baf3-3d15fec0d892","system_id":"levelo_inurba_marseille","lat":43.28847,"lon":5.39326,"is_reserved":false,"is_disabled":false,"rental_uris":{"android":"levelo://app?vid=089f9525-c372-4942-baf3-3d15fec0d892","ios":"levelo://app?vid=089f9525-c372-4942-baf3-3d15fec0d892"},"vehicle_type_id":"4","last_reported":1731622097,"current_range_meters":38800,"station_id":"ce4bh2p2rcd13ifvqdi0","pricing_plan_id":"cebpf4jnsgd1na2vs0mg"},{"bike_id":"b8f91035-b021-405d-9e06-47c03ff95ddd","system_id":"levelo_inurba_marseille","lat":43.2827,"lon":5.35062,"is_reserved":false,"is_disabled":false,"rental_uris":{"android":"levelo://app?vid=b8f91035-b021-405d-9e06-47c03ff95ddd","ios":"levelo://app?vid=b8f91035-b021-405d-9e06-47c03ff95ddd"},"vehicle_type_id":"4","last_reported":1731622097,"current_range_meters":38000,"station_id":"ce4bhbp2rcd13ifvqerg","pricing_plan_id":"cebpf4jnsgd1na2vs0mg"},{"bike_id":"56f5a57f-a613-4e55-bf8b-f1bd6d289526","system_id":"levelo_inurba_marseille","lat":43.31071,"lon":5.38365,"is_reserved":false,"is_disabled":false,"rental_uris":{"android":"levelo://app?vid=56f5a57f-a613-4e55-bf8b-f1bd6d289526","ios":"levelo://app?vid=56f5a57f-a613-4e55-bf8b-f1bd6d289526"},"vehicle_type_id":"4","last_reported":1731622097,"current_range_meters":33200,"station_id":"ce4bgv92rcd13ifvqcr0","pricing_plan_id":"cebpf4jnsgd1na2vs0mg"},{"bike_id":"12731917-d1c0-4083-bb25-35cc67dffea3","system_id":"levelo_inurba_marseille","lat":43.30421,"lon":5.41281,"is_reserved":false,"is_disabled":false,"rental_uris":{"android":"levelo://app?vid=12731917-d1c0-4083-bb25-35cc67dffea3","ios":"levelo://app?vid=12731917-d1c0-4083-bb25-35cc67dffea3"},"vehicle_type_id":"4","last_reported":1731622097,"current_range_meters":30000,"station_id":"ce4bhop2rcd13ifvqh8g","pricing_plan_id":"cebpf4jnsgd1na2vs0mg"},{"bike_id":"0b313868-c171-43f7-988c-0f2e18c0dd5e","system_id":"levelo_inurba_marseille","lat":43.22935,"lon":5.35378,"is_reserved":false,"is_disabled":false,"rental_uris":{"android":"levelo://app?vid=0b313868-c171-43f7-988c-0f2e18c0dd5e","ios":"levelo://app?vid=0b313868-c171-43f7-988c-0f2e18c0dd5e"},"vehicle_type_id":"4","last_reported":1731622097,"current_range_meters":39200,"station_id":"cpo3532slgdg3j2ikp40","pricing_plan_id":"cebpf4jnsgd1na2vs0mg"},{"bike_id":"898343a1-2642-491c-a1ab-47e0e0534d2f","system_id":"levelo_inurba_marseille","lat":43.33605,"lon":5.41024,"is_reserved":false,"is_disabled":false,"rental_uris":{"android":"levelo://app?vid=898343a1-2642-491c-a1ab-47e0e0534d2f","ios":"levelo://app?vid=898343a1-2642-491c-a1ab-47e0e0534d2f"},"vehicle_type_id":"4","last_reported":1731622097,"current_range_meters":16400,"station_id":"ce4bhqh2rcd13ifvqhmg","pricing_plan_id":"cebpf4jnsgd1na2vs0mg"},{"bike_id":"7d2acd7b-40b2-430a-8360-5af1c25c3717","system_id":"levelo_inurba_marseille","lat":43.268,"lon":5.4026,"is_reserved":false,"is_disabled":false,"rental_uris":{"android":"levelo://app?vid=7d2acd7b-40b2-430a-8360-5af1c25c3717","ios":"levelo://app?vid=7d2acd7b-40b2-430a-8360-5af1c25c3717"},"vehicle_type_id":"4","last_reported":1731622097,"current_range_meters":16800,"station_id":"ce501612rcd8frsf0b60","pricing_plan_id":"cebpf4jnsgd1na2vs0mg"},{"bike_id":"443a10aa-b3ee-4084-a763-3dcf6407cc16","system_id":"levelo_inurba_marseille","lat":43.30928,"lon":5.40152,"is_reserved":false,"is_disabled":false,"rental_uris":{"android":"levelo://app?vid=443a10aa-b3ee-4084-a763-3dcf6407cc16","ios":"levelo://app?vid=443a10aa-b3ee-4084-a763-3dcf6407cc16"},"vehicle_type_id":"4","last_reported":1731622097,"current_range_meters":33200,"station_id":"ce4bgvp2rcd13ifvqct0","pricing_plan_id":"cebpf4jnsgd1na2vs0mg"},{"bike_id":"0640b632-6876-4227-9267-eb35ea8d7191","system_id":"levelo_inurba_marseille","lat":43.28457,"lon":5.35883,"is_reserved":false,"is_disabled":false,"rental_uris":{"android":"levelo://app?vid=0640b632-6876-4227-9267-eb35ea8d7191","ios":"levelo://app?vid=0640b632-6876-4227-9267-eb35ea8d7191"},"vehicle_type_id":"4","last_reported":1731622097,"current_range_meters":39200,"station_id":"ce4bhah2rcd13ifvqei0","pricing_plan_id":"cebpf4jnsgd1na2vs0mg"},{"bike_id":"5bd3ef85-798d-4160-9c90-ce69105aff3a","system_id":"levelo_inurba_marseille","lat":43.24389,"lon":5.37064,"is_reserved":false,"is_disabled":false,"rental_uris":{"android":"levelo://app?vid=5bd3ef85-798d-4160-9c90-ce69105aff3a","ios":"levelo://app?vid=5bd3ef85-798d-4160-9c90-ce69105aff3a"},"vehicle_type_id":"4","last_reported":1731622097,"current_range_meters":39200,"station_id":"ce4bhhh2rcd13ifvqfk0","pricing_plan_id":"cebpf4jnsgd1na2vs0mg"},{"bike_id":"83d0c08b-53e5-4e1d-aa28-dd3ec259f354","system_id":"levelo_inurba_marseille","lat":43.28103,"lon":5.42224,"is_reserved":false,"is_disabled":false,"rental_uris":{"android":"levelo://app?vid=83d0c08b-53e5-4e1d-aa28-dd3ec259f354","ios":"levelo://app?vid=83d0c08b-53e5-4e1d-aa28-dd3ec259f354"},"vehicle_type_id":"4","last_reported":1731622097,"current_range_meters":11200,"station_id":"","pricing_plan_id":"cebpf4jnsgd1na2vs0mg"},{"bike_id":"ee26f58e-b8c7-4191-bda2-353090292f42","system_id":"levelo_inurba_marseille","lat":43.31169,"lon":5.38712,"is_reserved":false,"is_disabled":false,"rental_uris":{"android":"levelo://app?vid=ee26f58e-b8c7-4191-bda2-353090292f42","ios":"levelo://app?vid=ee26f58e-b8c7-4191-bda2-353090292f42"},"vehicle_type_id":"4","last_reported":1731622097,"current_range_meters":8400,"station_id":"ce4bgv12rcd13ifvqcp0","pricing_plan_id":"cebpf4jnsgd1na2vs0mg"},{"bike_id":"92e3ad17-17c9-4714-a148-ef9436ad6113","system_id":"levelo_inurba_marseille","lat":43.22926,"lon":5.35379,"is_reserved":false,"is_disabled":false,"rental_uris":{"android":"levelo://app?vid=92e3ad17-17c9-4714-a148-ef9436ad6113","ios":"levelo://app?vid=92e3ad17-17c9-4714-a148-ef9436ad6113"},"vehicle_type_id":"4","last_reported":1731622097,"current_range_meters":39200,"station_id":"cpo3532slgdg3j2ikp40","pricing_plan_id":"cebpf4jnsgd1na2vs0mg"},{"bike_id":"bf53713f-d2f4-4338-9d57-861fec9e728d","system_id":"levelo_inurba_marseille","lat":43.28851,"lon":5.35864,"is_reserved":false,"is_disabled":false,"rental_uris":{"android":"levelo://app?vid=bf53713f-d2f4-4338-9d57-861fec9e728d","ios":"levelo://app?vid=bf53713f-d2f4-4338-9d57-861fec9e728d"},"vehicle_type_id":"4","last_reported":1731622097,"current_range_meters":15200,"station_id":"ce4bhb12rcd13ifvqem0","pricing_plan_id":"cebpf4jnsgd1na2vs0mg"},{"bike_id":"094cc33d-da3c-49ab-bc5f-c983906b9f18","system_id":"levelo_inurba_marseille","lat":43.23186,"lon":5.39994,"is_reserved":false,"is_disabled":false,"rental_uris":{"android":"levelo://app?vid=094cc33d-da3c-49ab-bc5f-c983906b9f18","ios":"levelo://app?vid=094cc33d-da3c-49ab-bc5f-c983906b9f18"},"vehicle_type_id":"4","last_reported":1731622097,"current_range_meters":12800,"station_id":"ce4bhn12rcd13ifvqgqg","pricing_plan_id":"cebpf4jnsgd1na2vs0mg"},{"bike_id":"5326c5f8-bba7-40e6-bfc7-8e986a3bddf3","system_id":"levelo_inurba_marseille","lat":43.31913,"lon":5.38219,"is_reserved":false,"is_disabled":false,"rental_uris":{"android":"levelo://app?vid=5326c5f8-bba7-40e6-bfc7-8e986a3bddf3","ios":"levelo://app?vid=5326c5f8-bba7-40e6-bfc7-8e986a3bddf3"},"vehicle_type_id":"4","last_reported":1731622097,"current_range_meters":22000,"station_id":"ce4bhr12rcd13ifvqhqg","pricing_plan_id":"cebpf4jnsgd1na2vs0mg"},{"bike_id":"bd04527e-b885-4f79-b93b-0d229327e277","system_id":"levelo_inurba_marseille","lat":43.31074,"lon":5.38354,"is_reserved":false,"is_disabled":false,"rental_uris":{"android":"levelo://app?vid=bd04527e-b885-4f79-b93b-0d229327e277","ios":"levelo://app?vid=bd04527e-b885-4f79-b93b-0d229327e277"},"vehicle_type_id":"4","last_reported":1731622097,"current_range_meters":30400,"station_id":"ce4bgv92rcd13ifvqcr0","pricing_plan_id":"cebpf4jnsgd1na2vs0mg"},{"bike_id":"82f309e6-c4ae-421f-89cb-1d64a8e0ef10","system_id":"levelo_inurba_marseille","lat":43.337444,"lon":5.374475,"is_reserved":false,"is_disabled":false,"rental_uris":{"android":"levelo://app?vid=82f309e6-c4ae-421f-89cb-1d64a8e0ef10","ios":"levelo://app?vid=82f309e6-c4ae-421f-89cb-1d64a8e0ef10"},"vehicle_type_id":"4","last_reported":1731622097,"current_range_meters":30800,"station_id":"","pricing_plan_id":"cebpf4jnsgd1na2vs0mg"},{"bike_id":"ad998524-5cea-4355-99d8-50f015aa8ae5","system_id":"levelo_inurba_marseille","lat":43.31273,"lon":5.40164,"is_reserved":false,"is_disabled":false,"rental_uris":{"android":"levelo://app?vid=ad998524-5cea-4355-99d8-50f015aa8ae5","ios":"levelo://app?vid=ad998524-5cea-4355-99d8-50f015aa8ae5"},"vehicle_type_id":"4","last_reported":1731622097,"current_range_meters":27200,"station_id":"ce4bh092rcd13ifvqd30","pricing_plan_id":"cebpf4jnsgd1na2vs0mg"},{"bike_id":"ceab052d-e8bf-48cb-8e46-2cba85cc785c","system_id":"levelo_inurba_marseille","lat":43.28076,"lon":5.3965,"is_reserved":false,"is_disabled":false,"rental_uris":{"android":"levelo://app?vid=ceab052d-e8bf-48cb-8e46-2cba85cc785c","ios":"levelo://app?vid=ceab052d-e8bf-48cb-8e46-2cba85cc785c"},"vehicle_type_id":"4","last_reported":1731622097,"current_range_meters":27600,"station_id":"ce4bho12rcd13ifvqh2g","pricing_plan_id":"cebpf4jnsgd1na2vs0mg"},{"bike_id":"31bf78df-9640-4b42-9ce9-50ee9c1e825b","system_id":"levelo_inurba_marseille","lat":43.30644,"lon":5.40087,"is_reserved":false,"is_disabled":false,"rental_uris":{"android":"levelo://app?vid=31bf78df-9640-4b42-9ce9-50ee9c1e825b","ios":"levelo://app?vid=31bf78df-9640-4b42-9ce9-50ee9c1e825b"},"vehicle_type_id":"4","last_reported":1731622097,"current_range_meters":37600,"station_id":"ce4bh112rcd13ifvqda0","pricing_plan_id":"cebpf4jnsgd1na2vs0mg"},{"bike_id":"3798d6cd-bfdb-48b5-9973-ac3e45e98d8a","system_id":"levelo_inurba_marseille","lat":43.27066,"lon":5.42271,"is_reserved":false,"is_disabled":false,"rental_uris":{"android":"levelo://app?vid=3798d6cd-bfdb-48b5-9973-ac3e45e98d8a","ios":"levelo://app?vid=3798d6cd-bfdb-48b5-9973-ac3e45e98d8a"},"vehicle_type_id":"4","last_reported":1731622097,"current_range_meters":38800,"station_id":"ce4bhk92rcd13ifvqgb0","pricing_plan_id":"cebpf4jnsgd1na2vs0mg"},{"bike_id":"1f9cac8b-add6-4980-80f4-c7b5889c4404","system_id":"levelo_inurba_marseille","lat":43.29199,"lon":5.39331,"is_reserved":false,"is_disabled":false,"rental_uris":{"android":"levelo://app?vid=1f9cac8b-add6-4980-80f4-c7b5889c4404","ios":"levelo://app?vid=1f9cac8b-add6-4980-80f4-c7b5889c4404"},"vehicle_type_id":"4","last_reported":1731622097,"current_range_meters":35200,"station_id":"ce4bh192rcd13ifvqdd0","pricing_plan_id":"cebpf4jnsgd1na2vs0mg"},{"bike_id":"31139bd4-9c6d-4100-a744-c1d0ce199198","system_id":"levelo_inurba_marseille","lat":43.31162,"lon":5.38736,"is_reserved":false,"is_disabled":false,"rental_uris":{"android":"levelo://app?vid=31139bd4-9c6d-4100-a744-c1d0ce199198","ios":"levelo://app?vid=31139bd4-9c6d-4100-a744-c1d0ce199198"},"vehicle_type_id":"4","last_reported":1731622097,"current_range_meters":40000,"station_id":"ce4bgv12rcd13ifvqcp0","pricing_plan_id":"cebpf4jnsgd1na2vs0mg"},{"bike_id":"21c475d1-4d33-4bb7-ae2e-e906866050cf","system_id":"levelo_inurba_marseille","lat":43.29787,"lon":5.39354,"is_reserved":false,"is_disabled":false,"rental_uris":{"android":"levelo://app?vid=21c475d1-4d33-4bb7-ae2e-e906866050cf","ios":"levelo://app?vid=21c475d1-4d33-4bb7-ae2e-e906866050cf"},"vehicle_type_id":"4","last_reported":1731622097,"current_range_meters":38000,"station_id":"chh1huq6cuj3fo74tm60","pricing_plan_id":"cebpf4jnsgd1na2vs0mg"},{"bike_id":"58197719-4574-4415-a2a9-3f5a1a02cb24","system_id":"levelo_inurba_marseille","lat":43.31268,"lon":5.40177,"is_reserved":false,"is_disabled":false,"rental_uris":{"android":"levelo://app?vid=58197719-4574-4415-a2a9-3f5a1a02cb24","ios":"levelo://app?vid=58197719-4574-4415-a2a9-3f5a1a02cb24"},"vehicle_type_id":"4","last_reported":1731622097,"current_range_meters":34800,"station_id":"ce4bh092rcd13ifvqd30","pricing_plan_id":"cebpf4jnsgd1na2vs0mg"},{"bike_id":"e9831758-7fbb-4bb8-92fd-5b32e1ae3ab6","system_id":"levelo_inurba_marseille","lat":43.33019,"lon":5.39042,"is_reserved":false,"is_disabled":false,"rental_uris":{"android":"levelo://app?vid=e9831758-7fbb-4bb8-92fd-5b32e1ae3ab6","ios":"levelo://app?vid=e9831758-7fbb-4bb8-92fd-5b32e1ae3ab6"},"vehicle_type_id":"4","last_reported":1731622097,"current_range_meters":29600,"station_id":"ce4bhr92rcd13ifvqhrg","pricing_plan_id":"cebpf4jnsgd1na2vs0mg"},{"bike_id":"8781d0fe-a968-4075-9453-c800ea4b95d6","system_id":"levelo_inurba_marseille","lat":43.30321,"lon":5.40434,"is_reserved":false,"is_disabled":false,"rental_uris":{"android":"levelo://app?vid=8781d0fe-a968-4075-9453-c800ea4b95d6","ios":"levelo://app?vid=8781d0fe-a968-4075-9453-c800ea4b95d6"},"vehicle_type_id":"4","last_reported":1731622097,"current_range_meters":36400,"station_id":"ce4bh012rcd13ifvqd10","pricing_plan_id":"cebpf4jnsgd1na2vs0mg"},{"bike_id":"d921a7d4-8a54-46fe-846b-cc863d07da44","system_id":"levelo_inurba_marseille","lat":43.28408,"lon":5.37519,"is_reserved":false,"is_disabled":false,"rental_uris":{"android":"levelo://app?vid=d921a7d4-8a54-46fe-846b-cc863d07da44","ios":"levelo://app?vid=d921a7d4-8a54-46fe-846b-cc863d07da44"},"vehicle_type_id":"4","last_reported":1731622097,"current_range_meters":38800,"station_id":"ce4bh412rcd13ifvqds0","pricing_plan_id":"cebpf4jnsgd1na2vs0mg"},{"bike_id":"d4357b6e-382d-42fb-a863-ff7fd5649955","system_id":"levelo_inurba_marseille","lat":43.24996,"lon":5.38924,"is_reserved":false,"is_disabled":false,"rental_uris":{"android":"levelo://app?vid=d4357b6e-382d-42fb-a863-ff7fd5649955","ios":"levelo://app?vid=d4357b6e-382d-42fb-a863-ff7fd5649955"},"vehicle_type_id":"4","last_reported":1731622097,"current_range_meters":39200,"station_id":"ce4bhgp2rcd13ifvqfd0","pricing_plan_id":"cebpf4jnsgd1na2vs0mg"},{"bike_id":"b0651c55-4a75-4286-abc3-36735f80d0fd","system_id":"levelo_inurba_marseille","lat":43.27171,"lon":5.40997,"is_reserved":false,"is_disabled":false,"rental_uris":{"android":"levelo://app?vid=b0651c55-4a75-4286-abc3-36735f80d0fd","ios":"levelo://app?vid=b0651c55-4a75-4286-abc3-36735f80d0fd"},"vehicle_type_id":"4","last_reported":1731622097,"current_range_meters":19200,"station_id":"ce4bhl12rcd13ifvqgf0","pricing_plan_id":"cebpf4jnsgd1na2vs0mg"},{"bike_id":"7f6746c7-68cf-4c77-b03b-d21cc90e6f13","system_id":"levelo_inurba_marseille","lat":43.27068,"lon":5.42279,"is_reserved":false,"is_disabled":false,"rental_uris":{"android":"levelo://app?vid=7f6746c7-68cf-4c77-b03b-d21cc90e6f13","ios":"levelo://app?vid=7f6746c7-68cf-4c77-b03b-d21cc90e6f13"},"vehicle_type_id":"4","last_reported":1731622097,"current_range_meters":38800,"station_id":"ce4bhk92rcd13ifvqgb0","pricing_plan_id":"cebpf4jnsgd1na2vs0mg"},{"bike_id":"8760087e-46ae-47bc-bdc8-84173d42342d","system_id":"levelo_inurba_marseille","lat":43.29051,"lon":5.35902,"is_reserved":false,"is_disabled":false,"rental_uris":{"android":"levelo://app?vid=8760087e-46ae-47bc-bdc8-84173d42342d","ios":"levelo://app?vid=8760087e-46ae-47bc-bdc8-84173d42342d"},"vehicle_type_id":"4","last_reported":1731622097,"current_range_meters":39200,"station_id":"ce4bha92rcd13ifvqeg0","pricing_plan_id":"cebpf4jnsgd1na2vs0mg"},{"bike_id":"da29062c-3d72-404e-8948-b52b3fdb0a72","system_id":"levelo_inurba_marseille","lat":43.28458,"lon":5.35883,"is_reserved":false,"is_disabled":false,"rental_uris":{"android":"levelo://app?vid=da29062c-3d72-404e-8948-b52b3fdb0a72","ios":"levelo://app?vid=da29062c-3d72-404e-8948-b52b3fdb0a72"},"vehicle_type_id":"4","last_reported":1731622097,"current_range_meters":25200,"station_id":"ce4bhah2rcd13ifvqei0","pricing_plan_id":"cebpf4jnsgd1na2vs0mg"},{"bike_id":"caeccd2a-3064-45bc-a2bc-36bb5c1f045d","system_id":"levelo_inurba_marseille","lat":43.270729,"lon":5.422849,"is_reserved":false,"is_disabled":false,"rental_uris":{"android":"levelo://app?vid=caeccd2a-3064-45bc-a2bc-36bb5c1f045d","ios":"levelo://app?vid=caeccd2a-3064-45bc-a2bc-36bb5c1f045d"},"vehicle_type_id":"4","last_reported":1731622097,"current_range_meters":30800,"station_id":"ce4bhk92rcd13ifvqgb0","pricing_plan_id":"cebpf4jnsgd1na2vs0mg"},{"bike_id":"7eda8e5f-367f-4f3c-944c-a5365b30f0c9","system_id":"levelo_inurba_marseille","lat":43.31533,"lon":5.3802,"is_reserved":false,"is_disabled":false,"rental_uris":{"android":"levelo://app?vid=7eda8e5f-367f-4f3c-944c-a5365b30f0c9","ios":"levelo://app?vid=7eda8e5f-367f-4f3c-944c-a5365b30f0c9"},"vehicle_type_id":"4","last_reported":1731622097,"current_range_meters":37600,"station_id":"ce4bhsp2rcd13ifvqi50","pricing_plan_id":"cebpf4jnsgd1na2vs0mg"},{"bike_id":"3f586522-ff42-4db7-92ee-b7fa108fd2a9","system_id":"levelo_inurba_marseille","lat":43.3116,"lon":5.38716,"is_reserved":false,"is_disabled":false,"rental_uris":{"android":"levelo://app?vid=3f586522-ff42-4db7-92ee-b7fa108fd2a9","ios":"levelo://app?vid=3f586522-ff42-4db7-92ee-b7fa108fd2a9"},"vehicle_type_id":"4","last_reported":1731622097,"current_range_meters":31200,"station_id":"ce4bgv12rcd13ifvqcp0","pricing_plan_id":"cebpf4jnsgd1na2vs0mg"},{"bike_id":"add6469e-6694-4a2e-bfcd-ec1f32bc46a7","system_id":"levelo_inurba_marseille","lat":43.24653,"lon":5.38895,"is_reserved":false,"is_disabled":false,"rental_uris":{"android":"levelo://app?vid=add6469e-6694-4a2e-bfcd-ec1f32bc46a7","ios":"levelo://app?vid=add6469e-6694-4a2e-bfcd-ec1f32bc46a7"},"vehicle_type_id":"4","last_reported":1731622097,"current_range_meters":39200,"station_id":"ce4bhg12rcd13ifvqf60","pricing_plan_id":"cebpf4jnsgd1na2vs0mg"},{"bike_id":"88a7ec35-1e7e-417d-aed6-a0debbf85756","system_id":"levelo_inurba_marseille","lat":43.292,"lon":5.39325,"is_reserved":false,"is_disabled":false,"rental_uris":{"android":"levelo://app?vid=88a7ec35-1e7e-417d-aed6-a0debbf85756","ios":"levelo://app?vid=88a7ec35-1e7e-417d-aed6-a0debbf85756"},"vehicle_type_id":"4","last_reported":1731622097,"current_range_meters":38400,"station_id":"ce4bh192rcd13ifvqdd0","pricing_plan_id":"cebpf4jnsgd1na2vs0mg"},{"bike_id":"6dcbb2ce-c695-4325-893f-7eb3313c10e8","system_id":"levelo_inurba_marseille","lat":43.28102,"lon":5.37838,"is_reserved":false,"is_disabled":false,"rental_uris":{"android":"levelo://app?vid=6dcbb2ce-c695-4325-893f-7eb3313c10e8","ios":"levelo://app?vid=6dcbb2ce-c695-4325-893f-7eb3313c10e8"},"vehicle_type_id":"4","last_reported":1731622097,"current_range_meters":38800,"station_id":"ce4bha12rcd13ifvqee0","pricing_plan_id":"cebpf4jnsgd1na2vs0mg"},{"bike_id":"e2f949ff-280e-4aea-b007-7321fd5cea34","system_id":"levelo_inurba_marseille","lat":43.30266,"lon":5.40072,"is_reserved":false,"is_disabled":false,"rental_uris":{"android":"levelo://app?vid=e2f949ff-280e-4aea-b007-7321fd5cea34","ios":"levelo://app?vid=e2f949ff-280e-4aea-b007-7321fd5cea34"},"vehicle_type_id":"4","last_reported":1731622097,"current_range_meters":32000,"station_id":"ce4bgvh2rcd13ifvqcs0","pricing_plan_id":"cebpf4jnsgd1na2vs0mg"},{"bike_id":"7d12dc8c-a659-4a64-a14b-6a9bb6868c73","system_id":"levelo_inurba_marseille","lat":43.28435,"lon":5.3921,"is_reserved":false,"is_disabled":false,"rental_uris":{"android":"levelo://app?vid=7d12dc8c-a659-4a64-a14b-6a9bb6868c73","ios":"levelo://app?vid=7d12dc8c-a659-4a64-a14b-6a9bb6868c73"},"vehicle_type_id":"4","last_reported":1731622097,"current_range_meters":38800,"station_id":"ce4bhoh2rcd13ifvqh5g","pricing_plan_id":"cebpf4jnsgd1na2vs0mg"},{"bike_id":"7cb604c6-ab5e-4f00-b638-2a3a5531fa65","system_id":"levelo_inurba_marseille","lat":43.31227,"lon":5.36862,"is_reserved":false,"is_disabled":false,"rental_uris":{"android":"levelo://app?vid=7cb604c6-ab5e-4f00-b638-2a3a5531fa65","ios":"levelo://app?vid=7cb604c6-ab5e-4f00-b638-2a3a5531fa65"},"vehicle_type_id":"4","last_reported":1731622097,"current_range_meters":29600,"station_id":"ce4bgl92rcd13ifvqbq0","pricing_plan_id":"cebpf4jnsgd1na2vs0mg"},{"bike_id":"a32f3da8-cd3b-447c-b91d-1764310a8577","system_id":"levelo_inurba_marseille","lat":43.30798,"lon":5.38155,"is_reserved":false,"is_disabled":false,"rental_uris":{"android":"levelo://app?vid=a32f3da8-cd3b-447c-b91d-1764310a8577","ios":"levelo://app?vid=a32f3da8-cd3b-447c-b91d-1764310a8577"},"vehicle_type_id":"4","last_reported":1731622097,"current_range_meters":39200,"station_id":"ce4bgt12rcd13ifvqce0","pricing_plan_id":"cebpf4jnsgd1na2vs0mg"},{"bike_id":"51704817-2877-45ea-ad31-d3fdee0f0146","system_id":"levelo_inurba_marseille","lat":43.2795,"lon":5.41042,"is_reserved":false,"is_disabled":false,"rental_uris":{"android":"levelo://app?vid=51704817-2877-45ea-ad31-d3fdee0f0146","ios":"levelo://app?vid=51704817-2877-45ea-ad31-d3fdee0f0146"},"vehicle_type_id":"4","last_reported":1731622097,"current_range_meters":18000,"station_id":"ce4bhnp2rcd13ifvqh0g","pricing_plan_id":"cebpf4jnsgd1na2vs0mg"},{"bike_id":"b47cb991-57c8-4ef2-ba6f-88a50e1a1219","system_id":"levelo_inurba_marseille","lat":43.22926,"lon":5.3537,"is_reserved":false,"is_disabled":false,"rental_uris":{"android":"levelo://app?vid=b47cb991-57c8-4ef2-ba6f-88a50e1a1219","ios":"levelo://app?vid=b47cb991-57c8-4ef2-ba6f-88a50e1a1219"},"vehicle_type_id":"4","last_reported":1731622097,"current_range_meters":38800,"station_id":"cpo3532slgdg3j2ikp40","pricing_plan_id":"cebpf4jnsgd1na2vs0mg"},{"bike_id":"389c46fa-4db2-431d-a79e-62c6aa7667f0","system_id":"levelo_inurba_marseille","lat":43.29026,"lon":5.38648,"is_reserved":false,"is_disabled":false,"rental_uris":{"android":"levelo://app?vid=389c46fa-4db2-431d-a79e-62c6aa7667f0","ios":"levelo://app?vid=389c46fa-4db2-431d-a79e-62c6aa7667f0"},"vehicle_type_id":"4","last_reported":1731622097,"current_range_meters":19200,"station_id":"ce4bh4p2rcd13ifvqe0g","pricing_plan_id":"cebpf4jnsgd1na2vs0mg"},{"bike_id":"71a5a730-3650-42a1-a4d2-e9985c303040","system_id":"levelo_inurba_marseille","lat":43.31482,"lon":5.37309,"is_reserved":false,"is_disabled":false,"rental_uris":{"android":"levelo://app?vid=71a5a730-3650-42a1-a4d2-e9985c303040","ios":"levelo://app?vid=71a5a730-3650-42a1-a4d2-e9985c303040"},"vehicle_type_id":"4","last_reported":1731622097,"current_range_meters":30800,"station_id":"ce4bgt12rcd13ifvqcd0","pricing_plan_id":"cebpf4jnsgd1na2vs0mg"},{"bike_id":"1edee465-0655-4469-bddc-77d889918a3d","system_id":"levelo_inurba_marseille","lat":43.28033,"lon":5.36962,"is_reserved":false,"is_disabled":false,"rental_uris":{"android":"levelo://app?vid=1edee465-0655-4469-bddc-77d889918a3d","ios":"levelo://app?vid=1edee465-0655-4469-bddc-77d889918a3d"},"vehicle_type_id":"4","last_reported":1731622097,"current_range_meters":13600,"station_id":"ce4bha12rcd13ifvqef0","pricing_plan_id":"cebpf4jnsgd1na2vs0mg"},{"bike_id":"1d36ec1c-d89d-4bb1-8e0d-ff1c762508b7","system_id":"levelo_inurba_marseille","lat":43.229343,"lon":5.35377,"is_reserved":false,"is_disabled":false,"rental_uris":{"android":"levelo://app?vid=1d36ec1c-d89d-4bb1-8e0d-ff1c762508b7","ios":"levelo://app?vid=1d36ec1c-d89d-4bb1-8e0d-ff1c762508b7"},"vehicle_type_id":"4","last_reported":1731622097,"current_range_meters":12800,"station_id":"cpo3532slgdg3j2ikp40","pricing_plan_id":"cebpf4jnsgd1na2vs0mg"},{"bike_id":"a22adc0e-b747-43b4-a342-21b59614973b","system_id":"levelo_inurba_marseille","lat":43.31486,"lon":5.3731,"is_reserved":false,"is_disabled":false,"rental_uris":{"android":"levelo://app?vid=a22adc0e-b747-43b4-a342-21b59614973b","ios":"levelo://app?vid=a22adc0e-b747-43b4-a342-21b59614973b"},"vehicle_type_id":"4","last_reported":1731622097,"current_range_meters":17600,"station_id":"ce4bgt12rcd13ifvqcd0","pricing_plan_id":"cebpf4jnsgd1na2vs0mg"},{"bike_id":"96982182-a7c7-450e-8433-0ac9d985aed2","system_id":"levelo_inurba_marseille","lat":43.33718,"lon":5.39175,"is_reserved":false,"is_disabled":false,"rental_uris":{"android":"levelo://app?vid=96982182-a7c7-450e-8433-0ac9d985aed2","ios":"levelo://app?vid=96982182-a7c7-450e-8433-0ac9d985aed2"},"vehicle_type_id":"4","last_reported":1731622097,"current_range_meters":38800,"station_id":"ce4bhr92rcd13ifvqhsg","pricing_plan_id":"cebpf4jnsgd1na2vs0mg"},{"bike_id":"37212eb8-cfa6-47ba-9ed7-bfed51287466","system_id":"levelo_inurba_marseille","lat":43.31473,"lon":5.37388,"is_reserved":false,"is_disabled":false,"rental_uris":{"android":"levelo://app?vid=37212eb8-cfa6-47ba-9ed7-bfed51287466","ios":"levelo://app?vid=37212eb8-cfa6-47ba-9ed7-bfed51287466"},"vehicle_type_id":"4","last_reported":1731622097,"current_range_meters":37600,"station_id":"","pricing_plan_id":"cebpf4jnsgd1na2vs0mg"},{"bike_id":"0a7a7ac5-f54c-44af-a6b9-bff324764339","system_id":"levelo_inurba_marseille","lat":43.23056,"lon":5.35494,"is_reserved":false,"is_disabled":false,"rental_uris":{"android":"levelo://app?vid=0a7a7ac5-f54c-44af-a6b9-bff324764339","ios":"levelo://app?vid=0a7a7ac5-f54c-44af-a6b9-bff324764339"},"vehicle_type_id":"4","last_reported":1731622097,"current_range_meters":18000,"station_id":"cpo3342slgdg3j2ifvpg","pricing_plan_id":"cebpf4jnsgd1na2vs0mg"},{"bike_id":"bef7ca68-0ccd-456c-a245-4471193ed987","system_id":"levelo_inurba_marseille","lat":43.26058,"lon":5.3939,"is_reserved":false,"is_disabled":false,"rental_uris":{"android":"levelo://app?vid=bef7ca68-0ccd-456c-a245-4471193ed987","ios":"levelo://app?vid=bef7ca68-0ccd-456c-a245-4471193ed987"},"vehicle_type_id":"4","last_reported":1731622097,"current_range_meters":39200,"station_id":"ce4bhh92rcd13ifvqfj0","pricing_plan_id":"cebpf4jnsgd1na2vs0mg"},{"bike_id":"e59b464e-a305-4d1c-b1e4-379940bba3f3","system_id":"levelo_inurba_marseille","lat":43.31326,"lon":5.39692,"is_reserved":false,"is_disabled":false,"rental_uris":{"android":"levelo://app?vid=e59b464e-a305-4d1c-b1e4-379940bba3f3","ios":"levelo://app?vid=e59b464e-a305-4d1c-b1e4-379940bba3f3"},"vehicle_type_id":"4","last_reported":1731622097,"current_range_meters":16800,"station_id":"ce4bgvp2rcd13ifvqcu0","pricing_plan_id":"cebpf4jnsgd1na2vs0mg"},{"bike_id":"fffae9c0-65c4-484d-a97d-fbf5d25801bf","system_id":"levelo_inurba_marseille","lat":43.28703,"lon":5.39977,"is_reserved":false,"is_disabled":false,"rental_uris":{"android":"levelo://app?vid=fffae9c0-65c4-484d-a97d-fbf5d25801bf","ios":"levelo://app?vid=fffae9c0-65c4-484d-a97d-fbf5d25801bf"},"vehicle_type_id":"4","last_reported":1731622097,"current_range_meters":38800,"station_id":"ce4bho92rcd13ifvqh3g","pricing_plan_id":"cebpf4jnsgd1na2vs0mg"},{"bike_id":"d13fcb32-d8e6-477f-be3d-4bc64066cf1b","system_id":"levelo_inurba_marseille","lat":43.28456,"lon":5.35883,"is_reserved":false,"is_disabled":false,"rental_uris":{"android":"levelo://app?vid=d13fcb32-d8e6-477f-be3d-4bc64066cf1b","ios":"levelo://app?vid=d13fcb32-d8e6-477f-be3d-4bc64066cf1b"},"vehicle_type_id":"4","last_reported":1731622097,"current_range_meters":38400,"station_id":"ce4bhah2rcd13ifvqei0","pricing_plan_id":"cebpf4jnsgd1na2vs0mg"},{"bike_id":"ad3689c7-f80e-4e87-bb45-8b7a3995a15c","system_id":"levelo_inurba_marseille","lat":43.2906,"lon":5.35923,"is_reserved":false,"is_disabled":false,"rental_uris":{"android":"levelo://app?vid=ad3689c7-f80e-4e87-bb45-8b7a3995a15c","ios":"levelo://app?vid=ad3689c7-f80e-4e87-bb45-8b7a3995a15c"},"vehicle_type_id":"4","last_reported":1731622097,"current_range_meters":16400,"station_id":"ce4bha92rcd13ifvqeg0","pricing_plan_id":"cebpf4jnsgd1na2vs0mg"},{"bike_id":"8e6a48a6-d797-4b05-a60d-c009363ef847","system_id":"levelo_inurba_marseille","lat":43.30639,"lon":5.40066,"is_reserved":false,"is_disabled":false,"rental_uris":{"android":"levelo://app?vid=8e6a48a6-d797-4b05-a60d-c009363ef847","ios":"levelo://app?vid=8e6a48a6-d797-4b05-a60d-c009363ef847"},"vehicle_type_id":"4","last_reported":1731622097,"current_range_meters":28000,"station_id":"ce4bh112rcd13ifvqda0","pricing_plan_id":"cebpf4jnsgd1na2vs0mg"},{"bike_id":"206137e3-505f-4c07-8db9-b4dea21fdc42","system_id":"levelo_inurba_marseille","lat":43.28653,"lon":5.36352,"is_reserved":false,"is_disabled":false,"rental_uris":{"android":"levelo://app?vid=206137e3-505f-4c07-8db9-b4dea21fdc42","ios":"levelo://app?vid=206137e3-505f-4c07-8db9-b4dea21fdc42"},"vehicle_type_id":"4","last_reported":1731622097,"current_range_meters":6000,"station_id":"ce4bhah2rcd13ifvqej0","pricing_plan_id":"cebpf4jnsgd1na2vs0mg"},{"bike_id":"366cfb73-f810-4c90-999d-a691fedac1aa","system_id":"levelo_inurba_marseille","lat":43.24381,"lon":5.37053,"is_reserved":false,"is_disabled":false,"rental_uris":{"android":"levelo://app?vid=366cfb73-f810-4c90-999d-a691fedac1aa","ios":"levelo://app?vid=366cfb73-f810-4c90-999d-a691fedac1aa"},"vehicle_type_id":"4","last_reported":1731622097,"current_range_meters":16800,"station_id":"ce4bhhh2rcd13ifvqfk0","pricing_plan_id":"cebpf4jnsgd1na2vs0mg"},{"bike_id":"4951dcb3-f505-43d3-a0be-f4e5650dfafa","system_id":"levelo_inurba_marseille","lat":43.31173,"lon":5.38722,"is_reserved":false,"is_disabled":false,"rental_uris":{"android":"levelo://app?vid=4951dcb3-f505-43d3-a0be-f4e5650dfafa","ios":"levelo://app?vid=4951dcb3-f505-43d3-a0be-f4e5650dfafa"},"vehicle_type_id":"4","last_reported":1731622097,"current_range_meters":28800,"station_id":"ce4bgv12rcd13ifvqcp0","pricing_plan_id":"cebpf4jnsgd1na2vs0mg"},{"bike_id":"75f556c7-359c-4c59-87d9-52936de37683","system_id":"levelo_inurba_marseille","lat":43.31148,"lon":5.38267,"is_reserved":false,"is_disabled":false,"rental_uris":{"android":"levelo://app?vid=75f556c7-359c-4c59-87d9-52936de37683","ios":"levelo://app?vid=75f556c7-359c-4c59-87d9-52936de37683"},"vehicle_type_id":"4","last_reported":1731622097,"current_range_meters":38400,"station_id":"ce4bgv92rcd13ifvqcr0","pricing_plan_id":"cebpf4jnsgd1na2vs0mg"},{"bike_id":"aaec841f-2a7c-4d64-8722-c25c02ca7092","system_id":"levelo_inurba_marseille","lat":43.23784,"lon":5.43055,"is_reserved":false,"is_disabled":false,"rental_uris":{"android":"levelo://app?vid=aaec841f-2a7c-4d64-8722-c25c02ca7092","ios":"levelo://app?vid=aaec841f-2a7c-4d64-8722-c25c02ca7092"},"vehicle_type_id":"4","last_reported":1731622097,"current_range_meters":36400,"station_id":"","pricing_plan_id":"cebpf4jnsgd1na2vs0mg"},{"bike_id":"d8d9769c-5795-43ab-a6b5-351abc0ce424","system_id":"levelo_inurba_marseille","lat":43.30923,"lon":5.40157,"is_reserved":false,"is_disabled":false,"rental_uris":{"android":"levelo://app?vid=d8d9769c-5795-43ab-a6b5-351abc0ce424","ios":"levelo://app?vid=d8d9769c-5795-43ab-a6b5-351abc0ce424"},"vehicle_type_id":"4","last_reported":1731622097,"current_range_meters":40000,"station_id":"ce4bgvp2rcd13ifvqct0","pricing_plan_id":"cebpf4jnsgd1na2vs0mg"},{"bike_id":"2e9c1a66-87ba-4664-8d2d-458a86c4b0b1","system_id":"levelo_inurba_marseille","lat":43.29264,"lon":5.40906,"is_reserved":false,"is_disabled":false,"rental_uris":{"android":"levelo://app?vid=2e9c1a66-87ba-4664-8d2d-458a86c4b0b1","ios":"levelo://app?vid=2e9c1a66-87ba-4664-8d2d-458a86c4b0b1"},"vehicle_type_id":"4","last_reported":1731622097,"current_range_meters":9600,"station_id":"ce4bh192rcd13ifvqdc0","pricing_plan_id":"cebpf4jnsgd1na2vs0mg"},{"bike_id":"6d757fef-4f26-43f9-ac2c-ffab39bf7dae","system_id":"levelo_inurba_marseille","lat":43.32249,"lon":5.36901,"is_reserved":false,"is_disabled":false,"rental_uris":{"android":"levelo://app?vid=6d757fef-4f26-43f9-ac2c-ffab39bf7dae","ios":"levelo://app?vid=6d757fef-4f26-43f9-ac2c-ffab39bf7dae"},"vehicle_type_id":"4","last_reported":1731622097,"current_range_meters":27200,"station_id":"","pricing_plan_id":"cebpf4jnsgd1na2vs0mg"},{"bike_id":"3afac39d-1772-461a-84d3-c7f0c9363b13","system_id":"levelo_inurba_marseille","lat":43.30085,"lon":5.3907,"is_reserved":false,"is_disabled":false,"rental_uris":{"android":"levelo://app?vid=3afac39d-1772-461a-84d3-c7f0c9363b13","ios":"levelo://app?vid=3afac39d-1772-461a-84d3-c7f0c9363b13"},"vehicle_type_id":"4","last_reported":1731622097,"current_range_meters":38400,"station_id":"ce4bh192rcd13ifvqdb0","pricing_plan_id":"cebpf4jnsgd1na2vs0mg"},{"bike_id":"20cbd690-2d9f-45b3-9d37-bb08a779573a","system_id":"levelo_inurba_marseille","lat":43.271571,"lon":5.40968,"is_reserved":false,"is_disabled":false,"rental_uris":{"android":"levelo://app?vid=20cbd690-2d9f-45b3-9d37-bb08a779573a","ios":"levelo://app?vid=20cbd690-2d9f-45b3-9d37-bb08a779573a"},"vehicle_type_id":"4","last_reported":1731622097,"current_range_meters":23200,"station_id":"ce4bhl12rcd13ifvqgf0","pricing_plan_id":"cebpf4jnsgd1na2vs0mg"},{"bike_id":"625e1693-e210-4796-9ba4-a89bb9e5236c","system_id":"levelo_inurba_marseille","lat":43.2872,"lon":5.36076,"is_reserved":false,"is_disabled":false,"rental_uris":{"android":"levelo://app?vid=625e1693-e210-4796-9ba4-a89bb9e5236c","ios":"levelo://app?vid=625e1693-e210-4796-9ba4-a89bb9e5236c"},"vehicle_type_id":"4","last_reported":1731622097,"current_range_meters":39200,"station_id":"cki0cbj6b192h4jlfktg","pricing_plan_id":"cebpf4jnsgd1na2vs0mg"},{"bike_id":"101d5fa3-de10-421f-ad0f-584b5cdd6627","system_id":"levelo_inurba_marseille","lat":43.26681,"lon":5.38253,"is_reserved":false,"is_disabled":false,"rental_uris":{"android":"levelo://app?vid=101d5fa3-de10-421f-ad0f-584b5cdd6627","ios":"levelo://app?vid=101d5fa3-de10-421f-ad0f-584b5cdd6627"},"vehicle_type_id":"4","last_reported":1731622097,"current_range_meters":36800,"station_id":"ce4bhg92rcd13ifvqf90","pricing_plan_id":"cebpf4jnsgd1na2vs0mg"},{"bike_id":"cd826efc-7b63-4473-996a-c18c2f5648c6","system_id":"levelo_inurba_marseille","lat":43.28854,"lon":5.3587,"is_reserved":false,"is_disabled":false,"rental_uris":{"android":"levelo://app?vid=cd826efc-7b63-4473-996a-c18c2f5648c6","ios":"levelo://app?vid=cd826efc-7b63-4473-996a-c18c2f5648c6"},"vehicle_type_id":"4","last_reported":1731622097,"current_range_meters":28000,"station_id":"ce4bhb12rcd13ifvqem0","pricing_plan_id":"cebpf4jnsgd1na2vs0mg"},{"bike_id":"4df7c49e-022d-40a5-b465-fbd364b6f490","system_id":"levelo_inurba_marseille","lat":43.325,"lon":5.36554,"is_reserved":false,"is_disabled":false,"rental_uris":{"android":"levelo://app?vid=4df7c49e-022d-40a5-b465-fbd364b6f490","ios":"levelo://app?vid=4df7c49e-022d-40a5-b465-fbd364b6f490"},"vehicle_type_id":"4","last_reported":1731622097,"current_range_meters":28400,"station_id":"ce4bhs12rcd13ifvqhvg","pricing_plan_id":"cebpf4jnsgd1na2vs0mg"},{"bike_id":"2618fc41-306d-4dc9-b15a-a465c719c14a","system_id":"levelo_inurba_marseille","lat":43.29524,"lon":5.39044,"is_reserved":false,"is_disabled":false,"rental_uris":{"android":"levelo://app?vid=2618fc41-306d-4dc9-b15a-a465c719c14a","ios":"levelo://app?vid=2618fc41-306d-4dc9-b15a-a465c719c14a"},"vehicle_type_id":"4","last_reported":1731622097,"current_range_meters":38800,"station_id":"ce4bh3p2rcd13ifvqdp0","pricing_plan_id":"cebpf4jnsgd1na2vs0mg"},{"bike_id":"779ce6e1-e11f-4f1a-b144-e31fdcd83726","system_id":"levelo_inurba_marseille","lat":43.32659,"lon":5.40991,"is_reserved":false,"is_disabled":false,"rental_uris":{"android":"levelo://app?vid=779ce6e1-e11f-4f1a-b144-e31fdcd83726","ios":"levelo://app?vid=779ce6e1-e11f-4f1a-b144-e31fdcd83726"},"vehicle_type_id":"4","last_reported":1731622097,"current_range_meters":39200,"station_id":"ce4bhpp2rcd13ifvqhgg","pricing_plan_id":"cebpf4jnsgd1na2vs0mg"},{"bike_id":"3990de1e-a735-4802-aaba-685ef30575b5","system_id":"levelo_inurba_marseille","lat":43.29005,"lon":5.35614,"is_reserved":false,"is_disabled":false,"rental_uris":{"android":"levelo://app?vid=3990de1e-a735-4802-aaba-685ef30575b5","ios":"levelo://app?vid=3990de1e-a735-4802-aaba-685ef30575b5"},"vehicle_type_id":"4","last_reported":1731622097,"current_range_meters":33600,"station_id":"ce4bhb92rcd13ifvqen0","pricing_plan_id":"cebpf4jnsgd1na2vs0mg"},{"bike_id":"25166272-a2e4-426f-8bd1-827ffbe55e39","system_id":"levelo_inurba_marseille","lat":43.31331,"lon":5.39697,"is_reserved":false,"is_disabled":false,"rental_uris":{"android":"levelo://app?vid=25166272-a2e4-426f-8bd1-827ffbe55e39","ios":"levelo://app?vid=25166272-a2e4-426f-8bd1-827ffbe55e39"},"vehicle_type_id":"4","last_reported":1731622097,"current_range_meters":20800,"station_id":"ce4bgvp2rcd13ifvqcu0","pricing_plan_id":"cebpf4jnsgd1na2vs0mg"},{"bike_id":"2ba01715-3170-4a7e-ae00-4a8868ac1042","system_id":"levelo_inurba_marseille","lat":43.25088,"lon":5.39512,"is_reserved":false,"is_disabled":false,"rental_uris":{"android":"levelo://app?vid=2ba01715-3170-4a7e-ae00-4a8868ac1042","ios":"levelo://app?vid=2ba01715-3170-4a7e-ae00-4a8868ac1042"},"vehicle_type_id":"4","last_reported":1731622097,"current_range_meters":27600,"station_id":"ce4bhm12rcd13ifvqgkg","pricing_plan_id":"cebpf4jnsgd1na2vs0mg"},{"bike_id":"a5bcaa3e-e10e-4588-be0d-c322f181b4e4","system_id":"levelo_inurba_marseille","lat":43.246655,"lon":5.381716,"is_reserved":false,"is_disabled":false,"rental_uris":{"android":"levelo://app?vid=a5bcaa3e-e10e-4588-be0d-c322f181b4e4","ios":"levelo://app?vid=a5bcaa3e-e10e-4588-be0d-c322f181b4e4"},"vehicle_type_id":"4","last_reported":1731622097,"current_range_meters":38800,"station_id":"ce4bhih2rcd13ifvqfr0","pricing_plan_id":"cebpf4jnsgd1na2vs0mg"},{"bike_id":"5bb144cb-e241-49d6-a28d-9d74e48d78b6","system_id":"levelo_inurba_marseille","lat":43.30215,"lon":5.40054,"is_reserved":false,"is_disabled":false,"rental_uris":{"android":"levelo://app?vid=5bb144cb-e241-49d6-a28d-9d74e48d78b6","ios":"levelo://app?vid=5bb144cb-e241-49d6-a28d-9d74e48d78b6"},"vehicle_type_id":"4","last_reported":1731622097,"current_range_meters":2800,"station_id":"","pricing_plan_id":"cebpf4jnsgd1na2vs0mg"},{"bike_id":"af72970a-4890-4594-ae7c-b099dce2e887","system_id":"levelo_inurba_marseille","lat":43.33611,"lon":5.41019,"is_reserved":false,"is_disabled":false,"rental_uris":{"android":"levelo://app?vid=af72970a-4890-4594-ae7c-b099dce2e887","ios":"levelo://app?vid=af72970a-4890-4594-ae7c-b099dce2e887"},"vehicle_type_id":"4","last_reported":1731622097,"current_range_meters":25600,"station_id":"ce4bhqh2rcd13ifvqhmg","pricing_plan_id":"cebpf4jnsgd1na2vs0mg"},{"bike_id":"359db04f-5d69-43c1-b38e-4defe71ed94d","system_id":"levelo_inurba_marseille","lat":43.25863,"lon":5.39899,"is_reserved":false,"is_disabled":false,"rental_uris":{"android":"levelo://app?vid=359db04f-5d69-43c1-b38e-4defe71ed94d","ios":"levelo://app?vid=359db04f-5d69-43c1-b38e-4defe71ed94d"},"vehicle_type_id":"4","last_reported":1731622097,"current_range_meters":38800,"station_id":"ce4bhl92rcd13ifvqghg","pricing_plan_id":"cebpf4jnsgd1na2vs0mg"},{"bike_id":"8bc76c09-4f0d-4aef-a8c7-bab1b9b4ba71","system_id":"levelo_inurba_marseille","lat":43.27967,"lon":5.38712,"is_reserved":false,"is_disabled":false,"rental_uris":{"android":"levelo://app?vid=8bc76c09-4f0d-4aef-a8c7-bab1b9b4ba71","ios":"levelo://app?vid=8bc76c09-4f0d-4aef-a8c7-bab1b9b4ba71"},"vehicle_type_id":"4","last_reported":1731622097,"current_range_meters":37600,"station_id":"ce4bhg12rcd13ifvqf80","pricing_plan_id":"cebpf4jnsgd1na2vs0mg"},{"bike_id":"3af5230d-21db-48d0-8884-9610ea6ca601","system_id":"levelo_inurba_marseille","lat":43.30886,"lon":5.39634,"is_reserved":false,"is_disabled":false,"rental_uris":{"android":"levelo://app?vid=3af5230d-21db-48d0-8884-9610ea6ca601","ios":"levelo://app?vid=3af5230d-21db-48d0-8884-9610ea6ca601"},"vehicle_type_id":"4","last_reported":1731622097,"current_range_meters":39200,"station_id":"ce4bh012rcd13ifvqcv0","pricing_plan_id":"cebpf4jnsgd1na2vs0mg"},{"bike_id":"9b95c83d-ba25-4715-8965-5f4008b6661b","system_id":"levelo_inurba_marseille","lat":43.32658,"lon":5.40991,"is_reserved":false,"is_disabled":false,"rental_uris":{"android":"levelo://app?vid=9b95c83d-ba25-4715-8965-5f4008b6661b","ios":"levelo://app?vid=9b95c83d-ba25-4715-8965-5f4008b6661b"},"vehicle_type_id":"4","last_reported":1731622097,"current_range_meters":38000,"station_id":"ce4bhpp2rcd13ifvqhgg","pricing_plan_id":"cebpf4jnsgd1na2vs0mg"},{"bike_id":"a4c0b782-d654-44e3-bf31-ac507e118897","system_id":"levelo_inurba_marseille","lat":43.2905,"lon":5.35901,"is_reserved":false,"is_disabled":false,"rental_uris":{"android":"levelo://app?vid=a4c0b782-d654-44e3-bf31-ac507e118897","ios":"levelo://app?vid=a4c0b782-d654-44e3-bf31-ac507e118897"},"vehicle_type_id":"4","last_reported":1731622097,"current_range_meters":28400,"station_id":"ce4bha92rcd13ifvqeg0","pricing_plan_id":"cebpf4jnsgd1na2vs0mg"},{"bike_id":"fea05df6-12bd-464b-9121-df7b548d7775","system_id":"levelo_inurba_marseille","lat":43.24999,"lon":5.38933,"is_reserved":false,"is_disabled":false,"rental_uris":{"android":"levelo://app?vid=fea05df6-12bd-464b-9121-df7b548d7775","ios":"levelo://app?vid=fea05df6-12bd-464b-9121-df7b548d7775"},"vehicle_type_id":"4","last_reported":1731622097,"current_range_meters":28800,"station_id":"ce4bhgp2rcd13ifvqfd0","pricing_plan_id":"cebpf4jnsgd1na2vs0mg"},{"bike_id":"ad9e5643-959a-4636-935c-2a6093955f09","system_id":"levelo_inurba_marseille","lat":43.26201,"lon":5.37924,"is_reserved":false,"is_disabled":false,"rental_uris":{"android":"levelo://app?vid=ad9e5643-959a-4636-935c-2a6093955f09","ios":"levelo://app?vid=ad9e5643-959a-4636-935c-2a6093955f09"},"vehicle_type_id":"4","last_reported":1731622097,"current_range_meters":38400,"station_id":"ce4bhjp2rcd13ifvqg90","pricing_plan_id":"cebpf4jnsgd1na2vs0mg"},{"bike_id":"6290061e-7002-4bed-8242-03e0a269a134","system_id":"levelo_inurba_marseille","lat":43.3033,"lon":5.40437,"is_reserved":false,"is_disabled":false,"rental_uris":{"android":"levelo://app?vid=6290061e-7002-4bed-8242-03e0a269a134","ios":"levelo://app?vid=6290061e-7002-4bed-8242-03e0a269a134"},"vehicle_type_id":"4","last_reported":1731622097,"current_range_meters":27200,"station_id":"ce4bh012rcd13ifvqd10","pricing_plan_id":"cebpf4jnsgd1na2vs0mg"},{"bike_id":"021ab24c-2a0d-440d-8e09-9e35589bcbc7","system_id":"levelo_inurba_marseille","lat":43.28006,"lon":5.40011,"is_reserved":false,"is_disabled":false,"rental_uris":{"android":"levelo://app?vid=021ab24c-2a0d-440d-8e09-9e35589bcbc7","ios":"levelo://app?vid=021ab24c-2a0d-440d-8e09-9e35589bcbc7"},"vehicle_type_id":"4","last_reported":1731622097,"current_range_meters":38800,"station_id":"ce4bho92rcd13ifvqh4g","pricing_plan_id":"cebpf4jnsgd1na2vs0mg"},{"bike_id":"6f45bdb5-bfdc-40f2-a38c-f51a93e95c83","system_id":"levelo_inurba_marseille","lat":43.25821,"lon":5.3942,"is_reserved":false,"is_disabled":false,"rental_uris":{"android":"levelo://app?vid=6f45bdb5-bfdc-40f2-a38c-f51a93e95c83","ios":"levelo://app?vid=6f45bdb5-bfdc-40f2-a38c-f51a93e95c83"},"vehicle_type_id":"4","last_reported":1731622097,"current_range_meters":8800,"station_id":"ce4bhip2rcd13ifvqft0","pricing_plan_id":"cebpf4jnsgd1na2vs0mg"},{"bike_id":"2db46c00-d305-49fb-9f59-368dd8a841d1","system_id":"levelo_inurba_marseille","lat":43.28452,"lon":5.35888,"is_reserved":false,"is_disabled":false,"rental_uris":{"android":"levelo://app?vid=2db46c00-d305-49fb-9f59-368dd8a841d1","ios":"levelo://app?vid=2db46c00-d305-49fb-9f59-368dd8a841d1"},"vehicle_type_id":"4","last_reported":1731622097,"current_range_meters":38800,"station_id":"ce4bhah2rcd13ifvqei0","pricing_plan_id":"cebpf4jnsgd1na2vs0mg"},{"bike_id":"1cc9e070-93f6-4f97-9b05-f9e818633d9b","system_id":"levelo_inurba_marseille","lat":43.2893,"lon":5.38403,"is_reserved":false,"is_disabled":false,"rental_uris":{"android":"levelo://app?vid=1cc9e070-93f6-4f97-9b05-f9e818633d9b","ios":"levelo://app?vid=1cc9e070-93f6-4f97-9b05-f9e818633d9b"},"vehicle_type_id":"4","last_reported":1731622097,"current_range_meters":22000,"station_id":"ce4bh612rcd13ifvqe6g","pricing_plan_id":"cebpf4jnsgd1na2vs0mg"},{"bike_id":"14f0d2ba-5bfd-4940-b6d0-36726325252d","system_id":"levelo_inurba_marseille","lat":43.3171,"lon":5.37766,"is_reserved":false,"is_disabled":false,"rental_uris":{"android":"levelo://app?vid=14f0d2ba-5bfd-4940-b6d0-36726325252d","ios":"levelo://app?vid=14f0d2ba-5bfd-4940-b6d0-36726325252d"},"vehicle_type_id":"4","last_reported":1731622097,"current_range_meters":39200,"station_id":"ce4bgth2rcd13ifvqch0","pricing_plan_id":"cebpf4jnsgd1na2vs0mg"},{"bike_id":"8e12737c-b68e-4dc9-a8c9-536f660541a7","system_id":"levelo_inurba_marseille","lat":43.28459,"lon":5.35891,"is_reserved":false,"is_disabled":false,"rental_uris":{"android":"levelo://app?vid=8e12737c-b68e-4dc9-a8c9-536f660541a7","ios":"levelo://app?vid=8e12737c-b68e-4dc9-a8c9-536f660541a7"},"vehicle_type_id":"4","last_reported":1731622097,"current_range_meters":19200,"station_id":"ce4bhah2rcd13ifvqei0","pricing_plan_id":"cebpf4jnsgd1na2vs0mg"},{"bike_id":"37f52798-cde3-4570-a5d2-b0908bfd3884","system_id":"levelo_inurba_marseille","lat":43.25084,"lon":5.39513,"is_reserved":false,"is_disabled":false,"rental_uris":{"android":"levelo://app?vid=37f52798-cde3-4570-a5d2-b0908bfd3884","ios":"levelo://app?vid=37f52798-cde3-4570-a5d2-b0908bfd3884"},"vehicle_type_id":"4","last_reported":1731622097,"current_range_meters":24000,"station_id":"ce4bhm12rcd13ifvqgkg","pricing_plan_id":"cebpf4jnsgd1na2vs0mg"},{"bike_id":"c83d3ece-e474-4184-a4ac-f44c9a101d2b","system_id":"levelo_inurba_marseille","lat":43.29782,"lon":5.37098,"is_reserved":false,"is_disabled":false,"rental_uris":{"android":"levelo://app?vid=c83d3ece-e474-4184-a4ac-f44c9a101d2b","ios":"levelo://app?vid=c83d3ece-e474-4184-a4ac-f44c9a101d2b"},"vehicle_type_id":"4","last_reported":1731622097,"current_range_meters":38000,"station_id":"ce4bgop2rcd13ifvqc1g","pricing_plan_id":"cebpf4jnsgd1na2vs0mg"},{"bike_id":"c776c711-8529-4044-92bb-c5d2290b4bca","system_id":"levelo_inurba_marseille","lat":43.289876,"lon":5.366371,"is_reserved":false,"is_disabled":false,"rental_uris":{"android":"levelo://app?vid=c776c711-8529-4044-92bb-c5d2290b4bca","ios":"levelo://app?vid=c776c711-8529-4044-92bb-c5d2290b4bca"},"vehicle_type_id":"4","last_reported":1731622097,"current_range_meters":19600,"station_id":"ce4bhap2rcd13ifvqek0","pricing_plan_id":"cebpf4jnsgd1na2vs0mg"},{"bike_id":"67acd962-61fe-4c41-93b6-69cf808e27bd","system_id":"levelo_inurba_marseille","lat":43.31999,"lon":5.38172,"is_reserved":false,"is_disabled":false,"rental_uris":{"android":"levelo://app?vid=67acd962-61fe-4c41-93b6-69cf808e27bd","ios":"levelo://app?vid=67acd962-61fe-4c41-93b6-69cf808e27bd"},"vehicle_type_id":"4","last_reported":1731622097,"current_range_meters":22800,"station_id":"ce4bhr12rcd13ifvqhpg","pricing_plan_id":"cebpf4jnsgd1na2vs0mg"},{"bike_id":"2d8d329c-bd0c-43e6-b753-fca880463eba","system_id":"levelo_inurba_marseille","lat":43.28414,"lon":5.375078,"is_reserved":false,"is_disabled":false,"rental_uris":{"android":"levelo://app?vid=2d8d329c-bd0c-43e6-b753-fca880463eba","ios":"levelo://app?vid=2d8d329c-bd0c-43e6-b753-fca880463eba"},"vehicle_type_id":"4","last_reported":1731622097,"current_range_meters":27600,"station_id":"ce4bh412rcd13ifvqds0","pricing_plan_id":"cebpf4jnsgd1na2vs0mg"},{"bike_id":"3801d79e-aba9-453c-9e83-33f3550a7c41","system_id":"levelo_inurba_marseille","lat":43.24388,"lon":5.37059,"is_reserved":false,"is_disabled":false,"rental_uris":{"android":"levelo://app?vid=3801d79e-aba9-453c-9e83-33f3550a7c41","ios":"levelo://app?vid=3801d79e-aba9-453c-9e83-33f3550a7c41"},"vehicle_type_id":"4","last_reported":1731622097,"current_range_meters":38800,"station_id":"ce4bhhh2rcd13ifvqfk0","pricing_plan_id":"cebpf4jnsgd1na2vs0mg"},{"bike_id":"792531a3-4da6-4082-bd0a-16451cbb2558","system_id":"levelo_inurba_marseille","lat":43.26029,"lon":5.37554,"is_reserved":false,"is_disabled":false,"rental_uris":{"android":"levelo://app?vid=792531a3-4da6-4082-bd0a-16451cbb2558","ios":"levelo://app?vid=792531a3-4da6-4082-bd0a-16451cbb2558"},"vehicle_type_id":"4","last_reported":1731622097,"current_range_meters":25200,"station_id":"ce4bhgh2rcd13ifvqfa0","pricing_plan_id":"cebpf4jnsgd1na2vs0mg"},{"bike_id":"ae392e5f-25ce-4d0e-9ce3-1e2a8bf46846","system_id":"levelo_inurba_marseille","lat":43.27807,"lon":5.4071,"is_reserved":false,"is_disabled":false,"rental_uris":{"android":"levelo://app?vid=ae392e5f-25ce-4d0e-9ce3-1e2a8bf46846","ios":"levelo://app?vid=ae392e5f-25ce-4d0e-9ce3-1e2a8bf46846"},"vehicle_type_id":"4","last_reported":1731622097,"current_range_meters":29600,"station_id":"ce4bhnh2rcd13ifvqgtg","pricing_plan_id":"cebpf4jnsgd1na2vs0mg"},{"bike_id":"68fc7ebc-cf88-4204-b580-f333ce1c0a1b","system_id":"levelo_inurba_marseille","lat":43.291138,"lon":5.382921,"is_reserved":false,"is_disabled":false,"rental_uris":{"android":"levelo://app?vid=68fc7ebc-cf88-4204-b580-f333ce1c0a1b","ios":"levelo://app?vid=68fc7ebc-cf88-4204-b580-f333ce1c0a1b"},"vehicle_type_id":"4","last_reported":1731622097,"current_range_meters":32400,"station_id":"","pricing_plan_id":"cebpf4jnsgd1na2vs0mg"},{"bike_id":"29e47217-53c6-4239-aec7-fbebcc0f497a","system_id":"levelo_inurba_marseille","lat":43.28714,"lon":5.360898,"is_reserved":false,"is_disabled":false,"rental_uris":{"android":"levelo://app?vid=29e47217-53c6-4239-aec7-fbebcc0f497a","ios":"levelo://app?vid=29e47217-53c6-4239-aec7-fbebcc0f497a"},"vehicle_type_id":"4","last_reported":1731622097,"current_range_meters":25600,"station_id":"ce4bh4p2rcd13ifvqe1g","pricing_plan_id":"cebpf4jnsgd1na2vs0mg"},{"bike_id":"06a8209f-64d3-46bd-83d2-483209754eff","system_id":"levelo_inurba_marseille","lat":43.24181,"lon":5.39728,"is_reserved":false,"is_disabled":false,"rental_uris":{"android":"levelo://app?vid=06a8209f-64d3-46bd-83d2-483209754eff","ios":"levelo://app?vid=06a8209f-64d3-46bd-83d2-483209754eff"},"vehicle_type_id":"4","last_reported":1731622097,"current_range_meters":6800,"station_id":"ce4bhn12rcd13ifvqgpg","pricing_plan_id":"cebpf4jnsgd1na2vs0mg"},{"bike_id":"1311c692-6e9d-4afb-b7b0-20686564fe7a","system_id":"levelo_inurba_marseille","lat":43.337444,"lon":5.374475,"is_reserved":false,"is_disabled":false,"rental_uris":{"android":"levelo://app?vid=1311c692-6e9d-4afb-b7b0-20686564fe7a","ios":"levelo://app?vid=1311c692-6e9d-4afb-b7b0-20686564fe7a"},"vehicle_type_id":"4","last_reported":1731622097,"current_range_meters":31200,"station_id":"","pricing_plan_id":"cebpf4jnsgd1na2vs0mg"},{"bike_id":"b2ac6ecc-ddbe-48f8-8cb1-944308d391fd","system_id":"levelo_inurba_marseille","lat":43.31118,"lon":5.37784,"is_reserved":false,"is_disabled":false,"rental_uris":{"android":"levelo://app?vid=b2ac6ecc-ddbe-48f8-8cb1-944308d391fd","ios":"levelo://app?vid=b2ac6ecc-ddbe-48f8-8cb1-944308d391fd"},"vehicle_type_id":"4","last_reported":1731622097,"current_range_meters":36800,"station_id":"ce4bgt92rcd13ifvqcg0","pricing_plan_id":"cebpf4jnsgd1na2vs0mg"},{"bike_id":"db79510e-58e6-4d69-a4d0-b02a58fdb1f1","system_id":"levelo_inurba_marseille","lat":43.23959,"lon":5.36626,"is_reserved":false,"is_disabled":false,"rental_uris":{"android":"levelo://app?vid=db79510e-58e6-4d69-a4d0-b02a58fdb1f1","ios":"levelo://app?vid=db79510e-58e6-4d69-a4d0-b02a58fdb1f1"},"vehicle_type_id":"4","last_reported":1731622097,"current_range_meters":35600,"station_id":"ce4bhi12rcd13ifvqfp0","pricing_plan_id":"cebpf4jnsgd1na2vs0mg"},{"bike_id":"17704970-65a3-4b67-8ac6-5e9bb14e2dbf","system_id":"levelo_inurba_marseille","lat":43.30253,"lon":5.40076,"is_reserved":false,"is_disabled":false,"rental_uris":{"android":"levelo://app?vid=17704970-65a3-4b67-8ac6-5e9bb14e2dbf","ios":"levelo://app?vid=17704970-65a3-4b67-8ac6-5e9bb14e2dbf"},"vehicle_type_id":"4","last_reported":1731622097,"current_range_meters":9600,"station_id":"ce4bgvh2rcd13ifvqcs0","pricing_plan_id":"cebpf4jnsgd1na2vs0mg"},{"bike_id":"70d20d8f-1109-4c5b-86e9-c9e4cb8476ac","system_id":"levelo_inurba_marseille","lat":43.298653,"lon":5.397359,"is_reserved":false,"is_disabled":false,"rental_uris":{"android":"levelo://app?vid=70d20d8f-1109-4c5b-86e9-c9e4cb8476ac","ios":"levelo://app?vid=70d20d8f-1109-4c5b-86e9-c9e4cb8476ac"},"vehicle_type_id":"4","last_reported":1731622097,"current_range_meters":24400,"station_id":"ce4bh0h2rcd13ifvqd50","pricing_plan_id":"cebpf4jnsgd1na2vs0mg"},{"bike_id":"6b0d076a-8b1e-4a06-bcea-10e07f1a4ad0","system_id":"levelo_inurba_marseille","lat":43.29022,"lon":5.38639,"is_reserved":false,"is_disabled":false,"rental_uris":{"android":"levelo://app?vid=6b0d076a-8b1e-4a06-bcea-10e07f1a4ad0","ios":"levelo://app?vid=6b0d076a-8b1e-4a06-bcea-10e07f1a4ad0"},"vehicle_type_id":"4","last_reported":1731622097,"current_range_meters":29600,"station_id":"ce4bh4p2rcd13ifvqe0g","pricing_plan_id":"cebpf4jnsgd1na2vs0mg"},{"bike_id":"f6e63c56-e76b-4e7f-9c35-ff272f3e7c44","system_id":"levelo_inurba_marseille","lat":43.27816,"lon":5.40714,"is_reserved":false,"is_disabled":false,"rental_uris":{"android":"levelo://app?vid=f6e63c56-e76b-4e7f-9c35-ff272f3e7c44","ios":"levelo://app?vid=f6e63c56-e76b-4e7f-9c35-ff272f3e7c44"},"vehicle_type_id":"4","last_reported":1731622097,"current_range_meters":38800,"station_id":"ce4bhnh2rcd13ifvqgtg","pricing_plan_id":"cebpf4jnsgd1na2vs0mg"},{"bike_id":"282166fb-ba9b-4784-acae-d15fad990eec","system_id":"levelo_inurba_marseille","lat":43.34142,"lon":5.40902,"is_reserved":false,"is_disabled":false,"rental_uris":{"android":"levelo://app?vid=282166fb-ba9b-4784-acae-d15fad990eec","ios":"levelo://app?vid=282166fb-ba9b-4784-acae-d15fad990eec"},"vehicle_type_id":"4","last_reported":1731622097,"current_range_meters":6000,"station_id":"ce4bhqh2rcd13ifvqhlg","pricing_plan_id":"cebpf4jnsgd1na2vs0mg"},{"bike_id":"1db7e47b-80a0-46fa-b3dc-cc5c159bde15","system_id":"levelo_inurba_marseille","lat":43.31079,"lon":5.42433,"is_reserved":false,"is_disabled":false,"rental_uris":{"android":"levelo://app?vid=1db7e47b-80a0-46fa-b3dc-cc5c159bde15","ios":"levelo://app?vid=1db7e47b-80a0-46fa-b3dc-cc5c159bde15"},"vehicle_type_id":"4","last_reported":1731622097,"current_range_meters":25600,"station_id":"ce4bhp92rcd13ifvqhag","pricing_plan_id":"cebpf4jnsgd1na2vs0mg"},{"bike_id":"962548b5-1fdc-41b9-aacc-aaec643779c6","system_id":"levelo_inurba_marseille","lat":43.28102,"lon":5.3784,"is_reserved":false,"is_disabled":false,"rental_uris":{"android":"levelo://app?vid=962548b5-1fdc-41b9-aacc-aaec643779c6","ios":"levelo://app?vid=962548b5-1fdc-41b9-aacc-aaec643779c6"},"vehicle_type_id":"4","last_reported":1731622097,"current_range_meters":8000,"station_id":"ce4bha12rcd13ifvqee0","pricing_plan_id":"cebpf4jnsgd1na2vs0mg"},{"bike_id":"e5fe9c6f-8df7-42f6-b790-fc724ed219e4","system_id":"levelo_inurba_marseille","lat":43.28568,"lon":5.39489,"is_reserved":false,"is_disabled":false,"rental_uris":{"android":"levelo://app?vid=e5fe9c6f-8df7-42f6-b790-fc724ed219e4","ios":"levelo://app?vid=e5fe9c6f-8df7-42f6-b790-fc724ed219e4"},"vehicle_type_id":"4","last_reported":1731622097,"current_range_meters":38800,"station_id":"ce4bh292rcd13ifvqdg0","pricing_plan_id":"cebpf4jnsgd1na2vs0mg"},{"bike_id":"a6b8c285-acc9-4039-9531-1aae39136a33","system_id":"levelo_inurba_marseille","lat":43.312042,"lon":5.367348,"is_reserved":false,"is_disabled":false,"rental_uris":{"android":"levelo://app?vid=a6b8c285-acc9-4039-9531-1aae39136a33","ios":"levelo://app?vid=a6b8c285-acc9-4039-9531-1aae39136a33"},"vehicle_type_id":"4","last_reported":1731622097,"current_range_meters":22400,"station_id":"","pricing_plan_id":"cebpf4jnsgd1na2vs0mg"},{"bike_id":"969fc660-e18c-47b7-beed-36ead3f43ca6","system_id":"levelo_inurba_marseille","lat":43.284564,"lon":5.358918,"is_reserved":false,"is_disabled":false,"rental_uris":{"android":"levelo://app?vid=969fc660-e18c-47b7-beed-36ead3f43ca6","ios":"levelo://app?vid=969fc660-e18c-47b7-beed-36ead3f43ca6"},"vehicle_type_id":"4","last_reported":1731622097,"current_range_meters":22000,"station_id":"ce4bhah2rcd13ifvqei0","pricing_plan_id":"cebpf4jnsgd1na2vs0mg"},{"bike_id":"c5d0194e-34c9-4d5b-9425-62c78e5d0cfb","system_id":"levelo_inurba_marseille","lat":43.24177,"lon":5.39722,"is_reserved":false,"is_disabled":false,"rental_uris":{"android":"levelo://app?vid=c5d0194e-34c9-4d5b-9425-62c78e5d0cfb","ios":"levelo://app?vid=c5d0194e-34c9-4d5b-9425-62c78e5d0cfb"},"vehicle_type_id":"4","last_reported":1731622097,"current_range_meters":8000,"station_id":"ce4bhn12rcd13ifvqgpg","pricing_plan_id":"cebpf4jnsgd1na2vs0mg"},{"bike_id":"31e215c2-7dd6-45e6-9b1e-64fa63bf89c1","system_id":"levelo_inurba_marseille","lat":43.25091,"lon":5.39518,"is_reserved":false,"is_disabled":false,"rental_uris":{"android":"levelo://app?vid=31e215c2-7dd6-45e6-9b1e-64fa63bf89c1","ios":"levelo://app?vid=31e215c2-7dd6-45e6-9b1e-64fa63bf89c1"},"vehicle_type_id":"4","last_reported":1731622097,"current_range_meters":4800,"station_id":"ce4bhm12rcd13ifvqgkg","pricing_plan_id":"cebpf4jnsgd1na2vs0mg"},{"bike_id":"3c4efd2f-3952-4f43-bc5f-5c06153b1ebb","system_id":"levelo_inurba_marseille","lat":43.303243,"lon":5.404307,"is_reserved":false,"is_disabled":false,"rental_uris":{"android":"levelo://app?vid=3c4efd2f-3952-4f43-bc5f-5c06153b1ebb","ios":"levelo://app?vid=3c4efd2f-3952-4f43-bc5f-5c06153b1ebb"},"vehicle_type_id":"4","last_reported":1731622097,"current_range_meters":19200,"station_id":"ce4bh012rcd13ifvqd10","pricing_plan_id":"cebpf4jnsgd1na2vs0mg"},{"bike_id":"b9916238-6860-4e40-a31b-eb86b789d0e1","system_id":"levelo_inurba_marseille","lat":43.24175,"lon":5.39716,"is_reserved":false,"is_disabled":false,"rental_uris":{"android":"levelo://app?vid=b9916238-6860-4e40-a31b-eb86b789d0e1","ios":"levelo://app?vid=b9916238-6860-4e40-a31b-eb86b789d0e1"},"vehicle_type_id":"4","last_reported":1731622097,"current_range_meters":30000,"station_id":"ce4bhn12rcd13ifvqgpg","pricing_plan_id":"cebpf4jnsgd1na2vs0mg"},{"bike_id":"d9e1dd85-c394-4dd3-9340-e027e6a5fde3","system_id":"levelo_inurba_marseille","lat":43.27996,"lon":5.40011,"is_reserved":false,"is_disabled":false,"rental_uris":{"android":"levelo://app?vid=d9e1dd85-c394-4dd3-9340-e027e6a5fde3","ios":"levelo://app?vid=d9e1dd85-c394-4dd3-9340-e027e6a5fde3"},"vehicle_type_id":"4","last_reported":1731622097,"current_range_meters":38800,"station_id":"ce4bho92rcd13ifvqh4g","pricing_plan_id":"cebpf4jnsgd1na2vs0mg"},{"bike_id":"acc809af-0a7f-4184-ba91-1cb6045af284","system_id":"levelo_inurba_marseille","lat":43.29451,"lon":5.39753,"is_reserved":false,"is_disabled":false,"rental_uris":{"android":"levelo://app?vid=acc809af-0a7f-4184-ba91-1cb6045af284","ios":"levelo://app?vid=acc809af-0a7f-4184-ba91-1cb6045af284"},"vehicle_type_id":"4","last_reported":1731622097,"current_range_meters":35200,"station_id":"ce4bh3h2rcd13ifvqdo0","pricing_plan_id":"cebpf4jnsgd1na2vs0mg"},{"bike_id":"aa6b97fe-c3f6-4c62-8938-86970424cd5a","system_id":"levelo_inurba_marseille","lat":43.28106,"lon":5.37844,"is_reserved":false,"is_disabled":false,"rental_uris":{"android":"levelo://app?vid=aa6b97fe-c3f6-4c62-8938-86970424cd5a","ios":"levelo://app?vid=aa6b97fe-c3f6-4c62-8938-86970424cd5a"},"vehicle_type_id":"4","last_reported":1731622097,"current_range_meters":30800,"station_id":"ce4bha12rcd13ifvqee0","pricing_plan_id":"cebpf4jnsgd1na2vs0mg"},{"bike_id":"1ae8fe75-00ad-479b-a755-74d45d76bfbe","system_id":"levelo_inurba_marseille","lat":43.24171,"lon":5.36405,"is_reserved":false,"is_disabled":false,"rental_uris":{"android":"levelo://app?vid=1ae8fe75-00ad-479b-a755-74d45d76bfbe","ios":"levelo://app?vid=1ae8fe75-00ad-479b-a755-74d45d76bfbe"},"vehicle_type_id":"4","last_reported":1731622097,"current_range_meters":16000,"station_id":"cpo36qri1sfpv3e86is0","pricing_plan_id":"cebpf4jnsgd1na2vs0mg"},{"bike_id":"e9c6a11e-33e0-4b5a-84b2-7a5cc6bc84b9","system_id":"levelo_inurba_marseille","lat":43.2706,"lon":5.40259,"is_reserved":false,"is_disabled":false,"rental_uris":{"android":"levelo://app?vid=e9c6a11e-33e0-4b5a-84b2-7a5cc6bc84b9","ios":"levelo://app?vid=e9c6a11e-33e0-4b5a-84b2-7a5cc6bc84b9"},"vehicle_type_id":"4","last_reported":1731622097,"current_range_meters":19600,"station_id":"ce4bhk92rcd13ifvqgc0","pricing_plan_id":"cebpf4jnsgd1na2vs0mg"},{"bike_id":"3f518df0-4e56-4830-bee8-54f4ac0b257e","system_id":"levelo_inurba_marseille","lat":43.3094,"lon":5.40142,"is_reserved":false,"is_disabled":false,"rental_uris":{"android":"levelo://app?vid=3f518df0-4e56-4830-bee8-54f4ac0b257e","ios":"levelo://app?vid=3f518df0-4e56-4830-bee8-54f4ac0b257e"},"vehicle_type_id":"4","last_reported":1731622097,"current_range_meters":37600,"station_id":"ce4bgvp2rcd13ifvqct0","pricing_plan_id":"cebpf4jnsgd1na2vs0mg"},{"bike_id":"92ac4858-87d6-4ceb-8f6e-004635a816a8","system_id":"levelo_inurba_marseille","lat":43.27789,"lon":5.40737,"is_reserved":false,"is_disabled":false,"rental_uris":{"android":"levelo://app?vid=92ac4858-87d6-4ceb-8f6e-004635a816a8","ios":"levelo://app?vid=92ac4858-87d6-4ceb-8f6e-004635a816a8"},"vehicle_type_id":"4","last_reported":1731622097,"current_range_meters":38800,"station_id":"ce4bhnh2rcd13ifvqgtg","pricing_plan_id":"cebpf4jnsgd1na2vs0mg"},{"bike_id":"44281496-ebb0-475b-9830-51a1115552ab","system_id":"levelo_inurba_marseille","lat":43.28406,"lon":5.37533,"is_reserved":false,"is_disabled":false,"rental_uris":{"android":"levelo://app?vid=44281496-ebb0-475b-9830-51a1115552ab","ios":"levelo://app?vid=44281496-ebb0-475b-9830-51a1115552ab"},"vehicle_type_id":"4","last_reported":1731622097,"current_range_meters":17200,"station_id":"ce4bh412rcd13ifvqds0","pricing_plan_id":"cebpf4jnsgd1na2vs0mg"},{"bike_id":"ef4447d8-1d4c-49a9-9da8-72f41f4cdc2e","system_id":"levelo_inurba_marseille","lat":43.30793,"lon":5.38151,"is_reserved":false,"is_disabled":false,"rental_uris":{"android":"levelo://app?vid=ef4447d8-1d4c-49a9-9da8-72f41f4cdc2e","ios":"levelo://app?vid=ef4447d8-1d4c-49a9-9da8-72f41f4cdc2e"},"vehicle_type_id":"4","last_reported":1731622097,"current_range_meters":27600,"station_id":"ce4bgt12rcd13ifvqce0","pricing_plan_id":"cebpf4jnsgd1na2vs0mg"},{"bike_id":"b2989b39-fb7e-488d-83a3-ad2faff7dab4","system_id":"levelo_inurba_marseille","lat":43.28341,"lon":5.38107,"is_reserved":false,"is_disabled":false,"rental_uris":{"android":"levelo://app?vid=b2989b39-fb7e-488d-83a3-ad2faff7dab4","ios":"levelo://app?vid=b2989b39-fb7e-488d-83a3-ad2faff7dab4"},"vehicle_type_id":"4","last_reported":1731622097,"current_range_meters":8000,"station_id":"ce4bh412rcd13ifvqdr0","pricing_plan_id":"cebpf4jnsgd1na2vs0mg"},