{"last_updated":1687374306,"ttl":30,"version":"2.2","data":{"bikes":[{"bike_id":"9941aa40-9823-4dab-8db4-21662a76feb4","system_id":"levelo_inurba_marseille","lat":43.31222,"lon":5.36846,"is_reserved":false,"is_disabled":false,"rental_uris":{"android":"levelo://app?vid=9941aa40-9823-4dab-8db4-21662a76feb4","ios":"levelo://app?vid=9941aa40-9823-4dab-8db4-21662a76feb4"},"vehicle_type_id":"4","last_reported":1687374307,"current_range_meters":13200,"station_id":"ce4bgl92rcd13ifvqbq0","pricing_plan_id":"free"},{"bike_id":"6e4fd040-1866-4783-872c-dd21a7ae18af","system_id":"levelo_inurba_marseille","lat":43.31363,"lon":5.37067,"is_reserved":false,"is_disabled":false,"rental_uris":{"android":"levelo://app?vid=6e4fd040-1866-4783-872c-dd21a7ae18af","ios":"levelo://app?vid=6e4fd040-1866-4783-872c-dd21a7ae18af"},"vehicle_type_id":"4","last_reported":1687374307,"current_range_meters":8000,"station_id":"","pricing_plan_id":"free"},{"bike_id":"0e15f61d-f515-46fb-aa7a-9a1b4f60e493","system_id":"levelo_inurba_marseille","lat":43.30547,"lon":5.36537,"is_reserved":false,"is_disabled":false,"rental_uris":{"android":"levelo://app?vid=0e15f61d-f515-46fb-aa7a-9a1b4f60e493","ios":"levelo://app?vid=0e15f61d-f515-46fb-aa7a-9a1b4f60e493"},"vehicle_type_id":"4","last_reported":1687374307,"current_range_meters":0,"station_id":"ce4bgs12rcd13ifvqcag","pricing_plan_id":"free"},{"bike_id":"d0e009be-351e-4fe4-801d-e6205505428d","system_id":"levelo_inurba_marseille","lat":43.305706,"lon":5.365654,"is_reserved":false,"is_disabled":false,"rental_uris":{"android":"levelo://app?vid=d0e009be-351e-4fe4-801d-e6205505428d","ios":"levelo://app?vid=d0e009be-351e-4fe4-801d-e6205505428d"},"vehicle_type_id":"4","last_reported":1687374307,"current_range_meters":17200,"station_id":"ce4bgs12rcd13ifvqcag","pricing_plan_id":"free"},{"bike_id":"a2dc2103-cc4a-41c2-8c7c-ff501a3139fd","system_id":"levelo_inurba_marseille","lat":43.30512,"lon":5.36584,"is_reserved":false,"is_disabled":false,"rental_uris":{"android":"levelo://app?vid=a2dc2103-cc4a-41c2-8c7c-ff501a3139fd","ios":"levelo://app?vid=a2dc2103-cc4a-41c2-8c7c-ff501a3139fd"},"vehicle_type_id":"4","last_reported":1687374307,"current_range_meters":2000,"station_id":"","pricing_plan_id":"free"},{"bike_id":"c750e647-146d-4a89-886b-083acc5f0508","system_id":"levelo_inurba_marseille","lat":43.30602,"lon":5.37222,"is_reserved":false,"is_disabled":false,"rental_uris":{"android":"levelo://app?vid=c750e647-146d-4a89-886b-083acc5f0508","ios":"levelo://app?vid=c750e647-146d-4a89-886b-083acc5f0508"},"vehicle_type_id":"4","last_reported":1687374307,"current_range_meters":2000,"station_id":"ce4bgqh2rcd13ifvqc4g","pricing_plan_id":"free"},{"bike_id":"f924dd6b-6401-497b-af91-0168318dfac6","system_id":"levelo_inurba_marseille","lat":43.311131,"lon":5.377651,"is_reserved":false,"is_disabled":false,"rental_uris":{"android":"levelo://app?vid=f924dd6b-6401-497b-af91-0168318dfac6","ios":"levelo://app?vid=f924dd6b-6401-497b-af91-0168318dfac6"},"vehicle_type_id":"4","last_reported":1687374307,"current_range_meters":11600,"station_id":"ce4bgt92rcd13ifvqcg0","pricing_plan_id":"free"},{"bike_id":"898d0c85-8c9a-42d0-b888-e5114a09bebd","system_id":"levelo_inurba_marseille","lat":43.311131,"lon":5.377651,"is_reserved":false,"is_disabled":false,"rental_uris":{"android":"levelo://app?vid=898d0c85-8c9a-42d0-b888-e5114a09bebd","ios":"levelo://app?vid=898d0c85-8c9a-42d0-b888-e5114a09bebd"},"vehicle_type_id":"4","last_reported":1687374307,"current_range_meters":8000,"station_id":"ce4bgt92rcd13ifvqcg0","pricing_plan_id":"free"},{"bike_id":"9401679d-9d64-4719-bf3c-b3071e6afbfe","system_id":"levelo_inurba_marseille","lat":43.315289,"lon":5.380349,"is_reserved":false,"is_disabled":false,"rental_uris":{"android":"levelo://app?vid=9401679d-9d64-4719-bf3c-b3071e6afbfe","ios":"levelo://app?vid=9401679d-9d64-4719-bf3c-b3071e6afbfe"},"vehicle_type_id":"4","last_reported":1687374307,"current_range_meters":0,"station_id":"ce4bhsp2rcd13ifvqi50","pricing_plan_id":"free"},{"bike_id":"ae33307b-fcd5-479b-9ae1-9002ed226c6e","system_id":"levelo_inurba_marseille","lat":43.308012,"lon":5.381511,"is_reserved":false,"is_disabled":false,"rental_uris":{"android":"levelo://app?vid=ae33307b-fcd5-479b-9ae1-9002ed226c6e","ios":"levelo://app?vid=ae33307b-fcd5-479b-9ae1-9002ed226c6e"},"vehicle_type_id":"4","last_reported":1687374307,"current_range_meters":14800,"station_id":"ce4bgt12rcd13ifvqce0","pricing_plan_id":"free"},{"bike_id":"43fc693e-f2a9-4aec-8fd9-d094bb02cb70","system_id":"levelo_inurba_marseille","lat":43.304606,"lon":5.379026,"is_reserved":false,"is_disabled":false,"rental_uris":{"android":"levelo://app?vid=43fc693e-f2a9-4aec-8fd9-d094bb02cb70","ios":"levelo://app?vid=43fc693e-f2a9-4aec-8fd9-d094bb02cb70"},"vehicle_type_id":"4","last_reported":1687374307,"current_range_meters":4800,"station_id":"ce4bgup2rcd13ifvqcn0","pricing_plan_id":"free"},{"bike_id":"46ce59eb-b038-4393-a774-c80e94272008","system_id":"levelo_inurba_marseille","lat":43.302784,"lon":5.377158,"is_reserved":false,"is_disabled":false,"rental_uris":{"android":"levelo://app?vid=46ce59eb-b038-4393-a774-c80e94272008","ios":"levelo://app?vid=46ce59eb-b038-4393-a774-c80e94272008"},"vehicle_type_id":"4","last_reported":1687374307,"current_range_meters":24400,"station_id":"ce4bguh2rcd13ifvqcj0","pricing_plan_id":"free"},{"bike_id":"572f6a32-91f3-460b-87b5-fbe8a5748df9","system_id":"levelo_inurba_marseille","lat":43.30145,"lon":5.37411,"is_reserved":false,"is_disabled":false,"rental_uris":{"android":"levelo://app?vid=572f6a32-91f3-460b-87b5-fbe8a5748df9","ios":"levelo://app?vid=572f6a32-91f3-460b-87b5-fbe8a5748df9"},"vehicle_type_id":"4","last_reported":1687374307,"current_range_meters":20000,"station_id":"ce4bgs92rcd13ifvqcc0","pricing_plan_id":"free"},{"bike_id":"24772ffa-3423-4b94-9532-0126847fd7ae","system_id":"levelo_inurba_marseille","lat":43.319935,"lon":5.381699,"is_reserved":false,"is_disabled":false,"rental_uris":{"android":"levelo://app?vid=24772ffa-3423-4b94-9532-0126847fd7ae","ios":"levelo://app?vid=24772ffa-3423-4b94-9532-0126847fd7ae"},"vehicle_type_id":"4","last_reported":1687374307,"current_range_meters":0,"station_id":"ce4bhr12rcd13ifvqhpg","pricing_plan_id":"free"},{"bike_id":"2cf0bddc-64c4-4f98-8cb6-9fceccf3cd7d","system_id":"levelo_inurba_marseille","lat":43.298433,"lon":5.362774,"is_reserved":false,"is_disabled":false,"rental_uris":{"android":"levelo://app?vid=2cf0bddc-64c4-4f98-8cb6-9fceccf3cd7d","ios":"levelo://app?vid=2cf0bddc-64c4-4f98-8cb6-9fceccf3cd7d"},"vehicle_type_id":"4","last_reported":1687374307,"current_range_meters":22400,"station_id":"ce4bgpp2rcd13ifvqc3g","pricing_plan_id":"free"},{"bike_id":"89471670-0ef8-490f-a2de-423abbd02136","system_id":"levelo_inurba_marseille","lat":43.305364,"lon":5.384119,"is_reserved":false,"is_disabled":false,"rental_uris":{"android":"levelo://app?vid=89471670-0ef8-490f-a2de-423abbd02136","ios":"levelo://app?vid=89471670-0ef8-490f-a2de-423abbd02136"},"vehicle_type_id":"4","last_reported":1687374307,"current_range_meters":31200,"station_id":"ce4bgg92rcd13ifvqb30","pricing_plan_id":"free"},{"bike_id":"78d92cef-b53f-4a69-971e-0e9db1f026c4","system_id":"levelo_inurba_marseille","lat":43.298433,"lon":5.362774,"is_reserved":false,"is_disabled":false,"rental_uris":{"android":"levelo://app?vid=78d92cef-b53f-4a69-971e-0e9db1f026c4","ios":"levelo://app?vid=78d92cef-b53f-4a69-971e-0e9db1f026c4"},"vehicle_type_id":"4","last_reported":1687374307,"current_range_meters":15600,"station_id":"ce4bgpp2rcd13ifvqc3g","pricing_plan_id":"free"},{"bike_id":"2dd020e8-2182-46f4-a6ac-03a03a1cbf2b","system_id":"levelo_inurba_marseille","lat":43.298433,"lon":5.362774,"is_reserved":false,"is_disabled":false,"rental_uris":{"android":"levelo://app?vid=2dd020e8-2182-46f4-a6ac-03a03a1cbf2b","ios":"levelo://app?vid=2dd020e8-2182-46f4-a6ac-03a03a1cbf2b"},"vehicle_type_id":"4","last_reported":1687374307,"current_range_meters":11200,"station_id":"ce4bgpp2rcd13ifvqc3g","pricing_plan_id":"free"},{"bike_id":"74d11528-5d87-4fe8-b121-60f10e7954b1","system_id":"levelo_inurba_marseille","lat":43.299243,"lon":5.37481,"is_reserved":false,"is_disabled":false,"rental_uris":{"android":"levelo://app?vid=74d11528-5d87-4fe8-b121-60f10e7954b1","ios":"levelo://app?vid=74d11528-5d87-4fe8-b121-60f10e7954b1"},"vehicle_type_id":"4","last_reported":1687374307,"current_range_meters":30400,"station_id":"ce4bgjh2rcd13ifvqbg0","pricing_plan_id":"free"},{"bike_id":"408cdbd3-920b-45b4-ab4e-0217d7cee4ab","system_id":"levelo_inurba_marseille","lat":43.32753,"lon":5.367,"is_reserved":false,"is_disabled":false,"rental_uris":{"android":"levelo://app?vid=408cdbd3-920b-45b4-ab4e-0217d7cee4ab","ios":"levelo://app?vid=408cdbd3-920b-45b4-ab4e-0217d7cee4ab"},"vehicle_type_id":"4","last_reported":1687374307,"current_range_meters":4400,"station_id":"","pricing_plan_id":"free"},{"bike_id":"e6ea61d5-da20-4ad2-b344-94c2975133fa","system_id":"levelo_inurba_marseille","lat":43.32289,"lon":5.38228,"is_reserved":false,"is_disabled":false,"rental_uris":{"android":"levelo://app?vid=e6ea61d5-da20-4ad2-b344-94c2975133fa","ios":"levelo://app?vid=e6ea61d5-da20-4ad2-b344-94c2975133fa"},"vehicle_type_id":"4","last_reported":1687374307,"current_range_meters":5200,"station_id":"","pricing_plan_id":"free"},{"bike_id":"f1b1748c-4391-4695-96b5-8012dc99edeb","system_id":"levelo_inurba_marseille","lat":43.2979,"lon":5.37124,"is_reserved":false,"is_disabled":false,"rental_uris":{"android":"levelo://app?vid=f1b1748c-4391-4695-96b5-8012dc99edeb","ios":"levelo://app?vid=f1b1748c-4391-4695-96b5-8012dc99edeb"},"vehicle_type_id":"4","last_reported":1687374307,"current_range_meters":4800,"station_id":"ce4bgop2rcd13ifvqc1g","pricing_plan_id":"free"},{"bike_id":"c3339efb-c603-45cb-8da9-01d5c529aca8","system_id":"levelo_inurba_marseille","lat":43.32357,"lon":5.38194,"is_reserved":false,"is_disabled":false,"rental_uris":{"android":"levelo://app?vid=c3339efb-c603-45cb-8da9-01d5c529aca8","ios":"levelo://app?vid=c3339efb-c603-45cb-8da9-01d5c529aca8"},"vehicle_type_id":"4","last_reported":1687374307,"current_range_meters":19200,"station_id":"","pricing_plan_id":"free"},{"bike_id":"83c69af1-0d5e-4560-ace0-538d107a2e5f","system_id":"levelo_inurba_marseille","lat":43.328371,"lon":5.366909,"is_reserved":false,"is_disabled":false,"rental_uris":{"android":"levelo://app?vid=83c69af1-0d5e-4560-ace0-538d107a2e5f","ios":"levelo://app?vid=83c69af1-0d5e-4560-ace0-538d107a2e5f"},"vehicle_type_id":"4","last_reported":1687374307,"current_range_meters":21200,"station_id":"ce4bhs92rcd13ifvqi0g","pricing_plan_id":"free"},{"bike_id":"4c7e5c93-2a48-4a72-a6cf-97c503c7a2fa","system_id":"levelo_inurba_marseille","lat":43.328371,"lon":5.366909,"is_reserved":false,"is_disabled":false,"rental_uris":{"android":"levelo://app?vid=4c7e5c93-2a48-4a72-a6cf-97c503c7a2fa","ios":"levelo://app?vid=4c7e5c93-2a48-4a72-a6cf-97c503c7a2fa"},"vehicle_type_id":"4","last_reported":1687374307,"current_range_meters":16000,"station_id":"ce4bhs92rcd13ifvqi0g","pricing_plan_id":"free"},{"bike_id":"fd53ee84-24b3-4ec6-b22a-b4cac25a1233","system_id":"levelo_inurba_marseille","lat":43.328371,"lon":5.366909,"is_reserved":false,"is_disabled":false,"rental_uris":{"android":"levelo://app?vid=fd53ee84-24b3-4ec6-b22a-b4cac25a1233","ios":"levelo://app?vid=fd53ee84-24b3-4ec6-b22a-b4cac25a1233"},"vehicle_type_id":"4","last_reported":1687374307,"current_range_meters":400,"station_id":"ce4bhs92rcd13ifvqi0g","pricing_plan_id":"free"},{"bike_id":"176f4894-d7fc-460e-aa5d-7c8c1e206dc3","system_id":"levelo_inurba_marseille","lat":43.29707,"lon":5.36615,"is_reserved":false,"is_disabled":false,"rental_uris":{"android":"levelo://app?vid=176f4894-d7fc-460e-aa5d-7c8c1e206dc3","ios":"levelo://app?vid=176f4894-d7fc-460e-aa5d-7c8c1e206dc3"},"vehicle_type_id":"4","last_reported":1687374307,"current_range_meters":18000,"station_id":"","pricing_plan_id":"free"},{"bike_id":"4a77af2c-cc2d-4cf7-baa7-42390e83dcd5","system_id":"levelo_inurba_marseille","lat":43.29579,"lon":5.3675,"is_reserved":false,"is_disabled":false,"rental_uris":{"android":"levelo://app?vid=4a77af2c-cc2d-4cf7-baa7-42390e83dcd5","ios":"levelo://app?vid=4a77af2c-cc2d-4cf7-baa7-42390e83dcd5"},"vehicle_type_id":"4","last_reported":1687374307,"current_range_meters":31200,"station_id":"ce4bgph2rcd13ifvqc2g","pricing_plan_id":"free"},{"bike_id":"24f41ca5-b432-4feb-a0c8-a15026b97306","system_id":"levelo_inurba_marseille","lat":43.296131,"lon":5.370773,"is_reserved":false,"is_disabled":false,"rental_uris":{"android":"levelo://app?vid=24f41ca5-b432-4feb-a0c8-a15026b97306","ios":"levelo://app?vid=24f41ca5-b432-4feb-a0c8-a15026b97306"},"vehicle_type_id":"4","last_reported":1687374307,"current_range_meters":0,"station_id":"ce4bgnh2rcd13ifvqc0g","pricing_plan_id":"free"},{"bike_id":"041bc147-ef2f-419b-bb81-deca3bdf89e2","system_id":"levelo_inurba_marseille","lat":43.29611,"lon":5.36046,"is_reserved":false,"is_disabled":false,"rental_uris":{"android":"levelo://app?vid=041bc147-ef2f-419b-bb81-deca3bdf89e2","ios":"levelo://app?vid=041bc147-ef2f-419b-bb81-deca3bdf89e2"},"vehicle_type_id":"4","last_reported":1687374307,"current_range_meters":17200,"station_id":"","pricing_plan_id":"free"},{"bike_id":"6a4ade0c-5709-4503-83da-7075cefbab27","system_id":"levelo_inurba_marseille","lat":43.299078,"lon":5.38156,"is_reserved":false,"is_disabled":false,"rental_uris":{"android":"levelo://app?vid=6a4ade0c-5709-4503-83da-7075cefbab27","ios":"levelo://app?vid=6a4ade0c-5709-4503-83da-7075cefbab27"},"vehicle_type_id":"4","last_reported":1687374307,"current_range_meters":25600,"station_id":"","pricing_plan_id":"free"},{"bike_id":"0ed8ecec-046c-4730-a463-bda301f800c6","system_id":"levelo_inurba_marseille","lat":43.31755,"lon":5.39019,"is_reserved":false,"is_disabled":false,"rental_uris":{"android":"levelo://app?vid=0ed8ecec-046c-4730-a463-bda301f800c6","ios":"levelo://app?vid=0ed8ecec-046c-4730-a463-bda301f800c6"},"vehicle_type_id":"4","last_reported":1687374307,"current_range_meters":16000,"station_id":"ce4bhqp2rcd13ifvqhng","pricing_plan_id":"free"},{"bike_id":"16e5fedd-6e86-436a-a0a2-72c7cd60a6ea","system_id":"levelo_inurba_marseille","lat":43.317557,"lon":5.390173,"is_reserved":false,"is_disabled":false,"rental_uris":{"android":"levelo://app?vid=16e5fedd-6e86-436a-a0a2-72c7cd60a6ea","ios":"levelo://app?vid=16e5fedd-6e86-436a-a0a2-72c7cd60a6ea"},"vehicle_type_id":"4","last_reported":1687374307,"current_range_meters":28800,"station_id":"ce4bhqp2rcd13ifvqhng","pricing_plan_id":"free"},{"bike_id":"5a2e27fc-9c92-4460-b739-30076e740994","system_id":"levelo_inurba_marseille","lat":43.31761,"lon":5.39019,"is_reserved":false,"is_disabled":false,"rental_uris":{"android":"levelo://app?vid=5a2e27fc-9c92-4460-b739-30076e740994","ios":"levelo://app?vid=5a2e27fc-9c92-4460-b739-30076e740994"},"vehicle_type_id":"4","last_reported":1687374307,"current_range_meters":20000,"station_id":"ce4bhqp2rcd13ifvqhng","pricing_plan_id":"free"},{"bike_id":"649e680e-6821-4d1f-9d81-7005fd94a102","system_id":"levelo_inurba_marseille","lat":43.31756,"lon":5.39024,"is_reserved":false,"is_disabled":false,"rental_uris":{"android":"levelo://app?vid=649e680e-6821-4d1f-9d81-7005fd94a102","ios":"levelo://app?vid=649e680e-6821-4d1f-9d81-7005fd94a102"},"vehicle_type_id":"4","last_reported":1687374307,"current_range_meters":27600,"station_id":"ce4bhqp2rcd13ifvqhng","pricing_plan_id":"free"},{"bike_id":"d38c5de4-1b75-44fb-88b5-eb30bcdcd7d0","system_id":"levelo_inurba_marseille","lat":43.302008,"lon":5.394694,"is_reserved":false,"is_disabled":false,"rental_uris":{"android":"levelo://app?vid=d38c5de4-1b75-44fb-88b5-eb30bcdcd7d0","ios":"levelo://app?vid=d38c5de4-1b75-44fb-88b5-eb30bcdcd7d0"},"vehicle_type_id":"4","last_reported":1687374307,"current_range_meters":17200,"station_id":"ce4bh0p2rcd13ifvqd70","pricing_plan_id":"free"},{"bike_id":"24885548-edc6-4f5a-a51b-cd559b85b461","system_id":"levelo_inurba_marseille","lat":43.2958,"lon":5.37505,"is_reserved":false,"is_disabled":false,"rental_uris":{"android":"levelo://app?vid=24885548-edc6-4f5a-a51b-cd559b85b461","ios":"levelo://app?vid=24885548-edc6-4f5a-a51b-cd559b85b461"},"vehicle_type_id":"4","last_reported":1687374307,"current_range_meters":28000,"station_id":"ce4bgh92rcd13ifvqb50","pricing_plan_id":"free"},{"bike_id":"cc96dcd0-88ed-4d62-964a-2444459f3e3b","system_id":"levelo_inurba_marseille","lat":43.276769,"lon":5.388787,"is_reserved":false,"is_disabled":false,"rental_uris":{"android":"levelo://app?vid=cc96dcd0-88ed-4d62-964a-2444459f3e3b","ios":"levelo://app?vid=cc96dcd0-88ed-4d62-964a-2444459f3e3b"},"vehicle_type_id":"4","last_reported":1687374307,"current_range_meters":7200,"station_id":"ce4bhi12rcd13ifvqfo0","pricing_plan_id":"free"},{"bike_id":"250c8a96-8498-4211-b8f3-1b00a8d1fbaf","system_id":"levelo_inurba_marseille","lat":43.296477,"lon":5.37768,"is_reserved":false,"is_disabled":false,"rental_uris":{"android":"levelo://app?vid=250c8a96-8498-4211-b8f3-1b00a8d1fbaf","ios":"levelo://app?vid=250c8a96-8498-4211-b8f3-1b00a8d1fbaf"},"vehicle_type_id":"4","last_reported":1687374307,"current_range_meters":400,"station_id":"","pricing_plan_id":"free"},{"bike_id":"a8320a06-17e6-45b8-b49b-f3d1269aedcc","system_id":"levelo_inurba_marseille","lat":43.30442,"lon":5.38898,"is_reserved":false,"is_disabled":false,"rental_uris":{"android":"levelo://app?vid=a8320a06-17e6-45b8-b49b-f3d1269aedcc","ios":"levelo://app?vid=a8320a06-17e6-45b8-b49b-f3d1269aedcc"},"vehicle_type_id":"4","last_reported":1687374307,"current_range_meters":6000,"station_id":"ce4bgk12rcd13ifvqbi0","pricing_plan_id":"free"},{"bike_id":"90f94024-3767-4a9b-8317-31cfbe45593d","system_id":"levelo_inurba_marseille","lat":43.295748,"lon":5.37522,"is_reserved":false,"is_disabled":false,"rental_uris":{"android":"levelo://app?vid=90f94024-3767-4a9b-8317-31cfbe45593d","ios":"levelo://app?vid=90f94024-3767-4a9b-8317-31cfbe45593d"},"vehicle_type_id":"4","last_reported":1687374307,"current_range_meters":24000,"station_id":"ce4bgh92rcd13ifvqb50","pricing_plan_id":"free"},{"bike_id":"03a4a97a-4326-46d4-97ac-3f903edc86f3","system_id":"levelo_inurba_marseille","lat":43.29618,"lon":5.37724,"is_reserved":false,"is_disabled":false,"rental_uris":{"android":"levelo://app?vid=03a4a97a-4326-46d4-97ac-3f903edc86f3","ios":"levelo://app?vid=03a4a97a-4326-46d4-97ac-3f903edc86f3"},"vehicle_type_id":"4","last_reported":1687374307,"current_range_meters":23200,"station_id":"ce4bgi92rcd13ifvqb90","pricing_plan_id":"free"},{"bike_id":"307cf5d3-3029-46f8-bfd6-78714bc15f50","system_id":"levelo_inurba_marseille","lat":43.29619,"lon":5.37732,"is_reserved":false,"is_disabled":false,"rental_uris":{"android":"levelo://app?vid=307cf5d3-3029-46f8-bfd6-78714bc15f50","ios":"levelo://app?vid=307cf5d3-3029-46f8-bfd6-78714bc15f50"},"vehicle_type_id":"4","last_reported":1687374307,"current_range_meters":2800,"station_id":"ce4bgi92rcd13ifvqb90","pricing_plan_id":"free"},{"bike_id":"f8f19bd8-5082-42b0-95d5-b80cdcd32cdd","system_id":"levelo_inurba_marseille","lat":43.29618,"lon":5.3773,"is_reserved":false,"is_disabled":false,"rental_uris":{"android":"levelo://app?vid=f8f19bd8-5082-42b0-95d5-b80cdcd32cdd","ios":"levelo://app?vid=f8f19bd8-5082-42b0-95d5-b80cdcd32cdd"},"vehicle_type_id":"4","last_reported":1687374307,"current_range_meters":0,"station_id":"ce4bgi92rcd13ifvqb90","pricing_plan_id":"free"},{"bike_id":"1d81a840-700f-484c-b6a6-8616a33ecfc4","system_id":"levelo_inurba_marseille","lat":43.29611,"lon":5.37734,"is_reserved":false,"is_disabled":false,"rental_uris":{"android":"levelo://app?vid=1d81a840-700f-484c-b6a6-8616a33ecfc4","ios":"levelo://app?vid=1d81a840-700f-484c-b6a6-8616a33ecfc4"},"vehicle_type_id":"4","last_reported":1687374307,"current_range_meters":10400,"station_id":"ce4bgi92rcd13ifvqb90","pricing_plan_id":"free"},{"bike_id":"0bc099b3-1fa8-470f-965a-74087b5f2f20","system_id":"levelo_inurba_marseille","lat":43.299707,"lon":5.384859,"is_reserved":false,"is_disabled":false,"rental_uris":{"android":"levelo://app?vid=0bc099b3-1fa8-470f-965a-74087b5f2f20","ios":"levelo://app?vid=0bc099b3-1fa8-470f-965a-74087b5f2f20"},"vehicle_type_id":"4","last_reported":1687374307,"current_range_meters":20400,"station_id":"ce4bgj92rcd13ifvqbd0","pricing_plan_id":"free"},{"bike_id":"1fedfef6-5750-456c-ad8b-f2a41b62ab28","system_id":"levelo_inurba_marseille","lat":43.29974,"lon":5.38488,"is_reserved":false,"is_disabled":false,"rental_uris":{"android":"levelo://app?vid=1fedfef6-5750-456c-ad8b-f2a41b62ab28","ios":"levelo://app?vid=1fedfef6-5750-456c-ad8b-f2a41b62ab28"},"vehicle_type_id":"4","last_reported":1687374307,"current_range_meters":0,"station_id":"ce4bgj92rcd13ifvqbd0","pricing_plan_id":"free"},{"bike_id":"d2bbc1f5-6f6f-4d7e-b895-68059043ca35","system_id":"levelo_inurba_marseille","lat":43.29972,"lon":5.38488,"is_reserved":false,"is_disabled":false,"rental_uris":{"android":"levelo://app?vid=d2bbc1f5-6f6f-4d7e-b895-68059043ca35","ios":"levelo://app?vid=d2bbc1f5-6f6f-4d7e-b895-68059043ca35"},"vehicle_type_id":"4","last_reported":1687374307,"current_range_meters":18000,"station_id":"ce4bgj92rcd13ifvqbd0","pricing_plan_id":"free"},{"bike_id":"33b64537-9a47-4d9b-a562-4e485538f966","system_id":"levelo_inurba_marseille","lat":43.295279,"lon":5.375048,"is_reserved":false,"is_disabled":false,"rental_uris":{"android":"levelo://app?vid=33b64537-9a47-4d9b-a562-4e485538f966","ios":"levelo://app?vid=33b64537-9a47-4d9b-a562-4e485538f966"},"vehicle_type_id":"4","last_reported":1687374307,"current_range_meters":9600,"station_id":"ce4bgkp2rcd13ifvqbmg","pricing_plan_id":"free"},{"bike_id":"65b3f485-b1fb-4906-bda7-64ccc9eab8c0","system_id":"levelo_inurba_marseille","lat":43.295279,"lon":5.375048,"is_reserved":false,"is_disabled":false,"rental_uris":{"android":"levelo://app?vid=65b3f485-b1fb-4906-bda7-64ccc9eab8c0","ios":"levelo://app?vid=65b3f485-b1fb-4906-bda7-64ccc9eab8c0"},"vehicle_type_id":"4","last_reported":1687374307,"current_range_meters":5600,"station_id":"ce4bgkp2rcd13ifvqbmg","pricing_plan_id":"free"},{"bike_id":"58eb65af-6f68-4577-b59a-e2a557a3c728","system_id":"levelo_inurba_marseille","lat":43.32363,"lon":5.38878,"is_reserved":false,"is_disabled":false,"rental_uris":{"android":"levelo://app?vid=58eb65af-6f68-4577-b59a-e2a557a3c728","ios":"levelo://app?vid=58eb65af-6f68-4577-b59a-e2a557a3c728"},"vehicle_type_id":"4","last_reported":1687374307,"current_range_meters":4400,"station_id":"ce4bhqp2rcd13ifvqhog","pricing_plan_id":"free"},{"bike_id":"07e16fb3-d2a9-448f-a2bf-2b98a5617d56","system_id":"levelo_inurba_marseille","lat":43.32367,"lon":5.388836,"is_reserved":false,"is_disabled":false,"rental_uris":{"android":"levelo://app?vid=07e16fb3-d2a9-448f-a2bf-2b98a5617d56","ios":"levelo://app?vid=07e16fb3-d2a9-448f-a2bf-2b98a5617d56"},"vehicle_type_id":"4","last_reported":1687374307,"current_range_meters":20000,"station_id":"ce4bhqp2rcd13ifvqhog","pricing_plan_id":"free"},{"bike_id":"e041460a-54ae-4871-ad9f-b6135e0ef88f","system_id":"levelo_inurba_marseille","lat":43.32367,"lon":5.388836,"is_reserved":false,"is_disabled":false,"rental_uris":{"android":"levelo://app?vid=e041460a-54ae-4871-ad9f-b6135e0ef88f","ios":"levelo://app?vid=e041460a-54ae-4871-ad9f-b6135e0ef88f"},"vehicle_type_id":"4","last_reported":1687374307,"current_range_meters":0,"station_id":"ce4bhqp2rcd13ifvqhog","pricing_plan_id":"free"},{"bike_id":"e9a5f79a-69b5-4c7c-81b9-81e43f3bff7b","system_id":"levelo_inurba_marseille","lat":43.32367,"lon":5.388836,"is_reserved":false,"is_disabled":false,"rental_uris":{"android":"levelo://app?vid=e9a5f79a-69b5-4c7c-81b9-81e43f3bff7b","ios":"levelo://app?vid=e9a5f79a-69b5-4c7c-81b9-81e43f3bff7b"},"vehicle_type_id":"4","last_reported":1687374307,"current_range_meters":24400,"station_id":"ce4bhqp2rcd13ifvqhog","pricing_plan_id":"free"},{"bike_id":"2416699f-f4ca-4fd7-861f-2eb65620cbe4","system_id":"levelo_inurba_marseille","lat":43.32367,"lon":5.388836,"is_reserved":false,"is_disabled":false,"rental_uris":{"android":"levelo://app?vid=2416699f-f4ca-4fd7-861f-2eb65620cbe4","ios":"levelo://app?vid=2416699f-f4ca-4fd7-861f-2eb65620cbe4"},"vehicle_type_id":"4","last_reported":1687374307,"current_range_meters":22400,"station_id":"ce4bhqp2rcd13ifvqhog","pricing_plan_id":"free"},{"bike_id":"9da04b77-8cbd-4ced-9933-390cc6bb4911","system_id":"levelo_inurba_marseille","lat":43.32367,"lon":5.388836,"is_reserved":false,"is_disabled":false,"rental_uris":{"android":"levelo://app?vid=9da04b77-8cbd-4ced-9933-390cc6bb4911","ios":"levelo://app?vid=9da04b77-8cbd-4ced-9933-390cc6bb4911"},"vehicle_type_id":"4","last_reported":1687374307,"current_range_meters":2400,"station_id":"ce4bhqp2rcd13ifvqhog","pricing_plan_id":"free"},{"bike_id":"62e1e21f-3f88-43a4-83a5-bbb9f2a86bae","system_id":"levelo_inurba_marseille","lat":43.32367,"lon":5.388836,"is_reserved":false,"is_disabled":false,"rental_uris":{"android":"levelo://app?vid=62e1e21f-3f88-43a4-83a5-bbb9f2a86bae","ios":"levelo://app?vid=62e1e21f-3f88-43a4-83a5-bbb9f2a86bae"},"vehicle_type_id":"4","last_reported":1687374307,"current_range_meters":19200,"station_id":"ce4bhqp2rcd13ifvqhog","pricing_plan_id":"free"},{"bike_id":"08a0c0c5-509c-4979-9dc5-99ea8f1fd362","system_id":"levelo_inurba_marseille","lat":43.293249,"lon":5.371578,"is_reserved":false,"is_disabled":false,"rental_uris":{"android":"levelo://app?vid=08a0c0c5-509c-4979-9dc5-99ea8f1fd362","ios":"levelo://app?vid=08a0c0c5-509c-4979-9dc5-99ea8f1fd362"},"vehicle_type_id":"4","last_reported":1687374307,"current_range_meters":0,"station_id":"ce4bgh92rcd13ifvqb40","pricing_plan_id":"free"},{"bike_id":"743c4913-8708-4970-a05c-4e68c0728c2b","system_id":"levelo_inurba_marseille","lat":43.293249,"lon":5.371578,"is_reserved":false,"is_disabled":false,"rental_uris":{"android":"levelo://app?vid=743c4913-8708-4970-a05c-4e68c0728c2b","ios":"levelo://app?vid=743c4913-8708-4970-a05c-4e68c0728c2b"},"vehicle_type_id":"4","last_reported":1687374307,"current_range_meters":0,"station_id":"ce4bgh92rcd13ifvqb40","pricing_plan_id":"free"},{"bike_id":"350a60dc-f7e0-45bc-bfe7-5b290b2b9abe","system_id":"levelo_inurba_marseille","lat":43.29265,"lon":5.36847,"is_reserved":false,"is_disabled":false,"rental_uris":{"android":"levelo://app?vid=350a60dc-f7e0-45bc-bfe7-5b290b2b9abe","ios":"levelo://app?vid=350a60dc-f7e0-45bc-bfe7-5b290b2b9abe"},"vehicle_type_id":"4","last_reported":1687374307,"current_range_meters":8400,"station_id":"ce4bhbp2rcd13ifvqesg","pricing_plan_id":"free"},{"bike_id":"7812567e-1801-439a-a654-db6caf3e62b1","system_id":"levelo_inurba_marseille","lat":43.293009,"lon":5.374584,"is_reserved":false,"is_disabled":false,"rental_uris":{"android":"levelo://app?vid=7812567e-1801-439a-a654-db6caf3e62b1","ios":"levelo://app?vid=7812567e-1801-439a-a654-db6caf3e62b1"},"vehicle_type_id":"4","last_reported":1687374307,"current_range_meters":8400,"station_id":"ce4bgi12rcd13ifvqb70","pricing_plan_id":"free"},{"bike_id":"5fa2f836-a17a-4eae-ba68-74b5d0c75a88","system_id":"levelo_inurba_marseille","lat":43.293009,"lon":5.374584,"is_reserved":false,"is_disabled":false,"rental_uris":{"android":"levelo://app?vid=5fa2f836-a17a-4eae-ba68-74b5d0c75a88","ios":"levelo://app?vid=5fa2f836-a17a-4eae-ba68-74b5d0c75a88"},"vehicle_type_id":"4","last_reported":1687374307,"current_range_meters":9600,"station_id":"ce4bgi12rcd13ifvqb70","pricing_plan_id":"free"},{"bike_id":"74fe74e6-2430-4f18-bb3f-83c5a6e9bea3","system_id":"levelo_inurba_marseille","lat":43.293009,"lon":5.374584,"is_reserved":false,"is_disabled":false,"rental_uris":{"android":"levelo://app?vid=74fe74e6-2430-4f18-bb3f-83c5a6e9bea3","ios":"levelo://app?vid=74fe74e6-2430-4f18-bb3f-83c5a6e9bea3"},"vehicle_type_id":"4","last_reported":1687374307,"current_range_meters":8000,"station_id":"ce4bgi12rcd13ifvqb70","pricing_plan_id":"free"},{"bike_id":"e450d361-7397-41a2-9647-436201ba996e","system_id":"levelo_inurba_marseille","lat":43.29299,"lon":5.37469,"is_reserved":false,"is_disabled":false,"rental_uris":{"android":"levelo://app?vid=e450d361-7397-41a2-9647-436201ba996e","ios":"levelo://app?vid=e450d361-7397-41a2-9647-436201ba996e"},"vehicle_type_id":"4","last_reported":1687374307,"current_range_meters":21600,"station_id":"ce4bgi12rcd13ifvqb70","pricing_plan_id":"free"},{"bike_id":"66b480a6-9947-4496-98e2-93e61a3244b4","system_id":"levelo_inurba_marseille","lat":43.30401,"lon":5.39322,"is_reserved":false,"is_disabled":false,"rental_uris":{"android":"levelo://app?vid=66b480a6-9947-4496-98e2-93e61a3244b4","ios":"levelo://app?vid=66b480a6-9947-4496-98e2-93e61a3244b4"},"vehicle_type_id":"4","last_reported":1687374307,"current_range_meters":30400,"station_id":"","pricing_plan_id":"free"},{"bike_id":"1bdf94c9-47b9-4003-9c48-8820a2ae12c6","system_id":"levelo_inurba_marseille","lat":43.29259,"lon":5.37631,"is_reserved":false,"is_disabled":false,"rental_uris":{"android":"levelo://app?vid=1bdf94c9-47b9-4003-9c48-8820a2ae12c6","ios":"levelo://app?vid=1bdf94c9-47b9-4003-9c48-8820a2ae12c6"},"vehicle_type_id":"4","last_reported":1687374307,"current_range_meters":23600,"station_id":"","pricing_plan_id":"free"},{"bike_id":"fc3b8337-05cb-4d29-9390-d655ca67141f","system_id":"levelo_inurba_marseille","lat":43.29884,"lon":5.3891,"is_reserved":false,"is_disabled":false,"rental_uris":{"android":"levelo://app?vid=fc3b8337-05cb-4d29-9390-d655ca67141f","ios":"levelo://app?vid=fc3b8337-05cb-4d29-9390-d655ca67141f"},"vehicle_type_id":"4","last_reported":1687374307,"current_range_meters":24000,"station_id":"ce4bh392rcd13ifvqdl0","pricing_plan_id":"free"},{"bike_id":"319e7585-d7f2-4068-bc08-1126e7bfa104","system_id":"levelo_inurba_marseille","lat":43.30888,"lon":5.39648,"is_reserved":false,"is_disabled":false,"rental_uris":{"android":"levelo://app?vid=319e7585-d7f2-4068-bc08-1126e7bfa104","ios":"levelo://app?vid=319e7585-d7f2-4068-bc08-1126e7bfa104"},"vehicle_type_id":"4","last_reported":1687374307,"current_range_meters":16800,"station_id":"ce4bh012rcd13ifvqcv0","pricing_plan_id":"free"},{"bike_id":"a65f0c29-80bd-4811-814f-6a52d02a9418","system_id":"levelo_inurba_marseille","lat":43.29529,"lon":5.385581,"is_reserved":false,"is_disabled":false,"rental_uris":{"android":"levelo://app?vid=a65f0c29-80bd-4811-814f-6a52d02a9418","ios":"levelo://app?vid=a65f0c29-80bd-4811-814f-6a52d02a9418"},"vehicle_type_id":"4","last_reported":1687374307,"current_range_meters":19200,"station_id":"ce4bgih2rcd13ifvqba0","pricing_plan_id":"free"},{"bike_id":"3e6a8747-270c-4278-bf7c-3705ee017be1","system_id":"levelo_inurba_marseille","lat":43.29529,"lon":5.385581,"is_reserved":false,"is_disabled":false,"rental_uris":{"android":"levelo://app?vid=3e6a8747-270c-4278-bf7c-3705ee017be1","ios":"levelo://app?vid=3e6a8747-270c-4278-bf7c-3705ee017be1"},"vehicle_type_id":"4","last_reported":1687374307,"current_range_meters":4800,"station_id":"ce4bgih2rcd13ifvqba0","pricing_plan_id":"free"},{"bike_id":"299aeb3c-85a1-41b9-8ebc-cf5b68a33824","system_id":"levelo_inurba_marseille","lat":43.309038,"lon":5.396546,"is_reserved":false,"is_disabled":false,"rental_uris":{"android":"levelo://app?vid=299aeb3c-85a1-41b9-8ebc-cf5b68a33824","ios":"levelo://app?vid=299aeb3c-85a1-41b9-8ebc-cf5b68a33824"},"vehicle_type_id":"4","last_reported":1687374307,"current_range_meters":0,"station_id":"ce4bh012rcd13ifvqcv0","pricing_plan_id":"free"},{"bike_id":"f5d00e77-a7bb-4c68-8cc6-65b2e7f8890b","system_id":"levelo_inurba_marseille","lat":43.29529,"lon":5.385581,"is_reserved":false,"is_disabled":false,"rental_uris":{"android":"levelo://app?vid=f5d00e77-a7bb-4c68-8cc6-65b2e7f8890b","ios":"levelo://app?vid=f5d00e77-a7bb-4c68-8cc6-65b2e7f8890b"},"vehicle_type_id":"4","last_reported":1687374307,"current_range_meters":24400,"station_id":"ce4bgih2rcd13ifvqba0","pricing_plan_id":"free"},{"bike_id":"f0813ac6-20fc-44e7-8b93-141ec7d50818","system_id":"levelo_inurba_marseille","lat":43.29529,"lon":5.385581,"is_reserved":false,"is_disabled":false,"rental_uris":{"android":"levelo://app?vid=f0813ac6-20fc-44e7-8b93-141ec7d50818","ios":"levelo://app?vid=f0813ac6-20fc-44e7-8b93-141ec7d50818"},"vehicle_type_id":"4","last_reported":1687374307,"current_range_meters":30000,"station_id":"ce4bgih2rcd13ifvqba0","pricing_plan_id":"free"},{"bike_id":"27c2568a-1014-4f37-acc8-a5b0c8e12613","system_id":"levelo_inurba_marseille","lat":43.29529,"lon":5.385581,"is_reserved":false,"is_disabled":false,"rental_uris":{"android":"levelo://app?vid=27c2568a-1014-4f37-acc8-a5b0c8e12613","ios":"levelo://app?vid=27c2568a-1014-4f37-acc8-a5b0c8e12613"},"vehicle_type_id":"4","last_reported":1687374307,"current_range_meters":20800,"station_id":"ce4bgih2rcd13ifvqba0","pricing_plan_id":"free"},{"bike_id":"f3b881fb-c065-4d0c-9c56-fe8599642ac9","system_id":"levelo_inurba_marseille","lat":43.29529,"lon":5.385581,"is_reserved":false,"is_disabled":false,"rental_uris":{"android":"levelo://app?vid=f3b881fb-c065-4d0c-9c56-fe8599642ac9","ios":"levelo://app?vid=f3b881fb-c065-4d0c-9c56-fe8599642ac9"},"vehicle_type_id":"4","last_reported":1687374307,"current_range_meters":26400,"station_id":"ce4bgih2rcd13ifvqba0","pricing_plan_id":"free"},{"bike_id":"39caba74-4fb1-413c-baf8-b9baf1d46b2c","system_id":"levelo_inurba_marseille","lat":43.29534,"lon":5.3854,"is_reserved":false,"is_disabled":false,"rental_uris":{"android":"levelo://app?vid=39caba74-4fb1-413c-baf8-b9baf1d46b2c","ios":"levelo://app?vid=39caba74-4fb1-413c-baf8-b9baf1d46b2c"},"vehicle_type_id":"4","last_reported":1687374307,"current_range_meters":400,"station_id":"ce4bgih2rcd13ifvqba0","pricing_plan_id":"free"},{"bike_id":"a4460a9a-683a-4ea8-91d6-3904ec6c6041","system_id":"levelo_inurba_marseille","lat":43.29529,"lon":5.385581,"is_reserved":false,"is_disabled":false,"rental_uris":{"android":"levelo://app?vid=a4460a9a-683a-4ea8-91d6-3904ec6c6041","ios":"levelo://app?vid=a4460a9a-683a-4ea8-91d6-3904ec6c6041"},"vehicle_type_id":"4","last_reported":1687374307,"current_range_meters":17600,"station_id":"ce4bgih2rcd13ifvqba0","pricing_plan_id":"free"},{"bike_id":"f007e17c-2761-4232-a630-34ced7aacdd0","system_id":"levelo_inurba_marseille","lat":43.29535,"lon":5.38546,"is_reserved":false,"is_disabled":false,"rental_uris":{"android":"levelo://app?vid=f007e17c-2761-4232-a630-34ced7aacdd0","ios":"levelo://app?vid=f007e17c-2761-4232-a630-34ced7aacdd0"},"vehicle_type_id":"4","last_reported":1687374307,"current_range_meters":17200,"station_id":"ce4bgih2rcd13ifvqba0","pricing_plan_id":"free"},{"bike_id":"a4a64297-15c2-4b5f-85a7-d9988eca1bc3","system_id":"levelo_inurba_marseille","lat":43.29529,"lon":5.385581,"is_reserved":false,"is_disabled":false,"rental_uris":{"android":"levelo://app?vid=a4a64297-15c2-4b5f-85a7-d9988eca1bc3","ios":"levelo://app?vid=a4a64297-15c2-4b5f-85a7-d9988eca1bc3"},"vehicle_type_id":"4","last_reported":1687374307,"current_range_meters":2000,"station_id":"ce4bgih2rcd13ifvqba0","pricing_plan_id":"free"},{"bike_id":"74b6738a-3147-4780-aaaf-f1918df8d2fa","system_id":"levelo_inurba_marseille","lat":43.29529,"lon":5.385581,"is_reserved":false,"is_disabled":false,"rental_uris":{"android":"levelo://app?vid=74b6738a-3147-4780-aaaf-f1918df8d2fa","ios":"levelo://app?vid=74b6738a-3147-4780-aaaf-f1918df8d2fa"},"vehicle_type_id":"4","last_reported":1687374307,"current_range_meters":24400,"station_id":"ce4bgih2rcd13ifvqba0","pricing_plan_id":"free"},{"bike_id":"39df84fd-910f-44b2-ad06-d34e1cda26fe","system_id":"levelo_inurba_marseille","lat":43.29529,"lon":5.385581,"is_reserved":false,"is_disabled":false,"rental_uris":{"android":"levelo://app?vid=39df84fd-910f-44b2-ad06-d34e1cda26fe","ios":"levelo://app?vid=39df84fd-910f-44b2-ad06-d34e1cda26fe"},"vehicle_type_id":"4","last_reported":1687374307,"current_range_meters":22800,"station_id":"ce4bgih2rcd13ifvqba0","pricing_plan_id":"free"},{"bike_id":"89fd4d11-7b9c-49a3-98b4-d53154fafe89","system_id":"levelo_inurba_marseille","lat":43.29529,"lon":5.385581,"is_reserved":false,"is_disabled":false,"rental_uris":{"android":"levelo://app?vid=89fd4d11-7b9c-49a3-98b4-d53154fafe89","ios":"levelo://app?vid=89fd4d11-7b9c-49a3-98b4-d53154fafe89"},"vehicle_type_id":"4","last_reported":1687374307,"current_range_meters":23600,"station_id":"ce4bgih2rcd13ifvqba0","pricing_plan_id":"free"},{"bike_id":"cd9dfd13-ded1-4c58-b3bb-5ba8690b04f7","system_id":"levelo_inurba_marseille","lat":43.29529,"lon":5.385581,"is_reserved":false,"is_disabled":false,"rental_uris":{"android":"levelo://app?vid=cd9dfd13-ded1-4c58-b3bb-5ba8690b04f7","ios":"levelo://app?vid=cd9dfd13-ded1-4c58-b3bb-5ba8690b04f7"},"vehicle_type_id":"4","last_reported":1687374307,"current_range_meters":16400,"station_id":"ce4bgih2rcd13ifvqba0","pricing_plan_id":"free"},{"bike_id":"d43583b5-22a3-4d1b-b57c-4441737af27f","system_id":"levelo_inurba_marseille","lat":43.29535,"lon":5.38551,"is_reserved":false,"is_disabled":false,"rental_uris":{"android":"levelo://app?vid=d43583b5-22a3-4d1b-b57c-4441737af27f","ios":"levelo://app?vid=d43583b5-22a3-4d1b-b57c-4441737af27f"},"vehicle_type_id":"4","last_reported":1687374307,"current_range_meters":8400,"station_id":"ce4bgih2rcd13ifvqba0","pricing_plan_id":"free"},{"bike_id":"dadc00f9-07bd-4379-825f-dc16c31da55e","system_id":"levelo_inurba_marseille","lat":43.29535,"lon":5.38551,"is_reserved":false,"is_disabled":false,"rental_uris":{"android":"levelo://app?vid=dadc00f9-07bd-4379-825f-dc16c31da55e","ios":"levelo://app?vid=dadc00f9-07bd-4379-825f-dc16c31da55e"},"vehicle_type_id":"4","last_reported":1687374307,"current_range_meters":20400,"station_id":"ce4bgih2rcd13ifvqba0","pricing_plan_id":"free"},{"bike_id":"86355c2d-a966-43fb-8814-8eaf8c01224c","system_id":"levelo_inurba_marseille","lat":43.29531,"lon":5.38544,"is_reserved":false,"is_disabled":false,"rental_uris":{"android":"levelo://app?vid=86355c2d-a966-43fb-8814-8eaf8c01224c","ios":"levelo://app?vid=86355c2d-a966-43fb-8814-8eaf8c01224c"},"vehicle_type_id":"4","last_reported":1687374307,"current_range_meters":17600,"station_id":"ce4bgih2rcd13ifvqba0","pricing_plan_id":"free"},{"bike_id":"bf454184-6346-4249-bf98-6218248df4a0","system_id":"levelo_inurba_marseille","lat":43.231793,"lon":5.400044,"is_reserved":false,"is_disabled":false,"rental_uris":{"android":"levelo://app?vid=bf454184-6346-4249-bf98-6218248df4a0","ios":"levelo://app?vid=bf454184-6346-4249-bf98-6218248df4a0"},"vehicle_type_id":"4","last_reported":1687374307,"current_range_meters":31200,"station_id":"ce4bhn12rcd13ifvqgqg","pricing_plan_id":"free"},{"bike_id":"3e4268bf-1cb2-4b54-b131-abba59b719e2","system_id":"levelo_inurba_marseille","lat":43.29533,"lon":5.38552,"is_reserved":false,"is_disabled":false,"rental_uris":{"android":"levelo://app?vid=3e4268bf-1cb2-4b54-b131-abba59b719e2","ios":"levelo://app?vid=3e4268bf-1cb2-4b54-b131-abba59b719e2"},"vehicle_type_id":"4","last_reported":1687374307,"current_range_meters":25200,"station_id":"ce4bgih2rcd13ifvqba0","pricing_plan_id":"free"},{"bike_id":"0bf297fa-43ef-4c77-b339-fe61a0540d9a","system_id":"levelo_inurba_marseille","lat":43.29529,"lon":5.385581,"is_reserved":false,"is_disabled":false,"rental_uris":{"android":"levelo://app?vid=0bf297fa-43ef-4c77-b339-fe61a0540d9a","ios":"levelo://app?vid=0bf297fa-43ef-4c77-b339-fe61a0540d9a"},"vehicle_type_id":"4","last_reported":1687374307,"current_range_meters":17600,"station_id":"ce4bgih2rcd13ifvqba0","pricing_plan_id":"free"},{"bike_id":"4a2352ef-f928-42fc-bf59-09e090cf43d0","system_id":"levelo_inurba_marseille","lat":43.29529,"lon":5.38546,"is_reserved":false,"is_disabled":false,"rental_uris":{"android":"levelo://app?vid=4a2352ef-f928-42fc-bf59-09e090cf43d0","ios":"levelo://app?vid=4a2352ef-f928-42fc-bf59-09e090cf43d0"},"vehicle_type_id":"4","last_reported":1687374307,"current_range_meters":7600,"station_id":"ce4bgih2rcd13ifvqba0","pricing_plan_id":"free"},{"bike_id":"cf1662a3-9996-4f62-8cbb-74d7cbf93405","system_id":"levelo_inurba_marseille","lat":43.29529,"lon":5.385581,"is_reserved":false,"is_disabled":false,"rental_uris":{"android":"levelo://app?vid=cf1662a3-9996-4f62-8cbb-74d7cbf93405","ios":"levelo://app?vid=cf1662a3-9996-4f62-8cbb-74d7cbf93405"},"vehicle_type_id":"4","last_reported":1687374307,"current_range_meters":4400,"station_id":"ce4bgih2rcd13ifvqba0","pricing_plan_id":"free"},{"bike_id":"16cf5d69-585d-4b8e-9692-d1e087f428e8","system_id":"levelo_inurba_marseille","lat":43.29529,"lon":5.38547,"is_reserved":false,"is_disabled":false,"rental_uris":{"android":"levelo://app?vid=16cf5d69-585d-4b8e-9692-d1e087f428e8","ios":"levelo://app?vid=16cf5d69-585d-4b8e-9692-d1e087f428e8"},"vehicle_type_id":"4","last_reported":1687374307,"current_range_meters":20000,"station_id":"ce4bgih2rcd13ifvqba0","pricing_plan_id":"free"},{"bike_id":"4e51c541-4f16-49ff-b70d-b7e667f15735","system_id":"levelo_inurba_marseille","lat":43.29529,"lon":5.385581,"is_reserved":false,"is_disabled":false,"rental_uris":{"android":"levelo://app?vid=4e51c541-4f16-49ff-b70d-b7e667f15735","ios":"levelo://app?vid=4e51c541-4f16-49ff-b70d-b7e667f15735"},"vehicle_type_id":"4","last_reported":1687374307,"current_range_meters":31200,"station_id":"ce4bgih2rcd13ifvqba0","pricing_plan_id":"free"},{"bike_id":"77119e4d-6eb1-4f01-9e29-869c31d9d971","system_id":"levelo_inurba_marseille","lat":43.29529,"lon":5.385581,"is_reserved":false,"is_disabled":false,"rental_uris":{"android":"levelo://app?vid=77119e4d-6eb1-4f01-9e29-869c31d9d971","ios":"levelo://app?vid=77119e4d-6eb1-4f01-9e29-869c31d9d971"},"vehicle_type_id":"4","last_reported":1687374307,"current_range_meters":6800,"station_id":"ce4bgih2rcd13ifvqba0","pricing_plan_id":"free"},{"bike_id":"4d6706b1-9d02-4ca4-8788-f980b715cfeb","system_id":"levelo_inurba_marseille","lat":43.29426,"lon":5.38626,"is_reserved":false,"is_disabled":false,"rental_uris":{"android":"levelo://app?vid=4d6706b1-9d02-4ca4-8788-f980b715cfeb","ios":"levelo://app?vid=4d6706b1-9d02-4ca4-8788-f980b715cfeb"},"vehicle_type_id":"4","last_reported":1687374307,"current_range_meters":17200,"station_id":"ce4bh2h2rcd13ifvqdh0","pricing_plan_id":"free"},{"bike_id":"5e991787-5a24-4f7a-a834-4dfc56f55145","system_id":"levelo_inurba_marseille","lat":43.29422,"lon":5.38622,"is_reserved":false,"is_disabled":false,"rental_uris":{"android":"levelo://app?vid=5e991787-5a24-4f7a-a834-4dfc56f55145","ios":"levelo://app?vid=5e991787-5a24-4f7a-a834-4dfc56f55145"},"vehicle_type_id":"4","last_reported":1687374307,"current_range_meters":11600,"station_id":"ce4bh2h2rcd13ifvqdh0","pricing_plan_id":"free"},{"bike_id":"a66c9b66-f101-44c9-99e6-aad9aa69bc36","system_id":"levelo_inurba_marseille","lat":43.29423,"lon":5.38624,"is_reserved":false,"is_disabled":false,"rental_uris":{"android":"levelo://app?vid=a66c9b66-f101-44c9-99e6-aad9aa69bc36","ios":"levelo://app?vid=a66c9b66-f101-44c9-99e6-aad9aa69bc36"},"vehicle_type_id":"4","last_reported":1687374307,"current_range_meters":22400,"station_id":"ce4bh2h2rcd13ifvqdh0","pricing_plan_id":"free"},{"bike_id":"7c0fea41-4020-4a7d-9fe2-25924d1f1196","system_id":"levelo_inurba_marseille","lat":43.29426,"lon":5.3863,"is_reserved":false,"is_disabled":false,"rental_uris":{"android":"levelo://app?vid=7c0fea41-4020-4a7d-9fe2-25924d1f1196","ios":"levelo://app?vid=7c0fea41-4020-4a7d-9fe2-25924d1f1196"},"vehicle_type_id":"4","last_reported":1687374307,"current_range_meters":7200,"station_id":"ce4bh2h2rcd13ifvqdh0","pricing_plan_id":"free"},{"bike_id":"f459f43d-1ca2-4ffb-a899-eced0352f326","system_id":"levelo_inurba_marseille","lat":43.294162,"lon":5.386292,"is_reserved":false,"is_disabled":false,"rental_uris":{"android":"levelo://app?vid=f459f43d-1ca2-4ffb-a899-eced0352f326","ios":"levelo://app?vid=f459f43d-1ca2-4ffb-a899-eced0352f326"},"vehicle_type_id":"4","last_reported":1687374307,"current_range_meters":0,"station_id":"ce4bh2h2rcd13ifvqdh0","pricing_plan_id":"free"},{"bike_id":"c0cb8f0e-9e76-4df0-9336-f4d5ebc1e527","system_id":"levelo_inurba_marseille","lat":43.29423,"lon":5.38626,"is_reserved":false,"is_disabled":false,"rental_uris":{"android":"levelo://app?vid=c0cb8f0e-9e76-4df0-9336-f4d5ebc1e527","ios":"levelo://app?vid=c0cb8f0e-9e76-4df0-9336-f4d5ebc1e527"},"vehicle_type_id":"4","last_reported":1687374307,"current_range_meters":6800,"station_id":"ce4bh2h2rcd13ifvqdh0","pricing_plan_id":"free"},{"bike_id":"b1c64199-04ca-4a70-9de0-03cdd3939a6d","system_id":"levelo_inurba_marseille","lat":43.29417,"lon":5.38616,"is_reserved":false,"is_disabled":false,"rental_uris":{"android":"levelo://app?vid=b1c64199-04ca-4a70-9de0-03cdd3939a6d","ios":"levelo://app?vid=b1c64199-04ca-4a70-9de0-03cdd3939a6d"},"vehicle_type_id":"4","last_reported":1687374307,"current_range_meters":14800,"station_id":"ce4bh2h2rcd13ifvqdh0","pricing_plan_id":"free"},{"bike_id":"edebcf39-e8b1-4e13-a803-29bcbf03ec01","system_id":"levelo_inurba_marseille","lat":43.29419,"lon":5.38622,"is_reserved":false,"is_disabled":false,"rental_uris":{"android":"levelo://app?vid=edebcf39-e8b1-4e13-a803-29bcbf03ec01","ios":"levelo://app?vid=edebcf39-e8b1-4e13-a803-29bcbf03ec01"},"vehicle_type_id":"4","last_reported":1687374307,"current_range_meters":11200,"station_id":"ce4bh2h2rcd13ifvqdh0","pricing_plan_id":"free"},{"bike_id":"f3e5171b-878a-47a1-8c01-c7b0437e398f","system_id":"levelo_inurba_marseille","lat":43.29035,"lon":5.37564,"is_reserved":false,"is_disabled":false,"rental_uris":{"android":"levelo://app?vid=f3e5171b-878a-47a1-8c01-c7b0437e398f","ios":"levelo://app?vid=f3e5171b-878a-47a1-8c01-c7b0437e398f"},"vehicle_type_id":"4","last_reported":1687374307,"current_range_meters":28400,"station_id":"ce4bh692rcd13ifvqe90","pricing_plan_id":"free"},{"bike_id":"d219d81f-dfee-44da-b923-bb5f0511daa3","system_id":"levelo_inurba_marseille","lat":43.29419,"lon":5.38625,"is_reserved":false,"is_disabled":false,"rental_uris":{"android":"levelo://app?vid=d219d81f-dfee-44da-b923-bb5f0511daa3","ios":"levelo://app?vid=d219d81f-dfee-44da-b923-bb5f0511daa3"},"vehicle_type_id":"4","last_reported":1687374307,"current_range_meters":4400,"station_id":"ce4bh2h2rcd13ifvqdh0","pricing_plan_id":"free"},{"bike_id":"556ef209-2510-4ec4-98b5-ffdf6c92f32c","system_id":"levelo_inurba_marseille","lat":43.29417,"lon":5.38622,"is_reserved":false,"is_disabled":false,"rental_uris":{"android":"levelo://app?vid=556ef209-2510-4ec4-98b5-ffdf6c92f32c","ios":"levelo://app?vid=556ef209-2510-4ec4-98b5-ffdf6c92f32c"},"vehicle_type_id":"4","last_reported":1687374307,"current_range_meters":9200,"station_id":"ce4bh2h2rcd13ifvqdh0","pricing_plan_id":"free"},{"bike_id":"6aa16cc1-12e8-4dab-805f-fc79b301ab8c","system_id":"levelo_inurba_marseille","lat":43.2942,"lon":5.38628,"is_reserved":false,"is_disabled":false,"rental_uris":{"android":"levelo://app?vid=6aa16cc1-12e8-4dab-805f-fc79b301ab8c","ios":"levelo://app?vid=6aa16cc1-12e8-4dab-805f-fc79b301ab8c"},"vehicle_type_id":"4","last_reported":1687374307,"current_range_meters":4800,"station_id":"ce4bh2h2rcd13ifvqdh0","pricing_plan_id":"free"},{"bike_id":"0609f09b-61e5-40d1-a057-3a5b9409ddd1","system_id":"levelo_inurba_marseille","lat":43.294162,"lon":5.386292,"is_reserved":false,"is_disabled":false,"rental_uris":{"android":"levelo://app?vid=0609f09b-61e5-40d1-a057-3a5b9409ddd1","ios":"levelo://app?vid=0609f09b-61e5-40d1-a057-3a5b9409ddd1"},"vehicle_type_id":"4","last_reported":1687374307,"current_range_meters":29600,"station_id":"ce4bh2h2rcd13ifvqdh0","pricing_plan_id":"free"},{"bike_id":"5062e34e-114b-4cc1-a529-13c661e4d38e","system_id":"levelo_inurba_marseille","lat":43.2942,"lon":5.38629,"is_reserved":false,"is_disabled":false,"rental_uris":{"android":"levelo://app?vid=5062e34e-114b-4cc1-a529-13c661e4d38e","ios":"levelo://app?vid=5062e34e-114b-4cc1-a529-13c661e4d38e"},"vehicle_type_id":"4","last_reported":1687374307,"current_range_meters":12000,"station_id":"ce4bh2h2rcd13ifvqdh0","pricing_plan_id":"free"},{"bike_id":"64cc9ff4-f388-4c76-94dd-9b1f30158f5d","system_id":"levelo_inurba_marseille","lat":43.294162,"lon":5.386292,"is_reserved":false,"is_disabled":false,"rental_uris":{"android":"levelo://app?vid=64cc9ff4-f388-4c76-94dd-9b1f30158f5d","ios":"levelo://app?vid=64cc9ff4-f388-4c76-94dd-9b1f30158f5d"},"vehicle_type_id":"4","last_reported":1687374307,"current_range_meters":26000,"station_id":"ce4bh2h2rcd13ifvqdh0","pricing_plan_id":"free"},{"bike_id":"1fedf06c-b213-4b79-a0d8-fd2d5324150e","system_id":"levelo_inurba_marseille","lat":43.29416,"lon":5.38623,"is_reserved":false,"is_disabled":false,"rental_uris":{"android":"levelo://app?vid=1fedf06c-b213-4b79-a0d8-fd2d5324150e","ios":"levelo://app?vid=1fedf06c-b213-4b79-a0d8-fd2d5324150e"},"vehicle_type_id":"4","last_reported":1687374307,"current_range_meters":16800,"station_id":"ce4bh2h2rcd13ifvqdh0","pricing_plan_id":"free"},{"bike_id":"c4b32fec-5f20-43ac-bd5b-5a6abe744602","system_id":"levelo_inurba_marseille","lat":43.29416,"lon":5.38624,"is_reserved":false,"is_disabled":false,"rental_uris":{"android":"levelo://app?vid=c4b32fec-5f20-43ac-bd5b-5a6abe744602","ios":"levelo://app?vid=c4b32fec-5f20-43ac-bd5b-5a6abe744602"},"vehicle_type_id":"4","last_reported":1687374307,"current_range_meters":800,"station_id":"ce4bh2h2rcd13ifvqdh0","pricing_plan_id":"free"},{"bike_id":"57862e7a-00d5-45c2-83c4-6aef1b9ef88e","system_id":"levelo_inurba_marseille","lat":43.29416,"lon":5.38624,"is_reserved":false,"is_disabled":false,"rental_uris":{"android":"levelo://app?vid=57862e7a-00d5-45c2-83c4-6aef1b9ef88e","ios":"levelo://app?vid=57862e7a-00d5-45c2-83c4-6aef1b9ef88e"},"vehicle_type_id":"4","last_reported":1687374307,"current_range_meters":26400,"station_id":"ce4bh2h2rcd13ifvqdh0","pricing_plan_id":"free"},{"bike_id":"e424b1b1-a4ea-42b4-bf96-2333b919d643","system_id":"levelo_inurba_marseille","lat":43.29417,"lon":5.38626,"is_reserved":false,"is_disabled":false,"rental_uris":{"android":"levelo://app?vid=e424b1b1-a4ea-42b4-bf96-2333b919d643","ios":"levelo://app?vid=e424b1b1-a4ea-42b4-bf96-2333b919d643"},"vehicle_type_id":"4","last_reported":1687374307,"current_range_meters":6000,"station_id":"ce4bh2h2rcd13ifvqdh0","pricing_plan_id":"free"},{"bike_id":"b804f41b-17c1-480a-acc3-218f91356eb3","system_id":"levelo_inurba_marseille","lat":43.2942,"lon":5.38632,"is_reserved":false,"is_disabled":false,"rental_uris":{"android":"levelo://app?vid=b804f41b-17c1-480a-acc3-218f91356eb3","ios":"levelo://app?vid=b804f41b-17c1-480a-acc3-218f91356eb3"},"vehicle_type_id":"4","last_reported":1687374307,"current_range_meters":24800,"station_id":"ce4bh2h2rcd13ifvqdh0","pricing_plan_id":"free"},{"bike_id":"6bb05afa-1742-4f8b-a8b6-d6dccae9b898","system_id":"levelo_inurba_marseille","lat":43.29415,"lon":5.38623,"is_reserved":false,"is_disabled":false,"rental_uris":{"android":"levelo://app?vid=6bb05afa-1742-4f8b-a8b6-d6dccae9b898","ios":"levelo://app?vid=6bb05afa-1742-4f8b-a8b6-d6dccae9b898"},"vehicle_type_id":"4","last_reported":1687374307,"current_range_meters":9600,"station_id":"ce4bh2h2rcd13ifvqdh0","pricing_plan_id":"free"},{"bike_id":"2a5a52b7-74a6-4be3-b55c-5a74621fb274","system_id":"levelo_inurba_marseille","lat":43.29416,"lon":5.38625,"is_reserved":false,"is_disabled":false,"rental_uris":{"android":"levelo://app?vid=2a5a52b7-74a6-4be3-b55c-5a74621fb274","ios":"levelo://app?vid=2a5a52b7-74a6-4be3-b55c-5a74621fb274"},"vehicle_type_id":"4","last_reported":1687374307,"current_range_meters":12000,"station_id":"ce4bh2h2rcd13ifvqdh0","pricing_plan_id":"free"},{"bike_id":"b3f95771-49e1-4cd6-be92-7d54963182fe","system_id":"levelo_inurba_marseille","lat":43.294162,"lon":5.386292,"is_reserved":false,"is_disabled":false,"rental_uris":{"android":"levelo://app?vid=b3f95771-49e1-4cd6-be92-7d54963182fe","ios":"levelo://app?vid=b3f95771-49e1-4cd6-be92-7d54963182fe"},"vehicle_type_id":"4","last_reported":1687374307,"current_range_meters":30000,"station_id":"ce4bh2h2rcd13ifvqdh0","pricing_plan_id":"free"},{"bike_id":"14b8e67a-e07f-486b-9939-48ae979f6bd3","system_id":"levelo_inurba_marseille","lat":43.29417,"lon":5.38627,"is_reserved":false,"is_disabled":false,"rental_uris":{"android":"levelo://app?vid=14b8e67a-e07f-486b-9939-48ae979f6bd3","ios":"levelo://app?vid=14b8e67a-e07f-486b-9939-48ae979f6bd3"},"vehicle_type_id":"4","last_reported":1687374307,"current_range_meters":7200,"station_id":"ce4bh2h2rcd13ifvqdh0","pricing_plan_id":"free"},{"bike_id":"3f8a925a-6a54-4259-a38f-9cf091aab246","system_id":"levelo_inurba_marseille","lat":43.294162,"lon":5.386292,"is_reserved":false,"is_disabled":false,"rental_uris":{"android":"levelo://app?vid=3f8a925a-6a54-4259-a38f-9cf091aab246","ios":"levelo://app?vid=3f8a925a-6a54-4259-a38f-9cf091aab246"},"vehicle_type_id":"4","last_reported":1687374307,"current_range_meters":31200,"station_id":"ce4bh2h2rcd13ifvqdh0","pricing_plan_id":"free"},{"bike_id":"23d93928-84bd-4706-a11b-2eca2dcb0356","system_id":"levelo_inurba_marseille","lat":43.29416,"lon":5.38626,"is_reserved":false,"is_disabled":false,"rental_uris":{"android":"levelo://app?vid=23d93928-84bd-4706-a11b-2eca2dcb0356","ios":"levelo://app?vid=23d93928-84bd-4706-a11b-2eca2dcb0356"},"vehicle_type_id":"4","last_reported":1687374307,"current_range_meters":28000,"station_id":"ce4bh2h2rcd13ifvqdh0","pricing_plan_id":"free"},{"bike_id":"f667310b-6501-4e7d-b2d6-bbe451adc31e","system_id":"levelo_inurba_marseille","lat":43.29413,"lon":5.38621,"is_reserved":false,"is_disabled":false,"rental_uris":{"android":"levelo://app?vid=f667310b-6501-4e7d-b2d6-bbe451adc31e","ios":"levelo://app?vid=f667310b-6501-4e7d-b2d6-bbe451adc31e"},"vehicle_type_id":"4","last_reported":1687374307,"current_range_meters":1600,"station_id":"ce4bh2h2rcd13ifvqdh0","pricing_plan_id":"free"},{"bike_id":"6e91b9a9-0d12-42d8-88a2-a36791541a8f","system_id":"levelo_inurba_marseille","lat":43.29414,"lon":5.38623,"is_reserved":false,"is_disabled":false,"rental_uris":{"android":"levelo://app?vid=6e91b9a9-0d12-42d8-88a2-a36791541a8f","ios":"levelo://app?vid=6e91b9a9-0d12-42d8-88a2-a36791541a8f"},"vehicle_type_id":"4","last_reported":1687374307,"current_range_meters":13200,"station_id":"ce4bh2h2rcd13ifvqdh0","pricing_plan_id":"free"},{"bike_id":"64706ea7-01b4-4c91-89f6-02b74387ac1c","system_id":"levelo_inurba_marseille","lat":43.29418,"lon":5.38631,"is_reserved":false,"is_disabled":false,"rental_uris":{"android":"levelo://app?vid=64706ea7-01b4-4c91-89f6-02b74387ac1c","ios":"levelo://app?vid=64706ea7-01b4-4c91-89f6-02b74387ac1c"},"vehicle_type_id":"4","last_reported":1687374307,"current_range_meters":29600,"station_id":"ce4bh2h2rcd13ifvqdh0","pricing_plan_id":"free"},{"bike_id":"5f57e0d0-098a-49d9-b2a2-dfb2df87c72c","system_id":"levelo_inurba_marseille","lat":43.29416,"lon":5.38628,"is_reserved":false,"is_disabled":false,"rental_uris":{"android":"levelo://app?vid=5f57e0d0-098a-49d9-b2a2-dfb2df87c72c","ios":"levelo://app?vid=5f57e0d0-098a-49d9-b2a2-dfb2df87c72c"},"vehicle_type_id":"4","last_reported":1687374307,"current_range_meters":24800,"station_id":"ce4bh2h2rcd13ifvqdh0","pricing_plan_id":"free"},{"bike_id":"b55d046b-5f0d-4e9c-8522-7de85d7a1c61","system_id":"levelo_inurba_marseille","lat":43.29416,"lon":5.38629,"is_reserved":false,"is_disabled":false,"rental_uris":{"android":"levelo://app?vid=b55d046b-5f0d-4e9c-8522-7de85d7a1c61","ios":"levelo://app?vid=b55d046b-5f0d-4e9c-8522-7de85d7a1c61"},"vehicle_type_id":"4","last_reported":1687374307,"current_range_meters":23200,"station_id":"ce4bh2h2rcd13ifvqdh0","pricing_plan_id":"free"},{"bike_id":"e1e56768-024a-48ae-93bf-9566ae315340","system_id":"levelo_inurba_marseille","lat":43.29412,"lon":5.38622,"is_reserved":false,"is_disabled":false,"rental_uris":{"android":"levelo://app?vid=e1e56768-024a-48ae-93bf-9566ae315340","ios":"levelo://app?vid=e1e56768-024a-48ae-93bf-9566ae315340"},"vehicle_type_id":"4","last_reported":1687374307,"current_range_meters":0,"station_id":"ce4bh2h2rcd13ifvqdh0","pricing_plan_id":"free"},{"bike_id":"4b017146-7c4c-4f06-9fab-b938fea8baa4","system_id":"levelo_inurba_marseille","lat":43.29415,"lon":5.38628,"is_reserved":false,"is_disabled":false,"rental_uris":{"android":"levelo://app?vid=4b017146-7c4c-4f06-9fab-b938fea8baa4","ios":"levelo://app?vid=4b017146-7c4c-4f06-9fab-b938fea8baa4"},"vehicle_type_id":"4","last_reported":1687374307,"current_range_meters":24800,"station_id":"ce4bh2h2rcd13ifvqdh0","pricing_plan_id":"free"},{"bike_id":"e78f9340-6315-4e03-82d2-f65f33ea460a","system_id":"levelo_inurba_marseille","lat":43.29415,"lon":5.38629,"is_reserved":false,"is_disabled":false,"rental_uris":{"android":"levelo://app?vid=e78f9340-6315-4e03-82d2-f65f33ea460a","ios":"levelo://app?vid=e78f9340-6315-4e03-82d2-f65f33ea460a"},"vehicle_type_id":"4","last_reported":1687374307,"current_range_meters":10800,"station_id":"ce4bh2h2rcd13ifvqdh0","pricing_plan_id":"free"},{"bike_id":"57d0fe63-e93a-46ac-b11f-97260719e183","system_id":"levelo_inurba_marseille","lat":43.29414,"lon":5.38629,"is_reserved":false,"is_disabled":false,"rental_uris":{"android":"levelo://app?vid=57d0fe63-e93a-46ac-b11f-97260719e183","ios":"levelo://app?vid=57d0fe63-e93a-46ac-b11f-97260719e183"},"vehicle_type_id":"4","last_reported":1687374307,"current_range_meters":12400,"station_id":"ce4bh2h2rcd13ifvqdh0","pricing_plan_id":"free"},{"bike_id":"b143243a-a885-42f6-8e50-f24606ee1f79","system_id":"levelo_inurba_marseille","lat":43.29414,"lon":5.3863,"is_reserved":false,"is_disabled":false,"rental_uris":{"android":"levelo://app?vid=b143243a-a885-42f6-8e50-f24606ee1f79","ios":"levelo://app?vid=b143243a-a885-42f6-8e50-f24606ee1f79"},"vehicle_type_id":"4","last_reported":1687374307,"current_range_meters":8000,"station_id":"ce4bh2h2rcd13ifvqdh0","pricing_plan_id":"free"},{"bike_id":"42e050f0-4374-4c5b-bd00-311b1c76cc9a","system_id":"levelo_inurba_marseille","lat":43.29414,"lon":5.38631,"is_reserved":false,"is_disabled":false,"rental_uris":{"android":"levelo://app?vid=42e050f0-4374-4c5b-bd00-311b1c76cc9a","ios":"levelo://app?vid=42e050f0-4374-4c5b-bd00-311b1c76cc9a"},"vehicle_type_id":"4","last_reported":1687374307,"current_range_meters":24000,"station_id":"ce4bh2h2rcd13ifvqdh0","pricing_plan_id":"free"},{"bike_id":"dcce7b26-512a-433d-bb47-2ef834fc3b6e","system_id":"levelo_inurba_marseille","lat":43.29412,"lon":5.3863,"is_reserved":false,"is_disabled":false,"rental_uris":{"android":"levelo://app?vid=dcce7b26-512a-433d-bb47-2ef834fc3b6e","ios":"levelo://app?vid=dcce7b26-512a-433d-bb47-2ef834fc3b6e"},"vehicle_type_id":"4","last_reported":1687374307,"current_range_meters":1200,"station_id":"ce4bh2h2rcd13ifvqdh0","pricing_plan_id":"free"},{"bike_id":"57bcee52-df44-4da3-9ba0-07c1827de776","system_id":"levelo_inurba_marseille","lat":43.29412,"lon":5.3863,"is_reserved":false,"is_disabled":false,"rental_uris":{"android":"levelo://app?vid=57bcee52-df44-4da3-9ba0-07c1827de776","ios":"levelo://app?vid=57bcee52-df44-4da3-9ba0-07c1827de776"},"vehicle_type_id":"4","last_reported":1687374307,"current_range_meters":13600,"station_id":"ce4bh2h2rcd13ifvqdh0","pricing_plan_id":"free"},{"bike_id":"01a1fe22-66a7-4ebf-8fd6-848f1ba2bc05","system_id":"levelo_inurba_marseille","lat":43.2941,"lon":5.38627,"is_reserved":false,"is_disabled":false,"rental_uris":{"android":"levelo://app?vid=01a1fe22-66a7-4ebf-8fd6-848f1ba2bc05","ios":"levelo://app?vid=01a1fe22-66a7-4ebf-8fd6-848f1ba2bc05"},"vehicle_type_id":"4","last_reported":1687374307,"current_range_meters":28400,"station_id":"ce4bh2h2rcd13ifvqdh0","pricing_plan_id":"free"},{"bike_id":"49e108ed-dd9d-4f22-a1ca-ce7739c05a77","system_id":"levelo_inurba_marseille","lat":43.29413,"lon":5.386348,"is_reserved":false,"is_disabled":false,"rental_uris":{"android":"levelo://app?vid=49e108ed-dd9d-4f22-a1ca-ce7739c05a77","ios":"levelo://app?vid=49e108ed-dd9d-4f22-a1ca-ce7739c05a77"},"vehicle_type_id":"4","last_reported":1687374307,"current_range_meters":5200,"station_id":"ce4bh2h2rcd13ifvqdh0","pricing_plan_id":"free"},{"bike_id":"96060618-4b75-488d-b1dd-066848ee2c46","system_id":"levelo_inurba_marseille","lat":43.29411,"lon":5.38637,"is_reserved":false,"is_disabled":false,"rental_uris":{"android":"levelo://app?vid=96060618-4b75-488d-b1dd-066848ee2c46","ios":"levelo://app?vid=96060618-4b75-488d-b1dd-066848ee2c46"},"vehicle_type_id":"4","last_reported":1687374307,"current_range_meters":28400,"station_id":"ce4bh2h2rcd13ifvqdh0","pricing_plan_id":"free"},{"bike_id":"42b283d1-6fd3-493d-9d97-db8f16521b4d","system_id":"levelo_inurba_marseille","lat":43.29411,"lon":5.38637,"is_reserved":false,"is_disabled":false,"rental_uris":{"android":"levelo://app?vid=42b283d1-6fd3-493d-9d97-db8f16521b4d","ios":"levelo://app?vid=42b283d1-6fd3-493d-9d97-db8f16521b4d"},"vehicle_type_id":"4","last_reported":1687374307,"current_range_meters":13200,"station_id":"ce4bh2h2rcd13ifvqdh0","pricing_plan_id":"free"},{"bike_id":"e053e4ef-c64c-49f1-833b-986400307407","system_id":"levelo_inurba_marseille","lat":43.29426,"lon":5.38665,"is_reserved":false,"is_disabled":false,"rental_uris":{"android":"levelo://app?vid=e053e4ef-c64c-49f1-833b-986400307407","ios":"levelo://app?vid=e053e4ef-c64c-49f1-833b-986400307407"},"vehicle_type_id":"4","last_reported":1687374307,"current_range_meters":11600,"station_id":"","pricing_plan_id":"free"},{"bike_id":"66df330b-3f6b-4e0c-bc86-e4ac14a2c034","system_id":"levelo_inurba_marseille","lat":43.29019,"lon":5.37564,"is_reserved":false,"is_disabled":false,"rental_uris":{"android":"levelo://app?vid=66df330b-3f6b-4e0c-bc86-e4ac14a2c034","ios":"levelo://app?vid=66df330b-3f6b-4e0c-bc86-e4ac14a2c034"},"vehicle_type_id":"4","last_reported":1687374307,"current_range_meters":23200,"station_id":"ce4bh2h2rcd13ifvqdh0","pricing_plan_id":"free"},{"bike_id":"7b7052a0-73e4-4fe5-ba8d-320bceddb732","system_id":"levelo_inurba_marseille","lat":43.289468,"lon":5.363719,"is_reserved":false,"is_disabled":false,"rental_uris":{"android":"levelo://app?vid=7b7052a0-73e4-4fe5-ba8d-320bceddb732","ios":"levelo://app?vid=7b7052a0-73e4-4fe5-ba8d-320bceddb732"},"vehicle_type_id":"4","last_reported":1687374307,"current_range_meters":23200,"station_id":"ce4bhc92rcd13ifvqetg","pricing_plan_id":"free"},{"bike_id":"df3dbf6a-2673-4249-aaa6-3bd15b936154","system_id":"levelo_inurba_marseille","lat":43.2927,"lon":5.38437,"is_reserved":false,"is_disabled":false,"rental_uris":{"android":"levelo://app?vid=df3dbf6a-2673-4249-aaa6-3bd15b936154","ios":"levelo://app?vid=df3dbf6a-2673-4249-aaa6-3bd15b936154"},"vehicle_type_id":"4","last_reported":1687374307,"current_range_meters":2000,"station_id":"ce4bh692rcd13ifvqea0","pricing_plan_id":"free"},{"bike_id":"fc723ff0-4bd9-4764-a2fe-bdd1e4a0437d","system_id":"levelo_inurba_marseille","lat":43.29266,"lon":5.38429,"is_reserved":false,"is_disabled":false,"rental_uris":{"android":"levelo://app?vid=fc723ff0-4bd9-4764-a2fe-bdd1e4a0437d","ios":"levelo://app?vid=fc723ff0-4bd9-4764-a2fe-bdd1e4a0437d"},"vehicle_type_id":"4","last_reported":1687374307,"current_range_meters":13200,"station_id":"ce4bh692rcd13ifvqea0","pricing_plan_id":"free"},{"bike_id":"23ca2283-490e-4b71-9104-a6093133f6ee","system_id":"levelo_inurba_marseille","lat":43.292585,"lon":5.384126,"is_reserved":false,"is_disabled":false,"rental_uris":{"android":"levelo://app?vid=23ca2283-490e-4b71-9104-a6093133f6ee","ios":"levelo://app?vid=23ca2283-490e-4b71-9104-a6093133f6ee"},"vehicle_type_id":"4","last_reported":1687374307,"current_range_meters":4800,"station_id":"ce4bh692rcd13ifvqea0","pricing_plan_id":"free"},{"bike_id":"d91d04df-9ada-4b50-870d-1dcc4c66c34e","system_id":"levelo_inurba_marseille","lat":43.2926,"lon":5.38417,"is_reserved":false,"is_disabled":false,"rental_uris":{"android":"levelo://app?vid=d91d04df-9ada-4b50-870d-1dcc4c66c34e","ios":"levelo://app?vid=d91d04df-9ada-4b50-870d-1dcc4c66c34e"},"vehicle_type_id":"4","last_reported":1687374307,"current_range_meters":26400,"station_id":"ce4bh692rcd13ifvqea0","pricing_plan_id":"free"},{"bike_id":"a6c5255c-0785-4fc8-9c59-8aa23a423d09","system_id":"levelo_inurba_marseille","lat":43.29266,"lon":5.38431,"is_reserved":false,"is_disabled":false,"rental_uris":{"android":"levelo://app?vid=a6c5255c-0785-4fc8-9c59-8aa23a423d09","ios":"levelo://app?vid=a6c5255c-0785-4fc8-9c59-8aa23a423d09"},"vehicle_type_id":"4","last_reported":1687374307,"current_range_meters":0,"station_id":"ce4bh692rcd13ifvqea0","pricing_plan_id":"free"},{"bike_id":"6f66d1df-f0bd-4fb6-8a64-e2f28b0cb5ce","system_id":"levelo_inurba_marseille","lat":43.29265,"lon":5.38433,"is_reserved":false,"is_disabled":false,"rental_uris":{"android":"levelo://app?vid=6f66d1df-f0bd-4fb6-8a64-e2f28b0cb5ce","ios":"levelo://app?vid=6f66d1df-f0bd-4fb6-8a64-e2f28b0cb5ce"},"vehicle_type_id":"4","last_reported":1687374307,"current_range_meters":5200,"station_id":"ce4bh692rcd13ifvqea0","pricing_plan_id":"free"},{"bike_id":"ece978e5-d5e8-43e7-b7ed-1a4edeaaa5a2","system_id":"levelo_inurba_marseille","lat":43.29267,"lon":5.38439,"is_reserved":false,"is_disabled":false,"rental_uris":{"android":"levelo://app?vid=ece978e5-d5e8-43e7-b7ed-1a4edeaaa5a2","ios":"levelo://app?vid=ece978e5-d5e8-43e7-b7ed-1a4edeaaa5a2"},"vehicle_type_id":"4","last_reported":1687374307,"current_range_meters":0,"station_id":"ce4bh692rcd13ifvqea0","pricing_plan_id":"free"},{"bike_id":"fc488e7e-6f76-4707-bf83-66c59215fd0f","system_id":"levelo_inurba_marseille","lat":43.29268,"lon":5.38443,"is_reserved":false,"is_disabled":false,"rental_uris":{"android":"levelo://app?vid=fc488e7e-6f76-4707-bf83-66c59215fd0f","ios":"levelo://app?vid=fc488e7e-6f76-4707-bf83-66c59215fd0f"},"vehicle_type_id":"4","last_reported":1687374307,"current_range_meters":26800,"station_id":"ce4bh692rcd13ifvqea0","pricing_plan_id":"free"},{"bike_id":"c9698bab-c312-4c03-a230-4429b6a655f2","system_id":"levelo_inurba_marseille","lat":43.292644,"lon":5.384257,"is_reserved":false,"is_disabled":false,"rental_uris":{"android":"levelo://app?vid=c9698bab-c312-4c03-a230-4429b6a655f2","ios":"levelo://app?vid=c9698bab-c312-4c03-a230-4429b6a655f2"},"vehicle_type_id":"4","last_reported":1687374307,"current_range_meters":6400,"station_id":"ce4bh692rcd13ifvqea0","pricing_plan_id":"free"},{"bike_id":"242b7648-2c0f-4775-949a-74e476dce28d","system_id":"levelo_inurba_marseille","lat":43.29264,"lon":5.38436,"is_reserved":false,"is_disabled":false,"rental_uris":{"android":"levelo://app?vid=242b7648-2c0f-4775-949a-74e476dce28d","ios":"levelo://app?vid=242b7648-2c0f-4775-949a-74e476dce28d"},"vehicle_type_id":"4","last_reported":1687374307,"current_range_meters":2400,"station_id":"ce4bh692rcd13ifvqea0","pricing_plan_id":"free"},{"bike_id":"0bd2a4f2-7800-4877-bb9c-27a6f6711edb","system_id":"levelo_inurba_marseille","lat":43.292644,"lon":5.384257,"is_reserved":false,"is_disabled":false,"rental_uris":{"android":"levelo://app?vid=0bd2a4f2-7800-4877-bb9c-27a6f6711edb","ios":"levelo://app?vid=0bd2a4f2-7800-4877-bb9c-27a6f6711edb"},"vehicle_type_id":"4","last_reported":1687374307,"current_range_meters":20800,"station_id":"ce4bh692rcd13ifvqea0","pricing_plan_id":"free"},{"bike_id":"7284d6a1-6367-4d74-8885-4da10fc158ff","system_id":"levelo_inurba_marseille","lat":43.29258,"lon":5.38426,"is_reserved":false,"is_disabled":false,"rental_uris":{"android":"levelo://app?vid=7284d6a1-6367-4d74-8885-4da10fc158ff","ios":"levelo://app?vid=7284d6a1-6367-4d74-8885-4da10fc158ff"},"vehicle_type_id":"4","last_reported":1687374307,"current_range_meters":7200,"station_id":"ce4bh692rcd13ifvqea0","pricing_plan_id":"free"},{"bike_id":"e1c6a2fa-0aae-4c58-ab67-13fb47a37c85","system_id":"levelo_inurba_marseille","lat":43.29263,"lon":5.38437,"is_reserved":false,"is_disabled":false,"rental_uris":{"android":"levelo://app?vid=e1c6a2fa-0aae-4c58-ab67-13fb47a37c85","ios":"levelo://app?vid=e1c6a2fa-0aae-4c58-ab67-13fb47a37c85"},"vehicle_type_id":"4","last_reported":1687374307,"current_range_meters":28400,"station_id":"ce4bh692rcd13ifvqea0","pricing_plan_id":"free"},{"bike_id":"fa2877c4-945e-4ff4-8279-d33250d89a51","system_id":"levelo_inurba_marseille","lat":43.29266,"lon":5.38444,"is_reserved":false,"is_disabled":false,"rental_uris":{"android":"levelo://app?vid=fa2877c4-945e-4ff4-8279-d33250d89a51","ios":"levelo://app?vid=fa2877c4-945e-4ff4-8279-d33250d89a51"},"vehicle_type_id":"4","last_reported":1687374307,"current_range_meters":23600,"station_id":"ce4bh692rcd13ifvqea0","pricing_plan_id":"free"},{"bike_id":"0a6bdd83-f309-4819-9eeb-738bbcbd1e61","system_id":"levelo_inurba_marseille","lat":43.29263,"lon":5.38438,"is_reserved":false,"is_disabled":false,"rental_uris":{"android":"levelo://app?vid=0a6bdd83-f309-4819-9eeb-738bbcbd1e61","ios":"levelo://app?vid=0a6bdd83-f309-4819-9eeb-738bbcbd1e61"},"vehicle_type_id":"4","last_reported":1687374307,"current_range_meters":800,"station_id":"ce4bh692rcd13ifvqea0","pricing_plan_id":"free"},{"bike_id":"5924eca5-b8cd-45b9-8c7c-dbfbf28beb02","system_id":"levelo_inurba_marseille","lat":43.29267,"lon":5.38447,"is_reserved":false,"is_disabled":false,"rental_uris":{"android":"levelo://app?vid=5924eca5-b8cd-45b9-8c7c-dbfbf28beb02","ios":"levelo://app?vid=5924eca5-b8cd-45b9-8c7c-dbfbf28beb02"},"vehicle_type_id":"4","last_reported":1687374307,"current_range_meters":18000,"station_id":"ce4bh692rcd13ifvqea0","pricing_plan_id":"free"},{"bike_id":"cf6e217a-318a-4656-bed9-192447dbf053","system_id":"levelo_inurba_marseille","lat":43.29262,"lon":5.38437,"is_reserved":false,"is_disabled":false,"rental_uris":{"android":"levelo://app?vid=cf6e217a-318a-4656-bed9-192447dbf053","ios":"levelo://app?vid=cf6e217a-318a-4656-bed9-192447dbf053"},"vehicle_type_id":"4","last_reported":1687374307,"current_range_meters":1600,"station_id":"ce4bh692rcd13ifvqea0","pricing_plan_id":"free"},{"bike_id":"14532a89-8064-4eb5-ba54-bf8ebaef3f4d","system_id":"levelo_inurba_marseille","lat":43.29266,"lon":5.38447,"is_reserved":false,"is_disabled":false,"rental_uris":{"android":"levelo://app?vid=14532a89-8064-4eb5-ba54-bf8ebaef3f4d","ios":"levelo://app?vid=14532a89-8064-4eb5-ba54-bf8ebaef3f4d"},"vehicle_type_id":"4","last_reported":1687374307,"current_range_meters":12800,"station_id":"ce4bh692rcd13ifvqea0","pricing_plan_id":"free"},{"bike_id":"c4b4d5a4-54d3-4884-99be-dd660a3b96cd","system_id":"levelo_inurba_marseille","lat":43.29262,"lon":5.38439,"is_reserved":false,"is_disabled":false,"rental_uris":{"android":"levelo://app?vid=c4b4d5a4-54d3-4884-99be-dd660a3b96cd","ios":"levelo://app?vid=c4b4d5a4-54d3-4884-99be-dd660a3b96cd"},"vehicle_type_id":"4","last_reported":1687374307,"current_range_meters":22400,"station_id":"ce4bh692rcd13ifvqea0","pricing_plan_id":"free"},{"bike_id":"1ee039c9-6f9e-4b72-b23e-31b9d22e4229","system_id":"levelo_inurba_marseille","lat":43.292644,"lon":5.384257,"is_reserved":false,"is_disabled":false,"rental_uris":{"android":"levelo://app?vid=1ee039c9-6f9e-4b72-b23e-31b9d22e4229","ios":"levelo://app?vid=1ee039c9-6f9e-4b72-b23e-31b9d22e4229"},"vehicle_type_id":"4","last_reported":1687374307,"current_range_meters":10000,"station_id":"ce4bh692rcd13ifvqea0","pricing_plan_id":"free"},{"bike_id":"38cdb6e3-ba26-434f-9ccd-ef285714b3d8","system_id":"levelo_inurba_marseille","lat":43.29263,"lon":5.38442,"is_reserved":false,"is_disabled":false,"rental_uris":{"android":"levelo://app?vid=38cdb6e3-ba26-434f-9ccd-ef285714b3d8","ios":"levelo://app?vid=38cdb6e3-ba26-434f-9ccd-ef285714b3d8"},"vehicle_type_id":"4","last_reported":1687374307,"current_range_meters":13600,"station_id":"ce4bh692rcd13ifvqea0","pricing_plan_id":"free"},{"bike_id":"4c1f562c-1e6e-452d-861d-bef18a603830","system_id":"levelo_inurba_marseille","lat":43.29264,"lon":5.38447,"is_reserved":false,"is_disabled":false,"rental_uris":{"android":"levelo://app?vid=4c1f562c-1e6e-452d-861d-bef18a603830","ios":"levelo://app?vid=4c1f562c-1e6e-452d-861d-bef18a603830"},"vehicle_type_id":"4","last_reported":1687374307,"current_range_meters":22000,"station_id":"ce4bh692rcd13ifvqea0","pricing_plan_id":"free"},{"bike_id":"109df3f3-164e-4fc7-8886-65748a5bf27e","system_id":"levelo_inurba_marseille","lat":43.292644,"lon":5.384257,"is_reserved":false,"is_disabled":false,"rental_uris":{"android":"levelo://app?vid=109df3f3-164e-4fc7-8886-65748a5bf27e","ios":"levelo://app?vid=109df3f3-164e-4fc7-8886-65748a5bf27e"},"vehicle_type_id":"4","last_reported":1687374307,"current_range_meters":28400,"station_id":"ce4bh692rcd13ifvqea0","pricing_plan_id":"free"},{"bike_id":"326e9666-bb00-48af-bec6-6abb393147f9","system_id":"levelo_inurba_marseille","lat":43.292599,"lon":5.384385,"is_reserved":false,"is_disabled":false,"rental_uris":{"android":"levelo://app?vid=326e9666-bb00-48af-bec6-6abb393147f9","ios":"levelo://app?vid=326e9666-bb00-48af-bec6-6abb393147f9"},"vehicle_type_id":"4","last_reported":1687374307,"current_range_meters":11600,"station_id":"ce4bh692rcd13ifvqea0","pricing_plan_id":"free"},{"bike_id":"901b023e-9aff-49e7-8cd5-710887367712","system_id":"levelo_inurba_marseille","lat":43.292644,"lon":5.384257,"is_reserved":false,"is_disabled":false,"rental_uris":{"android":"levelo://app?vid=901b023e-9aff-49e7-8cd5-710887367712","ios":"levelo://app?vid=901b023e-9aff-49e7-8cd5-710887367712"},"vehicle_type_id":"4","last_reported":1687374307,"current_range_meters":20400,"station_id":"ce4bh692rcd13ifvqea0","pricing_plan_id":"free"},{"bike_id":"b4c0edef-1ef8-4796-8942-022582cba013","system_id":"levelo_inurba_marseille","lat":43.29258,"lon":5.38436,"is_reserved":false,"is_disabled":false,"rental_uris":{"android":"levelo://app?vid=b4c0edef-1ef8-4796-8942-022582cba013","ios":"levelo://app?vid=b4c0edef-1ef8-4796-8942-022582cba013"},"vehicle_type_id":"4","last_reported":1687374307,"current_range_meters":12800,"station_id":"ce4bh692rcd13ifvqea0","pricing_plan_id":"free"},{"bike_id":"9fb4aa87-a12a-4757-bbf8-2596f546a0af","system_id":"levelo_inurba_marseille","lat":43.29258,"lon":5.38437,"is_reserved":false,"is_disabled":false,"rental_uris":{"android":"levelo://app?vid=9fb4aa87-a12a-4757-bbf8-2596f546a0af","ios":"levelo://app?vid=9fb4aa87-a12a-4757-bbf8-2596f546a0af"},"vehicle_type_id":"4","last_reported":1687374307,"current_range_meters":25600,"station_id":"ce4bh692rcd13ifvqea0","pricing_plan_id":"free"},{"bike_id":"90f3de37-aa8b-4550-b80d-2014e28238f4","system_id":"levelo_inurba_marseille","lat":43.29258,"lon":5.38437,"is_reserved":false,"is_disabled":false,"rental_uris":{"android":"levelo://app?vid=90f3de37-aa8b-4550-b80d-2014e28238f4","ios":"levelo://app?vid=90f3de37-aa8b-4550-b80d-2014e28238f4"},"vehicle_type_id":"4","last_reported":1687374307,"current_range_meters":4800,"station_id":"ce4bh692rcd13ifvqea0","pricing_plan_id":"free"},{"bike_id":"0978ea99-9dbd-4d3b-8e4b-741b353efd2f","system_id":"levelo_inurba_marseille","lat":43.292644,"lon":5.384257,"is_reserved":false,"is_disabled":false,"rental_uris":{"android":"levelo://app?vid=0978ea99-9dbd-4d3b-8e4b-741b353efd2f","ios":"levelo://app?vid=0978ea99-9dbd-4d3b-8e4b-741b353efd2f"},"vehicle_type_id":"4","last_reported":1687374307,"current_range_meters":31200,"station_id":"ce4bh692rcd13ifvqea0","pricing_plan_id":"free"},{"bike_id":"d9c36832-856e-4a3e-9028-426dee8d3fa3","system_id":"levelo_inurba_marseille","lat":43.292644,"lon":5.384257,"is_reserved":false,"is_disabled":false,"rental_uris":{"android":"levelo://app?vid=d9c36832-856e-4a3e-9028-426dee8d3fa3","ios":"levelo://app?vid=d9c36832-856e-4a3e-9028-426dee8d3fa3"},"vehicle_type_id":"4","last_reported":1687374307,"current_range_meters":27200,"station_id":"ce4bh692rcd13ifvqea0","pricing_plan_id":"free"},{"bike_id":"c0ca2879-9e77-4315-b57e-b7057524210d","system_id":"levelo_inurba_marseille","lat":43.292644,"lon":5.384257,"is_reserved":false,"is_disabled":false,"rental_uris":{"android":"levelo://app?vid=c0ca2879-9e77-4315-b57e-b7057524210d","ios":"levelo://app?vid=c0ca2879-9e77-4315-b57e-b7057524210d"},"vehicle_type_id":"4","last_reported":1687374307,"current_range_meters":13200,"station_id":"ce4bh692rcd13ifvqea0","pricing_plan_id":"free"},{"bike_id":"cb380ef2-11e7-48f7-b652-7c36d461954a","system_id":"levelo_inurba_marseille","lat":43.29259,"lon":5.38444,"is_reserved":false,"is_disabled":false,"rental_uris":{"android":"levelo://app?vid=cb380ef2-11e7-48f7-b652-7c36d461954a","ios":"levelo://app?vid=cb380ef2-11e7-48f7-b652-7c36d461954a"},"vehicle_type_id":"4","last_reported":1687374307,"current_range_meters":11200,"station_id":"ce4bh692rcd13ifvqea0","pricing_plan_id":"free"},{"bike_id":"38eb09af-7166-42b9-865e-84246929498f","system_id":"levelo_inurba_marseille","lat":43.292644,"lon":5.384257,"is_reserved":false,"is_disabled":false,"rental_uris":{"android":"levelo://app?vid=38eb09af-7166-42b9-865e-84246929498f","ios":"levelo://app?vid=38eb09af-7166-42b9-865e-84246929498f"},"vehicle_type_id":"4","last_reported":1687374307,"current_range_meters":31600,"station_id":"ce4bh692rcd13ifvqea0","pricing_plan_id":"free"},{"bike_id":"b369a2b4-c8f6-4cee-b117-b7fd1b804f87","system_id":"levelo_inurba_marseille","lat":43.292644,"lon":5.384257,"is_reserved":false,"is_disabled":false,"rental_uris":{"android":"levelo://app?vid=b369a2b4-c8f6-4cee-b117-b7fd1b804f87","ios":"levelo://app?vid=b369a2b4-c8f6-4cee-b117-b7fd1b804f87"},"vehicle_type_id":"4","last_reported":1687374307,"current_range_meters":3600,"station_id":"ce4bh692rcd13ifvqea0","pricing_plan_id":"free"},{"bike_id":"8c9bc9c1-6de4-44ba-9306-6fcecdbb6ea7","system_id":"levelo_inurba_marseille","lat":43.292644,"lon":5.384257,"is_reserved":false,"is_disabled":false,"rental_uris":{"android":"levelo://app?vid=8c9bc9c1-6de4-44ba-9306-6fcecdbb6ea7","ios":"levelo://app?vid=8c9bc9c1-6de4-44ba-9306-6fcecdbb6ea7"},"vehicle_type_id":"4","last_reported":1687374307,"current_range_meters":23600,"station_id":"ce4bh692rcd13ifvqea0","pricing_plan_id":"free"},{"bike_id":"89362888-d8bf-41d3-917d-5d1b772edf5e","system_id":"levelo_inurba_marseille","lat":43.2926,"lon":5.38448,"is_reserved":false,"is_disabled":false,"rental_uris":{"android":"levelo://app?vid=89362888-d8bf-41d3-917d-5d1b772edf5e","ios":"levelo://app?vid=89362888-d8bf-41d3-917d-5d1b772edf5e"},"vehicle_type_id":"4","last_reported":1687374307,"current_range_meters":6000,"station_id":"ce4bh692rcd13ifvqea0","pricing_plan_id":"free"},{"bike_id":"5ee4b91a-6f41-4726-b7e5-4c0be4c60950","system_id":"levelo_inurba_marseille","lat":43.29256,"lon":5.38441,"is_reserved":false,"is_disabled":false,"rental_uris":{"android":"levelo://app?vid=5ee4b91a-6f41-4726-b7e5-4c0be4c60950","ios":"levelo://app?vid=5ee4b91a-6f41-4726-b7e5-4c0be4c60950"},"vehicle_type_id":"4","last_reported":1687374307,"current_range_meters":28400,"station_id":"ce4bh692rcd13ifvqea0","pricing_plan_id":"free"},{"bike_id":"810ccb79-f33e-49c8-859b-4346b58b24e8","system_id":"levelo_inurba_marseille","lat":43.29256,"lon":5.38443,"is_reserved":false,"is_disabled":false,"rental_uris":{"android":"levelo://app?vid=810ccb79-f33e-49c8-859b-4346b58b24e8","ios":"levelo://app?vid=810ccb79-f33e-49c8-859b-4346b58b24e8"},"vehicle_type_id":"4","last_reported":1687374307,"current_range_meters":21600,"station_id":"ce4bh692rcd13ifvqea0","pricing_plan_id":"free"},{"bike_id":"a0c0fda6-17ac-4142-8682-e7bf68e5abe5","system_id":"levelo_inurba_marseille","lat":43.29262,"lon":5.38456,"is_reserved":false,"is_disabled":false,"rental_uris":{"android":"levelo://app?vid=a0c0fda6-17ac-4142-8682-e7bf68e5abe5","ios":"levelo://app?vid=a0c0fda6-17ac-4142-8682-e7bf68e5abe5"},"vehicle_type_id":"4","last_reported":1687374307,"current_range_meters":2800,"station_id":"ce4bh692rcd13ifvqea0","pricing_plan_id":"free"},{"bike_id":"7dbaf29e-79cd-4fe5-8c11-f79d0a255981","system_id":"levelo_inurba_marseille","lat":43.2926,"lon":5.38452,"is_reserved":false,"is_disabled":false,"rental_uris":{"android":"levelo://app?vid=7dbaf29e-79cd-4fe5-8c11-f79d0a255981","ios":"levelo://app?vid=7dbaf29e-79cd-4fe5-8c11-f79d0a255981"},"vehicle_type_id":"4","last_reported":1687374307,"current_range_meters":5200,"station_id":"ce4bh692rcd13ifvqea0","pricing_plan_id":"free"},{"bike_id":"bf99b357-1923-4700-b7f6-4cadffdcae65","system_id":"levelo_inurba_marseille","lat":43.29259,"lon":5.38451,"is_reserved":false,"is_disabled":false,"rental_uris":{"android":"levelo://app?vid=bf99b357-1923-4700-b7f6-4cadffdcae65","ios":"levelo://app?vid=bf99b357-1923-4700-b7f6-4cadffdcae65"},"vehicle_type_id":"4","last_reported":1687374307,"current_range_meters":400,"station_id":"ce4bh692rcd13ifvqea0","pricing_plan_id":"free"},{"bike_id":"c4a01258-d28c-4ec8-a5c0-5185a9110f39","system_id":"levelo_inurba_marseille","lat":43.29253,"lon":5.3844,"is_reserved":false,"is_disabled":false,"rental_uris":{"android":"levelo://app?vid=c4a01258-d28c-4ec8-a5c0-5185a9110f39","ios":"levelo://app?vid=c4a01258-d28c-4ec8-a5c0-5185a9110f39"},"vehicle_type_id":"4","last_reported":1687374307,"current_range_meters":11600,"station_id":"ce4bh692rcd13ifvqea0","pricing_plan_id":"free"},{"bike_id":"51c94ac5-ad35-4d1f-a04a-86afb72fa89e","system_id":"levelo_inurba_marseille","lat":43.29253,"lon":5.3844,"is_reserved":false,"is_disabled":false,"rental_uris":{"android":"levelo://app?vid=51c94ac5-ad35-4d1f-a04a-86afb72fa89e","ios":"levelo://app?vid=51c94ac5-ad35-4d1f-a04a-86afb72fa89e"},"vehicle_type_id":"4","last_reported":1687374307,"current_range_meters":23600,"station_id":"ce4bh692rcd13ifvqea0","pricing_plan_id":"free"},{"bike_id":"7594e4d1-aaa3-4285-baac-9a7683d4b3ca","system_id":"levelo_inurba_marseille","lat":43.29311,"lon":5.38563,"is_reserved":false,"is_disabled":false,"rental_uris":{"android":"levelo://app?vid=7594e4d1-aaa3-4285-baac-9a7683d4b3ca","ios":"levelo://app?vid=7594e4d1-aaa3-4285-baac-9a7683d4b3ca"},"vehicle_type_id":"4","last_reported":1687374307,"current_range_meters":4000,"station_id":"ce4bh692rcd13ifvqea0","pricing_plan_id":"free"},{"bike_id":"59d125af-16ef-419c-b0b1-36a03e1202e7","system_id":"levelo_inurba_marseille","lat":43.3304,"lon":5.38918,"is_reserved":false,"is_disabled":false,"rental_uris":{"android":"levelo://app?vid=59d125af-16ef-419c-b0b1-36a03e1202e7","ios":"levelo://app?vid=59d125af-16ef-419c-b0b1-36a03e1202e7"},"vehicle_type_id":"4","last_reported":1687374307,"current_range_meters":4400,"station_id":"ce4bhr92rcd13ifvqhrg","pricing_plan_id":"free"},{"bike_id":"e1a45b0a-bebd-4c51-9017-f46b52c8e6b7","system_id":"levelo_inurba_marseille","lat":43.33043,"lon":5.38922,"is_reserved":false,"is_disabled":false,"rental_uris":{"android":"levelo://app?vid=e1a45b0a-bebd-4c51-9017-f46b52c8e6b7","ios":"levelo://app?vid=e1a45b0a-bebd-4c51-9017-f46b52c8e6b7"},"vehicle_type_id":"4","last_reported":1687374307,"current_range_meters":0,"station_id":"ce4bhr92rcd13ifvqhrg","pricing_plan_id":"free"},{"bike_id":"b801b045-a8d8-4e30-9ba9-7971220e1917","system_id":"levelo_inurba_marseille","lat":43.33045,"lon":5.38919,"is_reserved":false,"is_disabled":false,"rental_uris":{"android":"levelo://app?vid=b801b045-a8d8-4e30-9ba9-7971220e1917","ios":"levelo://app?vid=b801b045-a8d8-4e30-9ba9-7971220e1917"},"vehicle_type_id":"4","last_reported":1687374307,"current_range_meters":12000,"station_id":"ce4bhr92rcd13ifvqhrg","pricing_plan_id":"free"},{"bike_id":"5902fe15-e01c-4dbb-840e-586b6735ba2e","system_id":"levelo_inurba_marseille","lat":43.290995,"lon":5.381361,"is_reserved":false,"is_disabled":false,"rental_uris":{"android":"levelo://app?vid=5902fe15-e01c-4dbb-840e-586b6735ba2e","ios":"levelo://app?vid=5902fe15-e01c-4dbb-840e-586b6735ba2e"},"vehicle_type_id":"4","last_reported":1687374307,"current_range_meters":18400,"station_id":"ce4bh512rcd13ifvqe2g","pricing_plan_id":"free"},{"bike_id":"78d92aec-e547-4189-b789-fe8c4a2b4847","system_id":"levelo_inurba_marseille","lat":43.295169,"lon":5.390426,"is_reserved":false,"is_disabled":false,"rental_uris":{"android":"levelo://app?vid=78d92aec-e547-4189-b789-fe8c4a2b4847","ios":"levelo://app?vid=78d92aec-e547-4189-b789-fe8c4a2b4847"},"vehicle_type_id":"4","last_reported":1687374307,"current_range_meters":8800,"station_id":"ce4bh3p2rcd13ifvqdp0","pricing_plan_id":"free"},{"bike_id":"1398f4d7-d5bb-443d-a004-ed3cb9720f2c","system_id":"levelo_inurba_marseille","lat":43.295169,"lon":5.390426,"is_reserved":false,"is_disabled":false,"rental_uris":{"android":"levelo://app?vid=1398f4d7-d5bb-443d-a004-ed3cb9720f2c","ios":"levelo://app?vid=1398f4d7-d5bb-443d-a004-ed3cb9720f2c"},"vehicle_type_id":"4","last_reported":1687374307,"current_range_meters":15600,"station_id":"ce4bh3p2rcd13ifvqdp0","pricing_plan_id":"free"},{"bike_id":"234858dd-1709-4a3b-838f-ae419c51dde5","system_id":"levelo_inurba_marseille","lat":43.295169,"lon":5.390426,"is_reserved":false,"is_disabled":false,"rental_uris":{"android":"levelo://app?vid=234858dd-1709-4a3b-838f-ae419c51dde5","ios":"levelo://app?vid=234858dd-1709-4a3b-838f-ae419c51dde5"},"vehicle_type_id":"4","last_reported":1687374307,"current_range_meters":10000,"station_id":"ce4bh3p2rcd13ifvqdp0","pricing_plan_id":"free"},{"bike_id":"40cf9b6d-a9aa-4709-b4f3-5ce0dab9c822","system_id":"levelo_inurba_marseille","lat":43.295169,"lon":5.390426,"is_reserved":false,"is_disabled":false,"rental_uris":{"android":"levelo://app?vid=40cf9b6d-a9aa-4709-b4f3-5ce0dab9c822","ios":"levelo://app?vid=40cf9b6d-a9aa-4709-b4f3-5ce0dab9c822"},"vehicle_type_id":"4","last_reported":1687374307,"current_range_meters":12400,"station_id":"ce4bh3p2rcd13ifvqdp0","pricing_plan_id":"free"},{"bike_id":"f1de422c-b195-4920-8931-6151620bc1cc","system_id":"levelo_inurba_marseille","lat":43.295169,"lon":5.390426,"is_reserved":false,"is_disabled":false,"rental_uris":{"android":"levelo://app?vid=f1de422c-b195-4920-8931-6151620bc1cc","ios":"levelo://app?vid=f1de422c-b195-4920-8931-6151620bc1cc"},"vehicle_type_id":"4","last_reported":1687374307,"current_range_meters":26400,"station_id":"ce4bh3p2rcd13ifvqdp0","pricing_plan_id":"free"},{"bike_id":"91e48ac0-582c-43ad-86a1-c147fe8d1c1c","system_id":"levelo_inurba_marseille","lat":43.29523,"lon":5.39036,"is_reserved":false,"is_disabled":false,"rental_uris":{"android":"levelo://app?vid=91e48ac0-582c-43ad-86a1-c147fe8d1c1c","ios":"levelo://app?vid=91e48ac0-582c-43ad-86a1-c147fe8d1c1c"},"vehicle_type_id":"4","last_reported":1687374307,"current_range_meters":4800,"station_id":"ce4bh3p2rcd13ifvqdp0","pricing_plan_id":"free"},{"bike_id":"14cf9a3d-ae7e-420d-bc4a-1d3d444c2deb","system_id":"levelo_inurba_marseille","lat":43.29526,"lon":5.39042,"is_reserved":false,"is_disabled":false,"rental_uris":{"android":"levelo://app?vid=14cf9a3d-ae7e-420d-bc4a-1d3d444c2deb","ios":"levelo://app?vid=14cf9a3d-ae7e-420d-bc4a-1d3d444c2deb"},"vehicle_type_id":"4","last_reported":1687374307,"current_range_meters":16800,"station_id":"ce4bh3p2rcd13ifvqdp0","pricing_plan_id":"free"},{"bike_id":"66599bda-a09c-4a7e-8548-b70df6f13e1d","system_id":"levelo_inurba_marseille","lat":43.295169,"lon":5.390426,"is_reserved":false,"is_disabled":false,"rental_uris":{"android":"levelo://app?vid=66599bda-a09c-4a7e-8548-b70df6f13e1d","ios":"levelo://app?vid=66599bda-a09c-4a7e-8548-b70df6f13e1d"},"vehicle_type_id":"4","last_reported":1687374307,"current_range_meters":21200,"station_id":"ce4bh3p2rcd13ifvqdp0","pricing_plan_id":"free"},{"bike_id":"2574efae-521d-4873-ae62-f8f0d44ec51b","system_id":"levelo_inurba_marseille","lat":43.295169,"lon":5.390426,"is_reserved":false,"is_disabled":false,"rental_uris":{"android":"levelo://app?vid=2574efae-521d-4873-ae62-f8f0d44ec51b","ios":"levelo://app?vid=2574efae-521d-4873-ae62-f8f0d44ec51b"},"vehicle_type_id":"4","last_reported":1687374307,"current_range_meters":30000,"station_id":"ce4bh3p2rcd13ifvqdp0","pricing_plan_id":"free"},{"bike_id":"193d39b7-a3bc-4963-9e87-25309ca4d7bb","system_id":"levelo_inurba_marseille","lat":43.295169,"lon":5.390426,"is_reserved":false,"is_disabled":false,"rental_uris":{"android":"levelo://app?vid=193d39b7-a3bc-4963-9e87-25309ca4d7bb","ios":"levelo://app?vid=193d39b7-a3bc-4963-9e87-25309ca4d7bb"},"vehicle_type_id":"4","last_reported":1687374307,"current_range_meters":0,"station_id":"ce4bh3p2rcd13ifvqdp0","pricing_plan_id":"free"},{"bike_id":"2bae6adf-ba5a-49d2-9a4e-f594fc6656bc","system_id":"levelo_inurba_marseille","lat":43.295169,"lon":5.390426,"is_reserved":false,"is_disabled":false,"rental_uris":{"android":"levelo://app?vid=2bae6adf-ba5a-49d2-9a4e-f594fc6656bc","ios":"levelo://app?vid=2bae6adf-ba5a-49d2-9a4e-f594fc6656bc"},"vehicle_type_id":"4","last_reported":1687374307,"current_range_meters":7200,"station_id":"ce4bh3p2rcd13ifvqdp0","pricing_plan_id":"free"},{"bike_id":"5b9d18e3-c70f-48a1-ac62-fdc91cd6eace","system_id":"levelo_inurba_marseille","lat":43.295169,"lon":5.390426,"is_reserved":false,"is_disabled":false,"rental_uris":{"android":"levelo://app?vid=5b9d18e3-c70f-48a1-ac62-fdc91cd6eace","ios":"levelo://app?vid=5b9d18e3-c70f-48a1-ac62-fdc91cd6eace"},"vehicle_type_id":"4","last_reported":1687374307,"current_range_meters":24000,"station_id":"ce4bh3p2rcd13ifvqdp0","pricing_plan_id":"free"},{"bike_id":"48be1337-18bb-4f5b-9f4a-f348ffa82576","system_id":"levelo_inurba_marseille","lat":43.295169,"lon":5.390426,"is_reserved":false,"is_disabled":false,"rental_uris":{"android":"levelo://app?vid=48be1337-18bb-4f5b-9f4a-f348ffa82576","ios":"levelo://app?vid=48be1337-18bb-4f5b-9f4a-f348ffa82576"},"vehicle_type_id":"4","last_reported":1687374307,"current_range_meters":26800,"station_id":"ce4bh3p2rcd13ifvqdp0","pricing_plan_id":"free"},{"bike_id":"4325dade-c450-4452-851f-7375b724f6c1","system_id":"levelo_inurba_marseille","lat":43.295169,"lon":5.390426,"is_reserved":false,"is_disabled":false,"rental_uris":{"android":"levelo://app?vid=4325dade-c450-4452-851f-7375b724f6c1","ios":"levelo://app?vid=4325dade-c450-4452-851f-7375b724f6c1"},"vehicle_type_id":"4","last_reported":1687374307,"current_range_meters":4400,"station_id":"ce4bh3p2rcd13ifvqdp0","pricing_plan_id":"free"},{"bike_id":"5863179b-f4ba-4b0f-825a-f866a169f286","system_id":"levelo_inurba_marseille","lat":43.295169,"lon":5.390426,"is_reserved":false,"is_disabled":false,"rental_uris":{"android":"levelo://app?vid=5863179b-f4ba-4b0f-825a-f866a169f286","ios":"levelo://app?vid=5863179b-f4ba-4b0f-825a-f866a169f286"},"vehicle_type_id":"4","last_reported":1687374307,"current_range_meters":17200,"station_id":"ce4bh3p2rcd13ifvqdp0","pricing_plan_id":"free"},{"bike_id":"8d65dd23-0b17-4fbf-983c-3c139fe601d8","system_id":"levelo_inurba_marseille","lat":43.28856,"lon":5.358371,"is_reserved":false,"is_disabled":false,"rental_uris":{"android":"levelo://app?vid=8d65dd23-0b17-4fbf-983c-3c139fe601d8","ios":"levelo://app?vid=8d65dd23-0b17-4fbf-983c-3c139fe601d8"},"vehicle_type_id":"4","last_reported":1687374307,"current_range_meters":11200,"station_id":"ce4bhb12rcd13ifvqem0","pricing_plan_id":"free"},{"bike_id":"3603b98c-d176-47a8-9a9c-8dab6f513ce3","system_id":"levelo_inurba_marseille","lat":43.28845,"lon":5.35847,"is_reserved":false,"is_disabled":false,"rental_uris":{"android":"levelo://app?vid=3603b98c-d176-47a8-9a9c-8dab6f513ce3","ios":"levelo://app?vid=3603b98c-d176-47a8-9a9c-8dab6f513ce3"},"vehicle_type_id":"4","last_reported":1687374307,"current_range_meters":30400,"station_id":"ce4bhb12rcd13ifvqem0","pricing_plan_id":"free"},{"bike_id":"a85989fe-50c4-4617-82b5-b7f51254bfcc","system_id":"levelo_inurba_marseille","lat":43.33746,"lon":5.37486,"is_reserved":false,"is_disabled":false,"rental_uris":{"android":"levelo://app?vid=a85989fe-50c4-4617-82b5-b7f51254bfcc","ios":"levelo://app?vid=a85989fe-50c4-4617-82b5-b7f51254bfcc"},"vehicle_type_id":"4","last_reported":1687374307,"current_range_meters":2400,"station_id":"","pricing_plan_id":"free"},{"bike_id":"b0bd3bcb-bd35-4f75-8285-8f528f09b8d5","system_id":"levelo_inurba_marseille","lat":43.337575,"lon":5.374489,"is_reserved":false,"is_disabled":false,"rental_uris":{"android":"levelo://app?vid=b0bd3bcb-bd35-4f75-8285-8f528f09b8d5","ios":"levelo://app?vid=b0bd3bcb-bd35-4f75-8285-8f528f09b8d5"},"vehicle_type_id":"4","last_reported":1687374307,"current_range_meters":18800,"station_id":"","pricing_plan_id":"free"},{"bike_id":"e98fd470-ba5c-4335-83c7-0d48f777407a","system_id":"levelo_inurba_marseille","lat":43.33758,"lon":5.37454,"is_reserved":false,"is_disabled":false,"rental_uris":{"android":"levelo://app?vid=e98fd470-ba5c-4335-83c7-0d48f777407a","ios":"levelo://app?vid=e98fd470-ba5c-4335-83c7-0d48f777407a"},"vehicle_type_id":"4","last_reported":1687374307,"current_range_meters":30400,"station_id":"","pricing_plan_id":"free"},{"bike_id":"5e705e23-8304-47f9-a191-27f805dd51a1","system_id":"levelo_inurba_marseille","lat":43.286961,"lon":5.373785,"is_reserved":false,"is_disabled":false,"rental_uris":{"android":"levelo://app?vid=5e705e23-8304-47f9-a191-27f805dd51a1","ios":"levelo://app?vid=5e705e23-8304-47f9-a191-27f805dd51a1"},"vehicle_type_id":"4","last_reported":1687374307,"current_range_meters":16800,"station_id":"ce4bh3p2rcd13ifvqdq0","pricing_plan_id":"free"},{"bike_id":"40f18ab3-de4f-4fe7-8e6b-a1785a6f3ad8","system_id":"levelo_inurba_marseille","lat":43.28695,"lon":5.37388,"is_reserved":false,"is_disabled":false,"rental_uris":{"android":"levelo://app?vid=40f18ab3-de4f-4fe7-8e6b-a1785a6f3ad8","ios":"levelo://app?vid=40f18ab3-de4f-4fe7-8e6b-a1785a6f3ad8"},"vehicle_type_id":"4","last_reported":1687374307,"current_range_meters":22000,"station_id":"ce4bh3p2rcd13ifvqdq0","pricing_plan_id":"free"},{"bike_id":"d8fef59b-b5db-4d47-bd05-1f3c3c00b6d8","system_id":"levelo_inurba_marseille","lat":43.29522,"lon":5.39407,"is_reserved":false,"is_disabled":false,"rental_uris":{"android":"levelo://app?vid=d8fef59b-b5db-4d47-bd05-1f3c3c00b6d8","ios":"levelo://app?vid=d8fef59b-b5db-4d47-bd05-1f3c3c00b6d8"},"vehicle_type_id":"4","last_reported":1687374307,"current_range_meters":19200,"station_id":"ce4bh292rcd13ifvqdf0","pricing_plan_id":"free"},{"bike_id":"9ec0e20b-768a-4e30-ab18-c61eadb004ea","system_id":"levelo_inurba_marseille","lat":43.29036,"lon":5.38632,"is_reserved":false,"is_disabled":false,"rental_uris":{"android":"levelo://app?vid=9ec0e20b-768a-4e30-ab18-c61eadb004ea","ios":"levelo://app?vid=9ec0e20b-768a-4e30-ab18-c61eadb004ea"},"vehicle_type_id":"4","last_reported":1687374307,"current_range_meters":18400,"station_id":"ce4bh4p2rcd13ifvqe0g","pricing_plan_id":"free"},{"bike_id":"0b7a0829-d93e-4f8e-a924-72df73abfb35","system_id":"levelo_inurba_marseille","lat":43.29036,"lon":5.38634,"is_reserved":false,"is_disabled":false,"rental_uris":{"android":"levelo://app?vid=0b7a0829-d93e-4f8e-a924-72df73abfb35","ios":"levelo://app?vid=0b7a0829-d93e-4f8e-a924-72df73abfb35"},"vehicle_type_id":"4","last_reported":1687374307,"current_range_meters":0,"station_id":"ce4bh4p2rcd13ifvqe0g","pricing_plan_id":"free"},{"bike_id":"025e28d1-5b17-4f2d-961b-0c8792677464","system_id":"levelo_inurba_marseille","lat":43.290345,"lon":5.38646,"is_reserved":false,"is_disabled":false,"rental_uris":{"android":"levelo://app?vid=025e28d1-5b17-4f2d-961b-0c8792677464","ios":"levelo://app?vid=025e28d1-5b17-4f2d-961b-0c8792677464"},"vehicle_type_id":"4","last_reported":1687374307,"current_range_meters":8800,"station_id":"ce4bh4p2rcd13ifvqe0g","pricing_plan_id":"free"},{"bike_id":"bb917c7a-b8b3-4833-8bdd-da51f91f6943","system_id":"levelo_inurba_marseille","lat":43.290336,"lon":5.386425,"is_reserved":false,"is_disabled":false,"rental_uris":{"android":"levelo://app?vid=bb917c7a-b8b3-4833-8bdd-da51f91f6943","ios":"levelo://app?vid=bb917c7a-b8b3-4833-8bdd-da51f91f6943"},"vehicle_type_id":"4","last_reported":1687374307,"current_range_meters":31200,"station_id":"ce4bh4p2rcd13ifvqe0g","pricing_plan_id":"free"},{"bike_id":"55fe42c7-9015-42b5-9d90-f37a49a33f85","system_id":"levelo_inurba_marseille","lat":43.29513,"lon":5.39418,"is_reserved":false,"is_disabled":false,"rental_uris":{"android":"levelo://app?vid=55fe42c7-9015-42b5-9d90-f37a49a33f85","ios":"levelo://app?vid=55fe42c7-9015-42b5-9d90-f37a49a33f85"},"vehicle_type_id":"4","last_reported":1687374307,"current_range_meters":18800,"station_id":"ce4bh292rcd13ifvqdf0","pricing_plan_id":"free"},{"bike_id":"b75c4d41-d6ac-4ea5-90d3-d3f996a909b2","system_id":"levelo_inurba_marseille","lat":43.290336,"lon":5.386425,"is_reserved":false,"is_disabled":false,"rental_uris":{"android":"levelo://app?vid=b75c4d41-d6ac-4ea5-90d3-d3f996a909b2","ios":"levelo://app?vid=b75c4d41-d6ac-4ea5-90d3-d3f996a909b2"},"vehicle_type_id":"4","last_reported":1687374307,"current_range_meters":23200,"station_id":"ce4bh4p2rcd13ifvqe0g","pricing_plan_id":"free"},{"bike_id":"3b3b6fc4-04f6-4fb3-9323-5165f7ebbb1d","system_id":"levelo_inurba_marseille","lat":43.29031,"lon":5.3864,"is_reserved":false,"is_disabled":false,"rental_uris":{"android":"levelo://app?vid=3b3b6fc4-04f6-4fb3-9323-5165f7ebbb1d","ios":"levelo://app?vid=3b3b6fc4-04f6-4fb3-9323-5165f7ebbb1d"},"vehicle_type_id":"4","last_reported":1687374307,"current_range_meters":14000,"station_id":"ce4bh4p2rcd13ifvqe0g","pricing_plan_id":"free"},{"bike_id":"89037b5e-a96a-40f7-9202-87e4b58a3f71","system_id":"levelo_inurba_marseille","lat":43.290336,"lon":5.386425,"is_reserved":false,"is_disabled":false,"rental_uris":{"android":"levelo://app?vid=89037b5e-a96a-40f7-9202-87e4b58a3f71","ios":"levelo://app?vid=89037b5e-a96a-40f7-9202-87e4b58a3f71"},"vehicle_type_id":"4","last_reported":1687374307,"current_range_meters":1600,"station_id":"ce4bh4p2rcd13ifvqe0g","pricing_plan_id":"free"},{"bike_id":"15a710bb-c81a-4c76-993a-4760fb5f7780","system_id":"levelo_inurba_marseille","lat":43.29032,"lon":5.38649,"is_reserved":false,"is_disabled":false,"rental_uris":{"android":"levelo://app?vid=15a710bb-c81a-4c76-993a-4760fb5f7780","ios":"levelo://app?vid=15a710bb-c81a-4c76-993a-4760fb5f7780"},"vehicle_type_id":"4","last_reported":1687374307,"current_range_meters":0,"station_id":"ce4bh4p2rcd13ifvqe0g","pricing_plan_id":"free"},{"bike_id":"0f20ec1d-59c8-401b-abf2-25f8942edc46","system_id":"levelo_inurba_marseille","lat":43.290336,"lon":5.386425,"is_reserved":false,"is_disabled":false,"rental_uris":{"android":"levelo://app?vid=0f20ec1d-59c8-401b-abf2-25f8942edc46","ios":"levelo://app?vid=0f20ec1d-59c8-401b-abf2-25f8942edc46"},"vehicle_type_id":"4","last_reported":1687374307,"current_range_meters":15200,"station_id":"ce4bh4p2rcd13ifvqe0g","pricing_plan_id":"free"},{"bike_id":"f6d37fca-c024-401c-a2ae-3cef5c526789","system_id":"levelo_inurba_marseille","lat":43.290336,"lon":5.386425,"is_reserved":false,"is_disabled":false,"rental_uris":{"android":"levelo://app?vid=f6d37fca-c024-401c-a2ae-3cef5c526789","ios":"levelo://app?vid=f6d37fca-c024-401c-a2ae-3cef5c526789"},"vehicle_type_id":"4","last_reported":1687374307,"current_range_meters":21200,"station_id":"ce4bh4p2rcd13ifvqe0g","pricing_plan_id":"free"},{"bike_id":"b5da54ab-99ee-4890-894d-3d7e59d1b1df","system_id":"levelo_inurba_marseille","lat":43.290336,"lon":5.386425,"is_reserved":false,"is_disabled":false,"rental_uris":{"android":"levelo://app?vid=b5da54ab-99ee-4890-894d-3d7e59d1b1df","ios":"levelo://app?vid=b5da54ab-99ee-4890-894d-3d7e59d1b1df"},"vehicle_type_id":"4","last_reported":1687374307,"current_range_meters":12400,"station_id":"ce4bh4p2rcd13ifvqe0g","pricing_plan_id":"free"},{"bike_id":"a69611a4-4427-48f1-8cf5-68e91a38613f","system_id":"levelo_inurba_marseille","lat":43.286132,"lon":5.370631,"is_reserved":false,"is_disabled":false,"rental_uris":{"android":"levelo://app?vid=a69611a4-4427-48f1-8cf5-68e91a38613f","ios":"levelo://app?vid=a69611a4-4427-48f1-8cf5-68e91a38613f"},"vehicle_type_id":"4","last_reported":1687374307,"current_range_meters":0,"station_id":"ce4bht12rcd13ifvqi60","pricing_plan_id":"free"},{"bike_id":"5942720f-225c-431f-9a4e-4e2cc97bb64d","system_id":"levelo_inurba_marseille","lat":43.286039,"lon":5.370679,"is_reserved":false,"is_disabled":false,"rental_uris":{"android":"levelo://app?vid=5942720f-225c-431f-9a4e-4e2cc97bb64d","ios":"levelo://app?vid=5942720f-225c-431f-9a4e-4e2cc97bb64d"},"vehicle_type_id":"4","last_reported":1687374307,"current_range_meters":18800,"station_id":"ce4bht12rcd13ifvqi60","pricing_plan_id":"free"},{"bike_id":"2f435e18-b20f-4ced-a99d-40006f709dcc","system_id":"levelo_inurba_marseille","lat":43.28611,"lon":5.37072,"is_reserved":false,"is_disabled":false,"rental_uris":{"android":"levelo://app?vid=2f435e18-b20f-4ced-a99d-40006f709dcc","ios":"levelo://app?vid=2f435e18-b20f-4ced-a99d-40006f709dcc"},"vehicle_type_id":"4","last_reported":1687374307,"current_range_meters":31200,"station_id":"ce4bht12rcd13ifvqi60","pricing_plan_id":"free"},{"bike_id":"27dd372c-dbcd-41a2-ace5-9edec5922638","system_id":"levelo_inurba_marseille","lat":43.291994,"lon":5.392907,"is_reserved":false,"is_disabled":false,"rental_uris":{"android":"levelo://app?vid=27dd372c-dbcd-41a2-ace5-9edec5922638","ios":"levelo://app?vid=27dd372c-dbcd-41a2-ace5-9edec5922638"},"vehicle_type_id":"4","last_reported":1687374307,"current_range_meters":1200,"station_id":"ce4bh192rcd13ifvqdd0","pricing_plan_id":"free"},