{"last_updated":1749868108,"ttl":60,"version":"2.2","data":{"bikes":[{"bike_id":"b31f0139-170f-4194-984f-4386218a1e9d","system_id":"levelo_inurba_marseille","lat":43.33771,"lon":5.37424,"is_reserved":false,"is_disabled":true,"rental_uris":{"android":"levelo://app?vid=b31f0139-170f-4194-984f-4386218a1e9d","ios":"levelo://app?vid=b31f0139-170f-4194-984f-4386218a1e9d"},"vehicle_type_id":"4","last_reported":1749868108,"current_range_meters":0,"station_id":"","pricing_plan_id":"cebpf4jnsgd1na2vs0mg"},{"bike_id":"1acfb620-cad7-48c0-8901-d7a5b74a5b65","system_id":"levelo_inurba_marseille","lat":43.33751,"lon":5.37456,"is_reserved":false,"is_disabled":true,"rental_uris":{"android":"levelo://app?vid=1acfb620-cad7-48c0-8901-d7a5b74a5b65","ios":"levelo://app?vid=1acfb620-cad7-48c0-8901-d7a5b74a5b65"},"vehicle_type_id":"4","last_reported":1749868108,"current_range_meters":1200,"station_id":"","pricing_plan_id":"cebpf4jnsgd1na2vs0mg"},{"bike_id":"bf89d78c-eb96-40d5-beb0-f402ef102cc1","system_id":"levelo_inurba_marseille","lat":43.337444,"lon":5.374475,"is_reserved":false,"is_disabled":true,"rental_uris":{"android":"levelo://app?vid=bf89d78c-eb96-40d5-beb0-f402ef102cc1","ios":"levelo://app?vid=bf89d78c-eb96-40d5-beb0-f402ef102cc1"},"vehicle_type_id":"4","last_reported":1749868108,"current_range_meters":0,"station_id":"","pricing_plan_id":"cebpf4jnsgd1na2vs0mg"},{"bike_id":"5077581b-cebb-46fc-ba69-4fa8272d4810","system_id":"levelo_inurba_marseille","lat":43.213676,"lon":5.355175,"is_reserved":false,"is_disabled":true,"rental_uris":{"android":"levelo://app?vid=5077581b-cebb-46fc-ba69-4fa8272d4810","ios":"levelo://app?vid=5077581b-cebb-46fc-ba69-4fa8272d4810"},"vehicle_type_id":"4","last_reported":1749868108,"current_range_meters":0,"station_id":"","pricing_plan_id":"cebpf4jnsgd1na2vs0mg"},{"bike_id":"7c6a9c32-3bbe-4d4c-8294-1969d0688a87","system_id":"levelo_inurba_marseille","lat":43.28454,"lon":5.42052,"is_reserved":false,"is_disabled":true,"rental_uris":{"android":"levelo://app?vid=7c6a9c32-3bbe-4d4c-8294-1969d0688a87","ios":"levelo://app?vid=7c6a9c32-3bbe-4d4c-8294-1969d0688a87"},"vehicle_type_id":"4","last_reported":1749868108,"current_range_meters":0,"station_id":"","pricing_plan_id":"cebpf4jnsgd1na2vs0mg"},{"bike_id":"66b1cbfb-c132-4ef4-922c-0beab9b5a350","system_id":"levelo_inurba_marseille","lat":43.29744,"lon":5.45936,"is_reserved":false,"is_disabled":true,"rental_uris":{"android":"levelo://app?vid=66b1cbfb-c132-4ef4-922c-0beab9b5a350","ios":"levelo://app?vid=66b1cbfb-c132-4ef4-922c-0beab9b5a350"},"vehicle_type_id":"4","last_reported":1749868108,"current_range_meters":0,"station_id":"","pricing_plan_id":"cebpf4jnsgd1na2vs0mg"},{"bike_id":"2734d895-94b4-40fd-acdc-d9092a90ff58","system_id":"levelo_inurba_marseille","lat":43.3057,"lon":5.37313,"is_reserved":false,"is_disabled":true,"rental_uris":{"android":"levelo://app?vid=2734d895-94b4-40fd-acdc-d9092a90ff58","ios":"levelo://app?vid=2734d895-94b4-40fd-acdc-d9092a90ff58"},"vehicle_type_id":"4","last_reported":1749868108,"current_range_meters":0,"station_id":"","pricing_plan_id":"cebpf4jnsgd1na2vs0mg"},{"bike_id":"492f4bbd-1190-4ef2-b66a-479ffe91b09b","system_id":"levelo_inurba_marseille","lat":43.337444,"lon":5.374475,"is_reserved":false,"is_disabled":true,"rental_uris":{"android":"levelo://app?vid=492f4bbd-1190-4ef2-b66a-479ffe91b09b","ios":"levelo://app?vid=492f4bbd-1190-4ef2-b66a-479ffe91b09b"},"vehicle_type_id":"4","last_reported":1749868108,"current_range_meters":0,"station_id":"","pricing_plan_id":"cebpf4jnsgd1na2vs0mg"},{"bike_id":"a9b6bf99-4070-4437-bb20-72962ae30b90","system_id":"levelo_inurba_marseille","lat":43.27462,"lon":5.36391,"is_reserved":false,"is_disabled":true,"rental_uris":{"android":"levelo://app?vid=a9b6bf99-4070-4437-bb20-72962ae30b90","ios":"levelo://app?vid=a9b6bf99-4070-4437-bb20-72962ae30b90"},"vehicle_type_id":"4","last_reported":1749868108,"current_range_meters":0,"station_id":"","pricing_plan_id":"cebpf4jnsgd1na2vs0mg"},{"bike_id":"1e1e2e59-0e50-462c-a621-3c291715622a","system_id":"levelo_inurba_marseille","lat":43.293152,"lon":5.374624,"is_reserved":false,"is_disabled":false,"rental_uris":{"android":"levelo://app?vid=1e1e2e59-0e50-462c-a621-3c291715622a","ios":"levelo://app?vid=1e1e2e59-0e50-462c-a621-3c291715622a"},"vehicle_type_id":"4","last_reported":1749868108,"current_range_meters":0,"station_id":"ce4bgi12rcd13ifvqb70","pricing_plan_id":"cebpf4jnsgd1na2vs0mg"},{"bike_id":"78ae3a63-8d2c-4689-a0ee-340bfa182a32","system_id":"levelo_inurba_marseille","lat":43.309165,"lon":5.368532,"is_reserved":false,"is_disabled":true,"rental_uris":{"android":"levelo://app?vid=78ae3a63-8d2c-4689-a0ee-340bfa182a32","ios":"levelo://app?vid=78ae3a63-8d2c-4689-a0ee-340bfa182a32"},"vehicle_type_id":"4","last_reported":1749868108,"current_range_meters":0,"station_id":"ce4bgn92rcd13ifvqbvg","pricing_plan_id":"cebpf4jnsgd1na2vs0mg"},{"bike_id":"54931d15-4153-4296-add6-a2169e0950d6","system_id":"levelo_inurba_marseille","lat":43.28471,"lon":5.35883,"is_reserved":false,"is_disabled":true,"rental_uris":{"android":"levelo://app?vid=54931d15-4153-4296-add6-a2169e0950d6","ios":"levelo://app?vid=54931d15-4153-4296-add6-a2169e0950d6"},"vehicle_type_id":"4","last_reported":1749868108,"current_range_meters":0,"station_id":"ce4bhah2rcd13ifvqei0","pricing_plan_id":"cebpf4jnsgd1na2vs0mg"},{"bike_id":"ee026439-a117-4b92-9293-856e39fd999b","system_id":"levelo_inurba_marseille","lat":43.29896,"lon":5.4367,"is_reserved":false,"is_disabled":true,"rental_uris":{"android":"levelo://app?vid=ee026439-a117-4b92-9293-856e39fd999b","ios":"levelo://app?vid=ee026439-a117-4b92-9293-856e39fd999b"},"vehicle_type_id":"4","last_reported":1749868108,"current_range_meters":0,"station_id":"ce4bhpp2rcd13ifvqhfg","pricing_plan_id":"cebpf4jnsgd1na2vs0mg"},{"bike_id":"468c9466-ef13-4614-935a-eb2e14a13716","system_id":"levelo_inurba_marseille","lat":43.27336,"lon":5.40263,"is_reserved":false,"is_disabled":true,"rental_uris":{"android":"levelo://app?vid=468c9466-ef13-4614-935a-eb2e14a13716","ios":"levelo://app?vid=468c9466-ef13-4614-935a-eb2e14a13716"},"vehicle_type_id":"4","last_reported":1749868108,"current_range_meters":800,"station_id":"","pricing_plan_id":"cebpf4jnsgd1na2vs0mg"},{"bike_id":"7959fccd-54ba-4075-a5be-cc74caeb4854","system_id":"levelo_inurba_marseille","lat":43.2976,"lon":5.4601,"is_reserved":false,"is_disabled":true,"rental_uris":{"android":"levelo://app?vid=7959fccd-54ba-4075-a5be-cc74caeb4854","ios":"levelo://app?vid=7959fccd-54ba-4075-a5be-cc74caeb4854"},"vehicle_type_id":"4","last_reported":1749868108,"current_range_meters":1200,"station_id":"","pricing_plan_id":"cebpf4jnsgd1na2vs0mg"},{"bike_id":"a11f4dfa-a83b-4056-b2fe-4e576341470d","system_id":"levelo_inurba_marseille","lat":43.30139,"lon":5.3741,"is_reserved":false,"is_disabled":true,"rental_uris":{"android":"levelo://app?vid=a11f4dfa-a83b-4056-b2fe-4e576341470d","ios":"levelo://app?vid=a11f4dfa-a83b-4056-b2fe-4e576341470d"},"vehicle_type_id":"4","last_reported":1749868108,"current_range_meters":1200,"station_id":"ce4bgs92rcd13ifvqcc0","pricing_plan_id":"cebpf4jnsgd1na2vs0mg"},{"bike_id":"6498fdc8-183a-43c6-9706-8a7e8c9a3e92","system_id":"levelo_inurba_marseille","lat":43.28635,"lon":5.35132,"is_reserved":false,"is_disabled":true,"rental_uris":{"android":"levelo://app?vid=6498fdc8-183a-43c6-9706-8a7e8c9a3e92","ios":"levelo://app?vid=6498fdc8-183a-43c6-9706-8a7e8c9a3e92"},"vehicle_type_id":"4","last_reported":1749868108,"current_range_meters":1200,"station_id":"ce4bhch2rcd13ifvqeug","pricing_plan_id":"cebpf4jnsgd1na2vs0mg"},{"bike_id":"0782fdc8-cb3a-4957-bfc8-7584c1162b3f","system_id":"levelo_inurba_marseille","lat":43.32654,"lon":5.40998,"is_reserved":false,"is_disabled":true,"rental_uris":{"android":"levelo://app?vid=0782fdc8-cb3a-4957-bfc8-7584c1162b3f","ios":"levelo://app?vid=0782fdc8-cb3a-4957-bfc8-7584c1162b3f"},"vehicle_type_id":"4","last_reported":1749868108,"current_range_meters":1200,"station_id":"ce4bhpp2rcd13ifvqhgg","pricing_plan_id":"cebpf4jnsgd1na2vs0mg"},{"bike_id":"bbb02913-c6bc-48cc-9429-24d0d9829817","system_id":"levelo_inurba_marseille","lat":43.32324,"lon":5.40617,"is_reserved":false,"is_disabled":true,"rental_uris":{"android":"levelo://app?vid=bbb02913-c6bc-48cc-9429-24d0d9829817","ios":"levelo://app?vid=bbb02913-c6bc-48cc-9429-24d0d9829817"},"vehicle_type_id":"4","last_reported":1749868108,"current_range_meters":1200,"station_id":"ce4bhq92rcd13ifvqhjg","pricing_plan_id":"cebpf4jnsgd1na2vs0mg"},{"bike_id":"680f25b5-bdd7-4ea2-8873-44c8e80aad4a","system_id":"levelo_inurba_marseille","lat":43.277514,"lon":5.426102,"is_reserved":false,"is_disabled":true,"rental_uris":{"android":"levelo://app?vid=680f25b5-bdd7-4ea2-8873-44c8e80aad4a","ios":"levelo://app?vid=680f25b5-bdd7-4ea2-8873-44c8e80aad4a"},"vehicle_type_id":"4","last_reported":1749868108,"current_range_meters":2000,"station_id":"","pricing_plan_id":"cebpf4jnsgd1na2vs0mg"},{"bike_id":"305405b5-0016-4568-a965-d95bba63cdf9","system_id":"levelo_inurba_marseille","lat":43.30145,"lon":5.38777,"is_reserved":false,"is_disabled":false,"rental_uris":{"android":"levelo://app?vid=305405b5-0016-4568-a965-d95bba63cdf9","ios":"levelo://app?vid=305405b5-0016-4568-a965-d95bba63cdf9"},"vehicle_type_id":"4","last_reported":1749868108,"current_range_meters":4000,"station_id":"ce4bghh2rcd13ifvqb60","pricing_plan_id":"cebpf4jnsgd1na2vs0mg"},{"bike_id":"41b11fe5-1f5f-4e1f-9a52-42289b4e0100","system_id":"levelo_inurba_marseille","lat":43.31115,"lon":5.37776,"is_reserved":false,"is_disabled":false,"rental_uris":{"android":"levelo://app?vid=41b11fe5-1f5f-4e1f-9a52-42289b4e0100","ios":"levelo://app?vid=41b11fe5-1f5f-4e1f-9a52-42289b4e0100"},"vehicle_type_id":"4","last_reported":1749868108,"current_range_meters":4000,"station_id":"ce4bgt92rcd13ifvqcg0","pricing_plan_id":"cebpf4jnsgd1na2vs0mg"},{"bike_id":"a426bcb6-9733-433a-b425-ccc13f254a65","system_id":"levelo_inurba_marseille","lat":43.29561,"lon":5.44255,"is_reserved":false,"is_disabled":false,"rental_uris":{"android":"levelo://app?vid=a426bcb6-9733-433a-b425-ccc13f254a65","ios":"levelo://app?vid=a426bcb6-9733-433a-b425-ccc13f254a65"},"vehicle_type_id":"4","last_reported":1749868108,"current_range_meters":4400,"station_id":"","pricing_plan_id":"cebpf4jnsgd1na2vs0mg"},{"bike_id":"49219349-c447-4162-b2ce-22bf3a0aea64","system_id":"levelo_inurba_marseille","lat":43.29257,"lon":5.40907,"is_reserved":false,"is_disabled":false,"rental_uris":{"android":"levelo://app?vid=49219349-c447-4162-b2ce-22bf3a0aea64","ios":"levelo://app?vid=49219349-c447-4162-b2ce-22bf3a0aea64"},"vehicle_type_id":"4","last_reported":1749868108,"current_range_meters":4400,"station_id":"ce4bh192rcd13ifvqdc0","pricing_plan_id":"cebpf4jnsgd1na2vs0mg"},{"bike_id":"5546c2c5-38d9-478b-acf3-fd93ad222758","system_id":"levelo_inurba_marseille","lat":43.29948,"lon":5.39802,"is_reserved":false,"is_disabled":false,"rental_uris":{"android":"levelo://app?vid=5546c2c5-38d9-478b-acf3-fd93ad222758","ios":"levelo://app?vid=5546c2c5-38d9-478b-acf3-fd93ad222758"},"vehicle_type_id":"4","last_reported":1749868108,"current_range_meters":4800,"station_id":"ce4bh0h2rcd13ifvqd50","pricing_plan_id":"cebpf4jnsgd1na2vs0mg"},{"bike_id":"c6b62ed0-65b8-4512-8b3d-d73f29778c9f","system_id":"levelo_inurba_marseille","lat":43.337444,"lon":5.374475,"is_reserved":false,"is_disabled":false,"rental_uris":{"android":"levelo://app?vid=c6b62ed0-65b8-4512-8b3d-d73f29778c9f","ios":"levelo://app?vid=c6b62ed0-65b8-4512-8b3d-d73f29778c9f"},"vehicle_type_id":"4","last_reported":1749868108,"current_range_meters":5600,"station_id":"","pricing_plan_id":"cebpf4jnsgd1na2vs0mg"},{"bike_id":"8d60347d-541c-40fb-90ca-203bf6bd520a","system_id":"levelo_inurba_marseille","lat":43.271188,"lon":5.363999,"is_reserved":false,"is_disabled":false,"rental_uris":{"android":"levelo://app?vid=8d60347d-541c-40fb-90ca-203bf6bd520a","ios":"levelo://app?vid=8d60347d-541c-40fb-90ca-203bf6bd520a"},"vehicle_type_id":"4","last_reported":1749868108,"current_range_meters":5600,"station_id":"","pricing_plan_id":"cebpf4jnsgd1na2vs0mg"},{"bike_id":"0476bd61-3fe7-405c-9622-2b838f88aa84","system_id":"levelo_inurba_marseille","lat":43.3097,"lon":5.40566,"is_reserved":false,"is_disabled":false,"rental_uris":{"android":"levelo://app?vid=0476bd61-3fe7-405c-9622-2b838f88aa84","ios":"levelo://app?vid=0476bd61-3fe7-405c-9622-2b838f88aa84"},"vehicle_type_id":"4","last_reported":1749868108,"current_range_meters":5600,"station_id":"","pricing_plan_id":"cebpf4jnsgd1na2vs0mg"},{"bike_id":"8a488244-b013-420e-9c2b-4c04a75d9b62","system_id":"levelo_inurba_marseille","lat":43.29555,"lon":5.42296,"is_reserved":false,"is_disabled":false,"rental_uris":{"android":"levelo://app?vid=8a488244-b013-420e-9c2b-4c04a75d9b62","ios":"levelo://app?vid=8a488244-b013-420e-9c2b-4c04a75d9b62"},"vehicle_type_id":"4","last_reported":1749868108,"current_range_meters":5600,"station_id":"ce4bhph2rcd13ifvqhdg","pricing_plan_id":"cebpf4jnsgd1na2vs0mg"},{"bike_id":"1268e070-f02d-4537-93df-0bfd5c4daa05","system_id":"levelo_inurba_marseille","lat":43.32722,"lon":5.37634,"is_reserved":false,"is_disabled":false,"rental_uris":{"android":"levelo://app?vid=1268e070-f02d-4537-93df-0bfd5c4daa05","ios":"levelo://app?vid=1268e070-f02d-4537-93df-0bfd5c4daa05"},"vehicle_type_id":"4","last_reported":1749868108,"current_range_meters":6000,"station_id":"","pricing_plan_id":"cebpf4jnsgd1na2vs0mg"},{"bike_id":"71d13df3-56f1-48e0-948b-2275785c1073","system_id":"levelo_inurba_marseille","lat":43.24011,"lon":5.36261,"is_reserved":false,"is_disabled":false,"rental_uris":{"android":"levelo://app?vid=71d13df3-56f1-48e0-948b-2275785c1073","ios":"levelo://app?vid=71d13df3-56f1-48e0-948b-2275785c1073"},"vehicle_type_id":"4","last_reported":1749868108,"current_range_meters":6000,"station_id":"","pricing_plan_id":"cebpf4jnsgd1na2vs0mg"},{"bike_id":"97421c04-2630-4fc1-9da9-b17d88602c5f","system_id":"levelo_inurba_marseille","lat":43.337682,"lon":5.374519,"is_reserved":false,"is_disabled":false,"rental_uris":{"android":"levelo://app?vid=97421c04-2630-4fc1-9da9-b17d88602c5f","ios":"levelo://app?vid=97421c04-2630-4fc1-9da9-b17d88602c5f"},"vehicle_type_id":"4","last_reported":1749868108,"current_range_meters":6000,"station_id":"","pricing_plan_id":"cebpf4jnsgd1na2vs0mg"},{"bike_id":"cf78a8d1-737a-457b-9823-d537fc9e0588","system_id":"levelo_inurba_marseille","lat":43.3031,"lon":5.39216,"is_reserved":false,"is_disabled":false,"rental_uris":{"android":"levelo://app?vid=cf78a8d1-737a-457b-9823-d537fc9e0588","ios":"levelo://app?vid=cf78a8d1-737a-457b-9823-d537fc9e0588"},"vehicle_type_id":"4","last_reported":1749868108,"current_range_meters":6000,"station_id":"ce4bgkh2rcd13ifvqbk0","pricing_plan_id":"cebpf4jnsgd1na2vs0mg"},{"bike_id":"ae9ee8f9-6c71-4646-b44f-7b250dda2bae","system_id":"levelo_inurba_marseille","lat":43.285657,"lon":5.395087,"is_reserved":false,"is_disabled":false,"rental_uris":{"android":"levelo://app?vid=ae9ee8f9-6c71-4646-b44f-7b250dda2bae","ios":"levelo://app?vid=ae9ee8f9-6c71-4646-b44f-7b250dda2bae"},"vehicle_type_id":"4","last_reported":1749868108,"current_range_meters":6000,"station_id":"ce4bh292rcd13ifvqdg0","pricing_plan_id":"cebpf4jnsgd1na2vs0mg"},{"bike_id":"0879259b-2bc9-40a3-acfb-0226bf921609","system_id":"levelo_inurba_marseille","lat":43.28439,"lon":5.39213,"is_reserved":false,"is_disabled":false,"rental_uris":{"android":"levelo://app?vid=0879259b-2bc9-40a3-acfb-0226bf921609","ios":"levelo://app?vid=0879259b-2bc9-40a3-acfb-0226bf921609"},"vehicle_type_id":"4","last_reported":1749868108,"current_range_meters":6000,"station_id":"ce4bhoh2rcd13ifvqh5g","pricing_plan_id":"cebpf4jnsgd1na2vs0mg"},{"bike_id":"2b086ad2-0a98-4545-84df-596fa64357aa","system_id":"levelo_inurba_marseille","lat":43.29282,"lon":5.36838,"is_reserved":false,"is_disabled":false,"rental_uris":{"android":"levelo://app?vid=2b086ad2-0a98-4545-84df-596fa64357aa","ios":"levelo://app?vid=2b086ad2-0a98-4545-84df-596fa64357aa"},"vehicle_type_id":"4","last_reported":1749868108,"current_range_meters":6400,"station_id":"ce4bhbp2rcd13ifvqesg","pricing_plan_id":"cebpf4jnsgd1na2vs0mg"},{"bike_id":"5b3cec8e-9931-44ad-ad28-d1c8d55ff1c8","system_id":"levelo_inurba_marseille","lat":43.28854,"lon":5.3587,"is_reserved":false,"is_disabled":false,"rental_uris":{"android":"levelo://app?vid=5b3cec8e-9931-44ad-ad28-d1c8d55ff1c8","ios":"levelo://app?vid=5b3cec8e-9931-44ad-ad28-d1c8d55ff1c8"},"vehicle_type_id":"4","last_reported":1749868108,"current_range_meters":6800,"station_id":"ce4bhb12rcd13ifvqem0","pricing_plan_id":"cebpf4jnsgd1na2vs0mg"},{"bike_id":"62a2e494-dad9-4d13-be6a-74b8c894f20d","system_id":"levelo_inurba_marseille","lat":43.24549,"lon":5.39519,"is_reserved":false,"is_disabled":false,"rental_uris":{"android":"levelo://app?vid=62a2e494-dad9-4d13-be6a-74b8c894f20d","ios":"levelo://app?vid=62a2e494-dad9-4d13-be6a-74b8c894f20d"},"vehicle_type_id":"4","last_reported":1749868108,"current_range_meters":6800,"station_id":"ce4bhlp2rcd13ifvqgjg","pricing_plan_id":"cebpf4jnsgd1na2vs0mg"},{"bike_id":"d9be8431-1098-4c2d-b533-c5666589794d","system_id":"levelo_inurba_marseille","lat":43.304017,"lon":5.41285,"is_reserved":false,"is_disabled":false,"rental_uris":{"android":"levelo://app?vid=d9be8431-1098-4c2d-b533-c5666589794d","ios":"levelo://app?vid=d9be8431-1098-4c2d-b533-c5666589794d"},"vehicle_type_id":"4","last_reported":1749868108,"current_range_meters":6800,"station_id":"ce4bhop2rcd13ifvqh8g","pricing_plan_id":"cebpf4jnsgd1na2vs0mg"},{"bike_id":"5297bee2-f424-4d43-a5c7-133862e090c8","system_id":"levelo_inurba_marseille","lat":43.29801,"lon":5.39338,"is_reserved":false,"is_disabled":false,"rental_uris":{"android":"levelo://app?vid=5297bee2-f424-4d43-a5c7-133862e090c8","ios":"levelo://app?vid=5297bee2-f424-4d43-a5c7-133862e090c8"},"vehicle_type_id":"4","last_reported":1749868108,"current_range_meters":6800,"station_id":"chh1huq6cuj3fo74tm60","pricing_plan_id":"cebpf4jnsgd1na2vs0mg"},{"bike_id":"1915255f-ff05-448b-bd5c-bcd55b7449d7","system_id":"levelo_inurba_marseille","lat":43.28766,"lon":5.373643,"is_reserved":false,"is_disabled":false,"rental_uris":{"android":"levelo://app?vid=1915255f-ff05-448b-bd5c-bcd55b7449d7","ios":"levelo://app?vid=1915255f-ff05-448b-bd5c-bcd55b7449d7"},"vehicle_type_id":"4","last_reported":1749868108,"current_range_meters":7200,"station_id":"","pricing_plan_id":"cebpf4jnsgd1na2vs0mg"},{"bike_id":"8e3fb325-f117-48bf-8c3e-9b779b43fae9","system_id":"levelo_inurba_marseille","lat":43.30941,"lon":5.40156,"is_reserved":false,"is_disabled":false,"rental_uris":{"android":"levelo://app?vid=8e3fb325-f117-48bf-8c3e-9b779b43fae9","ios":"levelo://app?vid=8e3fb325-f117-48bf-8c3e-9b779b43fae9"},"vehicle_type_id":"4","last_reported":1749868108,"current_range_meters":7200,"station_id":"ce4bgvp2rcd13ifvqct0","pricing_plan_id":"cebpf4jnsgd1na2vs0mg"},{"bike_id":"c6402700-3934-4e7c-97c6-534f1b959220","system_id":"levelo_inurba_marseille","lat":43.29888,"lon":5.39741,"is_reserved":false,"is_disabled":false,"rental_uris":{"android":"levelo://app?vid=c6402700-3934-4e7c-97c6-534f1b959220","ios":"levelo://app?vid=c6402700-3934-4e7c-97c6-534f1b959220"},"vehicle_type_id":"4","last_reported":1749868108,"current_range_meters":7200,"station_id":"ce4bh0h2rcd13ifvqd50","pricing_plan_id":"cebpf4jnsgd1na2vs0mg"},{"bike_id":"93a4505f-972b-49df-9aae-3fcef138ade0","system_id":"levelo_inurba_marseille","lat":43.28595,"lon":5.39501,"is_reserved":false,"is_disabled":false,"rental_uris":{"android":"levelo://app?vid=93a4505f-972b-49df-9aae-3fcef138ade0","ios":"levelo://app?vid=93a4505f-972b-49df-9aae-3fcef138ade0"},"vehicle_type_id":"4","last_reported":1749868108,"current_range_meters":7200,"station_id":"ce4bh292rcd13ifvqdg0","pricing_plan_id":"cebpf4jnsgd1na2vs0mg"},{"bike_id":"4ab7f1c5-b1e3-4bdd-bee5-a8d0500e2fb8","system_id":"levelo_inurba_marseille","lat":43.337685,"lon":5.3748,"is_reserved":false,"is_disabled":false,"rental_uris":{"android":"levelo://app?vid=4ab7f1c5-b1e3-4bdd-bee5-a8d0500e2fb8","ios":"levelo://app?vid=4ab7f1c5-b1e3-4bdd-bee5-a8d0500e2fb8"},"vehicle_type_id":"4","last_reported":1749868108,"current_range_meters":8000,"station_id":"","pricing_plan_id":"cebpf4jnsgd1na2vs0mg"},{"bike_id":"49b5f542-caea-4d85-8531-e56891e58e61","system_id":"levelo_inurba_marseille","lat":43.31098,"lon":5.37772,"is_reserved":false,"is_disabled":false,"rental_uris":{"android":"levelo://app?vid=49b5f542-caea-4d85-8531-e56891e58e61","ios":"levelo://app?vid=49b5f542-caea-4d85-8531-e56891e58e61"},"vehicle_type_id":"4","last_reported":1749868108,"current_range_meters":8000,"station_id":"ce4bgt92rcd13ifvqcg0","pricing_plan_id":"cebpf4jnsgd1na2vs0mg"},{"bike_id":"3fa6d77e-b798-445c-8318-6ba673387574","system_id":"levelo_inurba_marseille","lat":43.2315,"lon":5.43718,"is_reserved":false,"is_disabled":false,"rental_uris":{"android":"levelo://app?vid=3fa6d77e-b798-445c-8318-6ba673387574","ios":"levelo://app?vid=3fa6d77e-b798-445c-8318-6ba673387574"},"vehicle_type_id":"4","last_reported":1749868108,"current_range_meters":8000,"station_id":"ce4bhmp2rcd13ifvqgog","pricing_plan_id":"cebpf4jnsgd1na2vs0mg"},{"bike_id":"c8a3b4cb-3cd4-4967-a12d-4ab510c17ee6","system_id":"levelo_inurba_marseille","lat":43.28702,"lon":5.39989,"is_reserved":false,"is_disabled":false,"rental_uris":{"android":"levelo://app?vid=c8a3b4cb-3cd4-4967-a12d-4ab510c17ee6","ios":"levelo://app?vid=c8a3b4cb-3cd4-4967-a12d-4ab510c17ee6"},"vehicle_type_id":"4","last_reported":1749868108,"current_range_meters":8000,"station_id":"ce4bho92rcd13ifvqh3g","pricing_plan_id":"cebpf4jnsgd1na2vs0mg"},{"bike_id":"3a11c5a8-e636-4a8e-97c5-5f95a0b7cfbb","system_id":"levelo_inurba_marseille","lat":43.33758,"lon":5.39214,"is_reserved":false,"is_disabled":false,"rental_uris":{"android":"levelo://app?vid=3a11c5a8-e636-4a8e-97c5-5f95a0b7cfbb","ios":"levelo://app?vid=3a11c5a8-e636-4a8e-97c5-5f95a0b7cfbb"},"vehicle_type_id":"4","last_reported":1749868108,"current_range_meters":8400,"station_id":"","pricing_plan_id":"cebpf4jnsgd1na2vs0mg"},{"bike_id":"74c0c7b9-edbc-424d-a73a-b36142eed4c8","system_id":"levelo_inurba_marseille","lat":43.32097,"lon":5.36834,"is_reserved":false,"is_disabled":false,"rental_uris":{"android":"levelo://app?vid=74c0c7b9-edbc-424d-a73a-b36142eed4c8","ios":"levelo://app?vid=74c0c7b9-edbc-424d-a73a-b36142eed4c8"},"vehicle_type_id":"4","last_reported":1749868108,"current_range_meters":8400,"station_id":"","pricing_plan_id":"cebpf4jnsgd1na2vs0mg"},{"bike_id":"e49fb349-10f0-4406-ac8a-76de68b428f5","system_id":"levelo_inurba_marseille","lat":43.294,"lon":5.39378,"is_reserved":false,"is_disabled":false,"rental_uris":{"android":"levelo://app?vid=e49fb349-10f0-4406-ac8a-76de68b428f5","ios":"levelo://app?vid=e49fb349-10f0-4406-ac8a-76de68b428f5"},"vehicle_type_id":"4","last_reported":1749868108,"current_range_meters":8400,"station_id":"","pricing_plan_id":"cebpf4jnsgd1na2vs0mg"},{"bike_id":"e5ef7447-82af-477b-846f-d44631249354","system_id":"levelo_inurba_marseille","lat":43.324796,"lon":5.388277,"is_reserved":false,"is_disabled":false,"rental_uris":{"android":"levelo://app?vid=e5ef7447-82af-477b-846f-d44631249354","ios":"levelo://app?vid=e5ef7447-82af-477b-846f-d44631249354"},"vehicle_type_id":"4","last_reported":1749868108,"current_range_meters":8400,"station_id":"","pricing_plan_id":"cebpf4jnsgd1na2vs0mg"},{"bike_id":"ed168f2a-37ce-4cd1-8dd2-bd099eef7ea3","system_id":"levelo_inurba_marseille","lat":43.3021,"lon":5.39475,"is_reserved":false,"is_disabled":false,"rental_uris":{"android":"levelo://app?vid=ed168f2a-37ce-4cd1-8dd2-bd099eef7ea3","ios":"levelo://app?vid=ed168f2a-37ce-4cd1-8dd2-bd099eef7ea3"},"vehicle_type_id":"4","last_reported":1749868108,"current_range_meters":8400,"station_id":"ce4bh0p2rcd13ifvqd70","pricing_plan_id":"cebpf4jnsgd1na2vs0mg"},{"bike_id":"213149f6-2cbb-4f75-b245-3f714479f02e","system_id":"levelo_inurba_marseille","lat":43.29255,"lon":5.40911,"is_reserved":false,"is_disabled":false,"rental_uris":{"android":"levelo://app?vid=213149f6-2cbb-4f75-b245-3f714479f02e","ios":"levelo://app?vid=213149f6-2cbb-4f75-b245-3f714479f02e"},"vehicle_type_id":"4","last_reported":1749868108,"current_range_meters":8400,"station_id":"ce4bh192rcd13ifvqdc0","pricing_plan_id":"cebpf4jnsgd1na2vs0mg"},{"bike_id":"00d08b92-2465-42be-baf7-b50a41ecd99b","system_id":"levelo_inurba_marseille","lat":43.2808,"lon":5.39671,"is_reserved":false,"is_disabled":false,"rental_uris":{"android":"levelo://app?vid=00d08b92-2465-42be-baf7-b50a41ecd99b","ios":"levelo://app?vid=00d08b92-2465-42be-baf7-b50a41ecd99b"},"vehicle_type_id":"4","last_reported":1749868108,"current_range_meters":8400,"station_id":"ce4bho12rcd13ifvqh2g","pricing_plan_id":"cebpf4jnsgd1na2vs0mg"},{"bike_id":"585d9f54-baad-4f8a-bd09-746bc83a436f","system_id":"levelo_inurba_marseille","lat":43.28702,"lon":5.39986,"is_reserved":false,"is_disabled":false,"rental_uris":{"android":"levelo://app?vid=585d9f54-baad-4f8a-bd09-746bc83a436f","ios":"levelo://app?vid=585d9f54-baad-4f8a-bd09-746bc83a436f"},"vehicle_type_id":"4","last_reported":1749868108,"current_range_meters":8400,"station_id":"ce4bho92rcd13ifvqh3g","pricing_plan_id":"cebpf4jnsgd1na2vs0mg"},{"bike_id":"8e167c55-b3e3-4cf3-9ac2-3d88ee0654f4","system_id":"levelo_inurba_marseille","lat":43.31717,"lon":5.43707,"is_reserved":false,"is_disabled":false,"rental_uris":{"android":"levelo://app?vid=8e167c55-b3e3-4cf3-9ac2-3d88ee0654f4","ios":"levelo://app?vid=8e167c55-b3e3-4cf3-9ac2-3d88ee0654f4"},"vehicle_type_id":"4","last_reported":1749868108,"current_range_meters":8400,"station_id":"ce4bhp92rcd13ifvqhcg","pricing_plan_id":"cebpf4jnsgd1na2vs0mg"},{"bike_id":"1fbc6021-831a-42d1-a935-0ef465bbc9df","system_id":"levelo_inurba_marseille","lat":43.30941,"lon":5.40144,"is_reserved":false,"is_disabled":false,"rental_uris":{"android":"levelo://app?vid=1fbc6021-831a-42d1-a935-0ef465bbc9df","ios":"levelo://app?vid=1fbc6021-831a-42d1-a935-0ef465bbc9df"},"vehicle_type_id":"4","last_reported":1749868108,"current_range_meters":8800,"station_id":"ce4bgvp2rcd13ifvqct0","pricing_plan_id":"cebpf4jnsgd1na2vs0mg"},{"bike_id":"3cfb3f1a-cafa-4bda-80fd-e78c729e7d23","system_id":"levelo_inurba_marseille","lat":43.29571,"lon":5.39947,"is_reserved":false,"is_disabled":false,"rental_uris":{"android":"levelo://app?vid=3cfb3f1a-cafa-4bda-80fd-e78c729e7d23","ios":"levelo://app?vid=3cfb3f1a-cafa-4bda-80fd-e78c729e7d23"},"vehicle_type_id":"4","last_reported":1749868108,"current_range_meters":8800,"station_id":"ce4bh312rcd13ifvqdj0","pricing_plan_id":"cebpf4jnsgd1na2vs0mg"},{"bike_id":"9943b32a-c03b-47fd-a90e-630eac75a880","system_id":"levelo_inurba_marseille","lat":43.28939,"lon":5.36646,"is_reserved":false,"is_disabled":false,"rental_uris":{"android":"levelo://app?vid=9943b32a-c03b-47fd-a90e-630eac75a880","ios":"levelo://app?vid=9943b32a-c03b-47fd-a90e-630eac75a880"},"vehicle_type_id":"4","last_reported":1749868108,"current_range_meters":8800,"station_id":"ce4bhap2rcd13ifvqek0","pricing_plan_id":"cebpf4jnsgd1na2vs0mg"},{"bike_id":"41902e46-3363-402b-89a9-77321257c96b","system_id":"levelo_inurba_marseille","lat":43.323686,"lon":5.367374,"is_reserved":false,"is_disabled":false,"rental_uris":{"android":"levelo://app?vid=41902e46-3363-402b-89a9-77321257c96b","ios":"levelo://app?vid=41902e46-3363-402b-89a9-77321257c96b"},"vehicle_type_id":"4","last_reported":1749868108,"current_range_meters":8800,"station_id":"ce4bhsh2rcd13ifvqi2g","pricing_plan_id":"cebpf4jnsgd1na2vs0mg"},{"bike_id":"53d39662-9b2c-4f9f-8c66-14d694c318b9","system_id":"levelo_inurba_marseille","lat":43.30796,"lon":5.38161,"is_reserved":false,"is_disabled":false,"rental_uris":{"android":"levelo://app?vid=53d39662-9b2c-4f9f-8c66-14d694c318b9","ios":"levelo://app?vid=53d39662-9b2c-4f9f-8c66-14d694c318b9"},"vehicle_type_id":"4","last_reported":1749868108,"current_range_meters":9200,"station_id":"ce4bgt12rcd13ifvqce0","pricing_plan_id":"cebpf4jnsgd1na2vs0mg"},{"bike_id":"c442643e-f549-44f2-a0e1-e26b05b6edec","system_id":"levelo_inurba_marseille","lat":43.31122,"lon":5.37774,"is_reserved":false,"is_disabled":false,"rental_uris":{"android":"levelo://app?vid=c442643e-f549-44f2-a0e1-e26b05b6edec","ios":"levelo://app?vid=c442643e-f549-44f2-a0e1-e26b05b6edec"},"vehicle_type_id":"4","last_reported":1749868108,"current_range_meters":9200,"station_id":"ce4bgt92rcd13ifvqcg0","pricing_plan_id":"cebpf4jnsgd1na2vs0mg"},{"bike_id":"16122c8b-b299-4425-9aed-7678a7c78037","system_id":"levelo_inurba_marseille","lat":43.31696,"lon":5.40472,"is_reserved":false,"is_disabled":false,"rental_uris":{"android":"levelo://app?vid=16122c8b-b299-4425-9aed-7678a7c78037","ios":"levelo://app?vid=16122c8b-b299-4425-9aed-7678a7c78037"},"vehicle_type_id":"4","last_reported":1749868108,"current_range_meters":9200,"station_id":"ce4bh012rcd13ifvqd00","pricing_plan_id":"cebpf4jnsgd1na2vs0mg"},{"bike_id":"a439131e-7cbe-4f78-8f09-d728712d2339","system_id":"levelo_inurba_marseille","lat":43.292825,"lon":5.401288,"is_reserved":false,"is_disabled":false,"rental_uris":{"android":"levelo://app?vid=a439131e-7cbe-4f78-8f09-d728712d2339","ios":"levelo://app?vid=a439131e-7cbe-4f78-8f09-d728712d2339"},"vehicle_type_id":"4","last_reported":1749868108,"current_range_meters":9200,"station_id":"ce4bh312rcd13ifvqdk0","pricing_plan_id":"cebpf4jnsgd1na2vs0mg"},{"bike_id":"0cea7d51-f66d-4341-9561-67b8025c1cba","system_id":"levelo_inurba_marseille","lat":43.32536,"lon":5.41462,"is_reserved":false,"is_disabled":false,"rental_uris":{"android":"levelo://app?vid=0cea7d51-f66d-4341-9561-67b8025c1cba","ios":"levelo://app?vid=0cea7d51-f66d-4341-9561-67b8025c1cba"},"vehicle_type_id":"4","last_reported":1749868108,"current_range_meters":9200,"station_id":"ce4bhq12rcd13ifvqhhg","pricing_plan_id":"cebpf4jnsgd1na2vs0mg"},{"bike_id":"346f3f80-6b15-4406-b905-bb78596f5bac","system_id":"levelo_inurba_marseille","lat":43.32369,"lon":5.36776,"is_reserved":false,"is_disabled":false,"rental_uris":{"android":"levelo://app?vid=346f3f80-6b15-4406-b905-bb78596f5bac","ios":"levelo://app?vid=346f3f80-6b15-4406-b905-bb78596f5bac"},"vehicle_type_id":"4","last_reported":1749868108,"current_range_meters":9200,"station_id":"ce4bhsh2rcd13ifvqi2g","pricing_plan_id":"cebpf4jnsgd1na2vs0mg"},{"bike_id":"62813162-aab6-47f7-ae4e-5f8a0b392519","system_id":"levelo_inurba_marseille","lat":43.24736,"lon":5.41172,"is_reserved":false,"is_disabled":false,"rental_uris":{"android":"levelo://app?vid=62813162-aab6-47f7-ae4e-5f8a0b392519","ios":"levelo://app?vid=62813162-aab6-47f7-ae4e-5f8a0b392519"},"vehicle_type_id":"4","last_reported":1749868108,"current_range_meters":9600,"station_id":"","pricing_plan_id":"cebpf4jnsgd1na2vs0mg"},{"bike_id":"4b543e03-70dc-45aa-9b58-e60a94500b7e","system_id":"levelo_inurba_marseille","lat":43.29445,"lon":5.37553,"is_reserved":false,"is_disabled":false,"rental_uris":{"android":"levelo://app?vid=4b543e03-70dc-45aa-9b58-e60a94500b7e","ios":"levelo://app?vid=4b543e03-70dc-45aa-9b58-e60a94500b7e"},"vehicle_type_id":"4","last_reported":1749868108,"current_range_meters":10000,"station_id":"","pricing_plan_id":"cebpf4jnsgd1na2vs0mg"},{"bike_id":"6facbc0d-f1b5-4dc3-86d4-5c1204834925","system_id":"levelo_inurba_marseille","lat":43.28071,"lon":5.34786,"is_reserved":false,"is_disabled":false,"rental_uris":{"android":"levelo://app?vid=6facbc0d-f1b5-4dc3-86d4-5c1204834925","ios":"levelo://app?vid=6facbc0d-f1b5-4dc3-86d4-5c1204834925"},"vehicle_type_id":"4","last_reported":1749868108,"current_range_meters":10000,"station_id":"","pricing_plan_id":"cebpf4jnsgd1na2vs0mg"},{"bike_id":"bab3c3d7-1c05-4f9f-aca9-6d707a90022b","system_id":"levelo_inurba_marseille","lat":43.31229,"lon":5.36861,"is_reserved":false,"is_disabled":false,"rental_uris":{"android":"levelo://app?vid=bab3c3d7-1c05-4f9f-aca9-6d707a90022b","ios":"levelo://app?vid=bab3c3d7-1c05-4f9f-aca9-6d707a90022b"},"vehicle_type_id":"4","last_reported":1749868108,"current_range_meters":10000,"station_id":"ce4bgl92rcd13ifvqbq0","pricing_plan_id":"cebpf4jnsgd1na2vs0mg"},{"bike_id":"f98a0a61-ecc0-444b-8e69-444a3098afe2","system_id":"levelo_inurba_marseille","lat":43.30901,"lon":5.4015,"is_reserved":false,"is_disabled":false,"rental_uris":{"android":"levelo://app?vid=f98a0a61-ecc0-444b-8e69-444a3098afe2","ios":"levelo://app?vid=f98a0a61-ecc0-444b-8e69-444a3098afe2"},"vehicle_type_id":"4","last_reported":1749868108,"current_range_meters":10000,"station_id":"ce4bgvp2rcd13ifvqct0","pricing_plan_id":"cebpf4jnsgd1na2vs0mg"},{"bike_id":"26e2572d-2d9b-4252-a754-e30587914fc4","system_id":"levelo_inurba_marseille","lat":43.23188,"lon":5.35557,"is_reserved":false,"is_disabled":false,"rental_uris":{"android":"levelo://app?vid=26e2572d-2d9b-4252-a754-e30587914fc4","ios":"levelo://app?vid=26e2572d-2d9b-4252-a754-e30587914fc4"},"vehicle_type_id":"4","last_reported":1749868108,"current_range_meters":10000,"station_id":"ce4bhu92rcd13ifvqi70","pricing_plan_id":"cebpf4jnsgd1na2vs0mg"},{"bike_id":"3b00ced2-c8ea-4024-989c-619d6f939695","system_id":"levelo_inurba_marseille","lat":43.3088,"lon":5.38105,"is_reserved":false,"is_disabled":false,"rental_uris":{"android":"levelo://app?vid=3b00ced2-c8ea-4024-989c-619d6f939695","ios":"levelo://app?vid=3b00ced2-c8ea-4024-989c-619d6f939695"},"vehicle_type_id":"4","last_reported":1749868108,"current_range_meters":10800,"station_id":"","pricing_plan_id":"cebpf4jnsgd1na2vs0mg"},{"bike_id":"c7356ca1-eefb-4a55-8274-f9ece5f425e7","system_id":"levelo_inurba_marseille","lat":43.30135,"lon":5.38763,"is_reserved":false,"is_disabled":false,"rental_uris":{"android":"levelo://app?vid=c7356ca1-eefb-4a55-8274-f9ece5f425e7","ios":"levelo://app?vid=c7356ca1-eefb-4a55-8274-f9ece5f425e7"},"vehicle_type_id":"4","last_reported":1749868108,"current_range_meters":10800,"station_id":"ce4bghh2rcd13ifvqb60","pricing_plan_id":"cebpf4jnsgd1na2vs0mg"},{"bike_id":"ed3b1f52-9e65-4fe2-834c-b7fedbca67c3","system_id":"levelo_inurba_marseille","lat":43.3066,"lon":5.40085,"is_reserved":false,"is_disabled":false,"rental_uris":{"android":"levelo://app?vid=ed3b1f52-9e65-4fe2-834c-b7fedbca67c3","ios":"levelo://app?vid=ed3b1f52-9e65-4fe2-834c-b7fedbca67c3"},"vehicle_type_id":"4","last_reported":1749868108,"current_range_meters":10800,"station_id":"ce4bh112rcd13ifvqda0","pricing_plan_id":"cebpf4jnsgd1na2vs0mg"},{"bike_id":"fefe38a6-eaf2-4aa0-8b99-c1979a848a2e","system_id":"levelo_inurba_marseille","lat":43.32354,"lon":5.4061,"is_reserved":false,"is_disabled":false,"rental_uris":{"android":"levelo://app?vid=fefe38a6-eaf2-4aa0-8b99-c1979a848a2e","ios":"levelo://app?vid=fefe38a6-eaf2-4aa0-8b99-c1979a848a2e"},"vehicle_type_id":"4","last_reported":1749868108,"current_range_meters":10800,"station_id":"ce4bhq92rcd13ifvqhjg","pricing_plan_id":"cebpf4jnsgd1na2vs0mg"},{"bike_id":"326cc913-bdbc-48c2-9a88-414846f09512","system_id":"levelo_inurba_marseille","lat":43.32371,"lon":5.36745,"is_reserved":false,"is_disabled":false,"rental_uris":{"android":"levelo://app?vid=326cc913-bdbc-48c2-9a88-414846f09512","ios":"levelo://app?vid=326cc913-bdbc-48c2-9a88-414846f09512"},"vehicle_type_id":"4","last_reported":1749868108,"current_range_meters":10800,"station_id":"ce4bhsh2rcd13ifvqi2g","pricing_plan_id":"cebpf4jnsgd1na2vs0mg"},{"bike_id":"9847e3c4-8442-4bf1-8778-b16be81214be","system_id":"levelo_inurba_marseille","lat":43.31064,"lon":5.38356,"is_reserved":false,"is_disabled":false,"rental_uris":{"android":"levelo://app?vid=9847e3c4-8442-4bf1-8778-b16be81214be","ios":"levelo://app?vid=9847e3c4-8442-4bf1-8778-b16be81214be"},"vehicle_type_id":"4","last_reported":1749868108,"current_range_meters":11200,"station_id":"ce4bgv92rcd13ifvqcr0","pricing_plan_id":"cebpf4jnsgd1na2vs0mg"},{"bike_id":"21f38d41-a269-4b03-a338-cbcef4437c84","system_id":"levelo_inurba_marseille","lat":43.29275,"lon":5.4013,"is_reserved":false,"is_disabled":false,"rental_uris":{"android":"levelo://app?vid=21f38d41-a269-4b03-a338-cbcef4437c84","ios":"levelo://app?vid=21f38d41-a269-4b03-a338-cbcef4437c84"},"vehicle_type_id":"4","last_reported":1749868108,"current_range_meters":11200,"station_id":"ce4bh312rcd13ifvqdk0","pricing_plan_id":"cebpf4jnsgd1na2vs0mg"},{"bike_id":"577b2cb2-f6f7-4648-a58e-596aa1ad6b3f","system_id":"levelo_inurba_marseille","lat":43.29279,"lon":5.401214,"is_reserved":false,"is_disabled":false,"rental_uris":{"android":"levelo://app?vid=577b2cb2-f6f7-4648-a58e-596aa1ad6b3f","ios":"levelo://app?vid=577b2cb2-f6f7-4648-a58e-596aa1ad6b3f"},"vehicle_type_id":"4","last_reported":1749868108,"current_range_meters":11600,"station_id":"ce4bh312rcd13ifvqdk0","pricing_plan_id":"cebpf4jnsgd1na2vs0mg"},{"bike_id":"fe8f977a-e7f5-4ea1-98bd-5b5d077c2370","system_id":"levelo_inurba_marseille","lat":43.27941,"lon":5.41054,"is_reserved":false,"is_disabled":false,"rental_uris":{"android":"levelo://app?vid=fe8f977a-e7f5-4ea1-98bd-5b5d077c2370","ios":"levelo://app?vid=fe8f977a-e7f5-4ea1-98bd-5b5d077c2370"},"vehicle_type_id":"4","last_reported":1749868108,"current_range_meters":11600,"station_id":"ce4bhnp2rcd13ifvqh0g","pricing_plan_id":"cebpf4jnsgd1na2vs0mg"},{"bike_id":"87c270dc-4fcf-4263-8f57-a07ca944f869","system_id":"levelo_inurba_marseille","lat":43.31249,"lon":5.395,"is_reserved":false,"is_disabled":false,"rental_uris":{"android":"levelo://app?vid=87c270dc-4fcf-4263-8f57-a07ca944f869","ios":"levelo://app?vid=87c270dc-4fcf-4263-8f57-a07ca944f869"},"vehicle_type_id":"4","last_reported":1749868108,"current_range_meters":12000,"station_id":"","pricing_plan_id":"cebpf4jnsgd1na2vs0mg"},{"bike_id":"c08da92d-1de3-4d5f-b9bb-fc93a1aa432d","system_id":"levelo_inurba_marseille","lat":43.278205,"lon":5.407227,"is_reserved":false,"is_disabled":false,"rental_uris":{"android":"levelo://app?vid=c08da92d-1de3-4d5f-b9bb-fc93a1aa432d","ios":"levelo://app?vid=c08da92d-1de3-4d5f-b9bb-fc93a1aa432d"},"vehicle_type_id":"4","last_reported":1749868108,"current_range_meters":12000,"station_id":"ce4bhnh2rcd13ifvqgtg","pricing_plan_id":"cebpf4jnsgd1na2vs0mg"},{"bike_id":"d14df862-96a0-4218-accd-6a765abe961d","system_id":"levelo_inurba_marseille","lat":43.240581,"lon":5.377431,"is_reserved":false,"is_disabled":false,"rental_uris":{"android":"levelo://app?vid=d14df862-96a0-4218-accd-6a765abe961d","ios":"levelo://app?vid=d14df862-96a0-4218-accd-6a765abe961d"},"vehicle_type_id":"4","last_reported":1749868108,"current_range_meters":12000,"station_id":"ce4bhnp2rcd13ifvqgvg","pricing_plan_id":"cebpf4jnsgd1na2vs0mg"},{"bike_id":"680e2473-ea3b-42b9-b336-0f5eac9a86f4","system_id":"levelo_inurba_marseille","lat":43.31698,"lon":5.37802,"is_reserved":false,"is_disabled":false,"rental_uris":{"android":"levelo://app?vid=680e2473-ea3b-42b9-b336-0f5eac9a86f4","ios":"levelo://app?vid=680e2473-ea3b-42b9-b336-0f5eac9a86f4"},"vehicle_type_id":"4","last_reported":1749868108,"current_range_meters":12400,"station_id":"ce4bgth2rcd13ifvqch0","pricing_plan_id":"cebpf4jnsgd1na2vs0mg"},{"bike_id":"cf690f95-027c-414f-b18f-8281c4392fd3","system_id":"levelo_inurba_marseille","lat":43.29882,"lon":5.38907,"is_reserved":false,"is_disabled":false,"rental_uris":{"android":"levelo://app?vid=cf690f95-027c-414f-b18f-8281c4392fd3","ios":"levelo://app?vid=cf690f95-027c-414f-b18f-8281c4392fd3"},"vehicle_type_id":"4","last_reported":1749868108,"current_range_meters":12400,"station_id":"ce4bh392rcd13ifvqdl0","pricing_plan_id":"cebpf4jnsgd1na2vs0mg"},{"bike_id":"4cd6c619-b769-44f8-97cb-d908608b0eae","system_id":"levelo_inurba_marseille","lat":43.2583,"lon":5.39447,"is_reserved":false,"is_disabled":false,"rental_uris":{"android":"levelo://app?vid=4cd6c619-b769-44f8-97cb-d908608b0eae","ios":"levelo://app?vid=4cd6c619-b769-44f8-97cb-d908608b0eae"},"vehicle_type_id":"4","last_reported":1749868108,"current_range_meters":12400,"station_id":"ce4bhip2rcd13ifvqft0","pricing_plan_id":"cebpf4jnsgd1na2vs0mg"},{"bike_id":"0afcb599-3d9f-4bc3-a6eb-ed35bcfdac84","system_id":"levelo_inurba_marseille","lat":43.231928,"lon":5.355553,"is_reserved":false,"is_disabled":false,"rental_uris":{"android":"levelo://app?vid=0afcb599-3d9f-4bc3-a6eb-ed35bcfdac84","ios":"levelo://app?vid=0afcb599-3d9f-4bc3-a6eb-ed35bcfdac84"},"vehicle_type_id":"4","last_reported":1749868108,"current_range_meters":12400,"station_id":"ce4bhu92rcd13ifvqi70","pricing_plan_id":"cebpf4jnsgd1na2vs0mg"},{"bike_id":"8c57efe1-9700-4869-9a85-3d01ad93e9bc","system_id":"levelo_inurba_marseille","lat":43.31484,"lon":5.37301,"is_reserved":false,"is_disabled":false,"rental_uris":{"android":"levelo://app?vid=8c57efe1-9700-4869-9a85-3d01ad93e9bc","ios":"levelo://app?vid=8c57efe1-9700-4869-9a85-3d01ad93e9bc"},"vehicle_type_id":"4","last_reported":1749868108,"current_range_meters":12800,"station_id":"ce4bgt12rcd13ifvqcd0","pricing_plan_id":"cebpf4jnsgd1na2vs0mg"},{"bike_id":"a415c169-5237-4f78-a7a9-cb29de21dd0d","system_id":"levelo_inurba_marseille","lat":43.25127,"lon":5.40338,"is_reserved":false,"is_disabled":false,"rental_uris":{"android":"levelo://app?vid=a415c169-5237-4f78-a7a9-cb29de21dd0d","ios":"levelo://app?vid=a415c169-5237-4f78-a7a9-cb29de21dd0d"},"vehicle_type_id":"4","last_reported":1749868108,"current_range_meters":12800,"station_id":"ce4bhlh2rcd13ifvqgig","pricing_plan_id":"cebpf4jnsgd1na2vs0mg"},{"bike_id":"f4b5453b-37ab-48ca-ad5e-0cfd2955b17a","system_id":"levelo_inurba_marseille","lat":43.23795,"lon":5.36442,"is_reserved":false,"is_disabled":false,"rental_uris":{"android":"levelo://app?vid=f4b5453b-37ab-48ca-ad5e-0cfd2955b17a","ios":"levelo://app?vid=f4b5453b-37ab-48ca-ad5e-0cfd2955b17a"},"vehicle_type_id":"4","last_reported":1749868108,"current_range_meters":13600,"station_id":"","pricing_plan_id":"cebpf4jnsgd1na2vs0mg"},{"bike_id":"2ab31527-f915-4286-b3a0-0beafd2cdd50","system_id":"levelo_inurba_marseille","lat":43.30024,"lon":5.3702,"is_reserved":false,"is_disabled":false,"rental_uris":{"android":"levelo://app?vid=2ab31527-f915-4286-b3a0-0beafd2cdd50","ios":"levelo://app?vid=2ab31527-f915-4286-b3a0-0beafd2cdd50"},"vehicle_type_id":"4","last_reported":1749868108,"current_range_meters":13600,"station_id":"","pricing_plan_id":"cebpf4jnsgd1na2vs0mg"},{"bike_id":"23bfc705-acbc-484d-9e6a-f0778cfea6f5","system_id":"levelo_inurba_marseille","lat":43.34278,"lon":5.38587,"is_reserved":false,"is_disabled":false,"rental_uris":{"android":"levelo://app?vid=23bfc705-acbc-484d-9e6a-f0778cfea6f5","ios":"levelo://app?vid=23bfc705-acbc-484d-9e6a-f0778cfea6f5"},"vehicle_type_id":"4","last_reported":1749868108,"current_range_meters":13600,"station_id":"","pricing_plan_id":"cebpf4jnsgd1na2vs0mg"},{"bike_id":"c67d6527-d4fb-4414-932a-85ff6d0276c6","system_id":"levelo_inurba_marseille","lat":43.28511,"lon":5.42494,"is_reserved":false,"is_disabled":false,"rental_uris":{"android":"levelo://app?vid=c67d6527-d4fb-4414-932a-85ff6d0276c6","ios":"levelo://app?vid=c67d6527-d4fb-4414-932a-85ff6d0276c6"},"vehicle_type_id":"4","last_reported":1749868108,"current_range_meters":13600,"station_id":"","pricing_plan_id":"cebpf4jnsgd1na2vs0mg"},{"bike_id":"7735772a-7d0b-4197-9827-c53faa24efe1","system_id":"levelo_inurba_marseille","lat":43.3172,"lon":5.40506,"is_reserved":false,"is_disabled":false,"rental_uris":{"android":"levelo://app?vid=7735772a-7d0b-4197-9827-c53faa24efe1","ios":"levelo://app?vid=7735772a-7d0b-4197-9827-c53faa24efe1"},"vehicle_type_id":"4","last_reported":1749868108,"current_range_meters":13600,"station_id":"ce4bh012rcd13ifvqd00","pricing_plan_id":"cebpf4jnsgd1na2vs0mg"},{"bike_id":"93abb164-3ca7-49d8-bcea-62aef378bb0e","system_id":"levelo_inurba_marseille","lat":43.31367,"lon":5.38498,"is_reserved":false,"is_disabled":false,"rental_uris":{"android":"levelo://app?vid=93abb164-3ca7-49d8-bcea-62aef378bb0e","ios":"levelo://app?vid=93abb164-3ca7-49d8-bcea-62aef378bb0e"},"vehicle_type_id":"4","last_reported":1749868108,"current_range_meters":14000,"station_id":"ce4bgt92rcd13ifvqcf0","pricing_plan_id":"cebpf4jnsgd1na2vs0mg"},{"bike_id":"e55c0716-83f6-4f08-98d0-d0fa9f37d07b","system_id":"levelo_inurba_marseille","lat":43.2512,"lon":5.40318,"is_reserved":false,"is_disabled":false,"rental_uris":{"android":"levelo://app?vid=e55c0716-83f6-4f08-98d0-d0fa9f37d07b","ios":"levelo://app?vid=e55c0716-83f6-4f08-98d0-d0fa9f37d07b"},"vehicle_type_id":"4","last_reported":1749868108,"current_range_meters":14000,"station_id":"ce4bhlh2rcd13ifvqgig","pricing_plan_id":"cebpf4jnsgd1na2vs0mg"},{"bike_id":"e567dc21-b186-4d10-8334-7ad7332d3dec","system_id":"levelo_inurba_marseille","lat":43.25078,"lon":5.39519,"is_reserved":false,"is_disabled":false,"rental_uris":{"android":"levelo://app?vid=e567dc21-b186-4d10-8334-7ad7332d3dec","ios":"levelo://app?vid=e567dc21-b186-4d10-8334-7ad7332d3dec"},"vehicle_type_id":"4","last_reported":1749868108,"current_range_meters":14000,"station_id":"ce4bhm12rcd13ifvqgkg","pricing_plan_id":"cebpf4jnsgd1na2vs0mg"},{"bike_id":"0bd356a4-46ef-4af6-8ac2-85cabb6005eb","system_id":"levelo_inurba_marseille","lat":43.30416,"lon":5.41285,"is_reserved":false,"is_disabled":false,"rental_uris":{"android":"levelo://app?vid=0bd356a4-46ef-4af6-8ac2-85cabb6005eb","ios":"levelo://app?vid=0bd356a4-46ef-4af6-8ac2-85cabb6005eb"},"vehicle_type_id":"4","last_reported":1749868108,"current_range_meters":14000,"station_id":"ce4bhop2rcd13ifvqh8g","pricing_plan_id":"cebpf4jnsgd1na2vs0mg"},{"bike_id":"191524f3-267f-4467-9ea7-6cd874a9eea3","system_id":"levelo_inurba_marseille","lat":43.30419,"lon":5.41288,"is_reserved":false,"is_disabled":false,"rental_uris":{"android":"levelo://app?vid=191524f3-267f-4467-9ea7-6cd874a9eea3","ios":"levelo://app?vid=191524f3-267f-4467-9ea7-6cd874a9eea3"},"vehicle_type_id":"4","last_reported":1749868108,"current_range_meters":14000,"station_id":"ce4bhop2rcd13ifvqh8g","pricing_plan_id":"cebpf4jnsgd1na2vs0mg"},{"bike_id":"c701ebf4-2e39-4477-804e-b077c1b9b9c2","system_id":"levelo_inurba_marseille","lat":43.33611,"lon":5.4102,"is_reserved":false,"is_disabled":false,"rental_uris":{"android":"levelo://app?vid=c701ebf4-2e39-4477-804e-b077c1b9b9c2","ios":"levelo://app?vid=c701ebf4-2e39-4477-804e-b077c1b9b9c2"},"vehicle_type_id":"4","last_reported":1749868108,"current_range_meters":14000,"station_id":"ce4bhqh2rcd13ifvqhmg","pricing_plan_id":"cebpf4jnsgd1na2vs0mg"},{"bike_id":"e6501f2c-dbe7-431f-9dd2-c1b474b01fe3","system_id":"levelo_inurba_marseille","lat":43.30584,"lon":5.37203,"is_reserved":false,"is_disabled":false,"rental_uris":{"android":"levelo://app?vid=e6501f2c-dbe7-431f-9dd2-c1b474b01fe3","ios":"levelo://app?vid=e6501f2c-dbe7-431f-9dd2-c1b474b01fe3"},"vehicle_type_id":"4","last_reported":1749868108,"current_range_meters":14400,"station_id":"ce4bgqh2rcd13ifvqc4g","pricing_plan_id":"cebpf4jnsgd1na2vs0mg"},{"bike_id":"bebdfbea-1f0b-4886-8782-b964d6bbe654","system_id":"levelo_inurba_marseille","lat":43.28151,"lon":5.42633,"is_reserved":false,"is_disabled":false,"rental_uris":{"android":"levelo://app?vid=bebdfbea-1f0b-4886-8782-b964d6bbe654","ios":"levelo://app?vid=bebdfbea-1f0b-4886-8782-b964d6bbe654"},"vehicle_type_id":"4","last_reported":1749868108,"current_range_meters":14400,"station_id":"ce4bhnh2rcd13ifvqgug","pricing_plan_id":"cebpf4jnsgd1na2vs0mg"},{"bike_id":"fb4cdfee-3fdd-4f58-9c30-dcc9489190ab","system_id":"levelo_inurba_marseille","lat":43.27934,"lon":5.41044,"is_reserved":false,"is_disabled":false,"rental_uris":{"android":"levelo://app?vid=fb4cdfee-3fdd-4f58-9c30-dcc9489190ab","ios":"levelo://app?vid=fb4cdfee-3fdd-4f58-9c30-dcc9489190ab"},"vehicle_type_id":"4","last_reported":1749868108,"current_range_meters":14400,"station_id":"ce4bhnp2rcd13ifvqh0g","pricing_plan_id":"cebpf4jnsgd1na2vs0mg"},{"bike_id":"68c70dd8-5e8a-4939-8186-cfb41eceb8d5","system_id":"levelo_inurba_marseille","lat":43.27971,"lon":5.41048,"is_reserved":false,"is_disabled":false,"rental_uris":{"android":"levelo://app?vid=68c70dd8-5e8a-4939-8186-cfb41eceb8d5","ios":"levelo://app?vid=68c70dd8-5e8a-4939-8186-cfb41eceb8d5"},"vehicle_type_id":"4","last_reported":1749868108,"current_range_meters":14400,"station_id":"ce4bhnp2rcd13ifvqh0g","pricing_plan_id":"cebpf4jnsgd1na2vs0mg"},{"bike_id":"c5834316-8544-4943-b007-f5530c6fac45","system_id":"levelo_inurba_marseille","lat":43.287035,"lon":5.399791,"is_reserved":false,"is_disabled":false,"rental_uris":{"android":"levelo://app?vid=c5834316-8544-4943-b007-f5530c6fac45","ios":"levelo://app?vid=c5834316-8544-4943-b007-f5530c6fac45"},"vehicle_type_id":"4","last_reported":1749868108,"current_range_meters":14400,"station_id":"ce4bho92rcd13ifvqh3g","pricing_plan_id":"cebpf4jnsgd1na2vs0mg"},{"bike_id":"c758d35b-1e82-4d04-b6d8-b700cd386a46","system_id":"levelo_inurba_marseille","lat":43.287,"lon":5.39983,"is_reserved":false,"is_disabled":false,"rental_uris":{"android":"levelo://app?vid=c758d35b-1e82-4d04-b6d8-b700cd386a46","ios":"levelo://app?vid=c758d35b-1e82-4d04-b6d8-b700cd386a46"},"vehicle_type_id":"4","last_reported":1749868108,"current_range_meters":14400,"station_id":"ce4bho92rcd13ifvqh3g","pricing_plan_id":"cebpf4jnsgd1na2vs0mg"},{"bike_id":"f3ec16b2-8afd-4ecb-8d58-15a6a90ff603","system_id":"levelo_inurba_marseille","lat":43.323609,"lon":5.367628,"is_reserved":false,"is_disabled":false,"rental_uris":{"android":"levelo://app?vid=f3ec16b2-8afd-4ecb-8d58-15a6a90ff603","ios":"levelo://app?vid=f3ec16b2-8afd-4ecb-8d58-15a6a90ff603"},"vehicle_type_id":"4","last_reported":1749868108,"current_range_meters":14400,"station_id":"ce4bhsh2rcd13ifvqi2g","pricing_plan_id":"cebpf4jnsgd1na2vs0mg"},{"bike_id":"8e8899f0-4aff-43f9-9f62-ce6bf69d0612","system_id":"levelo_inurba_marseille","lat":43.31192,"lon":5.40185,"is_reserved":false,"is_disabled":false,"rental_uris":{"android":"levelo://app?vid=8e8899f0-4aff-43f9-9f62-ce6bf69d0612","ios":"levelo://app?vid=8e8899f0-4aff-43f9-9f62-ce6bf69d0612"},"vehicle_type_id":"4","last_reported":1749868108,"current_range_meters":14800,"station_id":"","pricing_plan_id":"cebpf4jnsgd1na2vs0mg"},{"bike_id":"51a83e85-4f7c-4dc0-976b-cb7d3ef87572","system_id":"levelo_inurba_marseille","lat":43.30267,"lon":5.40049,"is_reserved":false,"is_disabled":false,"rental_uris":{"android":"levelo://app?vid=51a83e85-4f7c-4dc0-976b-cb7d3ef87572","ios":"levelo://app?vid=51a83e85-4f7c-4dc0-976b-cb7d3ef87572"},"vehicle_type_id":"4","last_reported":1749868108,"current_range_meters":14800,"station_id":"ce4bgvh2rcd13ifvqcs0","pricing_plan_id":"cebpf4jnsgd1na2vs0mg"},{"bike_id":"f2404481-86a2-4ce2-81b9-adf96a84b46d","system_id":"levelo_inurba_marseille","lat":43.25065,"lon":5.3953,"is_reserved":false,"is_disabled":false,"rental_uris":{"android":"levelo://app?vid=f2404481-86a2-4ce2-81b9-adf96a84b46d","ios":"levelo://app?vid=f2404481-86a2-4ce2-81b9-adf96a84b46d"},"vehicle_type_id":"4","last_reported":1749868108,"current_range_meters":14800,"station_id":"ce4bhm12rcd13ifvqgkg","pricing_plan_id":"cebpf4jnsgd1na2vs0mg"},{"bike_id":"4f559d56-fd41-4a0e-83e5-455fa054b4e4","system_id":"levelo_inurba_marseille","lat":43.28004,"lon":5.41682,"is_reserved":false,"is_disabled":false,"rental_uris":{"android":"levelo://app?vid=4f559d56-fd41-4a0e-83e5-455fa054b4e4","ios":"levelo://app?vid=4f559d56-fd41-4a0e-83e5-455fa054b4e4"},"vehicle_type_id":"4","last_reported":1749868108,"current_range_meters":14800,"station_id":"ce4bho12rcd13ifvqh1g","pricing_plan_id":"cebpf4jnsgd1na2vs0mg"},{"bike_id":"8f6e236b-ebc1-4b1d-94cb-35b71d0752c6","system_id":"levelo_inurba_marseille","lat":43.30265,"lon":5.40048,"is_reserved":false,"is_disabled":false,"rental_uris":{"android":"levelo://app?vid=8f6e236b-ebc1-4b1d-94cb-35b71d0752c6","ios":"levelo://app?vid=8f6e236b-ebc1-4b1d-94cb-35b71d0752c6"},"vehicle_type_id":"4","last_reported":1749868108,"current_range_meters":15200,"station_id":"ce4bgvh2rcd13ifvqcs0","pricing_plan_id":"cebpf4jnsgd1na2vs0mg"},{"bike_id":"0dc12537-e739-417f-b48b-9a13fc6f130b","system_id":"levelo_inurba_marseille","lat":43.29261,"lon":5.40907,"is_reserved":false,"is_disabled":false,"rental_uris":{"android":"levelo://app?vid=0dc12537-e739-417f-b48b-9a13fc6f130b","ios":"levelo://app?vid=0dc12537-e739-417f-b48b-9a13fc6f130b"},"vehicle_type_id":"4","last_reported":1749868108,"current_range_meters":15200,"station_id":"ce4bh192rcd13ifvqdc0","pricing_plan_id":"cebpf4jnsgd1na2vs0mg"},{"bike_id":"75ac12dd-4ac9-4201-b6cf-0f9194fc4534","system_id":"levelo_inurba_marseille","lat":43.25082,"lon":5.39535,"is_reserved":false,"is_disabled":false,"rental_uris":{"android":"levelo://app?vid=75ac12dd-4ac9-4201-b6cf-0f9194fc4534","ios":"levelo://app?vid=75ac12dd-4ac9-4201-b6cf-0f9194fc4534"},"vehicle_type_id":"4","last_reported":1749868108,"current_range_meters":15200,"station_id":"ce4bhm12rcd13ifvqgkg","pricing_plan_id":"cebpf4jnsgd1na2vs0mg"},{"bike_id":"3c773d4a-c117-455f-9da0-aedaffdbf55e","system_id":"levelo_inurba_marseille","lat":43.23151,"lon":5.43715,"is_reserved":false,"is_disabled":false,"rental_uris":{"android":"levelo://app?vid=3c773d4a-c117-455f-9da0-aedaffdbf55e","ios":"levelo://app?vid=3c773d4a-c117-455f-9da0-aedaffdbf55e"},"vehicle_type_id":"4","last_reported":1749868108,"current_range_meters":15200,"station_id":"ce4bhmp2rcd13ifvqgog","pricing_plan_id":"cebpf4jnsgd1na2vs0mg"},{"bike_id":"a6181ffa-2252-4f14-9f31-249b63b4868d","system_id":"levelo_inurba_marseille","lat":43.28423,"lon":5.39237,"is_reserved":false,"is_disabled":false,"rental_uris":{"android":"levelo://app?vid=a6181ffa-2252-4f14-9f31-249b63b4868d","ios":"levelo://app?vid=a6181ffa-2252-4f14-9f31-249b63b4868d"},"vehicle_type_id":"4","last_reported":1749868108,"current_range_meters":15200,"station_id":"ce4bhoh2rcd13ifvqh5g","pricing_plan_id":"cebpf4jnsgd1na2vs0mg"},{"bike_id":"121a15ef-48cd-4634-8134-22166779cbef","system_id":"levelo_inurba_marseille","lat":43.28618,"lon":5.39479,"is_reserved":false,"is_disabled":false,"rental_uris":{"android":"levelo://app?vid=121a15ef-48cd-4634-8134-22166779cbef","ios":"levelo://app?vid=121a15ef-48cd-4634-8134-22166779cbef"},"vehicle_type_id":"4","last_reported":1749868108,"current_range_meters":16000,"station_id":"","pricing_plan_id":"cebpf4jnsgd1na2vs0mg"},{"bike_id":"342fac06-8f14-4126-ba5e-2b495c7212ba","system_id":"levelo_inurba_marseille","lat":43.30935,"lon":5.401463,"is_reserved":false,"is_disabled":false,"rental_uris":{"android":"levelo://app?vid=342fac06-8f14-4126-ba5e-2b495c7212ba","ios":"levelo://app?vid=342fac06-8f14-4126-ba5e-2b495c7212ba"},"vehicle_type_id":"4","last_reported":1749868108,"current_range_meters":16000,"station_id":"ce4bgvp2rcd13ifvqct0","pricing_plan_id":"cebpf4jnsgd1na2vs0mg"},{"bike_id":"31b2d58c-ab3e-4da1-b0fb-624ca1483b38","system_id":"levelo_inurba_marseille","lat":43.28707,"lon":5.39987,"is_reserved":false,"is_disabled":false,"rental_uris":{"android":"levelo://app?vid=31b2d58c-ab3e-4da1-b0fb-624ca1483b38","ios":"levelo://app?vid=31b2d58c-ab3e-4da1-b0fb-624ca1483b38"},"vehicle_type_id":"4","last_reported":1749868108,"current_range_meters":16000,"station_id":"ce4bho92rcd13ifvqh3g","pricing_plan_id":"cebpf4jnsgd1na2vs0mg"},{"bike_id":"d0e0617d-5016-40ba-b4c5-1a83d3add731","system_id":"levelo_inurba_marseille","lat":43.3236,"lon":5.36667,"is_reserved":false,"is_disabled":false,"rental_uris":{"android":"levelo://app?vid=d0e0617d-5016-40ba-b4c5-1a83d3add731","ios":"levelo://app?vid=d0e0617d-5016-40ba-b4c5-1a83d3add731"},"vehicle_type_id":"4","last_reported":1749868108,"current_range_meters":16000,"station_id":"ce4bhsh2rcd13ifvqi2g","pricing_plan_id":"cebpf4jnsgd1na2vs0mg"},{"bike_id":"58358e59-4328-4d31-803e-7e9fd0fa2bc2","system_id":"levelo_inurba_marseille","lat":43.26803,"lon":5.4027,"is_reserved":false,"is_disabled":false,"rental_uris":{"android":"levelo://app?vid=58358e59-4328-4d31-803e-7e9fd0fa2bc2","ios":"levelo://app?vid=58358e59-4328-4d31-803e-7e9fd0fa2bc2"},"vehicle_type_id":"4","last_reported":1749868108,"current_range_meters":16000,"station_id":"ce501612rcd8frsf0b60","pricing_plan_id":"cebpf4jnsgd1na2vs0mg"},{"bike_id":"1aa53727-4201-4edf-a802-0769f4e3b4fb","system_id":"levelo_inurba_marseille","lat":43.33296,"lon":5.3966,"is_reserved":false,"is_disabled":false,"rental_uris":{"android":"levelo://app?vid=1aa53727-4201-4edf-a802-0769f4e3b4fb","ios":"levelo://app?vid=1aa53727-4201-4edf-a802-0769f4e3b4fb"},"vehicle_type_id":"4","last_reported":1749868108,"current_range_meters":16400,"station_id":"","pricing_plan_id":"cebpf4jnsgd1na2vs0mg"},{"bike_id":"512e0706-ca23-481d-aaeb-38f1c1dcb1d6","system_id":"levelo_inurba_marseille","lat":43.31698,"lon":5.40469,"is_reserved":false,"is_disabled":false,"rental_uris":{"android":"levelo://app?vid=512e0706-ca23-481d-aaeb-38f1c1dcb1d6","ios":"levelo://app?vid=512e0706-ca23-481d-aaeb-38f1c1dcb1d6"},"vehicle_type_id":"4","last_reported":1749868108,"current_range_meters":16400,"station_id":"ce4bh012rcd13ifvqd00","pricing_plan_id":"cebpf4jnsgd1na2vs0mg"},{"bike_id":"11e6abe3-1091-4385-a5d4-8b5039acdcbd","system_id":"levelo_inurba_marseille","lat":43.32083,"lon":5.41533,"is_reserved":false,"is_disabled":false,"rental_uris":{"android":"levelo://app?vid=11e6abe3-1091-4385-a5d4-8b5039acdcbd","ios":"levelo://app?vid=11e6abe3-1091-4385-a5d4-8b5039acdcbd"},"vehicle_type_id":"4","last_reported":1749868108,"current_range_meters":16400,"station_id":"ce4bhq92rcd13ifvqhkg","pricing_plan_id":"cebpf4jnsgd1na2vs0mg"},{"bike_id":"ccb9975b-34a8-47da-b755-e17344ae18d3","system_id":"levelo_inurba_marseille","lat":43.23199,"lon":5.35552,"is_reserved":false,"is_disabled":false,"rental_uris":{"android":"levelo://app?vid=ccb9975b-34a8-47da-b755-e17344ae18d3","ios":"levelo://app?vid=ccb9975b-34a8-47da-b755-e17344ae18d3"},"vehicle_type_id":"4","last_reported":1749868108,"current_range_meters":16400,"station_id":"ce4bhu92rcd13ifvqi70","pricing_plan_id":"cebpf4jnsgd1na2vs0mg"},{"bike_id":"d9403d62-f2ee-4d31-bbe7-90f22b5a05e8","system_id":"levelo_inurba_marseille","lat":43.24172,"lon":5.363925,"is_reserved":false,"is_disabled":false,"rental_uris":{"android":"levelo://app?vid=d9403d62-f2ee-4d31-bbe7-90f22b5a05e8","ios":"levelo://app?vid=d9403d62-f2ee-4d31-bbe7-90f22b5a05e8"},"vehicle_type_id":"4","last_reported":1749868108,"current_range_meters":16400,"station_id":"cpo36qri1sfpv3e86is0","pricing_plan_id":"cebpf4jnsgd1na2vs0mg"},{"bike_id":"efd9c384-daa9-4013-b288-e4e1f794d48f","system_id":"levelo_inurba_marseille","lat":43.30014,"lon":5.40075,"is_reserved":false,"is_disabled":false,"rental_uris":{"android":"levelo://app?vid=efd9c384-daa9-4013-b288-e4e1f794d48f","ios":"levelo://app?vid=efd9c384-daa9-4013-b288-e4e1f794d48f"},"vehicle_type_id":"4","last_reported":1749868108,"current_range_meters":16800,"station_id":"","pricing_plan_id":"cebpf4jnsgd1na2vs0mg"},{"bike_id":"fbc900eb-88b2-4223-aede-d3971f9e7c9f","system_id":"levelo_inurba_marseille","lat":43.30941,"lon":5.4014,"is_reserved":false,"is_disabled":false,"rental_uris":{"android":"levelo://app?vid=fbc900eb-88b2-4223-aede-d3971f9e7c9f","ios":"levelo://app?vid=fbc900eb-88b2-4223-aede-d3971f9e7c9f"},"vehicle_type_id":"4","last_reported":1749868108,"current_range_meters":16800,"station_id":"ce4bgvp2rcd13ifvqct0","pricing_plan_id":"cebpf4jnsgd1na2vs0mg"},{"bike_id":"d75d4310-1c90-46b7-a80b-e5455c2a09bc","system_id":"levelo_inurba_marseille","lat":43.29795,"lon":5.4042,"is_reserved":false,"is_disabled":false,"rental_uris":{"android":"levelo://app?vid=d75d4310-1c90-46b7-a80b-e5455c2a09bc","ios":"levelo://app?vid=d75d4310-1c90-46b7-a80b-e5455c2a09bc"},"vehicle_type_id":"4","last_reported":1749868108,"current_range_meters":16800,"station_id":"ce4bh112rcd13ifvqd90","pricing_plan_id":"cebpf4jnsgd1na2vs0mg"},{"bike_id":"65eaccc7-66b1-4ca3-be94-1aec405d13fa","system_id":"levelo_inurba_marseille","lat":43.29044,"lon":5.39962,"is_reserved":false,"is_disabled":false,"rental_uris":{"android":"levelo://app?vid=65eaccc7-66b1-4ca3-be94-1aec405d13fa","ios":"levelo://app?vid=65eaccc7-66b1-4ca3-be94-1aec405d13fa"},"vehicle_type_id":"4","last_reported":1749868108,"current_range_meters":16800,"station_id":"ce4bh392rcd13ifvqdm0","pricing_plan_id":"cebpf4jnsgd1na2vs0mg"},{"bike_id":"c3eec97b-9234-4fbe-b919-6448e406ffbe","system_id":"levelo_inurba_marseille","lat":43.25847,"lon":5.39439,"is_reserved":false,"is_disabled":false,"rental_uris":{"android":"levelo://app?vid=c3eec97b-9234-4fbe-b919-6448e406ffbe","ios":"levelo://app?vid=c3eec97b-9234-4fbe-b919-6448e406ffbe"},"vehicle_type_id":"4","last_reported":1749868108,"current_range_meters":16800,"station_id":"ce4bhip2rcd13ifvqft0","pricing_plan_id":"cebpf4jnsgd1na2vs0mg"},{"bike_id":"0ee0a3e9-143a-4043-bbfb-2524bb2af636","system_id":"levelo_inurba_marseille","lat":43.25138,"lon":5.40317,"is_reserved":false,"is_disabled":false,"rental_uris":{"android":"levelo://app?vid=0ee0a3e9-143a-4043-bbfb-2524bb2af636","ios":"levelo://app?vid=0ee0a3e9-143a-4043-bbfb-2524bb2af636"},"vehicle_type_id":"4","last_reported":1749868108,"current_range_meters":16800,"station_id":"ce4bhlh2rcd13ifvqgig","pricing_plan_id":"cebpf4jnsgd1na2vs0mg"},{"bike_id":"87b93258-b909-4751-96bd-4070d60cdff6","system_id":"levelo_inurba_marseille","lat":43.29562,"lon":5.42298,"is_reserved":false,"is_disabled":false,"rental_uris":{"android":"levelo://app?vid=87b93258-b909-4751-96bd-4070d60cdff6","ios":"levelo://app?vid=87b93258-b909-4751-96bd-4070d60cdff6"},"vehicle_type_id":"4","last_reported":1749868108,"current_range_meters":16800,"station_id":"ce4bhph2rcd13ifvqhdg","pricing_plan_id":"cebpf4jnsgd1na2vs0mg"},{"bike_id":"bd081d41-5eed-4495-82ed-9e27cd112239","system_id":"levelo_inurba_marseille","lat":43.249488,"lon":5.396613,"is_reserved":false,"is_disabled":false,"rental_uris":{"android":"levelo://app?vid=bd081d41-5eed-4495-82ed-9e27cd112239","ios":"levelo://app?vid=bd081d41-5eed-4495-82ed-9e27cd112239"},"vehicle_type_id":"4","last_reported":1749868108,"current_range_meters":17200,"station_id":"","pricing_plan_id":"cebpf4jnsgd1na2vs0mg"},{"bike_id":"0dbfb033-7d0b-4b54-b27f-fd59e4e2005e","system_id":"levelo_inurba_marseille","lat":43.29251,"lon":5.40902,"is_reserved":false,"is_disabled":false,"rental_uris":{"android":"levelo://app?vid=0dbfb033-7d0b-4b54-b27f-fd59e4e2005e","ios":"levelo://app?vid=0dbfb033-7d0b-4b54-b27f-fd59e4e2005e"},"vehicle_type_id":"4","last_reported":1749868108,"current_range_meters":17200,"station_id":"ce4bh192rcd13ifvqdc0","pricing_plan_id":"cebpf4jnsgd1na2vs0mg"},{"bike_id":"ca7ed89c-c39d-4f81-bb5b-61478c28e165","system_id":"levelo_inurba_marseille","lat":43.2845,"lon":5.35886,"is_reserved":false,"is_disabled":false,"rental_uris":{"android":"levelo://app?vid=ca7ed89c-c39d-4f81-bb5b-61478c28e165","ios":"levelo://app?vid=ca7ed89c-c39d-4f81-bb5b-61478c28e165"},"vehicle_type_id":"4","last_reported":1749868108,"current_range_meters":17200,"station_id":"ce4bhah2rcd13ifvqei0","pricing_plan_id":"cebpf4jnsgd1na2vs0mg"},{"bike_id":"7cbbcdcf-0330-43df-aabf-b312592c500d","system_id":"levelo_inurba_marseille","lat":43.28461,"lon":5.35889,"is_reserved":false,"is_disabled":false,"rental_uris":{"android":"levelo://app?vid=7cbbcdcf-0330-43df-aabf-b312592c500d","ios":"levelo://app?vid=7cbbcdcf-0330-43df-aabf-b312592c500d"},"vehicle_type_id":"4","last_reported":1749868108,"current_range_meters":17200,"station_id":"ce4bhah2rcd13ifvqei0","pricing_plan_id":"cebpf4jnsgd1na2vs0mg"},{"bike_id":"c5f5eac2-7ee2-4a74-aeb2-2ecd96532d66","system_id":"levelo_inurba_marseille","lat":43.25601,"lon":5.38213,"is_reserved":false,"is_disabled":false,"rental_uris":{"android":"levelo://app?vid=c5f5eac2-7ee2-4a74-aeb2-2ecd96532d66","ios":"levelo://app?vid=c5f5eac2-7ee2-4a74-aeb2-2ecd96532d66"},"vehicle_type_id":"4","last_reported":1749868108,"current_range_meters":17200,"station_id":"ce4bhih2rcd13ifvqfs0","pricing_plan_id":"cebpf4jnsgd1na2vs0mg"},{"bike_id":"594ed051-1059-4b4f-ba10-9f883524b6da","system_id":"levelo_inurba_marseille","lat":43.30408,"lon":5.41286,"is_reserved":false,"is_disabled":false,"rental_uris":{"android":"levelo://app?vid=594ed051-1059-4b4f-ba10-9f883524b6da","ios":"levelo://app?vid=594ed051-1059-4b4f-ba10-9f883524b6da"},"vehicle_type_id":"4","last_reported":1749868108,"current_range_meters":17200,"station_id":"ce4bhop2rcd13ifvqh8g","pricing_plan_id":"cebpf4jnsgd1na2vs0mg"},{"bike_id":"08e6a11f-eaa7-4a04-843b-18fb2504b3d4","system_id":"levelo_inurba_marseille","lat":43.323558,"lon":5.367598,"is_reserved":false,"is_disabled":false,"rental_uris":{"android":"levelo://app?vid=08e6a11f-eaa7-4a04-843b-18fb2504b3d4","ios":"levelo://app?vid=08e6a11f-eaa7-4a04-843b-18fb2504b3d4"},"vehicle_type_id":"4","last_reported":1749868108,"current_range_meters":17200,"station_id":"ce4bhsh2rcd13ifvqi2g","pricing_plan_id":"cebpf4jnsgd1na2vs0mg"},{"bike_id":"58cd0331-8288-4239-aa85-d394c5116406","system_id":"levelo_inurba_marseille","lat":43.31476,"lon":5.373,"is_reserved":false,"is_disabled":false,"rental_uris":{"android":"levelo://app?vid=58cd0331-8288-4239-aa85-d394c5116406","ios":"levelo://app?vid=58cd0331-8288-4239-aa85-d394c5116406"},"vehicle_type_id":"4","last_reported":1749868108,"current_range_meters":17600,"station_id":"ce4bgt12rcd13ifvqcd0","pricing_plan_id":"cebpf4jnsgd1na2vs0mg"},{"bike_id":"12ab6b94-55be-49eb-9377-28930ee54892","system_id":"levelo_inurba_marseille","lat":43.28407,"lon":5.37518,"is_reserved":false,"is_disabled":false,"rental_uris":{"android":"levelo://app?vid=12ab6b94-55be-49eb-9377-28930ee54892","ios":"levelo://app?vid=12ab6b94-55be-49eb-9377-28930ee54892"},"vehicle_type_id":"4","last_reported":1749868108,"current_range_meters":17600,"station_id":"ce4bh412rcd13ifvqds0","pricing_plan_id":"cebpf4jnsgd1na2vs0mg"},{"bike_id":"108df224-a9a1-40dd-bfd9-874deb063612","system_id":"levelo_inurba_marseille","lat":43.250905,"lon":5.39521,"is_reserved":false,"is_disabled":false,"rental_uris":{"android":"levelo://app?vid=108df224-a9a1-40dd-bfd9-874deb063612","ios":"levelo://app?vid=108df224-a9a1-40dd-bfd9-874deb063612"},"vehicle_type_id":"4","last_reported":1749868108,"current_range_meters":17600,"station_id":"ce4bhm12rcd13ifvqgkg","pricing_plan_id":"cebpf4jnsgd1na2vs0mg"},{"bike_id":"d9b5145e-0110-459c-b195-88d413502a99","system_id":"levelo_inurba_marseille","lat":43.280733,"lon":5.396605,"is_reserved":false,"is_disabled":false,"rental_uris":{"android":"levelo://app?vid=d9b5145e-0110-459c-b195-88d413502a99","ios":"levelo://app?vid=d9b5145e-0110-459c-b195-88d413502a99"},"vehicle_type_id":"4","last_reported":1749868108,"current_range_meters":17600,"station_id":"ce4bho12rcd13ifvqh2g","pricing_plan_id":"cebpf4jnsgd1na2vs0mg"},{"bike_id":"7cd58f80-1a13-48bf-9b27-0c54daaa78b6","system_id":"levelo_inurba_marseille","lat":43.32365,"lon":5.36787,"is_reserved":false,"is_disabled":false,"rental_uris":{"android":"levelo://app?vid=7cd58f80-1a13-48bf-9b27-0c54daaa78b6","ios":"levelo://app?vid=7cd58f80-1a13-48bf-9b27-0c54daaa78b6"},"vehicle_type_id":"4","last_reported":1749868108,"current_range_meters":17600,"station_id":"ce4bhsh2rcd13ifvqi2g","pricing_plan_id":"cebpf4jnsgd1na2vs0mg"},{"bike_id":"0051cad2-5512-4f9b-a10e-1c6dfd4ad7e6","system_id":"levelo_inurba_marseille","lat":43.31525,"lon":5.38033,"is_reserved":false,"is_disabled":false,"rental_uris":{"android":"levelo://app?vid=0051cad2-5512-4f9b-a10e-1c6dfd4ad7e6","ios":"levelo://app?vid=0051cad2-5512-4f9b-a10e-1c6dfd4ad7e6"},"vehicle_type_id":"4","last_reported":1749868108,"current_range_meters":17600,"station_id":"ce4bhsp2rcd13ifvqi50","pricing_plan_id":"cebpf4jnsgd1na2vs0mg"},{"bike_id":"a8283606-6fdf-49b2-991a-62bc6fc9988a","system_id":"levelo_inurba_marseille","lat":43.22514,"lon":5.34774,"is_reserved":false,"is_disabled":false,"rental_uris":{"android":"levelo://app?vid=a8283606-6fdf-49b2-991a-62bc6fc9988a","ios":"levelo://app?vid=a8283606-6fdf-49b2-991a-62bc6fc9988a"},"vehicle_type_id":"4","last_reported":1749868108,"current_range_meters":18000,"station_id":"","pricing_plan_id":"cebpf4jnsgd1na2vs0mg"},{"bike_id":"a123e9fa-df7d-41fb-b2d5-2e4e345456f9","system_id":"levelo_inurba_marseille","lat":43.25319,"lon":5.37473,"is_reserved":false,"is_disabled":false,"rental_uris":{"android":"levelo://app?vid=a123e9fa-df7d-41fb-b2d5-2e4e345456f9","ios":"levelo://app?vid=a123e9fa-df7d-41fb-b2d5-2e4e345456f9"},"vehicle_type_id":"4","last_reported":1749868108,"current_range_meters":18000,"station_id":"","pricing_plan_id":"cebpf4jnsgd1na2vs0mg"},{"bike_id":"22e8851f-95da-4adc-8385-39a42865aecd","system_id":"levelo_inurba_marseille","lat":43.30196,"lon":5.36629,"is_reserved":false,"is_disabled":false,"rental_uris":{"android":"levelo://app?vid=22e8851f-95da-4adc-8385-39a42865aecd","ios":"levelo://app?vid=22e8851f-95da-4adc-8385-39a42865aecd"},"vehicle_type_id":"4","last_reported":1749868108,"current_range_meters":18000,"station_id":"ce4bgrh2rcd13ifvqc8g","pricing_plan_id":"cebpf4jnsgd1na2vs0mg"},{"bike_id":"19a6492c-1b98-43b8-9f8e-5fcb1fd67f71","system_id":"levelo_inurba_marseille","lat":43.279349,"lon":5.410483,"is_reserved":false,"is_disabled":false,"rental_uris":{"android":"levelo://app?vid=19a6492c-1b98-43b8-9f8e-5fcb1fd67f71","ios":"levelo://app?vid=19a6492c-1b98-43b8-9f8e-5fcb1fd67f71"},"vehicle_type_id":"4","last_reported":1749868108,"current_range_meters":18000,"station_id":"ce4bhnp2rcd13ifvqh0g","pricing_plan_id":"cebpf4jnsgd1na2vs0mg"},{"bike_id":"7240a984-bb6d-4c3b-ab8d-aef55ac0bce8","system_id":"levelo_inurba_marseille","lat":43.21193,"lon":5.35068,"is_reserved":false,"is_disabled":false,"rental_uris":{"android":"levelo://app?vid=7240a984-bb6d-4c3b-ab8d-aef55ac0bce8","ios":"levelo://app?vid=7240a984-bb6d-4c3b-ab8d-aef55ac0bce8"},"vehicle_type_id":"4","last_reported":1749868108,"current_range_meters":18000,"station_id":"st_cvj6sg6p6f1abm77japg","pricing_plan_id":"cebpf4jnsgd1na2vs0mg"},{"bike_id":"c82f75f2-635c-40da-9f67-77d82cb74c97","system_id":"levelo_inurba_marseille","lat":43.2121,"lon":5.35081,"is_reserved":false,"is_disabled":false,"rental_uris":{"android":"levelo://app?vid=c82f75f2-635c-40da-9f67-77d82cb74c97","ios":"levelo://app?vid=c82f75f2-635c-40da-9f67-77d82cb74c97"},"vehicle_type_id":"4","last_reported":1749868108,"current_range_meters":18000,"station_id":"st_cvj6sg6p6f1abm77japg","pricing_plan_id":"cebpf4jnsgd1na2vs0mg"},{"bike_id":"7c5f68d1-6596-4ec2-b881-f1e22109d1e4","system_id":"levelo_inurba_marseille","lat":43.29976,"lon":5.37185,"is_reserved":false,"is_disabled":false,"rental_uris":{"android":"levelo://app?vid=7c5f68d1-6596-4ec2-b881-f1e22109d1e4","ios":"levelo://app?vid=7c5f68d1-6596-4ec2-b881-f1e22109d1e4"},"vehicle_type_id":"4","last_reported":1749868108,"current_range_meters":18800,"station_id":"ce4bgr92rcd13ifvqc7g","pricing_plan_id":"cebpf4jnsgd1na2vs0mg"},{"bike_id":"e764792e-c6f6-4cf9-89dc-fa9db4268750","system_id":"levelo_inurba_marseille","lat":43.30247,"lon":5.40052,"is_reserved":false,"is_disabled":false,"rental_uris":{"android":"levelo://app?vid=e764792e-c6f6-4cf9-89dc-fa9db4268750","ios":"levelo://app?vid=e764792e-c6f6-4cf9-89dc-fa9db4268750"},"vehicle_type_id":"4","last_reported":1749868108,"current_range_meters":18800,"station_id":"ce4bgvh2rcd13ifvqcs0","pricing_plan_id":"cebpf4jnsgd1na2vs0mg"},{"bike_id":"a5cc2573-2e19-47e7-890b-a360900292dd","system_id":"levelo_inurba_marseille","lat":43.29791,"lon":5.40413,"is_reserved":false,"is_disabled":false,"rental_uris":{"android":"levelo://app?vid=a5cc2573-2e19-47e7-890b-a360900292dd","ios":"levelo://app?vid=a5cc2573-2e19-47e7-890b-a360900292dd"},"vehicle_type_id":"4","last_reported":1749868108,"current_range_meters":18800,"station_id":"ce4bh112rcd13ifvqd90","pricing_plan_id":"cebpf4jnsgd1na2vs0mg"},{"bike_id":"1f4419ff-b0eb-4cb9-9647-40eea823db14","system_id":"levelo_inurba_marseille","lat":43.289327,"lon":5.383937,"is_reserved":false,"is_disabled":false,"rental_uris":{"android":"levelo://app?vid=1f4419ff-b0eb-4cb9-9647-40eea823db14","ios":"levelo://app?vid=1f4419ff-b0eb-4cb9-9647-40eea823db14"},"vehicle_type_id":"4","last_reported":1749868108,"current_range_meters":18800,"station_id":"ce4bh612rcd13ifvqe6g","pricing_plan_id":"cebpf4jnsgd1na2vs0mg"},{"bike_id":"bba9f0ef-35a9-4443-9d6c-7c175d1b75de","system_id":"levelo_inurba_marseille","lat":43.23193,"lon":5.39977,"is_reserved":false,"is_disabled":false,"rental_uris":{"android":"levelo://app?vid=bba9f0ef-35a9-4443-9d6c-7c175d1b75de","ios":"levelo://app?vid=bba9f0ef-35a9-4443-9d6c-7c175d1b75de"},"vehicle_type_id":"4","last_reported":1749868108,"current_range_meters":18800,"station_id":"ce4bhn12rcd13ifvqgqg","pricing_plan_id":"cebpf4jnsgd1na2vs0mg"},{"bike_id":"fda49c5e-e9a2-4603-b1b9-dabe18096edd","system_id":"levelo_inurba_marseille","lat":43.24079,"lon":5.37775,"is_reserved":false,"is_disabled":false,"rental_uris":{"android":"levelo://app?vid=fda49c5e-e9a2-4603-b1b9-dabe18096edd","ios":"levelo://app?vid=fda49c5e-e9a2-4603-b1b9-dabe18096edd"},"vehicle_type_id":"4","last_reported":1749868108,"current_range_meters":19200,"station_id":"ce4bhnp2rcd13ifvqgvg","pricing_plan_id":"cebpf4jnsgd1na2vs0mg"},{"bike_id":"a300b931-d0d8-415a-80cd-9f6e76c9476f","system_id":"levelo_inurba_marseille","lat":43.31513,"lon":5.37309,"is_reserved":false,"is_disabled":false,"rental_uris":{"android":"levelo://app?vid=a300b931-d0d8-415a-80cd-9f6e76c9476f","ios":"levelo://app?vid=a300b931-d0d8-415a-80cd-9f6e76c9476f"},"vehicle_type_id":"4","last_reported":1749868108,"current_range_meters":19600,"station_id":"ce4bgt12rcd13ifvqcd0","pricing_plan_id":"cebpf4jnsgd1na2vs0mg"},{"bike_id":"73692e39-4c51-4db4-be0b-802d0a7a2a4c","system_id":"levelo_inurba_marseille","lat":43.31119,"lon":5.3777,"is_reserved":false,"is_disabled":false,"rental_uris":{"android":"levelo://app?vid=73692e39-4c51-4db4-be0b-802d0a7a2a4c","ios":"levelo://app?vid=73692e39-4c51-4db4-be0b-802d0a7a2a4c"},"vehicle_type_id":"4","last_reported":1749868108,"current_range_meters":19600,"station_id":"ce4bgt92rcd13ifvqcg0","pricing_plan_id":"cebpf4jnsgd1na2vs0mg"},{"bike_id":"11ab042b-3376-4c73-b2f8-af4b8f43cc10","system_id":"levelo_inurba_marseille","lat":43.31095,"lon":5.37776,"is_reserved":false,"is_disabled":false,"rental_uris":{"android":"levelo://app?vid=11ab042b-3376-4c73-b2f8-af4b8f43cc10","ios":"levelo://app?vid=11ab042b-3376-4c73-b2f8-af4b8f43cc10"},"vehicle_type_id":"4","last_reported":1749868108,"current_range_meters":19600,"station_id":"ce4bgt92rcd13ifvqcg0","pricing_plan_id":"cebpf4jnsgd1na2vs0mg"},{"bike_id":"56355d91-d836-42f6-98d6-167e7b87e9e8","system_id":"levelo_inurba_marseille","lat":43.30914,"lon":5.40153,"is_reserved":false,"is_disabled":false,"rental_uris":{"android":"levelo://app?vid=56355d91-d836-42f6-98d6-167e7b87e9e8","ios":"levelo://app?vid=56355d91-d836-42f6-98d6-167e7b87e9e8"},"vehicle_type_id":"4","last_reported":1749868108,"current_range_meters":19600,"station_id":"ce4bgvp2rcd13ifvqct0","pricing_plan_id":"cebpf4jnsgd1na2vs0mg"},{"bike_id":"9f2c67ea-2c10-4d9b-8193-6d8460522633","system_id":"levelo_inurba_marseille","lat":43.30149,"lon":5.39863,"is_reserved":false,"is_disabled":false,"rental_uris":{"android":"levelo://app?vid=9f2c67ea-2c10-4d9b-8193-6d8460522633","ios":"levelo://app?vid=9f2c67ea-2c10-4d9b-8193-6d8460522633"},"vehicle_type_id":"4","last_reported":1749868108,"current_range_meters":19600,"station_id":"ce4bh0h2rcd13ifvqd40","pricing_plan_id":"cebpf4jnsgd1na2vs0mg"},{"bike_id":"821ffeb7-504e-49a3-aa5e-ded90c45f20e","system_id":"levelo_inurba_marseille","lat":43.30413,"lon":5.412839,"is_reserved":false,"is_disabled":false,"rental_uris":{"android":"levelo://app?vid=821ffeb7-504e-49a3-aa5e-ded90c45f20e","ios":"levelo://app?vid=821ffeb7-504e-49a3-aa5e-ded90c45f20e"},"vehicle_type_id":"4","last_reported":1749868108,"current_range_meters":19600,"station_id":"ce4bhop2rcd13ifvqh8g","pricing_plan_id":"cebpf4jnsgd1na2vs0mg"},{"bike_id":"6be4221e-00f2-4f98-9df9-58f5ce577a92","system_id":"levelo_inurba_marseille","lat":43.32373,"lon":5.38867,"is_reserved":false,"is_disabled":false,"rental_uris":{"android":"levelo://app?vid=6be4221e-00f2-4f98-9df9-58f5ce577a92","ios":"levelo://app?vid=6be4221e-00f2-4f98-9df9-58f5ce577a92"},"vehicle_type_id":"4","last_reported":1749868108,"current_range_meters":19600,"station_id":"ce4bhqp2rcd13ifvqhog","pricing_plan_id":"cebpf4jnsgd1na2vs0mg"},{"bike_id":"0f8743c8-38b1-42bc-9c91-f69d26b1f097","system_id":"levelo_inurba_marseille","lat":43.31237,"lon":5.36861,"is_reserved":false,"is_disabled":false,"rental_uris":{"android":"levelo://app?vid=0f8743c8-38b1-42bc-9c91-f69d26b1f097","ios":"levelo://app?vid=0f8743c8-38b1-42bc-9c91-f69d26b1f097"},"vehicle_type_id":"4","last_reported":1749868108,"current_range_meters":20000,"station_id":"ce4bgl92rcd13ifvqbq0","pricing_plan_id":"cebpf4jnsgd1na2vs0mg"},{"bike_id":"0012fc50-3053-4992-90c5-27bdf827b53a","system_id":"levelo_inurba_marseille","lat":43.30263,"lon":5.40104,"is_reserved":false,"is_disabled":false,"rental_uris":{"android":"levelo://app?vid=0012fc50-3053-4992-90c5-27bdf827b53a","ios":"levelo://app?vid=0012fc50-3053-4992-90c5-27bdf827b53a"},"vehicle_type_id":"4","last_reported":1749868108,"current_range_meters":20000,"station_id":"ce4bgvh2rcd13ifvqcs0","pricing_plan_id":"cebpf4jnsgd1na2vs0mg"},{"bike_id":"3f95fd72-f11c-4bfd-9911-0771d57f6ba0","system_id":"levelo_inurba_marseille","lat":43.30936,"lon":5.40152,"is_reserved":false,"is_disabled":false,"rental_uris":{"android":"levelo://app?vid=3f95fd72-f11c-4bfd-9911-0771d57f6ba0","ios":"levelo://app?vid=3f95fd72-f11c-4bfd-9911-0771d57f6ba0"},"vehicle_type_id":"4","last_reported":1749868108,"current_range_meters":20000,"station_id":"ce4bgvp2rcd13ifvqct0","pricing_plan_id":"cebpf4jnsgd1na2vs0mg"},{"bike_id":"008076b7-262d-4179-badc-fcd1ca706fff","system_id":"levelo_inurba_marseille","lat":43.30887,"lon":5.39646,"is_reserved":false,"is_disabled":false,"rental_uris":{"android":"levelo://app?vid=008076b7-262d-4179-badc-fcd1ca706fff","ios":"levelo://app?vid=008076b7-262d-4179-badc-fcd1ca706fff"},"vehicle_type_id":"4","last_reported":1749868108,"current_range_meters":20000,"station_id":"ce4bh012rcd13ifvqcv0","pricing_plan_id":"cebpf4jnsgd1na2vs0mg"},{"bike_id":"fa872208-5302-4d72-83ab-b792efe9b33c","system_id":"levelo_inurba_marseille","lat":43.2583,"lon":5.39438,"is_reserved":false,"is_disabled":false,"rental_uris":{"android":"levelo://app?vid=fa872208-5302-4d72-83ab-b792efe9b33c","ios":"levelo://app?vid=fa872208-5302-4d72-83ab-b792efe9b33c"},"vehicle_type_id":"4","last_reported":1749868108,"current_range_meters":20000,"station_id":"ce4bhip2rcd13ifvqft0","pricing_plan_id":"cebpf4jnsgd1na2vs0mg"},{"bike_id":"f148e223-23a1-4eba-9dd8-74998b9e9c6b","system_id":"levelo_inurba_marseille","lat":43.25076,"lon":5.39509,"is_reserved":false,"is_disabled":false,"rental_uris":{"android":"levelo://app?vid=f148e223-23a1-4eba-9dd8-74998b9e9c6b","ios":"levelo://app?vid=f148e223-23a1-4eba-9dd8-74998b9e9c6b"},"vehicle_type_id":"4","last_reported":1749868108,"current_range_meters":20000,"station_id":"ce4bhm12rcd13ifvqgkg","pricing_plan_id":"cebpf4jnsgd1na2vs0mg"},{"bike_id":"8c291dd9-a151-4ba2-b5e6-c7fb443a2106","system_id":"levelo_inurba_marseille","lat":43.31712,"lon":5.43705,"is_reserved":false,"is_disabled":false,"rental_uris":{"android":"levelo://app?vid=8c291dd9-a151-4ba2-b5e6-c7fb443a2106","ios":"levelo://app?vid=8c291dd9-a151-4ba2-b5e6-c7fb443a2106"},"vehicle_type_id":"4","last_reported":1749868108,"current_range_meters":20000,"station_id":"ce4bhp92rcd13ifvqhcg","pricing_plan_id":"cebpf4jnsgd1na2vs0mg"},{"bike_id":"638fe5e2-819c-4567-a9e4-48c97298b908","system_id":"levelo_inurba_marseille","lat":43.28076,"lon":5.39654,"is_reserved":false,"is_disabled":false,"rental_uris":{"android":"levelo://app?vid=638fe5e2-819c-4567-a9e4-48c97298b908","ios":"levelo://app?vid=638fe5e2-819c-4567-a9e4-48c97298b908"},"vehicle_type_id":"4","last_reported":1749868108,"current_range_meters":20400,"station_id":"ce4bho12rcd13ifvqh2g","pricing_plan_id":"cebpf4jnsgd1na2vs0mg"},{"bike_id":"90f49018-8b41-408d-b86a-41368d4f9c83","system_id":"levelo_inurba_marseille","lat":43.323644,"lon":5.388833,"is_reserved":false,"is_disabled":false,"rental_uris":{"android":"levelo://app?vid=90f49018-8b41-408d-b86a-41368d4f9c83","ios":"levelo://app?vid=90f49018-8b41-408d-b86a-41368d4f9c83"},"vehicle_type_id":"4","last_reported":1749868108,"current_range_meters":20400,"station_id":"ce4bhqp2rcd13ifvqhog","pricing_plan_id":"cebpf4jnsgd1na2vs0mg"},{"bike_id":"af54e57f-f161-4317-9bd4-1d43f8702955","system_id":"levelo_inurba_marseille","lat":43.232,"lon":5.35517,"is_reserved":false,"is_disabled":false,"rental_uris":{"android":"levelo://app?vid=af54e57f-f161-4317-9bd4-1d43f8702955","ios":"levelo://app?vid=af54e57f-f161-4317-9bd4-1d43f8702955"},"vehicle_type_id":"4","last_reported":1749868108,"current_range_meters":20400,"station_id":"ce4bhu92rcd13ifvqi70","pricing_plan_id":"cebpf4jnsgd1na2vs0mg"},{"bike_id":"19645f49-ed17-4e15-bdf1-5ad1116d5d1b","system_id":"levelo_inurba_marseille","lat":43.30107,"lon":5.39871,"is_reserved":false,"is_disabled":false,"rental_uris":{"android":"levelo://app?vid=19645f49-ed17-4e15-bdf1-5ad1116d5d1b","ios":"levelo://app?vid=19645f49-ed17-4e15-bdf1-5ad1116d5d1b"},"vehicle_type_id":"4","last_reported":1749868108,"current_range_meters":20800,"station_id":"ce4bh0h2rcd13ifvqd40","pricing_plan_id":"cebpf4jnsgd1na2vs0mg"},{"bike_id":"467d05a9-392d-4a40-958b-8dea44948f48","system_id":"levelo_inurba_marseille","lat":43.241873,"lon":5.39756,"is_reserved":false,"is_disabled":false,"rental_uris":{"android":"levelo://app?vid=467d05a9-392d-4a40-958b-8dea44948f48","ios":"levelo://app?vid=467d05a9-392d-4a40-958b-8dea44948f48"},"vehicle_type_id":"4","last_reported":1749868108,"current_range_meters":20800,"station_id":"ce4bhn12rcd13ifvqgpg","pricing_plan_id":"cebpf4jnsgd1na2vs0mg"},{"bike_id":"32e45d3b-beb4-4688-a4b0-146e0ca23c25","system_id":"levelo_inurba_marseille","lat":43.31329,"lon":5.397,"is_reserved":false,"is_disabled":false,"rental_uris":{"android":"levelo://app?vid=32e45d3b-beb4-4688-a4b0-146e0ca23c25","ios":"levelo://app?vid=32e45d3b-beb4-4688-a4b0-146e0ca23c25"},"vehicle_type_id":"4","last_reported":1749868108,"current_range_meters":21600,"station_id":"ce4bgvp2rcd13ifvqcu0","pricing_plan_id":"cebpf4jnsgd1na2vs0mg"},{"bike_id":"eca5c1c7-db92-42a8-b437-6e3bf4bbb879","system_id":"levelo_inurba_marseille","lat":43.25583,"lon":5.38247,"is_reserved":false,"is_disabled":false,"rental_uris":{"android":"levelo://app?vid=eca5c1c7-db92-42a8-b437-6e3bf4bbb879","ios":"levelo://app?vid=eca5c1c7-db92-42a8-b437-6e3bf4bbb879"},"vehicle_type_id":"4","last_reported":1749868108,"current_range_meters":21600,"station_id":"ce4bhih2rcd13ifvqfs0","pricing_plan_id":"cebpf4jnsgd1na2vs0mg"},{"bike_id":"498f61e4-dfad-4b00-b8d6-2902838fbf34","system_id":"levelo_inurba_marseille","lat":43.27819,"lon":5.40716,"is_reserved":false,"is_disabled":false,"rental_uris":{"android":"levelo://app?vid=498f61e4-dfad-4b00-b8d6-2902838fbf34","ios":"levelo://app?vid=498f61e4-dfad-4b00-b8d6-2902838fbf34"},"vehicle_type_id":"4","last_reported":1749868108,"current_range_meters":21600,"station_id":"ce4bhnh2rcd13ifvqgtg","pricing_plan_id":"cebpf4jnsgd1na2vs0mg"},{"bike_id":"bbed922f-6949-45f2-bb3a-714db6196a50","system_id":"levelo_inurba_marseille","lat":43.31729,"lon":5.424,"is_reserved":false,"is_disabled":false,"rental_uris":{"android":"levelo://app?vid=bbed922f-6949-45f2-bb3a-714db6196a50","ios":"levelo://app?vid=bbed922f-6949-45f2-bb3a-714db6196a50"},"vehicle_type_id":"4","last_reported":1749868108,"current_range_meters":21600,"station_id":"ce4bhp92rcd13ifvqhbg","pricing_plan_id":"cebpf4jnsgd1na2vs0mg"},{"bike_id":"67d4735d-a812-4e55-90bc-5641f4e35931","system_id":"levelo_inurba_marseille","lat":43.21197,"lon":5.35071,"is_reserved":false,"is_disabled":false,"rental_uris":{"android":"levelo://app?vid=67d4735d-a812-4e55-90bc-5641f4e35931","ios":"levelo://app?vid=67d4735d-a812-4e55-90bc-5641f4e35931"},"vehicle_type_id":"4","last_reported":1749868108,"current_range_meters":21600,"station_id":"st_cvj6sg6p6f1abm77japg","pricing_plan_id":"cebpf4jnsgd1na2vs0mg"},{"bike_id":"0e6c862a-7c72-4617-bde4-9352ff9a6297","system_id":"levelo_inurba_marseille","lat":43.263476,"lon":5.378208,"is_reserved":false,"is_disabled":false,"rental_uris":{"android":"levelo://app?vid=0e6c862a-7c72-4617-bde4-9352ff9a6297","ios":"levelo://app?vid=0e6c862a-7c72-4617-bde4-9352ff9a6297"},"vehicle_type_id":"4","last_reported":1749868108,"current_range_meters":22000,"station_id":"","pricing_plan_id":"cebpf4jnsgd1na2vs0mg"},{"bike_id":"42dbd915-8efc-4615-b982-3b1a41a609cf","system_id":"levelo_inurba_marseille","lat":43.30269,"lon":5.4008,"is_reserved":false,"is_disabled":false,"rental_uris":{"android":"levelo://app?vid=42dbd915-8efc-4615-b982-3b1a41a609cf","ios":"levelo://app?vid=42dbd915-8efc-4615-b982-3b1a41a609cf"},"vehicle_type_id":"4","last_reported":1749868108,"current_range_meters":22000,"station_id":"ce4bgvh2rcd13ifvqcs0","pricing_plan_id":"cebpf4jnsgd1na2vs0mg"},{"bike_id":"1f365f52-86bd-40a9-bfa6-786b4910ec07","system_id":"levelo_inurba_marseille","lat":43.29253,"lon":5.40918,"is_reserved":false,"is_disabled":false,"rental_uris":{"android":"levelo://app?vid=1f365f52-86bd-40a9-bfa6-786b4910ec07","ios":"levelo://app?vid=1f365f52-86bd-40a9-bfa6-786b4910ec07"},"vehicle_type_id":"4","last_reported":1749868108,"current_range_meters":22000,"station_id":"ce4bh192rcd13ifvqdc0","pricing_plan_id":"cebpf4jnsgd1na2vs0mg"},{"bike_id":"74c95337-c7a8-4e3b-87f0-b61a773fea6c","system_id":"levelo_inurba_marseille","lat":43.31713,"lon":5.43746,"is_reserved":false,"is_disabled":false,"rental_uris":{"android":"levelo://app?vid=74c95337-c7a8-4e3b-87f0-b61a773fea6c","ios":"levelo://app?vid=74c95337-c7a8-4e3b-87f0-b61a773fea6c"},"vehicle_type_id":"4","last_reported":1749868108,"current_range_meters":22000,"station_id":"ce4bhp92rcd13ifvqhcg","pricing_plan_id":"cebpf4jnsgd1na2vs0mg"},{"bike_id":"1d092ff4-8742-4596-b63f-1e1ab2169408","system_id":"levelo_inurba_marseille","lat":43.33613,"lon":5.4099,"is_reserved":false,"is_disabled":false,"rental_uris":{"android":"levelo://app?vid=1d092ff4-8742-4596-b63f-1e1ab2169408","ios":"levelo://app?vid=1d092ff4-8742-4596-b63f-1e1ab2169408"},"vehicle_type_id":"4","last_reported":1749868108,"current_range_meters":22000,"station_id":"ce4bhqh2rcd13ifvqhmg","pricing_plan_id":"cebpf4jnsgd1na2vs0mg"},{"bike_id":"f29a7746-f752-482c-a5d1-5218b286d5de","system_id":"levelo_inurba_marseille","lat":43.31971,"lon":5.38736,"is_reserved":false,"is_disabled":false,"rental_uris":{"android":"levelo://app?vid=f29a7746-f752-482c-a5d1-5218b286d5de","ios":"levelo://app?vid=f29a7746-f752-482c-a5d1-5218b286d5de"},"vehicle_type_id":"4","last_reported":1749868108,"current_range_meters":22400,"station_id":"","pricing_plan_id":"cebpf4jnsgd1na2vs0mg"},{"bike_id":"24d9c825-a55a-4feb-8767-810621d44530","system_id":"levelo_inurba_marseille","lat":43.30512,"lon":5.36687,"is_reserved":false,"is_disabled":false,"rental_uris":{"android":"levelo://app?vid=24d9c825-a55a-4feb-8767-810621d44530","ios":"levelo://app?vid=24d9c825-a55a-4feb-8767-810621d44530"},"vehicle_type_id":"4","last_reported":1749868108,"current_range_meters":22400,"station_id":"ce4bgrp2rcd13ifvqc9g","pricing_plan_id":"cebpf4jnsgd1na2vs0mg"},{"bike_id":"b5fbf1fa-d8e4-44fa-92e4-76230f5838ab","system_id":"levelo_inurba_marseille","lat":43.31124,"lon":5.37779,"is_reserved":false,"is_disabled":false,"rental_uris":{"android":"levelo://app?vid=b5fbf1fa-d8e4-44fa-92e4-76230f5838ab","ios":"levelo://app?vid=b5fbf1fa-d8e4-44fa-92e4-76230f5838ab"},"vehicle_type_id":"4","last_reported":1749868108,"current_range_meters":22400,"station_id":"ce4bgt92rcd13ifvqcg0","pricing_plan_id":"cebpf4jnsgd1na2vs0mg"},{"bike_id":"674d0f63-efac-4210-8909-5db427deab4f","system_id":"levelo_inurba_marseille","lat":43.29563,"lon":5.39964,"is_reserved":false,"is_disabled":false,"rental_uris":{"android":"levelo://app?vid=674d0f63-efac-4210-8909-5db427deab4f","ios":"levelo://app?vid=674d0f63-efac-4210-8909-5db427deab4f"},"vehicle_type_id":"4","last_reported":1749868108,"current_range_meters":22400,"station_id":"ce4bh312rcd13ifvqdj0","pricing_plan_id":"cebpf4jnsgd1na2vs0mg"},{"bike_id":"061c8a5a-c8b7-495e-838f-e6ef507e5191","system_id":"levelo_inurba_marseille","lat":43.286702,"lon":5.363555,"is_reserved":false,"is_disabled":false,"rental_uris":{"android":"levelo://app?vid=061c8a5a-c8b7-495e-838f-e6ef507e5191","ios":"levelo://app?vid=061c8a5a-c8b7-495e-838f-e6ef507e5191"},"vehicle_type_id":"4","last_reported":1749868108,"current_range_meters":22400,"station_id":"ce4bhah2rcd13ifvqej0","pricing_plan_id":"cebpf4jnsgd1na2vs0mg"},{"bike_id":"d4f1fb39-cd22-4116-8d45-f53db9a3d57e","system_id":"levelo_inurba_marseille","lat":43.250833,"lon":5.395142,"is_reserved":false,"is_disabled":false,"rental_uris":{"android":"levelo://app?vid=d4f1fb39-cd22-4116-8d45-f53db9a3d57e","ios":"levelo://app?vid=d4f1fb39-cd22-4116-8d45-f53db9a3d57e"},"vehicle_type_id":"4","last_reported":1749868108,"current_range_meters":22400,"station_id":"ce4bhm12rcd13ifvqgkg","pricing_plan_id":"cebpf4jnsgd1na2vs0mg"},{"bike_id":"29b8829c-0fe8-4a53-b4c0-4d88bf45d13f","system_id":"levelo_inurba_marseille","lat":43.27497,"lon":5.42449,"is_reserved":false,"is_disabled":false,"rental_uris":{"android":"levelo://app?vid=29b8829c-0fe8-4a53-b4c0-4d88bf45d13f","ios":"levelo://app?vid=29b8829c-0fe8-4a53-b4c0-4d88bf45d13f"},"vehicle_type_id":"4","last_reported":1749868108,"current_range_meters":22400,"station_id":"ce4bhn92rcd13ifvqgrg","pricing_plan_id":"cebpf4jnsgd1na2vs0mg"},{"bike_id":"5445f918-6331-4183-b55d-759a476e4bda","system_id":"levelo_inurba_marseille","lat":43.3247,"lon":5.3658,"is_reserved":false,"is_disabled":false,"rental_uris":{"android":"levelo://app?vid=5445f918-6331-4183-b55d-759a476e4bda","ios":"levelo://app?vid=5445f918-6331-4183-b55d-759a476e4bda"},"vehicle_type_id":"4","last_reported":1749868108,"current_range_meters":22400,"station_id":"ce4bhs12rcd13ifvqhvg","pricing_plan_id":"cebpf4jnsgd1na2vs0mg"},{"bike_id":"7828ec5a-c755-4bfd-915e-198d97efa7e8","system_id":"levelo_inurba_marseille","lat":43.30555,"lon":5.38936,"is_reserved":false,"is_disabled":false,"rental_uris":{"android":"levelo://app?vid=7828ec5a-c755-4bfd-915e-198d97efa7e8","ios":"levelo://app?vid=7828ec5a-c755-4bfd-915e-198d97efa7e8"},"vehicle_type_id":"4","last_reported":1749868108,"current_range_meters":22800,"station_id":"","pricing_plan_id":"cebpf4jnsgd1na2vs0mg"},{"bike_id":"8ddd3fef-32ec-4d27-9d4c-952e90ad4668","system_id":"levelo_inurba_marseille","lat":43.31492,"lon":5.37305,"is_reserved":false,"is_disabled":false,"rental_uris":{"android":"levelo://app?vid=8ddd3fef-32ec-4d27-9d4c-952e90ad4668","ios":"levelo://app?vid=8ddd3fef-32ec-4d27-9d4c-952e90ad4668"},"vehicle_type_id":"4","last_reported":1749868108,"current_range_meters":22800,"station_id":"ce4bgt12rcd13ifvqcd0","pricing_plan_id":"cebpf4jnsgd1na2vs0mg"},{"bike_id":"526778cc-1267-464b-88d7-e99711f4bfb7","system_id":"levelo_inurba_marseille","lat":43.30128,"lon":5.398741,"is_reserved":false,"is_disabled":false,"rental_uris":{"android":"levelo://app?vid=526778cc-1267-464b-88d7-e99711f4bfb7","ios":"levelo://app?vid=526778cc-1267-464b-88d7-e99711f4bfb7"},"vehicle_type_id":"4","last_reported":1749868108,"current_range_meters":22800,"station_id":"ce4bh0h2rcd13ifvqd40","pricing_plan_id":"cebpf4jnsgd1na2vs0mg"},{"bike_id":"6db9a16a-7102-498a-865a-157a6f14ef31","system_id":"levelo_inurba_marseille","lat":43.25827,"lon":5.3943,"is_reserved":false,"is_disabled":false,"rental_uris":{"android":"levelo://app?vid=6db9a16a-7102-498a-865a-157a6f14ef31","ios":"levelo://app?vid=6db9a16a-7102-498a-865a-157a6f14ef31"},"vehicle_type_id":"4","last_reported":1749868108,"current_range_meters":22800,"station_id":"ce4bhip2rcd13ifvqft0","pricing_plan_id":"cebpf4jnsgd1na2vs0mg"},{"bike_id":"90888396-6c39-4e76-9a78-acbf32fe4aa8","system_id":"levelo_inurba_marseille","lat":43.25116,"lon":5.4033,"is_reserved":false,"is_disabled":false,"rental_uris":{"android":"levelo://app?vid=90888396-6c39-4e76-9a78-acbf32fe4aa8","ios":"levelo://app?vid=90888396-6c39-4e76-9a78-acbf32fe4aa8"},"vehicle_type_id":"4","last_reported":1749868108,"current_range_meters":22800,"station_id":"ce4bhlh2rcd13ifvqgig","pricing_plan_id":"cebpf4jnsgd1na2vs0mg"},{"bike_id":"a74db2a3-a80e-476b-a80b-5b5b554c4cab","system_id":"levelo_inurba_marseille","lat":43.31297,"lon":5.37331,"is_reserved":false,"is_disabled":false,"rental_uris":{"android":"levelo://app?vid=a74db2a3-a80e-476b-a80b-5b5b554c4cab","ios":"levelo://app?vid=a74db2a3-a80e-476b-a80b-5b5b554c4cab"},"vehicle_type_id":"4","last_reported":1749868108,"current_range_meters":23200,"station_id":"","pricing_plan_id":"cebpf4jnsgd1na2vs0mg"},{"bike_id":"f6711b8c-01fb-4b47-8380-a96ca82345b3","system_id":"levelo_inurba_marseille","lat":43.30542,"lon":5.36714,"is_reserved":false,"is_disabled":false,"rental_uris":{"android":"levelo://app?vid=f6711b8c-01fb-4b47-8380-a96ca82345b3","ios":"levelo://app?vid=f6711b8c-01fb-4b47-8380-a96ca82345b3"},"vehicle_type_id":"4","last_reported":1749868108,"current_range_meters":23200,"station_id":"ce4bgrp2rcd13ifvqc9g","pricing_plan_id":"cebpf4jnsgd1na2vs0mg"},{"bike_id":"bbb13d1e-868a-49b4-8192-9ae3ba677a63","system_id":"levelo_inurba_marseille","lat":43.3148,"lon":5.37311,"is_reserved":false,"is_disabled":false,"rental_uris":{"android":"levelo://app?vid=bbb13d1e-868a-49b4-8192-9ae3ba677a63","ios":"levelo://app?vid=bbb13d1e-868a-49b4-8192-9ae3ba677a63"},"vehicle_type_id":"4","last_reported":1749868108,"current_range_meters":23200,"station_id":"ce4bgt12rcd13ifvqcd0","pricing_plan_id":"cebpf4jnsgd1na2vs0mg"},{"bike_id":"548aeccb-8cca-483c-80f8-182e6ed0a10e","system_id":"levelo_inurba_marseille","lat":43.30438,"lon":5.39743,"is_reserved":false,"is_disabled":false,"rental_uris":{"android":"levelo://app?vid=548aeccb-8cca-483c-80f8-182e6ed0a10e","ios":"levelo://app?vid=548aeccb-8cca-483c-80f8-182e6ed0a10e"},"vehicle_type_id":"4","last_reported":1749868108,"current_range_meters":23200,"station_id":"ce4bh092rcd13ifvqd20","pricing_plan_id":"cebpf4jnsgd1na2vs0mg"},{"bike_id":"d11a5e7a-959b-4f6b-9a9d-37da6d3fd5a8","system_id":"levelo_inurba_marseille","lat":43.287928,"lon":5.358534,"is_reserved":false,"is_disabled":false,"rental_uris":{"android":"levelo://app?vid=d11a5e7a-959b-4f6b-9a9d-37da6d3fd5a8","ios":"levelo://app?vid=d11a5e7a-959b-4f6b-9a9d-37da6d3fd5a8"},"vehicle_type_id":"4","last_reported":1749868108,"current_range_meters":23200,"station_id":"ce4bhb12rcd13ifvqem0","pricing_plan_id":"cebpf4jnsgd1na2vs0mg"},{"bike_id":"f313ade8-29e9-4ea2-92c7-cf2a854b19d2","system_id":"levelo_inurba_marseille","lat":43.243863,"lon":5.370664,"is_reserved":false,"is_disabled":false,"rental_uris":{"android":"levelo://app?vid=f313ade8-29e9-4ea2-92c7-cf2a854b19d2","ios":"levelo://app?vid=f313ade8-29e9-4ea2-92c7-cf2a854b19d2"},"vehicle_type_id":"4","last_reported":1749868108,"current_range_meters":23200,"station_id":"ce4bhhh2rcd13ifvqfk0","pricing_plan_id":"cebpf4jnsgd1na2vs0mg"},{"bike_id":"3f70cd85-2814-431e-9451-e6bfb19b25ce","system_id":"levelo_inurba_marseille","lat":43.27176,"lon":5.40998,"is_reserved":false,"is_disabled":false,"rental_uris":{"android":"levelo://app?vid=3f70cd85-2814-431e-9451-e6bfb19b25ce","ios":"levelo://app?vid=3f70cd85-2814-431e-9451-e6bfb19b25ce"},"vehicle_type_id":"4","last_reported":1749868108,"current_range_meters":23200,"station_id":"ce4bhl12rcd13ifvqgf0","pricing_plan_id":"cebpf4jnsgd1na2vs0mg"},{"bike_id":"38656ff5-aa8c-4c2e-b677-0a1a781c2984","system_id":"levelo_inurba_marseille","lat":43.25116,"lon":5.40327,"is_reserved":false,"is_disabled":false,"rental_uris":{"android":"levelo://app?vid=38656ff5-aa8c-4c2e-b677-0a1a781c2984","ios":"levelo://app?vid=38656ff5-aa8c-4c2e-b677-0a1a781c2984"},"vehicle_type_id":"4","last_reported":1749868108,"current_range_meters":23200,"station_id":"ce4bhlh2rcd13ifvqgig","pricing_plan_id":"cebpf4jnsgd1na2vs0mg"},{"bike_id":"405f3222-d59e-4941-9cc7-131e4def9f19","system_id":"levelo_inurba_marseille","lat":43.32471,"lon":5.36582,"is_reserved":false,"is_disabled":false,"rental_uris":{"android":"levelo://app?vid=405f3222-d59e-4941-9cc7-131e4def9f19","ios":"levelo://app?vid=405f3222-d59e-4941-9cc7-131e4def9f19"},"vehicle_type_id":"4","last_reported":1749868108,"current_range_meters":23200,"station_id":"ce4bhs12rcd13ifvqhvg","pricing_plan_id":"cebpf4jnsgd1na2vs0mg"},{"bike_id":"38e08ec6-738b-4a04-a092-dec10c6891d3","system_id":"levelo_inurba_marseille","lat":43.26877,"lon":5.40686,"is_reserved":false,"is_disabled":false,"rental_uris":{"android":"levelo://app?vid=38e08ec6-738b-4a04-a092-dec10c6891d3","ios":"levelo://app?vid=38e08ec6-738b-4a04-a092-dec10c6891d3"},"vehicle_type_id":"4","last_reported":1749868108,"current_range_meters":24000,"station_id":"","pricing_plan_id":"cebpf4jnsgd1na2vs0mg"},{"bike_id":"e15da792-f548-424c-b126-d7dc361793e4","system_id":"levelo_inurba_marseille","lat":43.31489,"lon":5.37295,"is_reserved":false,"is_disabled":false,"rental_uris":{"android":"levelo://app?vid=e15da792-f548-424c-b126-d7dc361793e4","ios":"levelo://app?vid=e15da792-f548-424c-b126-d7dc361793e4"},"vehicle_type_id":"4","last_reported":1749868108,"current_range_meters":24000,"station_id":"ce4bgt12rcd13ifvqcd0","pricing_plan_id":"cebpf4jnsgd1na2vs0mg"},{"bike_id":"7b0367c1-d44f-403a-91ad-cac5425851bf","system_id":"levelo_inurba_marseille","lat":43.30245,"lon":5.40047,"is_reserved":false,"is_disabled":false,"rental_uris":{"android":"levelo://app?vid=7b0367c1-d44f-403a-91ad-cac5425851bf","ios":"levelo://app?vid=7b0367c1-d44f-403a-91ad-cac5425851bf"},"vehicle_type_id":"4","last_reported":1749868108,"current_range_meters":24000,"station_id":"ce4bgvh2rcd13ifvqcs0","pricing_plan_id":"cebpf4jnsgd1na2vs0mg"},{"bike_id":"934d6e0b-e8a1-4b74-8a9d-63c6030218dc","system_id":"levelo_inurba_marseille","lat":43.24655,"lon":5.38169,"is_reserved":false,"is_disabled":false,"rental_uris":{"android":"levelo://app?vid=934d6e0b-e8a1-4b74-8a9d-63c6030218dc","ios":"levelo://app?vid=934d6e0b-e8a1-4b74-8a9d-63c6030218dc"},"vehicle_type_id":"4","last_reported":1749868108,"current_range_meters":24000,"station_id":"ce4bhih2rcd13ifvqfr0","pricing_plan_id":"cebpf4jnsgd1na2vs0mg"},{"bike_id":"c728fdaf-627b-4df1-b238-cbfc3c8874d6","system_id":"levelo_inurba_marseille","lat":43.25831,"lon":5.39444,"is_reserved":false,"is_disabled":false,"rental_uris":{"android":"levelo://app?vid=c728fdaf-627b-4df1-b238-cbfc3c8874d6","ios":"levelo://app?vid=c728fdaf-627b-4df1-b238-cbfc3c8874d6"},"vehicle_type_id":"4","last_reported":1749868108,"current_range_meters":24000,"station_id":"ce4bhip2rcd13ifvqft0","pricing_plan_id":"cebpf4jnsgd1na2vs0mg"},{"bike_id":"2190247d-88df-4795-a8c5-b62bd77d97ac","system_id":"levelo_inurba_marseille","lat":43.25122,"lon":5.40317,"is_reserved":false,"is_disabled":false,"rental_uris":{"android":"levelo://app?vid=2190247d-88df-4795-a8c5-b62bd77d97ac","ios":"levelo://app?vid=2190247d-88df-4795-a8c5-b62bd77d97ac"},"vehicle_type_id":"4","last_reported":1749868108,"current_range_meters":24000,"station_id":"ce4bhlh2rcd13ifvqgig","pricing_plan_id":"cebpf4jnsgd1na2vs0mg"},{"bike_id":"c648fdb3-739c-49e1-a0dd-353e5a850db3","system_id":"levelo_inurba_marseille","lat":43.27948,"lon":5.41044,"is_reserved":false,"is_disabled":false,"rental_uris":{"android":"levelo://app?vid=c648fdb3-739c-49e1-a0dd-353e5a850db3","ios":"levelo://app?vid=c648fdb3-739c-49e1-a0dd-353e5a850db3"},"vehicle_type_id":"4","last_reported":1749868108,"current_range_meters":24000,"station_id":"ce4bhnp2rcd13ifvqh0g","pricing_plan_id":"cebpf4jnsgd1na2vs0mg"},{"bike_id":"e6efd40f-0aab-43d8-8195-662959e1bef2","system_id":"levelo_inurba_marseille","lat":43.31363,"lon":5.38504,"is_reserved":false,"is_disabled":false,"rental_uris":{"android":"levelo://app?vid=e6efd40f-0aab-43d8-8195-662959e1bef2","ios":"levelo://app?vid=e6efd40f-0aab-43d8-8195-662959e1bef2"},"vehicle_type_id":"4","last_reported":1749868108,"current_range_meters":24400,"station_id":"ce4bgt92rcd13ifvqcf0","pricing_plan_id":"cebpf4jnsgd1na2vs0mg"},{"bike_id":"d6bd8483-246a-4132-aa76-f8e2bbde2a8a","system_id":"levelo_inurba_marseille","lat":43.309295,"lon":5.401486,"is_reserved":false,"is_disabled":false,"rental_uris":{"android":"levelo://app?vid=d6bd8483-246a-4132-aa76-f8e2bbde2a8a","ios":"levelo://app?vid=d6bd8483-246a-4132-aa76-f8e2bbde2a8a"},"vehicle_type_id":"4","last_reported":1749868108,"current_range_meters":24400,"station_id":"ce4bgvp2rcd13ifvqct0","pricing_plan_id":"cebpf4jnsgd1na2vs0mg"},{"bike_id":"469ed6cf-66c9-4b37-ab68-d10416527b90","system_id":"levelo_inurba_marseille","lat":43.3013,"lon":5.398708,"is_reserved":false,"is_disabled":false,"rental_uris":{"android":"levelo://app?vid=469ed6cf-66c9-4b37-ab68-d10416527b90","ios":"levelo://app?vid=469ed6cf-66c9-4b37-ab68-d10416527b90"},