{"last_updated":1749913764,"ttl":60,"version":"2.2","data":{"bikes":[{"bike_id":"b31f0139-170f-4194-984f-4386218a1e9d","system_id":"levelo_inurba_marseille","lat":43.33771,"lon":5.37424,"is_reserved":false,"is_disabled":true,"rental_uris":{"android":"levelo://app?vid=b31f0139-170f-4194-984f-4386218a1e9d","ios":"levelo://app?vid=b31f0139-170f-4194-984f-4386218a1e9d"},"vehicle_type_id":"4","last_reported":1749913764,"current_range_meters":0,"station_id":"","pricing_plan_id":"cebpf4jnsgd1na2vs0mg"},{"bike_id":"1acfb620-cad7-48c0-8901-d7a5b74a5b65","system_id":"levelo_inurba_marseille","lat":43.33751,"lon":5.37456,"is_reserved":false,"is_disabled":true,"rental_uris":{"android":"levelo://app?vid=1acfb620-cad7-48c0-8901-d7a5b74a5b65","ios":"levelo://app?vid=1acfb620-cad7-48c0-8901-d7a5b74a5b65"},"vehicle_type_id":"4","last_reported":1749913764,"current_range_meters":0,"station_id":"","pricing_plan_id":"cebpf4jnsgd1na2vs0mg"},{"bike_id":"9fcd9c2e-8610-4d87-a883-a5baec28d1dc","system_id":"levelo_inurba_marseille","lat":43.26222,"lon":5.3794,"is_reserved":false,"is_disabled":true,"rental_uris":{"android":"levelo://app?vid=9fcd9c2e-8610-4d87-a883-a5baec28d1dc","ios":"levelo://app?vid=9fcd9c2e-8610-4d87-a883-a5baec28d1dc"},"vehicle_type_id":"4","last_reported":1749913764,"current_range_meters":0,"station_id":"","pricing_plan_id":"cebpf4jnsgd1na2vs0mg"},{"bike_id":"bf89d78c-eb96-40d5-beb0-f402ef102cc1","system_id":"levelo_inurba_marseille","lat":43.337444,"lon":5.374475,"is_reserved":false,"is_disabled":true,"rental_uris":{"android":"levelo://app?vid=bf89d78c-eb96-40d5-beb0-f402ef102cc1","ios":"levelo://app?vid=bf89d78c-eb96-40d5-beb0-f402ef102cc1"},"vehicle_type_id":"4","last_reported":1749913764,"current_range_meters":0,"station_id":"","pricing_plan_id":"cebpf4jnsgd1na2vs0mg"},{"bike_id":"5077581b-cebb-46fc-ba69-4fa8272d4810","system_id":"levelo_inurba_marseille","lat":43.21365,"lon":5.35519,"is_reserved":false,"is_disabled":true,"rental_uris":{"android":"levelo://app?vid=5077581b-cebb-46fc-ba69-4fa8272d4810","ios":"levelo://app?vid=5077581b-cebb-46fc-ba69-4fa8272d4810"},"vehicle_type_id":"4","last_reported":1749913764,"current_range_meters":0,"station_id":"","pricing_plan_id":"cebpf4jnsgd1na2vs0mg"},{"bike_id":"ebf89cec-3e1a-4275-9cd0-a3d19d69b5cf","system_id":"levelo_inurba_marseille","lat":43.27983,"lon":5.3849,"is_reserved":false,"is_disabled":true,"rental_uris":{"android":"levelo://app?vid=ebf89cec-3e1a-4275-9cd0-a3d19d69b5cf","ios":"levelo://app?vid=ebf89cec-3e1a-4275-9cd0-a3d19d69b5cf"},"vehicle_type_id":"4","last_reported":1749913764,"current_range_meters":0,"station_id":"","pricing_plan_id":"cebpf4jnsgd1na2vs0mg"},{"bike_id":"492f4bbd-1190-4ef2-b66a-479ffe91b09b","system_id":"levelo_inurba_marseille","lat":43.337444,"lon":5.374475,"is_reserved":false,"is_disabled":true,"rental_uris":{"android":"levelo://app?vid=492f4bbd-1190-4ef2-b66a-479ffe91b09b","ios":"levelo://app?vid=492f4bbd-1190-4ef2-b66a-479ffe91b09b"},"vehicle_type_id":"4","last_reported":1749913764,"current_range_meters":0,"station_id":"","pricing_plan_id":"cebpf4jnsgd1na2vs0mg"},{"bike_id":"a9b6bf99-4070-4437-bb20-72962ae30b90","system_id":"levelo_inurba_marseille","lat":43.27474,"lon":5.36402,"is_reserved":false,"is_disabled":true,"rental_uris":{"android":"levelo://app?vid=a9b6bf99-4070-4437-bb20-72962ae30b90","ios":"levelo://app?vid=a9b6bf99-4070-4437-bb20-72962ae30b90"},"vehicle_type_id":"4","last_reported":1749913764,"current_range_meters":0,"station_id":"","pricing_plan_id":"cebpf4jnsgd1na2vs0mg"},{"bike_id":"b3f68443-ed42-47ce-b83e-67cb90b9bb0b","system_id":"levelo_inurba_marseille","lat":43.293085,"lon":5.37181,"is_reserved":false,"is_disabled":true,"rental_uris":{"android":"levelo://app?vid=b3f68443-ed42-47ce-b83e-67cb90b9bb0b","ios":"levelo://app?vid=b3f68443-ed42-47ce-b83e-67cb90b9bb0b"},"vehicle_type_id":"4","last_reported":1749913764,"current_range_meters":0,"station_id":"ce4bgh92rcd13ifvqb40","pricing_plan_id":"cebpf4jnsgd1na2vs0mg"},{"bike_id":"a67418d4-5601-4809-8a4a-6bd7bc0f6376","system_id":"levelo_inurba_marseille","lat":43.29791,"lon":5.38119,"is_reserved":false,"is_disabled":true,"rental_uris":{"android":"levelo://app?vid=a67418d4-5601-4809-8a4a-6bd7bc0f6376","ios":"levelo://app?vid=a67418d4-5601-4809-8a4a-6bd7bc0f6376"},"vehicle_type_id":"4","last_reported":1749913764,"current_range_meters":0,"station_id":"ce4bgip2rcd13ifvqbb0","pricing_plan_id":"cebpf4jnsgd1na2vs0mg"},{"bike_id":"e73937b8-f5d5-4fe2-8934-a47122483d2a","system_id":"levelo_inurba_marseille","lat":43.29965,"lon":5.38496,"is_reserved":false,"is_disabled":true,"rental_uris":{"android":"levelo://app?vid=e73937b8-f5d5-4fe2-8934-a47122483d2a","ios":"levelo://app?vid=e73937b8-f5d5-4fe2-8934-a47122483d2a"},"vehicle_type_id":"4","last_reported":1749913764,"current_range_meters":0,"station_id":"ce4bgj92rcd13ifvqbd0","pricing_plan_id":"cebpf4jnsgd1na2vs0mg"},{"bike_id":"fe909eec-57cb-4f6d-9797-191bc789bd7d","system_id":"levelo_inurba_marseille","lat":43.31207,"lon":5.36862,"is_reserved":false,"is_disabled":true,"rental_uris":{"android":"levelo://app?vid=fe909eec-57cb-4f6d-9797-191bc789bd7d","ios":"levelo://app?vid=fe909eec-57cb-4f6d-9797-191bc789bd7d"},"vehicle_type_id":"4","last_reported":1749913764,"current_range_meters":0,"station_id":"ce4bgl92rcd13ifvqbq0","pricing_plan_id":"cebpf4jnsgd1na2vs0mg"},{"bike_id":"d318e728-94b0-4d5b-ac5e-c401598b6625","system_id":"levelo_inurba_marseille","lat":43.292572,"lon":5.384294,"is_reserved":false,"is_disabled":false,"rental_uris":{"android":"levelo://app?vid=d318e728-94b0-4d5b-ac5e-c401598b6625","ios":"levelo://app?vid=d318e728-94b0-4d5b-ac5e-c401598b6625"},"vehicle_type_id":"4","last_reported":1749913764,"current_range_meters":0,"station_id":"ce4bh692rcd13ifvqea0","pricing_plan_id":"cebpf4jnsgd1na2vs0mg"},{"bike_id":"4a2e87e7-3bb4-43df-b135-ff3b533c468d","system_id":"levelo_inurba_marseille","lat":43.262228,"lon":5.374612,"is_reserved":false,"is_disabled":true,"rental_uris":{"android":"levelo://app?vid=4a2e87e7-3bb4-43df-b135-ff3b533c468d","ios":"levelo://app?vid=4a2e87e7-3bb4-43df-b135-ff3b533c468d"},"vehicle_type_id":"4","last_reported":1749913764,"current_range_meters":0,"station_id":"ce4bh692rcd13ifvqea0","pricing_plan_id":"cebpf4jnsgd1na2vs0mg"},{"bike_id":"f65d03e9-a265-4f90-a1ca-72d5df40265a","system_id":"levelo_inurba_marseille","lat":43.27367,"lon":5.36268,"is_reserved":false,"is_disabled":true,"rental_uris":{"android":"levelo://app?vid=f65d03e9-a265-4f90-a1ca-72d5df40265a","ios":"levelo://app?vid=f65d03e9-a265-4f90-a1ca-72d5df40265a"},"vehicle_type_id":"4","last_reported":1749913764,"current_range_meters":0,"station_id":"ce4bhbh2rcd13ifvqeo0","pricing_plan_id":"cebpf4jnsgd1na2vs0mg"},{"bike_id":"eecb2165-f0c8-4a24-b198-f0f2ec566a67","system_id":"levelo_inurba_marseille","lat":43.27379,"lon":5.36262,"is_reserved":false,"is_disabled":true,"rental_uris":{"android":"levelo://app?vid=eecb2165-f0c8-4a24-b198-f0f2ec566a67","ios":"levelo://app?vid=eecb2165-f0c8-4a24-b198-f0f2ec566a67"},"vehicle_type_id":"4","last_reported":1749913764,"current_range_meters":0,"station_id":"ce4bhbh2rcd13ifvqeo0","pricing_plan_id":"cebpf4jnsgd1na2vs0mg"},{"bike_id":"307e02d7-d889-4c00-90af-0090379341b6","system_id":"levelo_inurba_marseille","lat":43.28413,"lon":5.3498,"is_reserved":false,"is_disabled":true,"rental_uris":{"android":"levelo://app?vid=307e02d7-d889-4c00-90af-0090379341b6","ios":"levelo://app?vid=307e02d7-d889-4c00-90af-0090379341b6"},"vehicle_type_id":"4","last_reported":1749913764,"current_range_meters":0,"station_id":"ce4bhbh2rcd13ifvqepg","pricing_plan_id":"cebpf4jnsgd1na2vs0mg"},{"bike_id":"31f4d24f-975b-4fc1-9e39-aa64534904cc","system_id":"levelo_inurba_marseille","lat":43.28616,"lon":5.35108,"is_reserved":false,"is_disabled":true,"rental_uris":{"android":"levelo://app?vid=31f4d24f-975b-4fc1-9e39-aa64534904cc","ios":"levelo://app?vid=31f4d24f-975b-4fc1-9e39-aa64534904cc"},"vehicle_type_id":"4","last_reported":1749913764,"current_range_meters":0,"station_id":"ce4bhch2rcd13ifvqeug","pricing_plan_id":"cebpf4jnsgd1na2vs0mg"},{"bike_id":"8a8bdca1-7cb8-4d03-8d27-640fd762069c","system_id":"levelo_inurba_marseille","lat":43.26553,"lon":5.3728,"is_reserved":false,"is_disabled":true,"rental_uris":{"android":"levelo://app?vid=8a8bdca1-7cb8-4d03-8d27-640fd762069c","ios":"levelo://app?vid=8a8bdca1-7cb8-4d03-8d27-640fd762069c"},"vehicle_type_id":"4","last_reported":1749913764,"current_range_meters":0,"station_id":"ce4bhg12rcd13ifvqf70","pricing_plan_id":"cebpf4jnsgd1na2vs0mg"},{"bike_id":"470fdfe7-14e6-4492-a58b-f399810bc3a7","system_id":"levelo_inurba_marseille","lat":43.26215,"lon":5.37442,"is_reserved":false,"is_disabled":true,"rental_uris":{"android":"levelo://app?vid=470fdfe7-14e6-4492-a58b-f399810bc3a7","ios":"levelo://app?vid=470fdfe7-14e6-4492-a58b-f399810bc3a7"},"vehicle_type_id":"4","last_reported":1749913764,"current_range_meters":0,"station_id":"ce4bhgp2rcd13ifvqfc0","pricing_plan_id":"cebpf4jnsgd1na2vs0mg"},{"bike_id":"d0ee9dc4-d73a-4d61-976b-a0f9ae11c8d6","system_id":"levelo_inurba_marseille","lat":43.25585,"lon":5.38235,"is_reserved":false,"is_disabled":true,"rental_uris":{"android":"levelo://app?vid=d0ee9dc4-d73a-4d61-976b-a0f9ae11c8d6","ios":"levelo://app?vid=d0ee9dc4-d73a-4d61-976b-a0f9ae11c8d6"},"vehicle_type_id":"4","last_reported":1749913764,"current_range_meters":0,"station_id":"ce4bhih2rcd13ifvqfs0","pricing_plan_id":"cebpf4jnsgd1na2vs0mg"},{"bike_id":"5b51e552-5712-49f3-b18c-b47715fa3cec","system_id":"levelo_inurba_marseille","lat":43.24082,"lon":5.37749,"is_reserved":false,"is_disabled":true,"rental_uris":{"android":"levelo://app?vid=5b51e552-5712-49f3-b18c-b47715fa3cec","ios":"levelo://app?vid=5b51e552-5712-49f3-b18c-b47715fa3cec"},"vehicle_type_id":"4","last_reported":1749913764,"current_range_meters":0,"station_id":"ce4bhnp2rcd13ifvqgvg","pricing_plan_id":"cebpf4jnsgd1na2vs0mg"},{"bike_id":"5f0abf0a-82ae-4835-b115-2fcb5f47d843","system_id":"levelo_inurba_marseille","lat":43.27992,"lon":5.40015,"is_reserved":false,"is_disabled":true,"rental_uris":{"android":"levelo://app?vid=5f0abf0a-82ae-4835-b115-2fcb5f47d843","ios":"levelo://app?vid=5f0abf0a-82ae-4835-b115-2fcb5f47d843"},"vehicle_type_id":"4","last_reported":1749913764,"current_range_meters":0,"station_id":"ce4bho92rcd13ifvqh4g","pricing_plan_id":"cebpf4jnsgd1na2vs0mg"},{"bike_id":"dd758e83-43cb-478f-b19e-e4c3f45b020d","system_id":"levelo_inurba_marseille","lat":43.3234,"lon":5.40608,"is_reserved":false,"is_disabled":true,"rental_uris":{"android":"levelo://app?vid=dd758e83-43cb-478f-b19e-e4c3f45b020d","ios":"levelo://app?vid=dd758e83-43cb-478f-b19e-e4c3f45b020d"},"vehicle_type_id":"4","last_reported":1749913764,"current_range_meters":0,"station_id":"ce4bhq92rcd13ifvqhjg","pricing_plan_id":"cebpf4jnsgd1na2vs0mg"},{"bike_id":"688990d8-c9ce-490a-af7e-21862bb7ff58","system_id":"levelo_inurba_marseille","lat":43.32043,"lon":5.41552,"is_reserved":false,"is_disabled":true,"rental_uris":{"android":"levelo://app?vid=688990d8-c9ce-490a-af7e-21862bb7ff58","ios":"levelo://app?vid=688990d8-c9ce-490a-af7e-21862bb7ff58"},"vehicle_type_id":"4","last_reported":1749913764,"current_range_meters":0,"station_id":"ce4bhq92rcd13ifvqhkg","pricing_plan_id":"cebpf4jnsgd1na2vs0mg"},{"bike_id":"0f50c2eb-d288-4d90-a9a3-cd0743222590","system_id":"levelo_inurba_marseille","lat":43.22499,"lon":5.34778,"is_reserved":false,"is_disabled":true,"rental_uris":{"android":"levelo://app?vid=0f50c2eb-d288-4d90-a9a3-cd0743222590","ios":"levelo://app?vid=0f50c2eb-d288-4d90-a9a3-cd0743222590"},"vehicle_type_id":"4","last_reported":1749913764,"current_range_meters":0,"station_id":"st_cvj5dfep6f1abm77gieg","pricing_plan_id":"cebpf4jnsgd1na2vs0mg"},{"bike_id":"8631c4e3-7e45-4b01-8538-d64c8499eb1d","system_id":"levelo_inurba_marseille","lat":43.28639,"lon":5.38375,"is_reserved":false,"is_disabled":true,"rental_uris":{"android":"levelo://app?vid=8631c4e3-7e45-4b01-8538-d64c8499eb1d","ios":"levelo://app?vid=8631c4e3-7e45-4b01-8538-d64c8499eb1d"},"vehicle_type_id":"4","last_reported":1749913764,"current_range_meters":400,"station_id":"","pricing_plan_id":"cebpf4jnsgd1na2vs0mg"},{"bike_id":"b73439fd-346f-41bd-a9e6-6dc630ab0276","system_id":"levelo_inurba_marseille","lat":43.30271,"lon":5.37726,"is_reserved":false,"is_disabled":true,"rental_uris":{"android":"levelo://app?vid=b73439fd-346f-41bd-a9e6-6dc630ab0276","ios":"levelo://app?vid=b73439fd-346f-41bd-a9e6-6dc630ab0276"},"vehicle_type_id":"4","last_reported":1749913764,"current_range_meters":400,"station_id":"ce4bguh2rcd13ifvqcj0","pricing_plan_id":"cebpf4jnsgd1na2vs0mg"},{"bike_id":"6ad1db1b-e0bd-46c4-b2d8-d75e4a153cc8","system_id":"levelo_inurba_marseille","lat":43.27374,"lon":5.36252,"is_reserved":false,"is_disabled":true,"rental_uris":{"android":"levelo://app?vid=6ad1db1b-e0bd-46c4-b2d8-d75e4a153cc8","ios":"levelo://app?vid=6ad1db1b-e0bd-46c4-b2d8-d75e4a153cc8"},"vehicle_type_id":"4","last_reported":1749913764,"current_range_meters":400,"station_id":"ce4bhbh2rcd13ifvqeo0","pricing_plan_id":"cebpf4jnsgd1na2vs0mg"},{"bike_id":"16dc9eed-8a76-463f-8a58-6af3c0a60815","system_id":"levelo_inurba_marseille","lat":43.27379,"lon":5.36252,"is_reserved":false,"is_disabled":true,"rental_uris":{"android":"levelo://app?vid=16dc9eed-8a76-463f-8a58-6af3c0a60815","ios":"levelo://app?vid=16dc9eed-8a76-463f-8a58-6af3c0a60815"},"vehicle_type_id":"4","last_reported":1749913764,"current_range_meters":400,"station_id":"ce4bhbh2rcd13ifvqeo0","pricing_plan_id":"cebpf4jnsgd1na2vs0mg"},{"bike_id":"d5bc8611-f9b2-4567-b395-ba3f096f4491","system_id":"levelo_inurba_marseille","lat":43.28474,"lon":5.3843,"is_reserved":false,"is_disabled":true,"rental_uris":{"android":"levelo://app?vid=d5bc8611-f9b2-4567-b395-ba3f096f4491","ios":"levelo://app?vid=d5bc8611-f9b2-4567-b395-ba3f096f4491"},"vehicle_type_id":"4","last_reported":1749913764,"current_range_meters":800,"station_id":"ce4bh512rcd13ifvqe3g","pricing_plan_id":"cebpf4jnsgd1na2vs0mg"},{"bike_id":"4f3c2566-bf79-47e4-8056-9a1c0f7cacae","system_id":"levelo_inurba_marseille","lat":43.28859,"lon":5.35848,"is_reserved":false,"is_disabled":true,"rental_uris":{"android":"levelo://app?vid=4f3c2566-bf79-47e4-8056-9a1c0f7cacae","ios":"levelo://app?vid=4f3c2566-bf79-47e4-8056-9a1c0f7cacae"},"vehicle_type_id":"4","last_reported":1749913764,"current_range_meters":800,"station_id":"ce4bhb12rcd13ifvqem0","pricing_plan_id":"cebpf4jnsgd1na2vs0mg"},{"bike_id":"10e04622-8254-457c-bdf6-1ff8d4a8df70","system_id":"levelo_inurba_marseille","lat":43.27362,"lon":5.36244,"is_reserved":false,"is_disabled":true,"rental_uris":{"android":"levelo://app?vid=10e04622-8254-457c-bdf6-1ff8d4a8df70","ios":"levelo://app?vid=10e04622-8254-457c-bdf6-1ff8d4a8df70"},"vehicle_type_id":"4","last_reported":1749913764,"current_range_meters":800,"station_id":"ce4bhbh2rcd13ifvqeo0","pricing_plan_id":"cebpf4jnsgd1na2vs0mg"},{"bike_id":"cd6d8f25-0556-492e-93e5-4d42d5e16dbb","system_id":"levelo_inurba_marseille","lat":43.28621,"lon":5.35084,"is_reserved":false,"is_disabled":true,"rental_uris":{"android":"levelo://app?vid=cd6d8f25-0556-492e-93e5-4d42d5e16dbb","ios":"levelo://app?vid=cd6d8f25-0556-492e-93e5-4d42d5e16dbb"},"vehicle_type_id":"4","last_reported":1749913764,"current_range_meters":800,"station_id":"ce4bhch2rcd13ifvqeug","pricing_plan_id":"cebpf4jnsgd1na2vs0mg"},{"bike_id":"0973523c-13ab-46eb-967e-a3f9dc61c0a5","system_id":"levelo_inurba_marseille","lat":43.269428,"lon":5.386263,"is_reserved":false,"is_disabled":true,"rental_uris":{"android":"levelo://app?vid=0973523c-13ab-46eb-967e-a3f9dc61c0a5","ios":"levelo://app?vid=0973523c-13ab-46eb-967e-a3f9dc61c0a5"},"vehicle_type_id":"4","last_reported":1749913764,"current_range_meters":800,"station_id":"ce4bhh92rcd13ifvqfh0","pricing_plan_id":"cebpf4jnsgd1na2vs0mg"},{"bike_id":"449faec0-2235-4dcd-a3f7-0abb7c37e624","system_id":"levelo_inurba_marseille","lat":43.28701,"lon":5.39979,"is_reserved":false,"is_disabled":true,"rental_uris":{"android":"levelo://app?vid=449faec0-2235-4dcd-a3f7-0abb7c37e624","ios":"levelo://app?vid=449faec0-2235-4dcd-a3f7-0abb7c37e624"},"vehicle_type_id":"4","last_reported":1749913764,"current_range_meters":800,"station_id":"ce4bho92rcd13ifvqh3g","pricing_plan_id":"cebpf4jnsgd1na2vs0mg"},{"bike_id":"1e182778-94b2-4c79-8f2e-16695d36e6c4","system_id":"levelo_inurba_marseille","lat":43.29783,"lon":5.37097,"is_reserved":false,"is_disabled":true,"rental_uris":{"android":"levelo://app?vid=1e182778-94b2-4c79-8f2e-16695d36e6c4","ios":"levelo://app?vid=1e182778-94b2-4c79-8f2e-16695d36e6c4"},"vehicle_type_id":"4","last_reported":1749913764,"current_range_meters":1200,"station_id":"ce4bgop2rcd13ifvqc1g","pricing_plan_id":"cebpf4jnsgd1na2vs0mg"},{"bike_id":"16d8d838-889b-4912-997a-48cbb047b04b","system_id":"levelo_inurba_marseille","lat":43.26207,"lon":5.37429,"is_reserved":false,"is_disabled":true,"rental_uris":{"android":"levelo://app?vid=16d8d838-889b-4912-997a-48cbb047b04b","ios":"levelo://app?vid=16d8d838-889b-4912-997a-48cbb047b04b"},"vehicle_type_id":"4","last_reported":1749913764,"current_range_meters":1200,"station_id":"ce4bhgp2rcd13ifvqfc0","pricing_plan_id":"cebpf4jnsgd1na2vs0mg"},{"bike_id":"001febe9-1db7-4671-8917-c2a5b98baf23","system_id":"levelo_inurba_marseille","lat":43.25499,"lon":5.3765,"is_reserved":false,"is_disabled":true,"rental_uris":{"android":"levelo://app?vid=001febe9-1db7-4671-8917-c2a5b98baf23","ios":"levelo://app?vid=001febe9-1db7-4671-8917-c2a5b98baf23"},"vehicle_type_id":"4","last_reported":1749913764,"current_range_meters":1200,"station_id":"ce4bhh12rcd13ifvqff0","pricing_plan_id":"cebpf4jnsgd1na2vs0mg"},{"bike_id":"8d60347d-541c-40fb-90ca-203bf6bd520a","system_id":"levelo_inurba_marseille","lat":43.271239,"lon":5.363923,"is_reserved":false,"is_disabled":true,"rental_uris":{"android":"levelo://app?vid=8d60347d-541c-40fb-90ca-203bf6bd520a","ios":"levelo://app?vid=8d60347d-541c-40fb-90ca-203bf6bd520a"},"vehicle_type_id":"4","last_reported":1749913764,"current_range_meters":1600,"station_id":"","pricing_plan_id":"cebpf4jnsgd1na2vs0mg"},{"bike_id":"8429f885-a42c-4f35-a816-e2cb6b538feb","system_id":"levelo_inurba_marseille","lat":43.30144,"lon":5.3878,"is_reserved":false,"is_disabled":true,"rental_uris":{"android":"levelo://app?vid=8429f885-a42c-4f35-a816-e2cb6b538feb","ios":"levelo://app?vid=8429f885-a42c-4f35-a816-e2cb6b538feb"},"vehicle_type_id":"4","last_reported":1749913764,"current_range_meters":1600,"station_id":"ce4bghh2rcd13ifvqb60","pricing_plan_id":"cebpf4jnsgd1na2vs0mg"},{"bike_id":"a74567b6-afa0-4230-8761-913ce3ff17a5","system_id":"levelo_inurba_marseille","lat":43.29543,"lon":5.38515,"is_reserved":false,"is_disabled":true,"rental_uris":{"android":"levelo://app?vid=a74567b6-afa0-4230-8761-913ce3ff17a5","ios":"levelo://app?vid=a74567b6-afa0-4230-8761-913ce3ff17a5"},"vehicle_type_id":"4","last_reported":1749913764,"current_range_meters":1600,"station_id":"ce4bgih2rcd13ifvqba0","pricing_plan_id":"cebpf4jnsgd1na2vs0mg"},{"bike_id":"117c0d32-22c6-4f90-aa07-1f808314f4e6","system_id":"levelo_inurba_marseille","lat":43.28624,"lon":5.35107,"is_reserved":false,"is_disabled":true,"rental_uris":{"android":"levelo://app?vid=117c0d32-22c6-4f90-aa07-1f808314f4e6","ios":"levelo://app?vid=117c0d32-22c6-4f90-aa07-1f808314f4e6"},"vehicle_type_id":"4","last_reported":1749913764,"current_range_meters":1600,"station_id":"ce4bhch2rcd13ifvqeug","pricing_plan_id":"cebpf4jnsgd1na2vs0mg"},{"bike_id":"0ec90c42-b4a4-455a-bd2e-a4f9aafaccbd","system_id":"levelo_inurba_marseille","lat":43.2418,"lon":5.39732,"is_reserved":false,"is_disabled":true,"rental_uris":{"android":"levelo://app?vid=0ec90c42-b4a4-455a-bd2e-a4f9aafaccbd","ios":"levelo://app?vid=0ec90c42-b4a4-455a-bd2e-a4f9aafaccbd"},"vehicle_type_id":"4","last_reported":1749913764,"current_range_meters":1600,"station_id":"ce4bhn12rcd13ifvqgpg","pricing_plan_id":"cebpf4jnsgd1na2vs0mg"},{"bike_id":"de32284c-9a44-416f-8dfc-85bfddb1cdd7","system_id":"levelo_inurba_marseille","lat":43.28928,"lon":5.36391,"is_reserved":false,"is_disabled":true,"rental_uris":{"android":"levelo://app?vid=de32284c-9a44-416f-8dfc-85bfddb1cdd7","ios":"levelo://app?vid=de32284c-9a44-416f-8dfc-85bfddb1cdd7"},"vehicle_type_id":"4","last_reported":1749913764,"current_range_meters":2000,"station_id":"ce4bhc92rcd13ifvqetg","pricing_plan_id":"cebpf4jnsgd1na2vs0mg"},{"bike_id":"7abfa056-1893-4696-8276-46da0a086953","system_id":"levelo_inurba_marseille","lat":43.25862,"lon":5.39901,"is_reserved":false,"is_disabled":false,"rental_uris":{"android":"levelo://app?vid=7abfa056-1893-4696-8276-46da0a086953","ios":"levelo://app?vid=7abfa056-1893-4696-8276-46da0a086953"},"vehicle_type_id":"4","last_reported":1749913764,"current_range_meters":2000,"station_id":"ce4bhl92rcd13ifvqghg","pricing_plan_id":"cebpf4jnsgd1na2vs0mg"},{"bike_id":"0e624eda-cac3-458a-99f5-1cc12d3d02b7","system_id":"levelo_inurba_marseille","lat":43.28613,"lon":5.35113,"is_reserved":false,"is_disabled":false,"rental_uris":{"android":"levelo://app?vid=0e624eda-cac3-458a-99f5-1cc12d3d02b7","ios":"levelo://app?vid=0e624eda-cac3-458a-99f5-1cc12d3d02b7"},"vehicle_type_id":"4","last_reported":1749913764,"current_range_meters":2800,"station_id":"","pricing_plan_id":"cebpf4jnsgd1na2vs0mg"},{"bike_id":"84566c11-530e-41f6-b8a9-f7a0c4537b2d","system_id":"levelo_inurba_marseille","lat":43.31104,"lon":5.37772,"is_reserved":false,"is_disabled":false,"rental_uris":{"android":"levelo://app?vid=84566c11-530e-41f6-b8a9-f7a0c4537b2d","ios":"levelo://app?vid=84566c11-530e-41f6-b8a9-f7a0c4537b2d"},"vehicle_type_id":"4","last_reported":1749913764,"current_range_meters":3200,"station_id":"ce4bgt92rcd13ifvqcg0","pricing_plan_id":"cebpf4jnsgd1na2vs0mg"},{"bike_id":"ea3649df-3c69-4f40-b1ba-26735813601b","system_id":"levelo_inurba_marseille","lat":43.243893,"lon":5.370628,"is_reserved":false,"is_disabled":false,"rental_uris":{"android":"levelo://app?vid=ea3649df-3c69-4f40-b1ba-26735813601b","ios":"levelo://app?vid=ea3649df-3c69-4f40-b1ba-26735813601b"},"vehicle_type_id":"4","last_reported":1749913764,"current_range_meters":3200,"station_id":"ce4bh9p2rcd13ifvqec0","pricing_plan_id":"cebpf4jnsgd1na2vs0mg"},{"bike_id":"f711217e-bd56-4a6d-9087-9c3e4a44e3a8","system_id":"levelo_inurba_marseille","lat":43.28856,"lon":5.35838,"is_reserved":false,"is_disabled":false,"rental_uris":{"android":"levelo://app?vid=f711217e-bd56-4a6d-9087-9c3e4a44e3a8","ios":"levelo://app?vid=f711217e-bd56-4a6d-9087-9c3e4a44e3a8"},"vehicle_type_id":"4","last_reported":1749913764,"current_range_meters":3200,"station_id":"ce4bhb12rcd13ifvqem0","pricing_plan_id":"cebpf4jnsgd1na2vs0mg"},{"bike_id":"97421c04-2630-4fc1-9da9-b17d88602c5f","system_id":"levelo_inurba_marseille","lat":43.337682,"lon":5.374519,"is_reserved":false,"is_disabled":false,"rental_uris":{"android":"levelo://app?vid=97421c04-2630-4fc1-9da9-b17d88602c5f","ios":"levelo://app?vid=97421c04-2630-4fc1-9da9-b17d88602c5f"},"vehicle_type_id":"4","last_reported":1749913764,"current_range_meters":3600,"station_id":"","pricing_plan_id":"cebpf4jnsgd1na2vs0mg"},{"bike_id":"09ca5716-4f10-4ec7-8b45-7755b0237659","system_id":"levelo_inurba_marseille","lat":43.29062,"lon":5.37145,"is_reserved":false,"is_disabled":false,"rental_uris":{"android":"levelo://app?vid=09ca5716-4f10-4ec7-8b45-7755b0237659","ios":"levelo://app?vid=09ca5716-4f10-4ec7-8b45-7755b0237659"},"vehicle_type_id":"4","last_reported":1749913764,"current_range_meters":3600,"station_id":"ce4bh5p2rcd13ifvqe4g","pricing_plan_id":"cebpf4jnsgd1na2vs0mg"},{"bike_id":"b4e77e83-dc7d-422e-ad6b-5acb31137c0d","system_id":"levelo_inurba_marseille","lat":43.28261,"lon":5.35073,"is_reserved":false,"is_disabled":false,"rental_uris":{"android":"levelo://app?vid=b4e77e83-dc7d-422e-ad6b-5acb31137c0d","ios":"levelo://app?vid=b4e77e83-dc7d-422e-ad6b-5acb31137c0d"},"vehicle_type_id":"4","last_reported":1749913764,"current_range_meters":3600,"station_id":"ce4bhbp2rcd13ifvqerg","pricing_plan_id":"cebpf4jnsgd1na2vs0mg"},{"bike_id":"225e5c1d-3bdc-4864-836a-7320f5933cc8","system_id":"levelo_inurba_marseille","lat":43.29609,"lon":5.381,"is_reserved":false,"is_disabled":false,"rental_uris":{"android":"levelo://app?vid=225e5c1d-3bdc-4864-836a-7320f5933cc8","ios":"levelo://app?vid=225e5c1d-3bdc-4864-836a-7320f5933cc8"},"vehicle_type_id":"4","last_reported":1749913764,"current_range_meters":4000,"station_id":"ce4bgl12rcd13ifvqbo0","pricing_plan_id":"cebpf4jnsgd1na2vs0mg"},{"bike_id":"b3b58df7-5139-45fb-a5b5-3360388a3ae8","system_id":"levelo_inurba_marseille","lat":43.29028,"lon":5.38653,"is_reserved":false,"is_disabled":false,"rental_uris":{"android":"levelo://app?vid=b3b58df7-5139-45fb-a5b5-3360388a3ae8","ios":"levelo://app?vid=b3b58df7-5139-45fb-a5b5-3360388a3ae8"},"vehicle_type_id":"4","last_reported":1749913764,"current_range_meters":4000,"station_id":"ce4bh4p2rcd13ifvqe0g","pricing_plan_id":"cebpf4jnsgd1na2vs0mg"},{"bike_id":"7dd22004-d80e-4827-8e65-af498b261e84","system_id":"levelo_inurba_marseille","lat":43.28616,"lon":5.35097,"is_reserved":false,"is_disabled":false,"rental_uris":{"android":"levelo://app?vid=7dd22004-d80e-4827-8e65-af498b261e84","ios":"levelo://app?vid=7dd22004-d80e-4827-8e65-af498b261e84"},"vehicle_type_id":"4","last_reported":1749913764,"current_range_meters":4000,"station_id":"ce4bhch2rcd13ifvqeug","pricing_plan_id":"cebpf4jnsgd1na2vs0mg"},{"bike_id":"d948bbfa-04fa-40c6-95f3-ea1d7d7b7ff2","system_id":"levelo_inurba_marseille","lat":43.250677,"lon":5.40329,"is_reserved":false,"is_disabled":false,"rental_uris":{"android":"levelo://app?vid=d948bbfa-04fa-40c6-95f3-ea1d7d7b7ff2","ios":"levelo://app?vid=d948bbfa-04fa-40c6-95f3-ea1d7d7b7ff2"},"vehicle_type_id":"4","last_reported":1749913764,"current_range_meters":4000,"station_id":"ce4bhlh2rcd13ifvqgig","pricing_plan_id":"cebpf4jnsgd1na2vs0mg"},{"bike_id":"2e99a5fb-a2c2-44ef-ab87-5391b788b560","system_id":"levelo_inurba_marseille","lat":43.225028,"lon":5.347838,"is_reserved":false,"is_disabled":false,"rental_uris":{"android":"levelo://app?vid=2e99a5fb-a2c2-44ef-ab87-5391b788b560","ios":"levelo://app?vid=2e99a5fb-a2c2-44ef-ab87-5391b788b560"},"vehicle_type_id":"4","last_reported":1749913764,"current_range_meters":4400,"station_id":"","pricing_plan_id":"cebpf4jnsgd1na2vs0mg"},{"bike_id":"75079bee-5ee8-4ee8-9c38-711ab572eb3c","system_id":"levelo_inurba_marseille","lat":43.27624,"lon":5.36107,"is_reserved":false,"is_disabled":false,"rental_uris":{"android":"levelo://app?vid=75079bee-5ee8-4ee8-9c38-711ab572eb3c","ios":"levelo://app?vid=75079bee-5ee8-4ee8-9c38-711ab572eb3c"},"vehicle_type_id":"4","last_reported":1749913764,"current_range_meters":5600,"station_id":"ce4bgj92rcd13ifvqbe0","pricing_plan_id":"cebpf4jnsgd1na2vs0mg"},{"bike_id":"b4c38394-0793-48da-8c89-552f5b69716c","system_id":"levelo_inurba_marseille","lat":43.27373,"lon":5.36251,"is_reserved":false,"is_disabled":false,"rental_uris":{"android":"levelo://app?vid=b4c38394-0793-48da-8c89-552f5b69716c","ios":"levelo://app?vid=b4c38394-0793-48da-8c89-552f5b69716c"},"vehicle_type_id":"4","last_reported":1749913764,"current_range_meters":5600,"station_id":"ce4bhbh2rcd13ifvqeo0","pricing_plan_id":"cebpf4jnsgd1na2vs0mg"},{"bike_id":"f746ea7d-56a9-4ffe-bf2b-ac204c8c868e","system_id":"levelo_inurba_marseille","lat":43.27372,"lon":5.36261,"is_reserved":false,"is_disabled":false,"rental_uris":{"android":"levelo://app?vid=f746ea7d-56a9-4ffe-bf2b-ac204c8c868e","ios":"levelo://app?vid=f746ea7d-56a9-4ffe-bf2b-ac204c8c868e"},"vehicle_type_id":"4","last_reported":1749913764,"current_range_meters":5600,"station_id":"ce4bhbh2rcd13ifvqeo0","pricing_plan_id":"cebpf4jnsgd1na2vs0mg"},{"bike_id":"92b925db-8cad-4289-9bf5-508012d39b6a","system_id":"levelo_inurba_marseille","lat":43.29206,"lon":5.36059,"is_reserved":false,"is_disabled":false,"rental_uris":{"android":"levelo://app?vid=92b925db-8cad-4289-9bf5-508012d39b6a","ios":"levelo://app?vid=92b925db-8cad-4289-9bf5-508012d39b6a"},"vehicle_type_id":"4","last_reported":1749913764,"current_range_meters":5600,"station_id":"ce4bhbh2rcd13ifvqeqg","pricing_plan_id":"cebpf4jnsgd1na2vs0mg"},{"bike_id":"ce1832fa-f01f-490c-9927-98680b4c8daa","system_id":"levelo_inurba_marseille","lat":43.26926,"lon":5.38919,"is_reserved":false,"is_disabled":false,"rental_uris":{"android":"levelo://app?vid=ce1832fa-f01f-490c-9927-98680b4c8daa","ios":"levelo://app?vid=ce1832fa-f01f-490c-9927-98680b4c8daa"},"vehicle_type_id":"4","last_reported":1749913764,"current_range_meters":5600,"station_id":"ce4bhhh2rcd13ifvqfl0","pricing_plan_id":"cebpf4jnsgd1na2vs0mg"},{"bike_id":"2aaf2205-7518-413f-b8a5-97f1c1695d4c","system_id":"levelo_inurba_marseille","lat":43.23144,"lon":5.43716,"is_reserved":false,"is_disabled":false,"rental_uris":{"android":"levelo://app?vid=2aaf2205-7518-413f-b8a5-97f1c1695d4c","ios":"levelo://app?vid=2aaf2205-7518-413f-b8a5-97f1c1695d4c"},"vehicle_type_id":"4","last_reported":1749913764,"current_range_meters":5600,"station_id":"ce4bhmp2rcd13ifvqgog","pricing_plan_id":"cebpf4jnsgd1na2vs0mg"},{"bike_id":"f5b2ffae-c086-4e1b-b0fd-043d6026a577","system_id":"levelo_inurba_marseille","lat":43.33729,"lon":5.39191,"is_reserved":false,"is_disabled":false,"rental_uris":{"android":"levelo://app?vid=f5b2ffae-c086-4e1b-b0fd-043d6026a577","ios":"levelo://app?vid=f5b2ffae-c086-4e1b-b0fd-043d6026a577"},"vehicle_type_id":"4","last_reported":1749913764,"current_range_meters":5600,"station_id":"ce4bhr92rcd13ifvqhsg","pricing_plan_id":"cebpf4jnsgd1na2vs0mg"},{"bike_id":"73563dd1-8a34-400c-8b6d-5e3baa420965","system_id":"levelo_inurba_marseille","lat":43.295141,"lon":5.390382,"is_reserved":false,"is_disabled":false,"rental_uris":{"android":"levelo://app?vid=73563dd1-8a34-400c-8b6d-5e3baa420965","ios":"levelo://app?vid=73563dd1-8a34-400c-8b6d-5e3baa420965"},"vehicle_type_id":"4","last_reported":1749913764,"current_range_meters":6000,"station_id":"ce4bh3p2rcd13ifvqdp0","pricing_plan_id":"cebpf4jnsgd1na2vs0mg"},{"bike_id":"a0e0a007-99ac-4f40-ab0b-8045c9c81142","system_id":"levelo_inurba_marseille","lat":43.27064,"lon":5.4026,"is_reserved":false,"is_disabled":false,"rental_uris":{"android":"levelo://app?vid=a0e0a007-99ac-4f40-ab0b-8045c9c81142","ios":"levelo://app?vid=a0e0a007-99ac-4f40-ab0b-8045c9c81142"},"vehicle_type_id":"4","last_reported":1749913764,"current_range_meters":6000,"station_id":"ce4bhk92rcd13ifvqgc0","pricing_plan_id":"cebpf4jnsgd1na2vs0mg"},{"bike_id":"3b3d0373-fd66-405e-a228-8e0af54f8013","system_id":"levelo_inurba_marseille","lat":43.2781,"lon":5.40718,"is_reserved":false,"is_disabled":false,"rental_uris":{"android":"levelo://app?vid=3b3d0373-fd66-405e-a228-8e0af54f8013","ios":"levelo://app?vid=3b3d0373-fd66-405e-a228-8e0af54f8013"},"vehicle_type_id":"4","last_reported":1749913764,"current_range_meters":6000,"station_id":"ce4bhnh2rcd13ifvqgtg","pricing_plan_id":"cebpf4jnsgd1na2vs0mg"},{"bike_id":"1a02737e-1ddf-475d-9950-54127761b49d","system_id":"levelo_inurba_marseille","lat":43.29605,"lon":5.42331,"is_reserved":false,"is_disabled":false,"rental_uris":{"android":"levelo://app?vid=1a02737e-1ddf-475d-9950-54127761b49d","ios":"levelo://app?vid=1a02737e-1ddf-475d-9950-54127761b49d"},"vehicle_type_id":"4","last_reported":1749913764,"current_range_meters":6400,"station_id":"","pricing_plan_id":"cebpf4jnsgd1na2vs0mg"},{"bike_id":"e49fb349-10f0-4406-ac8a-76de68b428f5","system_id":"levelo_inurba_marseille","lat":43.2942,"lon":5.39356,"is_reserved":false,"is_disabled":false,"rental_uris":{"android":"levelo://app?vid=e49fb349-10f0-4406-ac8a-76de68b428f5","ios":"levelo://app?vid=e49fb349-10f0-4406-ac8a-76de68b428f5"},"vehicle_type_id":"4","last_reported":1749913764,"current_range_meters":6400,"station_id":"","pricing_plan_id":"cebpf4jnsgd1na2vs0mg"},{"bike_id":"db897ff3-b109-42c2-9461-b1f2af1e6b46","system_id":"levelo_inurba_marseille","lat":43.28412,"lon":5.34998,"is_reserved":false,"is_disabled":false,"rental_uris":{"android":"levelo://app?vid=db897ff3-b109-42c2-9461-b1f2af1e6b46","ios":"levelo://app?vid=db897ff3-b109-42c2-9461-b1f2af1e6b46"},"vehicle_type_id":"4","last_reported":1749913764,"current_range_meters":6400,"station_id":"ce4bhbh2rcd13ifvqepg","pricing_plan_id":"cebpf4jnsgd1na2vs0mg"},{"bike_id":"8770dbef-e8bd-43f8-bdb5-b4e3167a38af","system_id":"levelo_inurba_marseille","lat":43.25497,"lon":5.37648,"is_reserved":false,"is_disabled":false,"rental_uris":{"android":"levelo://app?vid=8770dbef-e8bd-43f8-bdb5-b4e3167a38af","ios":"levelo://app?vid=8770dbef-e8bd-43f8-bdb5-b4e3167a38af"},"vehicle_type_id":"4","last_reported":1749913764,"current_range_meters":6800,"station_id":"ce4bhh12rcd13ifvqff0","pricing_plan_id":"cebpf4jnsgd1na2vs0mg"},{"bike_id":"73b0db42-fe48-4c13-bb4b-fe7269d8b8b3","system_id":"levelo_inurba_marseille","lat":43.27947,"lon":5.41045,"is_reserved":false,"is_disabled":false,"rental_uris":{"android":"levelo://app?vid=73b0db42-fe48-4c13-bb4b-fe7269d8b8b3","ios":"levelo://app?vid=73b0db42-fe48-4c13-bb4b-fe7269d8b8b3"},"vehicle_type_id":"4","last_reported":1749913764,"current_range_meters":6800,"station_id":"ce4bhnp2rcd13ifvqh0g","pricing_plan_id":"cebpf4jnsgd1na2vs0mg"},{"bike_id":"a6ad01d0-efb1-4f14-a5fd-e22386289e67","system_id":"levelo_inurba_marseille","lat":43.32369,"lon":5.36788,"is_reserved":false,"is_disabled":false,"rental_uris":{"android":"levelo://app?vid=a6ad01d0-efb1-4f14-a5fd-e22386289e67","ios":"levelo://app?vid=a6ad01d0-efb1-4f14-a5fd-e22386289e67"},"vehicle_type_id":"4","last_reported":1749913764,"current_range_meters":6800,"station_id":"ce4bhsh2rcd13ifvqi2g","pricing_plan_id":"cebpf4jnsgd1na2vs0mg"},{"bike_id":"01cb79b4-fffd-44e4-9e23-6923ee45381a","system_id":"levelo_inurba_marseille","lat":43.23966,"lon":5.36631,"is_reserved":false,"is_disabled":false,"rental_uris":{"android":"levelo://app?vid=01cb79b4-fffd-44e4-9e23-6923ee45381a","ios":"levelo://app?vid=01cb79b4-fffd-44e4-9e23-6923ee45381a"},"vehicle_type_id":"4","last_reported":1749913764,"current_range_meters":7200,"station_id":"ce4bhi12rcd13ifvqfp0","pricing_plan_id":"cebpf4jnsgd1na2vs0mg"},{"bike_id":"a4192c1a-6013-427c-8647-79776d548154","system_id":"levelo_inurba_marseille","lat":43.26224,"lon":5.40447,"is_reserved":false,"is_disabled":false,"rental_uris":{"android":"levelo://app?vid=a4192c1a-6013-427c-8647-79776d548154","ios":"levelo://app?vid=a4192c1a-6013-427c-8647-79776d548154"},"vehicle_type_id":"4","last_reported":1749913764,"current_range_meters":7200,"station_id":"ce4bhmh2rcd13ifvqgmg","pricing_plan_id":"cebpf4jnsgd1na2vs0mg"},{"bike_id":"3ebcb526-9195-4257-ae10-ca7e45e1829a","system_id":"levelo_inurba_marseille","lat":43.23193,"lon":5.39988,"is_reserved":false,"is_disabled":false,"rental_uris":{"android":"levelo://app?vid=3ebcb526-9195-4257-ae10-ca7e45e1829a","ios":"levelo://app?vid=3ebcb526-9195-4257-ae10-ca7e45e1829a"},"vehicle_type_id":"4","last_reported":1749913764,"current_range_meters":7200,"station_id":"ce4bhn12rcd13ifvqgqg","pricing_plan_id":"cebpf4jnsgd1na2vs0mg"},{"bike_id":"ec205bb8-64f0-4e32-90fd-2a2bfe361e0b","system_id":"levelo_inurba_marseille","lat":43.24074,"lon":5.37751,"is_reserved":false,"is_disabled":false,"rental_uris":{"android":"levelo://app?vid=ec205bb8-64f0-4e32-90fd-2a2bfe361e0b","ios":"levelo://app?vid=ec205bb8-64f0-4e32-90fd-2a2bfe361e0b"},"vehicle_type_id":"4","last_reported":1749913764,"current_range_meters":7200,"station_id":"ce4bhnp2rcd13ifvqgvg","pricing_plan_id":"cebpf4jnsgd1na2vs0mg"},{"bike_id":"69d74cdd-4fa8-4122-b4b3-bb07548180d1","system_id":"levelo_inurba_marseille","lat":43.273697,"lon":5.36276,"is_reserved":false,"is_disabled":false,"rental_uris":{"android":"levelo://app?vid=69d74cdd-4fa8-4122-b4b3-bb07548180d1","ios":"levelo://app?vid=69d74cdd-4fa8-4122-b4b3-bb07548180d1"},"vehicle_type_id":"4","last_reported":1749913764,"current_range_meters":8000,"station_id":"ce4bhbh2rcd13ifvqeo0","pricing_plan_id":"cebpf4jnsgd1na2vs0mg"},{"bike_id":"024f24f6-6721-4e98-929f-09de8c0bd26e","system_id":"levelo_inurba_marseille","lat":43.282705,"lon":5.350618,"is_reserved":false,"is_disabled":false,"rental_uris":{"android":"levelo://app?vid=024f24f6-6721-4e98-929f-09de8c0bd26e","ios":"levelo://app?vid=024f24f6-6721-4e98-929f-09de8c0bd26e"},"vehicle_type_id":"4","last_reported":1749913764,"current_range_meters":8000,"station_id":"ce4bhbp2rcd13ifvqerg","pricing_plan_id":"cebpf4jnsgd1na2vs0mg"},{"bike_id":"5a5ca07b-a0b4-4222-8a03-034608793a77","system_id":"levelo_inurba_marseille","lat":43.28613,"lon":5.35109,"is_reserved":false,"is_disabled":false,"rental_uris":{"android":"levelo://app?vid=5a5ca07b-a0b4-4222-8a03-034608793a77","ios":"levelo://app?vid=5a5ca07b-a0b4-4222-8a03-034608793a77"},"vehicle_type_id":"4","last_reported":1749913764,"current_range_meters":8000,"station_id":"ce4bhch2rcd13ifvqeug","pricing_plan_id":"cebpf4jnsgd1na2vs0mg"},{"bike_id":"f8d79491-bdca-404d-ac6d-85856e0daf48","system_id":"levelo_inurba_marseille","lat":43.30414,"lon":5.41275,"is_reserved":false,"is_disabled":false,"rental_uris":{"android":"levelo://app?vid=f8d79491-bdca-404d-ac6d-85856e0daf48","ios":"levelo://app?vid=f8d79491-bdca-404d-ac6d-85856e0daf48"},"vehicle_type_id":"4","last_reported":1749913764,"current_range_meters":8000,"station_id":"ce4bhop2rcd13ifvqh8g","pricing_plan_id":"cebpf4jnsgd1na2vs0mg"},{"bike_id":"dd2c554f-0c41-4aa0-a7c2-2fab2aadfc93","system_id":"levelo_inurba_marseille","lat":43.23066,"lon":5.35483,"is_reserved":false,"is_disabled":false,"rental_uris":{"android":"levelo://app?vid=dd2c554f-0c41-4aa0-a7c2-2fab2aadfc93","ios":"levelo://app?vid=dd2c554f-0c41-4aa0-a7c2-2fab2aadfc93"},"vehicle_type_id":"4","last_reported":1749913764,"current_range_meters":8000,"station_id":"cpo3342slgdg3j2ifvpg","pricing_plan_id":"cebpf4jnsgd1na2vs0mg"},{"bike_id":"5faa2615-ccba-44a8-a78a-81a4e1a220b4","system_id":"levelo_inurba_marseille","lat":43.22943,"lon":5.35374,"is_reserved":false,"is_disabled":false,"rental_uris":{"android":"levelo://app?vid=5faa2615-ccba-44a8-a78a-81a4e1a220b4","ios":"levelo://app?vid=5faa2615-ccba-44a8-a78a-81a4e1a220b4"},"vehicle_type_id":"4","last_reported":1749913764,"current_range_meters":8000,"station_id":"cpo3532slgdg3j2ikp40","pricing_plan_id":"cebpf4jnsgd1na2vs0mg"},{"bike_id":"9f204d2b-dfc0-4d4f-b358-469e00ef10f8","system_id":"levelo_inurba_marseille","lat":43.24775,"lon":5.39173,"is_reserved":false,"is_disabled":false,"rental_uris":{"android":"levelo://app?vid=9f204d2b-dfc0-4d4f-b358-469e00ef10f8","ios":"levelo://app?vid=9f204d2b-dfc0-4d4f-b358-469e00ef10f8"},"vehicle_type_id":"4","last_reported":1749913764,"current_range_meters":8400,"station_id":"","pricing_plan_id":"cebpf4jnsgd1na2vs0mg"},{"bike_id":"6facbc0d-f1b5-4dc3-86d4-5c1204834925","system_id":"levelo_inurba_marseille","lat":43.28043,"lon":5.34797,"is_reserved":false,"is_disabled":false,"rental_uris":{"android":"levelo://app?vid=6facbc0d-f1b5-4dc3-86d4-5c1204834925","ios":"levelo://app?vid=6facbc0d-f1b5-4dc3-86d4-5c1204834925"},"vehicle_type_id":"4","last_reported":1749913764,"current_range_meters":8400,"station_id":"","pricing_plan_id":"cebpf4jnsgd1na2vs0mg"},{"bike_id":"b41c5bec-8dd3-468b-a4b4-e7ba61bbecdc","system_id":"levelo_inurba_marseille","lat":43.28477,"lon":5.38558,"is_reserved":false,"is_disabled":false,"rental_uris":{"android":"levelo://app?vid=b41c5bec-8dd3-468b-a4b4-e7ba61bbecdc","ios":"levelo://app?vid=b41c5bec-8dd3-468b-a4b4-e7ba61bbecdc"},"vehicle_type_id":"4","last_reported":1749913764,"current_range_meters":8400,"station_id":"ce4bh8p2rcd13ifvqeb0","pricing_plan_id":"cebpf4jnsgd1na2vs0mg"},{"bike_id":"1de81a9a-fa4b-4108-b236-c270548102ac","system_id":"levelo_inurba_marseille","lat":43.25579,"lon":5.38234,"is_reserved":false,"is_disabled":false,"rental_uris":{"android":"levelo://app?vid=1de81a9a-fa4b-4108-b236-c270548102ac","ios":"levelo://app?vid=1de81a9a-fa4b-4108-b236-c270548102ac"},"vehicle_type_id":"4","last_reported":1749913764,"current_range_meters":8400,"station_id":"ce4bhih2rcd13ifvqfs0","pricing_plan_id":"cebpf4jnsgd1na2vs0mg"},{"bike_id":"0ec39763-715d-4090-a1df-b9cda6a61023","system_id":"levelo_inurba_marseille","lat":43.26023,"lon":5.37548,"is_reserved":false,"is_disabled":false,"rental_uris":{"android":"levelo://app?vid=0ec39763-715d-4090-a1df-b9cda6a61023","ios":"levelo://app?vid=0ec39763-715d-4090-a1df-b9cda6a61023"},"vehicle_type_id":"4","last_reported":1749913764,"current_range_meters":8800,"station_id":"ce4bhgh2rcd13ifvqfa0","pricing_plan_id":"cebpf4jnsgd1na2vs0mg"},{"bike_id":"0dd00f6f-359b-401a-a930-fefa4580045b","system_id":"levelo_inurba_marseille","lat":43.32389,"lon":5.36619,"is_reserved":false,"is_disabled":false,"rental_uris":{"android":"levelo://app?vid=0dd00f6f-359b-401a-a930-fefa4580045b","ios":"levelo://app?vid=0dd00f6f-359b-401a-a930-fefa4580045b"},"vehicle_type_id":"4","last_reported":1749913764,"current_range_meters":8800,"station_id":"ce4bhs12rcd13ifvqhvg","pricing_plan_id":"cebpf4jnsgd1na2vs0mg"},{"bike_id":"fba89433-1216-4205-9593-3fe92337c595","system_id":"levelo_inurba_marseille","lat":43.23191,"lon":5.35556,"is_reserved":false,"is_disabled":false,"rental_uris":{"android":"levelo://app?vid=fba89433-1216-4205-9593-3fe92337c595","ios":"levelo://app?vid=fba89433-1216-4205-9593-3fe92337c595"},"vehicle_type_id":"4","last_reported":1749913764,"current_range_meters":8800,"station_id":"ce4bhu92rcd13ifvqi70","pricing_plan_id":"cebpf4jnsgd1na2vs0mg"},{"bike_id":"707cf88b-203a-4e7a-b83d-5e7d2a8d01a0","system_id":"levelo_inurba_marseille","lat":43.2737,"lon":5.36257,"is_reserved":false,"is_disabled":false,"rental_uris":{"android":"levelo://app?vid=707cf88b-203a-4e7a-b83d-5e7d2a8d01a0","ios":"levelo://app?vid=707cf88b-203a-4e7a-b83d-5e7d2a8d01a0"},"vehicle_type_id":"4","last_reported":1749913764,"current_range_meters":9200,"station_id":"ce4bhbh2rcd13ifvqeo0","pricing_plan_id":"cebpf4jnsgd1na2vs0mg"},{"bike_id":"f383b36c-0626-4005-a556-d6a18d08d9b8","system_id":"levelo_inurba_marseille","lat":43.28411,"lon":5.34988,"is_reserved":false,"is_disabled":false,"rental_uris":{"android":"levelo://app?vid=f383b36c-0626-4005-a556-d6a18d08d9b8","ios":"levelo://app?vid=f383b36c-0626-4005-a556-d6a18d08d9b8"},"vehicle_type_id":"4","last_reported":1749913764,"current_range_meters":9200,"station_id":"ce4bhbh2rcd13ifvqepg","pricing_plan_id":"cebpf4jnsgd1na2vs0mg"},{"bike_id":"a31365b2-5a11-48cb-a0d9-648695b71200","system_id":"levelo_inurba_marseille","lat":43.2864,"lon":5.35068,"is_reserved":false,"is_disabled":false,"rental_uris":{"android":"levelo://app?vid=a31365b2-5a11-48cb-a0d9-648695b71200","ios":"levelo://app?vid=a31365b2-5a11-48cb-a0d9-648695b71200"},"vehicle_type_id":"4","last_reported":1749913764,"current_range_meters":9200,"station_id":"ce4bhch2rcd13ifvqeug","pricing_plan_id":"cebpf4jnsgd1na2vs0mg"},{"bike_id":"d649c646-8d59-41f3-8a23-b1f57bbfd90e","system_id":"levelo_inurba_marseille","lat":43.24797,"lon":5.37463,"is_reserved":false,"is_disabled":false,"rental_uris":{"android":"levelo://app?vid=d649c646-8d59-41f3-8a23-b1f57bbfd90e","ios":"levelo://app?vid=d649c646-8d59-41f3-8a23-b1f57bbfd90e"},"vehicle_type_id":"4","last_reported":1749913764,"current_range_meters":9200,"station_id":"ce4bhgh2rcd13ifvqfb0","pricing_plan_id":"cebpf4jnsgd1na2vs0mg"},{"bike_id":"9b5d71f9-5511-4cfd-810f-2bda3970527b","system_id":"levelo_inurba_marseille","lat":43.25571,"lon":5.38234,"is_reserved":false,"is_disabled":false,"rental_uris":{"android":"levelo://app?vid=9b5d71f9-5511-4cfd-810f-2bda3970527b","ios":"levelo://app?vid=9b5d71f9-5511-4cfd-810f-2bda3970527b"},"vehicle_type_id":"4","last_reported":1749913764,"current_range_meters":9200,"station_id":"ce4bhih2rcd13ifvqfs0","pricing_plan_id":"cebpf4jnsgd1na2vs0mg"},{"bike_id":"91493e90-a9b9-4172-b2ba-d6c698a5a633","system_id":"levelo_inurba_marseille","lat":43.26228,"lon":5.4045,"is_reserved":false,"is_disabled":false,"rental_uris":{"android":"levelo://app?vid=91493e90-a9b9-4172-b2ba-d6c698a5a633","ios":"levelo://app?vid=91493e90-a9b9-4172-b2ba-d6c698a5a633"},"vehicle_type_id":"4","last_reported":1749913764,"current_range_meters":9200,"station_id":"ce4bhmh2rcd13ifvqgmg","pricing_plan_id":"cebpf4jnsgd1na2vs0mg"},{"bike_id":"0564aa7f-efc2-4488-8419-d7be382be993","system_id":"levelo_inurba_marseille","lat":43.28623,"lon":5.35068,"is_reserved":false,"is_disabled":false,"rental_uris":{"android":"levelo://app?vid=0564aa7f-efc2-4488-8419-d7be382be993","ios":"levelo://app?vid=0564aa7f-efc2-4488-8419-d7be382be993"},"vehicle_type_id":"4","last_reported":1749913764,"current_range_meters":9600,"station_id":"ce4bhch2rcd13ifvqeug","pricing_plan_id":"cebpf4jnsgd1na2vs0mg"},{"bike_id":"b6f4414b-d8eb-48bc-83b9-f0930e2bff58","system_id":"levelo_inurba_marseille","lat":43.2623,"lon":5.40451,"is_reserved":false,"is_disabled":false,"rental_uris":{"android":"levelo://app?vid=b6f4414b-d8eb-48bc-83b9-f0930e2bff58","ios":"levelo://app?vid=b6f4414b-d8eb-48bc-83b9-f0930e2bff58"},"vehicle_type_id":"4","last_reported":1749913764,"current_range_meters":9600,"station_id":"ce4bhmh2rcd13ifvqgmg","pricing_plan_id":"cebpf4jnsgd1na2vs0mg"},{"bike_id":"2f5219a1-0d06-434b-9e93-c60bc22f6d02","system_id":"levelo_inurba_marseille","lat":43.30406,"lon":5.41287,"is_reserved":false,"is_disabled":false,"rental_uris":{"android":"levelo://app?vid=2f5219a1-0d06-434b-9e93-c60bc22f6d02","ios":"levelo://app?vid=2f5219a1-0d06-434b-9e93-c60bc22f6d02"},"vehicle_type_id":"4","last_reported":1749913764,"current_range_meters":9600,"station_id":"ce4bhop2rcd13ifvqh8g","pricing_plan_id":"cebpf4jnsgd1na2vs0mg"},{"bike_id":"2ab31527-f915-4286-b3a0-0beafd2cdd50","system_id":"levelo_inurba_marseille","lat":43.30018,"lon":5.37017,"is_reserved":false,"is_disabled":false,"rental_uris":{"android":"levelo://app?vid=2ab31527-f915-4286-b3a0-0beafd2cdd50","ios":"levelo://app?vid=2ab31527-f915-4286-b3a0-0beafd2cdd50"},"vehicle_type_id":"4","last_reported":1749913764,"current_range_meters":10000,"station_id":"","pricing_plan_id":"cebpf4jnsgd1na2vs0mg"},{"bike_id":"87c270dc-4fcf-4263-8f57-a07ca944f869","system_id":"levelo_inurba_marseille","lat":43.31293,"lon":5.39487,"is_reserved":false,"is_disabled":false,"rental_uris":{"android":"levelo://app?vid=87c270dc-4fcf-4263-8f57-a07ca944f869","ios":"levelo://app?vid=87c270dc-4fcf-4263-8f57-a07ca944f869"},"vehicle_type_id":"4","last_reported":1749913764,"current_range_meters":10000,"station_id":"","pricing_plan_id":"cebpf4jnsgd1na2vs0mg"},{"bike_id":"7e28198b-3b4d-467e-a588-cd7be32b568e","system_id":"levelo_inurba_marseille","lat":43.28415,"lon":5.34999,"is_reserved":false,"is_disabled":false,"rental_uris":{"android":"levelo://app?vid=7e28198b-3b4d-467e-a588-cd7be32b568e","ios":"levelo://app?vid=7e28198b-3b4d-467e-a588-cd7be32b568e"},"vehicle_type_id":"4","last_reported":1749913764,"current_range_meters":10000,"station_id":"ce4bhbh2rcd13ifvqepg","pricing_plan_id":"cebpf4jnsgd1na2vs0mg"},{"bike_id":"70cd85db-4075-41dd-bea6-c8b0e99d9aa5","system_id":"levelo_inurba_marseille","lat":43.23966,"lon":5.3664,"is_reserved":false,"is_disabled":false,"rental_uris":{"android":"levelo://app?vid=70cd85db-4075-41dd-bea6-c8b0e99d9aa5","ios":"levelo://app?vid=70cd85db-4075-41dd-bea6-c8b0e99d9aa5"},"vehicle_type_id":"4","last_reported":1749913764,"current_range_meters":10000,"station_id":"ce4bhi12rcd13ifvqfp0","pricing_plan_id":"cebpf4jnsgd1na2vs0mg"},{"bike_id":"9a90ee41-7d0d-490d-927a-b966569ae4f9","system_id":"levelo_inurba_marseille","lat":43.246438,"lon":5.395115,"is_reserved":false,"is_disabled":false,"rental_uris":{"android":"levelo://app?vid=9a90ee41-7d0d-490d-927a-b966569ae4f9","ios":"levelo://app?vid=9a90ee41-7d0d-490d-927a-b966569ae4f9"},"vehicle_type_id":"4","last_reported":1749913764,"current_range_meters":10800,"station_id":"ce4bhh12rcd13ifvqff0","pricing_plan_id":"cebpf4jnsgd1na2vs0mg"},{"bike_id":"0a176c0c-78a3-474b-b917-3fc9a4ed2ff7","system_id":"levelo_inurba_marseille","lat":43.25582,"lon":5.38227,"is_reserved":false,"is_disabled":false,"rental_uris":{"android":"levelo://app?vid=0a176c0c-78a3-474b-b917-3fc9a4ed2ff7","ios":"levelo://app?vid=0a176c0c-78a3-474b-b917-3fc9a4ed2ff7"},"vehicle_type_id":"4","last_reported":1749913764,"current_range_meters":10800,"station_id":"ce4bhih2rcd13ifvqfs0","pricing_plan_id":"cebpf4jnsgd1na2vs0mg"},{"bike_id":"0afcb599-3d9f-4bc3-a6eb-ed35bcfdac84","system_id":"levelo_inurba_marseille","lat":43.23191,"lon":5.35573,"is_reserved":false,"is_disabled":false,"rental_uris":{"android":"levelo://app?vid=0afcb599-3d9f-4bc3-a6eb-ed35bcfdac84","ios":"levelo://app?vid=0afcb599-3d9f-4bc3-a6eb-ed35bcfdac84"},"vehicle_type_id":"4","last_reported":1749913764,"current_range_meters":10800,"station_id":"ce4bhu92rcd13ifvqi70","pricing_plan_id":"cebpf4jnsgd1na2vs0mg"},{"bike_id":"67ce34f9-7ee9-4871-9024-db6244b9d74c","system_id":"levelo_inurba_marseille","lat":43.24168,"lon":5.36389,"is_reserved":false,"is_disabled":false,"rental_uris":{"android":"levelo://app?vid=67ce34f9-7ee9-4871-9024-db6244b9d74c","ios":"levelo://app?vid=67ce34f9-7ee9-4871-9024-db6244b9d74c"},"vehicle_type_id":"4","last_reported":1749913764,"current_range_meters":10800,"station_id":"cpo36qri1sfpv3e86is0","pricing_plan_id":"cebpf4jnsgd1na2vs0mg"},{"bike_id":"394a1f2e-6fca-4946-8c5a-9022246f16dd","system_id":"levelo_inurba_marseille","lat":43.24168,"lon":5.36399,"is_reserved":false,"is_disabled":false,"rental_uris":{"android":"levelo://app?vid=394a1f2e-6fca-4946-8c5a-9022246f16dd","ios":"levelo://app?vid=394a1f2e-6fca-4946-8c5a-9022246f16dd"},"vehicle_type_id":"4","last_reported":1749913764,"current_range_meters":10800,"station_id":"cpo36qri1sfpv3e86is0","pricing_plan_id":"cebpf4jnsgd1na2vs0mg"},{"bike_id":"2a909ff3-158e-4089-9849-3eb5d0834555","system_id":"levelo_inurba_marseille","lat":43.217451,"lon":5.346025,"is_reserved":false,"is_disabled":false,"rental_uris":{"android":"levelo://app?vid=2a909ff3-158e-4089-9849-3eb5d0834555","ios":"levelo://app?vid=2a909ff3-158e-4089-9849-3eb5d0834555"},"vehicle_type_id":"4","last_reported":1749913764,"current_range_meters":10800,"station_id":"st_cvj6r9ubvosntc0bgbag","pricing_plan_id":"cebpf4jnsgd1na2vs0mg"},{"bike_id":"18e91901-1092-4840-8013-0a3d89e2834a","system_id":"levelo_inurba_marseille","lat":43.30461,"lon":5.3792,"is_reserved":false,"is_disabled":false,"rental_uris":{"android":"levelo://app?vid=18e91901-1092-4840-8013-0a3d89e2834a","ios":"levelo://app?vid=18e91901-1092-4840-8013-0a3d89e2834a"},"vehicle_type_id":"4","last_reported":1749913764,"current_range_meters":11200,"station_id":"ce4bgup2rcd13ifvqcn0","pricing_plan_id":"cebpf4jnsgd1na2vs0mg"},{"bike_id":"fdb06854-679c-49e3-b57f-ba0aff227c75","system_id":"levelo_inurba_marseille","lat":43.28416,"lon":5.34989,"is_reserved":false,"is_disabled":false,"rental_uris":{"android":"levelo://app?vid=fdb06854-679c-49e3-b57f-ba0aff227c75","ios":"levelo://app?vid=fdb06854-679c-49e3-b57f-ba0aff227c75"},"vehicle_type_id":"4","last_reported":1749913764,"current_range_meters":11200,"station_id":"ce4bhbh2rcd13ifvqepg","pricing_plan_id":"cebpf4jnsgd1na2vs0mg"},{"bike_id":"33a5ae76-fedf-41f8-94fe-0f03745d1877","system_id":"levelo_inurba_marseille","lat":43.25578,"lon":5.38231,"is_reserved":false,"is_disabled":false,"rental_uris":{"android":"levelo://app?vid=33a5ae76-fedf-41f8-94fe-0f03745d1877","ios":"levelo://app?vid=33a5ae76-fedf-41f8-94fe-0f03745d1877"},"vehicle_type_id":"4","last_reported":1749913764,"current_range_meters":11200,"station_id":"ce4bhih2rcd13ifvqfs0","pricing_plan_id":"cebpf4jnsgd1na2vs0mg"},{"bike_id":"191524f3-267f-4467-9ea7-6cd874a9eea3","system_id":"levelo_inurba_marseille","lat":43.30415,"lon":5.41284,"is_reserved":false,"is_disabled":false,"rental_uris":{"android":"levelo://app?vid=191524f3-267f-4467-9ea7-6cd874a9eea3","ios":"levelo://app?vid=191524f3-267f-4467-9ea7-6cd874a9eea3"},"vehicle_type_id":"4","last_reported":1749913764,"current_range_meters":11200,"station_id":"ce4bhop2rcd13ifvqh8g","pricing_plan_id":"cebpf4jnsgd1na2vs0mg"},{"bike_id":"a0c467a2-56a1-484b-9cec-03cb23240239","system_id":"levelo_inurba_marseille","lat":43.23053,"lon":5.35492,"is_reserved":false,"is_disabled":false,"rental_uris":{"android":"levelo://app?vid=a0c467a2-56a1-484b-9cec-03cb23240239","ios":"levelo://app?vid=a0c467a2-56a1-484b-9cec-03cb23240239"},"vehicle_type_id":"4","last_reported":1749913764,"current_range_meters":11200,"station_id":"cpo3342slgdg3j2ifvpg","pricing_plan_id":"cebpf4jnsgd1na2vs0mg"},{"bike_id":"a7a4cac8-9447-4319-a9fb-f2b96c8f1e32","system_id":"levelo_inurba_marseille","lat":43.26211,"lon":5.37459,"is_reserved":false,"is_disabled":false,"rental_uris":{"android":"levelo://app?vid=a7a4cac8-9447-4319-a9fb-f2b96c8f1e32","ios":"levelo://app?vid=a7a4cac8-9447-4319-a9fb-f2b96c8f1e32"},"vehicle_type_id":"4","last_reported":1749913764,"current_range_meters":11600,"station_id":"ce4bhgp2rcd13ifvqfc0","pricing_plan_id":"cebpf4jnsgd1na2vs0mg"},{"bike_id":"ab67db2e-29dc-4aa1-ad47-cf91458ba682","system_id":"levelo_inurba_marseille","lat":43.23185,"lon":5.35581,"is_reserved":false,"is_disabled":false,"rental_uris":{"android":"levelo://app?vid=ab67db2e-29dc-4aa1-ad47-cf91458ba682","ios":"levelo://app?vid=ab67db2e-29dc-4aa1-ad47-cf91458ba682"},"vehicle_type_id":"4","last_reported":1749913764,"current_range_meters":11600,"station_id":"ce4bhu92rcd13ifvqi70","pricing_plan_id":"cebpf4jnsgd1na2vs0mg"},{"bike_id":"a5e103e7-2448-4bd1-809b-92ca4c8567c9","system_id":"levelo_inurba_marseille","lat":43.217488,"lon":5.34602,"is_reserved":false,"is_disabled":false,"rental_uris":{"android":"levelo://app?vid=a5e103e7-2448-4bd1-809b-92ca4c8567c9","ios":"levelo://app?vid=a5e103e7-2448-4bd1-809b-92ca4c8567c9"},"vehicle_type_id":"4","last_reported":1749913764,"current_range_meters":11600,"station_id":"st_cvj6r9ubvosntc0bgbag","pricing_plan_id":"cebpf4jnsgd1na2vs0mg"},{"bike_id":"9b91606c-287a-4145-9d47-18cb28000a68","system_id":"levelo_inurba_marseille","lat":43.28116,"lon":5.35167,"is_reserved":false,"is_disabled":false,"rental_uris":{"android":"levelo://app?vid=9b91606c-287a-4145-9d47-18cb28000a68","ios":"levelo://app?vid=9b91606c-287a-4145-9d47-18cb28000a68"},"vehicle_type_id":"4","last_reported":1749913764,"current_range_meters":12000,"station_id":"","pricing_plan_id":"cebpf4jnsgd1na2vs0mg"},{"bike_id":"ccdbaf51-55c7-4b38-9624-9981422840df","system_id":"levelo_inurba_marseille","lat":43.28406,"lon":5.34982,"is_reserved":false,"is_disabled":false,"rental_uris":{"android":"levelo://app?vid=ccdbaf51-55c7-4b38-9624-9981422840df","ios":"levelo://app?vid=ccdbaf51-55c7-4b38-9624-9981422840df"},"vehicle_type_id":"4","last_reported":1749913764,"current_range_meters":12000,"station_id":"ce4bhbh2rcd13ifvqepg","pricing_plan_id":"cebpf4jnsgd1na2vs0mg"},{"bike_id":"225250fa-f9b2-4df5-bb98-622246073512","system_id":"levelo_inurba_marseille","lat":43.25492,"lon":5.37648,"is_reserved":false,"is_disabled":false,"rental_uris":{"android":"levelo://app?vid=225250fa-f9b2-4df5-bb98-622246073512","ios":"levelo://app?vid=225250fa-f9b2-4df5-bb98-622246073512"},"vehicle_type_id":"4","last_reported":1749913764,"current_range_meters":12000,"station_id":"ce4bhh12rcd13ifvqff0","pricing_plan_id":"cebpf4jnsgd1na2vs0mg"},{"bike_id":"6f6c185e-4175-49e0-a999-390c4f7e670a","system_id":"levelo_inurba_marseille","lat":43.21743,"lon":5.34584,"is_reserved":false,"is_disabled":false,"rental_uris":{"android":"levelo://app?vid=6f6c185e-4175-49e0-a999-390c4f7e670a","ios":"levelo://app?vid=6f6c185e-4175-49e0-a999-390c4f7e670a"},"vehicle_type_id":"4","last_reported":1749913764,"current_range_meters":12000,"station_id":"st_cvj6r9ubvosntc0bgbag","pricing_plan_id":"cebpf4jnsgd1na2vs0mg"},{"bike_id":"14e31f6e-4699-4115-9306-403ceebcfd64","system_id":"levelo_inurba_marseille","lat":43.28777,"lon":5.3887,"is_reserved":false,"is_disabled":false,"rental_uris":{"android":"levelo://app?vid=14e31f6e-4699-4115-9306-403ceebcfd64","ios":"levelo://app?vid=14e31f6e-4699-4115-9306-403ceebcfd64"},"vehicle_type_id":"4","last_reported":1749913764,"current_range_meters":12400,"station_id":"ce4bh4p2rcd13ifvqe0g","pricing_plan_id":"cebpf4jnsgd1na2vs0mg"},{"bike_id":"0b75b775-ccad-4cb5-90b0-a9571010b4d4","system_id":"levelo_inurba_marseille","lat":43.28401,"lon":5.35006,"is_reserved":false,"is_disabled":false,"rental_uris":{"android":"levelo://app?vid=0b75b775-ccad-4cb5-90b0-a9571010b4d4","ios":"levelo://app?vid=0b75b775-ccad-4cb5-90b0-a9571010b4d4"},"vehicle_type_id":"4","last_reported":1749913764,"current_range_meters":12400,"station_id":"ce4bhbh2rcd13ifvqepg","pricing_plan_id":"cebpf4jnsgd1na2vs0mg"},{"bike_id":"0978b740-01e7-41a1-b176-7e6959de253d","system_id":"levelo_inurba_marseille","lat":43.24387,"lon":5.37058,"is_reserved":false,"is_disabled":false,"rental_uris":{"android":"levelo://app?vid=0978b740-01e7-41a1-b176-7e6959de253d","ios":"levelo://app?vid=0978b740-01e7-41a1-b176-7e6959de253d"},"vehicle_type_id":"4","last_reported":1749913764,"current_range_meters":12400,"station_id":"ce4bhhh2rcd13ifvqfk0","pricing_plan_id":"cebpf4jnsgd1na2vs0mg"},{"bike_id":"a6b029ab-06b6-466f-a2bc-3e33fc2fc182","system_id":"levelo_inurba_marseille","lat":43.25867,"lon":5.39903,"is_reserved":false,"is_disabled":false,"rental_uris":{"android":"levelo://app?vid=a6b029ab-06b6-466f-a2bc-3e33fc2fc182","ios":"levelo://app?vid=a6b029ab-06b6-466f-a2bc-3e33fc2fc182"},"vehicle_type_id":"4","last_reported":1749913764,"current_range_meters":12400,"station_id":"ce4bhl92rcd13ifvqghg","pricing_plan_id":"cebpf4jnsgd1na2vs0mg"},{"bike_id":"471071d7-51c1-4f55-aad3-19314600ea37","system_id":"levelo_inurba_marseille","lat":43.26227,"lon":5.40446,"is_reserved":false,"is_disabled":false,"rental_uris":{"android":"levelo://app?vid=471071d7-51c1-4f55-aad3-19314600ea37","ios":"levelo://app?vid=471071d7-51c1-4f55-aad3-19314600ea37"},"vehicle_type_id":"4","last_reported":1749913764,"current_range_meters":12400,"station_id":"ce4bhmh2rcd13ifvqgmg","pricing_plan_id":"cebpf4jnsgd1na2vs0mg"},{"bike_id":"2eb2516b-5f9f-4f58-8493-07049b393727","system_id":"levelo_inurba_marseille","lat":43.337411,"lon":5.391875,"is_reserved":false,"is_disabled":false,"rental_uris":{"android":"levelo://app?vid=2eb2516b-5f9f-4f58-8493-07049b393727","ios":"levelo://app?vid=2eb2516b-5f9f-4f58-8493-07049b393727"},"vehicle_type_id":"4","last_reported":1749913764,"current_range_meters":12400,"station_id":"ce4bhr92rcd13ifvqhsg","pricing_plan_id":"cebpf4jnsgd1na2vs0mg"},{"bike_id":"9fd5ff91-7dbe-4230-b27e-84a537188a03","system_id":"levelo_inurba_marseille","lat":43.30544,"lon":5.36561,"is_reserved":false,"is_disabled":false,"rental_uris":{"android":"levelo://app?vid=9fd5ff91-7dbe-4230-b27e-84a537188a03","ios":"levelo://app?vid=9fd5ff91-7dbe-4230-b27e-84a537188a03"},"vehicle_type_id":"4","last_reported":1749913764,"current_range_meters":12800,"station_id":"ce4bgs12rcd13ifvqcag","pricing_plan_id":"cebpf4jnsgd1na2vs0mg"},{"bike_id":"a2994650-a67d-4c57-ae0a-c9628dacab30","system_id":"levelo_inurba_marseille","lat":43.29199,"lon":5.35789,"is_reserved":false,"is_disabled":false,"rental_uris":{"android":"levelo://app?vid=a2994650-a67d-4c57-ae0a-c9628dacab30","ios":"levelo://app?vid=a2994650-a67d-4c57-ae0a-c9628dacab30"},"vehicle_type_id":"4","last_reported":1749913764,"current_range_meters":12800,"station_id":"ce4bhb12rcd13ifvqel0","pricing_plan_id":"cebpf4jnsgd1na2vs0mg"},{"bike_id":"08a98734-973d-48d0-95cd-5f25874f9079","system_id":"levelo_inurba_marseille","lat":43.26031,"lon":5.37554,"is_reserved":false,"is_disabled":false,"rental_uris":{"android":"levelo://app?vid=08a98734-973d-48d0-95cd-5f25874f9079","ios":"levelo://app?vid=08a98734-973d-48d0-95cd-5f25874f9079"},"vehicle_type_id":"4","last_reported":1749913764,"current_range_meters":12800,"station_id":"ce4bhgh2rcd13ifvqfa0","pricing_plan_id":"cebpf4jnsgd1na2vs0mg"},{"bike_id":"2aa86b84-e014-4ab2-8f30-5be803c9e219","system_id":"levelo_inurba_marseille","lat":43.22488,"lon":5.34778,"is_reserved":false,"is_disabled":false,"rental_uris":{"android":"levelo://app?vid=2aa86b84-e014-4ab2-8f30-5be803c9e219","ios":"levelo://app?vid=2aa86b84-e014-4ab2-8f30-5be803c9e219"},"vehicle_type_id":"4","last_reported":1749913764,"current_range_meters":12800,"station_id":"st_cvj5dfep6f1abm77gieg","pricing_plan_id":"cebpf4jnsgd1na2vs0mg"},{"bike_id":"8cd62e92-49cd-4d38-ac02-fb37d2b4e358","system_id":"levelo_inurba_marseille","lat":43.21765,"lon":5.34602,"is_reserved":false,"is_disabled":false,"rental_uris":{"android":"levelo://app?vid=8cd62e92-49cd-4d38-ac02-fb37d2b4e358","ios":"levelo://app?vid=8cd62e92-49cd-4d38-ac02-fb37d2b4e358"},"vehicle_type_id":"4","last_reported":1749913764,"current_range_meters":12800,"station_id":"st_cvj6r9ubvosntc0bgbag","pricing_plan_id":"cebpf4jnsgd1na2vs0mg"},{"bike_id":"53d60dcd-1322-451c-8d9c-54e0dde196be","system_id":"levelo_inurba_marseille","lat":43.21757,"lon":5.34623,"is_reserved":false,"is_disabled":false,"rental_uris":{"android":"levelo://app?vid=53d60dcd-1322-451c-8d9c-54e0dde196be","ios":"levelo://app?vid=53d60dcd-1322-451c-8d9c-54e0dde196be"},"vehicle_type_id":"4","last_reported":1749913764,"current_range_meters":12800,"station_id":"st_cvj6r9ubvosntc0bgbag","pricing_plan_id":"cebpf4jnsgd1na2vs0mg"},{"bike_id":"72b0e88f-3151-44a4-ada5-bc6b118d660d","system_id":"levelo_inurba_marseille","lat":43.259734,"lon":5.375772,"is_reserved":false,"is_disabled":false,"rental_uris":{"android":"levelo://app?vid=72b0e88f-3151-44a4-ada5-bc6b118d660d","ios":"levelo://app?vid=72b0e88f-3151-44a4-ada5-bc6b118d660d"},"vehicle_type_id":"4","last_reported":1749913764,"current_range_meters":13600,"station_id":"","pricing_plan_id":"cebpf4jnsgd1na2vs0mg"},{"bike_id":"213b91e6-cd50-4874-a695-cc524c1cdab2","system_id":"levelo_inurba_marseille","lat":43.2894,"lon":5.36399,"is_reserved":false,"is_disabled":false,"rental_uris":{"android":"levelo://app?vid=213b91e6-cd50-4874-a695-cc524c1cdab2","ios":"levelo://app?vid=213b91e6-cd50-4874-a695-cc524c1cdab2"},"vehicle_type_id":"4","last_reported":1749913764,"current_range_meters":13600,"station_id":"ce4bhc92rcd13ifvqetg","pricing_plan_id":"cebpf4jnsgd1na2vs0mg"},{"bike_id":"7bbea268-7e10-4726-af89-c73005574248","system_id":"levelo_inurba_marseille","lat":43.30395,"lon":5.42484,"is_reserved":false,"is_disabled":false,"rental_uris":{"android":"levelo://app?vid=7bbea268-7e10-4726-af89-c73005574248","ios":"levelo://app?vid=7bbea268-7e10-4726-af89-c73005574248"},"vehicle_type_id":"4","last_reported":1749913764,"current_range_meters":13600,"station_id":"ce4bhoh2rcd13ifvqh6g","pricing_plan_id":"cebpf4jnsgd1na2vs0mg"},{"bike_id":"4d5e9f5d-2fd7-408b-af48-87337b754d16","system_id":"levelo_inurba_marseille","lat":43.33711,"lon":5.3918,"is_reserved":false,"is_disabled":false,"rental_uris":{"android":"levelo://app?vid=4d5e9f5d-2fd7-408b-af48-87337b754d16","ios":"levelo://app?vid=4d5e9f5d-2fd7-408b-af48-87337b754d16"},"vehicle_type_id":"4","last_reported":1749913764,"current_range_meters":13600,"station_id":"ce4bhr92rcd13ifvqhsg","pricing_plan_id":"cebpf4jnsgd1na2vs0mg"},{"bike_id":"5a21e497-33bb-4066-baf7-e010c7ab35fe","system_id":"levelo_inurba_marseille","lat":43.24081,"lon":5.37741,"is_reserved":false,"is_disabled":false,"rental_uris":{"android":"levelo://app?vid=5a21e497-33bb-4066-baf7-e010c7ab35fe","ios":"levelo://app?vid=5a21e497-33bb-4066-baf7-e010c7ab35fe"},"vehicle_type_id":"4","last_reported":1749913764,"current_range_meters":14000,"station_id":"ce4bhnp2rcd13ifvqgvg","pricing_plan_id":"cebpf4jnsgd1na2vs0mg"},{"bike_id":"7185f714-53f7-4714-ae19-5dc3fc4df546","system_id":"levelo_inurba_marseille","lat":43.23059,"lon":5.35489,"is_reserved":false,"is_disabled":false,"rental_uris":{"android":"levelo://app?vid=7185f714-53f7-4714-ae19-5dc3fc4df546","ios":"levelo://app?vid=7185f714-53f7-4714-ae19-5dc3fc4df546"},"vehicle_type_id":"4","last_reported":1749913764,"current_range_meters":14000,"station_id":"cpo3342slgdg3j2ifvpg","pricing_plan_id":"cebpf4jnsgd1na2vs0mg"},{"bike_id":"769efce4-375c-4934-a7cd-61de7e676910","system_id":"levelo_inurba_marseille","lat":43.21189,"lon":5.35069,"is_reserved":false,"is_disabled":false,"rental_uris":{"android":"levelo://app?vid=769efce4-375c-4934-a7cd-61de7e676910","ios":"levelo://app?vid=769efce4-375c-4934-a7cd-61de7e676910"},"vehicle_type_id":"4","last_reported":1749913764,"current_range_meters":14000,"station_id":"st_cvj6sg6p6f1abm77japg","pricing_plan_id":"cebpf4jnsgd1na2vs0mg"},{"bike_id":"ea29e5ba-ba76-48d5-8204-c55d55b5c5ca","system_id":"levelo_inurba_marseille","lat":43.2558,"lon":5.38237,"is_reserved":false,"is_disabled":false,"rental_uris":{"android":"levelo://app?vid=ea29e5ba-ba76-48d5-8204-c55d55b5c5ca","ios":"levelo://app?vid=ea29e5ba-ba76-48d5-8204-c55d55b5c5ca"},"vehicle_type_id":"4","last_reported":1749913764,"current_range_meters":14400,"station_id":"ce4bhih2rcd13ifvqfs0","pricing_plan_id":"cebpf4jnsgd1na2vs0mg"},{"bike_id":"86864168-ee86-4757-8cdd-cb7362b87fee","system_id":"levelo_inurba_marseille","lat":43.26234,"lon":5.40452,"is_reserved":false,"is_disabled":false,"rental_uris":{"android":"levelo://app?vid=86864168-ee86-4757-8cdd-cb7362b87fee","ios":"levelo://app?vid=86864168-ee86-4757-8cdd-cb7362b87fee"},"vehicle_type_id":"4","last_reported":1749913764,"current_range_meters":14400,"station_id":"ce4bhmh2rcd13ifvqgmg","pricing_plan_id":"cebpf4jnsgd1na2vs0mg"},{"bike_id":"bbae50e6-97cc-4981-9da8-21f734a299c3","system_id":"levelo_inurba_marseille","lat":43.24164,"lon":5.36406,"is_reserved":false,"is_disabled":false,"rental_uris":{"android":"levelo://app?vid=bbae50e6-97cc-4981-9da8-21f734a299c3","ios":"levelo://app?vid=bbae50e6-97cc-4981-9da8-21f734a299c3"},"vehicle_type_id":"4","last_reported":1749913764,"current_range_meters":14400,"station_id":"cpo36qri1sfpv3e86is0","pricing_plan_id":"cebpf4jnsgd1na2vs0mg"},{"bike_id":"d2729172-f4bf-4eb8-9964-c217269a3492","system_id":"levelo_inurba_marseille","lat":43.21184,"lon":5.35095,"is_reserved":false,"is_disabled":false,"rental_uris":{"android":"levelo://app?vid=d2729172-f4bf-4eb8-9964-c217269a3492","ios":"levelo://app?vid=d2729172-f4bf-4eb8-9964-c217269a3492"},"vehicle_type_id":"4","last_reported":1749913764,"current_range_meters":14400,"station_id":"st_cvj6sg6p6f1abm77japg","pricing_plan_id":"cebpf4jnsgd1na2vs0mg"},{"bike_id":"e11f9c48-3813-4206-93f2-585b425507d4","system_id":"levelo_inurba_marseille","lat":43.216711,"lon":5.345692,"is_reserved":false,"is_disabled":false,"rental_uris":{"android":"levelo://app?vid=e11f9c48-3813-4206-93f2-585b425507d4","ios":"levelo://app?vid=e11f9c48-3813-4206-93f2-585b425507d4"},"vehicle_type_id":"4","last_reported":1749913764,"current_range_meters":14800,"station_id":"st_cvj6r9ubvosntc0bgbag","pricing_plan_id":"cebpf4jnsgd1na2vs0mg"},{"bike_id":"bd081d41-5eed-4495-82ed-9e27cd112239","system_id":"levelo_inurba_marseille","lat":43.249488,"lon":5.396613,"is_reserved":false,"is_disabled":false,"rental_uris":{"android":"levelo://app?vid=bd081d41-5eed-4495-82ed-9e27cd112239","ios":"levelo://app?vid=bd081d41-5eed-4495-82ed-9e27cd112239"},"vehicle_type_id":"4","last_reported":1749913764,"current_range_meters":15200,"station_id":"","pricing_plan_id":"cebpf4jnsgd1na2vs0mg"},{"bike_id":"74924259-12a0-4dc9-b032-135f63128ff9","system_id":"levelo_inurba_marseille","lat":43.32057,"lon":5.41552,"is_reserved":false,"is_disabled":false,"rental_uris":{"android":"levelo://app?vid=74924259-12a0-4dc9-b032-135f63128ff9","ios":"levelo://app?vid=74924259-12a0-4dc9-b032-135f63128ff9"},"vehicle_type_id":"4","last_reported":1749913764,"current_range_meters":15200,"station_id":"ce4bhq92rcd13ifvqhkg","pricing_plan_id":"cebpf4jnsgd1na2vs0mg"},{"bike_id":"a8283606-6fdf-49b2-991a-62bc6fc9988a","system_id":"levelo_inurba_marseille","lat":43.22518,"lon":5.34763,"is_reserved":false,"is_disabled":false,"rental_uris":{"android":"levelo://app?vid=a8283606-6fdf-49b2-991a-62bc6fc9988a","ios":"levelo://app?vid=a8283606-6fdf-49b2-991a-62bc6fc9988a"},"vehicle_type_id":"4","last_reported":1749913764,"current_range_meters":16000,"station_id":"","pricing_plan_id":"cebpf4jnsgd1na2vs0mg"},{"bike_id":"e5066ee4-f045-4c7c-8dfa-fa6e28632f9a","system_id":"levelo_inurba_marseille","lat":43.30308,"lon":5.36904,"is_reserved":false,"is_disabled":false,"rental_uris":{"android":"levelo://app?vid=e5066ee4-f045-4c7c-8dfa-fa6e28632f9a","ios":"levelo://app?vid=e5066ee4-f045-4c7c-8dfa-fa6e28632f9a"},"vehicle_type_id":"4","last_reported":1749913764,"current_range_meters":16000,"station_id":"ce4bgqh2rcd13ifvqc5g","pricing_plan_id":"cebpf4jnsgd1na2vs0mg"},{"bike_id":"33c88bcc-413d-4d54-bd30-5a2b999a43c0","system_id":"levelo_inurba_marseille","lat":43.24685,"lon":5.3813,"is_reserved":false,"is_disabled":false,"rental_uris":{"android":"levelo://app?vid=33c88bcc-413d-4d54-bd30-5a2b999a43c0","ios":"levelo://app?vid=33c88bcc-413d-4d54-bd30-5a2b999a43c0"},"vehicle_type_id":"4","last_reported":1749913764,"current_range_meters":16000,"station_id":"ce4bhih2rcd13ifvqfr0","pricing_plan_id":"cebpf4jnsgd1na2vs0mg"},{"bike_id":"3ba53083-f560-4fb5-b3cc-01a71156c6ba","system_id":"levelo_inurba_marseille","lat":43.23184,"lon":5.35558,"is_reserved":false,"is_disabled":false,"rental_uris":{"android":"levelo://app?vid=3ba53083-f560-4fb5-b3cc-01a71156c6ba","ios":"levelo://app?vid=3ba53083-f560-4fb5-b3cc-01a71156c6ba"},"vehicle_type_id":"4","last_reported":1749913764,"current_range_meters":16000,"station_id":"ce4bhu92rcd13ifvqi70","pricing_plan_id":"cebpf4jnsgd1na2vs0mg"},{"bike_id":"194985f0-5f42-48d5-bdf0-214ea2765269","system_id":"levelo_inurba_marseille","lat":43.22936,"lon":5.35393,"is_reserved":false,"is_disabled":false,"rental_uris":{"android":"levelo://app?vid=194985f0-5f42-48d5-bdf0-214ea2765269","ios":"levelo://app?vid=194985f0-5f42-48d5-bdf0-214ea2765269"},"vehicle_type_id":"4","last_reported":1749913764,"current_range_meters":16000,"station_id":"cpo3532slgdg3j2ikp40","pricing_plan_id":"cebpf4jnsgd1na2vs0mg"},{"bike_id":"02a55228-2765-4c22-837c-5038cf3477db","system_id":"levelo_inurba_marseille","lat":43.21746,"lon":5.34592,"is_reserved":false,"is_disabled":false,"rental_uris":{"android":"levelo://app?vid=02a55228-2765-4c22-837c-5038cf3477db","ios":"levelo://app?vid=02a55228-2765-4c22-837c-5038cf3477db"},"vehicle_type_id":"4","last_reported":1749913764,"current_range_meters":16000,"station_id":"st_cvj6r9ubvosntc0bgbag","pricing_plan_id":"cebpf4jnsgd1na2vs0mg"},{"bike_id":"b08fb9e2-b9ae-4c7d-8c2d-8d5f8d5f69f7","system_id":"levelo_inurba_marseille","lat":43.217456,"lon":5.345969,"is_reserved":false,"is_disabled":false,"rental_uris":{"android":"levelo://app?vid=b08fb9e2-b9ae-4c7d-8c2d-8d5f8d5f69f7","ios":"levelo://app?vid=b08fb9e2-b9ae-4c7d-8c2d-8d5f8d5f69f7"},"vehicle_type_id":"4","last_reported":1749913764,"current_range_meters":16000,"station_id":"st_cvj6r9ubvosntc0bgbag","pricing_plan_id":"cebpf4jnsgd1na2vs0mg"},{"bike_id":"8cbf1c75-54a0-4ee2-baf6-f6eec1819703","system_id":"levelo_inurba_marseille","lat":43.21743,"lon":5.34601,"is_reserved":false,"is_disabled":false,"rental_uris":{"android":"levelo://app?vid=8cbf1c75-54a0-4ee2-baf6-f6eec1819703","ios":"levelo://app?vid=8cbf1c75-54a0-4ee2-baf6-f6eec1819703"},"vehicle_type_id":"4","last_reported":1749913764,"current_range_meters":16000,"station_id":"st_cvj6r9ubvosntc0bgbag","pricing_plan_id":"cebpf4jnsgd1na2vs0mg"},{"bike_id":"2ca1ab84-2a33-4ccf-bca6-842bea5d3fb6","system_id":"levelo_inurba_marseille","lat":43.26203,"lon":5.37451,"is_reserved":false,"is_disabled":false,"rental_uris":{"android":"levelo://app?vid=2ca1ab84-2a33-4ccf-bca6-842bea5d3fb6","ios":"levelo://app?vid=2ca1ab84-2a33-4ccf-bca6-842bea5d3fb6"},"vehicle_type_id":"4","last_reported":1749913764,"current_range_meters":16400,"station_id":"ce4bhgp2rcd13ifvqfc0","pricing_plan_id":"cebpf4jnsgd1na2vs0mg"},{"bike_id":"489bc75d-a74a-4e0c-afdb-faa5ba373eb2","system_id":"levelo_inurba_marseille","lat":43.2175,"lon":5.34592,"is_reserved":false,"is_disabled":false,"rental_uris":{"android":"levelo://app?vid=489bc75d-a74a-4e0c-afdb-faa5ba373eb2","ios":"levelo://app?vid=489bc75d-a74a-4e0c-afdb-faa5ba373eb2"},"vehicle_type_id":"4","last_reported":1749913764,"current_range_meters":16400,"station_id":"st_cvj6r9ubvosntc0bgbag","pricing_plan_id":"cebpf4jnsgd1na2vs0mg"},{"bike_id":"7240a984-bb6d-4c3b-ab8d-aef55ac0bce8","system_id":"levelo_inurba_marseille","lat":43.21189,"lon":5.35071,"is_reserved":false,"is_disabled":false,"rental_uris":{"android":"levelo://app?vid=7240a984-bb6d-4c3b-ab8d-aef55ac0bce8","ios":"levelo://app?vid=7240a984-bb6d-4c3b-ab8d-aef55ac0bce8"},"vehicle_type_id":"4","last_reported":1749913764,"current_range_meters":16400,"station_id":"st_cvj6sg6p6f1abm77japg","pricing_plan_id":"cebpf4jnsgd1na2vs0mg"},{"bike_id":"efd9c384-daa9-4013-b288-e4e1f794d48f","system_id":"levelo_inurba_marseille","lat":43.30006,"lon":5.40119,"is_reserved":false,"is_disabled":false,"rental_uris":{"android":"levelo://app?vid=efd9c384-daa9-4013-b288-e4e1f794d48f","ios":"levelo://app?vid=efd9c384-daa9-4013-b288-e4e1f794d48f"},"vehicle_type_id":"4","last_reported":1749913764,"current_range_meters":16800,"station_id":"","pricing_plan_id":"cebpf4jnsgd1na2vs0mg"},{"bike_id":"d3bc3b9f-7391-4b78-a7ca-1d9d571a0196","system_id":"levelo_inurba_marseille","lat":43.24082,"lon":5.377523,"is_reserved":false,"is_disabled":false,"rental_uris":{"android":"levelo://app?vid=d3bc3b9f-7391-4b78-a7ca-1d9d571a0196","ios":"levelo://app?vid=d3bc3b9f-7391-4b78-a7ca-1d9d571a0196"},"vehicle_type_id":"4","last_reported":1749913764,"current_range_meters":16800,"station_id":"ce4bhnp2rcd13ifvqgvg","pricing_plan_id":"cebpf4jnsgd1na2vs0mg"},{"bike_id":"710d97cb-5291-4f9c-8a23-d89c0b627fd7","system_id":"levelo_inurba_marseille","lat":43.24164,"lon":5.3644,"is_reserved":false,"is_disabled":false,"rental_uris":{"android":"levelo://app?vid=710d97cb-5291-4f9c-8a23-d89c0b627fd7","ios":"levelo://app?vid=710d97cb-5291-4f9c-8a23-d89c0b627fd7"},"vehicle_type_id":"4","last_reported":1749913764,"current_range_meters":16800,"station_id":"cpo36qri1sfpv3e86is0","pricing_plan_id":"cebpf4jnsgd1na2vs0mg"},{"bike_id":"bbf0c2a5-4408-4977-9433-abc948badb61","system_id":"levelo_inurba_marseille","lat":43.2175,"lon":5.34628,"is_reserved":false,"is_disabled":false,"rental_uris":{"android":"levelo://app?vid=bbf0c2a5-4408-4977-9433-abc948badb61","ios":"levelo://app?vid=bbf0c2a5-4408-4977-9433-abc948badb61"},"vehicle_type_id":"4","last_reported":1749913764,"current_range_meters":16800,"station_id":"st_cvj6r9ubvosntc0bgbag","pricing_plan_id":"cebpf4jnsgd1na2vs0mg"},{"bike_id":"0f8315b8-286f-4207-8866-a062323efcab","system_id":"levelo_inurba_marseille","lat":43.28612,"lon":5.35108,"is_reserved":false,"is_disabled":false,"rental_uris":{"android":"levelo://app?vid=0f8315b8-286f-4207-8866-a062323efcab","ios":"levelo://app?vid=0f8315b8-286f-4207-8866-a062323efcab"},"vehicle_type_id":"4","last_reported":1749913764,"current_range_meters":17200,"station_id":"ce4bhch2rcd13ifvqeug","pricing_plan_id":"cebpf4jnsgd1na2vs0mg"},{"bike_id":"6aa5f5a3-a83b-42a6-95a8-1cd96d3da10d","system_id":"levelo_inurba_marseille","lat":43.23152,"lon":5.43713,"is_reserved":false,"is_disabled":false,"rental_uris":{"android":"levelo://app?vid=6aa5f5a3-a83b-42a6-95a8-1cd96d3da10d","ios":"levelo://app?vid=6aa5f5a3-a83b-42a6-95a8-1cd96d3da10d"},"vehicle_type_id":"4","last_reported":1749913764,"current_range_meters":17200,"station_id":"ce4bhmp2rcd13ifvqgog","pricing_plan_id":"cebpf4jnsgd1na2vs0mg"},{"bike_id":"821ffeb7-504e-49a3-aa5e-ded90c45f20e","system_id":"levelo_inurba_marseille","lat":43.304149,"lon":5.412855,"is_reserved":false,"is_disabled":false,"rental_uris":{"android":"levelo://app?vid=821ffeb7-504e-49a3-aa5e-ded90c45f20e","ios":"levelo://app?vid=821ffeb7-504e-49a3-aa5e-ded90c45f20e"},"vehicle_type_id":"4","last_reported":1749913764,"current_range_meters":17200,"station_id":"ce4bhop2rcd13ifvqh8g","pricing_plan_id":"cebpf4jnsgd1na2vs0mg"},{"bike_id":"7e55265f-af08-4274-a924-78b7fea6ed7d","system_id":"levelo_inurba_marseille","lat":43.31702,"lon":5.43721,"is_reserved":false,"is_disabled":false,"rental_uris":{"android":"levelo://app?vid=7e55265f-af08-4274-a924-78b7fea6ed7d","ios":"levelo://app?vid=7e55265f-af08-4274-a924-78b7fea6ed7d"},"vehicle_type_id":"4","last_reported":1749913764,"current_range_meters":17200,"station_id":"ce4bhp92rcd13ifvqhcg","pricing_plan_id":"cebpf4jnsgd1na2vs0mg"},{"bike_id":"a123e9fa-df7d-41fb-b2d5-2e4e345456f9","system_id":"levelo_inurba_marseille","lat":43.25313,"lon":5.37468,"is_reserved":false,"is_disabled":false,"rental_uris":{"android":"levelo://app?vid=a123e9fa-df7d-41fb-b2d5-2e4e345456f9","ios":"levelo://app?vid=a123e9fa-df7d-41fb-b2d5-2e4e345456f9"},"vehicle_type_id":"4","last_reported":1749913764,"current_range_meters":17600,"station_id":"","pricing_plan_id":"cebpf4jnsgd1na2vs0mg"},{"bike_id":"4100bc36-62e1-4580-80d2-2d0094783fa7","system_id":"levelo_inurba_marseille","lat":43.2841,"lon":5.35009,"is_reserved":false,"is_disabled":false,"rental_uris":{"android":"levelo://app?vid=4100bc36-62e1-4580-80d2-2d0094783fa7","ios":"levelo://app?vid=4100bc36-62e1-4580-80d2-2d0094783fa7"},"vehicle_type_id":"4","last_reported":1749913764,"current_range_meters":17600,"station_id":"ce4bhbh2rcd13ifvqepg","pricing_plan_id":"cebpf4jnsgd1na2vs0mg"},{"bike_id":"c15aa31e-926a-4624-a34d-9974c4633759","system_id":"levelo_inurba_marseille","lat":43.276576,"lon":5.388728,"is_reserved":false,"is_disabled":false,"rental_uris":{"android":"levelo://app?vid=c15aa31e-926a-4624-a34d-9974c4633759","ios":"levelo://app?vid=c15aa31e-926a-4624-a34d-9974c4633759"},"vehicle_type_id":"4","last_reported":1749913764,"current_range_meters":17600,"station_id":"ce4bhi12rcd13ifvqfo0","pricing_plan_id":"cebpf4jnsgd1na2vs0mg"},{"bike_id":"a42da83b-0754-4bfa-a338-c87ce1e67fe4","system_id":"levelo_inurba_marseille","lat":43.229296,"lon":5.353789,"is_reserved":false,"is_disabled":false,"rental_uris":{"android":"levelo://app?vid=a42da83b-0754-4bfa-a338-c87ce1e67fe4","ios":"levelo://app?vid=a42da83b-0754-4bfa-a338-c87ce1e67fe4"},"vehicle_type_id":"4","last_reported":1749913764,"current_range_meters":17600,"station_id":"cpo3532slgdg3j2ikp40","pricing_plan_id":"cebpf4jnsgd1na2vs0mg"},{"bike_id":"458a62a4-be6c-44c5-9737-806268c673a0","system_id":"levelo_inurba_marseille","lat":43.21744,"lon":5.34605,"is_reserved":false,"is_disabled":false,"rental_uris":{"android":"levelo://app?vid=458a62a4-be6c-44c5-9737-806268c673a0","ios":"levelo://app?vid=458a62a4-be6c-44c5-9737-806268c673a0"},"vehicle_type_id":"4","last_reported":1749913764,"current_range_meters":17600,"station_id":"st_cvj6r9ubvosntc0bgbag","pricing_plan_id":"cebpf4jnsgd1na2vs0mg"},{"bike_id":"ea366aa2-8455-4657-9981-e60dffaf3ce5","system_id":"levelo_inurba_marseille","lat":43.217432,"lon":5.345997,"is_reserved":false,"is_disabled":false,"rental_uris":{"android":"levelo://app?vid=ea366aa2-8455-4657-9981-e60dffaf3ce5","ios":"levelo://app?vid=ea366aa2-8455-4657-9981-e60dffaf3ce5"},"vehicle_type_id":"4","last_reported":1749913764,"current_range_meters":17600,"station_id":"st_cvj6r9ubvosntc0bgbag","pricing_plan_id":"cebpf4jnsgd1na2vs0mg"},{"bike_id":"335e81a4-1e97-4cdb-b3bc-231c6a43ac9a","system_id":"levelo_inurba_marseille","lat":43.21761,"lon":5.34597,"is_reserved":false,"is_disabled":false,"rental_uris":{"android":"levelo://app?vid=335e81a4-1e97-4cdb-b3bc-231c6a43ac9a","ios":"levelo://app?vid=335e81a4-1e97-4cdb-b3bc-231c6a43ac9a"},"vehicle_type_id":"4","last_reported":1749913764,"current_range_meters":17600,"station_id":"st_cvj6r9ubvosntc0bgbag","pricing_plan_id":"cebpf4jnsgd1na2vs0mg"},{"bike_id":"e5b62466-ff9e-49e2-bd3e-be88bf15cda8","system_id":"levelo_inurba_marseille","lat":43.21189,"lon":5.35063,"is_reserved":false,"is_disabled":false,"rental_uris":{"android":"levelo://app?vid=e5b62466-ff9e-49e2-bd3e-be88bf15cda8","ios":"levelo://app?vid=e5b62466-ff9e-49e2-bd3e-be88bf15cda8"},"vehicle_type_id":"4","last_reported":1749913764,"current_range_meters":17600,"station_id":"st_cvj6sg6p6f1abm77japg","pricing_plan_id":"cebpf4jnsgd1na2vs0mg"},{"bike_id":"bcf8c37a-3b2c-4b4b-a33b-3ca9193b3a10","system_id":"levelo_inurba_marseille","lat":43.26367,"lon":5.37811,"is_reserved":false,"is_disabled":false,"rental_uris":{"android":"levelo://app?vid=bcf8c37a-3b2c-4b4b-a33b-3ca9193b3a10","ios":"levelo://app?vid=bcf8c37a-3b2c-4b4b-a33b-3ca9193b3a10"},"vehicle_type_id":"4","last_reported":1749913764,"current_range_meters":17600,"station_id":"st_d163nis0mtpqnht9uue0","pricing_plan_id":"cebpf4jnsgd1na2vs0mg"},{"bike_id":"3e232180-096e-45c2-8101-145150acb1d5","system_id":"levelo_inurba_marseille","lat":43.21224,"lon":5.35066,"is_reserved":false,"is_disabled":false,"rental_uris":{"android":"levelo://app?vid=3e232180-096e-45c2-8101-145150acb1d5","ios":"levelo://app?vid=3e232180-096e-45c2-8101-145150acb1d5"},"vehicle_type_id":"4","last_reported":1749913764,"current_range_meters":18000,"station_id":"","pricing_plan_id":"cebpf4jnsgd1na2vs0mg"},{"bike_id":"d4b34a25-9d65-4303-a062-172001801d12","system_id":"levelo_inurba_marseille","lat":43.27612,"lon":5.36118,"is_reserved":false,"is_disabled":false,"rental_uris":{"android":"levelo://app?vid=d4b34a25-9d65-4303-a062-172001801d12","ios":"levelo://app?vid=d4b34a25-9d65-4303-a062-172001801d12"},"vehicle_type_id":"4","last_reported":1749913764,"current_range_meters":18000,"station_id":"ce4bgj92rcd13ifvqbe0","pricing_plan_id":"cebpf4jnsgd1na2vs0mg"},{"bike_id":"c6275d06-6245-436b-8caf-84cf31dd6fca","system_id":"levelo_inurba_marseille","lat":43.29971,"lon":5.37174,"is_reserved":false,"is_disabled":false,"rental_uris":{"android":"levelo://app?vid=c6275d06-6245-436b-8caf-84cf31dd6fca","ios":"levelo://app?vid=c6275d06-6245-436b-8caf-84cf31dd6fca"},"vehicle_type_id":"4","last_reported":1749913764,"current_range_meters":18000,"station_id":"ce4bgr92rcd13ifvqc7g","pricing_plan_id":"cebpf4jnsgd1na2vs0mg"},{"bike_id":"c4052fa8-545b-4590-84f8-5ff9395d4d00","system_id":"levelo_inurba_marseille","lat":43.28418,"lon":5.34994,"is_reserved":false,"is_disabled":false,"rental_uris":{"android":"levelo://app?vid=c4052fa8-545b-4590-84f8-5ff9395d4d00","ios":"levelo://app?vid=c4052fa8-545b-4590-84f8-5ff9395d4d00"},"vehicle_type_id":"4","last_reported":1749913764,"current_range_meters":18000,"station_id":"ce4bhbh2rcd13ifvqepg","pricing_plan_id":"cebpf4jnsgd1na2vs0mg"},{"bike_id":"4101138a-9cbb-40b9-a7e7-ed70ed85abc3","system_id":"levelo_inurba_marseille","lat":43.23965,"lon":5.36649,"is_reserved":false,"is_disabled":false,"rental_uris":{"android":"levelo://app?vid=4101138a-9cbb-40b9-a7e7-ed70ed85abc3","ios":"levelo://app?vid=4101138a-9cbb-40b9-a7e7-ed70ed85abc3"},"vehicle_type_id":"4","last_reported":1749913764,"current_range_meters":18000,"station_id":"ce4bhi12rcd13ifvqfp0","pricing_plan_id":"cebpf4jnsgd1na2vs0mg"},{"bike_id":"f148e223-23a1-4eba-9dd8-74998b9e9c6b","system_id":"levelo_inurba_marseille","lat":43.25069,"lon":5.39498,"is_reserved":false,"is_disabled":false,"rental_uris":{"android":"levelo://app?vid=f148e223-23a1-4eba-9dd8-74998b9e9c6b","ios":"levelo://app?vid=f148e223-23a1-4eba-9dd8-74998b9e9c6b"},"vehicle_type_id":"4","last_reported":1749913764,"current_range_meters":18000,"station_id":"ce4bhm12rcd13ifvqgkg","pricing_plan_id":"cebpf4jnsgd1na2vs0mg"},{"bike_id":"18fbe5cd-487f-4a45-8922-4c1074ba2a14","system_id":"levelo_inurba_marseille","lat":43.23148,"lon":5.43722,"is_reserved":false,"is_disabled":false,"rental_uris":{"android":"levelo://app?vid=18fbe5cd-487f-4a45-8922-4c1074ba2a14","ios":"levelo://app?vid=18fbe5cd-487f-4a45-8922-4c1074ba2a14"},"vehicle_type_id":"4","last_reported":1749913764,"current_range_meters":18000,"station_id":"ce4bhmp2rcd13ifvqgog","pricing_plan_id":"cebpf4jnsgd1na2vs0mg"},{"bike_id":"5c41052f-6f6b-4710-8e6b-ab38c27267cf","system_id":"levelo_inurba_marseille","lat":43.217446,"lon":5.345975,"is_reserved":false,"is_disabled":false,"rental_uris":{"android":"levelo://app?vid=5c41052f-6f6b-4710-8e6b-ab38c27267cf","ios":"levelo://app?vid=5c41052f-6f6b-4710-8e6b-ab38c27267cf"},"vehicle_type_id":"4","last_reported":1749913764,"current_range_meters":18000,"station_id":"st_cvj6r9ubvosntc0bgbag","pricing_plan_id":"cebpf4jnsgd1na2vs0mg"},{"bike_id":"91497fb1-205c-4a38-868c-2f529d1a091a","system_id":"levelo_inurba_marseille","lat":43.21753,"lon":5.34584,"is_reserved":false,"is_disabled":false,"rental_uris":{"android":"levelo://app?vid=91497fb1-205c-4a38-868c-2f529d1a091a","ios":"levelo://app?vid=91497fb1-205c-4a38-868c-2f529d1a091a"},"vehicle_type_id":"4","last_reported":1749913764,"current_range_meters":18000,"station_id":"st_cvj6r9ubvosntc0bgbag","pricing_plan_id":"cebpf4jnsgd1na2vs0mg"},{"bike_id":"f0dbbf2f-9804-46da-b153-a9d75593d09c","system_id":"levelo_inurba_marseille","lat":43.28417,"lon":5.34988,"is_reserved":false,"is_disabled":false,"rental_uris":{"android":"levelo://app?vid=f0dbbf2f-9804-46da-b153-a9d75593d09c","ios":"levelo://app?vid=f0dbbf2f-9804-46da-b153-a9d75593d09c"},"vehicle_type_id":"4","last_reported":1749913764,"current_range_meters":18800,"station_id":"ce4bhbh2rcd13ifvqepg","pricing_plan_id":"cebpf4jnsgd1na2vs0mg"},{"bike_id":"16b7ee1f-6553-4f48-b5c4-b062f10b3191","system_id":"levelo_inurba_marseille","lat":43.2841,"lon":5.34994,"is_reserved":false,"is_disabled":false,"rental_uris":{"android":"levelo://app?vid=16b7ee1f-6553-4f48-b5c4-b062f10b3191","ios":"levelo://app?vid=16b7ee1f-6553-4f48-b5c4-b062f10b3191"},"vehicle_type_id":"4","last_reported":1749913764,"current_range_meters":18800,"station_id":"ce4bhbh2rcd13ifvqepg","pricing_plan_id":"cebpf4jnsgd1na2vs0mg"},{"bike_id":"0b214f94-475b-4c56-b001-15dc0687c937","system_id":"levelo_inurba_marseille","lat":43.28256,"lon":5.35066,"is_reserved":false,"is_disabled":false,"rental_uris":{"android":"levelo://app?vid=0b214f94-475b-4c56-b001-15dc0687c937","ios":"levelo://app?vid=0b214f94-475b-4c56-b001-15dc0687c937"},"vehicle_type_id":"4","last_reported":1749913764,"current_range_meters":18800,"station_id":"ce4bhbp2rcd13ifvqerg","pricing_plan_id":"cebpf4jnsgd1na2vs0mg"},{"bike_id":"69d42e66-c04e-42c9-9afa-f11756a94971","system_id":"levelo_inurba_marseille","lat":43.27914,"lon":5.39575,"is_reserved":false,"is_disabled":false,"rental_uris":{"android":"levelo://app?vid=69d42e66-c04e-42c9-9afa-f11756a94971","ios":"levelo://app?vid=69d42e66-c04e-42c9-9afa-f11756a94971"},"vehicle_type_id":"4","last_reported":1749913764,"current_range_meters":18800,"station_id":"ce4bhf92rcd13ifvqf40","pricing_plan_id":"cebpf4jnsgd1na2vs0mg"},{"bike_id":"af54e57f-f161-4317-9bd4-1d43f8702955","system_id":"levelo_inurba_marseille","lat":43.23196,"lon":5.35557,"is_reserved":false,"is_disabled":false,"rental_uris":{"android":"levelo://app?vid=af54e57f-f161-4317-9bd4-1d43f8702955","ios":"levelo://app?vid=af54e57f-f161-4317-9bd4-1d43f8702955"},"vehicle_type_id":"4","last_reported":1749913764,"current_range_meters":18800,"station_id":"ce4bhu92rcd13ifvqi70","pricing_plan_id":"cebpf4jnsgd1na2vs0mg"},{"bike_id":"32160a74-c45b-4473-9051-2134a31ebbef","system_id":"levelo_inurba_marseille","lat":43.29264,"lon":5.38443,"is_reserved":false,"is_disabled":false,"rental_uris":{"android":"levelo://app?vid=32160a74-c45b-4473-9051-2134a31ebbef","ios":"levelo://app?vid=32160a74-c45b-4473-9051-2134a31ebbef"},"vehicle_type_id":"4","last_reported":1749913764,"current_range_meters":19200,"station_id":"ce4bh692rcd13ifvqea0","pricing_plan_id":"cebpf4jnsgd1na2vs0mg"},{"bike_id":"88efbbfe-e57f-4d74-b231-ad9df4e23129","system_id":"levelo_inurba_marseille","lat":43.28615,"lon":5.3511,"is_reserved":false,"is_disabled":false,"rental_uris":{"android":"levelo://app?vid=88efbbfe-e57f-4d74-b231-ad9df4e23129","ios":"levelo://app?vid=88efbbfe-e57f-4d74-b231-ad9df4e23129"},"vehicle_type_id":"4","last_reported":1749913764,"current_range_meters":19200,"station_id":"ce4bhch2rcd13ifvqeug","pricing_plan_id":"cebpf4jnsgd1na2vs0mg"},{"bike_id":"b59e873c-f2a3-434c-b699-80fd6fd5dbae","system_id":"levelo_inurba_marseille","lat":43.24069,"lon":5.3776,"is_reserved":false,"is_disabled":false,"rental_uris":{"android":"levelo://app?vid=b59e873c-f2a3-434c-b699-80fd6fd5dbae","ios":"levelo://app?vid=b59e873c-f2a3-434c-b699-80fd6fd5dbae"},"vehicle_type_id":"4","last_reported":1749913764,"current_range_meters":19200,"station_id":"ce4bhnp2rcd13ifvqgvg","pricing_plan_id":"cebpf4jnsgd1na2vs0mg"},{"bike_id":"145185f8-2bd4-42d8-83d4-c37b0c4b8e4e","system_id":"levelo_inurba_marseille","lat":43.22925,"lon":5.35391,"is_reserved":false,"is_disabled":false,"rental_uris":{"android":"levelo://app?vid=145185f8-2bd4-42d8-83d4-c37b0c4b8e4e","ios":"levelo://app?vid=145185f8-2bd4-42d8-83d4-c37b0c4b8e4e"},"vehicle_type_id":"4","last_reported":1749913764,"current_range_meters":19200,"station_id":"cpo3532slgdg3j2ikp40","pricing_plan_id":"cebpf4jnsgd1na2vs0mg"},{"bike_id":"0370f489-9334-4872-9c8f-5b62491fe372","system_id":"levelo_inurba_marseille","lat":43.25512,"lon":5.37653,"is_reserved":false,"is_disabled":false,"rental_uris":{"android":"levelo://app?vid=0370f489-9334-4872-9c8f-5b62491fe372","ios":"levelo://app?vid=0370f489-9334-4872-9c8f-5b62491fe372"},"vehicle_type_id":"4","last_reported":1749913764,"current_range_meters":19600,"station_id":"ce4bhh12rcd13ifvqff0","pricing_plan_id":"cebpf4jnsgd1na2vs0mg"},{"bike_id":"3756175f-8acc-4440-9626-971b3f103339","system_id":"levelo_inurba_marseille","lat":43.24154,"lon":5.39732,"is_reserved":false,"is_disabled":false,"rental_uris":{"android":"levelo://app?vid=3756175f-8acc-4440-9626-971b3f103339","ios":"levelo://app?vid=3756175f-8acc-4440-9626-971b3f103339"},"vehicle_type_id":"4","last_reported":1749913764,"current_range_meters":19600,"station_id":"ce4bhn12rcd13ifvqgpg","pricing_plan_id":"cebpf4jnsgd1na2vs0mg"},{"bike_id":"490b7a49-7d58-4595-a928-35ceabd36dff","system_id":"levelo_inurba_marseille","lat":43.24052,"lon":5.37764,"is_reserved":false,"is_disabled":false,"rental_uris":{"android":"levelo://app?vid=490b7a49-7d58-4595-a928-35ceabd36dff","ios":"levelo://app?vid=490b7a49-7d58-4595-a928-35ceabd36dff"},"vehicle_type_id":"4","last_reported":1749913764,"current_range_meters":19600,"station_id":"ce4bhnp2rcd13ifvqgvg","pricing_plan_id":"cebpf4jnsgd1na2vs0mg"},{"bike_id":"cb8d45f0-5a4c-4224-9741-d142db035893","system_id":"levelo_inurba_marseille","lat":43.31711,"lon":5.43706,"is_reserved":false,"is_disabled":false,"rental_uris":{"android":"levelo://app?vid=cb8d45f0-5a4c-4224-9741-d142db035893","ios":"levelo://app?vid=cb8d45f0-5a4c-4224-9741-d142db035893"},"vehicle_type_id":"4","last_reported":1749913764,"current_range_meters":19600,"station_id":"ce4bhp92rcd13ifvqhcg","pricing_plan_id":"cebpf4jnsgd1na2vs0mg"},{"bike_id":"e978c0c4-eb89-40cb-b405-52125ad393ae","system_id":"levelo_inurba_marseille","lat":43.219484,"lon":5.34533,"is_reserved":false,"is_disabled":false,"rental_uris":{"android":"levelo://app?vid=e978c0c4-eb89-40cb-b405-52125ad393ae","ios":"levelo://app?vid=e978c0c4-eb89-40cb-b405-52125ad393ae"},"vehicle_type_id":"4","last_reported":1749913764,"current_range_meters":19600,"station_id":"cpo3342slgdg3j2ifvpg","pricing_plan_id":"cebpf4jnsgd1na2vs0mg"},{"bike_id":"67d4735d-a812-4e55-90bc-5641f4e35931","system_id":"levelo_inurba_marseille","lat":43.21178,"lon":5.35066,"is_reserved":false,"is_disabled":false,"rental_uris":{"android":"levelo://app?vid=67d4735d-a812-4e55-90bc-5641f4e35931","ios":"levelo://app?vid=67d4735d-a812-4e55-90bc-5641f4e35931"},"vehicle_type_id":"4","last_reported":1749913764,"current_range_meters":19600,"station_id":"st_cvj6sg6p6f1abm77japg","pricing_plan_id":"cebpf4jnsgd1na2vs0mg"},{"bike_id":"826f0ca3-e5fc-4cf8-8696-cb1fe62172b3","system_id":"levelo_inurba_marseille","lat":43.21193,"lon":5.35076,"is_reserved":false,"is_disabled":false,"rental_uris":{"android":"levelo://app?vid=826f0ca3-e5fc-4cf8-8696-cb1fe62172b3","ios":"levelo://app?vid=826f0ca3-e5fc-4cf8-8696-cb1fe62172b3"},"vehicle_type_id":"4","last_reported":1749913764,"current_range_meters":20000,"station_id":"","pricing_plan_id":"cebpf4jnsgd1na2vs0mg"},{"bike_id":"f3bd53e8-3c36-40a9-8a7c-74e46ba3f5b8","system_id":"levelo_inurba_marseille","lat":43.282826,"lon":5.350718,"is_reserved":false,"is_disabled":false,"rental_uris":{"android":"levelo://app?vid=f3bd53e8-3c36-40a9-8a7c-74e46ba3f5b8","ios":"levelo://app?vid=f3bd53e8-3c36-40a9-8a7c-74e46ba3f5b8"},"vehicle_type_id":"4","last_reported":1749913764,"current_range_meters":20000,"station_id":"ce4bhbp2rcd13ifvqerg","pricing_plan_id":"cebpf4jnsgd1na2vs0mg"},{"bike_id":"2eada1e3-537e-48d7-9731-1a98403598f1","system_id":"levelo_inurba_marseille","lat":43.2861,"lon":5.3512,"is_reserved":false,"is_disabled":false,"rental_uris":{"android":"levelo://app?vid=2eada1e3-537e-48d7-9731-1a98403598f1","ios":"levelo://app?vid=2eada1e3-537e-48d7-9731-1a98403598f1"},"vehicle_type_id":"4","last_reported":1749913764,"current_range_meters":20000,"station_id":"ce4bhch2rcd13ifvqeug","pricing_plan_id":"cebpf4jnsgd1na2vs0mg"},{"bike_id":"078538e5-911d-4dd0-86e7-bd82a86dade3","system_id":"levelo_inurba_marseille","lat":43.2174,"lon":5.34596,"is_reserved":false,"is_disabled":false,"rental_uris":{"android":"levelo://app?vid=078538e5-911d-4dd0-86e7-bd82a86dade3","ios":"levelo://app?vid=078538e5-911d-4dd0-86e7-bd82a86dade3"},"vehicle_type_id":"4","last_reported":1749913764,"current_range_meters":20000,"station_id":"st_cvj6r9ubvosntc0bgbag","pricing_plan_id":"cebpf4jnsgd1na2vs0mg"},{"bike_id":"4fbc9533-6bce-4168-bea8-6220ba5830e7","system_id":"levelo_inurba_marseille","lat":43.30204,"lon":5.39471,"is_reserved":false,"is_disabled":false,"rental_uris":{"android":"levelo://app?vid=4fbc9533-6bce-4168-bea8-6220ba5830e7","ios":"levelo://app?vid=4fbc9533-6bce-4168-bea8-6220ba5830e7"},"vehicle_type_id":"4","last_reported":1749913764,"current_range_meters":20400,"station_id":"ce4bh0p2rcd13ifvqd70","pricing_plan_id":"cebpf4jnsgd1na2vs0mg"},{"bike_id":"8929f357-990f-408f-bff2-bb15ce23f261","system_id":"levelo_inurba_marseille","lat":43.29528,"lon":5.39027,"is_reserved":false,"is_disabled":false,"rental_uris":{"android":"levelo://app?vid=8929f357-990f-408f-bff2-bb15ce23f261","ios":"levelo://app?vid=8929f357-990f-408f-bff2-bb15ce23f261"},"vehicle_type_id":"4","last_reported":1749913764,"current_range_meters":20400,"station_id":"ce4bh3p2rcd13ifvqdp0","pricing_plan_id":"cebpf4jnsgd1na2vs0mg"},{"bike_id":"50c3f433-c6b9-4229-9187-f12f1a5fb154","system_id":"levelo_inurba_marseille","lat":43.28412,"lon":5.34999,"is_reserved":false,"is_disabled":false,"rental_uris":{"android":"levelo://app?vid=50c3f433-c6b9-4229-9187-f12f1a5fb154","ios":"levelo://app?vid=50c3f433-c6b9-4229-9187-f12f1a5fb154"},"vehicle_type_id":"4","last_reported":1749913764,"current_range_meters":20400,"station_id":"ce4bhbh2rcd13ifvqepg","pricing_plan_id":"cebpf4jnsgd1na2vs0mg"},{"bike_id":"7080591f-26a5-480b-a32d-ef6941ff4529","system_id":"levelo_inurba_marseille","lat":43.24078,"lon":5.37752,"is_reserved":false,"is_disabled":false,"rental_uris":{"android":"levelo://app?vid=7080591f-26a5-480b-a32d-ef6941ff4529","ios":"levelo://app?vid=7080591f-26a5-480b-a32d-ef6941ff4529"},"vehicle_type_id":"4","last_reported":1749913764,"current_range_meters":20400,"station_id":"ce4bhnp2rcd13ifvqgvg","pricing_plan_id":"cebpf4jnsgd1na2vs0mg"},{"bike_id":"6a4c2f86-936a-4efe-a858-369cf7104e73","system_id":"levelo_inurba_marseille","lat":43.2319,"lon":5.35547,"is_reserved":false,"is_disabled":false,"rental_uris":{"android":"levelo://app?vid=6a4c2f86-936a-4efe-a858-369cf7104e73","ios":"levelo://app?vid=6a4c2f86-936a-4efe-a858-369cf7104e73"},"vehicle_type_id":"4","last_reported":1749913764,"current_range_meters":20400,"station_id":"ce4bhu92rcd13ifvqi70","pricing_plan_id":"cebpf4jnsgd1na2vs0mg"},{"bike_id":"4e532e24-ef82-4681-84dd-42f55b3ef32e","system_id":"levelo_inurba_marseille","lat":43.22937,"lon":5.35389,"is_reserved":false,"is_disabled":false,"rental_uris":{"android":"levelo://app?vid=4e532e24-ef82-4681-84dd-42f55b3ef32e","ios":"levelo://app?vid=4e532e24-ef82-4681-84dd-42f55b3ef32e"},"vehicle_type_id":"4","last_reported":1749913764,"current_range_meters":20400,"station_id":"cpo3532slgdg3j2ikp40","pricing_plan_id":"cebpf4jnsgd1na2vs0mg"},{"bike_id":"123f7f76-cc72-4c51-91a7-26f1b0bee827","system_id":"levelo_inurba_marseille","lat":43.2177,"lon":5.34595,"is_reserved":false,"is_disabled":false,"rental_uris":{"android":"levelo://app?vid=123f7f76-cc72-4c51-91a7-26f1b0bee827","ios":"levelo://app?vid=123f7f76-cc72-4c51-91a7-26f1b0bee827"},"vehicle_type_id":"4","last_reported":1749913764,"current_range_meters":20400,"station_id":"st_cvj6r9ubvosntc0bgbag","pricing_plan_id":"cebpf4jnsgd1na2vs0mg"},{"bike_id":"f4960cb7-92f3-48e4-a1cc-a2b8a605a4b3","system_id":"levelo_inurba_marseille","lat":43.33778,"lon":5.37423,"is_reserved":false,"is_disabled":false,"rental_uris":{"android":"levelo://app?vid=f4960cb7-92f3-48e4-a1cc-a2b8a605a4b3","ios":"levelo://app?vid=f4960cb7-92f3-48e4-a1cc-a2b8a605a4b3"},"vehicle_type_id":"4","last_reported":1749913764,"current_range_meters":20800,"station_id":"","pricing_plan_id":"cebpf4jnsgd1na2vs0mg"},{"bike_id":"38e08ec6-738b-4a04-a092-dec10c6891d3","system_id":"levelo_inurba_marseille","lat":43.26883,"lon":5.40668,"is_reserved":false,"is_disabled":false,"rental_uris":{"android":"levelo://app?vid=38e08ec6-738b-4a04-a092-dec10c6891d3","ios":"levelo://app?vid=38e08ec6-738b-4a04-a092-dec10c6891d3"},"vehicle_type_id":"4","last_reported":1749913764,"current_range_meters":20800,"station_id":"","pricing_plan_id":"cebpf4jnsgd1na2vs0mg"},{"bike_id":"2e2d1072-b250-4977-a9f7-23cf7a72259a","system_id":"levelo_inurba_marseille","lat":43.29571,"lon":5.39971,"is_reserved":false,"is_disabled":false,"rental_uris":{"android":"levelo://app?vid=2e2d1072-b250-4977-a9f7-23cf7a72259a","ios":"levelo://app?vid=2e2d1072-b250-4977-a9f7-23cf7a72259a"},"vehicle_type_id":"4","last_reported":1749913764,"current_range_meters":20800,"station_id":"ce4bh312rcd13ifvqdj0","pricing_plan_id":"cebpf4jnsgd1na2vs0mg"},{"bike_id":"c0512557-9347-4198-b579-d4df5183dde3","system_id":"levelo_inurba_marseille","lat":43.29552,"lon":5.42279,"is_reserved":false,"is_disabled":false,"rental_uris":{"android":"levelo://app?vid=c0512557-9347-4198-b579-d4df5183dde3","ios":"levelo://app?vid=c0512557-9347-4198-b579-d4df5183dde3"},"vehicle_type_id":"4","last_reported":1749913764,"current_range_meters":20800,"station_id":"ce4bhph2rcd13ifvqhdg","pricing_plan_id":"cebpf4jnsgd1na2vs0mg"},{"bike_id":"de9c1dc5-88ad-4334-8d5c-2f7c6c2ae1d9","system_id":"levelo_inurba_marseille","lat":43.22955,"lon":5.35353,"is_reserved":false,"is_disabled":false,"rental_uris":{"android":"levelo://app?vid=de9c1dc5-88ad-4334-8d5c-2f7c6c2ae1d9","ios":"levelo://app?vid=de9c1dc5-88ad-4334-8d5c-2f7c6c2ae1d9"},"vehicle_type_id":"4","last_reported":1749913764,"current_range_meters":20800,"station_id":"cpo3532slgdg3j2ikp40","pricing_plan_id":"cebpf4jnsgd1na2vs0mg"},{"bike_id":"5a0a0867-9160-4177-9490-f832278ebfe7","system_id":"levelo_inurba_marseille","lat":43.217528,"lon":5.346036,"is_reserved":false,"is_disabled":false,"rental_uris":{"android":"levelo://app?vid=5a0a0867-9160-4177-9490-f832278ebfe7","ios":"levelo://app?vid=5a0a0867-9160-4177-9490-f832278ebfe7"},"vehicle_type_id":"4","last_reported":1749913764,"current_range_meters":20800,"station_id":"st_cvj6r9ubvosntc0bgbag","pricing_plan_id":"cebpf4jnsgd1na2vs0mg"},{"bike_id":"12bcd749-86d8-4ba7-b5ba-3ce929380172","system_id":"levelo_inurba_marseille","lat":43.28272,"lon":5.35066,"is_reserved":false,"is_disabled":false,"rental_uris":{"android":"levelo://app?vid=12bcd749-86d8-4ba7-b5ba-3ce929380172","ios":"levelo://app?vid=12bcd749-86d8-4ba7-b5ba-3ce929380172"},"vehicle_type_id":"4","last_reported":1749913764,"current_range_meters":21600,"station_id":"","pricing_plan_id":"cebpf4jnsgd1na2vs0mg"},{"bike_id":"eab39d7e-a053-4bdc-9d4c-b6d10b28339b","system_id":"levelo_inurba_marseille","lat":43.28407,"lon":5.35003,"is_reserved":false,"is_disabled":false,"rental_uris":{"android":"levelo://app?vid=eab39d7e-a053-4bdc-9d4c-b6d10b28339b","ios":"levelo://app?vid=eab39d7e-a053-4bdc-9d4c-b6d10b28339b"},"vehicle_type_id":"4","last_reported":1749913764,"current_range_meters":21600,"station_id":"ce4bhbh2rcd13ifvqepg","pricing_plan_id":"cebpf4jnsgd1na2vs0mg"},{"bike_id":"9aff6057-0c1b-4439-af25-63e41ab688f2","system_id":"levelo_inurba_marseille","lat":43.28407,"lon":5.35002,"is_reserved":false,"is_disabled":false,"rental_uris":{"android":"levelo://app?vid=9aff6057-0c1b-4439-af25-63e41ab688f2","ios":"levelo://app?vid=9aff6057-0c1b-4439-af25-63e41ab688f2"},"vehicle_type_id":"4","last_reported":1749913764,"current_range_meters":21600,"station_id":"ce4bhbh2rcd13ifvqepg","pricing_plan_id":"cebpf4jnsgd1na2vs0mg"},