{"last_updated":1707062841,"ttl":30,"version":"2.2","data":{"bikes":[{"bike_id":"43da0160-47d0-4ce7-b3ba-44cfe1a07eda","system_id":"levelo_inurba_marseille","lat":43.312239,"lon":5.368562,"is_reserved":false,"is_disabled":false,"rental_uris":{"android":"levelo://app?vid=43da0160-47d0-4ce7-b3ba-44cfe1a07eda","ios":"levelo://app?vid=43da0160-47d0-4ce7-b3ba-44cfe1a07eda"},"vehicle_type_id":"4","last_reported":1707062841,"current_range_meters":3600,"station_id":"ce4bgl92rcd13ifvqbq0","pricing_plan_id":"free"},{"bike_id":"f0e3f4a6-98f2-45cc-b4d3-d687f550f02c","system_id":"levelo_inurba_marseille","lat":43.314811,"lon":5.373104,"is_reserved":false,"is_disabled":false,"rental_uris":{"android":"levelo://app?vid=f0e3f4a6-98f2-45cc-b4d3-d687f550f02c","ios":"levelo://app?vid=f0e3f4a6-98f2-45cc-b4d3-d687f550f02c"},"vehicle_type_id":"4","last_reported":1707062841,"current_range_meters":32000,"station_id":"ce4bgt12rcd13ifvqcd0","pricing_plan_id":"free"},{"bike_id":"fb5ac4c2-b2b1-4a2f-a025-61c13e66d55d","system_id":"levelo_inurba_marseille","lat":43.314811,"lon":5.373104,"is_reserved":false,"is_disabled":false,"rental_uris":{"android":"levelo://app?vid=fb5ac4c2-b2b1-4a2f-a025-61c13e66d55d","ios":"levelo://app?vid=fb5ac4c2-b2b1-4a2f-a025-61c13e66d55d"},"vehicle_type_id":"4","last_reported":1707062841,"current_range_meters":13600,"station_id":"ce4bgt12rcd13ifvqcd0","pricing_plan_id":"free"},{"bike_id":"6ecd07a2-ee5e-47c4-93be-a7d99db601d7","system_id":"levelo_inurba_marseille","lat":43.31496,"lon":5.37306,"is_reserved":false,"is_disabled":false,"rental_uris":{"android":"levelo://app?vid=6ecd07a2-ee5e-47c4-93be-a7d99db601d7","ios":"levelo://app?vid=6ecd07a2-ee5e-47c4-93be-a7d99db601d7"},"vehicle_type_id":"4","last_reported":1707062841,"current_range_meters":0,"station_id":"ce4bgt12rcd13ifvqcd0","pricing_plan_id":"free"},{"bike_id":"82634a15-58d6-490e-9ad8-4261dbaa00cb","system_id":"levelo_inurba_marseille","lat":43.308859,"lon":5.371934,"is_reserved":false,"is_disabled":false,"rental_uris":{"android":"levelo://app?vid=82634a15-58d6-490e-9ad8-4261dbaa00cb","ios":"levelo://app?vid=82634a15-58d6-490e-9ad8-4261dbaa00cb"},"vehicle_type_id":"4","last_reported":1707062841,"current_range_meters":0,"station_id":"ce4bguh2rcd13ifvqckg","pricing_plan_id":"free"},{"bike_id":"601a533b-a9d9-4c41-b1f7-ff48ee97137f","system_id":"levelo_inurba_marseille","lat":43.305712,"lon":5.365641,"is_reserved":false,"is_disabled":false,"rental_uris":{"android":"levelo://app?vid=601a533b-a9d9-4c41-b1f7-ff48ee97137f","ios":"levelo://app?vid=601a533b-a9d9-4c41-b1f7-ff48ee97137f"},"vehicle_type_id":"4","last_reported":1707062841,"current_range_meters":14800,"station_id":"ce4bgs12rcd13ifvqcag","pricing_plan_id":"free"},{"bike_id":"3f43db67-6490-4a86-9641-c92bc9db9c75","system_id":"levelo_inurba_marseille","lat":43.305712,"lon":5.365641,"is_reserved":false,"is_disabled":false,"rental_uris":{"android":"levelo://app?vid=3f43db67-6490-4a86-9641-c92bc9db9c75","ios":"levelo://app?vid=3f43db67-6490-4a86-9641-c92bc9db9c75"},"vehicle_type_id":"4","last_reported":1707062841,"current_range_meters":24000,"station_id":"ce4bgs12rcd13ifvqcag","pricing_plan_id":"free"},{"bike_id":"bcbc26be-28ec-4fde-b38b-e684c864a023","system_id":"levelo_inurba_marseille","lat":43.305706,"lon":5.365654,"is_reserved":false,"is_disabled":false,"rental_uris":{"android":"levelo://app?vid=bcbc26be-28ec-4fde-b38b-e684c864a023","ios":"levelo://app?vid=bcbc26be-28ec-4fde-b38b-e684c864a023"},"vehicle_type_id":"4","last_reported":1707062841,"current_range_meters":13200,"station_id":"ce4bgs12rcd13ifvqcag","pricing_plan_id":"free"},{"bike_id":"5b5343fc-de15-4bd7-98cc-6fc57703cd2e","system_id":"levelo_inurba_marseille","lat":43.311131,"lon":5.377651,"is_reserved":false,"is_disabled":false,"rental_uris":{"android":"levelo://app?vid=5b5343fc-de15-4bd7-98cc-6fc57703cd2e","ios":"levelo://app?vid=5b5343fc-de15-4bd7-98cc-6fc57703cd2e"},"vehicle_type_id":"4","last_reported":1707062841,"current_range_meters":18800,"station_id":"ce4bgt92rcd13ifvqcg0","pricing_plan_id":"free"},{"bike_id":"7e40ad6a-998c-40ac-a40e-29b6b432ae70","system_id":"levelo_inurba_marseille","lat":43.311131,"lon":5.377651,"is_reserved":false,"is_disabled":false,"rental_uris":{"android":"levelo://app?vid=7e40ad6a-998c-40ac-a40e-29b6b432ae70","ios":"levelo://app?vid=7e40ad6a-998c-40ac-a40e-29b6b432ae70"},"vehicle_type_id":"4","last_reported":1707062841,"current_range_meters":0,"station_id":"ce4bgt92rcd13ifvqcg0","pricing_plan_id":"free"},{"bike_id":"a9af375d-1650-45ed-98b6-739c2474b077","system_id":"levelo_inurba_marseille","lat":43.311131,"lon":5.377651,"is_reserved":false,"is_disabled":false,"rental_uris":{"android":"levelo://app?vid=a9af375d-1650-45ed-98b6-739c2474b077","ios":"levelo://app?vid=a9af375d-1650-45ed-98b6-739c2474b077"},"vehicle_type_id":"4","last_reported":1707062841,"current_range_meters":2400,"station_id":"ce4bgt92rcd13ifvqcg0","pricing_plan_id":"free"},{"bike_id":"c60e7252-bcc2-4201-a624-aec62d3d6b5d","system_id":"levelo_inurba_marseille","lat":43.316473,"lon":5.376847,"is_reserved":false,"is_disabled":false,"rental_uris":{"android":"levelo://app?vid=c60e7252-bcc2-4201-a624-aec62d3d6b5d","ios":"levelo://app?vid=c60e7252-bcc2-4201-a624-aec62d3d6b5d"},"vehicle_type_id":"4","last_reported":1707062841,"current_range_meters":1200,"station_id":"","pricing_plan_id":"free"},{"bike_id":"a961374a-8bc8-4000-8633-dc5b64508bda","system_id":"levelo_inurba_marseille","lat":43.307945,"lon":5.376487,"is_reserved":false,"is_disabled":false,"rental_uris":{"android":"levelo://app?vid=a961374a-8bc8-4000-8633-dc5b64508bda","ios":"levelo://app?vid=a961374a-8bc8-4000-8633-dc5b64508bda"},"vehicle_type_id":"4","last_reported":1707062841,"current_range_meters":2000,"station_id":"ce4bgv92rcd13ifvqcq0","pricing_plan_id":"free"},{"bike_id":"11f1e3bc-bd56-4329-b37b-fdbe6c78275c","system_id":"levelo_inurba_marseille","lat":43.30305,"lon":5.36879,"is_reserved":false,"is_disabled":false,"rental_uris":{"android":"levelo://app?vid=11f1e3bc-bd56-4329-b37b-fdbe6c78275c","ios":"levelo://app?vid=11f1e3bc-bd56-4329-b37b-fdbe6c78275c"},"vehicle_type_id":"4","last_reported":1707062841,"current_range_meters":0,"station_id":"ce4bgqh2rcd13ifvqc5g","pricing_plan_id":"free"},{"bike_id":"e3313d77-1b33-4d26-b80b-702a66b59bd5","system_id":"levelo_inurba_marseille","lat":43.301939,"lon":5.366286,"is_reserved":false,"is_disabled":false,"rental_uris":{"android":"levelo://app?vid=e3313d77-1b33-4d26-b80b-702a66b59bd5","ios":"levelo://app?vid=e3313d77-1b33-4d26-b80b-702a66b59bd5"},"vehicle_type_id":"4","last_reported":1707062841,"current_range_meters":20800,"station_id":"ce4bgrh2rcd13ifvqc8g","pricing_plan_id":"free"},{"bike_id":"8d413466-9bc7-461a-9510-0f9fc336a503","system_id":"levelo_inurba_marseille","lat":43.324771,"lon":5.36557,"is_reserved":false,"is_disabled":false,"rental_uris":{"android":"levelo://app?vid=8d413466-9bc7-461a-9510-0f9fc336a503","ios":"levelo://app?vid=8d413466-9bc7-461a-9510-0f9fc336a503"},"vehicle_type_id":"4","last_reported":1707062841,"current_range_meters":15600,"station_id":"ce4bhs12rcd13ifvqhvg","pricing_plan_id":"free"},{"bike_id":"a8a807a0-b8bc-4603-b416-44912ead9476","system_id":"levelo_inurba_marseille","lat":43.304606,"lon":5.379026,"is_reserved":false,"is_disabled":false,"rental_uris":{"android":"levelo://app?vid=a8a807a0-b8bc-4603-b416-44912ead9476","ios":"levelo://app?vid=a8a807a0-b8bc-4603-b416-44912ead9476"},"vehicle_type_id":"4","last_reported":1707062841,"current_range_meters":30400,"station_id":"ce4bgup2rcd13ifvqcn0","pricing_plan_id":"free"},{"bike_id":"b661c50a-4b13-4434-bd68-9d24ec73a59f","system_id":"levelo_inurba_marseille","lat":43.304606,"lon":5.379026,"is_reserved":false,"is_disabled":false,"rental_uris":{"android":"levelo://app?vid=b661c50a-4b13-4434-bd68-9d24ec73a59f","ios":"levelo://app?vid=b661c50a-4b13-4434-bd68-9d24ec73a59f"},"vehicle_type_id":"4","last_reported":1707062841,"current_range_meters":6400,"station_id":"ce4bgup2rcd13ifvqcn0","pricing_plan_id":"free"},{"bike_id":"35d5723d-2dc2-4539-8513-a0edb6e1c6b7","system_id":"levelo_inurba_marseille","lat":43.324771,"lon":5.36557,"is_reserved":false,"is_disabled":false,"rental_uris":{"android":"levelo://app?vid=35d5723d-2dc2-4539-8513-a0edb6e1c6b7","ios":"levelo://app?vid=35d5723d-2dc2-4539-8513-a0edb6e1c6b7"},"vehicle_type_id":"4","last_reported":1707062841,"current_range_meters":4400,"station_id":"ce4bhs12rcd13ifvqhvg","pricing_plan_id":"free"},{"bike_id":"bc974708-dcbd-4a8a-ac0d-164e8d7c65dc","system_id":"levelo_inurba_marseille","lat":43.324771,"lon":5.36557,"is_reserved":false,"is_disabled":false,"rental_uris":{"android":"levelo://app?vid=bc974708-dcbd-4a8a-ac0d-164e8d7c65dc","ios":"levelo://app?vid=bc974708-dcbd-4a8a-ac0d-164e8d7c65dc"},"vehicle_type_id":"4","last_reported":1707062841,"current_range_meters":21600,"station_id":"ce4bhs12rcd13ifvqhvg","pricing_plan_id":"free"},{"bike_id":"f503dba6-1fce-4c49-92fa-530d29edde5b","system_id":"levelo_inurba_marseille","lat":43.301429,"lon":5.37413,"is_reserved":false,"is_disabled":false,"rental_uris":{"android":"levelo://app?vid=f503dba6-1fce-4c49-92fa-530d29edde5b","ios":"levelo://app?vid=f503dba6-1fce-4c49-92fa-530d29edde5b"},"vehicle_type_id":"4","last_reported":1707062841,"current_range_meters":20800,"station_id":"ce4bgs92rcd13ifvqcc0","pricing_plan_id":"free"},{"bike_id":"914e5205-02f2-4daf-ac48-212693f8854a","system_id":"levelo_inurba_marseille","lat":43.30135,"lon":5.37423,"is_reserved":false,"is_disabled":false,"rental_uris":{"android":"levelo://app?vid=914e5205-02f2-4daf-ac48-212693f8854a","ios":"levelo://app?vid=914e5205-02f2-4daf-ac48-212693f8854a"},"vehicle_type_id":"4","last_reported":1707062841,"current_range_meters":20000,"station_id":"ce4bgs92rcd13ifvqcc0","pricing_plan_id":"free"},{"bike_id":"8c72d926-3cc7-471a-a232-91c210a26ded","system_id":"levelo_inurba_marseille","lat":43.313571,"lon":5.384829,"is_reserved":false,"is_disabled":false,"rental_uris":{"android":"levelo://app?vid=8c72d926-3cc7-471a-a232-91c210a26ded","ios":"levelo://app?vid=8c72d926-3cc7-471a-a232-91c210a26ded"},"vehicle_type_id":"4","last_reported":1707062841,"current_range_meters":19600,"station_id":"ce4bgt92rcd13ifvqcf0","pricing_plan_id":"free"},{"bike_id":"d401c924-ffb2-4f02-a35f-09223284a2a1","system_id":"levelo_inurba_marseille","lat":43.299222,"lon":5.365554,"is_reserved":false,"is_disabled":false,"rental_uris":{"android":"levelo://app?vid=d401c924-ffb2-4f02-a35f-09223284a2a1","ios":"levelo://app?vid=d401c924-ffb2-4f02-a35f-09223284a2a1"},"vehicle_type_id":"4","last_reported":1707062841,"current_range_meters":0,"station_id":"ce4bgm92rcd13ifvqbr0","pricing_plan_id":"free"},{"bike_id":"647d1139-545e-488b-9e0b-edfe2b82ef0a","system_id":"levelo_inurba_marseille","lat":43.299222,"lon":5.365554,"is_reserved":false,"is_disabled":false,"rental_uris":{"android":"levelo://app?vid=647d1139-545e-488b-9e0b-edfe2b82ef0a","ios":"levelo://app?vid=647d1139-545e-488b-9e0b-edfe2b82ef0a"},"vehicle_type_id":"4","last_reported":1707062841,"current_range_meters":25600,"station_id":"ce4bgm92rcd13ifvqbr0","pricing_plan_id":"free"},{"bike_id":"ed83d90e-1e32-4a1e-8c43-b7580f655942","system_id":"levelo_inurba_marseille","lat":43.301429,"lon":5.37413,"is_reserved":false,"is_disabled":false,"rental_uris":{"android":"levelo://app?vid=ed83d90e-1e32-4a1e-8c43-b7580f655942","ios":"levelo://app?vid=ed83d90e-1e32-4a1e-8c43-b7580f655942"},"vehicle_type_id":"4","last_reported":1707062841,"current_range_meters":30400,"station_id":"ce4bgs92rcd13ifvqcc0","pricing_plan_id":"free"},{"bike_id":"bdd7670c-11b8-4dd5-abd7-9484b90c5ec4","system_id":"levelo_inurba_marseille","lat":43.305364,"lon":5.384119,"is_reserved":false,"is_disabled":false,"rental_uris":{"android":"levelo://app?vid=bdd7670c-11b8-4dd5-abd7-9484b90c5ec4","ios":"levelo://app?vid=bdd7670c-11b8-4dd5-abd7-9484b90c5ec4"},"vehicle_type_id":"4","last_reported":1707062841,"current_range_meters":27200,"station_id":"ce4bgg92rcd13ifvqb30","pricing_plan_id":"free"},{"bike_id":"68711152-2a1e-494b-889e-77b2017441c0","system_id":"levelo_inurba_marseille","lat":43.298433,"lon":5.362774,"is_reserved":false,"is_disabled":false,"rental_uris":{"android":"levelo://app?vid=68711152-2a1e-494b-889e-77b2017441c0","ios":"levelo://app?vid=68711152-2a1e-494b-889e-77b2017441c0"},"vehicle_type_id":"4","last_reported":1707062841,"current_range_meters":0,"station_id":"ce4bgpp2rcd13ifvqc3g","pricing_plan_id":"free"},{"bike_id":"740d5255-b928-4e00-9a34-6f878dc817ca","system_id":"levelo_inurba_marseille","lat":43.311722,"lon":5.387247,"is_reserved":false,"is_disabled":false,"rental_uris":{"android":"levelo://app?vid=740d5255-b928-4e00-9a34-6f878dc817ca","ios":"levelo://app?vid=740d5255-b928-4e00-9a34-6f878dc817ca"},"vehicle_type_id":"4","last_reported":1707062841,"current_range_meters":21600,"station_id":"ce4bgv12rcd13ifvqcp0","pricing_plan_id":"free"},{"bike_id":"dbc6d3f4-5540-4289-9cf8-f38c4e528304","system_id":"levelo_inurba_marseille","lat":43.311722,"lon":5.387247,"is_reserved":false,"is_disabled":false,"rental_uris":{"android":"levelo://app?vid=dbc6d3f4-5540-4289-9cf8-f38c4e528304","ios":"levelo://app?vid=dbc6d3f4-5540-4289-9cf8-f38c4e528304"},"vehicle_type_id":"4","last_reported":1707062841,"current_range_meters":1600,"station_id":"ce4bgv12rcd13ifvqcp0","pricing_plan_id":"free"},{"bike_id":"540ee0ba-9c7e-4051-b2b0-9c16cffa1293","system_id":"levelo_inurba_marseille","lat":43.311722,"lon":5.387247,"is_reserved":false,"is_disabled":false,"rental_uris":{"android":"levelo://app?vid=540ee0ba-9c7e-4051-b2b0-9c16cffa1293","ios":"levelo://app?vid=540ee0ba-9c7e-4051-b2b0-9c16cffa1293"},"vehicle_type_id":"4","last_reported":1707062841,"current_range_meters":17600,"station_id":"ce4bgv12rcd13ifvqcp0","pricing_plan_id":"free"},{"bike_id":"b145a81c-403e-4bff-965b-64fd968c1671","system_id":"levelo_inurba_marseille","lat":43.311722,"lon":5.387247,"is_reserved":false,"is_disabled":false,"rental_uris":{"android":"levelo://app?vid=b145a81c-403e-4bff-965b-64fd968c1671","ios":"levelo://app?vid=b145a81c-403e-4bff-965b-64fd968c1671"},"vehicle_type_id":"4","last_reported":1707062841,"current_range_meters":13600,"station_id":"ce4bgv12rcd13ifvqcp0","pricing_plan_id":"free"},{"bike_id":"8b023912-5267-4e1c-a403-4d70b425cebe","system_id":"levelo_inurba_marseille","lat":43.322876,"lon":5.382755,"is_reserved":false,"is_disabled":false,"rental_uris":{"android":"levelo://app?vid=8b023912-5267-4e1c-a403-4d70b425cebe","ios":"levelo://app?vid=8b023912-5267-4e1c-a403-4d70b425cebe"},"vehicle_type_id":"4","last_reported":1707062841,"current_range_meters":29600,"station_id":"ce4bhr12rcd13ifvqhqg","pricing_plan_id":"free"},{"bike_id":"1900e2ea-9239-49b1-933e-57903fa99707","system_id":"levelo_inurba_marseille","lat":43.32826,"lon":5.36695,"is_reserved":false,"is_disabled":false,"rental_uris":{"android":"levelo://app?vid=1900e2ea-9239-49b1-933e-57903fa99707","ios":"levelo://app?vid=1900e2ea-9239-49b1-933e-57903fa99707"},"vehicle_type_id":"4","last_reported":1707062841,"current_range_meters":10400,"station_id":"ce4bhs92rcd13ifvqi0g","pricing_plan_id":"free"},{"bike_id":"81d6c55c-5ab6-4964-9500-181a7b78889c","system_id":"levelo_inurba_marseille","lat":43.328303,"lon":5.366797,"is_reserved":false,"is_disabled":false,"rental_uris":{"android":"levelo://app?vid=81d6c55c-5ab6-4964-9500-181a7b78889c","ios":"levelo://app?vid=81d6c55c-5ab6-4964-9500-181a7b78889c"},"vehicle_type_id":"4","last_reported":1707062841,"current_range_meters":11200,"station_id":"ce4bhs92rcd13ifvqi0g","pricing_plan_id":"free"},{"bike_id":"a7461ed9-2914-4d5f-89ba-ce4a70896c9c","system_id":"levelo_inurba_marseille","lat":43.297163,"lon":5.365866,"is_reserved":false,"is_disabled":false,"rental_uris":{"android":"levelo://app?vid=a7461ed9-2914-4d5f-89ba-ce4a70896c9c","ios":"levelo://app?vid=a7461ed9-2914-4d5f-89ba-ce4a70896c9c"},"vehicle_type_id":"4","last_reported":1707062841,"current_range_meters":21600,"station_id":"ce4bgn12rcd13ifvqbt0","pricing_plan_id":"free"},{"bike_id":"d73908e2-2bfd-489b-804e-d4e95fac72d2","system_id":"levelo_inurba_marseille","lat":43.32842,"lon":5.36665,"is_reserved":false,"is_disabled":false,"rental_uris":{"android":"levelo://app?vid=d73908e2-2bfd-489b-804e-d4e95fac72d2","ios":"levelo://app?vid=d73908e2-2bfd-489b-804e-d4e95fac72d2"},"vehicle_type_id":"4","last_reported":1707062841,"current_range_meters":21600,"station_id":"ce4bhs92rcd13ifvqi0g","pricing_plan_id":"free"},{"bike_id":"b2727f5f-ea62-4c8f-ae57-f7782310f4a9","system_id":"levelo_inurba_marseille","lat":43.296843,"lon":5.366572,"is_reserved":false,"is_disabled":false,"rental_uris":{"android":"levelo://app?vid=b2727f5f-ea62-4c8f-ae57-f7782310f4a9","ios":"levelo://app?vid=b2727f5f-ea62-4c8f-ae57-f7782310f4a9"},"vehicle_type_id":"4","last_reported":1707062841,"current_range_meters":13600,"station_id":"ce4bgn12rcd13ifvqbt0","pricing_plan_id":"free"},{"bike_id":"5c72266d-5d6d-482a-9c8c-200e84cecf78","system_id":"levelo_inurba_marseille","lat":43.2968,"lon":5.37291,"is_reserved":false,"is_disabled":false,"rental_uris":{"android":"levelo://app?vid=5c72266d-5d6d-482a-9c8c-200e84cecf78","ios":"levelo://app?vid=5c72266d-5d6d-482a-9c8c-200e84cecf78"},"vehicle_type_id":"4","last_reported":1707062841,"current_range_meters":13200,"station_id":"ce4bgk12rcd13ifvqbj0","pricing_plan_id":"free"},{"bike_id":"463a2a9c-d457-409a-a647-0303fca54b0b","system_id":"levelo_inurba_marseille","lat":43.2968,"lon":5.37291,"is_reserved":false,"is_disabled":false,"rental_uris":{"android":"levelo://app?vid=463a2a9c-d457-409a-a647-0303fca54b0b","ios":"levelo://app?vid=463a2a9c-d457-409a-a647-0303fca54b0b"},"vehicle_type_id":"4","last_reported":1707062841,"current_range_meters":27600,"station_id":"ce4bgk12rcd13ifvqbj0","pricing_plan_id":"free"},{"bike_id":"8bea6ee2-bb12-4611-84ff-9527b54da0c8","system_id":"levelo_inurba_marseille","lat":43.296591,"lon":5.374674,"is_reserved":false,"is_disabled":false,"rental_uris":{"android":"levelo://app?vid=8bea6ee2-bb12-4611-84ff-9527b54da0c8","ios":"levelo://app?vid=8bea6ee2-bb12-4611-84ff-9527b54da0c8"},"vehicle_type_id":"4","last_reported":1707062841,"current_range_meters":28400,"station_id":"","pricing_plan_id":"free"},{"bike_id":"e71dbeb2-bdcd-41a9-9e92-b0477debf34d","system_id":"levelo_inurba_marseille","lat":43.29643,"lon":5.374515,"is_reserved":false,"is_disabled":false,"rental_uris":{"android":"levelo://app?vid=e71dbeb2-bdcd-41a9-9e92-b0477debf34d","ios":"levelo://app?vid=e71dbeb2-bdcd-41a9-9e92-b0477debf34d"},"vehicle_type_id":"4","last_reported":1707062841,"current_range_meters":12400,"station_id":"","pricing_plan_id":"free"},{"bike_id":"8c174d7d-71ca-4dfa-a459-01a3a5a65990","system_id":"levelo_inurba_marseille","lat":43.30951,"lon":5.39031,"is_reserved":false,"is_disabled":false,"rental_uris":{"android":"levelo://app?vid=8c174d7d-71ca-4dfa-a459-01a3a5a65990","ios":"levelo://app?vid=8c174d7d-71ca-4dfa-a459-01a3a5a65990"},"vehicle_type_id":"4","last_reported":1707062841,"current_range_meters":16000,"station_id":"ce4bgup2rcd13ifvqco0","pricing_plan_id":"free"},{"bike_id":"e0f38756-f462-4d89-ae6c-2e17ddf7f18b","system_id":"levelo_inurba_marseille","lat":43.30947,"lon":5.39031,"is_reserved":false,"is_disabled":false,"rental_uris":{"android":"levelo://app?vid=e0f38756-f462-4d89-ae6c-2e17ddf7f18b","ios":"levelo://app?vid=e0f38756-f462-4d89-ae6c-2e17ddf7f18b"},"vehicle_type_id":"4","last_reported":1707062841,"current_range_meters":10400,"station_id":"ce4bgup2rcd13ifvqco0","pricing_plan_id":"free"},{"bike_id":"d2bb0c0e-f985-4f3e-8be7-d26c3f72deab","system_id":"levelo_inurba_marseille","lat":43.30955,"lon":5.39038,"is_reserved":false,"is_disabled":false,"rental_uris":{"android":"levelo://app?vid=d2bb0c0e-f985-4f3e-8be7-d26c3f72deab","ios":"levelo://app?vid=d2bb0c0e-f985-4f3e-8be7-d26c3f72deab"},"vehicle_type_id":"4","last_reported":1707062841,"current_range_meters":30400,"station_id":"ce4bgup2rcd13ifvqco0","pricing_plan_id":"free"},{"bike_id":"0c7536df-5408-4c25-b36b-0c59b67f4f9a","system_id":"levelo_inurba_marseille","lat":43.30951,"lon":5.39038,"is_reserved":false,"is_disabled":false,"rental_uris":{"android":"levelo://app?vid=0c7536df-5408-4c25-b36b-0c59b67f4f9a","ios":"levelo://app?vid=0c7536df-5408-4c25-b36b-0c59b67f4f9a"},"vehicle_type_id":"4","last_reported":1707062841,"current_range_meters":31200,"station_id":"ce4bgup2rcd13ifvqco0","pricing_plan_id":"free"},{"bike_id":"69955656-98c6-4d59-9bb4-1553b1a9ef69","system_id":"levelo_inurba_marseille","lat":43.3095,"lon":5.39038,"is_reserved":false,"is_disabled":false,"rental_uris":{"android":"levelo://app?vid=69955656-98c6-4d59-9bb4-1553b1a9ef69","ios":"levelo://app?vid=69955656-98c6-4d59-9bb4-1553b1a9ef69"},"vehicle_type_id":"4","last_reported":1707062841,"current_range_meters":16800,"station_id":"ce4bgup2rcd13ifvqco0","pricing_plan_id":"free"},{"bike_id":"d26c9609-10e9-48af-a8c9-93cfb44d0fdb","system_id":"levelo_inurba_marseille","lat":43.309589,"lon":5.390258,"is_reserved":false,"is_disabled":false,"rental_uris":{"android":"levelo://app?vid=d26c9609-10e9-48af-a8c9-93cfb44d0fdb","ios":"levelo://app?vid=d26c9609-10e9-48af-a8c9-93cfb44d0fdb"},"vehicle_type_id":"4","last_reported":1707062841,"current_range_meters":16000,"station_id":"ce4bgup2rcd13ifvqco0","pricing_plan_id":"free"},{"bike_id":"1033b78d-f901-4cfa-8cae-54cb1e173be4","system_id":"levelo_inurba_marseille","lat":43.317557,"lon":5.390173,"is_reserved":false,"is_disabled":false,"rental_uris":{"android":"levelo://app?vid=1033b78d-f901-4cfa-8cae-54cb1e173be4","ios":"levelo://app?vid=1033b78d-f901-4cfa-8cae-54cb1e173be4"},"vehicle_type_id":"4","last_reported":1707062841,"current_range_meters":31200,"station_id":"ce4bhqp2rcd13ifvqhng","pricing_plan_id":"free"},{"bike_id":"40a85205-af79-43c2-bdc9-257280312aae","system_id":"levelo_inurba_marseille","lat":43.317552,"lon":5.390261,"is_reserved":false,"is_disabled":false,"rental_uris":{"android":"levelo://app?vid=40a85205-af79-43c2-bdc9-257280312aae","ios":"levelo://app?vid=40a85205-af79-43c2-bdc9-257280312aae"},"vehicle_type_id":"4","last_reported":1707062841,"current_range_meters":30400,"station_id":"ce4bhqp2rcd13ifvqhng","pricing_plan_id":"free"},{"bike_id":"86eba5ee-3f3e-465e-879d-a26eca611b6f","system_id":"levelo_inurba_marseille","lat":43.31829,"lon":5.390294,"is_reserved":false,"is_disabled":false,"rental_uris":{"android":"levelo://app?vid=86eba5ee-3f3e-465e-879d-a26eca611b6f","ios":"levelo://app?vid=86eba5ee-3f3e-465e-879d-a26eca611b6f"},"vehicle_type_id":"4","last_reported":1707062841,"current_range_meters":16800,"station_id":"","pricing_plan_id":"free"},{"bike_id":"c44553a5-1f4b-43db-aa14-383b87992649","system_id":"levelo_inurba_marseille","lat":43.298037,"lon":5.381066,"is_reserved":false,"is_disabled":false,"rental_uris":{"android":"levelo://app?vid=c44553a5-1f4b-43db-aa14-383b87992649","ios":"levelo://app?vid=c44553a5-1f4b-43db-aa14-383b87992649"},"vehicle_type_id":"4","last_reported":1707062841,"current_range_meters":9600,"station_id":"ce4bgip2rcd13ifvqbb0","pricing_plan_id":"free"},{"bike_id":"b2422bd2-6516-4b3e-a459-fbbb75f4c1c5","system_id":"levelo_inurba_marseille","lat":43.304274,"lon":5.388873,"is_reserved":false,"is_disabled":false,"rental_uris":{"android":"levelo://app?vid=b2422bd2-6516-4b3e-a459-fbbb75f4c1c5","ios":"levelo://app?vid=b2422bd2-6516-4b3e-a459-fbbb75f4c1c5"},"vehicle_type_id":"4","last_reported":1707062841,"current_range_meters":0,"station_id":"ce4bgk12rcd13ifvqbi0","pricing_plan_id":"free"},{"bike_id":"1bdd87a2-cf81-49bc-8f2d-99e2ec65463e","system_id":"levelo_inurba_marseille","lat":43.296263,"lon":5.377094,"is_reserved":false,"is_disabled":false,"rental_uris":{"android":"levelo://app?vid=1bdd87a2-cf81-49bc-8f2d-99e2ec65463e","ios":"levelo://app?vid=1bdd87a2-cf81-49bc-8f2d-99e2ec65463e"},"vehicle_type_id":"4","last_reported":1707062841,"current_range_meters":0,"station_id":"ce4bgi92rcd13ifvqb90","pricing_plan_id":"free"},{"bike_id":"a3694f9c-fb44-41ff-bf84-ed9c707534b7","system_id":"levelo_inurba_marseille","lat":43.304278,"lon":5.388868,"is_reserved":false,"is_disabled":false,"rental_uris":{"android":"levelo://app?vid=a3694f9c-fb44-41ff-bf84-ed9c707534b7","ios":"levelo://app?vid=a3694f9c-fb44-41ff-bf84-ed9c707534b7"},"vehicle_type_id":"4","last_reported":1707062841,"current_range_meters":800,"station_id":"ce4bgk12rcd13ifvqbi0","pricing_plan_id":"free"},{"bike_id":"6f85945c-4042-45f8-bd52-cb28e1677faa","system_id":"levelo_inurba_marseille","lat":43.295182,"lon":5.375015,"is_reserved":false,"is_disabled":false,"rental_uris":{"android":"levelo://app?vid=6f85945c-4042-45f8-bd52-cb28e1677faa","ios":"levelo://app?vid=6f85945c-4042-45f8-bd52-cb28e1677faa"},"vehicle_type_id":"4","last_reported":1707062841,"current_range_meters":6400,"station_id":"ce4bgkp2rcd13ifvqbmg","pricing_plan_id":"free"},{"bike_id":"18f5da08-3eba-49fa-9d1c-793dbbf5f456","system_id":"levelo_inurba_marseille","lat":43.299717,"lon":5.384845,"is_reserved":false,"is_disabled":false,"rental_uris":{"android":"levelo://app?vid=18f5da08-3eba-49fa-9d1c-793dbbf5f456","ios":"levelo://app?vid=18f5da08-3eba-49fa-9d1c-793dbbf5f456"},"vehicle_type_id":"4","last_reported":1707062841,"current_range_meters":2800,"station_id":"ce4bgj92rcd13ifvqbd0","pricing_plan_id":"free"},{"bike_id":"2cde29f2-e137-41f2-8b08-eb48a9662163","system_id":"levelo_inurba_marseille","lat":43.299724,"lon":5.384848,"is_reserved":false,"is_disabled":false,"rental_uris":{"android":"levelo://app?vid=2cde29f2-e137-41f2-8b08-eb48a9662163","ios":"levelo://app?vid=2cde29f2-e137-41f2-8b08-eb48a9662163"},"vehicle_type_id":"4","last_reported":1707062841,"current_range_meters":7200,"station_id":"ce4bgj92rcd13ifvqbd0","pricing_plan_id":"free"},{"bike_id":"e5205bc7-7606-4754-bf52-6b87ac7067cf","system_id":"levelo_inurba_marseille","lat":43.32359,"lon":5.38881,"is_reserved":false,"is_disabled":false,"rental_uris":{"android":"levelo://app?vid=e5205bc7-7606-4754-bf52-6b87ac7067cf","ios":"levelo://app?vid=e5205bc7-7606-4754-bf52-6b87ac7067cf"},"vehicle_type_id":"4","last_reported":1707062841,"current_range_meters":30000,"station_id":"ce4bhqp2rcd13ifvqhog","pricing_plan_id":"free"},{"bike_id":"999af2fa-7743-40b1-ad5a-09d74cc1efed","system_id":"levelo_inurba_marseille","lat":43.32364,"lon":5.38881,"is_reserved":false,"is_disabled":false,"rental_uris":{"android":"levelo://app?vid=999af2fa-7743-40b1-ad5a-09d74cc1efed","ios":"levelo://app?vid=999af2fa-7743-40b1-ad5a-09d74cc1efed"},"vehicle_type_id":"4","last_reported":1707062841,"current_range_meters":22400,"station_id":"ce4bhqp2rcd13ifvqhog","pricing_plan_id":"free"},{"bike_id":"f459bcc8-96d9-431d-bb45-ce1f50e6d398","system_id":"levelo_inurba_marseille","lat":43.32367,"lon":5.38883,"is_reserved":false,"is_disabled":false,"rental_uris":{"android":"levelo://app?vid=f459bcc8-96d9-431d-bb45-ce1f50e6d398","ios":"levelo://app?vid=f459bcc8-96d9-431d-bb45-ce1f50e6d398"},"vehicle_type_id":"4","last_reported":1707062841,"current_range_meters":2000,"station_id":"ce4bhqp2rcd13ifvqhog","pricing_plan_id":"free"},{"bike_id":"75ed1df4-b7df-4e88-9e9a-696a19f1762a","system_id":"levelo_inurba_marseille","lat":43.32371,"lon":5.38884,"is_reserved":false,"is_disabled":false,"rental_uris":{"android":"levelo://app?vid=75ed1df4-b7df-4e88-9e9a-696a19f1762a","ios":"levelo://app?vid=75ed1df4-b7df-4e88-9e9a-696a19f1762a"},"vehicle_type_id":"4","last_reported":1707062841,"current_range_meters":6000,"station_id":"ce4bhqp2rcd13ifvqhog","pricing_plan_id":"free"},{"bike_id":"9b081c91-637e-47ff-a6d8-ba13bb5f1be4","system_id":"levelo_inurba_marseille","lat":43.32369,"lon":5.38887,"is_reserved":false,"is_disabled":false,"rental_uris":{"android":"levelo://app?vid=9b081c91-637e-47ff-a6d8-ba13bb5f1be4","ios":"levelo://app?vid=9b081c91-637e-47ff-a6d8-ba13bb5f1be4"},"vehicle_type_id":"4","last_reported":1707062841,"current_range_meters":27600,"station_id":"ce4bhqp2rcd13ifvqhog","pricing_plan_id":"free"},{"bike_id":"e7a95a5a-7d13-48ff-a856-827ce0771044","system_id":"levelo_inurba_marseille","lat":43.32364,"lon":5.38897,"is_reserved":false,"is_disabled":false,"rental_uris":{"android":"levelo://app?vid=e7a95a5a-7d13-48ff-a856-827ce0771044","ios":"levelo://app?vid=e7a95a5a-7d13-48ff-a856-827ce0771044"},"vehicle_type_id":"4","last_reported":1707062841,"current_range_meters":26800,"station_id":"ce4bhqp2rcd13ifvqhog","pricing_plan_id":"free"},{"bike_id":"c5f1cf69-ca8d-4103-b0aa-117aedac2923","system_id":"levelo_inurba_marseille","lat":43.29602,"lon":5.381084,"is_reserved":false,"is_disabled":false,"rental_uris":{"android":"levelo://app?vid=c5f1cf69-ca8d-4103-b0aa-117aedac2923","ios":"levelo://app?vid=c5f1cf69-ca8d-4103-b0aa-117aedac2923"},"vehicle_type_id":"4","last_reported":1707062841,"current_range_meters":20400,"station_id":"ce4bgl12rcd13ifvqbo0","pricing_plan_id":"free"},{"bike_id":"0f90d953-2b5d-4548-9aee-1fb6d84320c1","system_id":"levelo_inurba_marseille","lat":43.29272,"lon":5.3684,"is_reserved":false,"is_disabled":false,"rental_uris":{"android":"levelo://app?vid=0f90d953-2b5d-4548-9aee-1fb6d84320c1","ios":"levelo://app?vid=0f90d953-2b5d-4548-9aee-1fb6d84320c1"},"vehicle_type_id":"4","last_reported":1707062841,"current_range_meters":0,"station_id":"ce4bhbp2rcd13ifvqesg","pricing_plan_id":"free"},{"bike_id":"9ae61289-e0b5-4282-a0bb-f8d7f2c694cb","system_id":"levelo_inurba_marseille","lat":43.293181,"lon":5.374524,"is_reserved":false,"is_disabled":false,"rental_uris":{"android":"levelo://app?vid=9ae61289-e0b5-4282-a0bb-f8d7f2c694cb","ios":"levelo://app?vid=9ae61289-e0b5-4282-a0bb-f8d7f2c694cb"},"vehicle_type_id":"4","last_reported":1707062841,"current_range_meters":0,"station_id":"ce4bgi12rcd13ifvqb70","pricing_plan_id":"free"},{"bike_id":"1950fa3d-6d4c-4896-9cd5-eed7a91850ee","system_id":"levelo_inurba_marseille","lat":43.29297,"lon":5.37449,"is_reserved":false,"is_disabled":false,"rental_uris":{"android":"levelo://app?vid=1950fa3d-6d4c-4896-9cd5-eed7a91850ee","ios":"levelo://app?vid=1950fa3d-6d4c-4896-9cd5-eed7a91850ee"},"vehicle_type_id":"4","last_reported":1707062841,"current_range_meters":0,"station_id":"ce4bgi12rcd13ifvqb70","pricing_plan_id":"free"},{"bike_id":"3fef2ef9-1261-42f5-8da3-c05ab93ff04f","system_id":"levelo_inurba_marseille","lat":43.303002,"lon":5.392142,"is_reserved":false,"is_disabled":false,"rental_uris":{"android":"levelo://app?vid=3fef2ef9-1261-42f5-8da3-c05ab93ff04f","ios":"levelo://app?vid=3fef2ef9-1261-42f5-8da3-c05ab93ff04f"},"vehicle_type_id":"4","last_reported":1707062841,"current_range_meters":0,"station_id":"ce4bgkh2rcd13ifvqbk0","pricing_plan_id":"free"},{"bike_id":"3a7d2cc0-6d80-4df3-a6ed-2f64c9ffbed4","system_id":"levelo_inurba_marseille","lat":43.303002,"lon":5.392142,"is_reserved":false,"is_disabled":false,"rental_uris":{"android":"levelo://app?vid=3a7d2cc0-6d80-4df3-a6ed-2f64c9ffbed4","ios":"levelo://app?vid=3a7d2cc0-6d80-4df3-a6ed-2f64c9ffbed4"},"vehicle_type_id":"4","last_reported":1707062841,"current_range_meters":11600,"station_id":"ce4bgkh2rcd13ifvqbk0","pricing_plan_id":"free"},{"bike_id":"54249642-414a-4d68-9d3e-92230870e8f9","system_id":"levelo_inurba_marseille","lat":43.303002,"lon":5.392142,"is_reserved":false,"is_disabled":false,"rental_uris":{"android":"levelo://app?vid=54249642-414a-4d68-9d3e-92230870e8f9","ios":"levelo://app?vid=54249642-414a-4d68-9d3e-92230870e8f9"},"vehicle_type_id":"4","last_reported":1707062841,"current_range_meters":12000,"station_id":"ce4bgkh2rcd13ifvqbk0","pricing_plan_id":"free"},{"bike_id":"22c8877b-25d4-4fcf-98c9-c62304bd71fc","system_id":"levelo_inurba_marseille","lat":43.302992,"lon":5.392136,"is_reserved":false,"is_disabled":false,"rental_uris":{"android":"levelo://app?vid=22c8877b-25d4-4fcf-98c9-c62304bd71fc","ios":"levelo://app?vid=22c8877b-25d4-4fcf-98c9-c62304bd71fc"},"vehicle_type_id":"4","last_reported":1707062841,"current_range_meters":20800,"station_id":"ce4bgkh2rcd13ifvqbk0","pricing_plan_id":"free"},{"bike_id":"57428a49-24dc-4401-949a-b65d0a080665","system_id":"levelo_inurba_marseille","lat":43.303002,"lon":5.392142,"is_reserved":false,"is_disabled":false,"rental_uris":{"android":"levelo://app?vid=57428a49-24dc-4401-949a-b65d0a080665","ios":"levelo://app?vid=57428a49-24dc-4401-949a-b65d0a080665"},"vehicle_type_id":"4","last_reported":1707062841,"current_range_meters":0,"station_id":"ce4bgkh2rcd13ifvqbk0","pricing_plan_id":"free"},{"bike_id":"bdae254e-8019-4d36-bf5b-7d16d5f5937f","system_id":"levelo_inurba_marseille","lat":43.29265,"lon":5.37619,"is_reserved":false,"is_disabled":false,"rental_uris":{"android":"levelo://app?vid=bdae254e-8019-4d36-bf5b-7d16d5f5937f","ios":"levelo://app?vid=bdae254e-8019-4d36-bf5b-7d16d5f5937f"},"vehicle_type_id":"4","last_reported":1707062841,"current_range_meters":27200,"station_id":"","pricing_plan_id":"free"},{"bike_id":"d02a7e75-785a-403c-ab10-f9c563b69313","system_id":"levelo_inurba_marseille","lat":43.29264,"lon":5.37622,"is_reserved":false,"is_disabled":false,"rental_uris":{"android":"levelo://app?vid=d02a7e75-785a-403c-ab10-f9c563b69313","ios":"levelo://app?vid=d02a7e75-785a-403c-ab10-f9c563b69313"},"vehicle_type_id":"4","last_reported":1707062841,"current_range_meters":23200,"station_id":"","pricing_plan_id":"free"},{"bike_id":"e4e07c05-5a50-44db-8563-19e7fe85f279","system_id":"levelo_inurba_marseille","lat":43.284462,"lon":5.392121,"is_reserved":false,"is_disabled":false,"rental_uris":{"android":"levelo://app?vid=e4e07c05-5a50-44db-8563-19e7fe85f279","ios":"levelo://app?vid=e4e07c05-5a50-44db-8563-19e7fe85f279"},"vehicle_type_id":"4","last_reported":1707062841,"current_range_meters":0,"station_id":"ce4bhoh2rcd13ifvqh5g","pricing_plan_id":"free"},{"bike_id":"10568b26-6f22-4b3a-9206-441946018fdb","system_id":"levelo_inurba_marseille","lat":43.298764,"lon":5.388973,"is_reserved":false,"is_disabled":false,"rental_uris":{"android":"levelo://app?vid=10568b26-6f22-4b3a-9206-441946018fdb","ios":"levelo://app?vid=10568b26-6f22-4b3a-9206-441946018fdb"},"vehicle_type_id":"4","last_reported":1707062841,"current_range_meters":4000,"station_id":"ce4bh392rcd13ifvqdl0","pricing_plan_id":"free"},{"bike_id":"b30580ae-271a-4e9a-a046-6665a9f97624","system_id":"levelo_inurba_marseille","lat":43.291675,"lon":5.371583,"is_reserved":false,"is_disabled":false,"rental_uris":{"android":"levelo://app?vid=b30580ae-271a-4e9a-a046-6665a9f97624","ios":"levelo://app?vid=b30580ae-271a-4e9a-a046-6665a9f97624"},"vehicle_type_id":"4","last_reported":1707062841,"current_range_meters":6400,"station_id":"ce4bha92rcd13ifvqeh0","pricing_plan_id":"free"},{"bike_id":"ba2405a0-0f43-43b7-abcd-9151c43eaf96","system_id":"levelo_inurba_marseille","lat":43.291994,"lon":5.357886,"is_reserved":false,"is_disabled":false,"rental_uris":{"android":"levelo://app?vid=ba2405a0-0f43-43b7-abcd-9151c43eaf96","ios":"levelo://app?vid=ba2405a0-0f43-43b7-abcd-9151c43eaf96"},"vehicle_type_id":"4","last_reported":1707062841,"current_range_meters":11600,"station_id":"ce4bhb12rcd13ifvqel0","pricing_plan_id":"free"},{"bike_id":"3486c081-87c7-4a1e-87e1-96da199ec843","system_id":"levelo_inurba_marseille","lat":43.291994,"lon":5.357886,"is_reserved":false,"is_disabled":false,"rental_uris":{"android":"levelo://app?vid=3486c081-87c7-4a1e-87e1-96da199ec843","ios":"levelo://app?vid=3486c081-87c7-4a1e-87e1-96da199ec843"},"vehicle_type_id":"4","last_reported":1707062841,"current_range_meters":26800,"station_id":"ce4bhb12rcd13ifvqel0","pricing_plan_id":"free"},{"bike_id":"1502686c-71e7-4a8d-8deb-615448354534","system_id":"levelo_inurba_marseille","lat":43.291994,"lon":5.357886,"is_reserved":false,"is_disabled":false,"rental_uris":{"android":"levelo://app?vid=1502686c-71e7-4a8d-8deb-615448354534","ios":"levelo://app?vid=1502686c-71e7-4a8d-8deb-615448354534"},"vehicle_type_id":"4","last_reported":1707062841,"current_range_meters":0,"station_id":"ce4bhb12rcd13ifvqel0","pricing_plan_id":"free"},{"bike_id":"4419a724-5255-4916-9ab6-08c2c5ae2fc3","system_id":"levelo_inurba_marseille","lat":43.316319,"lon":5.396744,"is_reserved":false,"is_disabled":false,"rental_uris":{"android":"levelo://app?vid=4419a724-5255-4916-9ab6-08c2c5ae2fc3","ios":"levelo://app?vid=4419a724-5255-4916-9ab6-08c2c5ae2fc3"},"vehicle_type_id":"4","last_reported":1707062841,"current_range_meters":28000,"station_id":"","pricing_plan_id":"free"},{"bike_id":"5f7020d2-e0d3-42fe-add9-a3a24c424aee","system_id":"levelo_inurba_marseille","lat":43.29529,"lon":5.385581,"is_reserved":false,"is_disabled":false,"rental_uris":{"android":"levelo://app?vid=5f7020d2-e0d3-42fe-add9-a3a24c424aee","ios":"levelo://app?vid=5f7020d2-e0d3-42fe-add9-a3a24c424aee"},"vehicle_type_id":"4","last_reported":1707062841,"current_range_meters":4000,"station_id":"ce4bgih2rcd13ifvqba0","pricing_plan_id":"free"},{"bike_id":"5726058c-2ce2-48e4-ae34-64adca5eeba9","system_id":"levelo_inurba_marseille","lat":43.29529,"lon":5.385581,"is_reserved":false,"is_disabled":false,"rental_uris":{"android":"levelo://app?vid=5726058c-2ce2-48e4-ae34-64adca5eeba9","ios":"levelo://app?vid=5726058c-2ce2-48e4-ae34-64adca5eeba9"},"vehicle_type_id":"4","last_reported":1707062841,"current_range_meters":9200,"station_id":"ce4bgih2rcd13ifvqba0","pricing_plan_id":"free"},{"bike_id":"8e618a30-4970-449b-aa73-5787aaffdfb1","system_id":"levelo_inurba_marseille","lat":43.29529,"lon":5.385581,"is_reserved":false,"is_disabled":false,"rental_uris":{"android":"levelo://app?vid=8e618a30-4970-449b-aa73-5787aaffdfb1","ios":"levelo://app?vid=8e618a30-4970-449b-aa73-5787aaffdfb1"},"vehicle_type_id":"4","last_reported":1707062841,"current_range_meters":8800,"station_id":"ce4bgih2rcd13ifvqba0","pricing_plan_id":"free"},{"bike_id":"ff2e6b33-07ec-4223-9f8d-62f9c96d36a0","system_id":"levelo_inurba_marseille","lat":43.29529,"lon":5.385581,"is_reserved":false,"is_disabled":false,"rental_uris":{"android":"levelo://app?vid=ff2e6b33-07ec-4223-9f8d-62f9c96d36a0","ios":"levelo://app?vid=ff2e6b33-07ec-4223-9f8d-62f9c96d36a0"},"vehicle_type_id":"4","last_reported":1707062841,"current_range_meters":12800,"station_id":"ce4bgih2rcd13ifvqba0","pricing_plan_id":"free"},{"bike_id":"ba37b12a-de11-45a1-bc7f-93c5953190a1","system_id":"levelo_inurba_marseille","lat":43.290695,"lon":5.37159,"is_reserved":false,"is_disabled":false,"rental_uris":{"android":"levelo://app?vid=ba37b12a-de11-45a1-bc7f-93c5953190a1","ios":"levelo://app?vid=ba37b12a-de11-45a1-bc7f-93c5953190a1"},"vehicle_type_id":"4","last_reported":1707062841,"current_range_meters":10800,"station_id":"ce4bh5p2rcd13ifvqe4g","pricing_plan_id":"free"},{"bike_id":"2146228d-6cb8-4117-8700-03127de635d5","system_id":"levelo_inurba_marseille","lat":43.290779,"lon":5.371482,"is_reserved":false,"is_disabled":false,"rental_uris":{"android":"levelo://app?vid=2146228d-6cb8-4117-8700-03127de635d5","ios":"levelo://app?vid=2146228d-6cb8-4117-8700-03127de635d5"},"vehicle_type_id":"4","last_reported":1707062841,"current_range_meters":18800,"station_id":"ce4bh5p2rcd13ifvqe4g","pricing_plan_id":"free"},{"bike_id":"d3d76317-98cf-4dd7-a40c-67be82f002e4","system_id":"levelo_inurba_marseille","lat":43.29566,"lon":5.38676,"is_reserved":false,"is_disabled":false,"rental_uris":{"android":"levelo://app?vid=d3d76317-98cf-4dd7-a40c-67be82f002e4","ios":"levelo://app?vid=d3d76317-98cf-4dd7-a40c-67be82f002e4"},"vehicle_type_id":"4","last_reported":1707062841,"current_range_meters":20400,"station_id":"","pricing_plan_id":"free"},{"bike_id":"7c755874-04f4-49a7-881c-3dccfea2f0df","system_id":"levelo_inurba_marseille","lat":43.290441,"lon":5.359123,"is_reserved":false,"is_disabled":false,"rental_uris":{"android":"levelo://app?vid=7c755874-04f4-49a7-881c-3dccfea2f0df","ios":"levelo://app?vid=7c755874-04f4-49a7-881c-3dccfea2f0df"},"vehicle_type_id":"4","last_reported":1707062841,"current_range_meters":0,"station_id":"","pricing_plan_id":"free"},{"bike_id":"5ab12e84-d605-4370-a69d-a92ed7b52681","system_id":"levelo_inurba_marseille","lat":43.294153,"lon":5.386305,"is_reserved":false,"is_disabled":false,"rental_uris":{"android":"levelo://app?vid=5ab12e84-d605-4370-a69d-a92ed7b52681","ios":"levelo://app?vid=5ab12e84-d605-4370-a69d-a92ed7b52681"},"vehicle_type_id":"4","last_reported":1707062841,"current_range_meters":0,"station_id":"ce4bh2h2rcd13ifvqdh0","pricing_plan_id":"free"},{"bike_id":"73e69312-0db8-45db-8e90-8dec842c5943","system_id":"levelo_inurba_marseille","lat":43.28945,"lon":5.36642,"is_reserved":false,"is_disabled":false,"rental_uris":{"android":"levelo://app?vid=73e69312-0db8-45db-8e90-8dec842c5943","ios":"levelo://app?vid=73e69312-0db8-45db-8e90-8dec842c5943"},"vehicle_type_id":"4","last_reported":1707062841,"current_range_meters":3600,"station_id":"ce4bhap2rcd13ifvqek0","pricing_plan_id":"free"},{"bike_id":"54195cb8-bf95-4e90-a8fd-cd15ccb9c557","system_id":"levelo_inurba_marseille","lat":43.294162,"lon":5.386292,"is_reserved":false,"is_disabled":false,"rental_uris":{"android":"levelo://app?vid=54195cb8-bf95-4e90-a8fd-cd15ccb9c557","ios":"levelo://app?vid=54195cb8-bf95-4e90-a8fd-cd15ccb9c557"},"vehicle_type_id":"4","last_reported":1707062841,"current_range_meters":0,"station_id":"ce4bh2h2rcd13ifvqdh0","pricing_plan_id":"free"},{"bike_id":"e5e75a81-3ffa-4829-8618-56082784081f","system_id":"levelo_inurba_marseille","lat":43.289184,"lon":5.366408,"is_reserved":false,"is_disabled":false,"rental_uris":{"android":"levelo://app?vid=e5e75a81-3ffa-4829-8618-56082784081f","ios":"levelo://app?vid=e5e75a81-3ffa-4829-8618-56082784081f"},"vehicle_type_id":"4","last_reported":1707062841,"current_range_meters":0,"station_id":"ce4bhap2rcd13ifvqek0","pricing_plan_id":"free"},{"bike_id":"98569990-5bda-4d40-9feb-c1e46d9bfff7","system_id":"levelo_inurba_marseille","lat":43.290327,"lon":5.375711,"is_reserved":false,"is_disabled":false,"rental_uris":{"android":"levelo://app?vid=98569990-5bda-4d40-9feb-c1e46d9bfff7","ios":"levelo://app?vid=98569990-5bda-4d40-9feb-c1e46d9bfff7"},"vehicle_type_id":"4","last_reported":1707062841,"current_range_meters":13600,"station_id":"ce4bh692rcd13ifvqe90","pricing_plan_id":"free"},{"bike_id":"cfeafb10-7211-442f-a29d-bfd62bd8b766","system_id":"levelo_inurba_marseille","lat":43.289184,"lon":5.366408,"is_reserved":false,"is_disabled":false,"rental_uris":{"android":"levelo://app?vid=cfeafb10-7211-442f-a29d-bfd62bd8b766","ios":"levelo://app?vid=cfeafb10-7211-442f-a29d-bfd62bd8b766"},"vehicle_type_id":"4","last_reported":1707062841,"current_range_meters":28000,"station_id":"ce4bhap2rcd13ifvqek0","pricing_plan_id":"free"},{"bike_id":"bdeaa9a8-402c-4664-b097-2fafb5cf0c1d","system_id":"levelo_inurba_marseille","lat":43.289468,"lon":5.363719,"is_reserved":false,"is_disabled":false,"rental_uris":{"android":"levelo://app?vid=bdeaa9a8-402c-4664-b097-2fafb5cf0c1d","ios":"levelo://app?vid=bdeaa9a8-402c-4664-b097-2fafb5cf0c1d"},"vehicle_type_id":"4","last_reported":1707062841,"current_range_meters":13200,"station_id":"ce4bhc92rcd13ifvqetg","pricing_plan_id":"free"},{"bike_id":"442444d5-abc2-4b13-b6e5-ac0c9f9ef1d9","system_id":"levelo_inurba_marseille","lat":43.289468,"lon":5.363719,"is_reserved":false,"is_disabled":false,"rental_uris":{"android":"levelo://app?vid=442444d5-abc2-4b13-b6e5-ac0c9f9ef1d9","ios":"levelo://app?vid=442444d5-abc2-4b13-b6e5-ac0c9f9ef1d9"},"vehicle_type_id":"4","last_reported":1707062841,"current_range_meters":15200,"station_id":"ce4bhc92rcd13ifvqetg","pricing_plan_id":"free"},{"bike_id":"9bbca9fb-c59c-4477-9956-6cd232c3591e","system_id":"levelo_inurba_marseille","lat":43.295169,"lon":5.390426,"is_reserved":false,"is_disabled":false,"rental_uris":{"android":"levelo://app?vid=9bbca9fb-c59c-4477-9956-6cd232c3591e","ios":"levelo://app?vid=9bbca9fb-c59c-4477-9956-6cd232c3591e"},"vehicle_type_id":"4","last_reported":1707062841,"current_range_meters":3600,"station_id":"ce4bh3p2rcd13ifvqdp0","pricing_plan_id":"free"},{"bike_id":"30a0f0af-b6de-436c-bf03-35b7e699808c","system_id":"levelo_inurba_marseille","lat":43.29004,"lon":5.35613,"is_reserved":false,"is_disabled":false,"rental_uris":{"android":"levelo://app?vid=30a0f0af-b6de-436c-bf03-35b7e699808c","ios":"levelo://app?vid=30a0f0af-b6de-436c-bf03-35b7e699808c"},"vehicle_type_id":"4","last_reported":1707062841,"current_range_meters":0,"station_id":"ce4bhb92rcd13ifvqen0","pricing_plan_id":"free"},{"bike_id":"09cc5b28-ce44-4cee-8bd4-e43daddffc45","system_id":"levelo_inurba_marseille","lat":43.290103,"lon":5.356114,"is_reserved":false,"is_disabled":false,"rental_uris":{"android":"levelo://app?vid=09cc5b28-ce44-4cee-8bd4-e43daddffc45","ios":"levelo://app?vid=09cc5b28-ce44-4cee-8bd4-e43daddffc45"},"vehicle_type_id":"4","last_reported":1707062841,"current_range_meters":0,"station_id":"ce4bhb92rcd13ifvqen0","pricing_plan_id":"free"},{"bike_id":"36dcf795-21eb-42cc-a480-af859cb90eab","system_id":"levelo_inurba_marseille","lat":43.330442,"lon":5.389148,"is_reserved":false,"is_disabled":false,"rental_uris":{"android":"levelo://app?vid=36dcf795-21eb-42cc-a480-af859cb90eab","ios":"levelo://app?vid=36dcf795-21eb-42cc-a480-af859cb90eab"},"vehicle_type_id":"4","last_reported":1707062841,"current_range_meters":31200,"station_id":"ce4bhr92rcd13ifvqhrg","pricing_plan_id":"free"},{"bike_id":"4270893e-7646-43e8-9278-a14d6af412e0","system_id":"levelo_inurba_marseille","lat":43.33018,"lon":5.39046,"is_reserved":false,"is_disabled":false,"rental_uris":{"android":"levelo://app?vid=4270893e-7646-43e8-9278-a14d6af412e0","ios":"levelo://app?vid=4270893e-7646-43e8-9278-a14d6af412e0"},"vehicle_type_id":"4","last_reported":1707062841,"current_range_meters":28400,"station_id":"ce4bhr92rcd13ifvqhrg","pricing_plan_id":"free"},{"bike_id":"84ac4dc3-c2f9-4ae0-bf58-9c14e10a514e","system_id":"levelo_inurba_marseille","lat":43.330442,"lon":5.389148,"is_reserved":false,"is_disabled":false,"rental_uris":{"android":"levelo://app?vid=84ac4dc3-c2f9-4ae0-bf58-9c14e10a514e","ios":"levelo://app?vid=84ac4dc3-c2f9-4ae0-bf58-9c14e10a514e"},"vehicle_type_id":"4","last_reported":1707062841,"current_range_meters":31200,"station_id":"ce4bhr92rcd13ifvqhrg","pricing_plan_id":"free"},{"bike_id":"291aaf63-a488-43b5-8680-f0c35b710160","system_id":"levelo_inurba_marseille","lat":43.33025,"lon":5.39045,"is_reserved":false,"is_disabled":false,"rental_uris":{"android":"levelo://app?vid=291aaf63-a488-43b5-8680-f0c35b710160","ios":"levelo://app?vid=291aaf63-a488-43b5-8680-f0c35b710160"},"vehicle_type_id":"4","last_reported":1707062841,"current_range_meters":26400,"station_id":"ce4bhr92rcd13ifvqhrg","pricing_plan_id":"free"},{"bike_id":"02fefdd2-c91a-46fc-9501-4543c3c10a56","system_id":"levelo_inurba_marseille","lat":43.330442,"lon":5.389148,"is_reserved":false,"is_disabled":false,"rental_uris":{"android":"levelo://app?vid=02fefdd2-c91a-46fc-9501-4543c3c10a56","ios":"levelo://app?vid=02fefdd2-c91a-46fc-9501-4543c3c10a56"},"vehicle_type_id":"4","last_reported":1707062841,"current_range_meters":9600,"station_id":"ce4bhr92rcd13ifvqhrg","pricing_plan_id":"free"},{"bike_id":"e49de74f-ab3f-4561-8768-c9673d06cfbe","system_id":"levelo_inurba_marseille","lat":43.28856,"lon":5.358371,"is_reserved":false,"is_disabled":false,"rental_uris":{"android":"levelo://app?vid=e49de74f-ab3f-4561-8768-c9673d06cfbe","ios":"levelo://app?vid=e49de74f-ab3f-4561-8768-c9673d06cfbe"},"vehicle_type_id":"4","last_reported":1707062841,"current_range_meters":0,"station_id":"ce4bhb12rcd13ifvqem0","pricing_plan_id":"free"},{"bike_id":"4b14273a-671d-424d-a865-4be4b5713412","system_id":"levelo_inurba_marseille","lat":43.28856,"lon":5.358371,"is_reserved":false,"is_disabled":false,"rental_uris":{"android":"levelo://app?vid=4b14273a-671d-424d-a865-4be4b5713412","ios":"levelo://app?vid=4b14273a-671d-424d-a865-4be4b5713412"},"vehicle_type_id":"4","last_reported":1707062841,"current_range_meters":22400,"station_id":"ce4bhb12rcd13ifvqem0","pricing_plan_id":"free"},{"bike_id":"365125b0-1c76-4558-a90f-2f4867315eb1","system_id":"levelo_inurba_marseille","lat":43.312609,"lon":5.401662,"is_reserved":false,"is_disabled":false,"rental_uris":{"android":"levelo://app?vid=365125b0-1c76-4558-a90f-2f4867315eb1","ios":"levelo://app?vid=365125b0-1c76-4558-a90f-2f4867315eb1"},"vehicle_type_id":"4","last_reported":1707062841,"current_range_meters":24800,"station_id":"ce4bh092rcd13ifvqd30","pricing_plan_id":"free"},{"bike_id":"c88b544a-7d5f-44cd-9e90-26ffcf31651a","system_id":"levelo_inurba_marseille","lat":43.32686,"lon":5.39586,"is_reserved":false,"is_disabled":false,"rental_uris":{"android":"levelo://app?vid=c88b544a-7d5f-44cd-9e90-26ffcf31651a","ios":"levelo://app?vid=c88b544a-7d5f-44cd-9e90-26ffcf31651a"},"vehicle_type_id":"4","last_reported":1707062841,"current_range_meters":13200,"station_id":"","pricing_plan_id":"free"},{"bike_id":"9824074a-882f-409f-a34e-f5f2e4caa6dc","system_id":"levelo_inurba_marseille","lat":43.309371,"lon":5.401449,"is_reserved":false,"is_disabled":false,"rental_uris":{"android":"levelo://app?vid=9824074a-882f-409f-a34e-f5f2e4caa6dc","ios":"levelo://app?vid=9824074a-882f-409f-a34e-f5f2e4caa6dc"},"vehicle_type_id":"4","last_reported":1707062841,"current_range_meters":10800,"station_id":"ce4bgvp2rcd13ifvqct0","pricing_plan_id":"free"},{"bike_id":"77808c9a-b998-4658-aedb-b25e3472d80a","system_id":"levelo_inurba_marseille","lat":43.309371,"lon":5.401449,"is_reserved":false,"is_disabled":false,"rental_uris":{"android":"levelo://app?vid=77808c9a-b998-4658-aedb-b25e3472d80a","ios":"levelo://app?vid=77808c9a-b998-4658-aedb-b25e3472d80a"},"vehicle_type_id":"4","last_reported":1707062841,"current_range_meters":0,"station_id":"ce4bgvp2rcd13ifvqct0","pricing_plan_id":"free"},{"bike_id":"b5c8cd35-34dd-45ee-b3e7-3050ef3cbe6a","system_id":"levelo_inurba_marseille","lat":43.337673,"lon":5.374918,"is_reserved":false,"is_disabled":false,"rental_uris":{"android":"levelo://app?vid=b5c8cd35-34dd-45ee-b3e7-3050ef3cbe6a","ios":"levelo://app?vid=b5c8cd35-34dd-45ee-b3e7-3050ef3cbe6a"},"vehicle_type_id":"4","last_reported":1707062841,"current_range_meters":12000,"station_id":"","pricing_plan_id":"free"},{"bike_id":"4cabdbac-f0d8-4403-a8e7-bbd8fca8e829","system_id":"levelo_inurba_marseille","lat":43.298681,"lon":5.397225,"is_reserved":false,"is_disabled":false,"rental_uris":{"android":"levelo://app?vid=4cabdbac-f0d8-4403-a8e7-bbd8fca8e829","ios":"levelo://app?vid=4cabdbac-f0d8-4403-a8e7-bbd8fca8e829"},"vehicle_type_id":"4","last_reported":1707062841,"current_range_meters":10800,"station_id":"ce4bh0h2rcd13ifvqd50","pricing_plan_id":"free"},{"bike_id":"2272a18b-8632-46c1-a501-12f674f10965","system_id":"levelo_inurba_marseille","lat":43.28727,"lon":5.36078,"is_reserved":false,"is_disabled":false,"rental_uris":{"android":"levelo://app?vid=2272a18b-8632-46c1-a501-12f674f10965","ios":"levelo://app?vid=2272a18b-8632-46c1-a501-12f674f10965"},"vehicle_type_id":"4","last_reported":1707062841,"current_range_meters":12400,"station_id":"cki0cbj6b192h4jlfktg","pricing_plan_id":"free"},{"bike_id":"bc765237-65bd-4ff2-bd0e-ae35f166ea39","system_id":"levelo_inurba_marseille","lat":43.286961,"lon":5.373785,"is_reserved":false,"is_disabled":false,"rental_uris":{"android":"levelo://app?vid=bc765237-65bd-4ff2-bd0e-ae35f166ea39","ios":"levelo://app?vid=bc765237-65bd-4ff2-bd0e-ae35f166ea39"},"vehicle_type_id":"4","last_reported":1707062841,"current_range_meters":12000,"station_id":"ce4bh3p2rcd13ifvqdq0","pricing_plan_id":"free"},{"bike_id":"ba4e977c-8fd0-45a4-b4d8-835d1cf348a9","system_id":"levelo_inurba_marseille","lat":43.286961,"lon":5.373785,"is_reserved":false,"is_disabled":false,"rental_uris":{"android":"levelo://app?vid=ba4e977c-8fd0-45a4-b4d8-835d1cf348a9","ios":"levelo://app?vid=ba4e977c-8fd0-45a4-b4d8-835d1cf348a9"},"vehicle_type_id":"4","last_reported":1707062841,"current_range_meters":30400,"station_id":"ce4bh3p2rcd13ifvqdq0","pricing_plan_id":"free"},{"bike_id":"62a8ad0e-7623-4934-8445-c394b3d97e1c","system_id":"levelo_inurba_marseille","lat":43.286591,"lon":5.363346,"is_reserved":false,"is_disabled":false,"rental_uris":{"android":"levelo://app?vid=62a8ad0e-7623-4934-8445-c394b3d97e1c","ios":"levelo://app?vid=62a8ad0e-7623-4934-8445-c394b3d97e1c"},"vehicle_type_id":"4","last_reported":1707062841,"current_range_meters":18400,"station_id":"ce4bhah2rcd13ifvqej0","pricing_plan_id":"free"},{"bike_id":"faa88830-462c-4622-bcc6-d5158cc3f73b","system_id":"levelo_inurba_marseille","lat":43.295196,"lon":5.39397,"is_reserved":false,"is_disabled":false,"rental_uris":{"android":"levelo://app?vid=faa88830-462c-4622-bcc6-d5158cc3f73b","ios":"levelo://app?vid=faa88830-462c-4622-bcc6-d5158cc3f73b"},"vehicle_type_id":"4","last_reported":1707062841,"current_range_meters":7600,"station_id":"ce4bh292rcd13ifvqdf0","pricing_plan_id":"free"},{"bike_id":"3fddcf7c-82b8-456f-9145-e6c2cdf28f67","system_id":"levelo_inurba_marseille","lat":43.286039,"lon":5.370679,"is_reserved":false,"is_disabled":false,"rental_uris":{"android":"levelo://app?vid=3fddcf7c-82b8-456f-9145-e6c2cdf28f67","ios":"levelo://app?vid=3fddcf7c-82b8-456f-9145-e6c2cdf28f67"},"vehicle_type_id":"4","last_reported":1707062841,"current_range_meters":16000,"station_id":"ce4bht12rcd13ifvqi60","pricing_plan_id":"free"},{"bike_id":"83263344-73a1-424e-a2bb-5bca6394723a","system_id":"levelo_inurba_marseille","lat":43.286039,"lon":5.370679,"is_reserved":false,"is_disabled":false,"rental_uris":{"android":"levelo://app?vid=83263344-73a1-424e-a2bb-5bca6394723a","ios":"levelo://app?vid=83263344-73a1-424e-a2bb-5bca6394723a"},"vehicle_type_id":"4","last_reported":1707062841,"current_range_meters":1600,"station_id":"ce4bht12rcd13ifvqi60","pricing_plan_id":"free"},{"bike_id":"959ddf3a-b927-4500-9bac-6857bd30b5d5","system_id":"levelo_inurba_marseille","lat":43.286594,"lon":5.383336,"is_reserved":false,"is_disabled":false,"rental_uris":{"android":"levelo://app?vid=959ddf3a-b927-4500-9bac-6857bd30b5d5","ios":"levelo://app?vid=959ddf3a-b927-4500-9bac-6857bd30b5d5"},"vehicle_type_id":"4","last_reported":1707062841,"current_range_meters":11200,"station_id":"","pricing_plan_id":"free"},{"bike_id":"9f26cd74-ec68-4d4a-a170-8fe6529613b3","system_id":"levelo_inurba_marseille","lat":43.28617,"lon":5.35102,"is_reserved":false,"is_disabled":false,"rental_uris":{"android":"levelo://app?vid=9f26cd74-ec68-4d4a-a170-8fe6529613b3","ios":"levelo://app?vid=9f26cd74-ec68-4d4a-a170-8fe6529613b3"},"vehicle_type_id":"4","last_reported":1707062841,"current_range_meters":0,"station_id":"ce4bhch2rcd13ifvqeug","pricing_plan_id":"free"},{"bike_id":"ed55e961-e33d-4e96-863a-a02568b59b0a","system_id":"levelo_inurba_marseille","lat":43.337168,"lon":5.391825,"is_reserved":false,"is_disabled":false,"rental_uris":{"android":"levelo://app?vid=ed55e961-e33d-4e96-863a-a02568b59b0a","ios":"levelo://app?vid=ed55e961-e33d-4e96-863a-a02568b59b0a"},"vehicle_type_id":"4","last_reported":1707062841,"current_range_meters":32000,"station_id":"ce4bhr92rcd13ifvqhsg","pricing_plan_id":"free"},{"bike_id":"843db0e0-593c-4dbd-adf3-4f67f432e08e","system_id":"levelo_inurba_marseille","lat":43.337168,"lon":5.391825,"is_reserved":false,"is_disabled":false,"rental_uris":{"android":"levelo://app?vid=843db0e0-593c-4dbd-adf3-4f67f432e08e","ios":"levelo://app?vid=843db0e0-593c-4dbd-adf3-4f67f432e08e"},"vehicle_type_id":"4","last_reported":1707062841,"current_range_meters":13200,"station_id":"ce4bhr92rcd13ifvqhsg","pricing_plan_id":"free"},{"bike_id":"1e031a5c-8ced-49b8-84a3-d7d25edd0652","system_id":"levelo_inurba_marseille","lat":43.323464,"lon":5.406297,"is_reserved":false,"is_disabled":false,"rental_uris":{"android":"levelo://app?vid=1e031a5c-8ced-49b8-84a3-d7d25edd0652","ios":"levelo://app?vid=1e031a5c-8ced-49b8-84a3-d7d25edd0652"},"vehicle_type_id":"4","last_reported":1707062841,"current_range_meters":3600,"station_id":"ce4bhq92rcd13ifvqhjg","pricing_plan_id":"free"},{"bike_id":"44e6577f-438a-4aad-bd1e-14888fd1d564","system_id":"levelo_inurba_marseille","lat":43.337168,"lon":5.391825,"is_reserved":false,"is_disabled":false,"rental_uris":{"android":"levelo://app?vid=44e6577f-438a-4aad-bd1e-14888fd1d564","ios":"levelo://app?vid=44e6577f-438a-4aad-bd1e-14888fd1d564"},"vehicle_type_id":"4","last_reported":1707062841,"current_range_meters":24800,"station_id":"ce4bhr92rcd13ifvqhsg","pricing_plan_id":"free"},{"bike_id":"7e51d7f9-dc79-4b05-bf78-a940488ee7c1","system_id":"levelo_inurba_marseille","lat":43.284793,"lon":5.384113,"is_reserved":false,"is_disabled":false,"rental_uris":{"android":"levelo://app?vid=7e51d7f9-dc79-4b05-bf78-a940488ee7c1","ios":"levelo://app?vid=7e51d7f9-dc79-4b05-bf78-a940488ee7c1"},"vehicle_type_id":"4","last_reported":1707062841,"current_range_meters":0,"station_id":"ce4bh512rcd13ifvqe3g","pricing_plan_id":"free"},{"bike_id":"35384e4c-a88a-44ab-86d0-33844ab9e2d1","system_id":"levelo_inurba_marseille","lat":43.284793,"lon":5.384119,"is_reserved":false,"is_disabled":false,"rental_uris":{"android":"levelo://app?vid=35384e4c-a88a-44ab-86d0-33844ab9e2d1","ios":"levelo://app?vid=35384e4c-a88a-44ab-86d0-33844ab9e2d1"},"vehicle_type_id":"4","last_reported":1707062841,"current_range_meters":6400,"station_id":"ce4bh512rcd13ifvqe3g","pricing_plan_id":"free"},{"bike_id":"fe766f41-9d37-43e3-ae2e-8810fc100b25","system_id":"levelo_inurba_marseille","lat":43.284793,"lon":5.384113,"is_reserved":false,"is_disabled":false,"rental_uris":{"android":"levelo://app?vid=fe766f41-9d37-43e3-ae2e-8810fc100b25","ios":"levelo://app?vid=fe766f41-9d37-43e3-ae2e-8810fc100b25"},"vehicle_type_id":"4","last_reported":1707062841,"current_range_meters":8400,"station_id":"ce4bh512rcd13ifvqe3g","pricing_plan_id":"free"},{"bike_id":"ea109426-e77b-4c80-a755-f4ffa35e7b24","system_id":"levelo_inurba_marseille","lat":43.284787,"lon":5.384116,"is_reserved":false,"is_disabled":false,"rental_uris":{"android":"levelo://app?vid=ea109426-e77b-4c80-a755-f4ffa35e7b24","ios":"levelo://app?vid=ea109426-e77b-4c80-a755-f4ffa35e7b24"},"vehicle_type_id":"4","last_reported":1707062841,"current_range_meters":24800,"station_id":"ce4bh512rcd13ifvqe3g","pricing_plan_id":"free"},{"bike_id":"15ccfcbf-4c27-4161-a5a3-e84b2b3aa1a2","system_id":"levelo_inurba_marseille","lat":43.284793,"lon":5.384119,"is_reserved":false,"is_disabled":false,"rental_uris":{"android":"levelo://app?vid=15ccfcbf-4c27-4161-a5a3-e84b2b3aa1a2","ios":"levelo://app?vid=15ccfcbf-4c27-4161-a5a3-e84b2b3aa1a2"},"vehicle_type_id":"4","last_reported":1707062841,"current_range_meters":0,"station_id":"ce4bh512rcd13ifvqe3g","pricing_plan_id":"free"},{"bike_id":"5829710b-00d5-4d3d-a29f-7f77fd3a032a","system_id":"levelo_inurba_marseille","lat":43.284787,"lon":5.384116,"is_reserved":false,"is_disabled":false,"rental_uris":{"android":"levelo://app?vid=5829710b-00d5-4d3d-a29f-7f77fd3a032a","ios":"levelo://app?vid=5829710b-00d5-4d3d-a29f-7f77fd3a032a"},"vehicle_type_id":"4","last_reported":1707062841,"current_range_meters":2400,"station_id":"ce4bh512rcd13ifvqe3g","pricing_plan_id":"free"},{"bike_id":"52102960-b68a-4990-97cf-f0e691feb96a","system_id":"levelo_inurba_marseille","lat":43.288501,"lon":5.393087,"is_reserved":false,"is_disabled":false,"rental_uris":{"android":"levelo://app?vid=52102960-b68a-4990-97cf-f0e691feb96a","ios":"levelo://app?vid=52102960-b68a-4990-97cf-f0e691feb96a"},"vehicle_type_id":"4","last_reported":1707062841,"current_range_meters":0,"station_id":"ce4bh2p2rcd13ifvqdi0","pricing_plan_id":"free"},{"bike_id":"30617369-dee0-4d55-aa7d-a2f541b0b943","system_id":"levelo_inurba_marseille","lat":43.284313,"lon":5.349797,"is_reserved":false,"is_disabled":false,"rental_uris":{"android":"levelo://app?vid=30617369-dee0-4d55-aa7d-a2f541b0b943","ios":"levelo://app?vid=30617369-dee0-4d55-aa7d-a2f541b0b943"},"vehicle_type_id":"4","last_reported":1707062841,"current_range_meters":5200,"station_id":"ce4bhbh2rcd13ifvqepg","pricing_plan_id":"free"},{"bike_id":"8b244a50-db4c-4fe7-aabd-ded9686fa0e5","system_id":"levelo_inurba_marseille","lat":43.28424,"lon":5.34984,"is_reserved":false,"is_disabled":false,"rental_uris":{"android":"levelo://app?vid=8b244a50-db4c-4fe7-aabd-ded9686fa0e5","ios":"levelo://app?vid=8b244a50-db4c-4fe7-aabd-ded9686fa0e5"},"vehicle_type_id":"4","last_reported":1707062841,"current_range_meters":0,"station_id":"ce4bhbh2rcd13ifvqepg","pricing_plan_id":"free"},{"bike_id":"3f5a63dc-e36d-4c39-9d5a-2979227c02ba","system_id":"levelo_inurba_marseille","lat":43.284217,"lon":5.349697,"is_reserved":false,"is_disabled":false,"rental_uris":{"android":"levelo://app?vid=3f5a63dc-e36d-4c39-9d5a-2979227c02ba","ios":"levelo://app?vid=3f5a63dc-e36d-4c39-9d5a-2979227c02ba"},"vehicle_type_id":"4","last_reported":1707062841,"current_range_meters":21200,"station_id":"ce4bhbh2rcd13ifvqepg","pricing_plan_id":"free"},{"bike_id":"ea2e0748-8f89-4192-8ab1-5de0ac157260","system_id":"levelo_inurba_marseille","lat":43.289363,"lon":5.396322,"is_reserved":false,"is_disabled":false,"rental_uris":{"android":"levelo://app?vid=ea2e0748-8f89-4192-8ab1-5de0ac157260","ios":"levelo://app?vid=ea2e0748-8f89-4192-8ab1-5de0ac157260"},"vehicle_type_id":"4","last_reported":1707062841,"current_range_meters":2800,"station_id":"ce4bh3h2rcd13ifvqdn0","pricing_plan_id":"free"},{"bike_id":"b0c62b9b-f633-4a8b-9ad2-6d547bdcc2a4","system_id":"levelo_inurba_marseille","lat":43.292724,"lon":5.401131,"is_reserved":false,"is_disabled":false,"rental_uris":{"android":"levelo://app?vid=b0c62b9b-f633-4a8b-9ad2-6d547bdcc2a4","ios":"levelo://app?vid=b0c62b9b-f633-4a8b-9ad2-6d547bdcc2a4"},"vehicle_type_id":"4","last_reported":1707062841,"current_range_meters":23200,"station_id":"ce4bh312rcd13ifvqdk0","pricing_plan_id":"free"},{"bike_id":"a643145f-c189-4ff0-917f-824b6e645ecb","system_id":"levelo_inurba_marseille","lat":43.282754,"lon":5.350519,"is_reserved":false,"is_disabled":false,"rental_uris":{"android":"levelo://app?vid=a643145f-c189-4ff0-917f-824b6e645ecb","ios":"levelo://app?vid=a643145f-c189-4ff0-917f-824b6e645ecb"},"vehicle_type_id":"4","last_reported":1707062841,"current_range_meters":6400,"station_id":"ce4bhbp2rcd13ifvqerg","pricing_plan_id":"free"},{"bike_id":"16f96369-bd3f-4871-bb6b-e7bc05dc13eb","system_id":"levelo_inurba_marseille","lat":43.282744,"lon":5.350533,"is_reserved":false,"is_disabled":false,"rental_uris":{"android":"levelo://app?vid=16f96369-bd3f-4871-bb6b-e7bc05dc13eb","ios":"levelo://app?vid=16f96369-bd3f-4871-bb6b-e7bc05dc13eb"},"vehicle_type_id":"4","last_reported":1707062841,"current_range_meters":0,"station_id":"ce4bhbp2rcd13ifvqerg","pricing_plan_id":"free"},{"bike_id":"f0a959ba-3b27-4e11-b72c-8e381b1f975b","system_id":"levelo_inurba_marseille","lat":43.282754,"lon":5.350519,"is_reserved":false,"is_disabled":false,"rental_uris":{"android":"levelo://app?vid=f0a959ba-3b27-4e11-b72c-8e381b1f975b","ios":"levelo://app?vid=f0a959ba-3b27-4e11-b72c-8e381b1f975b"},"vehicle_type_id":"4","last_reported":1707062841,"current_range_meters":0,"station_id":"ce4bhbp2rcd13ifvqerg","pricing_plan_id":"free"},{"bike_id":"9deb46c0-fab2-4746-b989-b6c1b86883e8","system_id":"levelo_inurba_marseille","lat":43.282754,"lon":5.350519,"is_reserved":false,"is_disabled":false,"rental_uris":{"android":"levelo://app?vid=9deb46c0-fab2-4746-b989-b6c1b86883e8","ios":"levelo://app?vid=9deb46c0-fab2-4746-b989-b6c1b86883e8"},"vehicle_type_id":"4","last_reported":1707062841,"current_range_meters":17200,"station_id":"ce4bhbp2rcd13ifvqerg","pricing_plan_id":"free"},{"bike_id":"2ff68263-c775-431c-8924-8906afbd4707","system_id":"levelo_inurba_marseille","lat":43.282754,"lon":5.350519,"is_reserved":false,"is_disabled":false,"rental_uris":{"android":"levelo://app?vid=2ff68263-c775-431c-8924-8906afbd4707","ios":"levelo://app?vid=2ff68263-c775-431c-8924-8906afbd4707"},"vehicle_type_id":"4","last_reported":1707062841,"current_range_meters":21600,"station_id":"ce4bhbp2rcd13ifvqerg","pricing_plan_id":"free"},{"bike_id":"4837c291-0127-4a5b-9ec4-68f9c4983fe8","system_id":"levelo_inurba_marseille","lat":43.282711,"lon":5.35074,"is_reserved":false,"is_disabled":false,"rental_uris":{"android":"levelo://app?vid=4837c291-0127-4a5b-9ec4-68f9c4983fe8","ios":"levelo://app?vid=4837c291-0127-4a5b-9ec4-68f9c4983fe8"},"vehicle_type_id":"4","last_reported":1707062841,"current_range_meters":11200,"station_id":"ce4bhbp2rcd13ifvqerg","pricing_plan_id":"free"},{"bike_id":"2159546c-dcbe-4fe3-a281-f943bdd0c3b5","system_id":"levelo_inurba_marseille","lat":43.282744,"lon":5.350533,"is_reserved":false,"is_disabled":false,"rental_uris":{"android":"levelo://app?vid=2159546c-dcbe-4fe3-a281-f943bdd0c3b5","ios":"levelo://app?vid=2159546c-dcbe-4fe3-a281-f943bdd0c3b5"},"vehicle_type_id":"4","last_reported":1707062841,"current_range_meters":0,"station_id":"ce4bhbp2rcd13ifvqerg","pricing_plan_id":"free"},{"bike_id":"e6120240-2b3c-46e5-a9e5-8e3953bc8ac8","system_id":"levelo_inurba_marseille","lat":43.282683,"lon":5.35071,"is_reserved":false,"is_disabled":false,"rental_uris":{"android":"levelo://app?vid=e6120240-2b3c-46e5-a9e5-8e3953bc8ac8","ios":"levelo://app?vid=e6120240-2b3c-46e5-a9e5-8e3953bc8ac8"},"vehicle_type_id":"4","last_reported":1707062841,"current_range_meters":0,"station_id":"ce4bhbp2rcd13ifvqerg","pricing_plan_id":"free"},{"bike_id":"0e48a345-930e-4cdd-add6-c3c834f908d3","system_id":"levelo_inurba_marseille","lat":43.2827,"lon":5.350645,"is_reserved":false,"is_disabled":false,"rental_uris":{"android":"levelo://app?vid=0e48a345-930e-4cdd-add6-c3c834f908d3","ios":"levelo://app?vid=0e48a345-930e-4cdd-add6-c3c834f908d3"},"vehicle_type_id":"4","last_reported":1707062841,"current_range_meters":0,"station_id":"ce4bhbp2rcd13ifvqerg","pricing_plan_id":"free"},{"bike_id":"f75fec5e-f27f-41af-8ef9-d0e582849e1d","system_id":"levelo_inurba_marseille","lat":43.28264,"lon":5.350743,"is_reserved":false,"is_disabled":false,"rental_uris":{"android":"levelo://app?vid=f75fec5e-f27f-41af-8ef9-d0e582849e1d","ios":"levelo://app?vid=f75fec5e-f27f-41af-8ef9-d0e582849e1d"},"vehicle_type_id":"4","last_reported":1707062841,"current_range_meters":14400,"station_id":"ce4bhbp2rcd13ifvqerg","pricing_plan_id":"free"},{"bike_id":"74fae82a-c852-4235-a92b-055888353ec6","system_id":"levelo_inurba_marseille","lat":43.282634,"lon":5.350713,"is_reserved":false,"is_disabled":false,"rental_uris":{"android":"levelo://app?vid=74fae82a-c852-4235-a92b-055888353ec6","ios":"levelo://app?vid=74fae82a-c852-4235-a92b-055888353ec6"},"vehicle_type_id":"4","last_reported":1707062841,"current_range_meters":0,"station_id":"ce4bhbp2rcd13ifvqerg","pricing_plan_id":"free"},{"bike_id":"eebe70ca-64f3-411c-adae-7d89b9f782aa","system_id":"levelo_inurba_marseille","lat":43.282744,"lon":5.350533,"is_reserved":false,"is_disabled":false,"rental_uris":{"android":"levelo://app?vid=eebe70ca-64f3-411c-adae-7d89b9f782aa","ios":"levelo://app?vid=eebe70ca-64f3-411c-adae-7d89b9f782aa"},"vehicle_type_id":"4","last_reported":1707062841,"current_range_meters":0,"station_id":"ce4bhbp2rcd13ifvqerg","pricing_plan_id":"free"},{"bike_id":"d46f6609-b09c-4987-b699-7e45e49c5633","system_id":"levelo_inurba_marseille","lat":43.28039,"lon":5.369297,"is_reserved":false,"is_disabled":false,"rental_uris":{"android":"levelo://app?vid=d46f6609-b09c-4987-b699-7e45e49c5633","ios":"levelo://app?vid=d46f6609-b09c-4987-b699-7e45e49c5633"},"vehicle_type_id":"4","last_reported":1707062841,"current_range_meters":7200,"station_id":"ce4bha12rcd13ifvqef0","pricing_plan_id":"free"},{"bike_id":"88e34325-e6c7-4a5d-a929-2181f1172139","system_id":"levelo_inurba_marseille","lat":43.28039,"lon":5.369297,"is_reserved":false,"is_disabled":false,"rental_uris":{"android":"levelo://app?vid=88e34325-e6c7-4a5d-a929-2181f1172139","ios":"levelo://app?vid=88e34325-e6c7-4a5d-a929-2181f1172139"},"vehicle_type_id":"4","last_reported":1707062841,"current_range_meters":7600,"station_id":"ce4bha12rcd13ifvqef0","pricing_plan_id":"free"},{"bike_id":"71d58b92-edec-48ac-a338-0c7404e39a67","system_id":"levelo_inurba_marseille","lat":43.282519,"lon":5.35004,"is_reserved":false,"is_disabled":false,"rental_uris":{"android":"levelo://app?vid=71d58b92-edec-48ac-a338-0c7404e39a67","ios":"levelo://app?vid=71d58b92-edec-48ac-a338-0c7404e39a67"},"vehicle_type_id":"4","last_reported":1707062841,"current_range_meters":1600,"station_id":"ce4bhbp2rcd13ifvqerg","pricing_plan_id":"free"},{"bike_id":"5a0737ee-ea82-4c5a-89dd-8998f5900ea4","system_id":"levelo_inurba_marseille","lat":43.29041,"lon":5.399634,"is_reserved":false,"is_disabled":false,"rental_uris":{"android":"levelo://app?vid=5a0737ee-ea82-4c5a-89dd-8998f5900ea4","ios":"levelo://app?vid=5a0737ee-ea82-4c5a-89dd-8998f5900ea4"},"vehicle_type_id":"4","last_reported":1707062841,"current_range_meters":1600,"station_id":"ce4bh392rcd13ifvqdm0","pricing_plan_id":"free"},{"bike_id":"4b4fffe8-430b-487b-933d-51f0343f009d","system_id":"levelo_inurba_marseille","lat":43.296263,"lon":5.40601,"is_reserved":false,"is_disabled":false,"rental_uris":{"android":"levelo://app?vid=4b4fffe8-430b-487b-933d-51f0343f009d","ios":"levelo://app?vid=4b4fffe8-430b-487b-933d-51f0343f009d"},"vehicle_type_id":"4","last_reported":1707062841,"current_range_meters":0,"station_id":"ce4bh0h2rcd13ifvqd60","pricing_plan_id":"free"},{"bike_id":"523c8b62-a394-427c-83ac-1e8f246890d3","system_id":"levelo_inurba_marseille","lat":43.281795,"lon":5.38301,"is_reserved":false,"is_disabled":false,"rental_uris":{"android":"levelo://app?vid=523c8b62-a394-427c-83ac-1e8f246890d3","ios":"levelo://app?vid=523c8b62-a394-427c-83ac-1e8f246890d3"},"vehicle_type_id":"4","last_reported":1707062841,"current_range_meters":2400,"station_id":"","pricing_plan_id":"free"},{"bike_id":"1a15987a-cc55-4015-b659-d0b65e9c3165","system_id":"levelo_inurba_marseille","lat":43.284462,"lon":5.392121,"is_reserved":false,"is_disabled":false,"rental_uris":{"android":"levelo://app?vid=1a15987a-cc55-4015-b659-d0b65e9c3165","ios":"levelo://app?vid=1a15987a-cc55-4015-b659-d0b65e9c3165"},"vehicle_type_id":"4","last_reported":1707062841,"current_range_meters":20800,"station_id":"ce4bhoh2rcd13ifvqh5g","pricing_plan_id":"free"},{"bike_id":"b5945f44-a3ab-43e4-820c-e6c14170df87","system_id":"levelo_inurba_marseille","lat":43.284462,"lon":5.392121,"is_reserved":false,"is_disabled":false,"rental_uris":{"android":"levelo://app?vid=b5945f44-a3ab-43e4-820c-e6c14170df87","ios":"levelo://app?vid=b5945f44-a3ab-43e4-820c-e6c14170df87"},"vehicle_type_id":"4","last_reported":1707062841,"current_range_meters":11600,"station_id":"ce4bhoh2rcd13ifvqh5g","pricing_plan_id":"free"},{"bike_id":"5035c792-005e-48d3-a327-6f17bdce5cd3","system_id":"levelo_inurba_marseille","lat":43.326605,"lon":5.409903,"is_reserved":false,"is_disabled":false,"rental_uris":{"android":"levelo://app?vid=5035c792-005e-48d3-a327-6f17bdce5cd3","ios":"levelo://app?vid=5035c792-005e-48d3-a327-6f17bdce5cd3"},"vehicle_type_id":"4","last_reported":1707062841,"current_range_meters":10400,"station_id":"ce4bhpp2rcd13ifvqhgg","pricing_plan_id":"free"},{"bike_id":"bde9b0fd-1386-4c55-b02a-bed604238378","system_id":"levelo_inurba_marseille","lat":43.326605,"lon":5.409903,"is_reserved":false,"is_disabled":false,"rental_uris":{"android":"levelo://app?vid=bde9b0fd-1386-4c55-b02a-bed604238378","ios":"levelo://app?vid=bde9b0fd-1386-4c55-b02a-bed604238378"},"vehicle_type_id":"4","last_reported":1707062841,"current_range_meters":4400,"station_id":"ce4bhpp2rcd13ifvqhgg","pricing_plan_id":"free"},{"bike_id":"465b1140-422b-4e3f-8759-aa860f7686a1","system_id":"levelo_inurba_marseille","lat":43.326605,"lon":5.409903,"is_reserved":false,"is_disabled":false,"rental_uris":{"android":"levelo://app?vid=465b1140-422b-4e3f-8759-aa860f7686a1","ios":"levelo://app?vid=465b1140-422b-4e3f-8759-aa860f7686a1"},"vehicle_type_id":"4","last_reported":1707062841,"current_range_meters":22400,"station_id":"ce4bhpp2rcd13ifvqhgg","pricing_plan_id":"free"},{"bike_id":"d0da0e34-6499-464f-a070-98edb25b2535","system_id":"levelo_inurba_marseille","lat":43.304188,"lon":5.412904,"is_reserved":false,"is_disabled":false,"rental_uris":{"android":"levelo://app?vid=d0da0e34-6499-464f-a070-98edb25b2535","ios":"levelo://app?vid=d0da0e34-6499-464f-a070-98edb25b2535"},"vehicle_type_id":"4","last_reported":1707062841,"current_range_meters":26400,"station_id":"ce4bhop2rcd13ifvqh8g","pricing_plan_id":"free"},{"bike_id":"8054ed49-d5c2-41ab-b125-c4cccc79c11e","system_id":"levelo_inurba_marseille","lat":43.28703,"lon":5.39976,"is_reserved":false,"is_disabled":false,"rental_uris":{"android":"levelo://app?vid=8054ed49-d5c2-41ab-b125-c4cccc79c11e","ios":"levelo://app?vid=8054ed49-d5c2-41ab-b125-c4cccc79c11e"},"vehicle_type_id":"4","last_reported":1707062841,"current_range_meters":0,"station_id":"ce4bho92rcd13ifvqh3g","pricing_plan_id":"free"},{"bike_id":"0e31fcb3-e712-4579-82d0-e1765c018971","system_id":"levelo_inurba_marseille","lat":43.28707,"lon":5.39986,"is_reserved":false,"is_disabled":false,"rental_uris":{"android":"levelo://app?vid=0e31fcb3-e712-4579-82d0-e1765c018971","ios":"levelo://app?vid=0e31fcb3-e712-4579-82d0-e1765c018971"},"vehicle_type_id":"4","last_reported":1707062841,"current_range_meters":0,"station_id":"ce4bho92rcd13ifvqh3g","pricing_plan_id":"free"},{"bike_id":"96d16338-1e0a-45ce-a25b-89df42da7886","system_id":"levelo_inurba_marseille","lat":43.320045,"lon":5.415046,"is_reserved":false,"is_disabled":false,"rental_uris":{"android":"levelo://app?vid=96d16338-1e0a-45ce-a25b-89df42da7886","ios":"levelo://app?vid=96d16338-1e0a-45ce-a25b-89df42da7886"},"vehicle_type_id":"4","last_reported":1707062841,"current_range_meters":26400,"station_id":"ce4bhq92rcd13ifvqhkg","pricing_plan_id":"free"},{"bike_id":"f580eeb1-bbf7-44bf-9634-ebcd4afc5a64","system_id":"levelo_inurba_marseille","lat":43.27974,"lon":5.38751,"is_reserved":false,"is_disabled":false,"rental_uris":{"android":"levelo://app?vid=f580eeb1-bbf7-44bf-9634-ebcd4afc5a64","ios":"levelo://app?vid=f580eeb1-bbf7-44bf-9634-ebcd4afc5a64"},"vehicle_type_id":"4","last_reported":1707062841,"current_range_meters":0,"station_id":"ce4bhg12rcd13ifvqf80","pricing_plan_id":"free"},{"bike_id":"3280fc1a-b14f-434f-b9fb-25919f7584df","system_id":"levelo_inurba_marseille","lat":43.292569,"lon":5.409107,"is_reserved":false,"is_disabled":false,"rental_uris":{"android":"levelo://app?vid=3280fc1a-b14f-434f-b9fb-25919f7584df","ios":"levelo://app?vid=3280fc1a-b14f-434f-b9fb-25919f7584df"},"vehicle_type_id":"4","last_reported":1707062841,"current_range_meters":25200,"station_id":"ce4bh192rcd13ifvqdc0","pricing_plan_id":"free"},{"bike_id":"c68ed1e4-ae2d-4f5a-a364-2de2446ebf4b","system_id":"levelo_inurba_marseille","lat":43.27619,"lon":5.36108,"is_reserved":false,"is_disabled":false,"rental_uris":{"android":"levelo://app?vid=c68ed1e4-ae2d-4f5a-a364-2de2446ebf4b","ios":"levelo://app?vid=c68ed1e4-ae2d-4f5a-a364-2de2446ebf4b"},"vehicle_type_id":"4","last_reported":1707062841,"current_range_meters":30000,"station_id":"ce4bgj92rcd13ifvqbe0","pricing_plan_id":"free"},{"bike_id":"777311fc-9f00-46c6-aa00-0f0d568e211c","system_id":"levelo_inurba_marseille","lat":43.280784,"lon":5.396622,"is_reserved":false,"is_disabled":false,"rental_uris":{"android":"levelo://app?vid=777311fc-9f00-46c6-aa00-0f0d568e211c","ios":"levelo://app?vid=777311fc-9f00-46c6-aa00-0f0d568e211c"},"vehicle_type_id":"4","last_reported":1707062841,"current_range_meters":5600,"station_id":"ce4bho12rcd13ifvqh2g","pricing_plan_id":"free"},{"bike_id":"7cf72504-4c80-430c-9b27-5f10231da0b5","system_id":"levelo_inurba_marseille","lat":43.27383,"lon":5.36246,"is_reserved":false,"is_disabled":false,"rental_uris":{"android":"levelo://app?vid=7cf72504-4c80-430c-9b27-5f10231da0b5","ios":"levelo://app?vid=7cf72504-4c80-430c-9b27-5f10231da0b5"},"vehicle_type_id":"4","last_reported":1707062841,"current_range_meters":28000,"station_id":"ce4bhbh2rcd13ifvqeo0","pricing_plan_id":"free"},{"bike_id":"179c88b2-94bb-4141-96e6-2ff3c31aa976","system_id":"levelo_inurba_marseille","lat":43.273613,"lon":5.362705,"is_reserved":false,"is_disabled":false,"rental_uris":{"android":"levelo://app?vid=179c88b2-94bb-4141-96e6-2ff3c31aa976","ios":"levelo://app?vid=179c88b2-94bb-4141-96e6-2ff3c31aa976"},"vehicle_type_id":"4","last_reported":1707062841,"current_range_meters":4000,"station_id":"ce4bhbh2rcd13ifvqeo0","pricing_plan_id":"free"},{"bike_id":"ad6fdb8e-ba9f-4c41-bbdb-d8a913f8f1c8","system_id":"levelo_inurba_marseille","lat":43.273613,"lon":5.362705,"is_reserved":false,"is_disabled":false,"rental_uris":{"android":"levelo://app?vid=ad6fdb8e-ba9f-4c41-bbdb-d8a913f8f1c8","ios":"levelo://app?vid=ad6fdb8e-ba9f-4c41-bbdb-d8a913f8f1c8"},"vehicle_type_id":"4","last_reported":1707062841,"current_range_meters":15200,"station_id":"ce4bhbh2rcd13ifvqeo0","pricing_plan_id":"free"},{"bike_id":"48011769-0f10-42ef-91cf-6074d9cc01bb","system_id":"levelo_inurba_marseille","lat":43.273613,"lon":5.362705,"is_reserved":false,"is_disabled":false,"rental_uris":{"android":"levelo://app?vid=48011769-0f10-42ef-91cf-6074d9cc01bb","ios":"levelo://app?vid=48011769-0f10-42ef-91cf-6074d9cc01bb"},"vehicle_type_id":"4","last_reported":1707062841,"current_range_meters":0,"station_id":"ce4bhbh2rcd13ifvqeo0","pricing_plan_id":"free"},{"bike_id":"3ece7263-a09b-4942-bd6d-99e53cd561f3","system_id":"levelo_inurba_marseille","lat":43.27376,"lon":5.36247,"is_reserved":false,"is_disabled":false,"rental_uris":{"android":"levelo://app?vid=3ece7263-a09b-4942-bd6d-99e53cd561f3","ios":"levelo://app?vid=3ece7263-a09b-4942-bd6d-99e53cd561f3"},"vehicle_type_id":"4","last_reported":1707062841,"current_range_meters":12000,"station_id":"ce4bhbh2rcd13ifvqeo0","pricing_plan_id":"free"},{"bike_id":"dca07654-ef30-4793-b615-b1d5a701cb1a","system_id":"levelo_inurba_marseille","lat":43.27375,"lon":5.36247,"is_reserved":false,"is_disabled":false,"rental_uris":{"android":"levelo://app?vid=dca07654-ef30-4793-b615-b1d5a701cb1a","ios":"levelo://app?vid=dca07654-ef30-4793-b615-b1d5a701cb1a"},"vehicle_type_id":"4","last_reported":1707062841,"current_range_meters":15600,"station_id":"ce4bhbh2rcd13ifvqeo0","pricing_plan_id":"free"},{"bike_id":"d76bcc08-a12e-4012-9528-4e0722b62490","system_id":"levelo_inurba_marseille","lat":43.27373,"lon":5.3625,"is_reserved":false,"is_disabled":false,"rental_uris":{"android":"levelo://app?vid=d76bcc08-a12e-4012-9528-4e0722b62490","ios":"levelo://app?vid=d76bcc08-a12e-4012-9528-4e0722b62490"},"vehicle_type_id":"4","last_reported":1707062841,"current_range_meters":0,"station_id":"ce4bhbh2rcd13ifvqeo0","pricing_plan_id":"free"},{"bike_id":"f28c2e13-93df-4d1a-8194-ae82ac4fc28b","system_id":"levelo_inurba_marseille","lat":43.27369,"lon":5.36254,"is_reserved":false,"is_disabled":false,"rental_uris":{"android":"levelo://app?vid=f28c2e13-93df-4d1a-8194-ae82ac4fc28b","ios":"levelo://app?vid=f28c2e13-93df-4d1a-8194-ae82ac4fc28b"},"vehicle_type_id":"4","last_reported":1707062841,"current_range_meters":0,"station_id":"ce4bhbh2rcd13ifvqeo0","pricing_plan_id":"free"},{"bike_id":"dc594af8-8f0c-4403-9896-884c2144d80a","system_id":"levelo_inurba_marseille","lat":43.336134,"lon":5.410341,"is_reserved":false,"is_disabled":false,"rental_uris":{"android":"levelo://app?vid=dc594af8-8f0c-4403-9896-884c2144d80a","ios":"levelo://app?vid=dc594af8-8f0c-4403-9896-884c2144d80a"},"vehicle_type_id":"4","last_reported":1707062841,"current_range_meters":1600,"station_id":"ce4bhqh2rcd13ifvqhmg","pricing_plan_id":"free"},{"bike_id":"e3fcb552-6301-46a5-a0ef-02997827d85a","system_id":"levelo_inurba_marseille","lat":43.279975,"lon":5.40009,"is_reserved":false,"is_disabled":false,"rental_uris":{"android":"levelo://app?vid=e3fcb552-6301-46a5-a0ef-02997827d85a","ios":"levelo://app?vid=e3fcb552-6301-46a5-a0ef-02997827d85a"},"vehicle_type_id":"4","last_reported":1707062841,"current_range_meters":1200,"station_id":"ce4bho92rcd13ifvqh4g","pricing_plan_id":"free"},{"bike_id":"d6631a1e-95e1-4d14-9455-b37f6a32279d","system_id":"levelo_inurba_marseille","lat":43.31729,"lon":5.42396,"is_reserved":false,"is_disabled":false,"rental_uris":{"android":"levelo://app?vid=d6631a1e-95e1-4d14-9455-b37f6a32279d","ios":"levelo://app?vid=d6631a1e-95e1-4d14-9455-b37f6a32279d"},"vehicle_type_id":"4","last_reported":1707062841,"current_range_meters":2400,"station_id":"ce4bhp92rcd13ifvqhbg","pricing_plan_id":"free"},{"bike_id":"12e2b105-dcb5-40b2-9315-97c4f28fa71b","system_id":"levelo_inurba_marseille","lat":43.31081,"lon":5.42432,"is_reserved":false,"is_disabled":false,"rental_uris":{"android":"levelo://app?vid=12e2b105-dcb5-40b2-9315-97c4f28fa71b","ios":"levelo://app?vid=12e2b105-dcb5-40b2-9315-97c4f28fa71b"},"vehicle_type_id":"4","last_reported":1707062841,"current_range_meters":0,"station_id":"ce4bhp92rcd13ifvqhag","pricing_plan_id":"free"},{"bike_id":"bb73380b-b8d1-4b65-8505-a868b0d9e883","system_id":"levelo_inurba_marseille","lat":43.310785,"lon":5.424305,"is_reserved":false,"is_disabled":false,"rental_uris":{"android":"levelo://app?vid=bb73380b-b8d1-4b65-8505-a868b0d9e883","ios":"levelo://app?vid=bb73380b-b8d1-4b65-8505-a868b0d9e883"},"vehicle_type_id":"4","last_reported":1707062841,"current_range_meters":24400,"station_id":"ce4bhp92rcd13ifvqhag","pricing_plan_id":"free"},{"bike_id":"311f3923-504a-4477-82f9-d481d0645476","system_id":"levelo_inurba_marseille","lat":43.27324,"lon":5.39076,"is_reserved":false,"is_disabled":false,"rental_uris":{"android":"levelo://app?vid=311f3923-504a-4477-82f9-d481d0645476","ios":"levelo://app?vid=311f3923-504a-4477-82f9-d481d0645476"},"vehicle_type_id":"4","last_reported":1707062841,"current_range_meters":0,"station_id":"ce4bhgp2rcd13ifvqfe0","pricing_plan_id":"free"},{"bike_id":"8a533043-931c-4057-8471-f94965d08a5c","system_id":"levelo_inurba_marseille","lat":43.295511,"lon":5.422926,"is_reserved":false,"is_disabled":false,"rental_uris":{"android":"levelo://app?vid=8a533043-931c-4057-8471-f94965d08a5c","ios":"levelo://app?vid=8a533043-931c-4057-8471-f94965d08a5c"},"vehicle_type_id":"4","last_reported":1707062841,"current_range_meters":27200,"station_id":"ce4bhph2rcd13ifvqhdg","pricing_plan_id":"free"},{"bike_id":"0bb9700b-5b37-4378-9222-dde44a5facc1","system_id":"levelo_inurba_marseille","lat":43.272124,"lon":5.391768,"is_reserved":false,"is_disabled":false,"rental_uris":{"android":"levelo://app?vid=0bb9700b-5b37-4378-9222-dde44a5facc1","ios":"levelo://app?vid=0bb9700b-5b37-4378-9222-dde44a5facc1"},"vehicle_type_id":"4","last_reported":1707062841,"current_range_meters":25200,"station_id":"ce4bhhp2rcd13ifvqfm0","pricing_plan_id":"free"},{"bike_id":"f9227bf6-668e-41e5-bca6-8d27e8666116","system_id":"levelo_inurba_marseille","lat":43.272116,"lon":5.391747,"is_reserved":false,"is_disabled":false,"rental_uris":{"android":"levelo://app?vid=f9227bf6-668e-41e5-bca6-8d27e8666116","ios":"levelo://app?vid=f9227bf6-668e-41e5-bca6-8d27e8666116"},"vehicle_type_id":"4","last_reported":1707062841,"current_range_meters":13200,"station_id":"ce4bhhp2rcd13ifvqfm0","pricing_plan_id":"free"},{"bike_id":"7419464e-49a0-46af-804b-ffd3169d47c5","system_id":"levelo_inurba_marseille","lat":43.269467,"lon":5.386439,"is_reserved":false,"is_disabled":false,"rental_uris":{"android":"levelo://app?vid=7419464e-49a0-46af-804b-ffd3169d47c5","ios":"levelo://app?vid=7419464e-49a0-46af-804b-ffd3169d47c5"},"vehicle_type_id":"4","last_reported":1707062841,"current_range_meters":0,"station_id":"ce4bhh92rcd13ifvqfh0","pricing_plan_id":"free"},{"bike_id":"78448968-b8e4-4e1f-b8da-ceebaec6a91b","system_id":"levelo_inurba_marseille","lat":43.299317,"lon":5.425927,"is_reserved":false,"is_disabled":false,"rental_uris":{"android":"levelo://app?vid=78448968-b8e4-4e1f-b8da-ceebaec6a91b","ios":"levelo://app?vid=78448968-b8e4-4e1f-b8da-ceebaec6a91b"},"vehicle_type_id":"4","last_reported":1707062841,"current_range_meters":20000,"station_id":"","pricing_plan_id":"free"},{"bike_id":"2dc65234-087c-4ee2-907c-7c41205c720a","system_id":"levelo_inurba_marseille","lat":43.2781,"lon":5.40715,"is_reserved":false,"is_disabled":false,"rental_uris":{"android":"levelo://app?vid=2dc65234-087c-4ee2-907c-7c41205c720a","ios":"levelo://app?vid=2dc65234-087c-4ee2-907c-7c41205c720a"},"vehicle_type_id":"4","last_reported":1707062841,"current_range_meters":22000,"station_id":"ce4bhnh2rcd13ifvqgtg","pricing_plan_id":"free"},{"bike_id":"dac7e058-f6fb-42b9-94c8-335b7a7f9b2d","system_id":"levelo_inurba_marseille","lat":43.295043,"lon":5.426224,"is_reserved":false,"is_disabled":false,"rental_uris":{"android":"levelo://app?vid=dac7e058-f6fb-42b9-94c8-335b7a7f9b2d","ios":"levelo://app?vid=dac7e058-f6fb-42b9-94c8-335b7a7f9b2d"},"vehicle_type_id":"4","last_reported":1707062841,"current_range_meters":31200,"station_id":"","pricing_plan_id":"free"},{"bike_id":"cb8a92ce-77f9-4a41-a36d-b54e4ed68fba","system_id":"levelo_inurba_marseille","lat":43.27996,"lon":5.416624,"is_reserved":false,"is_disabled":false,"rental_uris":{"android":"levelo://app?vid=cb8a92ce-77f9-4a41-a36d-b54e4ed68fba","ios":"levelo://app?vid=cb8a92ce-77f9-4a41-a36d-b54e4ed68fba"},"vehicle_type_id":"4","last_reported":1707062841,"current_range_meters":16000,"station_id":"ce4bho12rcd13ifvqh1g","pricing_plan_id":"free"},{"bike_id":"2846b1eb-52a5-440c-8e60-617811a97436","system_id":"levelo_inurba_marseille","lat":43.267966,"lon":5.393976,"is_reserved":false,"is_disabled":false,"rental_uris":{"android":"levelo://app?vid=2846b1eb-52a5-440c-8e60-617811a97436","ios":"levelo://app?vid=2846b1eb-52a5-440c-8e60-617811a97436"},"vehicle_type_id":"4","last_reported":1707062841,"current_range_meters":12400,"station_id":"ce4bhh12rcd13ifvqfg0","pricing_plan_id":"free"},{"bike_id":"cc3c4bd0-815b-4df7-895c-f89f0b257e5c","system_id":"levelo_inurba_marseille","lat":43.2679,"lon":5.39412,"is_reserved":false,"is_disabled":false,"rental_uris":{"android":"levelo://app?vid=cc3c4bd0-815b-4df7-895c-f89f0b257e5c","ios":"levelo://app?vid=cc3c4bd0-815b-4df7-895c-f89f0b257e5c"},"vehicle_type_id":"4","last_reported":1707062841,"current_range_meters":24000,"station_id":"ce4bhg12rcd13ifvqf70","pricing_plan_id":"free"},{"bike_id":"38e27fa4-9e50-4773-b737-bca9c48c11cf","system_id":"levelo_inurba_marseille","lat":43.267966,"lon":5.393976,"is_reserved":false,"is_disabled":false,"rental_uris":{"android":"levelo://app?vid=38e27fa4-9e50-4773-b737-bca9c48c11cf","ios":"levelo://app?vid=38e27fa4-9e50-4773-b737-bca9c48c11cf"},"vehicle_type_id":"4","last_reported":1707062841,"current_range_meters":5200,"station_id":"ce4bhh12rcd13ifvqfg0","pricing_plan_id":"free"},{"bike_id":"55f6ba18-8b47-4ba0-bb47-0a5234bf0bf1","system_id":"levelo_inurba_marseille","lat":43.26781,"lon":5.39422,"is_reserved":false,"is_disabled":false,"rental_uris":{"android":"levelo://app?vid=55f6ba18-8b47-4ba0-bb47-0a5234bf0bf1","ios":"levelo://app?vid=55f6ba18-8b47-4ba0-bb47-0a5234bf0bf1"},"vehicle_type_id":"4","last_reported":1707062841,"current_range_meters":0,"station_id":"ce4bhh12rcd13ifvqfg0","pricing_plan_id":"free"},{"bike_id":"c9fdcb4a-16c7-439f-99ae-df458f1978c4","system_id":"levelo_inurba_marseille","lat":43.308051,"lon":5.43527,"is_reserved":false,"is_disabled":false,"rental_uris":{"android":"levelo://app?vid=c9fdcb4a-16c7-439f-99ae-df458f1978c4","ios":"levelo://app?vid=c9fdcb4a-16c7-439f-99ae-df458f1978c4"},"vehicle_type_id":"4","last_reported":1707062841,"current_range_meters":23600,"station_id":"ce4bhph2rcd13ifvqheg","pricing_plan_id":"free"},{"bike_id":"170e3ec4-8ec9-4dcb-881c-fe439a5e7325","system_id":"levelo_inurba_marseille","lat":43.26568,"lon":5.39019,"is_reserved":false,"is_disabled":false,"rental_uris":{"android":"levelo://app?vid=170e3ec4-8ec9-4dcb-881c-fe439a5e7325","ios":"levelo://app?vid=170e3ec4-8ec9-4dcb-881c-fe439a5e7325"},"vehicle_type_id":"4","last_reported":1707062841,"current_range_meters":4400,"station_id":"ce4bhe12rcd13ifvqf30","pricing_plan_id":"free"},{"bike_id":"b2fa6f90-f0f6-488b-8d7e-42b1bbdd8fbe","system_id":"levelo_inurba_marseille","lat":43.26564,"lon":5.39018,"is_reserved":false,"is_disabled":false,"rental_uris":{"android":"levelo://app?vid=b2fa6f90-f0f6-488b-8d7e-42b1bbdd8fbe","ios":"levelo://app?vid=b2fa6f90-f0f6-488b-8d7e-42b1bbdd8fbe"},"vehicle_type_id":"4","last_reported":1707062841,"current_range_meters":1600,"station_id":"ce4bhe12rcd13ifvqf30","pricing_plan_id":"free"},{"bike_id":"fca920a5-1d73-4db8-b7b6-75ceb7496db3","system_id":"levelo_inurba_marseille","lat":43.26949,"lon":5.40262,"is_reserved":false,"is_disabled":false,"rental_uris":{"android":"levelo://app?vid=fca920a5-1d73-4db8-b7b6-75ceb7496db3","ios":"levelo://app?vid=fca920a5-1d73-4db8-b7b6-75ceb7496db3"},"vehicle_type_id":"4","last_reported":1707062841,"current_range_meters":4000,"station_id":"cjm6bp8fraef2m0cb0m0","pricing_plan_id":"free"},{"bike_id":"43e71970-a6db-40d4-b51a-605e7262b4d4","system_id":"levelo_inurba_marseille","lat":43.26943,"lon":5.40255,"is_reserved":false,"is_disabled":false,"rental_uris":{"android":"levelo://app?vid=43e71970-a6db-40d4-b51a-605e7262b4d4","ios":"levelo://app?vid=43e71970-a6db-40d4-b51a-605e7262b4d4"},"vehicle_type_id":"4","last_reported":1707062841,"current_range_meters":26000,"station_id":"cjm6bp8fraef2m0cb0m0","pricing_plan_id":"free"},{"bike_id":"952cbb2e-c631-441e-9055-c50bb397e67f","system_id":"levelo_inurba_marseille","lat":43.26949,"lon":5.40262,"is_reserved":false,"is_disabled":false,"rental_uris":{"android":"levelo://app?vid=952cbb2e-c631-441e-9055-c50bb397e67f","ios":"levelo://app?vid=952cbb2e-c631-441e-9055-c50bb397e67f"},"vehicle_type_id":"4","last_reported":1707062841,"current_range_meters":29200,"station_id":"cjm6bp8fraef2m0cb0m0","pricing_plan_id":"free"},{"bike_id":"3b97f61f-c01c-4096-9f1a-108c714e06bf","system_id":"levelo_inurba_marseille","lat":43.26943,"lon":5.40259,"is_reserved":false,"is_disabled":false,"rental_uris":{"android":"levelo://app?vid=3b97f61f-c01c-4096-9f1a-108c714e06bf","ios":"levelo://app?vid=3b97f61f-c01c-4096-9f1a-108c714e06bf"},"vehicle_type_id":"4","last_reported":1707062841,"current_range_meters":5600,"station_id":"cjm6bp8fraef2m0cb0m0","pricing_plan_id":"free"},{"bike_id":"64e391e5-5118-4ad9-9666-3b38d78f940c","system_id":"levelo_inurba_marseille","lat":43.26943,"lon":5.4026,"is_reserved":false,"is_disabled":false,"rental_uris":{"android":"levelo://app?vid=64e391e5-5118-4ad9-9666-3b38d78f940c","ios":"levelo://app?vid=64e391e5-5118-4ad9-9666-3b38d78f940c"},"vehicle_type_id":"4","last_reported":1707062841,"current_range_meters":20800,"station_id":"cjm6bp8fraef2m0cb0m0","pricing_plan_id":"free"},{"bike_id":"d95bbae0-a80d-4496-88dd-0c4d4c263309","system_id":"levelo_inurba_marseille","lat":43.26949,"lon":5.40262,"is_reserved":false,"is_disabled":false,"rental_uris":{"android":"levelo://app?vid=d95bbae0-a80d-4496-88dd-0c4d4c263309","ios":"levelo://app?vid=d95bbae0-a80d-4496-88dd-0c4d4c263309"},"vehicle_type_id":"4","last_reported":1707062841,"current_range_meters":15600,"station_id":"cjm6bp8fraef2m0cb0m0","pricing_plan_id":"free"},{"bike_id":"140ea124-24b2-4aae-bc00-d354d2eb4944","system_id":"levelo_inurba_marseille","lat":43.26194,"lon":5.37441,"is_reserved":false,"is_disabled":false,"rental_uris":{"android":"levelo://app?vid=140ea124-24b2-4aae-bc00-d354d2eb4944","ios":"levelo://app?vid=140ea124-24b2-4aae-bc00-d354d2eb4944"},"vehicle_type_id":"4","last_reported":1707062841,"current_range_meters":21600,"station_id":"ce4bhgp2rcd13ifvqfc0","pricing_plan_id":"free"},{"bike_id":"1de6e920-1b48-4c2d-a49f-708571c53507","system_id":"levelo_inurba_marseille","lat":43.26194,"lon":5.37443,"is_reserved":false,"is_disabled":false,"rental_uris":{"android":"levelo://app?vid=1de6e920-1b48-4c2d-a49f-708571c53507","ios":"levelo://app?vid=1de6e920-1b48-4c2d-a49f-708571c53507"},"vehicle_type_id":"4","last_reported":1707062841,"current_range_meters":0,"station_id":"ce4bhgp2rcd13ifvqfc0","pricing_plan_id":"free"},{"bike_id":"78573909-6664-4b0f-881b-fcbe013b058a","system_id":"levelo_inurba_marseille","lat":43.261782,"lon":5.374515,"is_reserved":false,"is_disabled":false,"rental_uris":{"android":"levelo://app?vid=78573909-6664-4b0f-881b-fcbe013b058a","ios":"levelo://app?vid=78573909-6664-4b0f-881b-fcbe013b058a"},"vehicle_type_id":"4","last_reported":1707062841,"current_range_meters":5200,"station_id":"ce4bhgp2rcd13ifvqfc0","pricing_plan_id":"free"},{"bike_id":"992f92e1-a905-4241-ad46-00c4fd7d7a97","system_id":"levelo_inurba_marseille","lat":43.261782,"lon":5.374515,"is_reserved":false,"is_disabled":false,"rental_uris":{"android":"levelo://app?vid=992f92e1-a905-4241-ad46-00c4fd7d7a97","ios":"levelo://app?vid=992f92e1-a905-4241-ad46-00c4fd7d7a97"},"vehicle_type_id":"4","last_reported":1707062841,"current_range_meters":0,"station_id":"ce4bhgp2rcd13ifvqfc0","pricing_plan_id":"free"},{"bike_id":"cf67a02b-5b0e-4db4-8f8c-0ccb513642c8","system_id":"levelo_inurba_marseille","lat":43.2619,"lon":5.37443,"is_reserved":false,"is_disabled":false,"rental_uris":{"android":"levelo://app?vid=cf67a02b-5b0e-4db4-8f8c-0ccb513642c8","ios":"levelo://app?vid=cf67a02b-5b0e-4db4-8f8c-0ccb513642c8"},"vehicle_type_id":"4","last_reported":1707062841,"current_range_meters":22400,"station_id":"ce4bhgp2rcd13ifvqfc0","pricing_plan_id":"free"},{"bike_id":"87ebfae6-223f-4bb7-8107-22ced7b16c65","system_id":"levelo_inurba_marseille","lat":43.261782,"lon":5.374515,"is_reserved":false,"is_disabled":false,"rental_uris":{"android":"levelo://app?vid=87ebfae6-223f-4bb7-8107-22ced7b16c65","ios":"levelo://app?vid=87ebfae6-223f-4bb7-8107-22ced7b16c65"},"vehicle_type_id":"4","last_reported":1707062841,"current_range_meters":0,"station_id":"ce4bhgp2rcd13ifvqfc0","pricing_plan_id":"free"},{"bike_id":"90c02fd9-1983-4474-9c19-57a295a85ac3","system_id":"levelo_inurba_marseille","lat":43.26188,"lon":5.37447,"is_reserved":false,"is_disabled":false,"rental_uris":{"android":"levelo://app?vid=90c02fd9-1983-4474-9c19-57a295a85ac3","ios":"levelo://app?vid=90c02fd9-1983-4474-9c19-57a295a85ac3"},"vehicle_type_id":"4","last_reported":1707062841,"current_range_meters":30000,"station_id":"ce4bhgp2rcd13ifvqfc0","pricing_plan_id":"free"},{"bike_id":"59ec9393-aa99-4e7d-bb44-f8baa97d66f0","system_id":"levelo_inurba_marseille","lat":43.261782,"lon":5.374515,"is_reserved":false,"is_disabled":false,"rental_uris":{"android":"levelo://app?vid=59ec9393-aa99-4e7d-bb44-f8baa97d66f0","ios":"levelo://app?vid=59ec9393-aa99-4e7d-bb44-f8baa97d66f0"},"vehicle_type_id":"4","last_reported":1707062841,"current_range_meters":8400,"station_id":"ce4bhgp2rcd13ifvqfc0","pricing_plan_id":"free"},{"bike_id":"b8674d40-e0c3-4ba4-9b03-368745af9b70","system_id":"levelo_inurba_marseille","lat":43.262105,"lon":5.379258,"is_reserved":false,"is_disabled":false,"rental_uris":{"android":"levelo://app?vid=b8674d40-e0c3-4ba4-9b03-368745af9b70","ios":"levelo://app?vid=b8674d40-e0c3-4ba4-9b03-368745af9b70"},"vehicle_type_id":"4","last_reported":1707062841,"current_range_meters":7200,"station_id":"ce4bhjp2rcd13ifvqg90","pricing_plan_id":"free"},{"bike_id":"f5eec5bd-f311-43f5-b771-2c90c8e60da6","system_id":"levelo_inurba_marseille","lat":43.26209,"lon":5.37931,"is_reserved":false,"is_disabled":false,"rental_uris":{"android":"levelo://app?vid=f5eec5bd-f311-43f5-b771-2c90c8e60da6","ios":"levelo://app?vid=f5eec5bd-f311-43f5-b771-2c90c8e60da6"},"vehicle_type_id":"4","last_reported":1707062841,"current_range_meters":0,"station_id":"ce4bhjp2rcd13ifvqg90","pricing_plan_id":"free"},{"bike_id":"6959e218-1aad-4033-8ac7-27a6535a2d3e","system_id":"levelo_inurba_marseille","lat":43.26202,"lon":5.379299,"is_reserved":false,"is_disabled":false,"rental_uris":{"android":"levelo://app?vid=6959e218-1aad-4033-8ac7-27a6535a2d3e","ios":"levelo://app?vid=6959e218-1aad-4033-8ac7-27a6535a2d3e"},"vehicle_type_id":"4","last_reported":1707062841,"current_range_meters":6800,"station_id":"ce4bhjp2rcd13ifvqg90","pricing_plan_id":"free"},{"bike_id":"14d20f87-7147-4c2a-97bf-574cb8e075a5","system_id":"levelo_inurba_marseille","lat":43.267959,"lon":5.402687,"is_reserved":false,"is_disabled":false,"rental_uris":{"android":"levelo://app?vid=14d20f87-7147-4c2a-97bf-574cb8e075a5","ios":"levelo://app?vid=14d20f87-7147-4c2a-97bf-574cb8e075a5"},"vehicle_type_id":"4","last_reported":1707062841,"current_range_meters":21200,"station_id":"ce501612rcd8frsf0b60","pricing_plan_id":"free"},{"bike_id":"9392d294-ec4a-446a-8469-bcca79dc442f","system_id":"levelo_inurba_marseille","lat":43.26805,"lon":5.4029,"is_reserved":false,"is_disabled":false,"rental_uris":{"android":"levelo://app?vid=9392d294-ec4a-446a-8469-bcca79dc442f","ios":"levelo://app?vid=9392d294-ec4a-446a-8469-bcca79dc442f"},"vehicle_type_id":"4","last_reported":1707062841,"current_range_meters":30800,"station_id":"ce501612rcd8frsf0b60","pricing_plan_id":"free"},{"bike_id":"a1f13d4f-40c1-4973-8af9-ab4ec597183e","system_id":"levelo_inurba_marseille","lat":43.298952,"lon":5.436557,"is_reserved":false,"is_disabled":false,"rental_uris":{"android":"levelo://app?vid=a1f13d4f-40c1-4973-8af9-ab4ec597183e","ios":"levelo://app?vid=a1f13d4f-40c1-4973-8af9-ab4ec597183e"},"vehicle_type_id":"4","last_reported":1707062841,"current_range_meters":28800,"station_id":"ce4bhpp2rcd13ifvqhfg","pricing_plan_id":"free"},{"bike_id":"4fa9b6ef-3be2-4fed-85a0-f6e00cfeb1f3","system_id":"levelo_inurba_marseille","lat":43.299,"lon":5.43661,"is_reserved":false,"is_disabled":false,"rental_uris":{"android":"levelo://app?vid=4fa9b6ef-3be2-4fed-85a0-f6e00cfeb1f3","ios":"levelo://app?vid=4fa9b6ef-3be2-4fed-85a0-f6e00cfeb1f3"},"vehicle_type_id":"4","last_reported":1707062841,"current_range_meters":3600,"station_id":"ce4bhpp2rcd13ifvqhfg","pricing_plan_id":"free"},{"bike_id":"7bc52a41-8819-464c-ad33-7cc011795736","system_id":"levelo_inurba_marseille","lat":43.29898,"lon":5.43663,"is_reserved":false,"is_disabled":false,"rental_uris":{"android":"levelo://app?vid=7bc52a41-8819-464c-ad33-7cc011795736","ios":"levelo://app?vid=7bc52a41-8819-464c-ad33-7cc011795736"},"vehicle_type_id":"4","last_reported":1707062841,"current_range_meters":10000,"station_id":"ce4bhpp2rcd13ifvqhfg","pricing_plan_id":"free"},{"bike_id":"0354ad77-35a7-46f0-80df-d54f991a5611","system_id":"levelo_inurba_marseille","lat":43.299,"lon":5.43665,"is_reserved":false,"is_disabled":false,"rental_uris":{"android":"levelo://app?vid=0354ad77-35a7-46f0-80df-d54f991a5611","ios":"levelo://app?vid=0354ad77-35a7-46f0-80df-d54f991a5611"},"vehicle_type_id":"4","last_reported":1707062841,"current_range_meters":6800,"station_id":"ce4bhpp2rcd13ifvqhfg","pricing_plan_id":"free"},{"bike_id":"c040a5da-111e-46bc-b94e-34ff34e080db","system_id":"levelo_inurba_marseille","lat":43.299027,"lon":5.436677,"is_reserved":false,"is_disabled":false,"rental_uris":{"android":"levelo://app?vid=c040a5da-111e-46bc-b94e-34ff34e080db","ios":"levelo://app?vid=c040a5da-111e-46bc-b94e-34ff34e080db"},"vehicle_type_id":"4","last_reported":1707062841,"current_range_meters":20400,"station_id":"ce4bhpp2rcd13ifvqhfg","pricing_plan_id":"free"},{"bike_id":"b8c4896f-6740-4a2c-9c8b-74613eea0568","system_id":"levelo_inurba_marseille","lat":43.29898,"lon":5.43666,"is_reserved":false,"is_disabled":false,"rental_uris":{"android":"levelo://app?vid=b8c4896f-6740-4a2c-9c8b-74613eea0568","ios":"levelo://app?vid=b8c4896f-6740-4a2c-9c8b-74613eea0568"},"vehicle_type_id":"4","last_reported":1707062841,"current_range_meters":22400,"station_id":"ce4bhpp2rcd13ifvqhfg","pricing_plan_id":"free"},{"bike_id":"bd7933ee-87ca-43c3-b10c-902bc27ff5f5","system_id":"levelo_inurba_marseille","lat":43.298768,"lon":5.43643,"is_reserved":false,"is_disabled":false,"rental_uris":{"android":"levelo://app?vid=bd7933ee-87ca-43c3-b10c-902bc27ff5f5","ios":"levelo://app?vid=bd7933ee-87ca-43c3-b10c-902bc27ff5f5"},"vehicle_type_id":"4","last_reported":1707062841,"current_range_meters":24000,"station_id":"ce4bhpp2rcd13ifvqhfg","pricing_plan_id":"free"},{"bike_id":"cc8bcdd7-5df2-437f-80d8-28038888cff9","system_id":"levelo_inurba_marseille","lat":43.29895,"lon":5.43667,"is_reserved":false,"is_disabled":false,"rental_uris":{"android":"levelo://app?vid=cc8bcdd7-5df2-437f-80d8-28038888cff9","ios":"levelo://app?vid=cc8bcdd7-5df2-437f-80d8-28038888cff9"},"vehicle_type_id":"4","last_reported":1707062841,"current_range_meters":17200,"station_id":"ce4bhpp2rcd13ifvqhfg","pricing_plan_id":"free"},{"bike_id":"12ab16d9-a361-4008-9395-ed18db81cf01","system_id":"levelo_inurba_marseille","lat":43.26033,"lon":5.37552,"is_reserved":false,"is_disabled":false,"rental_uris":{"android":"levelo://app?vid=12ab16d9-a361-4008-9395-ed18db81cf01","ios":"levelo://app?vid=12ab16d9-a361-4008-9395-ed18db81cf01"},"vehicle_type_id":"4","last_reported":1707062841,"current_range_meters":9600,"station_id":"ce4bhgh2rcd13ifvqfa0","pricing_plan_id":"free"},