{"last_updated":1766171339,"ttl":60,"version":"2.2","data":{"bikes":[{"bike_id":"00fd2dcb-6faf-4c7a-8c99-525909084655","system_id":"levelo_inurba_marseille","lat":43.28165,"lon":5.42634,"is_reserved":false,"is_disabled":true,"rental_uris":{"android":"levelo://app?vid=00fd2dcb-6faf-4c7a-8c99-525909084655","ios":"levelo://app?vid=00fd2dcb-6faf-4c7a-8c99-525909084655"},"vehicle_type_id":"4","last_reported":1766171340,"current_range_meters":2800,"station_id":"ce4bhnh2rcd13ifvqgug","pricing_plan_id":"cebpf4jnsgd1na2vs0mg"},{"bike_id":"51ca3386-847e-4038-ab40-7d6388d63cbb","system_id":"levelo_inurba_marseille","lat":43.25888,"lon":5.38765,"is_reserved":false,"is_disabled":false,"rental_uris":{"android":"levelo://app?vid=51ca3386-847e-4038-ab40-7d6388d63cbb","ios":"levelo://app?vid=51ca3386-847e-4038-ab40-7d6388d63cbb"},"vehicle_type_id":"4","last_reported":1766171340,"current_range_meters":2800,"station_id":"","pricing_plan_id":"cebpf4jnsgd1na2vs0mg"},{"bike_id":"f7427e22-3449-40bf-a9dd-09ab3b2051fc","system_id":"levelo_inurba_marseille","lat":43.27939,"lon":5.41033,"is_reserved":false,"is_disabled":false,"rental_uris":{"android":"levelo://app?vid=f7427e22-3449-40bf-a9dd-09ab3b2051fc","ios":"levelo://app?vid=f7427e22-3449-40bf-a9dd-09ab3b2051fc"},"vehicle_type_id":"4","last_reported":1766171340,"current_range_meters":2800,"station_id":"ce4bhnp2rcd13ifvqh0g","pricing_plan_id":"cebpf4jnsgd1na2vs0mg"},{"bike_id":"d2bcf7e6-9e6c-48c1-8c64-5337f19dad07","system_id":"levelo_inurba_marseille","lat":43.22872,"lon":5.39956,"is_reserved":false,"is_disabled":false,"rental_uris":{"android":"levelo://app?vid=d2bcf7e6-9e6c-48c1-8c64-5337f19dad07","ios":"levelo://app?vid=d2bcf7e6-9e6c-48c1-8c64-5337f19dad07"},"vehicle_type_id":"4","last_reported":1766171340,"current_range_meters":2800,"station_id":"","pricing_plan_id":"cebpf4jnsgd1na2vs0mg"},{"bike_id":"1e376b8e-b1d2-41e2-8c5e-9edf0f890f04","system_id":"levelo_inurba_marseille","lat":43.2495,"lon":5.40489,"is_reserved":false,"is_disabled":false,"rental_uris":{"android":"levelo://app?vid=1e376b8e-b1d2-41e2-8c5e-9edf0f890f04","ios":"levelo://app?vid=1e376b8e-b1d2-41e2-8c5e-9edf0f890f04"},"vehicle_type_id":"4","last_reported":1766171340,"current_range_meters":3200,"station_id":"st_d2ngiaodas8pm72gd1h0","pricing_plan_id":"cebpf4jnsgd1na2vs0mg"},{"bike_id":"a9adc8bf-52f1-4c31-a2de-42743dd086bf","system_id":"levelo_inurba_marseille","lat":43.33723,"lon":5.3748,"is_reserved":false,"is_disabled":false,"rental_uris":{"android":"levelo://app?vid=a9adc8bf-52f1-4c31-a2de-42743dd086bf","ios":"levelo://app?vid=a9adc8bf-52f1-4c31-a2de-42743dd086bf"},"vehicle_type_id":"4","last_reported":1766171340,"current_range_meters":3200,"station_id":"","pricing_plan_id":"cebpf4jnsgd1na2vs0mg"},{"bike_id":"939c0d97-8893-468f-952e-0ee715c0b526","system_id":"levelo_inurba_marseille","lat":43.29597,"lon":5.37874,"is_reserved":false,"is_disabled":false,"rental_uris":{"android":"levelo://app?vid=939c0d97-8893-468f-952e-0ee715c0b526","ios":"levelo://app?vid=939c0d97-8893-468f-952e-0ee715c0b526"},"vehicle_type_id":"4","last_reported":1766171340,"current_range_meters":3200,"station_id":"","pricing_plan_id":"cebpf4jnsgd1na2vs0mg"},{"bike_id":"f9b87e63-5b4e-498b-b449-33f7a4129ad5","system_id":"levelo_inurba_marseille","lat":43.30131,"lon":5.39859,"is_reserved":false,"is_disabled":false,"rental_uris":{"android":"levelo://app?vid=f9b87e63-5b4e-498b-b449-33f7a4129ad5","ios":"levelo://app?vid=f9b87e63-5b4e-498b-b449-33f7a4129ad5"},"vehicle_type_id":"4","last_reported":1766171340,"current_range_meters":3200,"station_id":"ce4bh0h2rcd13ifvqd40","pricing_plan_id":"cebpf4jnsgd1na2vs0mg"},{"bike_id":"8a48f2ad-b14c-4a80-8570-b8d71fce207b","system_id":"levelo_inurba_marseille","lat":43.29277,"lon":5.36847,"is_reserved":false,"is_disabled":false,"rental_uris":{"android":"levelo://app?vid=8a48f2ad-b14c-4a80-8570-b8d71fce207b","ios":"levelo://app?vid=8a48f2ad-b14c-4a80-8570-b8d71fce207b"},"vehicle_type_id":"4","last_reported":1766171340,"current_range_meters":3600,"station_id":"ce4bhbp2rcd13ifvqesg","pricing_plan_id":"cebpf4jnsgd1na2vs0mg"},{"bike_id":"3cde007c-a409-4597-91e7-ca2461274ad1","system_id":"levelo_inurba_marseille","lat":43.26565,"lon":5.40182,"is_reserved":false,"is_disabled":false,"rental_uris":{"android":"levelo://app?vid=3cde007c-a409-4597-91e7-ca2461274ad1","ios":"levelo://app?vid=3cde007c-a409-4597-91e7-ca2461274ad1"},"vehicle_type_id":"4","last_reported":1766171340,"current_range_meters":3600,"station_id":"","pricing_plan_id":"cebpf4jnsgd1na2vs0mg"},{"bike_id":"81508f0a-e327-4705-ae72-228165570b37","system_id":"levelo_inurba_marseille","lat":43.25085,"lon":5.38959,"is_reserved":false,"is_disabled":false,"rental_uris":{"android":"levelo://app?vid=81508f0a-e327-4705-ae72-228165570b37","ios":"levelo://app?vid=81508f0a-e327-4705-ae72-228165570b37"},"vehicle_type_id":"4","last_reported":1766171340,"current_range_meters":3600,"station_id":"","pricing_plan_id":"cebpf4jnsgd1na2vs0mg"},{"bike_id":"d7118c43-69ef-4300-a23b-b0b8cfe96ecd","system_id":"levelo_inurba_marseille","lat":43.30432,"lon":5.39746,"is_reserved":false,"is_disabled":false,"rental_uris":{"android":"levelo://app?vid=d7118c43-69ef-4300-a23b-b0b8cfe96ecd","ios":"levelo://app?vid=d7118c43-69ef-4300-a23b-b0b8cfe96ecd"},"vehicle_type_id":"4","last_reported":1766171340,"current_range_meters":4000,"station_id":"ce4bh092rcd13ifvqd20","pricing_plan_id":"cebpf4jnsgd1na2vs0mg"},{"bike_id":"9cab19ab-807a-4587-ad09-92dd8de956a9","system_id":"levelo_inurba_marseille","lat":43.246534,"lon":5.388924,"is_reserved":false,"is_disabled":false,"rental_uris":{"android":"levelo://app?vid=9cab19ab-807a-4587-ad09-92dd8de956a9","ios":"levelo://app?vid=9cab19ab-807a-4587-ad09-92dd8de956a9"},"vehicle_type_id":"4","last_reported":1766171340,"current_range_meters":4000,"station_id":"ce4bhg12rcd13ifvqf60","pricing_plan_id":"cebpf4jnsgd1na2vs0mg"},{"bike_id":"c596eb9d-be63-4033-ab74-0b847a19f6da","system_id":"levelo_inurba_marseille","lat":43.31119,"lon":5.37782,"is_reserved":false,"is_disabled":false,"rental_uris":{"android":"levelo://app?vid=c596eb9d-be63-4033-ab74-0b847a19f6da","ios":"levelo://app?vid=c596eb9d-be63-4033-ab74-0b847a19f6da"},"vehicle_type_id":"4","last_reported":1766171340,"current_range_meters":4400,"station_id":"ce4bgt92rcd13ifvqcg0","pricing_plan_id":"cebpf4jnsgd1na2vs0mg"},{"bike_id":"5383780e-1c3a-449f-aafd-81a8fcc9c98f","system_id":"levelo_inurba_marseille","lat":43.30935,"lon":5.4015,"is_reserved":false,"is_disabled":false,"rental_uris":{"android":"levelo://app?vid=5383780e-1c3a-449f-aafd-81a8fcc9c98f","ios":"levelo://app?vid=5383780e-1c3a-449f-aafd-81a8fcc9c98f"},"vehicle_type_id":"4","last_reported":1766171340,"current_range_meters":4400,"station_id":"ce4bgvp2rcd13ifvqct0","pricing_plan_id":"cebpf4jnsgd1na2vs0mg"},{"bike_id":"da18a3b0-ce97-43eb-b181-936e440b40e5","system_id":"levelo_inurba_marseille","lat":43.31699,"lon":5.40381,"is_reserved":false,"is_disabled":false,"rental_uris":{"android":"levelo://app?vid=da18a3b0-ce97-43eb-b181-936e440b40e5","ios":"levelo://app?vid=da18a3b0-ce97-43eb-b181-936e440b40e5"},"vehicle_type_id":"4","last_reported":1766171340,"current_range_meters":4400,"station_id":"","pricing_plan_id":"cebpf4jnsgd1na2vs0mg"},{"bike_id":"0f790576-6061-4c09-aa76-5fb8223294e2","system_id":"levelo_inurba_marseille","lat":43.273241,"lon":5.390715,"is_reserved":false,"is_disabled":true,"rental_uris":{"android":"levelo://app?vid=0f790576-6061-4c09-aa76-5fb8223294e2","ios":"levelo://app?vid=0f790576-6061-4c09-aa76-5fb8223294e2"},"vehicle_type_id":"4","last_reported":1766171340,"current_range_meters":4800,"station_id":"","pricing_plan_id":"cebpf4jnsgd1na2vs0mg"},{"bike_id":"0f0ba93b-2f84-46c7-a059-9539de548098","system_id":"levelo_inurba_marseille","lat":43.30159,"lon":5.38065,"is_reserved":false,"is_disabled":false,"rental_uris":{"android":"levelo://app?vid=0f0ba93b-2f84-46c7-a059-9539de548098","ios":"levelo://app?vid=0f0ba93b-2f84-46c7-a059-9539de548098"},"vehicle_type_id":"4","last_reported":1766171340,"current_range_meters":4800,"station_id":"ce4bgjp2rcd13ifvqbh0","pricing_plan_id":"cebpf4jnsgd1na2vs0mg"},{"bike_id":"530e6d11-d179-4689-ba01-9451bc13f7a9","system_id":"levelo_inurba_marseille","lat":43.29786,"lon":5.3935,"is_reserved":false,"is_disabled":false,"rental_uris":{"android":"levelo://app?vid=530e6d11-d179-4689-ba01-9451bc13f7a9","ios":"levelo://app?vid=530e6d11-d179-4689-ba01-9451bc13f7a9"},"vehicle_type_id":"4","last_reported":1766171340,"current_range_meters":4800,"station_id":"chh1huq6cuj3fo74tm60","pricing_plan_id":"cebpf4jnsgd1na2vs0mg"},{"bike_id":"212eb527-dfa2-4a75-9178-5f1ec05c2be8","system_id":"levelo_inurba_marseille","lat":43.30327,"lon":5.40438,"is_reserved":false,"is_disabled":false,"rental_uris":{"android":"levelo://app?vid=212eb527-dfa2-4a75-9178-5f1ec05c2be8","ios":"levelo://app?vid=212eb527-dfa2-4a75-9178-5f1ec05c2be8"},"vehicle_type_id":"4","last_reported":1766171340,"current_range_meters":4800,"station_id":"ce4bh012rcd13ifvqd10","pricing_plan_id":"cebpf4jnsgd1na2vs0mg"},{"bike_id":"40c51ff6-bcdf-4189-b2f9-53259a9dc236","system_id":"levelo_inurba_marseille","lat":43.28306,"lon":5.38919,"is_reserved":false,"is_disabled":true,"rental_uris":{"android":"levelo://app?vid=40c51ff6-bcdf-4189-b2f9-53259a9dc236","ios":"levelo://app?vid=40c51ff6-bcdf-4189-b2f9-53259a9dc236"},"vehicle_type_id":"4","last_reported":1766171340,"current_range_meters":5600,"station_id":"","pricing_plan_id":"cebpf4jnsgd1na2vs0mg"},{"bike_id":"be553c5a-7930-481a-9f5d-b30f3b018c9c","system_id":"levelo_inurba_marseille","lat":43.29272,"lon":5.38441,"is_reserved":false,"is_disabled":false,"rental_uris":{"android":"levelo://app?vid=be553c5a-7930-481a-9f5d-b30f3b018c9c","ios":"levelo://app?vid=be553c5a-7930-481a-9f5d-b30f3b018c9c"},"vehicle_type_id":"4","last_reported":1766171340,"current_range_meters":5600,"station_id":"ce4bh692rcd13ifvqea0","pricing_plan_id":"cebpf4jnsgd1na2vs0mg"},{"bike_id":"6924b67c-0229-42f6-9ec0-2d529bf4f889","system_id":"levelo_inurba_marseille","lat":43.29822,"lon":5.44073,"is_reserved":false,"is_disabled":false,"rental_uris":{"android":"levelo://app?vid=6924b67c-0229-42f6-9ec0-2d529bf4f889","ios":"levelo://app?vid=6924b67c-0229-42f6-9ec0-2d529bf4f889"},"vehicle_type_id":"4","last_reported":1766171340,"current_range_meters":5600,"station_id":"st_d3jp68qikq2c7381ktn0","pricing_plan_id":"cebpf4jnsgd1na2vs0mg"},{"bike_id":"2086225a-a747-4f9f-9bfb-723b2da30c0e","system_id":"levelo_inurba_marseille","lat":43.2479,"lon":5.39598,"is_reserved":false,"is_disabled":false,"rental_uris":{"android":"levelo://app?vid=2086225a-a747-4f9f-9bfb-723b2da30c0e","ios":"levelo://app?vid=2086225a-a747-4f9f-9bfb-723b2da30c0e"},"vehicle_type_id":"4","last_reported":1766171340,"current_range_meters":5600,"station_id":"","pricing_plan_id":"cebpf4jnsgd1na2vs0mg"},{"bike_id":"b392ffda-9a1d-490e-8b7a-eed120b96e31","system_id":"levelo_inurba_marseille","lat":43.27965,"lon":5.38749,"is_reserved":false,"is_disabled":false,"rental_uris":{"android":"levelo://app?vid=b392ffda-9a1d-490e-8b7a-eed120b96e31","ios":"levelo://app?vid=b392ffda-9a1d-490e-8b7a-eed120b96e31"},"vehicle_type_id":"4","last_reported":1766171340,"current_range_meters":5600,"station_id":"ce4bhg12rcd13ifvqf80","pricing_plan_id":"cebpf4jnsgd1na2vs0mg"},{"bike_id":"67fe2471-1cc2-49f3-8860-6c45a1e6b28e","system_id":"levelo_inurba_marseille","lat":43.273742,"lon":5.362622,"is_reserved":false,"is_disabled":false,"rental_uris":{"android":"levelo://app?vid=67fe2471-1cc2-49f3-8860-6c45a1e6b28e","ios":"levelo://app?vid=67fe2471-1cc2-49f3-8860-6c45a1e6b28e"},"vehicle_type_id":"4","last_reported":1766171340,"current_range_meters":5600,"station_id":"ce4bhbh2rcd13ifvqeo0","pricing_plan_id":"cebpf4jnsgd1na2vs0mg"},{"bike_id":"467517c8-ed87-4e02-bef8-4ed63963538d","system_id":"levelo_inurba_marseille","lat":43.27196,"lon":5.41002,"is_reserved":false,"is_disabled":true,"rental_uris":{"android":"levelo://app?vid=467517c8-ed87-4e02-bef8-4ed63963538d","ios":"levelo://app?vid=467517c8-ed87-4e02-bef8-4ed63963538d"},"vehicle_type_id":"4","last_reported":1766171340,"current_range_meters":6000,"station_id":"ce4bhl12rcd13ifvqgf0","pricing_plan_id":"cebpf4jnsgd1na2vs0mg"},{"bike_id":"6588d7d9-9478-4d6e-9758-cb27e11a085d","system_id":"levelo_inurba_marseille","lat":43.25871,"lon":5.39894,"is_reserved":false,"is_disabled":false,"rental_uris":{"android":"levelo://app?vid=6588d7d9-9478-4d6e-9758-cb27e11a085d","ios":"levelo://app?vid=6588d7d9-9478-4d6e-9758-cb27e11a085d"},"vehicle_type_id":"4","last_reported":1766171340,"current_range_meters":6000,"station_id":"ce4bhl92rcd13ifvqghg","pricing_plan_id":"cebpf4jnsgd1na2vs0mg"},{"bike_id":"e8669cfc-52c4-4ad2-a7d2-cfbc470a929e","system_id":"levelo_inurba_marseille","lat":43.269243,"lon":5.389251,"is_reserved":false,"is_disabled":false,"rental_uris":{"android":"levelo://app?vid=e8669cfc-52c4-4ad2-a7d2-cfbc470a929e","ios":"levelo://app?vid=e8669cfc-52c4-4ad2-a7d2-cfbc470a929e"},"vehicle_type_id":"4","last_reported":1766171340,"current_range_meters":6400,"station_id":"ce4bhhh2rcd13ifvqfl0","pricing_plan_id":"cebpf4jnsgd1na2vs0mg"},{"bike_id":"0a598fce-978f-4f90-b03f-b8be1902feff","system_id":"levelo_inurba_marseille","lat":43.31311,"lon":5.37877,"is_reserved":false,"is_disabled":false,"rental_uris":{"android":"levelo://app?vid=0a598fce-978f-4f90-b03f-b8be1902feff","ios":"levelo://app?vid=0a598fce-978f-4f90-b03f-b8be1902feff"},"vehicle_type_id":"4","last_reported":1766171340,"current_range_meters":6400,"station_id":"","pricing_plan_id":"cebpf4jnsgd1na2vs0mg"},{"bike_id":"ed8562ba-5825-4bcc-a80f-2241b9b4c385","system_id":"levelo_inurba_marseille","lat":43.30595,"lon":5.39363,"is_reserved":false,"is_disabled":false,"rental_uris":{"android":"levelo://app?vid=ed8562ba-5825-4bcc-a80f-2241b9b4c385","ios":"levelo://app?vid=ed8562ba-5825-4bcc-a80f-2241b9b4c385"},"vehicle_type_id":"4","last_reported":1766171340,"current_range_meters":6400,"station_id":"ce4bh0p2rcd13ifvqd80","pricing_plan_id":"cebpf4jnsgd1na2vs0mg"},{"bike_id":"cf0e2dfe-8751-4251-bbd3-3ad00be9f3ad","system_id":"levelo_inurba_marseille","lat":43.28486,"lon":5.48403,"is_reserved":false,"is_disabled":false,"rental_uris":{"android":"levelo://app?vid=cf0e2dfe-8751-4251-bbd3-3ad00be9f3ad","ios":"levelo://app?vid=cf0e2dfe-8751-4251-bbd3-3ad00be9f3ad"},"vehicle_type_id":"4","last_reported":1766171340,"current_range_meters":6400,"station_id":"","pricing_plan_id":"cebpf4jnsgd1na2vs0mg"},{"bike_id":"b85fdc3d-6416-4364-9c8b-4382c48ddd57","system_id":"levelo_inurba_marseille","lat":43.30114,"lon":5.39862,"is_reserved":false,"is_disabled":false,"rental_uris":{"android":"levelo://app?vid=b85fdc3d-6416-4364-9c8b-4382c48ddd57","ios":"levelo://app?vid=b85fdc3d-6416-4364-9c8b-4382c48ddd57"},"vehicle_type_id":"4","last_reported":1766171340,"current_range_meters":6800,"station_id":"ce4bh0h2rcd13ifvqd40","pricing_plan_id":"cebpf4jnsgd1na2vs0mg"},{"bike_id":"bf953a37-d4c2-43d7-8364-36eaa8fbc104","system_id":"levelo_inurba_marseille","lat":43.284067,"lon":5.375085,"is_reserved":false,"is_disabled":false,"rental_uris":{"android":"levelo://app?vid=bf953a37-d4c2-43d7-8364-36eaa8fbc104","ios":"levelo://app?vid=bf953a37-d4c2-43d7-8364-36eaa8fbc104"},"vehicle_type_id":"4","last_reported":1766171340,"current_range_meters":6800,"station_id":"","pricing_plan_id":"cebpf4jnsgd1na2vs0mg"},{"bike_id":"e5c2ec5c-d95c-4342-a98d-ed0a24f6a85d","system_id":"levelo_inurba_marseille","lat":43.289246,"lon":5.384011,"is_reserved":false,"is_disabled":false,"rental_uris":{"android":"levelo://app?vid=e5c2ec5c-d95c-4342-a98d-ed0a24f6a85d","ios":"levelo://app?vid=e5c2ec5c-d95c-4342-a98d-ed0a24f6a85d"},"vehicle_type_id":"4","last_reported":1766171340,"current_range_meters":6800,"station_id":"ce4bgrh2rcd13ifvqc8g","pricing_plan_id":"cebpf4jnsgd1na2vs0mg"},{"bike_id":"f20ad7f7-fe76-4e0d-8969-04dbbca3b071","system_id":"levelo_inurba_marseille","lat":43.29477,"lon":5.4331,"is_reserved":false,"is_disabled":false,"rental_uris":{"android":"levelo://app?vid=f20ad7f7-fe76-4e0d-8969-04dbbca3b071","ios":"levelo://app?vid=f20ad7f7-fe76-4e0d-8969-04dbbca3b071"},"vehicle_type_id":"4","last_reported":1766171340,"current_range_meters":6800,"station_id":"st_d3j5ugp08ojc73fj9d10","pricing_plan_id":"cebpf4jnsgd1na2vs0mg"},{"bike_id":"436e467e-3ef8-4484-b12e-82fd46509f97","system_id":"levelo_inurba_marseille","lat":43.23302,"lon":5.44378,"is_reserved":false,"is_disabled":false,"rental_uris":{"android":"levelo://app?vid=436e467e-3ef8-4484-b12e-82fd46509f97","ios":"levelo://app?vid=436e467e-3ef8-4484-b12e-82fd46509f97"},"vehicle_type_id":"4","last_reported":1766171340,"current_range_meters":7200,"station_id":"","pricing_plan_id":"cebpf4jnsgd1na2vs0mg"},{"bike_id":"4a614ce4-d61c-499d-8955-0569e02f377b","system_id":"levelo_inurba_marseille","lat":43.27522,"lon":5.37259,"is_reserved":false,"is_disabled":false,"rental_uris":{"android":"levelo://app?vid=4a614ce4-d61c-499d-8955-0569e02f377b","ios":"levelo://app?vid=4a614ce4-d61c-499d-8955-0569e02f377b"},"vehicle_type_id":"4","last_reported":1766171340,"current_range_meters":7200,"station_id":"","pricing_plan_id":"cebpf4jnsgd1na2vs0mg"},{"bike_id":"3fd8ab04-84c6-4114-88cb-d5f335415d3c","system_id":"levelo_inurba_marseille","lat":43.27811,"lon":5.407,"is_reserved":false,"is_disabled":false,"rental_uris":{"android":"levelo://app?vid=3fd8ab04-84c6-4114-88cb-d5f335415d3c","ios":"levelo://app?vid=3fd8ab04-84c6-4114-88cb-d5f335415d3c"},"vehicle_type_id":"4","last_reported":1766171340,"current_range_meters":7200,"station_id":"ce4bhnh2rcd13ifvqgtg","pricing_plan_id":"cebpf4jnsgd1na2vs0mg"},{"bike_id":"6923cd43-7a69-4dc2-a2ac-ae2b83989106","system_id":"levelo_inurba_marseille","lat":43.27376,"lon":5.36253,"is_reserved":false,"is_disabled":false,"rental_uris":{"android":"levelo://app?vid=6923cd43-7a69-4dc2-a2ac-ae2b83989106","ios":"levelo://app?vid=6923cd43-7a69-4dc2-a2ac-ae2b83989106"},"vehicle_type_id":"4","last_reported":1766171340,"current_range_meters":7200,"station_id":"ce4bhbh2rcd13ifvqeo0","pricing_plan_id":"cebpf4jnsgd1na2vs0mg"},{"bike_id":"59b1ba90-b3e6-4c77-bc1f-a03b11de7bb0","system_id":"levelo_inurba_marseille","lat":43.29375,"lon":5.37862,"is_reserved":false,"is_disabled":false,"rental_uris":{"android":"levelo://app?vid=59b1ba90-b3e6-4c77-bc1f-a03b11de7bb0","ios":"levelo://app?vid=59b1ba90-b3e6-4c77-bc1f-a03b11de7bb0"},"vehicle_type_id":"4","last_reported":1766171340,"current_range_meters":7200,"station_id":"ce4bgjh2rcd13ifvqbf0","pricing_plan_id":"cebpf4jnsgd1na2vs0mg"},{"bike_id":"c5365846-c619-4f12-8c92-97c9f9725a15","system_id":"levelo_inurba_marseille","lat":43.29509,"lon":5.37931,"is_reserved":false,"is_disabled":false,"rental_uris":{"android":"levelo://app?vid=c5365846-c619-4f12-8c92-97c9f9725a15","ios":"levelo://app?vid=c5365846-c619-4f12-8c92-97c9f9725a15"},"vehicle_type_id":"4","last_reported":1766171340,"current_range_meters":8000,"station_id":"","pricing_plan_id":"cebpf4jnsgd1na2vs0mg"},{"bike_id":"4714ef8d-2a3c-4130-93cd-9abb02a29a2b","system_id":"levelo_inurba_marseille","lat":43.28843,"lon":5.39325,"is_reserved":false,"is_disabled":false,"rental_uris":{"android":"levelo://app?vid=4714ef8d-2a3c-4130-93cd-9abb02a29a2b","ios":"levelo://app?vid=4714ef8d-2a3c-4130-93cd-9abb02a29a2b"},"vehicle_type_id":"4","last_reported":1766171340,"current_range_meters":8000,"station_id":"ce4bh2p2rcd13ifvqdi0","pricing_plan_id":"cebpf4jnsgd1na2vs0mg"},{"bike_id":"1f8bf9e3-c9bd-4c05-9201-34f9580d25af","system_id":"levelo_inurba_marseille","lat":43.21201,"lon":5.35069,"is_reserved":false,"is_disabled":false,"rental_uris":{"android":"levelo://app?vid=1f8bf9e3-c9bd-4c05-9201-34f9580d25af","ios":"levelo://app?vid=1f8bf9e3-c9bd-4c05-9201-34f9580d25af"},"vehicle_type_id":"4","last_reported":1766171340,"current_range_meters":8400,"station_id":"st_cvj6sg6p6f1abm77japg","pricing_plan_id":"cebpf4jnsgd1na2vs0mg"},{"bike_id":"91dc96a9-ec51-4128-814e-ce3aa80480d3","system_id":"levelo_inurba_marseille","lat":43.30039,"lon":5.38046,"is_reserved":false,"is_disabled":false,"rental_uris":{"android":"levelo://app?vid=91dc96a9-ec51-4128-814e-ce3aa80480d3","ios":"levelo://app?vid=91dc96a9-ec51-4128-814e-ce3aa80480d3"},"vehicle_type_id":"4","last_reported":1766171340,"current_range_meters":8400,"station_id":"","pricing_plan_id":"cebpf4jnsgd1na2vs0mg"},{"bike_id":"ee6f7e5c-24b4-4046-a3ec-072080785116","system_id":"levelo_inurba_marseille","lat":43.21746,"lon":5.34594,"is_reserved":false,"is_disabled":true,"rental_uris":{"android":"levelo://app?vid=ee6f7e5c-24b4-4046-a3ec-072080785116","ios":"levelo://app?vid=ee6f7e5c-24b4-4046-a3ec-072080785116"},"vehicle_type_id":"4","last_reported":1766171340,"current_range_meters":8400,"station_id":"st_cvj6r9ubvosntc0bgbag","pricing_plan_id":"cebpf4jnsgd1na2vs0mg"},{"bike_id":"c989796d-dcc1-4fc7-b147-6dbca1d74de3","system_id":"levelo_inurba_marseille","lat":43.28163,"lon":5.38332,"is_reserved":false,"is_disabled":false,"rental_uris":{"android":"levelo://app?vid=c989796d-dcc1-4fc7-b147-6dbca1d74de3","ios":"levelo://app?vid=c989796d-dcc1-4fc7-b147-6dbca1d74de3"},"vehicle_type_id":"4","last_reported":1766171340,"current_range_meters":8400,"station_id":"","pricing_plan_id":"cebpf4jnsgd1na2vs0mg"},{"bike_id":"0f778c96-798e-4e1d-8be8-53cff43ed49b","system_id":"levelo_inurba_marseille","lat":43.32968,"lon":5.39371,"is_reserved":false,"is_disabled":false,"rental_uris":{"android":"levelo://app?vid=0f778c96-798e-4e1d-8be8-53cff43ed49b","ios":"levelo://app?vid=0f778c96-798e-4e1d-8be8-53cff43ed49b"},"vehicle_type_id":"4","last_reported":1766171340,"current_range_meters":8400,"station_id":"","pricing_plan_id":"cebpf4jnsgd1na2vs0mg"},{"bike_id":"323d151e-2f99-489e-bfb3-0b56b60cf062","system_id":"levelo_inurba_marseille","lat":43.27055,"lon":5.38293,"is_reserved":false,"is_disabled":false,"rental_uris":{"android":"levelo://app?vid=323d151e-2f99-489e-bfb3-0b56b60cf062","ios":"levelo://app?vid=323d151e-2f99-489e-bfb3-0b56b60cf062"},"vehicle_type_id":"4","last_reported":1766171340,"current_range_meters":8400,"station_id":"st_d3n2fo6cfp8s73cte1j0","pricing_plan_id":"cebpf4jnsgd1na2vs0mg"},{"bike_id":"374a0371-4968-4fe9-88a9-ac5ffa94b236","system_id":"levelo_inurba_marseille","lat":43.31465,"lon":5.45385,"is_reserved":false,"is_disabled":false,"rental_uris":{"android":"levelo://app?vid=374a0371-4968-4fe9-88a9-ac5ffa94b236","ios":"levelo://app?vid=374a0371-4968-4fe9-88a9-ac5ffa94b236"},"vehicle_type_id":"4","last_reported":1766171340,"current_range_meters":8400,"station_id":"","pricing_plan_id":"cebpf4jnsgd1na2vs0mg"},{"bike_id":"3eda355d-e01f-47eb-9d9c-fe6d2867ec28","system_id":"levelo_inurba_marseille","lat":43.290799,"lon":5.371628,"is_reserved":false,"is_disabled":false,"rental_uris":{"android":"levelo://app?vid=3eda355d-e01f-47eb-9d9c-fe6d2867ec28","ios":"levelo://app?vid=3eda355d-e01f-47eb-9d9c-fe6d2867ec28"},"vehicle_type_id":"4","last_reported":1766171340,"current_range_meters":8400,"station_id":"ce4bh5p2rcd13ifvqe4g","pricing_plan_id":"cebpf4jnsgd1na2vs0mg"},{"bike_id":"6966d341-e983-481a-b104-f2354bf1a38e","system_id":"levelo_inurba_marseille","lat":43.295347,"lon":5.385401,"is_reserved":false,"is_disabled":false,"rental_uris":{"android":"levelo://app?vid=6966d341-e983-481a-b104-f2354bf1a38e","ios":"levelo://app?vid=6966d341-e983-481a-b104-f2354bf1a38e"},"vehicle_type_id":"4","last_reported":1766171340,"current_range_meters":8400,"station_id":"ce4bgih2rcd13ifvqba0","pricing_plan_id":"cebpf4jnsgd1na2vs0mg"},{"bike_id":"305412fd-41fd-4f48-b0ce-d25b5a7eb63f","system_id":"levelo_inurba_marseille","lat":43.3256,"lon":5.38955,"is_reserved":false,"is_disabled":false,"rental_uris":{"android":"levelo://app?vid=305412fd-41fd-4f48-b0ce-d25b5a7eb63f","ios":"levelo://app?vid=305412fd-41fd-4f48-b0ce-d25b5a7eb63f"},"vehicle_type_id":"4","last_reported":1766171340,"current_range_meters":8800,"station_id":"","pricing_plan_id":"cebpf4jnsgd1na2vs0mg"},{"bike_id":"94d5b9c0-f83e-446a-8d64-8dad02131cd5","system_id":"levelo_inurba_marseille","lat":43.33721,"lon":5.41002,"is_reserved":false,"is_disabled":false,"rental_uris":{"android":"levelo://app?vid=94d5b9c0-f83e-446a-8d64-8dad02131cd5","ios":"levelo://app?vid=94d5b9c0-f83e-446a-8d64-8dad02131cd5"},"vehicle_type_id":"4","last_reported":1766171340,"current_range_meters":8800,"station_id":"ce4bhqh2rcd13ifvqhmg","pricing_plan_id":"cebpf4jnsgd1na2vs0mg"},{"bike_id":"e3274b93-485a-4dc0-9c57-cf084311a57a","system_id":"levelo_inurba_marseille","lat":43.33603,"lon":5.4103,"is_reserved":false,"is_disabled":false,"rental_uris":{"android":"levelo://app?vid=e3274b93-485a-4dc0-9c57-cf084311a57a","ios":"levelo://app?vid=e3274b93-485a-4dc0-9c57-cf084311a57a"},"vehicle_type_id":"4","last_reported":1766171340,"current_range_meters":8800,"station_id":"","pricing_plan_id":"cebpf4jnsgd1na2vs0mg"},{"bike_id":"99e990d8-749d-434a-93d8-3742bf3d759d","system_id":"levelo_inurba_marseille","lat":43.29783,"lon":5.39333,"is_reserved":false,"is_disabled":false,"rental_uris":{"android":"levelo://app?vid=99e990d8-749d-434a-93d8-3742bf3d759d","ios":"levelo://app?vid=99e990d8-749d-434a-93d8-3742bf3d759d"},"vehicle_type_id":"4","last_reported":1766171340,"current_range_meters":8800,"station_id":"chh1huq6cuj3fo74tm60","pricing_plan_id":"cebpf4jnsgd1na2vs0mg"},{"bike_id":"f3a4c2fd-c27a-4ca6-bbe5-3949d2a88808","system_id":"levelo_inurba_marseille","lat":43.28578,"lon":5.42992,"is_reserved":false,"is_disabled":false,"rental_uris":{"android":"levelo://app?vid=f3a4c2fd-c27a-4ca6-bbe5-3949d2a88808","ios":"levelo://app?vid=f3a4c2fd-c27a-4ca6-bbe5-3949d2a88808"},"vehicle_type_id":"4","last_reported":1766171340,"current_range_meters":8800,"station_id":"","pricing_plan_id":"cebpf4jnsgd1na2vs0mg"},{"bike_id":"d422d331-7513-421e-8195-b81d99e0c097","system_id":"levelo_inurba_marseille","lat":43.27972,"lon":5.3873,"is_reserved":false,"is_disabled":false,"rental_uris":{"android":"levelo://app?vid=d422d331-7513-421e-8195-b81d99e0c097","ios":"levelo://app?vid=d422d331-7513-421e-8195-b81d99e0c097"},"vehicle_type_id":"4","last_reported":1766171340,"current_range_meters":8800,"station_id":"ce4bhg12rcd13ifvqf80","pricing_plan_id":"cebpf4jnsgd1na2vs0mg"},{"bike_id":"17a49efb-d179-4b85-b20c-4afe87c0613f","system_id":"levelo_inurba_marseille","lat":43.31056,"lon":5.37178,"is_reserved":false,"is_disabled":true,"rental_uris":{"android":"levelo://app?vid=17a49efb-d179-4b85-b20c-4afe87c0613f","ios":"levelo://app?vid=17a49efb-d179-4b85-b20c-4afe87c0613f"},"vehicle_type_id":"4","last_reported":1766171340,"current_range_meters":8800,"station_id":"st_d4kl2rp97mjs73e7tdfg","pricing_plan_id":"cebpf4jnsgd1na2vs0mg"},{"bike_id":"48e30a46-3a61-4ed5-93c8-2b0ee8661bac","system_id":"levelo_inurba_marseille","lat":43.29883,"lon":5.37891,"is_reserved":false,"is_disabled":false,"rental_uris":{"android":"levelo://app?vid=48e30a46-3a61-4ed5-93c8-2b0ee8661bac","ios":"levelo://app?vid=48e30a46-3a61-4ed5-93c8-2b0ee8661bac"},"vehicle_type_id":"4","last_reported":1766171340,"current_range_meters":8800,"station_id":"","pricing_plan_id":"cebpf4jnsgd1na2vs0mg"},{"bike_id":"86e9be22-c69e-44cd-98be-490605e5c2d2","system_id":"levelo_inurba_marseille","lat":43.336341,"lon":5.392189,"is_reserved":false,"is_disabled":false,"rental_uris":{"android":"levelo://app?vid=86e9be22-c69e-44cd-98be-490605e5c2d2","ios":"levelo://app?vid=86e9be22-c69e-44cd-98be-490605e5c2d2"},"vehicle_type_id":"4","last_reported":1766171340,"current_range_meters":8800,"station_id":"ce4bhr92rcd13ifvqhsg","pricing_plan_id":"cebpf4jnsgd1na2vs0mg"},{"bike_id":"d15541e4-c211-4722-8883-b03612ce0d56","system_id":"levelo_inurba_marseille","lat":43.25336,"lon":5.42169,"is_reserved":false,"is_disabled":false,"rental_uris":{"android":"levelo://app?vid=d15541e4-c211-4722-8883-b03612ce0d56","ios":"levelo://app?vid=d15541e4-c211-4722-8883-b03612ce0d56"},"vehicle_type_id":"4","last_reported":1766171340,"current_range_meters":8800,"station_id":"st_d2m65c5bi1j21697t3ng","pricing_plan_id":"cebpf4jnsgd1na2vs0mg"},{"bike_id":"a6bb7fde-2db0-447e-8cac-38a0c3844ce6","system_id":"levelo_inurba_marseille","lat":43.27791,"lon":5.38855,"is_reserved":false,"is_disabled":false,"rental_uris":{"android":"levelo://app?vid=a6bb7fde-2db0-447e-8cac-38a0c3844ce6","ios":"levelo://app?vid=a6bb7fde-2db0-447e-8cac-38a0c3844ce6"},"vehicle_type_id":"4","last_reported":1766171340,"current_range_meters":9200,"station_id":"","pricing_plan_id":"cebpf4jnsgd1na2vs0mg"},{"bike_id":"d9c6fb94-68ad-4ca0-a3ce-9ee6704bcd74","system_id":"levelo_inurba_marseille","lat":43.23962,"lon":5.36628,"is_reserved":false,"is_disabled":false,"rental_uris":{"android":"levelo://app?vid=d9c6fb94-68ad-4ca0-a3ce-9ee6704bcd74","ios":"levelo://app?vid=d9c6fb94-68ad-4ca0-a3ce-9ee6704bcd74"},"vehicle_type_id":"4","last_reported":1766171340,"current_range_meters":9200,"station_id":"ce4bhi12rcd13ifvqfp0","pricing_plan_id":"cebpf4jnsgd1na2vs0mg"},{"bike_id":"84d88205-af5c-45f5-8cd0-24654a353635","system_id":"levelo_inurba_marseille","lat":43.24084,"lon":5.37757,"is_reserved":false,"is_disabled":false,"rental_uris":{"android":"levelo://app?vid=84d88205-af5c-45f5-8cd0-24654a353635","ios":"levelo://app?vid=84d88205-af5c-45f5-8cd0-24654a353635"},"vehicle_type_id":"4","last_reported":1766171340,"current_range_meters":9200,"station_id":"ce4bhnp2rcd13ifvqgvg","pricing_plan_id":"cebpf4jnsgd1na2vs0mg"},{"bike_id":"bd94b5a2-ec87-47ae-84fe-8ef76fb79e84","system_id":"levelo_inurba_marseille","lat":43.24469,"lon":5.42526,"is_reserved":false,"is_disabled":false,"rental_uris":{"android":"levelo://app?vid=bd94b5a2-ec87-47ae-84fe-8ef76fb79e84","ios":"levelo://app?vid=bd94b5a2-ec87-47ae-84fe-8ef76fb79e84"},"vehicle_type_id":"4","last_reported":1766171340,"current_range_meters":9200,"station_id":"st_d4a3vfp97mjs738cd8kg","pricing_plan_id":"cebpf4jnsgd1na2vs0mg"},{"bike_id":"da555a48-dfbf-401a-aed8-57741611d863","system_id":"levelo_inurba_marseille","lat":43.25813,"lon":5.39434,"is_reserved":false,"is_disabled":false,"rental_uris":{"android":"levelo://app?vid=da555a48-dfbf-401a-aed8-57741611d863","ios":"levelo://app?vid=da555a48-dfbf-401a-aed8-57741611d863"},"vehicle_type_id":"4","last_reported":1766171340,"current_range_meters":9600,"station_id":"ce4bhip2rcd13ifvqft0","pricing_plan_id":"cebpf4jnsgd1na2vs0mg"},{"bike_id":"90d2eaa6-d98b-40b3-bdd9-04b1b2c8e312","system_id":"levelo_inurba_marseille","lat":43.29232,"lon":5.38444,"is_reserved":false,"is_disabled":false,"rental_uris":{"android":"levelo://app?vid=90d2eaa6-d98b-40b3-bdd9-04b1b2c8e312","ios":"levelo://app?vid=90d2eaa6-d98b-40b3-bdd9-04b1b2c8e312"},"vehicle_type_id":"4","last_reported":1766171340,"current_range_meters":9600,"station_id":"ce4bh692rcd13ifvqea0","pricing_plan_id":"cebpf4jnsgd1na2vs0mg"},{"bike_id":"212913cc-edbe-465e-9367-b63552bde39f","system_id":"levelo_inurba_marseille","lat":43.28992,"lon":5.35607,"is_reserved":false,"is_disabled":false,"rental_uris":{"android":"levelo://app?vid=212913cc-edbe-465e-9367-b63552bde39f","ios":"levelo://app?vid=212913cc-edbe-465e-9367-b63552bde39f"},"vehicle_type_id":"4","last_reported":1766171340,"current_range_meters":9600,"station_id":"ce4bhb92rcd13ifvqen0","pricing_plan_id":"cebpf4jnsgd1na2vs0mg"},{"bike_id":"f0f7adc1-0635-442f-90a8-44bf45d584ac","system_id":"levelo_inurba_marseille","lat":43.29538,"lon":5.38544,"is_reserved":false,"is_disabled":false,"rental_uris":{"android":"levelo://app?vid=f0f7adc1-0635-442f-90a8-44bf45d584ac","ios":"levelo://app?vid=f0f7adc1-0635-442f-90a8-44bf45d584ac"},"vehicle_type_id":"4","last_reported":1766171340,"current_range_meters":9600,"station_id":"ce4bgih2rcd13ifvqba0","pricing_plan_id":"cebpf4jnsgd1na2vs0mg"},{"bike_id":"700442f5-a082-454e-8bc7-ab3bbb77bfce","system_id":"levelo_inurba_marseille","lat":43.26665,"lon":5.37441,"is_reserved":false,"is_disabled":false,"rental_uris":{"android":"levelo://app?vid=700442f5-a082-454e-8bc7-ab3bbb77bfce","ios":"levelo://app?vid=700442f5-a082-454e-8bc7-ab3bbb77bfce"},"vehicle_type_id":"4","last_reported":1766171340,"current_range_meters":9600,"station_id":"","pricing_plan_id":"cebpf4jnsgd1na2vs0mg"},{"bike_id":"1552c843-657d-497c-b955-847720237f3c","system_id":"levelo_inurba_marseille","lat":43.28969,"lon":5.37823,"is_reserved":false,"is_disabled":true,"rental_uris":{"android":"levelo://app?vid=1552c843-657d-497c-b955-847720237f3c","ios":"levelo://app?vid=1552c843-657d-497c-b955-847720237f3c"},"vehicle_type_id":"4","last_reported":1766171340,"current_range_meters":9600,"station_id":"ce4bh9p2rcd13ifvqed0","pricing_plan_id":"cebpf4jnsgd1na2vs0mg"},{"bike_id":"ded67861-f574-44db-b44f-5399d9afc5b8","system_id":"levelo_inurba_marseille","lat":43.29529,"lon":5.38544,"is_reserved":false,"is_disabled":false,"rental_uris":{"android":"levelo://app?vid=ded67861-f574-44db-b44f-5399d9afc5b8","ios":"levelo://app?vid=ded67861-f574-44db-b44f-5399d9afc5b8"},"vehicle_type_id":"4","last_reported":1766171340,"current_range_meters":10000,"station_id":"ce4bgih2rcd13ifvqba0","pricing_plan_id":"cebpf4jnsgd1na2vs0mg"},{"bike_id":"906a990f-28f7-4361-8663-b2012e83f9af","system_id":"levelo_inurba_marseille","lat":43.27995,"lon":5.40014,"is_reserved":false,"is_disabled":false,"rental_uris":{"android":"levelo://app?vid=906a990f-28f7-4361-8663-b2012e83f9af","ios":"levelo://app?vid=906a990f-28f7-4361-8663-b2012e83f9af"},"vehicle_type_id":"4","last_reported":1766171340,"current_range_meters":10000,"station_id":"ce4bho92rcd13ifvqh4g","pricing_plan_id":"cebpf4jnsgd1na2vs0mg"},{"bike_id":"39c75f87-af4e-41e4-ae4f-4dcdefa55b14","system_id":"levelo_inurba_marseille","lat":43.27996,"lon":5.40006,"is_reserved":false,"is_disabled":false,"rental_uris":{"android":"levelo://app?vid=39c75f87-af4e-41e4-ae4f-4dcdefa55b14","ios":"levelo://app?vid=39c75f87-af4e-41e4-ae4f-4dcdefa55b14"},"vehicle_type_id":"4","last_reported":1766171340,"current_range_meters":10000,"station_id":"ce4bho92rcd13ifvqh4g","pricing_plan_id":"cebpf4jnsgd1na2vs0mg"},{"bike_id":"1c79eb29-135e-40c1-8651-901759d4aaa6","system_id":"levelo_inurba_marseille","lat":43.285734,"lon":5.352954,"is_reserved":false,"is_disabled":false,"rental_uris":{"android":"levelo://app?vid=1c79eb29-135e-40c1-8651-901759d4aaa6","ios":"levelo://app?vid=1c79eb29-135e-40c1-8651-901759d4aaa6"},"vehicle_type_id":"4","last_reported":1766171340,"current_range_meters":10000,"station_id":"","pricing_plan_id":"cebpf4jnsgd1na2vs0mg"},{"bike_id":"098246e8-897d-4d24-958c-7ff852e3f1f3","system_id":"levelo_inurba_marseille","lat":43.2767,"lon":5.38872,"is_reserved":false,"is_disabled":false,"rental_uris":{"android":"levelo://app?vid=098246e8-897d-4d24-958c-7ff852e3f1f3","ios":"levelo://app?vid=098246e8-897d-4d24-958c-7ff852e3f1f3"},"vehicle_type_id":"4","last_reported":1766171340,"current_range_meters":10000,"station_id":"ce4bhi12rcd13ifvqfo0","pricing_plan_id":"cebpf4jnsgd1na2vs0mg"},{"bike_id":"ea42a270-3b7e-4605-a2c3-58de8f8d1765","system_id":"levelo_inurba_marseille","lat":43.29027,"lon":5.38653,"is_reserved":false,"is_disabled":false,"rental_uris":{"android":"levelo://app?vid=ea42a270-3b7e-4605-a2c3-58de8f8d1765","ios":"levelo://app?vid=ea42a270-3b7e-4605-a2c3-58de8f8d1765"},"vehicle_type_id":"4","last_reported":1766171340,"current_range_meters":10000,"station_id":"ce4bh4p2rcd13ifvqe0g","pricing_plan_id":"cebpf4jnsgd1na2vs0mg"},{"bike_id":"cee136c8-85b3-4c39-83e3-3f6c0bf1c640","system_id":"levelo_inurba_marseille","lat":43.28469,"lon":5.3843,"is_reserved":false,"is_disabled":false,"rental_uris":{"android":"levelo://app?vid=cee136c8-85b3-4c39-83e3-3f6c0bf1c640","ios":"levelo://app?vid=cee136c8-85b3-4c39-83e3-3f6c0bf1c640"},"vehicle_type_id":"4","last_reported":1766171340,"current_range_meters":10000,"station_id":"ce4bh512rcd13ifvqe3g","pricing_plan_id":"cebpf4jnsgd1na2vs0mg"},{"bike_id":"51850788-6d18-4067-a22e-183a3dbd8b5e","system_id":"levelo_inurba_marseille","lat":43.28611,"lon":5.35105,"is_reserved":false,"is_disabled":false,"rental_uris":{"android":"levelo://app?vid=51850788-6d18-4067-a22e-183a3dbd8b5e","ios":"levelo://app?vid=51850788-6d18-4067-a22e-183a3dbd8b5e"},"vehicle_type_id":"4","last_reported":1766171340,"current_range_meters":10000,"station_id":"ce4bhch2rcd13ifvqeug","pricing_plan_id":"cebpf4jnsgd1na2vs0mg"},{"bike_id":"8f389d1a-334e-4327-877e-17b4be704247","system_id":"levelo_inurba_marseille","lat":43.285767,"lon":5.394961,"is_reserved":false,"is_disabled":false,"rental_uris":{"android":"levelo://app?vid=8f389d1a-334e-4327-877e-17b4be704247","ios":"levelo://app?vid=8f389d1a-334e-4327-877e-17b4be704247"},"vehicle_type_id":"4","last_reported":1766171340,"current_range_meters":10000,"station_id":"ce4bh292rcd13ifvqdg0","pricing_plan_id":"cebpf4jnsgd1na2vs0mg"},{"bike_id":"689e1e25-96b9-418c-bbe1-0e8f9558c52f","system_id":"levelo_inurba_marseille","lat":43.31372,"lon":5.37685,"is_reserved":false,"is_disabled":false,"rental_uris":{"android":"levelo://app?vid=689e1e25-96b9-418c-bbe1-0e8f9558c52f","ios":"levelo://app?vid=689e1e25-96b9-418c-bbe1-0e8f9558c52f"},"vehicle_type_id":"4","last_reported":1766171340,"current_range_meters":10000,"station_id":"","pricing_plan_id":"cebpf4jnsgd1na2vs0mg"},{"bike_id":"dac16d09-d5e0-4833-914c-b29f09f3e1b3","system_id":"levelo_inurba_marseille","lat":43.2902,"lon":5.38144,"is_reserved":false,"is_disabled":false,"rental_uris":{"android":"levelo://app?vid=dac16d09-d5e0-4833-914c-b29f09f3e1b3","ios":"levelo://app?vid=dac16d09-d5e0-4833-914c-b29f09f3e1b3"},"vehicle_type_id":"4","last_reported":1766171340,"current_range_meters":10800,"station_id":"ce4bh4p2rcd13ifvqe1g","pricing_plan_id":"cebpf4jnsgd1na2vs0mg"},{"bike_id":"47b454cd-01f9-4de3-b129-3f7a7abb6370","system_id":"levelo_inurba_marseille","lat":43.2922,"lon":5.36066,"is_reserved":false,"is_disabled":false,"rental_uris":{"android":"levelo://app?vid=47b454cd-01f9-4de3-b129-3f7a7abb6370","ios":"levelo://app?vid=47b454cd-01f9-4de3-b129-3f7a7abb6370"},"vehicle_type_id":"4","last_reported":1766171340,"current_range_meters":10800,"station_id":"ce4bhbh2rcd13ifvqeqg","pricing_plan_id":"cebpf4jnsgd1na2vs0mg"},{"bike_id":"6e6c324e-da9a-44b3-abb9-01f866125b0b","system_id":"levelo_inurba_marseille","lat":43.28479,"lon":5.38429,"is_reserved":false,"is_disabled":false,"rental_uris":{"android":"levelo://app?vid=6e6c324e-da9a-44b3-abb9-01f866125b0b","ios":"levelo://app?vid=6e6c324e-da9a-44b3-abb9-01f866125b0b"},"vehicle_type_id":"4","last_reported":1766171340,"current_range_meters":10800,"station_id":"ce4bh512rcd13ifvqe3g","pricing_plan_id":"cebpf4jnsgd1na2vs0mg"},{"bike_id":"29ff8d65-fbca-42c1-b12e-cd4dc579808a","system_id":"levelo_inurba_marseille","lat":43.30185,"lon":5.373758,"is_reserved":false,"is_disabled":false,"rental_uris":{"android":"levelo://app?vid=29ff8d65-fbca-42c1-b12e-cd4dc579808a","ios":"levelo://app?vid=29ff8d65-fbca-42c1-b12e-cd4dc579808a"},"vehicle_type_id":"4","last_reported":1766171340,"current_range_meters":10800,"station_id":"","pricing_plan_id":"cebpf4jnsgd1na2vs0mg"},{"bike_id":"38df2fd9-96c2-46a4-8b43-f60147b98b19","system_id":"levelo_inurba_marseille","lat":43.295929,"lon":5.380892,"is_reserved":false,"is_disabled":false,"rental_uris":{"android":"levelo://app?vid=38df2fd9-96c2-46a4-8b43-f60147b98b19","ios":"levelo://app?vid=38df2fd9-96c2-46a4-8b43-f60147b98b19"},"vehicle_type_id":"4","last_reported":1766171340,"current_range_meters":10800,"station_id":"ce4bgl12rcd13ifvqbo0","pricing_plan_id":"cebpf4jnsgd1na2vs0mg"},{"bike_id":"353191d5-c85e-4d2b-8a88-8af8c037e499","system_id":"levelo_inurba_marseille","lat":43.30149,"lon":5.37425,"is_reserved":false,"is_disabled":false,"rental_uris":{"android":"levelo://app?vid=353191d5-c85e-4d2b-8a88-8af8c037e499","ios":"levelo://app?vid=353191d5-c85e-4d2b-8a88-8af8c037e499"},"vehicle_type_id":"4","last_reported":1766171340,"current_range_meters":10800,"station_id":"ce4bgs92rcd13ifvqcc0","pricing_plan_id":"cebpf4jnsgd1na2vs0mg"},{"bike_id":"e0effb5a-e8c9-4234-ae32-e89cc890b254","system_id":"levelo_inurba_marseille","lat":43.28869,"lon":5.42521,"is_reserved":false,"is_disabled":false,"rental_uris":{"android":"levelo://app?vid=e0effb5a-e8c9-4234-ae32-e89cc890b254","ios":"levelo://app?vid=e0effb5a-e8c9-4234-ae32-e89cc890b254"},"vehicle_type_id":"4","last_reported":1766171340,"current_range_meters":10800,"station_id":"st_d3b462108ojc7389ooeg","pricing_plan_id":"cebpf4jnsgd1na2vs0mg"},{"bike_id":"aa4e42c2-7823-4761-8fb0-744a102b644b","system_id":"levelo_inurba_marseille","lat":43.2928,"lon":5.36846,"is_reserved":false,"is_disabled":false,"rental_uris":{"android":"levelo://app?vid=aa4e42c2-7823-4761-8fb0-744a102b644b","ios":"levelo://app?vid=aa4e42c2-7823-4761-8fb0-744a102b644b"},"vehicle_type_id":"4","last_reported":1766171340,"current_range_meters":10800,"station_id":"ce4bhbp2rcd13ifvqesg","pricing_plan_id":"cebpf4jnsgd1na2vs0mg"},{"bike_id":"b292fd92-46bd-4eb2-8f8a-728e2e6f3dfc","system_id":"levelo_inurba_marseille","lat":43.284872,"lon":5.384162,"is_reserved":false,"is_disabled":false,"rental_uris":{"android":"levelo://app?vid=b292fd92-46bd-4eb2-8f8a-728e2e6f3dfc","ios":"levelo://app?vid=b292fd92-46bd-4eb2-8f8a-728e2e6f3dfc"},"vehicle_type_id":"4","last_reported":1766171340,"current_range_meters":10800,"station_id":"ce4bh512rcd13ifvqe3g","pricing_plan_id":"cebpf4jnsgd1na2vs0mg"},{"bike_id":"1c70b115-e95b-4353-a432-5565caadd1b0","system_id":"levelo_inurba_marseille","lat":43.28706,"lon":5.37394,"is_reserved":false,"is_disabled":false,"rental_uris":{"android":"levelo://app?vid=1c70b115-e95b-4353-a432-5565caadd1b0","ios":"levelo://app?vid=1c70b115-e95b-4353-a432-5565caadd1b0"},"vehicle_type_id":"4","last_reported":1766171340,"current_range_meters":10800,"station_id":"ce4bh3p2rcd13ifvqdq0","pricing_plan_id":"cebpf4jnsgd1na2vs0mg"},{"bike_id":"81cdd19c-9eb0-4b68-8437-f268e3e9b7c5","system_id":"levelo_inurba_marseille","lat":43.264972,"lon":5.395361,"is_reserved":false,"is_disabled":false,"rental_uris":{"android":"levelo://app?vid=81cdd19c-9eb0-4b68-8437-f268e3e9b7c5","ios":"levelo://app?vid=81cdd19c-9eb0-4b68-8437-f268e3e9b7c5"},"vehicle_type_id":"4","last_reported":1766171340,"current_range_meters":11200,"station_id":"ce4bhi12rcd13ifvqfq0","pricing_plan_id":"cebpf4jnsgd1na2vs0mg"},{"bike_id":"fcae12e9-dde1-430e-95a7-f5567d679aa5","system_id":"levelo_inurba_marseille","lat":43.29269,"lon":5.38448,"is_reserved":false,"is_disabled":true,"rental_uris":{"android":"levelo://app?vid=fcae12e9-dde1-430e-95a7-f5567d679aa5","ios":"levelo://app?vid=fcae12e9-dde1-430e-95a7-f5567d679aa5"},"vehicle_type_id":"4","last_reported":1766171340,"current_range_meters":11200,"station_id":"ce4bh692rcd13ifvqea0","pricing_plan_id":"cebpf4jnsgd1na2vs0mg"},{"bike_id":"e495d29a-33c3-4f7c-9186-85d0c6d2068e","system_id":"levelo_inurba_marseille","lat":43.29604,"lon":5.3809,"is_reserved":false,"is_disabled":false,"rental_uris":{"android":"levelo://app?vid=e495d29a-33c3-4f7c-9186-85d0c6d2068e","ios":"levelo://app?vid=e495d29a-33c3-4f7c-9186-85d0c6d2068e"},"vehicle_type_id":"4","last_reported":1766171340,"current_range_meters":11200,"station_id":"ce4bgl12rcd13ifvqbo0","pricing_plan_id":"cebpf4jnsgd1na2vs0mg"},{"bike_id":"3bf6fa57-4b2d-4b6c-b021-d8dbdfa9e53a","system_id":"levelo_inurba_marseille","lat":43.26196,"lon":5.37454,"is_reserved":false,"is_disabled":false,"rental_uris":{"android":"levelo://app?vid=3bf6fa57-4b2d-4b6c-b021-d8dbdfa9e53a","ios":"levelo://app?vid=3bf6fa57-4b2d-4b6c-b021-d8dbdfa9e53a"},"vehicle_type_id":"4","last_reported":1766171340,"current_range_meters":11200,"station_id":"ce4bhgp2rcd13ifvqfc0","pricing_plan_id":"cebpf4jnsgd1na2vs0mg"},{"bike_id":"c0a3a8db-26e7-4eff-9dcf-c9cc1bfd4b0d","system_id":"levelo_inurba_marseille","lat":43.3302,"lon":5.39019,"is_reserved":false,"is_disabled":false,"rental_uris":{"android":"levelo://app?vid=c0a3a8db-26e7-4eff-9dcf-c9cc1bfd4b0d","ios":"levelo://app?vid=c0a3a8db-26e7-4eff-9dcf-c9cc1bfd4b0d"},"vehicle_type_id":"4","last_reported":1766171340,"current_range_meters":11200,"station_id":"ce4bhr92rcd13ifvqhrg","pricing_plan_id":"cebpf4jnsgd1na2vs0mg"},{"bike_id":"c829ee74-4fff-4e0d-ad37-4e3ae183548b","system_id":"levelo_inurba_marseille","lat":43.2815,"lon":5.42657,"is_reserved":false,"is_disabled":false,"rental_uris":{"android":"levelo://app?vid=c829ee74-4fff-4e0d-ad37-4e3ae183548b","ios":"levelo://app?vid=c829ee74-4fff-4e0d-ad37-4e3ae183548b"},"vehicle_type_id":"4","last_reported":1766171340,"current_range_meters":11200,"station_id":"ce4bhnh2rcd13ifvqgug","pricing_plan_id":"cebpf4jnsgd1na2vs0mg"},{"bike_id":"2804a5d3-faa8-4e3b-a458-ce91cd4919af","system_id":"levelo_inurba_marseille","lat":43.29227,"lon":5.36071,"is_reserved":false,"is_disabled":false,"rental_uris":{"android":"levelo://app?vid=2804a5d3-faa8-4e3b-a458-ce91cd4919af","ios":"levelo://app?vid=2804a5d3-faa8-4e3b-a458-ce91cd4919af"},"vehicle_type_id":"4","last_reported":1766171340,"current_range_meters":11200,"station_id":"ce4bhbh2rcd13ifvqeqg","pricing_plan_id":"cebpf4jnsgd1na2vs0mg"},{"bike_id":"b93af163-41cc-4ed9-97cc-38d06f724bec","system_id":"levelo_inurba_marseille","lat":43.30239,"lon":5.40058,"is_reserved":false,"is_disabled":false,"rental_uris":{"android":"levelo://app?vid=b93af163-41cc-4ed9-97cc-38d06f724bec","ios":"levelo://app?vid=b93af163-41cc-4ed9-97cc-38d06f724bec"},"vehicle_type_id":"4","last_reported":1766171340,"current_range_meters":11200,"station_id":"ce4bgvh2rcd13ifvqcs0","pricing_plan_id":"cebpf4jnsgd1na2vs0mg"},{"bike_id":"3d435fec-fe95-4fa9-a006-69aaab3d09f9","system_id":"levelo_inurba_marseille","lat":43.31875,"lon":5.40735,"is_reserved":false,"is_disabled":false,"rental_uris":{"android":"levelo://app?vid=3d435fec-fe95-4fa9-a006-69aaab3d09f9","ios":"levelo://app?vid=3d435fec-fe95-4fa9-a006-69aaab3d09f9"},"vehicle_type_id":"4","last_reported":1766171340,"current_range_meters":11200,"station_id":"ce4bhq12rcd13ifvqhig","pricing_plan_id":"cebpf4jnsgd1na2vs0mg"},{"bike_id":"8ca42c75-83fc-47f3-8798-7bc1fc1f198d","system_id":"levelo_inurba_marseille","lat":43.28857,"lon":5.42525,"is_reserved":false,"is_disabled":false,"rental_uris":{"android":"levelo://app?vid=8ca42c75-83fc-47f3-8798-7bc1fc1f198d","ios":"levelo://app?vid=8ca42c75-83fc-47f3-8798-7bc1fc1f198d"},"vehicle_type_id":"4","last_reported":1766171340,"current_range_meters":11200,"station_id":"st_d3b462108ojc7389ooeg","pricing_plan_id":"cebpf4jnsgd1na2vs0mg"},{"bike_id":"84b0495d-fbaf-4d6a-9501-86968f61d2ec","system_id":"levelo_inurba_marseille","lat":43.29266,"lon":5.38426,"is_reserved":false,"is_disabled":false,"rental_uris":{"android":"levelo://app?vid=84b0495d-fbaf-4d6a-9501-86968f61d2ec","ios":"levelo://app?vid=84b0495d-fbaf-4d6a-9501-86968f61d2ec"},"vehicle_type_id":"4","last_reported":1766171340,"current_range_meters":11200,"station_id":"ce4bh692rcd13ifvqea0","pricing_plan_id":"cebpf4jnsgd1na2vs0mg"},{"bike_id":"6ec9a6be-eed9-4adb-a34f-9a64c85ea37b","system_id":"levelo_inurba_marseille","lat":43.30622,"lon":5.37574,"is_reserved":false,"is_disabled":false,"rental_uris":{"android":"levelo://app?vid=6ec9a6be-eed9-4adb-a34f-9a64c85ea37b","ios":"levelo://app?vid=6ec9a6be-eed9-4adb-a34f-9a64c85ea37b"},"vehicle_type_id":"4","last_reported":1766171340,"current_range_meters":11200,"station_id":"","pricing_plan_id":"cebpf4jnsgd1na2vs0mg"},{"bike_id":"79f312e3-f3b3-4527-baec-83d82c27778a","system_id":"levelo_inurba_marseille","lat":43.27939,"lon":5.41036,"is_reserved":false,"is_disabled":false,"rental_uris":{"android":"levelo://app?vid=79f312e3-f3b3-4527-baec-83d82c27778a","ios":"levelo://app?vid=79f312e3-f3b3-4527-baec-83d82c27778a"},"vehicle_type_id":"4","last_reported":1766171340,"current_range_meters":11200,"station_id":"ce4bhnp2rcd13ifvqh0g","pricing_plan_id":"cebpf4jnsgd1na2vs0mg"},{"bike_id":"02cb24cc-e062-4b73-80fd-141f91a697f7","system_id":"levelo_inurba_marseille","lat":43.31571,"lon":5.37653,"is_reserved":false,"is_disabled":false,"rental_uris":{"android":"levelo://app?vid=02cb24cc-e062-4b73-80fd-141f91a697f7","ios":"levelo://app?vid=02cb24cc-e062-4b73-80fd-141f91a697f7"},"vehicle_type_id":"4","last_reported":1766171340,"current_range_meters":11200,"station_id":"","pricing_plan_id":"cebpf4jnsgd1na2vs0mg"},{"bike_id":"128f68df-e6c8-471d-bf6e-3a9c347712de","system_id":"levelo_inurba_marseille","lat":43.29234,"lon":5.40898,"is_reserved":false,"is_disabled":false,"rental_uris":{"android":"levelo://app?vid=128f68df-e6c8-471d-bf6e-3a9c347712de","ios":"levelo://app?vid=128f68df-e6c8-471d-bf6e-3a9c347712de"},"vehicle_type_id":"4","last_reported":1766171340,"current_range_meters":11600,"station_id":"ce4bh192rcd13ifvqdc0","pricing_plan_id":"cebpf4jnsgd1na2vs0mg"},{"bike_id":"a1fd8253-edff-49f6-95c0-f7c7da314418","system_id":"levelo_inurba_marseille","lat":43.29786,"lon":5.39361,"is_reserved":false,"is_disabled":false,"rental_uris":{"android":"levelo://app?vid=a1fd8253-edff-49f6-95c0-f7c7da314418","ios":"levelo://app?vid=a1fd8253-edff-49f6-95c0-f7c7da314418"},"vehicle_type_id":"4","last_reported":1766171340,"current_range_meters":11600,"station_id":"chh1huq6cuj3fo74tm60","pricing_plan_id":"cebpf4jnsgd1na2vs0mg"},{"bike_id":"67486f1b-a40b-4e91-8dc3-2d661fa8d1bb","system_id":"levelo_inurba_marseille","lat":43.29229,"lon":5.36073,"is_reserved":false,"is_disabled":false,"rental_uris":{"android":"levelo://app?vid=67486f1b-a40b-4e91-8dc3-2d661fa8d1bb","ios":"levelo://app?vid=67486f1b-a40b-4e91-8dc3-2d661fa8d1bb"},"vehicle_type_id":"4","last_reported":1766171340,"current_range_meters":11600,"station_id":"ce4bhbh2rcd13ifvqeqg","pricing_plan_id":"cebpf4jnsgd1na2vs0mg"},{"bike_id":"576571cc-ef90-463e-a5f9-dc0cd6370114","system_id":"levelo_inurba_marseille","lat":43.28617,"lon":5.35105,"is_reserved":false,"is_disabled":false,"rental_uris":{"android":"levelo://app?vid=576571cc-ef90-463e-a5f9-dc0cd6370114","ios":"levelo://app?vid=576571cc-ef90-463e-a5f9-dc0cd6370114"},"vehicle_type_id":"4","last_reported":1766171340,"current_range_meters":11600,"station_id":"ce4bhch2rcd13ifvqeug","pricing_plan_id":"cebpf4jnsgd1na2vs0mg"},{"bike_id":"42374d19-ac13-4769-80c6-dcc0742be19c","system_id":"levelo_inurba_marseille","lat":43.28001,"lon":5.40009,"is_reserved":false,"is_disabled":false,"rental_uris":{"android":"levelo://app?vid=42374d19-ac13-4769-80c6-dcc0742be19c","ios":"levelo://app?vid=42374d19-ac13-4769-80c6-dcc0742be19c"},"vehicle_type_id":"4","last_reported":1766171340,"current_range_meters":11600,"station_id":"ce4bho92rcd13ifvqh4g","pricing_plan_id":"cebpf4jnsgd1na2vs0mg"},{"bike_id":"1b5dbd7c-c63e-4ef4-99ed-0dfcb5187432","system_id":"levelo_inurba_marseille","lat":43.290241,"lon":5.389216,"is_reserved":false,"is_disabled":false,"rental_uris":{"android":"levelo://app?vid=1b5dbd7c-c63e-4ef4-99ed-0dfcb5187432","ios":"levelo://app?vid=1b5dbd7c-c63e-4ef4-99ed-0dfcb5187432"},"vehicle_type_id":"4","last_reported":1766171340,"current_range_meters":11600,"station_id":"","pricing_plan_id":"cebpf4jnsgd1na2vs0mg"},{"bike_id":"c69a9f31-f9bb-41dd-8f21-d134adaaedfb","system_id":"levelo_inurba_marseille","lat":43.2846,"lon":5.35903,"is_reserved":false,"is_disabled":false,"rental_uris":{"android":"levelo://app?vid=c69a9f31-f9bb-41dd-8f21-d134adaaedfb","ios":"levelo://app?vid=c69a9f31-f9bb-41dd-8f21-d134adaaedfb"},"vehicle_type_id":"4","last_reported":1766171340,"current_range_meters":11600,"station_id":"ce4bhah2rcd13ifvqei0","pricing_plan_id":"cebpf4jnsgd1na2vs0mg"},{"bike_id":"dcf784f4-8fb6-484a-a880-b53a6c3cae38","system_id":"levelo_inurba_marseille","lat":43.24464,"lon":5.4253,"is_reserved":false,"is_disabled":false,"rental_uris":{"android":"levelo://app?vid=dcf784f4-8fb6-484a-a880-b53a6c3cae38","ios":"levelo://app?vid=dcf784f4-8fb6-484a-a880-b53a6c3cae38"},"vehicle_type_id":"4","last_reported":1766171340,"current_range_meters":11600,"station_id":"st_d4a3vfp97mjs738cd8kg","pricing_plan_id":"cebpf4jnsgd1na2vs0mg"},{"bike_id":"a7bbbd6e-7f8d-4ada-9faf-bd626e8734a6","system_id":"levelo_inurba_marseille","lat":43.27944,"lon":5.41033,"is_reserved":false,"is_disabled":false,"rental_uris":{"android":"levelo://app?vid=a7bbbd6e-7f8d-4ada-9faf-bd626e8734a6","ios":"levelo://app?vid=a7bbbd6e-7f8d-4ada-9faf-bd626e8734a6"},"vehicle_type_id":"4","last_reported":1766171340,"current_range_meters":11600,"station_id":"ce4bhnp2rcd13ifvqh0g","pricing_plan_id":"cebpf4jnsgd1na2vs0mg"},{"bike_id":"fcd75001-1344-42ec-a013-2f4c6240ace8","system_id":"levelo_inurba_marseille","lat":43.29812,"lon":5.38645,"is_reserved":false,"is_disabled":false,"rental_uris":{"android":"levelo://app?vid=fcd75001-1344-42ec-a013-2f4c6240ace8","ios":"levelo://app?vid=fcd75001-1344-42ec-a013-2f4c6240ace8"},"vehicle_type_id":"4","last_reported":1766171340,"current_range_meters":12000,"station_id":"","pricing_plan_id":"cebpf4jnsgd1na2vs0mg"},{"bike_id":"00a29bb1-88ca-440d-9219-07d673c689ed","system_id":"levelo_inurba_marseille","lat":43.3047,"lon":5.3688,"is_reserved":false,"is_disabled":false,"rental_uris":{"android":"levelo://app?vid=00a29bb1-88ca-440d-9219-07d673c689ed","ios":"levelo://app?vid=00a29bb1-88ca-440d-9219-07d673c689ed"},"vehicle_type_id":"4","last_reported":1766171340,"current_range_meters":12000,"station_id":"","pricing_plan_id":"cebpf4jnsgd1na2vs0mg"},{"bike_id":"f76f9e4d-d309-41e5-bccd-e5b55b3c97ca","system_id":"levelo_inurba_marseille","lat":43.28617,"lon":5.3509,"is_reserved":false,"is_disabled":false,"rental_uris":{"android":"levelo://app?vid=f76f9e4d-d309-41e5-bccd-e5b55b3c97ca","ios":"levelo://app?vid=f76f9e4d-d309-41e5-bccd-e5b55b3c97ca"},"vehicle_type_id":"4","last_reported":1766171340,"current_range_meters":12000,"station_id":"ce4bhch2rcd13ifvqeug","pricing_plan_id":"cebpf4jnsgd1na2vs0mg"},{"bike_id":"de3a48cc-11d9-4fce-946d-3b6498fa315f","system_id":"levelo_inurba_marseille","lat":43.27954,"lon":5.38694,"is_reserved":false,"is_disabled":false,"rental_uris":{"android":"levelo://app?vid=de3a48cc-11d9-4fce-946d-3b6498fa315f","ios":"levelo://app?vid=de3a48cc-11d9-4fce-946d-3b6498fa315f"},"vehicle_type_id":"4","last_reported":1766171340,"current_range_meters":12000,"station_id":"ce4bhg12rcd13ifvqf80","pricing_plan_id":"cebpf4jnsgd1na2vs0mg"},{"bike_id":"6c2a5d11-682f-4ae1-af0e-7735ccbaa2d2","system_id":"levelo_inurba_marseille","lat":43.28002,"lon":5.40007,"is_reserved":false,"is_disabled":false,"rental_uris":{"android":"levelo://app?vid=6c2a5d11-682f-4ae1-af0e-7735ccbaa2d2","ios":"levelo://app?vid=6c2a5d11-682f-4ae1-af0e-7735ccbaa2d2"},"vehicle_type_id":"4","last_reported":1766171340,"current_range_meters":12000,"station_id":"ce4bho92rcd13ifvqh4g","pricing_plan_id":"cebpf4jnsgd1na2vs0mg"},{"bike_id":"657677ff-bd0f-45b9-a985-0cee09b5fde2","system_id":"levelo_inurba_marseille","lat":43.31712,"lon":5.43697,"is_reserved":false,"is_disabled":false,"rental_uris":{"android":"levelo://app?vid=657677ff-bd0f-45b9-a985-0cee09b5fde2","ios":"levelo://app?vid=657677ff-bd0f-45b9-a985-0cee09b5fde2"},"vehicle_type_id":"4","last_reported":1766171340,"current_range_meters":12000,"station_id":"ce4bhp92rcd13ifvqhcg","pricing_plan_id":"cebpf4jnsgd1na2vs0mg"},{"bike_id":"342831ac-e927-49d6-8b43-22fa72e5bef8","system_id":"levelo_inurba_marseille","lat":43.28004,"lon":5.38688,"is_reserved":false,"is_disabled":false,"rental_uris":{"android":"levelo://app?vid=342831ac-e927-49d6-8b43-22fa72e5bef8","ios":"levelo://app?vid=342831ac-e927-49d6-8b43-22fa72e5bef8"},"vehicle_type_id":"4","last_reported":1766171340,"current_range_meters":12000,"station_id":"","pricing_plan_id":"cebpf4jnsgd1na2vs0mg"},{"bike_id":"76151313-8a7e-46c5-9974-b27c76769793","system_id":"levelo_inurba_marseille","lat":43.29025,"lon":5.38647,"is_reserved":false,"is_disabled":false,"rental_uris":{"android":"levelo://app?vid=76151313-8a7e-46c5-9974-b27c76769793","ios":"levelo://app?vid=76151313-8a7e-46c5-9974-b27c76769793"},"vehicle_type_id":"4","last_reported":1766171340,"current_range_meters":12000,"station_id":"ce4bh4p2rcd13ifvqe0g","pricing_plan_id":"cebpf4jnsgd1na2vs0mg"},{"bike_id":"0f95d41f-83a7-4a3d-9879-f69190604716","system_id":"levelo_inurba_marseille","lat":43.31331,"lon":5.39701,"is_reserved":false,"is_disabled":false,"rental_uris":{"android":"levelo://app?vid=0f95d41f-83a7-4a3d-9879-f69190604716","ios":"levelo://app?vid=0f95d41f-83a7-4a3d-9879-f69190604716"},"vehicle_type_id":"4","last_reported":1766171340,"current_range_meters":12000,"station_id":"ce4bgvp2rcd13ifvqcu0","pricing_plan_id":"cebpf4jnsgd1na2vs0mg"},{"bike_id":"ad2613ac-694a-4da1-936b-f66c7811a7eb","system_id":"levelo_inurba_marseille","lat":43.23183,"lon":5.39997,"is_reserved":false,"is_disabled":false,"rental_uris":{"android":"levelo://app?vid=ad2613ac-694a-4da1-936b-f66c7811a7eb","ios":"levelo://app?vid=ad2613ac-694a-4da1-936b-f66c7811a7eb"},"vehicle_type_id":"4","last_reported":1766171340,"current_range_meters":12000,"station_id":"ce4bhn12rcd13ifvqgqg","pricing_plan_id":"cebpf4jnsgd1na2vs0mg"},{"bike_id":"da3a800f-bcf9-4af4-ba52-a88a114e9020","system_id":"levelo_inurba_marseille","lat":43.2782,"lon":5.39208,"is_reserved":false,"is_disabled":false,"rental_uris":{"android":"levelo://app?vid=da3a800f-bcf9-4af4-ba52-a88a114e9020","ios":"levelo://app?vid=da3a800f-bcf9-4af4-ba52-a88a114e9020"},"vehicle_type_id":"4","last_reported":1766171340,"current_range_meters":12000,"station_id":"ce4bhjp2rcd13ifvqga0","pricing_plan_id":"cebpf4jnsgd1na2vs0mg"},{"bike_id":"5d6eb0a2-07e6-4d18-8a34-4d982583f956","system_id":"levelo_inurba_marseille","lat":43.265614,"lon":5.403278,"is_reserved":false,"is_disabled":false,"rental_uris":{"android":"levelo://app?vid=5d6eb0a2-07e6-4d18-8a34-4d982583f956","ios":"levelo://app?vid=5d6eb0a2-07e6-4d18-8a34-4d982583f956"},"vehicle_type_id":"4","last_reported":1766171340,"current_range_meters":12000,"station_id":"ce4bhmp2rcd13ifvqgng","pricing_plan_id":"cebpf4jnsgd1na2vs0mg"},{"bike_id":"98c040ff-ac12-4358-bded-c79cb9358db9","system_id":"levelo_inurba_marseille","lat":43.317223,"lon":5.423912,"is_reserved":false,"is_disabled":false,"rental_uris":{"android":"levelo://app?vid=98c040ff-ac12-4358-bded-c79cb9358db9","ios":"levelo://app?vid=98c040ff-ac12-4358-bded-c79cb9358db9"},"vehicle_type_id":"4","last_reported":1766171340,"current_range_meters":12000,"station_id":"ce4bhp92rcd13ifvqhbg","pricing_plan_id":"cebpf4jnsgd1na2vs0mg"},{"bike_id":"320214c4-b2c6-487e-b010-3901d6fee33d","system_id":"levelo_inurba_marseille","lat":43.28145,"lon":5.42638,"is_reserved":false,"is_disabled":false,"rental_uris":{"android":"levelo://app?vid=320214c4-b2c6-487e-b010-3901d6fee33d","ios":"levelo://app?vid=320214c4-b2c6-487e-b010-3901d6fee33d"},"vehicle_type_id":"4","last_reported":1766171340,"current_range_meters":12000,"station_id":"ce4bhnh2rcd13ifvqgug","pricing_plan_id":"cebpf4jnsgd1na2vs0mg"},{"bike_id":"bbe6d64f-2cb1-409d-ba24-ff27de876e43","system_id":"levelo_inurba_marseille","lat":43.28534,"lon":5.44138,"is_reserved":false,"is_disabled":false,"rental_uris":{"android":"levelo://app?vid=bbe6d64f-2cb1-409d-ba24-ff27de876e43","ios":"levelo://app?vid=bbe6d64f-2cb1-409d-ba24-ff27de876e43"},"vehicle_type_id":"4","last_reported":1766171340,"current_range_meters":12400,"station_id":"st_d3j3df2ikq2c7380ej80","pricing_plan_id":"cebpf4jnsgd1na2vs0mg"},{"bike_id":"2ecad3a2-9a3a-4522-a056-53f734b67d7c","system_id":"levelo_inurba_marseille","lat":43.295342,"lon":5.385453,"is_reserved":false,"is_disabled":false,"rental_uris":{"android":"levelo://app?vid=2ecad3a2-9a3a-4522-a056-53f734b67d7c","ios":"levelo://app?vid=2ecad3a2-9a3a-4522-a056-53f734b67d7c"},"vehicle_type_id":"4","last_reported":1766171340,"current_range_meters":12400,"station_id":"ce4bgi92rcd13ifvqb90","pricing_plan_id":"cebpf4jnsgd1na2vs0mg"},{"bike_id":"1e80a204-7357-4919-a1b8-d655b46214a5","system_id":"levelo_inurba_marseille","lat":43.32385,"lon":5.38871,"is_reserved":false,"is_disabled":false,"rental_uris":{"android":"levelo://app?vid=1e80a204-7357-4919-a1b8-d655b46214a5","ios":"levelo://app?vid=1e80a204-7357-4919-a1b8-d655b46214a5"},"vehicle_type_id":"4","last_reported":1766171340,"current_range_meters":12400,"station_id":"ce4bhqp2rcd13ifvqhog","pricing_plan_id":"cebpf4jnsgd1na2vs0mg"},{"bike_id":"0d303fc7-606f-4943-9629-57c31a744736","system_id":"levelo_inurba_marseille","lat":43.28535,"lon":5.441,"is_reserved":false,"is_disabled":false,"rental_uris":{"android":"levelo://app?vid=0d303fc7-606f-4943-9629-57c31a744736","ios":"levelo://app?vid=0d303fc7-606f-4943-9629-57c31a744736"},"vehicle_type_id":"4","last_reported":1766171340,"current_range_meters":12400,"station_id":"st_d3j3df2ikq2c7380ej80","pricing_plan_id":"cebpf4jnsgd1na2vs0mg"},{"bike_id":"207776d7-b88e-48a6-b74f-2b1aae5e54c7","system_id":"levelo_inurba_marseille","lat":43.268961,"lon":5.387159,"is_reserved":false,"is_disabled":false,"rental_uris":{"android":"levelo://app?vid=207776d7-b88e-48a6-b74f-2b1aae5e54c7","ios":"levelo://app?vid=207776d7-b88e-48a6-b74f-2b1aae5e54c7"},"vehicle_type_id":"4","last_reported":1766171340,"current_range_meters":12400,"station_id":"","pricing_plan_id":"cebpf4jnsgd1na2vs0mg"},{"bike_id":"6dd02831-3476-40a3-9648-da8b220f9ce0","system_id":"levelo_inurba_marseille","lat":43.30155,"lon":5.38098,"is_reserved":false,"is_disabled":false,"rental_uris":{"android":"levelo://app?vid=6dd02831-3476-40a3-9648-da8b220f9ce0","ios":"levelo://app?vid=6dd02831-3476-40a3-9648-da8b220f9ce0"},"vehicle_type_id":"4","last_reported":1766171340,"current_range_meters":12400,"station_id":"ce4bgjp2rcd13ifvqbh0","pricing_plan_id":"cebpf4jnsgd1na2vs0mg"},{"bike_id":"e0f84bae-cbb0-4084-a9dd-e2f11ef77ffa","system_id":"levelo_inurba_marseille","lat":43.310723,"lon":5.383564,"is_reserved":false,"is_disabled":false,"rental_uris":{"android":"levelo://app?vid=e0f84bae-cbb0-4084-a9dd-e2f11ef77ffa","ios":"levelo://app?vid=e0f84bae-cbb0-4084-a9dd-e2f11ef77ffa"},"vehicle_type_id":"4","last_reported":1766171340,"current_range_meters":12400,"station_id":"ce4bgv92rcd13ifvqcr0","pricing_plan_id":"cebpf4jnsgd1na2vs0mg"},{"bike_id":"5cfdf108-64c2-4b38-8628-9d012576cd8b","system_id":"levelo_inurba_marseille","lat":43.335405,"lon":5.374705,"is_reserved":false,"is_disabled":false,"rental_uris":{"android":"levelo://app?vid=5cfdf108-64c2-4b38-8628-9d012576cd8b","ios":"levelo://app?vid=5cfdf108-64c2-4b38-8628-9d012576cd8b"},"vehicle_type_id":"4","last_reported":1766171340,"current_range_meters":12400,"station_id":"st_d46tts09ee8s73dlu43g","pricing_plan_id":"cebpf4jnsgd1na2vs0mg"},{"bike_id":"d807ac16-d1e5-4c36-a58d-4108e65b29dc","system_id":"levelo_inurba_marseille","lat":43.29283,"lon":5.38461,"is_reserved":false,"is_disabled":false,"rental_uris":{"android":"levelo://app?vid=d807ac16-d1e5-4c36-a58d-4108e65b29dc","ios":"levelo://app?vid=d807ac16-d1e5-4c36-a58d-4108e65b29dc"},"vehicle_type_id":"4","last_reported":1766171340,"current_range_meters":12400,"station_id":"ce4bh692rcd13ifvqea0","pricing_plan_id":"cebpf4jnsgd1na2vs0mg"},{"bike_id":"9d74f9bd-c33e-4aba-863e-9a7db05ab2a4","system_id":"levelo_inurba_marseille","lat":43.29926,"lon":5.37487,"is_reserved":false,"is_disabled":false,"rental_uris":{"android":"levelo://app?vid=9d74f9bd-c33e-4aba-863e-9a7db05ab2a4","ios":"levelo://app?vid=9d74f9bd-c33e-4aba-863e-9a7db05ab2a4"},"vehicle_type_id":"4","last_reported":1766171340,"current_range_meters":12800,"station_id":"","pricing_plan_id":"cebpf4jnsgd1na2vs0mg"},{"bike_id":"7c03507d-6bc5-4440-9110-2ce8a675d9a4","system_id":"levelo_inurba_marseille","lat":43.29205,"lon":5.35803,"is_reserved":false,"is_disabled":false,"rental_uris":{"android":"levelo://app?vid=7c03507d-6bc5-4440-9110-2ce8a675d9a4","ios":"levelo://app?vid=7c03507d-6bc5-4440-9110-2ce8a675d9a4"},"vehicle_type_id":"4","last_reported":1766171340,"current_range_meters":12800,"station_id":"ce4bhb12rcd13ifvqel0","pricing_plan_id":"cebpf4jnsgd1na2vs0mg"},{"bike_id":"bb67b255-5e37-444f-b7a3-316dd67e2430","system_id":"levelo_inurba_marseille","lat":43.29177,"lon":5.35789,"is_reserved":false,"is_disabled":false,"rental_uris":{"android":"levelo://app?vid=bb67b255-5e37-444f-b7a3-316dd67e2430","ios":"levelo://app?vid=bb67b255-5e37-444f-b7a3-316dd67e2430"},"vehicle_type_id":"4","last_reported":1766171340,"current_range_meters":12800,"station_id":"ce4bgh92rcd13ifvqb40","pricing_plan_id":"cebpf4jnsgd1na2vs0mg"},{"bike_id":"8ddf5f0b-8638-4227-b0ee-efe27c023df6","system_id":"levelo_inurba_marseille","lat":43.308014,"lon":5.381433,"is_reserved":false,"is_disabled":false,"rental_uris":{"android":"levelo://app?vid=8ddf5f0b-8638-4227-b0ee-efe27c023df6","ios":"levelo://app?vid=8ddf5f0b-8638-4227-b0ee-efe27c023df6"},"vehicle_type_id":"4","last_reported":1766171340,"current_range_meters":12800,"station_id":"ce4bgjp2rcd13ifvqbh0","pricing_plan_id":"cebpf4jnsgd1na2vs0mg"},{"bike_id":"c11e3df8-d8fa-44e8-862b-40d8102dd60d","system_id":"levelo_inurba_marseille","lat":43.31274,"lon":5.4016,"is_reserved":false,"is_disabled":false,"rental_uris":{"android":"levelo://app?vid=c11e3df8-d8fa-44e8-862b-40d8102dd60d","ios":"levelo://app?vid=c11e3df8-d8fa-44e8-862b-40d8102dd60d"},"vehicle_type_id":"4","last_reported":1766171340,"current_range_meters":12800,"station_id":"ce4bh092rcd13ifvqd30","pricing_plan_id":"cebpf4jnsgd1na2vs0mg"},{"bike_id":"ca146c2e-28d6-4f35-80b1-efb3bde5d07a","system_id":"levelo_inurba_marseille","lat":43.26548,"lon":5.37278,"is_reserved":false,"is_disabled":false,"rental_uris":{"android":"levelo://app?vid=ca146c2e-28d6-4f35-80b1-efb3bde5d07a","ios":"levelo://app?vid=ca146c2e-28d6-4f35-80b1-efb3bde5d07a"},"vehicle_type_id":"4","last_reported":1766171340,"current_range_meters":12800,"station_id":"ce4bhg12rcd13ifvqf70","pricing_plan_id":"cebpf4jnsgd1na2vs0mg"},{"bike_id":"23a2314f-c816-4604-a08b-20a8da5be6a4","system_id":"levelo_inurba_marseille","lat":43.269327,"lon":5.402562,"is_reserved":false,"is_disabled":false,"rental_uris":{"android":"levelo://app?vid=23a2314f-c816-4604-a08b-20a8da5be6a4","ios":"levelo://app?vid=23a2314f-c816-4604-a08b-20a8da5be6a4"},"vehicle_type_id":"4","last_reported":1766171340,"current_range_meters":12800,"station_id":"cjm6bp8fraef2m0cb0m0","pricing_plan_id":"cebpf4jnsgd1na2vs0mg"},{"bike_id":"177fd090-0076-4f92-9832-62b1c96ea1ea","system_id":"levelo_inurba_marseille","lat":43.25336,"lon":5.42169,"is_reserved":false,"is_disabled":true,"rental_uris":{"android":"levelo://app?vid=177fd090-0076-4f92-9832-62b1c96ea1ea","ios":"levelo://app?vid=177fd090-0076-4f92-9832-62b1c96ea1ea"},"vehicle_type_id":"4","last_reported":1766171340,"current_range_meters":12800,"station_id":"st_d2m65c5bi1j21697t3ng","pricing_plan_id":"cebpf4jnsgd1na2vs0mg"},{"bike_id":"bac88a4d-041f-4cb3-9411-f4e99e0e2f13","system_id":"levelo_inurba_marseille","lat":43.26557,"lon":5.37284,"is_reserved":false,"is_disabled":false,"rental_uris":{"android":"levelo://app?vid=bac88a4d-041f-4cb3-9411-f4e99e0e2f13","ios":"levelo://app?vid=bac88a4d-041f-4cb3-9411-f4e99e0e2f13"},"vehicle_type_id":"4","last_reported":1766171340,"current_range_meters":13600,"station_id":"ce4bhg12rcd13ifvqf70","pricing_plan_id":"cebpf4jnsgd1na2vs0mg"},{"bike_id":"63b71f61-0ce8-4f6b-8098-b32775a7e568","system_id":"levelo_inurba_marseille","lat":43.32119,"lon":5.3677,"is_reserved":false,"is_disabled":false,"rental_uris":{"android":"levelo://app?vid=63b71f61-0ce8-4f6b-8098-b32775a7e568","ios":"levelo://app?vid=63b71f61-0ce8-4f6b-8098-b32775a7e568"},"vehicle_type_id":"4","last_reported":1766171340,"current_range_meters":13600,"station_id":"ce4bhrh2rcd13ifvqhug","pricing_plan_id":"cebpf4jnsgd1na2vs0mg"},{"bike_id":"f1c6ef30-df40-4531-b632-19b3b8de3f93","system_id":"levelo_inurba_marseille","lat":43.337444,"lon":5.374475,"is_reserved":false,"is_disabled":false,"rental_uris":{"android":"levelo://app?vid=f1c6ef30-df40-4531-b632-19b3b8de3f93","ios":"levelo://app?vid=f1c6ef30-df40-4531-b632-19b3b8de3f93"},"vehicle_type_id":"4","last_reported":1766171340,"current_range_meters":13600,"station_id":"","pricing_plan_id":"cebpf4jnsgd1na2vs0mg"},{"bike_id":"68b52151-88b1-4698-96c1-adf80b02a94c","system_id":"levelo_inurba_marseille","lat":43.27799,"lon":5.40713,"is_reserved":false,"is_disabled":false,"rental_uris":{"android":"levelo://app?vid=68b52151-88b1-4698-96c1-adf80b02a94c","ios":"levelo://app?vid=68b52151-88b1-4698-96c1-adf80b02a94c"},"vehicle_type_id":"4","last_reported":1766171340,"current_range_meters":13600,"station_id":"ce4bhnh2rcd13ifvqgtg","pricing_plan_id":"cebpf4jnsgd1na2vs0mg"},{"bike_id":"bcb638ec-1f7a-45bb-913f-62a7a0a453a1","system_id":"levelo_inurba_marseille","lat":43.29852,"lon":5.38585,"is_reserved":false,"is_disabled":false,"rental_uris":{"android":"levelo://app?vid=bcb638ec-1f7a-45bb-913f-62a7a0a453a1","ios":"levelo://app?vid=bcb638ec-1f7a-45bb-913f-62a7a0a453a1"},"vehicle_type_id":"4","last_reported":1766171340,"current_range_meters":13600,"station_id":"","pricing_plan_id":"cebpf4jnsgd1na2vs0mg"},{"bike_id":"8b58605c-24f9-43bc-b38b-d3f57666bf2b","system_id":"levelo_inurba_marseille","lat":43.2794,"lon":5.41027,"is_reserved":false,"is_disabled":false,"rental_uris":{"android":"levelo://app?vid=8b58605c-24f9-43bc-b38b-d3f57666bf2b","ios":"levelo://app?vid=8b58605c-24f9-43bc-b38b-d3f57666bf2b"},"vehicle_type_id":"4","last_reported":1766171340,"current_range_meters":13600,"station_id":"ce4bhnp2rcd13ifvqh0g","pricing_plan_id":"cebpf4jnsgd1na2vs0mg"},{"bike_id":"e836c3e7-1623-45f6-a02c-a3da64f81f7a","system_id":"levelo_inurba_marseille","lat":43.295774,"lon":5.367389,"is_reserved":false,"is_disabled":false,"rental_uris":{"android":"levelo://app?vid=e836c3e7-1623-45f6-a02c-a3da64f81f7a","ios":"levelo://app?vid=e836c3e7-1623-45f6-a02c-a3da64f81f7a"},"vehicle_type_id":"4","last_reported":1766171340,"current_range_meters":13600,"station_id":"ce4bgph2rcd13ifvqc2g","pricing_plan_id":"cebpf4jnsgd1na2vs0mg"},{"bike_id":"49eaeb99-01db-4a25-87fd-cb6c87f1647c","system_id":"levelo_inurba_marseille","lat":43.30126,"lon":5.43119,"is_reserved":false,"is_disabled":false,"rental_uris":{"android":"levelo://app?vid=49eaeb99-01db-4a25-87fd-cb6c87f1647c","ios":"levelo://app?vid=49eaeb99-01db-4a25-87fd-cb6c87f1647c"},"vehicle_type_id":"4","last_reported":1766171340,"current_range_meters":13600,"station_id":"st_d3js3co5814s73ftftug","pricing_plan_id":"cebpf4jnsgd1na2vs0mg"},{"bike_id":"e2869c03-bf1b-4a39-ad3c-81c86614ade4","system_id":"levelo_inurba_marseille","lat":43.29276,"lon":5.38438,"is_reserved":false,"is_disabled":false,"rental_uris":{"android":"levelo://app?vid=e2869c03-bf1b-4a39-ad3c-81c86614ade4","ios":"levelo://app?vid=e2869c03-bf1b-4a39-ad3c-81c86614ade4"},"vehicle_type_id":"4","last_reported":1766171340,"current_range_meters":13600,"station_id":"ce4bh692rcd13ifvqea0","pricing_plan_id":"cebpf4jnsgd1na2vs0mg"},{"bike_id":"e18d88c4-447f-4613-ac8f-5a6e3bb9a21c","system_id":"levelo_inurba_marseille","lat":43.29827,"lon":5.44067,"is_reserved":false,"is_disabled":false,"rental_uris":{"android":"levelo://app?vid=e18d88c4-447f-4613-ac8f-5a6e3bb9a21c","ios":"levelo://app?vid=e18d88c4-447f-4613-ac8f-5a6e3bb9a21c"},"vehicle_type_id":"4","last_reported":1766171340,"current_range_meters":13600,"station_id":"st_d3jp68qikq2c7381ktn0","pricing_plan_id":"cebpf4jnsgd1na2vs0mg"},{"bike_id":"af1f9193-90aa-4f34-b2c4-fb0bbaea183c","system_id":"levelo_inurba_marseille","lat":43.28477,"lon":5.48394,"is_reserved":false,"is_disabled":false,"rental_uris":{"android":"levelo://app?vid=af1f9193-90aa-4f34-b2c4-fb0bbaea183c","ios":"levelo://app?vid=af1f9193-90aa-4f34-b2c4-fb0bbaea183c"},"vehicle_type_id":"4","last_reported":1766171340,"current_range_meters":13600,"station_id":"st_d3svhcjqgbts73a3dn0g","pricing_plan_id":"cebpf4jnsgd1na2vs0mg"},{"bike_id":"6147b2c8-629e-4457-b54b-c0dc21f0f0aa","system_id":"levelo_inurba_marseille","lat":43.30887,"lon":5.37196,"is_reserved":false,"is_disabled":true,"rental_uris":{"android":"levelo://app?vid=6147b2c8-629e-4457-b54b-c0dc21f0f0aa","ios":"levelo://app?vid=6147b2c8-629e-4457-b54b-c0dc21f0f0aa"},"vehicle_type_id":"4","last_reported":1766171340,"current_range_meters":13600,"station_id":"ce4bguh2rcd13ifvqckg","pricing_plan_id":"cebpf4jnsgd1na2vs0mg"},{"bike_id":"a3f40455-d46f-427e-bca5-15a6f3d71059","system_id":"levelo_inurba_marseille","lat":43.28491,"lon":5.38569,"is_reserved":false,"is_disabled":false,"rental_uris":{"android":"levelo://app?vid=a3f40455-d46f-427e-bca5-15a6f3d71059","ios":"levelo://app?vid=a3f40455-d46f-427e-bca5-15a6f3d71059"},"vehicle_type_id":"4","last_reported":1766171340,"current_range_meters":13600,"station_id":"ce4bh8p2rcd13ifvqeb0","pricing_plan_id":"cebpf4jnsgd1na2vs0mg"},{"bike_id":"eb1341ba-ba7e-4c28-827b-ac87efb87a9d","system_id":"levelo_inurba_marseille","lat":43.23783,"lon":5.36629,"is_reserved":false,"is_disabled":false,"rental_uris":{"android":"levelo://app?vid=eb1341ba-ba7e-4c28-827b-ac87efb87a9d","ios":"levelo://app?vid=eb1341ba-ba7e-4c28-827b-ac87efb87a9d"},"vehicle_type_id":"4","last_reported":1766171340,"current_range_meters":14000,"station_id":"st_d3nk18o9ro0c73en2l3g","pricing_plan_id":"cebpf4jnsgd1na2vs0mg"},{"bike_id":"eda6aae3-bb0b-43ce-bc06-d34c054d256f","system_id":"levelo_inurba_marseille","lat":43.25725,"lon":5.41094,"is_reserved":false,"is_disabled":false,"rental_uris":{"android":"levelo://app?vid=eda6aae3-bb0b-43ce-bc06-d34c054d256f","ios":"levelo://app?vid=eda6aae3-bb0b-43ce-bc06-d34c054d256f"},"vehicle_type_id":"4","last_reported":1766171340,"current_range_meters":14000,"station_id":"ce4bhkp2rcd13ifvqgd0","pricing_plan_id":"cebpf4jnsgd1na2vs0mg"},{"bike_id":"99ad97c1-5a83-4b1c-9cf1-08492f7d7210","system_id":"levelo_inurba_marseille","lat":43.29249,"lon":5.409,"is_reserved":false,"is_disabled":false,"rental_uris":{"android":"levelo://app?vid=99ad97c1-5a83-4b1c-9cf1-08492f7d7210","ios":"levelo://app?vid=99ad97c1-5a83-4b1c-9cf1-08492f7d7210"},"vehicle_type_id":"4","last_reported":1766171340,"current_range_meters":14000,"station_id":"ce4bh192rcd13ifvqdc0","pricing_plan_id":"cebpf4jnsgd1na2vs0mg"},{"bike_id":"f2364b2e-178e-40c8-8681-6c34f1d777d6","system_id":"levelo_inurba_marseille","lat":43.30781,"lon":5.37648,"is_reserved":false,"is_disabled":false,"rental_uris":{"android":"levelo://app?vid=f2364b2e-178e-40c8-8681-6c34f1d777d6","ios":"levelo://app?vid=f2364b2e-178e-40c8-8681-6c34f1d777d6"},"vehicle_type_id":"4","last_reported":1766171340,"current_range_meters":14000,"station_id":"ce4bgv92rcd13ifvqcq0","pricing_plan_id":"cebpf4jnsgd1na2vs0mg"},{"bike_id":"d6d2bb3a-fbb7-4a3d-8530-972c5de173fe","system_id":"levelo_inurba_marseille","lat":43.231979,"lon":5.355559,"is_reserved":false,"is_disabled":false,"rental_uris":{"android":"levelo://app?vid=d6d2bb3a-fbb7-4a3d-8530-972c5de173fe","ios":"levelo://app?vid=d6d2bb3a-fbb7-4a3d-8530-972c5de173fe"},"vehicle_type_id":"4","last_reported":1766171340,"current_range_meters":14000,"station_id":"ce4bhu92rcd13ifvqi70","pricing_plan_id":"cebpf4jnsgd1na2vs0mg"},{"bike_id":"6244ba23-4432-4050-a6de-b074545c45d3","system_id":"levelo_inurba_marseille","lat":43.24166,"lon":5.364,"is_reserved":false,"is_disabled":false,"rental_uris":{"android":"levelo://app?vid=6244ba23-4432-4050-a6de-b074545c45d3","ios":"levelo://app?vid=6244ba23-4432-4050-a6de-b074545c45d3"},"vehicle_type_id":"4","last_reported":1766171340,"current_range_meters":14000,"station_id":"cpo36qri1sfpv3e86is0","pricing_plan_id":"cebpf4jnsgd1na2vs0mg"},{"bike_id":"5aa6494d-0eee-4a3c-bc5e-0d25343561e5","system_id":"levelo_inurba_marseille","lat":43.27063,"lon":5.38298,"is_reserved":false,"is_disabled":false,"rental_uris":{"android":"levelo://app?vid=5aa6494d-0eee-4a3c-bc5e-0d25343561e5","ios":"levelo://app?vid=5aa6494d-0eee-4a3c-bc5e-0d25343561e5"},"vehicle_type_id":"4","last_reported":1766171340,"current_range_meters":14000,"station_id":"st_d3n2fo6cfp8s73cte1j0","pricing_plan_id":"cebpf4jnsgd1na2vs0mg"},{"bike_id":"1bdc0350-2ea3-4956-a594-30d0889f232c","system_id":"levelo_inurba_marseille","lat":43.29267,"lon":5.38437,"is_reserved":false,"is_disabled":false,"rental_uris":{"android":"levelo://app?vid=1bdc0350-2ea3-4956-a594-30d0889f232c","ios":"levelo://app?vid=1bdc0350-2ea3-4956-a594-30d0889f232c"},"vehicle_type_id":"4","last_reported":1766171340,"current_range_meters":14000,"station_id":"ce4bh692rcd13ifvqea0","pricing_plan_id":"cebpf4jnsgd1na2vs0mg"},{"bike_id":"59784022-7d7e-4dac-aaf3-90209879aa65","system_id":"levelo_inurba_marseille","lat":43.296,"lon":5.38107,"is_reserved":false,"is_disabled":false,"rental_uris":{"android":"levelo://app?vid=59784022-7d7e-4dac-aaf3-90209879aa65","ios":"levelo://app?vid=59784022-7d7e-4dac-aaf3-90209879aa65"},"vehicle_type_id":"4","last_reported":1766171340,"current_range_meters":14000,"station_id":"ce4bgl12rcd13ifvqbo0","pricing_plan_id":"cebpf4jnsgd1na2vs0mg"},{"bike_id":"f7839686-7e1e-4ec1-b87e-d8478aa2b463","system_id":"levelo_inurba_marseille","lat":43.28698,"lon":5.37365,"is_reserved":false,"is_disabled":false,"rental_uris":{"android":"levelo://app?vid=f7839686-7e1e-4ec1-b87e-d8478aa2b463","ios":"levelo://app?vid=f7839686-7e1e-4ec1-b87e-d8478aa2b463"},"vehicle_type_id":"4","last_reported":1766171340,"current_range_meters":14000,"station_id":"ce4bh3p2rcd13ifvqdq0","pricing_plan_id":"cebpf4jnsgd1na2vs0mg"},{"bike_id":"2c2fb1c9-122d-415c-bc3d-e8eb37b932c7","system_id":"levelo_inurba_marseille","lat":43.29969,"lon":5.38505,"is_reserved":false,"is_disabled":false,"rental_uris":{"android":"levelo://app?vid=2c2fb1c9-122d-415c-bc3d-e8eb37b932c7","ios":"levelo://app?vid=2c2fb1c9-122d-415c-bc3d-e8eb37b932c7"},"vehicle_type_id":"4","last_reported":1766171340,"current_range_meters":14000,"station_id":"ce4bgj92rcd13ifvqbd0","pricing_plan_id":"cebpf4jnsgd1na2vs0mg"},{"bike_id":"7259d3d2-0eb0-4c0b-bfe0-2d9d2546e2b3","system_id":"levelo_inurba_marseille","lat":43.28862,"lon":5.42515,"is_reserved":false,"is_disabled":false,"rental_uris":{"android":"levelo://app?vid=7259d3d2-0eb0-4c0b-bfe0-2d9d2546e2b3","ios":"levelo://app?vid=7259d3d2-0eb0-4c0b-bfe0-2d9d2546e2b3"},"vehicle_type_id":"4","last_reported":1766171340,"current_range_meters":14000,"station_id":"st_d3b462108ojc7389ooeg","pricing_plan_id":"cebpf4jnsgd1na2vs0mg"},{"bike_id":"25b26c7d-3832-4216-b223-798232bac728","system_id":"levelo_inurba_marseille","lat":43.30133,"lon":5.3877,"is_reserved":false,"is_disabled":false,"rental_uris":{"android":"levelo://app?vid=25b26c7d-3832-4216-b223-798232bac728","ios":"levelo://app?vid=25b26c7d-3832-4216-b223-798232bac728"},"vehicle_type_id":"4","last_reported":1766171340,"current_range_meters":14000,"station_id":"ce4bghh2rcd13ifvqb60","pricing_plan_id":"cebpf4jnsgd1na2vs0mg"},{"bike_id":"8fcf17e9-6f12-40c5-b477-90499f0bb83c","system_id":"levelo_inurba_marseille","lat":43.337444,"lon":5.374475,"is_reserved":false,"is_disabled":false,"rental_uris":{"android":"levelo://app?vid=8fcf17e9-6f12-40c5-b477-90499f0bb83c","ios":"levelo://app?vid=8fcf17e9-6f12-40c5-b477-90499f0bb83c"},"vehicle_type_id":"4","last_reported":1766171340,"current_range_meters":14400,"station_id":"","pricing_plan_id":"cebpf4jnsgd1na2vs0mg"},{"bike_id":"025bcf3c-9127-4e0c-b7ed-8709d35ce958","system_id":"levelo_inurba_marseille","lat":43.31761,"lon":5.37219,"is_reserved":false,"is_disabled":false,"rental_uris":{"android":"levelo://app?vid=025bcf3c-9127-4e0c-b7ed-8709d35ce958","ios":"levelo://app?vid=025bcf3c-9127-4e0c-b7ed-8709d35ce958"},"vehicle_type_id":"4","last_reported":1766171340,"current_range_meters":14400,"station_id":"","pricing_plan_id":"cebpf4jnsgd1na2vs0mg"},{"bike_id":"e2422bf0-8704-4a7e-b575-3d095e2842ee","system_id":"levelo_inurba_marseille","lat":43.31887,"lon":5.407409,"is_reserved":false,"is_disabled":false,"rental_uris":{"android":"levelo://app?vid=e2422bf0-8704-4a7e-b575-3d095e2842ee","ios":"levelo://app?vid=e2422bf0-8704-4a7e-b575-3d095e2842ee"},"vehicle_type_id":"4","last_reported":1766171340,"current_range_meters":14400,"station_id":"ce4bhq12rcd13ifvqhig","pricing_plan_id":"cebpf4jnsgd1na2vs0mg"},{"bike_id":"960000b9-5f6a-4874-8ba2-61bf0329fc25","system_id":"levelo_inurba_marseille","lat":43.30592,"lon":5.40985,"is_reserved":false,"is_disabled":false,"rental_uris":{"android":"levelo://app?vid=960000b9-5f6a-4874-8ba2-61bf0329fc25","ios":"levelo://app?vid=960000b9-5f6a-4874-8ba2-61bf0329fc25"},"vehicle_type_id":"4","last_reported":1766171340,"current_range_meters":14400,"station_id":"","pricing_plan_id":"cebpf4jnsgd1na2vs0mg"},{"bike_id":"e9d58d1e-c5b2-41a8-b6ef-892cd112849c","system_id":"levelo_inurba_marseille","lat":43.30136,"lon":5.38091,"is_reserved":false,"is_disabled":false,"rental_uris":{"android":"levelo://app?vid=e9d58d1e-c5b2-41a8-b6ef-892cd112849c","ios":"levelo://app?vid=e9d58d1e-c5b2-41a8-b6ef-892cd112849c"},"vehicle_type_id":"4","last_reported":1766171340,"current_range_meters":14400,"station_id":"ce4bgjp2rcd13ifvqbh0","pricing_plan_id":"cebpf4jnsgd1na2vs0mg"},{"bike_id":"b9fd6a3a-e5d4-452a-99d2-fbb6f9148990","system_id":"levelo_inurba_marseille","lat":43.29279,"lon":5.40138,"is_reserved":false,"is_disabled":false,"rental_uris":{"android":"levelo://app?vid=b9fd6a3a-e5d4-452a-99d2-fbb6f9148990","ios":"levelo://app?vid=b9fd6a3a-e5d4-452a-99d2-fbb6f9148990"},"vehicle_type_id":"4","last_reported":1766171340,"current_range_meters":14400,"station_id":"ce4bh312rcd13ifvqdk0","pricing_plan_id":"cebpf4jnsgd1na2vs0mg"},{"bike_id":"06c5fccb-feb8-4ccd-ba7b-a53b73e5ec3a","system_id":"levelo_inurba_marseille","lat":43.2695,"lon":5.38915,"is_reserved":false,"is_disabled":false,"rental_uris":{"android":"levelo://app?vid=06c5fccb-feb8-4ccd-ba7b-a53b73e5ec3a","ios":"levelo://app?vid=06c5fccb-feb8-4ccd-ba7b-a53b73e5ec3a"},"vehicle_type_id":"4","last_reported":1766171340,"current_range_meters":14400,"station_id":"ce4bhhh2rcd13ifvqfl0","pricing_plan_id":"cebpf4jnsgd1na2vs0mg"},{"bike_id":"9a6796f9-a7e5-40dc-9958-e358125b4733","system_id":"levelo_inurba_marseille","lat":43.2963,"lon":5.40599,"is_reserved":false,"is_disabled":false,"rental_uris":{"android":"levelo://app?vid=9a6796f9-a7e5-40dc-9958-e358125b4733","ios":"levelo://app?vid=9a6796f9-a7e5-40dc-9958-e358125b4733"},"vehicle_type_id":"4","last_reported":1766171340,"current_range_meters":14400,"station_id":"ce4bh0h2rcd13ifvqd60","pricing_plan_id":"cebpf4jnsgd1na2vs0mg"},{"bike_id":"ff400a14-182c-4479-9723-f211d61c81db","system_id":"levelo_inurba_marseille","lat":43.31981,"lon":5.40385,"is_reserved":false,"is_disabled":false,"rental_uris":{"android":"levelo://app?vid=ff400a14-182c-4479-9723-f211d61c81db","ios":"levelo://app?vid=ff400a14-182c-4479-9723-f211d61c81db"},"vehicle_type_id":"4","last_reported":1766171340,"current_range_meters":14400,"station_id":"","pricing_plan_id":"cebpf4jnsgd1na2vs0mg"},{"bike_id":"342f1aab-f383-4095-9af9-476f39ec27e6","system_id":"levelo_inurba_marseille","lat":43.22571,"lon":5.41625,"is_reserved":false,"is_disabled":false,"rental_uris":{"android":"levelo://app?vid=342f1aab-f383-4095-9af9-476f39ec27e6","ios":"levelo://app?vid=342f1aab-f383-4095-9af9-476f39ec27e6"},"vehicle_type_id":"4","last_reported":1766171340,"current_range_meters":14400,"station_id":"st_d2o4gvlbi1j2169b742g","pricing_plan_id":"cebpf4jnsgd1na2vs0mg"},{"bike_id":"a8c6b054-4a97-4dca-a8d8-b73754294eb6","system_id":"levelo_inurba_marseille","lat":43.29773,"lon":5.38067,"is_reserved":false,"is_disabled":false,"rental_uris":{"android":"levelo://app?vid=a8c6b054-4a97-4dca-a8d8-b73754294eb6","ios":"levelo://app?vid=a8c6b054-4a97-4dca-a8d8-b73754294eb6"},"vehicle_type_id":"4","last_reported":1766171340,"current_range_meters":14400,"station_id":"ce4bgip2rcd13ifvqbb0","pricing_plan_id":"cebpf4jnsgd1na2vs0mg"},{"bike_id":"bbb89ced-a61f-446d-8fda-46034dab7d28","system_id":"levelo_inurba_marseille","lat":43.28689,"lon":5.38677,"is_reserved":false,"is_disabled":false,"rental_uris":{"android":"levelo://app?vid=bbb89ced-a61f-446d-8fda-46034dab7d28","ios":"levelo://app?vid=bbb89ced-a61f-446d-8fda-46034dab7d28"},"vehicle_type_id":"4","last_reported":1766171340,"current_range_meters":14400,"station_id":"ce4bh492rcd13ifvqdug","pricing_plan_id":"cebpf4jnsgd1na2vs0mg"},{"bike_id":"dc278827-48a7-4814-ba39-44ed9d5e094e","system_id":"levelo_inurba_marseille","lat":43.26206,"lon":5.37953,"is_reserved":false,"is_disabled":false,"rental_uris":{"android":"levelo://app?vid=dc278827-48a7-4814-ba39-44ed9d5e094e","ios":"levelo://app?vid=dc278827-48a7-4814-ba39-44ed9d5e094e"},"vehicle_type_id":"4","last_reported":1766171340,"current_range_meters":14400,"station_id":"ce4bhjp2rcd13ifvqg90","pricing_plan_id":"cebpf4jnsgd1na2vs0mg"},{"bike_id":"20e9dd8e-ed66-4bff-9188-35cbfde59a24","system_id":"levelo_inurba_marseille","lat":43.32323,"lon":5.39369,"is_reserved":false,"is_disabled":false,"rental_uris":{"android":"levelo://app?vid=20e9dd8e-ed66-4bff-9188-35cbfde59a24","ios":"levelo://app?vid=20e9dd8e-ed66-4bff-9188-35cbfde59a24"},"vehicle_type_id":"4","last_reported":1766171340,"current_range_meters":14400,"station_id":"","pricing_plan_id":"cebpf4jnsgd1na2vs0mg"},{"bike_id":"3d8062de-4bd0-49c7-86a6-7bf3b5df4845","system_id":"levelo_inurba_marseille","lat":43.28479,"lon":5.48398,"is_reserved":false,"is_disabled":false,"rental_uris":{"android":"levelo://app?vid=3d8062de-4bd0-49c7-86a6-7bf3b5df4845","ios":"levelo://app?vid=3d8062de-4bd0-49c7-86a6-7bf3b5df4845"},"vehicle_type_id":"4","last_reported":1766171340,"current_range_meters":14400,"station_id":"st_d3svhcjqgbts73a3dn0g","pricing_plan_id":"cebpf4jnsgd1na2vs0mg"},{"bike_id":"fd627772-b539-4646-b5bd-b76760868a8f","system_id":"levelo_inurba_marseille","lat":43.29279,"lon":5.38442,"is_reserved":false,"is_disabled":false,"rental_uris":{"android":"levelo://app?vid=fd627772-b539-4646-b5bd-b76760868a8f","ios":"levelo://app?vid=fd627772-b539-4646-b5bd-b76760868a8f"},"vehicle_type_id":"4","last_reported":1766171340,"current_range_meters":14400,"station_id":"ce4bh692rcd13ifvqea0","pricing_plan_id":"cebpf4jnsgd1na2vs0mg"},{"bike_id":"7b1b69b9-d054-4866-9bc2-b1f70f7aa991","system_id":"levelo_inurba_marseille","lat":43.274261,"lon":5.393934,"is_reserved":false,"is_disabled":false,"rental_uris":{"android":"levelo://app?vid=7b1b69b9-d054-4866-9bc2-b1f70f7aa991","ios":"levelo://app?vid=7b1b69b9-d054-4866-9bc2-b1f70f7aa991"},"vehicle_type_id":"4","last_reported":1766171340,"current_range_meters":14400,"station_id":"ce4bhdp2rcd13ifvqf20","pricing_plan_id":"cebpf4jnsgd1na2vs0mg"},{"bike_id":"d5f4d917-8368-41b0-939e-744cfce80279","system_id":"levelo_inurba_marseille","lat":43.28484,"lon":5.38565,"is_reserved":false,"is_disabled":false,"rental_uris":{"android":"levelo://app?vid=d5f4d917-8368-41b0-939e-744cfce80279","ios":"levelo://app?vid=d5f4d917-8368-41b0-939e-744cfce80279"},"vehicle_type_id":"4","last_reported":1766171340,"current_range_meters":14400,"station_id":"ce4bh8p2rcd13ifvqeb0","pricing_plan_id":"cebpf4jnsgd1na2vs0mg"},{"bike_id":"025b4a43-9c11-4504-9502-51f200349bee","system_id":"levelo_inurba_marseille","lat":43.23198,"lon":5.39961,"is_reserved":false,"is_disabled":false,"rental_uris":{"android":"levelo://app?vid=025b4a43-9c11-4504-9502-51f200349bee","ios":"levelo://app?vid=025b4a43-9c11-4504-9502-51f200349bee"},"vehicle_type_id":"4","last_reported":1766171340,"current_range_meters":14400,"station_id":"ce4bhn12rcd13ifvqgqg","pricing_plan_id":"cebpf4jnsgd1na2vs0mg"},{"bike_id":"e85d1414-5928-47bf-9b63-c9107005d3f8","system_id":"levelo_inurba_marseille","lat":43.27621,"lon":5.36101,"is_reserved":false,"is_disabled":false,"rental_uris":{"android":"levelo://app?vid=e85d1414-5928-47bf-9b63-c9107005d3f8","ios":"levelo://app?vid=e85d1414-5928-47bf-9b63-c9107005d3f8"},"vehicle_type_id":"4","last_reported":1766171340,"current_range_meters":14400,"station_id":"ce4bgj92rcd13ifvqbe0","pricing_plan_id":"cebpf4jnsgd1na2vs0mg"},{"bike_id":"ba5ddc14-134d-4f97-af1c-22a9ea8f76d0","system_id":"levelo_inurba_marseille","lat":43.2785,"lon":5.39211,"is_reserved":false,"is_disabled":true,"rental_uris":{"android":"levelo://app?vid=ba5ddc14-134d-4f97-af1c-22a9ea8f76d0","ios":"levelo://app?vid=ba5ddc14-134d-4f97-af1c-22a9ea8f76d0"},"vehicle_type_id":"4","last_reported":1766171340,"current_range_meters":14800,"station_id":"ce4bhjp2rcd13ifvqga0","pricing_plan_id":"cebpf4jnsgd1na2vs0mg"},{"bike_id":"9e1886ee-5978-4b4e-a4ad-7b1a3973e38d","system_id":"levelo_inurba_marseille","lat":43.311717,"lon":5.387126,"is_reserved":false,"is_disabled":false,"rental_uris":{"android":"levelo://app?vid=9e1886ee-5978-4b4e-a4ad-7b1a3973e38d","ios":"levelo://app?vid=9e1886ee-5978-4b4e-a4ad-7b1a3973e38d"},"vehicle_type_id":"4","last_reported":1766171340,"current_range_meters":14800,"station_id":"ce4bgv12rcd13ifvqcp0","pricing_plan_id":"cebpf4jnsgd1na2vs0mg"},{"bike_id":"7a2810d9-a7a2-4f55-a626-e3338912c6bf","system_id":"levelo_inurba_marseille","lat":43.33762,"lon":5.37514,"is_reserved":false,"is_disabled":false,"rental_uris":{"android":"levelo://app?vid=7a2810d9-a7a2-4f55-a626-e3338912c6bf","ios":"levelo://app?vid=7a2810d9-a7a2-4f55-a626-e3338912c6bf"},"vehicle_type_id":"4","last_reported":1766171340,"current_range_meters":14800,"station_id":"","pricing_plan_id":"cebpf4jnsgd1na2vs0mg"},{"bike_id":"909b09d3-b419-4f03-aeb1-f600126f511b","system_id":"levelo_inurba_marseille","lat":43.29489,"lon":5.433,"is_reserved":false,"is_disabled":false,"rental_uris":{"android":"levelo://app?vid=909b09d3-b419-4f03-aeb1-f600126f511b","ios":"levelo://app?vid=909b09d3-b419-4f03-aeb1-f600126f511b"},"vehicle_type_id":"4","last_reported":1766171340,"current_range_meters":14800,"station_id":"st_d3j5ugp08ojc73fj9d10","pricing_plan_id":"cebpf4jnsgd1na2vs0mg"},{"bike_id":"ce634916-e630-4474-8c32-4b2bfe924f7f","system_id":"levelo_inurba_marseille","lat":43.24633,"lon":5.43138,"is_reserved":false,"is_disabled":false,"rental_uris":{"android":"levelo://app?vid=ce634916-e630-4474-8c32-4b2bfe924f7f","ios":"levelo://app?vid=ce634916-e630-4474-8c32-4b2bfe924f7f"},"vehicle_type_id":"4","last_reported":1766171340,"current_range_meters":14800,"station_id":"st_d2m6c4gdas8pm72e190g","pricing_plan_id":"cebpf4jnsgd1na2vs0mg"},{"bike_id":"4eb83a06-aef2-4c8d-8842-472e56e216f2","system_id":"levelo_inurba_marseille","lat":43.27996,"lon":5.40012,"is_reserved":false,"is_disabled":false,"rental_uris":{"android":"levelo://app?vid=4eb83a06-aef2-4c8d-8842-472e56e216f2","ios":"levelo://app?vid=4eb83a06-aef2-4c8d-8842-472e56e216f2"},"vehicle_type_id":"4","last_reported":1766171340,"current_range_meters":14800,"station_id":"ce4bho92rcd13ifvqh4g","pricing_plan_id":"cebpf4jnsgd1na2vs0mg"},{"bike_id":"6bb7cf08-cc4f-43ae-aed3-8d6ab6b6c137","system_id":"levelo_inurba_marseille","lat":43.33147,"lon":5.37715,"is_reserved":false,"is_disabled":false,"rental_uris":{"android":"levelo://app?vid=6bb7cf08-cc4f-43ae-aed3-8d6ab6b6c137","ios":"levelo://app?vid=6bb7cf08-cc4f-43ae-aed3-8d6ab6b6c137"},"vehicle_type_id":"4","last_reported":1766171340,"current_range_meters":14800,"station_id":"st_d46cu089ee8s73dldbu0","pricing_plan_id":"cebpf4jnsgd1na2vs0mg"},{"bike_id":"4e1c8768-f8ec-43a8-a533-4a7fd824cd86","system_id":"levelo_inurba_marseille","lat":43.29594,"lon":5.38103,"is_reserved":false,"is_disabled":false,"rental_uris":{"android":"levelo://app?vid=4e1c8768-f8ec-43a8-a533-4a7fd824cd86","ios":"levelo://app?vid=4e1c8768-f8ec-43a8-a533-4a7fd824cd86"},"vehicle_type_id":"4","last_reported":1766171340,"current_range_meters":14800,"station_id":"ce4bgl12rcd13ifvqbo0","pricing_plan_id":"cebpf4jnsgd1na2vs0mg"},{"bike_id":"71574c61-777d-4df7-8925-2e141c5c5094","system_id":"levelo_inurba_marseille","lat":43.312753,"lon":5.401803,"is_reserved":false,"is_disabled":false,"rental_uris":{"android":"levelo://app?vid=71574c61-777d-4df7-8925-2e141c5c5094","ios":"levelo://app?vid=71574c61-777d-4df7-8925-2e141c5c5094"},"vehicle_type_id":"4","last_reported":1766171340,"current_range_meters":14800,"station_id":"","pricing_plan_id":"cebpf4jnsgd1na2vs0mg"},{"bike_id":"d26729f5-210b-4096-acd6-99d477896379","system_id":"levelo_inurba_marseille","lat":43.25015,"lon":5.38907,"is_reserved":false,"is_disabled":false,"rental_uris":{"android":"levelo://app?vid=d26729f5-210b-4096-acd6-99d477896379","ios":"levelo://app?vid=d26729f5-210b-4096-acd6-99d477896379"},"vehicle_type_id":"4","last_reported":1766171340,"current_range_meters":14800,"station_id":"ce4bhgp2rcd13ifvqfd0","pricing_plan_id":"cebpf4jnsgd1na2vs0mg"},{"bike_id":"8580f57b-5aa3-4bcd-953e-6f28ee58972f","system_id":"levelo_inurba_marseille","lat":43.24659,"lon":5.43127,"is_reserved":false,"is_disabled":false,"rental_uris":{"android":"levelo://app?vid=8580f57b-5aa3-4bcd-953e-6f28ee58972f","ios":"levelo://app?vid=8580f57b-5aa3-4bcd-953e-6f28ee58972f"},"vehicle_type_id":"4","last_reported":1766171340,"current_range_meters":14800,"station_id":"st_d2m6c4gdas8pm72e190g","pricing_plan_id":"cebpf4jnsgd1na2vs0mg"},{"bike_id":"6f089e47-ead0-4dc6-89ea-3e3ab51578a0","system_id":"levelo_inurba_marseille","lat":43.25625,"lon":5.41783,"is_reserved":false,"is_disabled":false,"rental_uris":{"android":"levelo://app?vid=6f089e47-ead0-4dc6-89ea-3e3ab51578a0","ios":"levelo://app?vid=6f089e47-ead0-4dc6-89ea-3e3ab51578a0"},"vehicle_type_id":"4","last_reported":1766171340,"current_range_meters":14800,"station_id":"","pricing_plan_id":"cebpf4jnsgd1na2vs0mg"},{"bike_id":"7d7cd1a6-c729-482c-ae5b-9123613e01ec","system_id":"levelo_inurba_marseille","lat":43.23794,"lon":5.36631,"is_reserved":false,"is_disabled":false,"rental_uris":{"android":"levelo://app?vid=7d7cd1a6-c729-482c-ae5b-9123613e01ec","ios":"levelo://app?vid=7d7cd1a6-c729-482c-ae5b-9123613e01ec"},"vehicle_type_id":"4","last_reported":1766171340,"current_range_meters":14800,"station_id":"st_d3nk18o9ro0c73en2l3g","pricing_plan_id":"cebpf4jnsgd1na2vs0mg"},{"bike_id":"d2a86950-00b0-4344-a51f-0dc364389c5b","system_id":"levelo_inurba_marseille","lat":43.289387,"lon":5.366334,"is_reserved":false,"is_disabled":true,"rental_uris":{"android":"levelo://app?vid=d2a86950-00b0-4344-a51f-0dc364389c5b","ios":"levelo://app?vid=d2a86950-00b0-4344-a51f-0dc364389c5b"},"vehicle_type_id":"4","last_reported":1766171340,"current_range_meters":15200,"station_id":"","pricing_plan_id":"cebpf4jnsgd1na2vs0mg"},{"bike_id":"a6d1802e-f3fd-4947-bde0-c36a33c24799","system_id":"levelo_inurba_marseille","lat":43.2791,"lon":5.38009,"is_reserved":false,"is_disabled":true,"rental_uris":{"android":"levelo://app?vid=a6d1802e-f3fd-4947-bde0-c36a33c24799","ios":"levelo://app?vid=a6d1802e-f3fd-4947-bde0-c36a33c24799"},"vehicle_type_id":"4","last_reported":1766171340,"current_range_meters":15200,"station_id":"ce4bhf92rcd13ifvqf50","pricing_plan_id":"cebpf4jnsgd1na2vs0mg"},{"bike_id":"ae5eda7c-aa1b-43f5-a794-35426e7ffb62","system_id":"levelo_inurba_marseille","lat":43.28712,"lon":5.37924,"is_reserved":false,"is_disabled":false,"rental_uris":{"android":"levelo://app?vid=ae5eda7c-aa1b-43f5-a794-35426e7ffb62","ios":"levelo://app?vid=ae5eda7c-aa1b-43f5-a794-35426e7ffb62"},"vehicle_type_id":"4","last_reported":1766171340,"current_range_meters":15200,"station_id":"ce4bh9p2rcd13ifvqec0","pricing_plan_id":"cebpf4jnsgd1na2vs0mg"},{"bike_id":"5300fe60-25c0-49d5-afb4-7974ca4a8ee5","system_id":"levelo_inurba_marseille","lat":43.29758,"lon":5.37092,"is_reserved":false,"is_disabled":false,"rental_uris":{"android":"levelo://app?vid=5300fe60-25c0-49d5-afb4-7974ca4a8ee5","ios":"levelo://app?vid=5300fe60-25c0-49d5-afb4-7974ca4a8ee5"},"vehicle_type_id":"4","last_reported":1766171340,"current_range_meters":15200,"station_id":"ce4bgop2rcd13ifvqc1g","pricing_plan_id":"cebpf4jnsgd1na2vs0mg"},{"bike_id":"dd02578a-3ce3-4a5b-a150-72db34f2d7af","system_id":"levelo_inurba_marseille","lat":43.281511,"lon":5.426395,"is_reserved":false,"is_disabled":false,"rental_uris":{"android":"levelo://app?vid=dd02578a-3ce3-4a5b-a150-72db34f2d7af","ios":"levelo://app?vid=dd02578a-3ce3-4a5b-a150-72db34f2d7af"},"vehicle_type_id":"4","last_reported":1766171340,"current_range_meters":15200,"station_id":"ce4bhnh2rcd13ifvqgug","pricing_plan_id":"cebpf4jnsgd1na2vs0mg"},{"bike_id":"e38b8f28-f63b-4c54-b33c-3b917dffbe40","system_id":"levelo_inurba_marseille","lat":43.22543,"lon":5.34838,"is_reserved":false,"is_disabled":false,"rental_uris":{"android":"levelo://app?vid=e38b8f28-f63b-4c54-b33c-3b917dffbe40","ios":"levelo://app?vid=e38b8f28-f63b-4c54-b33c-3b917dffbe40"},"vehicle_type_id":"4","last_reported":1766171340,"current_range_meters":15200,"station_id":"","pricing_plan_id":"cebpf4jnsgd1na2vs0mg"},{"bike_id":"1ffd20ca-1a57-42ba-8db3-5cd7b3cfb599","system_id":"levelo_inurba_marseille","lat":43.28437,"lon":5.39181,"is_reserved":false,"is_disabled":false,"rental_uris":{"android":"levelo://app?vid=1ffd20ca-1a57-42ba-8db3-5cd7b3cfb599","ios":"levelo://app?vid=1ffd20ca-1a57-42ba-8db3-5cd7b3cfb599"},"vehicle_type_id":"4","last_reported":1766171340,"current_range_meters":15200,"station_id":"ce4bhoh2rcd13ifvqh5g","pricing_plan_id":"cebpf4jnsgd1na2vs0mg"},{"bike_id":"26f6d6a5-5821-4875-a164-33d619759de8","system_id":"levelo_inurba_marseille","lat":43.24156,"lon":5.36444,"is_reserved":false,"is_disabled":false,"rental_uris":{"android":"levelo://app?vid=26f6d6a5-5821-4875-a164-33d619759de8","ios":"levelo://app?vid=26f6d6a5-5821-4875-a164-33d619759de8"},"vehicle_type_id":"4","last_reported":1766171340,"current_range_meters":15200,"station_id":"cpo36qri1sfpv3e86is0","pricing_plan_id":"cebpf4jnsgd1na2vs0mg"},{"bike_id":"78567a20-b1ed-46c4-a479-2ee451b65c20","system_id":"levelo_inurba_marseille","lat":43.29578,"lon":5.37523,"is_reserved":false,"is_disabled":false,"rental_uris":{"android":"levelo://app?vid=78567a20-b1ed-46c4-a479-2ee451b65c20","ios":"levelo://app?vid=78567a20-b1ed-46c4-a479-2ee451b65c20"},"vehicle_type_id":"4","last_reported":1766171340,"current_range_meters":15200,"station_id":"ce4bgh92rcd13ifvqb50","pricing_plan_id":"cebpf4jnsgd1na2vs0mg"},{"bike_id":"e854eef1-e631-49df-8024-94b8790f513f","system_id":"levelo_inurba_marseille","lat":43.30809,"lon":5.38146,"is_reserved":false,"is_disabled":false,"rental_uris":{"android":"levelo://app?vid=e854eef1-e631-49df-8024-94b8790f513f","ios":"levelo://app?vid=e854eef1-e631-49df-8024-94b8790f513f"},"vehicle_type_id":"4","last_reported":1766171340,"current_range_meters":15200,"station_id":"ce4bgt12rcd13ifvqce0","pricing_plan_id":"cebpf4jnsgd1na2vs0mg"},{"bike_id":"0c1f6896-cbd5-4c55-b68a-3cd9b92201dc","system_id":"levelo_inurba_marseille","lat":43.299,"lon":5.43662,"is_reserved":false,"is_disabled":false,"rental_uris":{"android":"levelo://app?vid=0c1f6896-cbd5-4c55-b68a-3cd9b92201dc","ios":"levelo://app?vid=0c1f6896-cbd5-4c55-b68a-3cd9b92201dc"},"vehicle_type_id":"4","last_reported":1766171340,"current_range_meters":15200,"station_id":"ce4bhpp2rcd13ifvqhfg","pricing_plan_id":"cebpf4jnsgd1na2vs0mg"},{"bike_id":"0f2547ef-3d04-4cf5-b755-92d471d0f5e4","system_id":"levelo_inurba_marseille","lat":43.2848,"lon":5.38416,"is_reserved":false,"is_disabled":false,"rental_uris":{"android":"levelo://app?vid=0f2547ef-3d04-4cf5-b755-92d471d0f5e4","ios":"levelo://app?vid=0f2547ef-3d04-4cf5-b755-92d471d0f5e4"},"vehicle_type_id":"4","last_reported":1766171340,"current_range_meters":15200,"station_id":"ce4bh512rcd13ifvqe3g","pricing_plan_id":"cebpf4jnsgd1na2vs0mg"},{"bike_id":"9ed2abc5-3eb4-46ee-9006-c9e3411abb84","system_id":"levelo_inurba_marseille","lat":43.26363,"lon":5.39924,"is_reserved":false,"is_disabled":false,"rental_uris":{"android":"levelo://app?vid=9ed2abc5-3eb4-46ee-9006-c9e3411abb84","ios":"levelo://app?vid=9ed2abc5-3eb4-46ee-9006-c9e3411abb84"},"vehicle_type_id":"4","last_reported":1766171340,"current_range_meters":15200,"station_id":"","pricing_plan_id":"cebpf4jnsgd1na2vs0mg"},{"bike_id":"da2b91f4-4a3d-44f7-a992-d2c0e1a560a9","system_id":"levelo_inurba_marseille","lat":43.28938,"lon":5.39634,"is_reserved":false,"is_disabled":false,"rental_uris":{"android":"levelo://app?vid=da2b91f4-4a3d-44f7-a992-d2c0e1a560a9","ios":"levelo://app?vid=da2b91f4-4a3d-44f7-a992-d2c0e1a560a9"},"vehicle_type_id":"4","last_reported":1766171340,"current_range_meters":15200,"station_id":"ce4bh3h2rcd13ifvqdn0","pricing_plan_id":"cebpf4jnsgd1na2vs0mg"},{"bike_id":"35d0a94b-284b-4953-8b68-d8de2267795a","system_id":"levelo_inurba_marseille","lat":43.27809,"lon":5.40725,"is_reserved":false,"is_disabled":false,"rental_uris":{"android":"levelo://app?vid=35d0a94b-284b-4953-8b68-d8de2267795a","ios":"levelo://app?vid=35d0a94b-284b-4953-8b68-d8de2267795a"},"vehicle_type_id":"4","last_reported":1766171340,"current_range_meters":15200,"station_id":"ce4bhnh2rcd13ifvqgtg","pricing_plan_id":"cebpf4jnsgd1na2vs0mg"},{"bike_id":"da209044-0f71-4985-adef-7965d93cf3a4","system_id":"levelo_inurba_marseille","lat":43.324856,"lon":5.382938,"is_reserved":false,"is_disabled":false,"rental_uris":{"android":"levelo://app?vid=da209044-0f71-4985-adef-7965d93cf3a4","ios":"levelo://app?vid=da209044-0f71-4985-adef-7965d93cf3a4"},