{"last_updated":1768976506,"ttl":60,"version":"2.2","data":{"bikes":[{"bike_id":"a27994f3-c388-4372-a8e3-14dffa5f3b65","system_id":"levelo_inurba_marseille","lat":43.24817,"lon":5.37455,"is_reserved":false,"is_disabled":false,"rental_uris":{"android":"levelo://app?vid=a27994f3-c388-4372-a8e3-14dffa5f3b65","ios":"levelo://app?vid=a27994f3-c388-4372-a8e3-14dffa5f3b65"},"vehicle_type_id":"4","last_reported":1768976506,"current_range_meters":2800,"station_id":"ce4bhgh2rcd13ifvqfb0","pricing_plan_id":"cebpf4jnsgd1na2vs0mg"},{"bike_id":"97096676-429c-4f07-9652-1523f48f5442","system_id":"levelo_inurba_marseille","lat":43.30266,"lon":5.43429,"is_reserved":false,"is_disabled":false,"rental_uris":{"android":"levelo://app?vid=97096676-429c-4f07-9652-1523f48f5442","ios":"levelo://app?vid=97096676-429c-4f07-9652-1523f48f5442"},"vehicle_type_id":"4","last_reported":1768976506,"current_range_meters":2800,"station_id":"","pricing_plan_id":"cebpf4jnsgd1na2vs0mg"},{"bike_id":"e3caaaee-f8d9-44b6-b3d8-e04b5e8c88ba","system_id":"levelo_inurba_marseille","lat":43.27809,"lon":5.40711,"is_reserved":false,"is_disabled":false,"rental_uris":{"android":"levelo://app?vid=e3caaaee-f8d9-44b6-b3d8-e04b5e8c88ba","ios":"levelo://app?vid=e3caaaee-f8d9-44b6-b3d8-e04b5e8c88ba"},"vehicle_type_id":"4","last_reported":1768976506,"current_range_meters":2800,"station_id":"ce4bhnh2rcd13ifvqgtg","pricing_plan_id":"cebpf4jnsgd1na2vs0mg"},{"bike_id":"d1656b93-1b71-4e85-bf98-22a1e92bb468","system_id":"levelo_inurba_marseille","lat":43.28871,"lon":5.42499,"is_reserved":false,"is_disabled":false,"rental_uris":{"android":"levelo://app?vid=d1656b93-1b71-4e85-bf98-22a1e92bb468","ios":"levelo://app?vid=d1656b93-1b71-4e85-bf98-22a1e92bb468"},"vehicle_type_id":"4","last_reported":1768976506,"current_range_meters":2800,"station_id":"st_d3b462108ojc7389ooeg","pricing_plan_id":"cebpf4jnsgd1na2vs0mg"},{"bike_id":"c19f1c0d-1d29-440c-b073-294df149db54","system_id":"levelo_inurba_marseille","lat":43.31268,"lon":5.40149,"is_reserved":false,"is_disabled":false,"rental_uris":{"android":"levelo://app?vid=c19f1c0d-1d29-440c-b073-294df149db54","ios":"levelo://app?vid=c19f1c0d-1d29-440c-b073-294df149db54"},"vehicle_type_id":"4","last_reported":1768976506,"current_range_meters":3200,"station_id":"ce4bh092rcd13ifvqd30","pricing_plan_id":"cebpf4jnsgd1na2vs0mg"},{"bike_id":"065607da-c5aa-47d8-b9f2-13394469f206","system_id":"levelo_inurba_marseille","lat":43.23793,"lon":5.3663,"is_reserved":false,"is_disabled":false,"rental_uris":{"android":"levelo://app?vid=065607da-c5aa-47d8-b9f2-13394469f206","ios":"levelo://app?vid=065607da-c5aa-47d8-b9f2-13394469f206"},"vehicle_type_id":"4","last_reported":1768976506,"current_range_meters":3200,"station_id":"st_d3nk18o9ro0c73en2l3g","pricing_plan_id":"cebpf4jnsgd1na2vs0mg"},{"bike_id":"84169636-b7d0-4f4e-9d3b-d547d59ccce5","system_id":"levelo_inurba_marseille","lat":43.25328,"lon":5.42189,"is_reserved":false,"is_disabled":false,"rental_uris":{"android":"levelo://app?vid=84169636-b7d0-4f4e-9d3b-d547d59ccce5","ios":"levelo://app?vid=84169636-b7d0-4f4e-9d3b-d547d59ccce5"},"vehicle_type_id":"4","last_reported":1768976506,"current_range_meters":3200,"station_id":"st_d2m65c5bi1j21697t3ng","pricing_plan_id":"cebpf4jnsgd1na2vs0mg"},{"bike_id":"9a6fa9d6-bd85-41a0-a1be-8f3bc0337c0a","system_id":"levelo_inurba_marseille","lat":43.24466,"lon":5.42538,"is_reserved":false,"is_disabled":false,"rental_uris":{"android":"levelo://app?vid=9a6fa9d6-bd85-41a0-a1be-8f3bc0337c0a","ios":"levelo://app?vid=9a6fa9d6-bd85-41a0-a1be-8f3bc0337c0a"},"vehicle_type_id":"4","last_reported":1768976506,"current_range_meters":3200,"station_id":"st_d4a3vfp97mjs738cd8kg","pricing_plan_id":"cebpf4jnsgd1na2vs0mg"},{"bike_id":"09862818-671a-4376-a7a2-2bb4e426d3ba","system_id":"levelo_inurba_marseille","lat":43.30415,"lon":5.4131,"is_reserved":false,"is_disabled":false,"rental_uris":{"android":"levelo://app?vid=09862818-671a-4376-a7a2-2bb4e426d3ba","ios":"levelo://app?vid=09862818-671a-4376-a7a2-2bb4e426d3ba"},"vehicle_type_id":"4","last_reported":1768976506,"current_range_meters":3200,"station_id":"ce4bhop2rcd13ifvqh8g","pricing_plan_id":"cebpf4jnsgd1na2vs0mg"},{"bike_id":"559d694f-c798-4c2d-9960-32d42b032eab","system_id":"levelo_inurba_marseille","lat":43.28929,"lon":5.38389,"is_reserved":false,"is_disabled":false,"rental_uris":{"android":"levelo://app?vid=559d694f-c798-4c2d-9960-32d42b032eab","ios":"levelo://app?vid=559d694f-c798-4c2d-9960-32d42b032eab"},"vehicle_type_id":"4","last_reported":1768976506,"current_range_meters":3600,"station_id":"ce4bh612rcd13ifvqe6g","pricing_plan_id":"cebpf4jnsgd1na2vs0mg"},{"bike_id":"2351e1c9-97c0-42ed-8ba7-93d168c64106","system_id":"levelo_inurba_marseille","lat":43.29762,"lon":5.42803,"is_reserved":false,"is_disabled":false,"rental_uris":{"android":"levelo://app?vid=2351e1c9-97c0-42ed-8ba7-93d168c64106","ios":"levelo://app?vid=2351e1c9-97c0-42ed-8ba7-93d168c64106"},"vehicle_type_id":"4","last_reported":1768976506,"current_range_meters":3600,"station_id":"st_d3md5207bmas73dh9klg","pricing_plan_id":"cebpf4jnsgd1na2vs0mg"},{"bike_id":"00c927a1-d08e-4450-95b2-0ac1a58c0a42","system_id":"levelo_inurba_marseille","lat":43.2973,"lon":5.3661,"is_reserved":false,"is_disabled":true,"rental_uris":{"android":"levelo://app?vid=00c927a1-d08e-4450-95b2-0ac1a58c0a42","ios":"levelo://app?vid=00c927a1-d08e-4450-95b2-0ac1a58c0a42"},"vehicle_type_id":"4","last_reported":1768976506,"current_range_meters":3600,"station_id":"ce4bgn12rcd13ifvqbt0","pricing_plan_id":"cebpf4jnsgd1na2vs0mg"},{"bike_id":"e1a94992-82c5-4a6f-b35e-2ede9fbc9a60","system_id":"levelo_inurba_marseille","lat":43.29518,"lon":5.39416,"is_reserved":false,"is_disabled":false,"rental_uris":{"android":"levelo://app?vid=e1a94992-82c5-4a6f-b35e-2ede9fbc9a60","ios":"levelo://app?vid=e1a94992-82c5-4a6f-b35e-2ede9fbc9a60"},"vehicle_type_id":"4","last_reported":1768976506,"current_range_meters":3600,"station_id":"ce4bh292rcd13ifvqdf0","pricing_plan_id":"cebpf4jnsgd1na2vs0mg"},{"bike_id":"40e2667e-f23a-4ded-8ddb-fef4d5eb0dfe","system_id":"levelo_inurba_marseille","lat":43.25496,"lon":5.37628,"is_reserved":false,"is_disabled":false,"rental_uris":{"android":"levelo://app?vid=40e2667e-f23a-4ded-8ddb-fef4d5eb0dfe","ios":"levelo://app?vid=40e2667e-f23a-4ded-8ddb-fef4d5eb0dfe"},"vehicle_type_id":"4","last_reported":1768976506,"current_range_meters":3600,"station_id":"ce4bhh12rcd13ifvqff0","pricing_plan_id":"cebpf4jnsgd1na2vs0mg"},{"bike_id":"bfb694c2-c241-4914-b039-20bfb4e08f18","system_id":"levelo_inurba_marseille","lat":43.319977,"lon":5.381593,"is_reserved":false,"is_disabled":false,"rental_uris":{"android":"levelo://app?vid=bfb694c2-c241-4914-b039-20bfb4e08f18","ios":"levelo://app?vid=bfb694c2-c241-4914-b039-20bfb4e08f18"},"vehicle_type_id":"4","last_reported":1768976506,"current_range_meters":3600,"station_id":"ce4bhr12rcd13ifvqhpg","pricing_plan_id":"cebpf4jnsgd1na2vs0mg"},{"bike_id":"6c3a5c15-7423-4a25-87ba-05f3c8d2d87e","system_id":"levelo_inurba_marseille","lat":43.323441,"lon":5.367272,"is_reserved":false,"is_disabled":false,"rental_uris":{"android":"levelo://app?vid=6c3a5c15-7423-4a25-87ba-05f3c8d2d87e","ios":"levelo://app?vid=6c3a5c15-7423-4a25-87ba-05f3c8d2d87e"},"vehicle_type_id":"4","last_reported":1768976506,"current_range_meters":3600,"station_id":"ce4bhsh2rcd13ifvqi2g","pricing_plan_id":"cebpf4jnsgd1na2vs0mg"},{"bike_id":"c90f8d49-c464-4abb-b50f-a6f2833250ba","system_id":"levelo_inurba_marseille","lat":43.2606,"lon":5.39394,"is_reserved":false,"is_disabled":false,"rental_uris":{"android":"levelo://app?vid=c90f8d49-c464-4abb-b50f-a6f2833250ba","ios":"levelo://app?vid=c90f8d49-c464-4abb-b50f-a6f2833250ba"},"vehicle_type_id":"4","last_reported":1768976506,"current_range_meters":4000,"station_id":"ce4bhh92rcd13ifvqfj0","pricing_plan_id":"cebpf4jnsgd1na2vs0mg"},{"bike_id":"fb16e469-5eda-4825-86f2-0fc1217a2094","system_id":"levelo_inurba_marseille","lat":43.29395,"lon":5.37832,"is_reserved":false,"is_disabled":false,"rental_uris":{"android":"levelo://app?vid=fb16e469-5eda-4825-86f2-0fc1217a2094","ios":"levelo://app?vid=fb16e469-5eda-4825-86f2-0fc1217a2094"},"vehicle_type_id":"4","last_reported":1768976506,"current_range_meters":4000,"station_id":"ce4bgjh2rcd13ifvqbf0","pricing_plan_id":"cebpf4jnsgd1na2vs0mg"},{"bike_id":"c766203c-fe51-459b-bf74-dd6b3df74629","system_id":"levelo_inurba_marseille","lat":43.23169,"lon":5.39992,"is_reserved":false,"is_disabled":false,"rental_uris":{"android":"levelo://app?vid=c766203c-fe51-459b-bf74-dd6b3df74629","ios":"levelo://app?vid=c766203c-fe51-459b-bf74-dd6b3df74629"},"vehicle_type_id":"4","last_reported":1768976506,"current_range_meters":4000,"station_id":"ce4bhn12rcd13ifvqgqg","pricing_plan_id":"cebpf4jnsgd1na2vs0mg"},{"bike_id":"29765181-6ea3-462b-ba0f-930066808335","system_id":"levelo_inurba_marseille","lat":43.25114,"lon":5.4031,"is_reserved":false,"is_disabled":false,"rental_uris":{"android":"levelo://app?vid=29765181-6ea3-462b-ba0f-930066808335","ios":"levelo://app?vid=29765181-6ea3-462b-ba0f-930066808335"},"vehicle_type_id":"4","last_reported":1768976506,"current_range_meters":4000,"station_id":"ce4bhlh2rcd13ifvqgig","pricing_plan_id":"cebpf4jnsgd1na2vs0mg"},{"bike_id":"f5b57ae7-55a9-47fd-82cc-067ffe79b625","system_id":"levelo_inurba_marseille","lat":43.26687,"lon":5.38255,"is_reserved":false,"is_disabled":false,"rental_uris":{"android":"levelo://app?vid=f5b57ae7-55a9-47fd-82cc-067ffe79b625","ios":"levelo://app?vid=f5b57ae7-55a9-47fd-82cc-067ffe79b625"},"vehicle_type_id":"4","last_reported":1768976506,"current_range_meters":4000,"station_id":"ce4bhg92rcd13ifvqf90","pricing_plan_id":"cebpf4jnsgd1na2vs0mg"},{"bike_id":"d398bbee-580e-4669-a6c1-1a6f4f542e54","system_id":"levelo_inurba_marseille","lat":43.29626,"lon":5.37137,"is_reserved":false,"is_disabled":false,"rental_uris":{"android":"levelo://app?vid=d398bbee-580e-4669-a6c1-1a6f4f542e54","ios":"levelo://app?vid=d398bbee-580e-4669-a6c1-1a6f4f542e54"},"vehicle_type_id":"4","last_reported":1768976506,"current_range_meters":4000,"station_id":"ce4bgnh2rcd13ifvqc0g","pricing_plan_id":"cebpf4jnsgd1na2vs0mg"},{"bike_id":"7039b1b0-950e-410b-bfa5-a8c237d03f28","system_id":"levelo_inurba_marseille","lat":43.24007,"lon":5.37669,"is_reserved":false,"is_disabled":false,"rental_uris":{"android":"levelo://app?vid=7039b1b0-950e-410b-bfa5-a8c237d03f28","ios":"levelo://app?vid=7039b1b0-950e-410b-bfa5-a8c237d03f28"},"vehicle_type_id":"4","last_reported":1768976506,"current_range_meters":4000,"station_id":"","pricing_plan_id":"cebpf4jnsgd1na2vs0mg"},{"bike_id":"802a5f71-9b7a-42d9-8e38-63164ea886b9","system_id":"levelo_inurba_marseille","lat":43.337444,"lon":5.374475,"is_reserved":false,"is_disabled":false,"rental_uris":{"android":"levelo://app?vid=802a5f71-9b7a-42d9-8e38-63164ea886b9","ios":"levelo://app?vid=802a5f71-9b7a-42d9-8e38-63164ea886b9"},"vehicle_type_id":"4","last_reported":1768976506,"current_range_meters":4400,"station_id":"","pricing_plan_id":"cebpf4jnsgd1na2vs0mg"},{"bike_id":"31c3d152-9166-4755-bec0-131c7c9e5ee3","system_id":"levelo_inurba_marseille","lat":43.268109,"lon":5.402639,"is_reserved":false,"is_disabled":false,"rental_uris":{"android":"levelo://app?vid=31c3d152-9166-4755-bec0-131c7c9e5ee3","ios":"levelo://app?vid=31c3d152-9166-4755-bec0-131c7c9e5ee3"},"vehicle_type_id":"4","last_reported":1768976506,"current_range_meters":4400,"station_id":"ce501612rcd8frsf0b60","pricing_plan_id":"cebpf4jnsgd1na2vs0mg"},{"bike_id":"8a83b555-456d-4d0f-9f0b-46c4fec20bd5","system_id":"levelo_inurba_marseille","lat":43.2534,"lon":5.42168,"is_reserved":false,"is_disabled":false,"rental_uris":{"android":"levelo://app?vid=8a83b555-456d-4d0f-9f0b-46c4fec20bd5","ios":"levelo://app?vid=8a83b555-456d-4d0f-9f0b-46c4fec20bd5"},"vehicle_type_id":"4","last_reported":1768976506,"current_range_meters":4400,"station_id":"st_d2m65c5bi1j21697t3ng","pricing_plan_id":"cebpf4jnsgd1na2vs0mg"},{"bike_id":"fbbedfeb-5767-4a40-9eeb-fb558ba05242","system_id":"levelo_inurba_marseille","lat":43.24991,"lon":5.38934,"is_reserved":false,"is_disabled":false,"rental_uris":{"android":"levelo://app?vid=fbbedfeb-5767-4a40-9eeb-fb558ba05242","ios":"levelo://app?vid=fbbedfeb-5767-4a40-9eeb-fb558ba05242"},"vehicle_type_id":"4","last_reported":1768976506,"current_range_meters":4400,"station_id":"ce4bhgp2rcd13ifvqfd0","pricing_plan_id":"cebpf4jnsgd1na2vs0mg"},{"bike_id":"4d9fb050-4361-4bab-ba3c-960b4264587c","system_id":"levelo_inurba_marseille","lat":43.330524,"lon":5.390613,"is_reserved":false,"is_disabled":false,"rental_uris":{"android":"levelo://app?vid=4d9fb050-4361-4bab-ba3c-960b4264587c","ios":"levelo://app?vid=4d9fb050-4361-4bab-ba3c-960b4264587c"},"vehicle_type_id":"4","last_reported":1768976506,"current_range_meters":4400,"station_id":"ce4bhr92rcd13ifvqhrg","pricing_plan_id":"cebpf4jnsgd1na2vs0mg"},{"bike_id":"2b708894-293c-4983-8d58-572d37f96294","system_id":"levelo_inurba_marseille","lat":43.29445,"lon":5.39758,"is_reserved":false,"is_disabled":false,"rental_uris":{"android":"levelo://app?vid=2b708894-293c-4983-8d58-572d37f96294","ios":"levelo://app?vid=2b708894-293c-4983-8d58-572d37f96294"},"vehicle_type_id":"4","last_reported":1768976506,"current_range_meters":4400,"station_id":"ce4bh3h2rcd13ifvqdo0","pricing_plan_id":"cebpf4jnsgd1na2vs0mg"},{"bike_id":"ff58a152-1264-4c10-9465-044405880f44","system_id":"levelo_inurba_marseille","lat":43.26222,"lon":5.40451,"is_reserved":false,"is_disabled":false,"rental_uris":{"android":"levelo://app?vid=ff58a152-1264-4c10-9465-044405880f44","ios":"levelo://app?vid=ff58a152-1264-4c10-9465-044405880f44"},"vehicle_type_id":"4","last_reported":1768976506,"current_range_meters":4400,"station_id":"ce4bhmh2rcd13ifvqgmg","pricing_plan_id":"cebpf4jnsgd1na2vs0mg"},{"bike_id":"9af1d4fe-4636-4caa-9cbd-bbff193f53c9","system_id":"levelo_inurba_marseille","lat":43.2816,"lon":5.42608,"is_reserved":false,"is_disabled":false,"rental_uris":{"android":"levelo://app?vid=9af1d4fe-4636-4caa-9cbd-bbff193f53c9","ios":"levelo://app?vid=9af1d4fe-4636-4caa-9cbd-bbff193f53c9"},"vehicle_type_id":"4","last_reported":1768976506,"current_range_meters":4400,"station_id":"ce4bhnh2rcd13ifvqgug","pricing_plan_id":"cebpf4jnsgd1na2vs0mg"},{"bike_id":"ab8f0e9e-82c0-4cd4-ae4a-73fe86db6b63","system_id":"levelo_inurba_marseille","lat":43.30145,"lon":5.38074,"is_reserved":false,"is_disabled":false,"rental_uris":{"android":"levelo://app?vid=ab8f0e9e-82c0-4cd4-ae4a-73fe86db6b63","ios":"levelo://app?vid=ab8f0e9e-82c0-4cd4-ae4a-73fe86db6b63"},"vehicle_type_id":"4","last_reported":1768976506,"current_range_meters":4400,"station_id":"ce4bgjp2rcd13ifvqbh0","pricing_plan_id":"cebpf4jnsgd1na2vs0mg"},{"bike_id":"fa2e0772-e4ab-47fe-9eb8-58e8effe3888","system_id":"levelo_inurba_marseille","lat":43.284855,"lon":5.38418,"is_reserved":false,"is_disabled":false,"rental_uris":{"android":"levelo://app?vid=fa2e0772-e4ab-47fe-9eb8-58e8effe3888","ios":"levelo://app?vid=fa2e0772-e4ab-47fe-9eb8-58e8effe3888"},"vehicle_type_id":"4","last_reported":1768976506,"current_range_meters":4400,"station_id":"ce4bh512rcd13ifvqe3g","pricing_plan_id":"cebpf4jnsgd1na2vs0mg"},{"bike_id":"ce65da15-5103-4c08-86e5-b4783ea2b238","system_id":"levelo_inurba_marseille","lat":43.29313,"lon":5.37181,"is_reserved":false,"is_disabled":false,"rental_uris":{"android":"levelo://app?vid=ce65da15-5103-4c08-86e5-b4783ea2b238","ios":"levelo://app?vid=ce65da15-5103-4c08-86e5-b4783ea2b238"},"vehicle_type_id":"4","last_reported":1768976506,"current_range_meters":4400,"station_id":"ce4bgh92rcd13ifvqb40","pricing_plan_id":"cebpf4jnsgd1na2vs0mg"},{"bike_id":"5d6ec190-4e3f-4728-8145-239caf53150f","system_id":"levelo_inurba_marseille","lat":43.30686,"lon":5.40284,"is_reserved":false,"is_disabled":false,"rental_uris":{"android":"levelo://app?vid=5d6ec190-4e3f-4728-8145-239caf53150f","ios":"levelo://app?vid=5d6ec190-4e3f-4728-8145-239caf53150f"},"vehicle_type_id":"4","last_reported":1768976506,"current_range_meters":4400,"station_id":"","pricing_plan_id":"cebpf4jnsgd1na2vs0mg"},{"bike_id":"f1d4233d-2911-4edf-a268-ad1589486129","system_id":"levelo_inurba_marseille","lat":43.24171,"lon":5.39731,"is_reserved":false,"is_disabled":false,"rental_uris":{"android":"levelo://app?vid=f1d4233d-2911-4edf-a268-ad1589486129","ios":"levelo://app?vid=f1d4233d-2911-4edf-a268-ad1589486129"},"vehicle_type_id":"4","last_reported":1768976506,"current_range_meters":4800,"station_id":"ce4bhn12rcd13ifvqgpg","pricing_plan_id":"cebpf4jnsgd1na2vs0mg"},{"bike_id":"d2cb0070-0422-466b-b462-1892f78475a2","system_id":"levelo_inurba_marseille","lat":43.22941,"lon":5.35363,"is_reserved":false,"is_disabled":false,"rental_uris":{"android":"levelo://app?vid=d2cb0070-0422-466b-b462-1892f78475a2","ios":"levelo://app?vid=d2cb0070-0422-466b-b462-1892f78475a2"},"vehicle_type_id":"4","last_reported":1768976506,"current_range_meters":4800,"station_id":"cpo3532slgdg3j2ikp40","pricing_plan_id":"cebpf4jnsgd1na2vs0mg"},{"bike_id":"a4ae407f-e463-482c-ab8d-438bea2968f2","system_id":"levelo_inurba_marseille","lat":43.29028,"lon":5.38653,"is_reserved":false,"is_disabled":false,"rental_uris":{"android":"levelo://app?vid=a4ae407f-e463-482c-ab8d-438bea2968f2","ios":"levelo://app?vid=a4ae407f-e463-482c-ab8d-438bea2968f2"},"vehicle_type_id":"4","last_reported":1768976506,"current_range_meters":4800,"station_id":"ce4bh4p2rcd13ifvqe0g","pricing_plan_id":"cebpf4jnsgd1na2vs0mg"},{"bike_id":"4cb0e863-5c99-40cb-b375-f537fbba7124","system_id":"levelo_inurba_marseille","lat":43.25001,"lon":5.38939,"is_reserved":false,"is_disabled":false,"rental_uris":{"android":"levelo://app?vid=4cb0e863-5c99-40cb-b375-f537fbba7124","ios":"levelo://app?vid=4cb0e863-5c99-40cb-b375-f537fbba7124"},"vehicle_type_id":"4","last_reported":1768976506,"current_range_meters":4800,"station_id":"ce4bhgp2rcd13ifvqfd0","pricing_plan_id":"cebpf4jnsgd1na2vs0mg"},{"bike_id":"211613fd-e14b-461c-87e3-3c762d414ccb","system_id":"levelo_inurba_marseille","lat":43.30893,"lon":5.39625,"is_reserved":false,"is_disabled":false,"rental_uris":{"android":"levelo://app?vid=211613fd-e14b-461c-87e3-3c762d414ccb","ios":"levelo://app?vid=211613fd-e14b-461c-87e3-3c762d414ccb"},"vehicle_type_id":"4","last_reported":1768976506,"current_range_meters":4800,"station_id":"ce4bh012rcd13ifvqcv0","pricing_plan_id":"cebpf4jnsgd1na2vs0mg"},{"bike_id":"b56297a5-7db5-43da-9fd6-782ce2af0c6d","system_id":"levelo_inurba_marseille","lat":43.28841,"lon":5.35838,"is_reserved":false,"is_disabled":false,"rental_uris":{"android":"levelo://app?vid=b56297a5-7db5-43da-9fd6-782ce2af0c6d","ios":"levelo://app?vid=b56297a5-7db5-43da-9fd6-782ce2af0c6d"},"vehicle_type_id":"4","last_reported":1768976506,"current_range_meters":5600,"station_id":"ce4bhb12rcd13ifvqem0","pricing_plan_id":"cebpf4jnsgd1na2vs0mg"},{"bike_id":"788bb91c-a4fc-4496-ab23-6c36e1996b9e","system_id":"levelo_inurba_marseille","lat":43.31358,"lon":5.36692,"is_reserved":false,"is_disabled":false,"rental_uris":{"android":"levelo://app?vid=788bb91c-a4fc-4496-ab23-6c36e1996b9e","ios":"levelo://app?vid=788bb91c-a4fc-4496-ab23-6c36e1996b9e"},"vehicle_type_id":"4","last_reported":1768976506,"current_range_meters":5600,"station_id":"ce4bgr92rcd13ifvqc6g","pricing_plan_id":"cebpf4jnsgd1na2vs0mg"},{"bike_id":"f58dc067-4dd9-4635-8ae5-365aced9c977","system_id":"levelo_inurba_marseille","lat":43.26215,"lon":5.40445,"is_reserved":false,"is_disabled":false,"rental_uris":{"android":"levelo://app?vid=f58dc067-4dd9-4635-8ae5-365aced9c977","ios":"levelo://app?vid=f58dc067-4dd9-4635-8ae5-365aced9c977"},"vehicle_type_id":"4","last_reported":1768976506,"current_range_meters":5600,"station_id":"ce4bhmh2rcd13ifvqgmg","pricing_plan_id":"cebpf4jnsgd1na2vs0mg"},{"bike_id":"17a32531-362d-441f-a61f-13dcfd80e179","system_id":"levelo_inurba_marseille","lat":43.31194,"lon":5.38732,"is_reserved":false,"is_disabled":false,"rental_uris":{"android":"levelo://app?vid=17a32531-362d-441f-a61f-13dcfd80e179","ios":"levelo://app?vid=17a32531-362d-441f-a61f-13dcfd80e179"},"vehicle_type_id":"4","last_reported":1768976506,"current_range_meters":5600,"station_id":"ce4bgv12rcd13ifvqcp0","pricing_plan_id":"cebpf4jnsgd1na2vs0mg"},{"bike_id":"52c85b02-607c-4226-bd7b-fd246dd2dae8","system_id":"levelo_inurba_marseille","lat":43.22559,"lon":5.41627,"is_reserved":false,"is_disabled":false,"rental_uris":{"android":"levelo://app?vid=52c85b02-607c-4226-bd7b-fd246dd2dae8","ios":"levelo://app?vid=52c85b02-607c-4226-bd7b-fd246dd2dae8"},"vehicle_type_id":"4","last_reported":1768976506,"current_range_meters":5600,"station_id":"st_d2o4gvlbi1j2169b742g","pricing_plan_id":"cebpf4jnsgd1na2vs0mg"},{"bike_id":"10483c0a-1726-407f-8492-2530493c0d67","system_id":"levelo_inurba_marseille","lat":43.25013,"lon":5.38903,"is_reserved":false,"is_disabled":false,"rental_uris":{"android":"levelo://app?vid=10483c0a-1726-407f-8492-2530493c0d67","ios":"levelo://app?vid=10483c0a-1726-407f-8492-2530493c0d67"},"vehicle_type_id":"4","last_reported":1768976506,"current_range_meters":5600,"station_id":"ce4bhgp2rcd13ifvqfd0","pricing_plan_id":"cebpf4jnsgd1na2vs0mg"},{"bike_id":"35eb0f0f-42a8-4fd5-956e-bec6aa3f7ee3","system_id":"levelo_inurba_marseille","lat":43.231788,"lon":5.399988,"is_reserved":false,"is_disabled":false,"rental_uris":{"android":"levelo://app?vid=35eb0f0f-42a8-4fd5-956e-bec6aa3f7ee3","ios":"levelo://app?vid=35eb0f0f-42a8-4fd5-956e-bec6aa3f7ee3"},"vehicle_type_id":"4","last_reported":1768976506,"current_range_meters":5600,"station_id":"ce4bhn12rcd13ifvqgqg","pricing_plan_id":"cebpf4jnsgd1na2vs0mg"},{"bike_id":"3e57c784-076f-487c-b622-a075cc851190","system_id":"levelo_inurba_marseille","lat":43.26334,"lon":5.37809,"is_reserved":false,"is_disabled":false,"rental_uris":{"android":"levelo://app?vid=3e57c784-076f-487c-b622-a075cc851190","ios":"levelo://app?vid=3e57c784-076f-487c-b622-a075cc851190"},"vehicle_type_id":"4","last_reported":1768976506,"current_range_meters":5600,"station_id":"ce4bhjp2rcd13ifvqg90","pricing_plan_id":"cebpf4jnsgd1na2vs0mg"},{"bike_id":"a5ebcba7-fe1d-488a-80b5-d45fecb71bde","system_id":"levelo_inurba_marseille","lat":43.27054,"lon":5.40259,"is_reserved":false,"is_disabled":false,"rental_uris":{"android":"levelo://app?vid=a5ebcba7-fe1d-488a-80b5-d45fecb71bde","ios":"levelo://app?vid=a5ebcba7-fe1d-488a-80b5-d45fecb71bde"},"vehicle_type_id":"4","last_reported":1768976506,"current_range_meters":5600,"station_id":"ce4bhk92rcd13ifvqgc0","pricing_plan_id":"cebpf4jnsgd1na2vs0mg"},{"bike_id":"9dff9bae-d519-49ab-850f-a6b93762d1fc","system_id":"levelo_inurba_marseille","lat":43.25339,"lon":5.421685,"is_reserved":false,"is_disabled":false,"rental_uris":{"android":"levelo://app?vid=9dff9bae-d519-49ab-850f-a6b93762d1fc","ios":"levelo://app?vid=9dff9bae-d519-49ab-850f-a6b93762d1fc"},"vehicle_type_id":"4","last_reported":1768976506,"current_range_meters":5600,"station_id":"st_d2m65c5bi1j21697t3ng","pricing_plan_id":"cebpf4jnsgd1na2vs0mg"},{"bike_id":"e29b0d2f-e04f-40fd-b11c-8492c81a52ca","system_id":"levelo_inurba_marseille","lat":43.28107,"lon":5.37822,"is_reserved":false,"is_disabled":false,"rental_uris":{"android":"levelo://app?vid=e29b0d2f-e04f-40fd-b11c-8492c81a52ca","ios":"levelo://app?vid=e29b0d2f-e04f-40fd-b11c-8492c81a52ca"},"vehicle_type_id":"4","last_reported":1768976506,"current_range_meters":6000,"station_id":"ce4bha12rcd13ifvqee0","pricing_plan_id":"cebpf4jnsgd1na2vs0mg"},{"bike_id":"00926366-40d2-4692-a7fe-1fb3b69e53b6","system_id":"levelo_inurba_marseille","lat":43.324807,"lon":5.365692,"is_reserved":false,"is_disabled":false,"rental_uris":{"android":"levelo://app?vid=00926366-40d2-4692-a7fe-1fb3b69e53b6","ios":"levelo://app?vid=00926366-40d2-4692-a7fe-1fb3b69e53b6"},"vehicle_type_id":"4","last_reported":1768976506,"current_range_meters":6000,"station_id":"ce4bhs12rcd13ifvqhvg","pricing_plan_id":"cebpf4jnsgd1na2vs0mg"},{"bike_id":"f9c756b7-6ab4-4842-b242-46f06e32e85d","system_id":"levelo_inurba_marseille","lat":43.27998,"lon":5.400132,"is_reserved":false,"is_disabled":false,"rental_uris":{"android":"levelo://app?vid=f9c756b7-6ab4-4842-b242-46f06e32e85d","ios":"levelo://app?vid=f9c756b7-6ab4-4842-b242-46f06e32e85d"},"vehicle_type_id":"4","last_reported":1768976506,"current_range_meters":6000,"station_id":"ce4bho92rcd13ifvqh4g","pricing_plan_id":"cebpf4jnsgd1na2vs0mg"},{"bike_id":"8794cdb3-b07a-4a6a-b8a7-d49e68bcc2e0","system_id":"levelo_inurba_marseille","lat":43.27811,"lon":5.40712,"is_reserved":false,"is_disabled":false,"rental_uris":{"android":"levelo://app?vid=8794cdb3-b07a-4a6a-b8a7-d49e68bcc2e0","ios":"levelo://app?vid=8794cdb3-b07a-4a6a-b8a7-d49e68bcc2e0"},"vehicle_type_id":"4","last_reported":1768976506,"current_range_meters":6000,"station_id":"ce4bhnh2rcd13ifvqgtg","pricing_plan_id":"cebpf4jnsgd1na2vs0mg"},{"bike_id":"66160d64-23f9-4d70-b989-daa254cf260e","system_id":"levelo_inurba_marseille","lat":43.28123,"lon":5.42607,"is_reserved":false,"is_disabled":false,"rental_uris":{"android":"levelo://app?vid=66160d64-23f9-4d70-b989-daa254cf260e","ios":"levelo://app?vid=66160d64-23f9-4d70-b989-daa254cf260e"},"vehicle_type_id":"4","last_reported":1768976506,"current_range_meters":6000,"station_id":"ce4bhnh2rcd13ifvqgug","pricing_plan_id":"cebpf4jnsgd1na2vs0mg"},{"bike_id":"29b3fe27-3155-4bb1-9d12-be92f522d733","system_id":"levelo_inurba_marseille","lat":43.297542,"lon":5.427781,"is_reserved":false,"is_disabled":false,"rental_uris":{"android":"levelo://app?vid=29b3fe27-3155-4bb1-9d12-be92f522d733","ios":"levelo://app?vid=29b3fe27-3155-4bb1-9d12-be92f522d733"},"vehicle_type_id":"4","last_reported":1768976506,"current_range_meters":6000,"station_id":"st_d3md5207bmas73dh9klg","pricing_plan_id":"cebpf4jnsgd1na2vs0mg"},{"bike_id":"f28dab8c-22b5-43d8-96b4-ff15ffb80192","system_id":"levelo_inurba_marseille","lat":43.2975,"lon":5.42794,"is_reserved":false,"is_disabled":false,"rental_uris":{"android":"levelo://app?vid=f28dab8c-22b5-43d8-96b4-ff15ffb80192","ios":"levelo://app?vid=f28dab8c-22b5-43d8-96b4-ff15ffb80192"},"vehicle_type_id":"4","last_reported":1768976506,"current_range_meters":6000,"station_id":"st_d3md5207bmas73dh9klg","pricing_plan_id":"cebpf4jnsgd1na2vs0mg"},{"bike_id":"2cae306f-ef70-4ac0-8308-717918373932","system_id":"levelo_inurba_marseille","lat":43.28615,"lon":5.35095,"is_reserved":false,"is_disabled":false,"rental_uris":{"android":"levelo://app?vid=2cae306f-ef70-4ac0-8308-717918373932","ios":"levelo://app?vid=2cae306f-ef70-4ac0-8308-717918373932"},"vehicle_type_id":"4","last_reported":1768976506,"current_range_meters":6000,"station_id":"ce4bhch2rcd13ifvqeug","pricing_plan_id":"cebpf4jnsgd1na2vs0mg"},{"bike_id":"e775e37a-88b9-408c-8364-888bc63e91d3","system_id":"levelo_inurba_marseille","lat":43.24388,"lon":5.37053,"is_reserved":false,"is_disabled":false,"rental_uris":{"android":"levelo://app?vid=e775e37a-88b9-408c-8364-888bc63e91d3","ios":"levelo://app?vid=e775e37a-88b9-408c-8364-888bc63e91d3"},"vehicle_type_id":"4","last_reported":1768976506,"current_range_meters":6000,"station_id":"ce4bhhh2rcd13ifvqfk0","pricing_plan_id":"cebpf4jnsgd1na2vs0mg"},{"bike_id":"ebe003b4-acb3-4f2e-b3a9-111deeec5cf7","system_id":"levelo_inurba_marseille","lat":43.31328,"lon":5.3968,"is_reserved":false,"is_disabled":false,"rental_uris":{"android":"levelo://app?vid=ebe003b4-acb3-4f2e-b3a9-111deeec5cf7","ios":"levelo://app?vid=ebe003b4-acb3-4f2e-b3a9-111deeec5cf7"},"vehicle_type_id":"4","last_reported":1768976506,"current_range_meters":6000,"station_id":"ce4bgvp2rcd13ifvqcu0","pricing_plan_id":"cebpf4jnsgd1na2vs0mg"},{"bike_id":"dd708593-8370-42b4-afb3-1460a80ecaa5","system_id":"levelo_inurba_marseille","lat":43.31107,"lon":5.3778,"is_reserved":false,"is_disabled":false,"rental_uris":{"android":"levelo://app?vid=dd708593-8370-42b4-afb3-1460a80ecaa5","ios":"levelo://app?vid=dd708593-8370-42b4-afb3-1460a80ecaa5"},"vehicle_type_id":"4","last_reported":1768976506,"current_range_meters":6000,"station_id":"ce4bgt92rcd13ifvqcg0","pricing_plan_id":"cebpf4jnsgd1na2vs0mg"},{"bike_id":"48744978-b1c8-4b94-b483-00e386751f56","system_id":"levelo_inurba_marseille","lat":43.265668,"lon":5.390171,"is_reserved":false,"is_disabled":false,"rental_uris":{"android":"levelo://app?vid=48744978-b1c8-4b94-b483-00e386751f56","ios":"levelo://app?vid=48744978-b1c8-4b94-b483-00e386751f56"},"vehicle_type_id":"4","last_reported":1768976506,"current_range_meters":6000,"station_id":"ce4bhe12rcd13ifvqf30","pricing_plan_id":"cebpf4jnsgd1na2vs0mg"},{"bike_id":"c9632c24-d4ba-453f-a643-952c5a012a8a","system_id":"levelo_inurba_marseille","lat":43.22571,"lon":5.41622,"is_reserved":false,"is_disabled":false,"rental_uris":{"android":"levelo://app?vid=c9632c24-d4ba-453f-a643-952c5a012a8a","ios":"levelo://app?vid=c9632c24-d4ba-453f-a643-952c5a012a8a"},"vehicle_type_id":"4","last_reported":1768976506,"current_range_meters":6400,"station_id":"st_d2o4gvlbi1j2169b742g","pricing_plan_id":"cebpf4jnsgd1na2vs0mg"},{"bike_id":"a5f349fe-2e30-4d5c-8f49-43550ab153d5","system_id":"levelo_inurba_marseille","lat":43.24641,"lon":5.38914,"is_reserved":false,"is_disabled":false,"rental_uris":{"android":"levelo://app?vid=a5f349fe-2e30-4d5c-8f49-43550ab153d5","ios":"levelo://app?vid=a5f349fe-2e30-4d5c-8f49-43550ab153d5"},"vehicle_type_id":"4","last_reported":1768976506,"current_range_meters":6400,"station_id":"ce4bhg12rcd13ifvqf60","pricing_plan_id":"cebpf4jnsgd1na2vs0mg"},{"bike_id":"fe4b8d92-6b74-4f7f-be90-48717fca1ec3","system_id":"levelo_inurba_marseille","lat":43.30724,"lon":5.42431,"is_reserved":false,"is_disabled":false,"rental_uris":{"android":"levelo://app?vid=fe4b8d92-6b74-4f7f-be90-48717fca1ec3","ios":"levelo://app?vid=fe4b8d92-6b74-4f7f-be90-48717fca1ec3"},"vehicle_type_id":"4","last_reported":1768976506,"current_range_meters":6400,"station_id":"st_cvj6ca6bvosntc0bfgr0","pricing_plan_id":"cebpf4jnsgd1na2vs0mg"},{"bike_id":"c8b36723-7039-4b4e-b709-3c4707457d93","system_id":"levelo_inurba_marseille","lat":43.239628,"lon":5.366325,"is_reserved":false,"is_disabled":false,"rental_uris":{"android":"levelo://app?vid=c8b36723-7039-4b4e-b709-3c4707457d93","ios":"levelo://app?vid=c8b36723-7039-4b4e-b709-3c4707457d93"},"vehicle_type_id":"4","last_reported":1768976506,"current_range_meters":6400,"station_id":"ce4bhi12rcd13ifvqfp0","pricing_plan_id":"cebpf4jnsgd1na2vs0mg"},{"bike_id":"04d1fa74-7078-4e54-86c0-c9d3f7b08c45","system_id":"levelo_inurba_marseille","lat":43.2558,"lon":5.38217,"is_reserved":false,"is_disabled":false,"rental_uris":{"android":"levelo://app?vid=04d1fa74-7078-4e54-86c0-c9d3f7b08c45","ios":"levelo://app?vid=04d1fa74-7078-4e54-86c0-c9d3f7b08c45"},"vehicle_type_id":"4","last_reported":1768976506,"current_range_meters":6400,"station_id":"ce4bhih2rcd13ifvqfs0","pricing_plan_id":"cebpf4jnsgd1na2vs0mg"},{"bike_id":"7c860edb-32a4-4e9c-bf66-fe03b3b3e5ba","system_id":"levelo_inurba_marseille","lat":43.31705,"lon":5.37762,"is_reserved":false,"is_disabled":false,"rental_uris":{"android":"levelo://app?vid=7c860edb-32a4-4e9c-bf66-fe03b3b3e5ba","ios":"levelo://app?vid=7c860edb-32a4-4e9c-bf66-fe03b3b3e5ba"},"vehicle_type_id":"4","last_reported":1768976506,"current_range_meters":6400,"station_id":"ce4bgth2rcd13ifvqch0","pricing_plan_id":"cebpf4jnsgd1na2vs0mg"},{"bike_id":"02b19501-ae2b-4d21-ae93-ce26586838ae","system_id":"levelo_inurba_marseille","lat":43.29558,"lon":5.42285,"is_reserved":false,"is_disabled":false,"rental_uris":{"android":"levelo://app?vid=02b19501-ae2b-4d21-ae93-ce26586838ae","ios":"levelo://app?vid=02b19501-ae2b-4d21-ae93-ce26586838ae"},"vehicle_type_id":"4","last_reported":1768976506,"current_range_meters":6400,"station_id":"ce4bhph2rcd13ifvqhdg","pricing_plan_id":"cebpf4jnsgd1na2vs0mg"},{"bike_id":"7d2f250a-191b-441d-876b-7325dd6245a6","system_id":"levelo_inurba_marseille","lat":43.2499,"lon":5.3894,"is_reserved":false,"is_disabled":false,"rental_uris":{"android":"levelo://app?vid=7d2f250a-191b-441d-876b-7325dd6245a6","ios":"levelo://app?vid=7d2f250a-191b-441d-876b-7325dd6245a6"},"vehicle_type_id":"4","last_reported":1768976506,"current_range_meters":6400,"station_id":"ce4bhgp2rcd13ifvqfd0","pricing_plan_id":"cebpf4jnsgd1na2vs0mg"},{"bike_id":"7c0fb123-89f3-46bf-bd94-c10229a36c7b","system_id":"levelo_inurba_marseille","lat":43.2396,"lon":5.36635,"is_reserved":false,"is_disabled":false,"rental_uris":{"android":"levelo://app?vid=7c0fb123-89f3-46bf-bd94-c10229a36c7b","ios":"levelo://app?vid=7c0fb123-89f3-46bf-bd94-c10229a36c7b"},"vehicle_type_id":"4","last_reported":1768976506,"current_range_meters":6400,"station_id":"ce4bhi12rcd13ifvqfp0","pricing_plan_id":"cebpf4jnsgd1na2vs0mg"},{"bike_id":"c103ce9c-0aaa-4a53-b373-a704be8ed706","system_id":"levelo_inurba_marseille","lat":43.25334,"lon":5.421679,"is_reserved":false,"is_disabled":false,"rental_uris":{"android":"levelo://app?vid=c103ce9c-0aaa-4a53-b373-a704be8ed706","ios":"levelo://app?vid=c103ce9c-0aaa-4a53-b373-a704be8ed706"},"vehicle_type_id":"4","last_reported":1768976506,"current_range_meters":6400,"station_id":"st_d2m65c5bi1j21697t3ng","pricing_plan_id":"cebpf4jnsgd1na2vs0mg"},{"bike_id":"95e73064-8526-4285-a55a-6a68055eafcc","system_id":"levelo_inurba_marseille","lat":43.28411,"lon":5.37543,"is_reserved":false,"is_disabled":true,"rental_uris":{"android":"levelo://app?vid=95e73064-8526-4285-a55a-6a68055eafcc","ios":"levelo://app?vid=95e73064-8526-4285-a55a-6a68055eafcc"},"vehicle_type_id":"4","last_reported":1768976506,"current_range_meters":6400,"station_id":"ce4bh412rcd13ifvqds0","pricing_plan_id":"cebpf4jnsgd1na2vs0mg"},{"bike_id":"5dbfcf3f-7cec-4c29-8168-14f9c37f7762","system_id":"levelo_inurba_marseille","lat":43.22555,"lon":5.41637,"is_reserved":false,"is_disabled":false,"rental_uris":{"android":"levelo://app?vid=5dbfcf3f-7cec-4c29-8168-14f9c37f7762","ios":"levelo://app?vid=5dbfcf3f-7cec-4c29-8168-14f9c37f7762"},"vehicle_type_id":"4","last_reported":1768976506,"current_range_meters":6400,"station_id":"st_d2o4gvlbi1j2169b742g","pricing_plan_id":"cebpf4jnsgd1na2vs0mg"},{"bike_id":"9c35b422-d216-44eb-8867-88db04bcc71b","system_id":"levelo_inurba_marseille","lat":43.24057,"lon":5.37776,"is_reserved":false,"is_disabled":false,"rental_uris":{"android":"levelo://app?vid=9c35b422-d216-44eb-8867-88db04bcc71b","ios":"levelo://app?vid=9c35b422-d216-44eb-8867-88db04bcc71b"},"vehicle_type_id":"4","last_reported":1768976506,"current_range_meters":6400,"station_id":"ce4bhnp2rcd13ifvqgvg","pricing_plan_id":"cebpf4jnsgd1na2vs0mg"},{"bike_id":"ee362b81-2fd3-4392-9e20-4f87e4a9d5bd","system_id":"levelo_inurba_marseille","lat":43.279459,"lon":5.386934,"is_reserved":false,"is_disabled":false,"rental_uris":{"android":"levelo://app?vid=ee362b81-2fd3-4392-9e20-4f87e4a9d5bd","ios":"levelo://app?vid=ee362b81-2fd3-4392-9e20-4f87e4a9d5bd"},"vehicle_type_id":"4","last_reported":1768976506,"current_range_meters":6400,"station_id":"ce4bhg12rcd13ifvqf80","pricing_plan_id":"cebpf4jnsgd1na2vs0mg"},{"bike_id":"2cf1ea64-26bb-4964-939a-03465aee6659","system_id":"levelo_inurba_marseille","lat":43.22557,"lon":5.41624,"is_reserved":false,"is_disabled":false,"rental_uris":{"android":"levelo://app?vid=2cf1ea64-26bb-4964-939a-03465aee6659","ios":"levelo://app?vid=2cf1ea64-26bb-4964-939a-03465aee6659"},"vehicle_type_id":"4","last_reported":1768976506,"current_range_meters":6400,"station_id":"st_d2o4gvlbi1j2169b742g","pricing_plan_id":"cebpf4jnsgd1na2vs0mg"},{"bike_id":"fbc33a72-4745-4524-a282-41ff07403603","system_id":"levelo_inurba_marseille","lat":43.25339,"lon":5.421724,"is_reserved":false,"is_disabled":false,"rental_uris":{"android":"levelo://app?vid=fbc33a72-4745-4524-a282-41ff07403603","ios":"levelo://app?vid=fbc33a72-4745-4524-a282-41ff07403603"},"vehicle_type_id":"4","last_reported":1768976506,"current_range_meters":6400,"station_id":"st_d2m65c5bi1j21697t3ng","pricing_plan_id":"cebpf4jnsgd1na2vs0mg"},{"bike_id":"1b6edef0-2b6f-4530-b134-4fb09445529a","system_id":"levelo_inurba_marseille","lat":43.244657,"lon":5.425415,"is_reserved":false,"is_disabled":false,"rental_uris":{"android":"levelo://app?vid=1b6edef0-2b6f-4530-b134-4fb09445529a","ios":"levelo://app?vid=1b6edef0-2b6f-4530-b134-4fb09445529a"},"vehicle_type_id":"4","last_reported":1768976506,"current_range_meters":6400,"station_id":"st_d4a3vfp97mjs738cd8kg","pricing_plan_id":"cebpf4jnsgd1na2vs0mg"},{"bike_id":"ae82840e-6713-4278-be7e-382935799675","system_id":"levelo_inurba_marseille","lat":43.32352,"lon":5.3851,"is_reserved":false,"is_disabled":false,"rental_uris":{"android":"levelo://app?vid=ae82840e-6713-4278-be7e-382935799675","ios":"levelo://app?vid=ae82840e-6713-4278-be7e-382935799675"},"vehicle_type_id":"4","last_reported":1768976506,"current_range_meters":6400,"station_id":"st_d45171o9ee8s73djdqug","pricing_plan_id":"cebpf4jnsgd1na2vs0mg"},{"bike_id":"83098069-1cb7-423e-af0c-9e55721265a8","system_id":"levelo_inurba_marseille","lat":43.3145,"lon":5.45426,"is_reserved":false,"is_disabled":false,"rental_uris":{"android":"levelo://app?vid=83098069-1cb7-423e-af0c-9e55721265a8","ios":"levelo://app?vid=83098069-1cb7-423e-af0c-9e55721265a8"},"vehicle_type_id":"4","last_reported":1768976506,"current_range_meters":6400,"station_id":"","pricing_plan_id":"cebpf4jnsgd1na2vs0mg"},{"bike_id":"8155f86b-6d64-4287-9ed7-7fbe9d103dde","system_id":"levelo_inurba_marseille","lat":43.22563,"lon":5.41626,"is_reserved":false,"is_disabled":false,"rental_uris":{"android":"levelo://app?vid=8155f86b-6d64-4287-9ed7-7fbe9d103dde","ios":"levelo://app?vid=8155f86b-6d64-4287-9ed7-7fbe9d103dde"},"vehicle_type_id":"4","last_reported":1768976506,"current_range_meters":6400,"station_id":"st_d2o4gvlbi1j2169b742g","pricing_plan_id":"cebpf4jnsgd1na2vs0mg"},{"bike_id":"233d466b-a95b-4527-9a63-fc274413810a","system_id":"levelo_inurba_marseille","lat":43.31594,"lon":5.38179,"is_reserved":false,"is_disabled":false,"rental_uris":{"android":"levelo://app?vid=233d466b-a95b-4527-9a63-fc274413810a","ios":"levelo://app?vid=233d466b-a95b-4527-9a63-fc274413810a"},"vehicle_type_id":"4","last_reported":1768976506,"current_range_meters":6400,"station_id":"","pricing_plan_id":"cebpf4jnsgd1na2vs0mg"},{"bike_id":"7f57e4b7-adcc-40f6-a2f9-1294ef7abba0","system_id":"levelo_inurba_marseille","lat":43.30908,"lon":5.36869,"is_reserved":false,"is_disabled":false,"rental_uris":{"android":"levelo://app?vid=7f57e4b7-adcc-40f6-a2f9-1294ef7abba0","ios":"levelo://app?vid=7f57e4b7-adcc-40f6-a2f9-1294ef7abba0"},"vehicle_type_id":"4","last_reported":1768976506,"current_range_meters":6800,"station_id":"ce4bgn92rcd13ifvqbvg","pricing_plan_id":"cebpf4jnsgd1na2vs0mg"},{"bike_id":"8a5a3714-7c83-4048-ad16-ea8dc8d395b1","system_id":"levelo_inurba_marseille","lat":43.28429,"lon":5.3918,"is_reserved":false,"is_disabled":false,"rental_uris":{"android":"levelo://app?vid=8a5a3714-7c83-4048-ad16-ea8dc8d395b1","ios":"levelo://app?vid=8a5a3714-7c83-4048-ad16-ea8dc8d395b1"},"vehicle_type_id":"4","last_reported":1768976506,"current_range_meters":6800,"station_id":"ce4bhoh2rcd13ifvqh5g","pricing_plan_id":"cebpf4jnsgd1na2vs0mg"},{"bike_id":"67ff9a75-4fe8-45e7-914d-fc416a457597","system_id":"levelo_inurba_marseille","lat":43.32104,"lon":5.36785,"is_reserved":false,"is_disabled":false,"rental_uris":{"android":"levelo://app?vid=67ff9a75-4fe8-45e7-914d-fc416a457597","ios":"levelo://app?vid=67ff9a75-4fe8-45e7-914d-fc416a457597"},"vehicle_type_id":"4","last_reported":1768976506,"current_range_meters":6800,"station_id":"ce4bhrh2rcd13ifvqhug","pricing_plan_id":"cebpf4jnsgd1na2vs0mg"},{"bike_id":"6ed8c7ae-caef-4abd-a9d4-aaf7d0882a8a","system_id":"levelo_inurba_marseille","lat":43.29608,"lon":5.37715,"is_reserved":false,"is_disabled":true,"rental_uris":{"android":"levelo://app?vid=6ed8c7ae-caef-4abd-a9d4-aaf7d0882a8a","ios":"levelo://app?vid=6ed8c7ae-caef-4abd-a9d4-aaf7d0882a8a"},"vehicle_type_id":"4","last_reported":1768976506,"current_range_meters":6800,"station_id":"ce4bgi92rcd13ifvqb90","pricing_plan_id":"cebpf4jnsgd1na2vs0mg"},{"bike_id":"dcc56798-b289-4f87-8a3a-f6804c63566a","system_id":"levelo_inurba_marseille","lat":43.28543,"lon":5.44077,"is_reserved":false,"is_disabled":false,"rental_uris":{"android":"levelo://app?vid=dcc56798-b289-4f87-8a3a-f6804c63566a","ios":"levelo://app?vid=dcc56798-b289-4f87-8a3a-f6804c63566a"},"vehicle_type_id":"4","last_reported":1768976506,"current_range_meters":6800,"station_id":"st_d3j3df2ikq2c7380ej80","pricing_plan_id":"cebpf4jnsgd1na2vs0mg"},{"bike_id":"ae14426c-d055-48d5-a4ff-6e0b03ad465f","system_id":"levelo_inurba_marseille","lat":43.25834,"lon":5.39439,"is_reserved":false,"is_disabled":false,"rental_uris":{"android":"levelo://app?vid=ae14426c-d055-48d5-a4ff-6e0b03ad465f","ios":"levelo://app?vid=ae14426c-d055-48d5-a4ff-6e0b03ad465f"},"vehicle_type_id":"4","last_reported":1768976506,"current_range_meters":6800,"station_id":"ce4bhip2rcd13ifvqft0","pricing_plan_id":"cebpf4jnsgd1na2vs0mg"},{"bike_id":"8da9484a-f601-48f2-9b7f-9039efa78ffa","system_id":"levelo_inurba_marseille","lat":43.29734,"lon":5.39327,"is_reserved":false,"is_disabled":false,"rental_uris":{"android":"levelo://app?vid=8da9484a-f601-48f2-9b7f-9039efa78ffa","ios":"levelo://app?vid=8da9484a-f601-48f2-9b7f-9039efa78ffa"},"vehicle_type_id":"4","last_reported":1768976506,"current_range_meters":6800,"station_id":"","pricing_plan_id":"cebpf4jnsgd1na2vs0mg"},{"bike_id":"dc6a3b2b-9f82-4e51-a058-6377bdf44ec5","system_id":"levelo_inurba_marseille","lat":43.25329,"lon":5.42161,"is_reserved":false,"is_disabled":false,"rental_uris":{"android":"levelo://app?vid=dc6a3b2b-9f82-4e51-a058-6377bdf44ec5","ios":"levelo://app?vid=dc6a3b2b-9f82-4e51-a058-6377bdf44ec5"},"vehicle_type_id":"4","last_reported":1768976506,"current_range_meters":6800,"station_id":"st_d2m65c5bi1j21697t3ng","pricing_plan_id":"cebpf4jnsgd1na2vs0mg"},{"bike_id":"e6a9e3fa-3b63-4853-b0a2-6fccfa1faa43","system_id":"levelo_inurba_marseille","lat":43.24072,"lon":5.37767,"is_reserved":false,"is_disabled":false,"rental_uris":{"android":"levelo://app?vid=e6a9e3fa-3b63-4853-b0a2-6fccfa1faa43","ios":"levelo://app?vid=e6a9e3fa-3b63-4853-b0a2-6fccfa1faa43"},"vehicle_type_id":"4","last_reported":1768976506,"current_range_meters":6800,"station_id":"ce4bhnp2rcd13ifvqgvg","pricing_plan_id":"cebpf4jnsgd1na2vs0mg"},{"bike_id":"3b354a2e-ec16-4128-9f6e-f06cb1073091","system_id":"levelo_inurba_marseille","lat":43.24464,"lon":5.42535,"is_reserved":false,"is_disabled":false,"rental_uris":{"android":"levelo://app?vid=3b354a2e-ec16-4128-9f6e-f06cb1073091","ios":"levelo://app?vid=3b354a2e-ec16-4128-9f6e-f06cb1073091"},"vehicle_type_id":"4","last_reported":1768976506,"current_range_meters":6800,"station_id":"st_d4a3vfp97mjs738cd8kg","pricing_plan_id":"cebpf4jnsgd1na2vs0mg"},{"bike_id":"50bb271d-7102-4f46-b008-3b349432db37","system_id":"levelo_inurba_marseille","lat":43.295322,"lon":5.39402,"is_reserved":false,"is_disabled":false,"rental_uris":{"android":"levelo://app?vid=50bb271d-7102-4f46-b008-3b349432db37","ios":"levelo://app?vid=50bb271d-7102-4f46-b008-3b349432db37"},"vehicle_type_id":"4","last_reported":1768976506,"current_range_meters":6800,"station_id":"ce4bh292rcd13ifvqdf0","pricing_plan_id":"cebpf4jnsgd1na2vs0mg"},{"bike_id":"6bfa983d-460f-4be3-90a1-b113f34c6cab","system_id":"levelo_inurba_marseille","lat":43.27071,"lon":5.42282,"is_reserved":false,"is_disabled":false,"rental_uris":{"android":"levelo://app?vid=6bfa983d-460f-4be3-90a1-b113f34c6cab","ios":"levelo://app?vid=6bfa983d-460f-4be3-90a1-b113f34c6cab"},"vehicle_type_id":"4","last_reported":1768976506,"current_range_meters":6800,"station_id":"ce4bhk92rcd13ifvqgb0","pricing_plan_id":"cebpf4jnsgd1na2vs0mg"},{"bike_id":"70b5a988-4972-43ed-a646-2bc43fee470e","system_id":"levelo_inurba_marseille","lat":43.304233,"lon":5.373472,"is_reserved":false,"is_disabled":false,"rental_uris":{"android":"levelo://app?vid=70b5a988-4972-43ed-a646-2bc43fee470e","ios":"levelo://app?vid=70b5a988-4972-43ed-a646-2bc43fee470e"},"vehicle_type_id":"4","last_reported":1768976506,"current_range_meters":7200,"station_id":"ce4bgs92rcd13ifvqcc0","pricing_plan_id":"cebpf4jnsgd1na2vs0mg"},{"bike_id":"5cabd586-e2ae-4afa-b702-2522fcf8c1ef","system_id":"levelo_inurba_marseille","lat":43.2721,"lon":5.39191,"is_reserved":false,"is_disabled":false,"rental_uris":{"android":"levelo://app?vid=5cabd586-e2ae-4afa-b702-2522fcf8c1ef","ios":"levelo://app?vid=5cabd586-e2ae-4afa-b702-2522fcf8c1ef"},"vehicle_type_id":"4","last_reported":1768976506,"current_range_meters":7200,"station_id":"ce4bhhp2rcd13ifvqfm0","pricing_plan_id":"cebpf4jnsgd1na2vs0mg"},{"bike_id":"1ff6f568-57d9-4c13-ac7e-7c29997c7583","system_id":"levelo_inurba_marseille","lat":43.29284,"lon":5.40104,"is_reserved":false,"is_disabled":false,"rental_uris":{"android":"levelo://app?vid=1ff6f568-57d9-4c13-ac7e-7c29997c7583","ios":"levelo://app?vid=1ff6f568-57d9-4c13-ac7e-7c29997c7583"},"vehicle_type_id":"4","last_reported":1768976506,"current_range_meters":7200,"station_id":"ce4bh312rcd13ifvqdk0","pricing_plan_id":"cebpf4jnsgd1na2vs0mg"},{"bike_id":"e9cf4d98-a47d-4cc7-82f6-b2e075f45c6a","system_id":"levelo_inurba_marseille","lat":43.22557,"lon":5.41639,"is_reserved":false,"is_disabled":false,"rental_uris":{"android":"levelo://app?vid=e9cf4d98-a47d-4cc7-82f6-b2e075f45c6a","ios":"levelo://app?vid=e9cf4d98-a47d-4cc7-82f6-b2e075f45c6a"},"vehicle_type_id":"4","last_reported":1768976506,"current_range_meters":7200,"station_id":"st_d2o4gvlbi1j2169b742g","pricing_plan_id":"cebpf4jnsgd1na2vs0mg"},{"bike_id":"993f1288-6929-4206-b35f-06e772769526","system_id":"levelo_inurba_marseille","lat":43.307341,"lon":5.424385,"is_reserved":false,"is_disabled":false,"rental_uris":{"android":"levelo://app?vid=993f1288-6929-4206-b35f-06e772769526","ios":"levelo://app?vid=993f1288-6929-4206-b35f-06e772769526"},"vehicle_type_id":"4","last_reported":1768976506,"current_range_meters":7200,"station_id":"st_cvj6ca6bvosntc0bfgr0","pricing_plan_id":"cebpf4jnsgd1na2vs0mg"},{"bike_id":"c648ce05-faa1-4b25-b283-bb371b3c83ac","system_id":"levelo_inurba_marseille","lat":43.28896,"lon":5.38201,"is_reserved":false,"is_disabled":false,"rental_uris":{"android":"levelo://app?vid=c648ce05-faa1-4b25-b283-bb371b3c83ac","ios":"levelo://app?vid=c648ce05-faa1-4b25-b283-bb371b3c83ac"},"vehicle_type_id":"4","last_reported":1768976506,"current_range_meters":7200,"station_id":"","pricing_plan_id":"cebpf4jnsgd1na2vs0mg"},{"bike_id":"511fc97e-4342-48bd-969a-a85990179b2c","system_id":"levelo_inurba_marseille","lat":43.30147,"lon":5.38066,"is_reserved":false,"is_disabled":false,"rental_uris":{"android":"levelo://app?vid=511fc97e-4342-48bd-969a-a85990179b2c","ios":"levelo://app?vid=511fc97e-4342-48bd-969a-a85990179b2c"},"vehicle_type_id":"4","last_reported":1768976506,"current_range_meters":7200,"station_id":"ce4bgjp2rcd13ifvqbh0","pricing_plan_id":"cebpf4jnsgd1na2vs0mg"},{"bike_id":"f7f45999-b135-4f47-bda3-1f1e9b994c9d","system_id":"levelo_inurba_marseille","lat":43.3023,"lon":5.39447,"is_reserved":false,"is_disabled":false,"rental_uris":{"android":"levelo://app?vid=f7f45999-b135-4f47-bda3-1f1e9b994c9d","ios":"levelo://app?vid=f7f45999-b135-4f47-bda3-1f1e9b994c9d"},"vehicle_type_id":"4","last_reported":1768976506,"current_range_meters":7200,"station_id":"ce4bh0p2rcd13ifvqd70","pricing_plan_id":"cebpf4jnsgd1na2vs0mg"},{"bike_id":"56496f15-285b-4dff-92b3-54ffdff3e399","system_id":"levelo_inurba_marseille","lat":43.2683,"lon":5.39612,"is_reserved":false,"is_disabled":false,"rental_uris":{"android":"levelo://app?vid=56496f15-285b-4dff-92b3-54ffdff3e399","ios":"levelo://app?vid=56496f15-285b-4dff-92b3-54ffdff3e399"},"vehicle_type_id":"4","last_reported":1768976506,"current_range_meters":7200,"station_id":"","pricing_plan_id":"cebpf4jnsgd1na2vs0mg"},{"bike_id":"4eba8ab0-a760-4c8f-be2e-adcd88a4d0b1","system_id":"levelo_inurba_marseille","lat":43.26486,"lon":5.39525,"is_reserved":false,"is_disabled":false,"rental_uris":{"android":"levelo://app?vid=4eba8ab0-a760-4c8f-be2e-adcd88a4d0b1","ios":"levelo://app?vid=4eba8ab0-a760-4c8f-be2e-adcd88a4d0b1"},"vehicle_type_id":"4","last_reported":1768976506,"current_range_meters":7200,"station_id":"ce4bhi12rcd13ifvqfq0","pricing_plan_id":"cebpf4jnsgd1na2vs0mg"},{"bike_id":"eca6ff27-9de1-4b33-8808-d05f55f40e0d","system_id":"levelo_inurba_marseille","lat":43.301263,"lon":5.398821,"is_reserved":false,"is_disabled":true,"rental_uris":{"android":"levelo://app?vid=eca6ff27-9de1-4b33-8808-d05f55f40e0d","ios":"levelo://app?vid=eca6ff27-9de1-4b33-8808-d05f55f40e0d"},"vehicle_type_id":"4","last_reported":1768976506,"current_range_meters":7200,"station_id":"ce4bh0h2rcd13ifvqd40","pricing_plan_id":"cebpf4jnsgd1na2vs0mg"},{"bike_id":"ce5afbc0-90e5-431d-902b-5545f55fafe6","system_id":"levelo_inurba_marseille","lat":43.27061,"lon":5.42273,"is_reserved":false,"is_disabled":false,"rental_uris":{"android":"levelo://app?vid=ce5afbc0-90e5-431d-902b-5545f55fafe6","ios":"levelo://app?vid=ce5afbc0-90e5-431d-902b-5545f55fafe6"},"vehicle_type_id":"4","last_reported":1768976506,"current_range_meters":7200,"station_id":"ce4bhk92rcd13ifvqgb0","pricing_plan_id":"cebpf4jnsgd1na2vs0mg"},{"bike_id":"99de495f-b0b4-4b6d-ab33-af826470a1ce","system_id":"levelo_inurba_marseille","lat":43.294941,"lon":5.433106,"is_reserved":false,"is_disabled":false,"rental_uris":{"android":"levelo://app?vid=99de495f-b0b4-4b6d-ab33-af826470a1ce","ios":"levelo://app?vid=99de495f-b0b4-4b6d-ab33-af826470a1ce"},"vehicle_type_id":"4","last_reported":1768976506,"current_range_meters":7200,"station_id":"st_d3j5ugp08ojc73fj9d10","pricing_plan_id":"cebpf4jnsgd1na2vs0mg"},{"bike_id":"2a0e06da-aed5-4c51-8d59-4bb29bc21a3f","system_id":"levelo_inurba_marseille","lat":43.26568,"lon":5.37289,"is_reserved":false,"is_disabled":false,"rental_uris":{"android":"levelo://app?vid=2a0e06da-aed5-4c51-8d59-4bb29bc21a3f","ios":"levelo://app?vid=2a0e06da-aed5-4c51-8d59-4bb29bc21a3f"},"vehicle_type_id":"4","last_reported":1768976506,"current_range_meters":7200,"station_id":"ce4bhg12rcd13ifvqf70","pricing_plan_id":"cebpf4jnsgd1na2vs0mg"},{"bike_id":"bc53fded-5652-4ab5-920f-ec142a69c388","system_id":"levelo_inurba_marseille","lat":43.29803,"lon":5.39327,"is_reserved":false,"is_disabled":true,"rental_uris":{"android":"levelo://app?vid=bc53fded-5652-4ab5-920f-ec142a69c388","ios":"levelo://app?vid=bc53fded-5652-4ab5-920f-ec142a69c388"},"vehicle_type_id":"4","last_reported":1768976506,"current_range_meters":7200,"station_id":"chh1huq6cuj3fo74tm60","pricing_plan_id":"cebpf4jnsgd1na2vs0mg"},{"bike_id":"37bf797b-18ef-4836-9cb3-d3ead8cb520d","system_id":"levelo_inurba_marseille","lat":43.29965,"lon":5.38468,"is_reserved":false,"is_disabled":true,"rental_uris":{"android":"levelo://app?vid=37bf797b-18ef-4836-9cb3-d3ead8cb520d","ios":"levelo://app?vid=37bf797b-18ef-4836-9cb3-d3ead8cb520d"},"vehicle_type_id":"4","last_reported":1768976506,"current_range_meters":7200,"station_id":"ce4bgj92rcd13ifvqbd0","pricing_plan_id":"cebpf4jnsgd1na2vs0mg"},{"bike_id":"e71d7be0-4c20-4596-8edf-a9c20c73c110","system_id":"levelo_inurba_marseille","lat":43.28006,"lon":5.41654,"is_reserved":false,"is_disabled":false,"rental_uris":{"android":"levelo://app?vid=e71d7be0-4c20-4596-8edf-a9c20c73c110","ios":"levelo://app?vid=e71d7be0-4c20-4596-8edf-a9c20c73c110"},"vehicle_type_id":"4","last_reported":1768976506,"current_range_meters":7200,"station_id":"ce4bho12rcd13ifvqh1g","pricing_plan_id":"cebpf4jnsgd1na2vs0mg"},{"bike_id":"1e9683fd-3419-4707-ab97-e3b80d5f4bea","system_id":"levelo_inurba_marseille","lat":43.27158,"lon":5.40458,"is_reserved":false,"is_disabled":false,"rental_uris":{"android":"levelo://app?vid=1e9683fd-3419-4707-ab97-e3b80d5f4bea","ios":"levelo://app?vid=1e9683fd-3419-4707-ab97-e3b80d5f4bea"},"vehicle_type_id":"4","last_reported":1768976506,"current_range_meters":7200,"station_id":"","pricing_plan_id":"cebpf4jnsgd1na2vs0mg"},{"bike_id":"6ddfcf31-9a67-4f77-81d3-425d52175ee2","system_id":"levelo_inurba_marseille","lat":43.23183,"lon":5.39987,"is_reserved":false,"is_disabled":false,"rental_uris":{"android":"levelo://app?vid=6ddfcf31-9a67-4f77-81d3-425d52175ee2","ios":"levelo://app?vid=6ddfcf31-9a67-4f77-81d3-425d52175ee2"},"vehicle_type_id":"4","last_reported":1768976506,"current_range_meters":7200,"station_id":"ce4bhn12rcd13ifvqgqg","pricing_plan_id":"cebpf4jnsgd1na2vs0mg"},{"bike_id":"f6588e0a-1212-4ee4-af80-9b48ab226ff3","system_id":"levelo_inurba_marseille","lat":43.29968,"lon":5.37166,"is_reserved":false,"is_disabled":false,"rental_uris":{"android":"levelo://app?vid=f6588e0a-1212-4ee4-af80-9b48ab226ff3","ios":"levelo://app?vid=f6588e0a-1212-4ee4-af80-9b48ab226ff3"},"vehicle_type_id":"4","last_reported":1768976506,"current_range_meters":7200,"station_id":"ce4bgr92rcd13ifvqc7g","pricing_plan_id":"cebpf4jnsgd1na2vs0mg"},{"bike_id":"e47dfb0a-fd42-4915-8bd4-c942b77cb4c9","system_id":"levelo_inurba_marseille","lat":43.25581,"lon":5.38234,"is_reserved":false,"is_disabled":false,"rental_uris":{"android":"levelo://app?vid=e47dfb0a-fd42-4915-8bd4-c942b77cb4c9","ios":"levelo://app?vid=e47dfb0a-fd42-4915-8bd4-c942b77cb4c9"},"vehicle_type_id":"4","last_reported":1768976506,"current_range_meters":7200,"station_id":"ce4bhih2rcd13ifvqfs0","pricing_plan_id":"cebpf4jnsgd1na2vs0mg"},{"bike_id":"29bfec45-ad76-429c-882a-34b6f5ca4191","system_id":"levelo_inurba_marseille","lat":43.321,"lon":5.36785,"is_reserved":false,"is_disabled":false,"rental_uris":{"android":"levelo://app?vid=29bfec45-ad76-429c-882a-34b6f5ca4191","ios":"levelo://app?vid=29bfec45-ad76-429c-882a-34b6f5ca4191"},"vehicle_type_id":"4","last_reported":1768976506,"current_range_meters":7200,"station_id":"ce4bhrh2rcd13ifvqhug","pricing_plan_id":"cebpf4jnsgd1na2vs0mg"},{"bike_id":"dcf56fbf-a103-41d6-b1e6-335f4305470d","system_id":"levelo_inurba_marseille","lat":43.27919,"lon":5.39568,"is_reserved":false,"is_disabled":false,"rental_uris":{"android":"levelo://app?vid=dcf56fbf-a103-41d6-b1e6-335f4305470d","ios":"levelo://app?vid=dcf56fbf-a103-41d6-b1e6-335f4305470d"},"vehicle_type_id":"4","last_reported":1768976506,"current_range_meters":7200,"station_id":"ce4bhf92rcd13ifvqf40","pricing_plan_id":"cebpf4jnsgd1na2vs0mg"},{"bike_id":"9267c7ed-09d1-4acc-9b62-25216ba3e722","system_id":"levelo_inurba_marseille","lat":43.28618,"lon":5.35101,"is_reserved":false,"is_disabled":false,"rental_uris":{"android":"levelo://app?vid=9267c7ed-09d1-4acc-9b62-25216ba3e722","ios":"levelo://app?vid=9267c7ed-09d1-4acc-9b62-25216ba3e722"},"vehicle_type_id":"4","last_reported":1768976506,"current_range_meters":7200,"station_id":"ce4bhch2rcd13ifvqeug","pricing_plan_id":"cebpf4jnsgd1na2vs0mg"},{"bike_id":"bb089a45-87ce-429d-a496-bd27d120330e","system_id":"levelo_inurba_marseille","lat":43.31755,"lon":5.39012,"is_reserved":false,"is_disabled":false,"rental_uris":{"android":"levelo://app?vid=bb089a45-87ce-429d-a496-bd27d120330e","ios":"levelo://app?vid=bb089a45-87ce-429d-a496-bd27d120330e"},"vehicle_type_id":"4","last_reported":1768976506,"current_range_meters":8000,"station_id":"ce4bhqp2rcd13ifvqhng","pricing_plan_id":"cebpf4jnsgd1na2vs0mg"},{"bike_id":"f73788f7-dec5-4308-a431-6e346b811946","system_id":"levelo_inurba_marseille","lat":43.30182,"lon":5.38064,"is_reserved":false,"is_disabled":false,"rental_uris":{"android":"levelo://app?vid=f73788f7-dec5-4308-a431-6e346b811946","ios":"levelo://app?vid=f73788f7-dec5-4308-a431-6e346b811946"},"vehicle_type_id":"4","last_reported":1768976506,"current_range_meters":8000,"station_id":"ce4bgjp2rcd13ifvqbh0","pricing_plan_id":"cebpf4jnsgd1na2vs0mg"},{"bike_id":"99d65f09-c0e6-4f0f-b72f-6e110c0f1bd4","system_id":"levelo_inurba_marseille","lat":43.28965,"lon":5.37593,"is_reserved":false,"is_disabled":false,"rental_uris":{"android":"levelo://app?vid=99d65f09-c0e6-4f0f-b72f-6e110c0f1bd4","ios":"levelo://app?vid=99d65f09-c0e6-4f0f-b72f-6e110c0f1bd4"},"vehicle_type_id":"4","last_reported":1768976506,"current_range_meters":8000,"station_id":"","pricing_plan_id":"cebpf4jnsgd1na2vs0mg"},{"bike_id":"5f477738-733e-4c98-961a-33429c5938fd","system_id":"levelo_inurba_marseille","lat":43.260586,"lon":5.393984,"is_reserved":false,"is_disabled":false,"rental_uris":{"android":"levelo://app?vid=5f477738-733e-4c98-961a-33429c5938fd","ios":"levelo://app?vid=5f477738-733e-4c98-961a-33429c5938fd"},"vehicle_type_id":"4","last_reported":1768976506,"current_range_meters":8000,"station_id":"ce4bhh92rcd13ifvqfj0","pricing_plan_id":"cebpf4jnsgd1na2vs0mg"},{"bike_id":"4f64c259-7ce5-4526-aee3-891cc5b8f8d0","system_id":"levelo_inurba_marseille","lat":43.26932,"lon":5.40247,"is_reserved":false,"is_disabled":false,"rental_uris":{"android":"levelo://app?vid=4f64c259-7ce5-4526-aee3-891cc5b8f8d0","ios":"levelo://app?vid=4f64c259-7ce5-4526-aee3-891cc5b8f8d0"},"vehicle_type_id":"4","last_reported":1768976506,"current_range_meters":8000,"station_id":"cjm6bp8fraef2m0cb0m0","pricing_plan_id":"cebpf4jnsgd1na2vs0mg"},{"bike_id":"9fe9b7fa-bf5e-456b-b148-d56a572e2392","system_id":"levelo_inurba_marseille","lat":43.22559,"lon":5.41631,"is_reserved":false,"is_disabled":false,"rental_uris":{"android":"levelo://app?vid=9fe9b7fa-bf5e-456b-b148-d56a572e2392","ios":"levelo://app?vid=9fe9b7fa-bf5e-456b-b148-d56a572e2392"},"vehicle_type_id":"4","last_reported":1768976506,"current_range_meters":8000,"station_id":"st_d2o4gvlbi1j2169b742g","pricing_plan_id":"cebpf4jnsgd1na2vs0mg"},{"bike_id":"2a9f2cf4-4e16-4b41-870a-2415d738b9bd","system_id":"levelo_inurba_marseille","lat":43.296007,"lon":5.381074,"is_reserved":false,"is_disabled":false,"rental_uris":{"android":"levelo://app?vid=2a9f2cf4-4e16-4b41-870a-2415d738b9bd","ios":"levelo://app?vid=2a9f2cf4-4e16-4b41-870a-2415d738b9bd"},"vehicle_type_id":"4","last_reported":1768976506,"current_range_meters":8000,"station_id":"ce4bgl12rcd13ifvqbo0","pricing_plan_id":"cebpf4jnsgd1na2vs0mg"},{"bike_id":"00729f81-defe-4949-ab38-da427b717ebf","system_id":"levelo_inurba_marseille","lat":43.26217,"lon":5.40453,"is_reserved":false,"is_disabled":false,"rental_uris":{"android":"levelo://app?vid=00729f81-defe-4949-ab38-da427b717ebf","ios":"levelo://app?vid=00729f81-defe-4949-ab38-da427b717ebf"},"vehicle_type_id":"4","last_reported":1768976506,"current_range_meters":8000,"station_id":"ce4bhmh2rcd13ifvqgmg","pricing_plan_id":"cebpf4jnsgd1na2vs0mg"},{"bike_id":"8069f374-6bb2-4df8-950d-be2e50fcd180","system_id":"levelo_inurba_marseille","lat":43.3113,"lon":5.37765,"is_reserved":false,"is_disabled":false,"rental_uris":{"android":"levelo://app?vid=8069f374-6bb2-4df8-950d-be2e50fcd180","ios":"levelo://app?vid=8069f374-6bb2-4df8-950d-be2e50fcd180"},"vehicle_type_id":"4","last_reported":1768976506,"current_range_meters":8000,"station_id":"ce4bgt92rcd13ifvqcg0","pricing_plan_id":"cebpf4jnsgd1na2vs0mg"},{"bike_id":"a7572f73-98f2-44ea-a6f5-f75305cef497","system_id":"levelo_inurba_marseille","lat":43.284598,"lon":5.35873,"is_reserved":false,"is_disabled":false,"rental_uris":{"android":"levelo://app?vid=a7572f73-98f2-44ea-a6f5-f75305cef497","ios":"levelo://app?vid=a7572f73-98f2-44ea-a6f5-f75305cef497"},"vehicle_type_id":"4","last_reported":1768976506,"current_range_meters":8000,"station_id":"ce4bhah2rcd13ifvqei0","pricing_plan_id":"cebpf4jnsgd1na2vs0mg"},{"bike_id":"293a8ab8-0dba-446e-af47-f5b5e7341861","system_id":"levelo_inurba_marseille","lat":43.31525,"lon":5.38012,"is_reserved":false,"is_disabled":false,"rental_uris":{"android":"levelo://app?vid=293a8ab8-0dba-446e-af47-f5b5e7341861","ios":"levelo://app?vid=293a8ab8-0dba-446e-af47-f5b5e7341861"},"vehicle_type_id":"4","last_reported":1768976506,"current_range_meters":8000,"station_id":"ce4bhsp2rcd13ifvqi50","pricing_plan_id":"cebpf4jnsgd1na2vs0mg"},{"bike_id":"d13d58e1-80ad-408a-9ae2-c592962896d3","system_id":"levelo_inurba_marseille","lat":43.29514,"lon":5.39411,"is_reserved":false,"is_disabled":false,"rental_uris":{"android":"levelo://app?vid=d13d58e1-80ad-408a-9ae2-c592962896d3","ios":"levelo://app?vid=d13d58e1-80ad-408a-9ae2-c592962896d3"},"vehicle_type_id":"4","last_reported":1768976506,"current_range_meters":8000,"station_id":"ce4bh292rcd13ifvqdf0","pricing_plan_id":"cebpf4jnsgd1na2vs0mg"},{"bike_id":"6b346bde-0fa8-4da9-bd8d-1fc7ba0ea935","system_id":"levelo_inurba_marseille","lat":43.23956,"lon":5.36646,"is_reserved":false,"is_disabled":false,"rental_uris":{"android":"levelo://app?vid=6b346bde-0fa8-4da9-bd8d-1fc7ba0ea935","ios":"levelo://app?vid=6b346bde-0fa8-4da9-bd8d-1fc7ba0ea935"},"vehicle_type_id":"4","last_reported":1768976506,"current_range_meters":8000,"station_id":"ce4bhi12rcd13ifvqfp0","pricing_plan_id":"cebpf4jnsgd1na2vs0mg"},{"bike_id":"5bdad711-817a-42cc-84b1-10d4beae812a","system_id":"levelo_inurba_marseille","lat":43.225584,"lon":5.416254,"is_reserved":false,"is_disabled":false,"rental_uris":{"android":"levelo://app?vid=5bdad711-817a-42cc-84b1-10d4beae812a","ios":"levelo://app?vid=5bdad711-817a-42cc-84b1-10d4beae812a"},"vehicle_type_id":"4","last_reported":1768976506,"current_range_meters":8000,"station_id":"st_d2o4gvlbi1j2169b742g","pricing_plan_id":"cebpf4jnsgd1na2vs0mg"},{"bike_id":"8c9d9dd5-6ae3-4a8b-ab79-ea51ac5d3931","system_id":"levelo_inurba_marseille","lat":43.28012,"lon":5.41661,"is_reserved":false,"is_disabled":true,"rental_uris":{"android":"levelo://app?vid=8c9d9dd5-6ae3-4a8b-ab79-ea51ac5d3931","ios":"levelo://app?vid=8c9d9dd5-6ae3-4a8b-ab79-ea51ac5d3931"},"vehicle_type_id":"4","last_reported":1768976506,"current_range_meters":8000,"station_id":"ce4bho12rcd13ifvqh1g","pricing_plan_id":"cebpf4jnsgd1na2vs0mg"},{"bike_id":"2e67810b-4f4a-431b-b148-ec05c2d01539","system_id":"levelo_inurba_marseille","lat":43.28149,"lon":5.42647,"is_reserved":false,"is_disabled":false,"rental_uris":{"android":"levelo://app?vid=2e67810b-4f4a-431b-b148-ec05c2d01539","ios":"levelo://app?vid=2e67810b-4f4a-431b-b148-ec05c2d01539"},"vehicle_type_id":"4","last_reported":1768976506,"current_range_meters":8000,"station_id":"ce4bhnh2rcd13ifvqgug","pricing_plan_id":"cebpf4jnsgd1na2vs0mg"},{"bike_id":"b2b1dff7-f6c8-4dbd-b544-d71f01a6a04b","system_id":"levelo_inurba_marseille","lat":43.279917,"lon":5.400148,"is_reserved":false,"is_disabled":false,"rental_uris":{"android":"levelo://app?vid=b2b1dff7-f6c8-4dbd-b544-d71f01a6a04b","ios":"levelo://app?vid=b2b1dff7-f6c8-4dbd-b544-d71f01a6a04b"},"vehicle_type_id":"4","last_reported":1768976506,"current_range_meters":8000,"station_id":"ce4bho92rcd13ifvqh4g","pricing_plan_id":"cebpf4jnsgd1na2vs0mg"},{"bike_id":"99930023-4f93-4749-9faf-99c0761e2fac","system_id":"levelo_inurba_marseille","lat":43.27812,"lon":5.40715,"is_reserved":false,"is_disabled":false,"rental_uris":{"android":"levelo://app?vid=99930023-4f93-4749-9faf-99c0761e2fac","ios":"levelo://app?vid=99930023-4f93-4749-9faf-99c0761e2fac"},"vehicle_type_id":"4","last_reported":1768976506,"current_range_meters":8000,"station_id":"ce4bhnh2rcd13ifvqgtg","pricing_plan_id":"cebpf4jnsgd1na2vs0mg"},{"bike_id":"8e9ce907-79de-4b26-8e03-4caeb4a344bb","system_id":"levelo_inurba_marseille","lat":43.27992,"lon":5.40018,"is_reserved":false,"is_disabled":false,"rental_uris":{"android":"levelo://app?vid=8e9ce907-79de-4b26-8e03-4caeb4a344bb","ios":"levelo://app?vid=8e9ce907-79de-4b26-8e03-4caeb4a344bb"},"vehicle_type_id":"4","last_reported":1768976506,"current_range_meters":8000,"station_id":"ce4bho92rcd13ifvqh4g","pricing_plan_id":"cebpf4jnsgd1na2vs0mg"},{"bike_id":"31c21be6-18ca-494d-8d01-2f205767068d","system_id":"levelo_inurba_marseille","lat":43.31855,"lon":5.3743,"is_reserved":false,"is_disabled":false,"rental_uris":{"android":"levelo://app?vid=31c21be6-18ca-494d-8d01-2f205767068d","ios":"levelo://app?vid=31c21be6-18ca-494d-8d01-2f205767068d"},"vehicle_type_id":"4","last_reported":1768976506,"current_range_meters":8000,"station_id":"","pricing_plan_id":"cebpf4jnsgd1na2vs0mg"},{"bike_id":"2c0995a4-2dde-4941-9bf7-449a4c636ac0","system_id":"levelo_inurba_marseille","lat":43.24403,"lon":5.37061,"is_reserved":false,"is_disabled":false,"rental_uris":{"android":"levelo://app?vid=2c0995a4-2dde-4941-9bf7-449a4c636ac0","ios":"levelo://app?vid=2c0995a4-2dde-4941-9bf7-449a4c636ac0"},"vehicle_type_id":"4","last_reported":1768976506,"current_range_meters":8000,"station_id":"ce4bhhh2rcd13ifvqfk0","pricing_plan_id":"cebpf4jnsgd1na2vs0mg"},{"bike_id":"5b876969-e50f-4512-b0eb-c419fb00cef5","system_id":"levelo_inurba_marseille","lat":43.27836,"lon":5.39189,"is_reserved":false,"is_disabled":false,"rental_uris":{"android":"levelo://app?vid=5b876969-e50f-4512-b0eb-c419fb00cef5","ios":"levelo://app?vid=5b876969-e50f-4512-b0eb-c419fb00cef5"},"vehicle_type_id":"4","last_reported":1768976506,"current_range_meters":8000,"station_id":"ce4bhjp2rcd13ifvqga0","pricing_plan_id":"cebpf4jnsgd1na2vs0mg"},{"bike_id":"2da7b981-9d30-4f15-935f-916de5e14950","system_id":"levelo_inurba_marseille","lat":43.21762,"lon":5.34585,"is_reserved":false,"is_disabled":false,"rental_uris":{"android":"levelo://app?vid=2da7b981-9d30-4f15-935f-916de5e14950","ios":"levelo://app?vid=2da7b981-9d30-4f15-935f-916de5e14950"},"vehicle_type_id":"4","last_reported":1768976506,"current_range_meters":8000,"station_id":"st_cvj6r9ubvosntc0bgbag","pricing_plan_id":"cebpf4jnsgd1na2vs0mg"},{"bike_id":"e2c28729-8d62-45b4-8926-9ab1e71d898f","system_id":"levelo_inurba_marseille","lat":43.29803,"lon":5.36612,"is_reserved":false,"is_disabled":false,"rental_uris":{"android":"levelo://app?vid=e2c28729-8d62-45b4-8926-9ab1e71d898f","ios":"levelo://app?vid=e2c28729-8d62-45b4-8926-9ab1e71d898f"},"vehicle_type_id":"4","last_reported":1768976506,"current_range_meters":8000,"station_id":"","pricing_plan_id":"cebpf4jnsgd1na2vs0mg"},{"bike_id":"416786c9-5441-4ae2-97be-8dd18ff4a833","system_id":"levelo_inurba_marseille","lat":43.26566,"lon":5.40325,"is_reserved":false,"is_disabled":false,"rental_uris":{"android":"levelo://app?vid=416786c9-5441-4ae2-97be-8dd18ff4a833","ios":"levelo://app?vid=416786c9-5441-4ae2-97be-8dd18ff4a833"},"vehicle_type_id":"4","last_reported":1768976506,"current_range_meters":8000,"station_id":"ce4bhmp2rcd13ifvqgng","pricing_plan_id":"cebpf4jnsgd1na2vs0mg"},{"bike_id":"f09c06aa-a05d-4b00-b228-d8bee2b62b4f","system_id":"levelo_inurba_marseille","lat":43.32357,"lon":5.36749,"is_reserved":false,"is_disabled":false,"rental_uris":{"android":"levelo://app?vid=f09c06aa-a05d-4b00-b228-d8bee2b62b4f","ios":"levelo://app?vid=f09c06aa-a05d-4b00-b228-d8bee2b62b4f"},"vehicle_type_id":"4","last_reported":1768976506,"current_range_meters":8400,"station_id":"ce4bhsh2rcd13ifvqi2g","pricing_plan_id":"cebpf4jnsgd1na2vs0mg"},{"bike_id":"b0213a31-2a3d-47f3-9767-7abf5d4ef79f","system_id":"levelo_inurba_marseille","lat":43.29258,"lon":5.36837,"is_reserved":false,"is_disabled":true,"rental_uris":{"android":"levelo://app?vid=b0213a31-2a3d-47f3-9767-7abf5d4ef79f","ios":"levelo://app?vid=b0213a31-2a3d-47f3-9767-7abf5d4ef79f"},"vehicle_type_id":"4","last_reported":1768976506,"current_range_meters":8400,"station_id":"ce4bhbp2rcd13ifvqesg","pricing_plan_id":"cebpf4jnsgd1na2vs0mg"},{"bike_id":"faffa59f-dc3b-4aa4-bbe3-1720e44336e8","system_id":"levelo_inurba_marseille","lat":43.31351,"lon":5.38525,"is_reserved":false,"is_disabled":false,"rental_uris":{"android":"levelo://app?vid=faffa59f-dc3b-4aa4-bbe3-1720e44336e8","ios":"levelo://app?vid=faffa59f-dc3b-4aa4-bbe3-1720e44336e8"},"vehicle_type_id":"4","last_reported":1768976506,"current_range_meters":8400,"station_id":"ce4bgt92rcd13ifvqcf0","pricing_plan_id":"cebpf4jnsgd1na2vs0mg"},{"bike_id":"f3a01c85-86e9-4a7c-837b-602faf4bbfde","system_id":"levelo_inurba_marseille","lat":43.27978,"lon":5.38719,"is_reserved":false,"is_disabled":false,"rental_uris":{"android":"levelo://app?vid=f3a01c85-86e9-4a7c-837b-602faf4bbfde","ios":"levelo://app?vid=f3a01c85-86e9-4a7c-837b-602faf4bbfde"},"vehicle_type_id":"4","last_reported":1768976506,"current_range_meters":8400,"station_id":"ce4bhg12rcd13ifvqf80","pricing_plan_id":"cebpf4jnsgd1na2vs0mg"},{"bike_id":"66954d8d-ab08-46d5-92b9-0a3a4c77b375","system_id":"levelo_inurba_marseille","lat":43.28726,"lon":5.36096,"is_reserved":false,"is_disabled":false,"rental_uris":{"android":"levelo://app?vid=66954d8d-ab08-46d5-92b9-0a3a4c77b375","ios":"levelo://app?vid=66954d8d-ab08-46d5-92b9-0a3a4c77b375"},"vehicle_type_id":"4","last_reported":1768976506,"current_range_meters":8400,"station_id":"cki0cbj6b192h4jlfktg","pricing_plan_id":"cebpf4jnsgd1na2vs0mg"},{"bike_id":"054e163b-1e47-4a0a-a038-a7939885860e","system_id":"levelo_inurba_marseille","lat":43.32357,"lon":5.36748,"is_reserved":false,"is_disabled":false,"rental_uris":{"android":"levelo://app?vid=054e163b-1e47-4a0a-a038-a7939885860e","ios":"levelo://app?vid=054e163b-1e47-4a0a-a038-a7939885860e"},"vehicle_type_id":"4","last_reported":1768976506,"current_range_meters":8400,"station_id":"ce4bhsh2rcd13ifvqi2g","pricing_plan_id":"cebpf4jnsgd1na2vs0mg"},{"bike_id":"d98520b4-91a8-4177-8c18-76a9f2e51189","system_id":"levelo_inurba_marseille","lat":43.30156,"lon":5.38065,"is_reserved":false,"is_disabled":false,"rental_uris":{"android":"levelo://app?vid=d98520b4-91a8-4177-8c18-76a9f2e51189","ios":"levelo://app?vid=d98520b4-91a8-4177-8c18-76a9f2e51189"},"vehicle_type_id":"4","last_reported":1768976506,"current_range_meters":8400,"station_id":"ce4bgjp2rcd13ifvqbh0","pricing_plan_id":"cebpf4jnsgd1na2vs0mg"},{"bike_id":"c1303e8e-1586-4a54-9d04-8ce864580afd","system_id":"levelo_inurba_marseille","lat":43.304144,"lon":5.412945,"is_reserved":false,"is_disabled":false,"rental_uris":{"android":"levelo://app?vid=c1303e8e-1586-4a54-9d04-8ce864580afd","ios":"levelo://app?vid=c1303e8e-1586-4a54-9d04-8ce864580afd"},"vehicle_type_id":"4","last_reported":1768976506,"current_range_meters":8400,"station_id":"ce4bhop2rcd13ifvqh8g","pricing_plan_id":"cebpf4jnsgd1na2vs0mg"},{"bike_id":"83d74db7-e42f-44bf-ac2d-531381e49711","system_id":"levelo_inurba_marseille","lat":43.27913,"lon":5.39586,"is_reserved":false,"is_disabled":false,"rental_uris":{"android":"levelo://app?vid=83d74db7-e42f-44bf-ac2d-531381e49711","ios":"levelo://app?vid=83d74db7-e42f-44bf-ac2d-531381e49711"},"vehicle_type_id":"4","last_reported":1768976506,"current_range_meters":8400,"station_id":"ce4bhf92rcd13ifvqf40","pricing_plan_id":"cebpf4jnsgd1na2vs0mg"},{"bike_id":"7fb60ffe-6256-45db-9ac1-b3f50b4b0668","system_id":"levelo_inurba_marseille","lat":43.25335,"lon":5.4216,"is_reserved":false,"is_disabled":false,"rental_uris":{"android":"levelo://app?vid=7fb60ffe-6256-45db-9ac1-b3f50b4b0668","ios":"levelo://app?vid=7fb60ffe-6256-45db-9ac1-b3f50b4b0668"},"vehicle_type_id":"4","last_reported":1768976506,"current_range_meters":8400,"station_id":"st_d2m65c5bi1j21697t3ng","pricing_plan_id":"cebpf4jnsgd1na2vs0mg"},{"bike_id":"5e4f73e3-15b5-4161-b411-195292d3e766","system_id":"levelo_inurba_marseille","lat":43.2446,"lon":5.42532,"is_reserved":false,"is_disabled":false,"rental_uris":{"android":"levelo://app?vid=5e4f73e3-15b5-4161-b411-195292d3e766","ios":"levelo://app?vid=5e4f73e3-15b5-4161-b411-195292d3e766"},"vehicle_type_id":"4","last_reported":1768976506,"current_range_meters":8400,"station_id":"st_d4a3vfp97mjs738cd8kg","pricing_plan_id":"cebpf4jnsgd1na2vs0mg"},{"bike_id":"4f4ed773-2cf0-4a1e-88c1-db1d7cfd52cc","system_id":"levelo_inurba_marseille","lat":43.28936,"lon":5.3662,"is_reserved":false,"is_disabled":true,"rental_uris":{"android":"levelo://app?vid=4f4ed773-2cf0-4a1e-88c1-db1d7cfd52cc","ios":"levelo://app?vid=4f4ed773-2cf0-4a1e-88c1-db1d7cfd52cc"},"vehicle_type_id":"4","last_reported":1768976506,"current_range_meters":8400,"station_id":"ce4bhap2rcd13ifvqek0","pricing_plan_id":"cebpf4jnsgd1na2vs0mg"},{"bike_id":"0913762c-fec5-4f8b-8c0d-1734afbaee4a","system_id":"levelo_inurba_marseille","lat":43.249582,"lon":5.404892,"is_reserved":false,"is_disabled":false,"rental_uris":{"android":"levelo://app?vid=0913762c-fec5-4f8b-8c0d-1734afbaee4a","ios":"levelo://app?vid=0913762c-fec5-4f8b-8c0d-1734afbaee4a"},"vehicle_type_id":"4","last_reported":1768976506,"current_range_meters":8400,"station_id":"st_d2ngiaodas8pm72gd1h0","pricing_plan_id":"cebpf4jnsgd1na2vs0mg"},{"bike_id":"4b5366c0-edda-495f-a6a3-cd14b6720761","system_id":"levelo_inurba_marseille","lat":43.3199,"lon":5.38144,"is_reserved":false,"is_disabled":false,"rental_uris":{"android":"levelo://app?vid=4b5366c0-edda-495f-a6a3-cd14b6720761","ios":"levelo://app?vid=4b5366c0-edda-495f-a6a3-cd14b6720761"},"vehicle_type_id":"4","last_reported":1768976506,"current_range_meters":8400,"station_id":"ce4bhr12rcd13ifvqhpg","pricing_plan_id":"cebpf4jnsgd1na2vs0mg"},{"bike_id":"0765e2ef-f3ae-42c4-afc5-bfd5dc135d08","system_id":"levelo_inurba_marseille","lat":43.32735,"lon":5.43619,"is_reserved":false,"is_disabled":false,"rental_uris":{"android":"levelo://app?vid=0765e2ef-f3ae-42c4-afc5-bfd5dc135d08","ios":"levelo://app?vid=0765e2ef-f3ae-42c4-afc5-bfd5dc135d08"},"vehicle_type_id":"4","last_reported":1768976506,"current_range_meters":8400,"station_id":"","pricing_plan_id":"cebpf4jnsgd1na2vs0mg"},{"bike_id":"c055199c-bd62-490e-8577-d64c0f179897","system_id":"levelo_inurba_marseille","lat":43.28536,"lon":5.44104,"is_reserved":false,"is_disabled":false,"rental_uris":{"android":"levelo://app?vid=c055199c-bd62-490e-8577-d64c0f179897","ios":"levelo://app?vid=c055199c-bd62-490e-8577-d64c0f179897"},"vehicle_type_id":"4","last_reported":1768976506,"current_range_meters":8400,"station_id":"st_d3j3df2ikq2c7380ej80","pricing_plan_id":"cebpf4jnsgd1na2vs0mg"},{"bike_id":"a57784bc-f5d9-4a04-91a0-a0ce88abf185","system_id":"levelo_inurba_marseille","lat":43.2439,"lon":5.37049,"is_reserved":false,"is_disabled":false,"rental_uris":{"android":"levelo://app?vid=a57784bc-f5d9-4a04-91a0-a0ce88abf185","ios":"levelo://app?vid=a57784bc-f5d9-4a04-91a0-a0ce88abf185"},"vehicle_type_id":"4","last_reported":1768976506,"current_range_meters":8800,"station_id":"ce4bhhh2rcd13ifvqfk0","pricing_plan_id":"cebpf4jnsgd1na2vs0mg"},{"bike_id":"bbdf18db-231e-4ed5-8700-c5b9cb7287e0","system_id":"levelo_inurba_marseille","lat":43.24804,"lon":5.37416,"is_reserved":false,"is_disabled":false,"rental_uris":{"android":"levelo://app?vid=bbdf18db-231e-4ed5-8700-c5b9cb7287e0","ios":"levelo://app?vid=bbdf18db-231e-4ed5-8700-c5b9cb7287e0"},"vehicle_type_id":"4","last_reported":1768976506,"current_range_meters":8800,"station_id":"ce4bhgh2rcd13ifvqfb0","pricing_plan_id":"cebpf4jnsgd1na2vs0mg"},{"bike_id":"aa66704a-3924-40db-8e4b-4b68dbcdabea","system_id":"levelo_inurba_marseille","lat":43.2495,"lon":5.40492,"is_reserved":false,"is_disabled":false,"rental_uris":{"android":"levelo://app?vid=aa66704a-3924-40db-8e4b-4b68dbcdabea","ios":"levelo://app?vid=aa66704a-3924-40db-8e4b-4b68dbcdabea"},"vehicle_type_id":"4","last_reported":1768976506,"current_range_meters":8800,"station_id":"st_d2ngiaodas8pm72gd1h0","pricing_plan_id":"cebpf4jnsgd1na2vs0mg"},{"bike_id":"5ff33327-f48a-4fb3-9190-f9bf86d3d88c","system_id":"levelo_inurba_marseille","lat":43.31167,"lon":5.38708,"is_reserved":false,"is_disabled":false,"rental_uris":{"android":"levelo://app?vid=5ff33327-f48a-4fb3-9190-f9bf86d3d88c","ios":"levelo://app?vid=5ff33327-f48a-4fb3-9190-f9bf86d3d88c"},"vehicle_type_id":"4","last_reported":1768976506,"current_range_meters":8800,"station_id":"ce4bgv12rcd13ifvqcp0","pricing_plan_id":"cebpf4jnsgd1na2vs0mg"},{"bike_id":"ca1f68a2-e356-46d7-8d5f-503710c9279d","system_id":"levelo_inurba_marseille","lat":43.25584,"lon":5.38226,"is_reserved":false,"is_disabled":false,"rental_uris":{"android":"levelo://app?vid=ca1f68a2-e356-46d7-8d5f-503710c9279d","ios":"levelo://app?vid=ca1f68a2-e356-46d7-8d5f-503710c9279d"},"vehicle_type_id":"4","last_reported":1768976506,"current_range_meters":8800,"station_id":"ce4bhih2rcd13ifvqfs0","pricing_plan_id":"cebpf4jnsgd1na2vs0mg"},{"bike_id":"17504108-cc8f-492b-826e-be9781115c71","system_id":"levelo_inurba_marseille","lat":43.28705,"lon":5.3739,"is_reserved":false,"is_disabled":false,"rental_uris":{"android":"levelo://app?vid=17504108-cc8f-492b-826e-be9781115c71","ios":"levelo://app?vid=17504108-cc8f-492b-826e-be9781115c71"},"vehicle_type_id":"4","last_reported":1768976506,"current_range_meters":8800,"station_id":"ce4bh3p2rcd13ifvqdq0","pricing_plan_id":"cebpf4jnsgd1na2vs0mg"},{"bike_id":"36dcd6ff-661c-42a2-bd35-3d96006951ee","system_id":"levelo_inurba_marseille","lat":43.23197,"lon":5.39955,"is_reserved":false,"is_disabled":false,"rental_uris":{"android":"levelo://app?vid=36dcd6ff-661c-42a2-bd35-3d96006951ee","ios":"levelo://app?vid=36dcd6ff-661c-42a2-bd35-3d96006951ee"},"vehicle_type_id":"4","last_reported":1768976506,"current_range_meters":8800,"station_id":"ce4bhn12rcd13ifvqgqg","pricing_plan_id":"cebpf4jnsgd1na2vs0mg"},{"bike_id":"f45276d1-dc45-4f09-ba0f-5e5da180d44b","system_id":"levelo_inurba_marseille","lat":43.28936,"lon":5.36405,"is_reserved":false,"is_disabled":false,"rental_uris":{"android":"levelo://app?vid=f45276d1-dc45-4f09-ba0f-5e5da180d44b","ios":"levelo://app?vid=f45276d1-dc45-4f09-ba0f-5e5da180d44b"},"vehicle_type_id":"4","last_reported":1768976506,"current_range_meters":8800,"station_id":"ce4bhc92rcd13ifvqetg","pricing_plan_id":"cebpf4jnsgd1na2vs0mg"},{"bike_id":"c7cab28c-c458-40b8-abbf-0494e987f4cf","system_id":"levelo_inurba_marseille","lat":43.27809,"lon":5.40707,"is_reserved":false,"is_disabled":false,"rental_uris":{"android":"levelo://app?vid=c7cab28c-c458-40b8-abbf-0494e987f4cf","ios":"levelo://app?vid=c7cab28c-c458-40b8-abbf-0494e987f4cf"},"vehicle_type_id":"4","last_reported":1768976506,"current_range_meters":8800,"station_id":"ce4bhnh2rcd13ifvqgtg","pricing_plan_id":"cebpf4jnsgd1na2vs0mg"},{"bike_id":"f27dbe83-d895-40df-8abf-0e81ee558120","system_id":"levelo_inurba_marseille","lat":43.30727,"lon":5.42442,"is_reserved":false,"is_disabled":false,"rental_uris":{"android":"levelo://app?vid=f27dbe83-d895-40df-8abf-0e81ee558120","ios":"levelo://app?vid=f27dbe83-d895-40df-8abf-0e81ee558120"},"vehicle_type_id":"4","last_reported":1768976506,"current_range_meters":8800,"station_id":"st_cvj6ca6bvosntc0bfgr0","pricing_plan_id":"cebpf4jnsgd1na2vs0mg"},{"bike_id":"ec532f83-dab6-476b-a64d-284457f8dfd1","system_id":"levelo_inurba_marseille","lat":43.30732,"lon":5.42451,"is_reserved":false,"is_disabled":false,"rental_uris":{"android":"levelo://app?vid=ec532f83-dab6-476b-a64d-284457f8dfd1","ios":"levelo://app?vid=ec532f83-dab6-476b-a64d-284457f8dfd1"},"vehicle_type_id":"4","last_reported":1768976506,"current_range_meters":8800,"station_id":"st_cvj6ca6bvosntc0bfgr0","pricing_plan_id":"cebpf4jnsgd1na2vs0mg"},{"bike_id":"fc4a8836-7e6e-43e7-a51a-c242ca0e9918","system_id":"levelo_inurba_marseille","lat":43.3118,"lon":5.38672,"is_reserved":false,"is_disabled":false,"rental_uris":{"android":"levelo://app?vid=fc4a8836-7e6e-43e7-a51a-c242ca0e9918","ios":"levelo://app?vid=fc4a8836-7e6e-43e7-a51a-c242ca0e9918"},"vehicle_type_id":"4","last_reported":1768976506,"current_range_meters":8800,"station_id":"ce4bgv12rcd13ifvqcp0","pricing_plan_id":"cebpf4jnsgd1na2vs0mg"},{"bike_id":"bc6ef5b7-7872-4e96-b44b-5c2e054f608e","system_id":"levelo_inurba_marseille","lat":43.31057,"lon":5.37158,"is_reserved":false,"is_disabled":false,"rental_uris":{"android":"levelo://app?vid=bc6ef5b7-7872-4e96-b44b-5c2e054f608e","ios":"levelo://app?vid=bc6ef5b7-7872-4e96-b44b-5c2e054f608e"},"vehicle_type_id":"4","last_reported":1768976506,"current_range_meters":8800,"station_id":"st_d4kl2rp97mjs73e7tdfg","pricing_plan_id":"cebpf4jnsgd1na2vs0mg"},{"bike_id":"87376c51-7b52-4611-acd2-49441baafe3f","system_id":"levelo_inurba_marseille","lat":43.24614,"lon":5.40218,"is_reserved":false,"is_disabled":false,"rental_uris":{"android":"levelo://app?vid=87376c51-7b52-4611-acd2-49441baafe3f","ios":"levelo://app?vid=87376c51-7b52-4611-acd2-49441baafe3f"},"vehicle_type_id":"4","last_reported":1768976506,"current_range_meters":8800,"station_id":"","pricing_plan_id":"cebpf4jnsgd1na2vs0mg"},{"bike_id":"52091d03-9a2d-4146-a28b-bfef8db666c3","system_id":"levelo_inurba_marseille","lat":43.26568,"lon":5.40334,"is_reserved":false,"is_disabled":false,"rental_uris":{"android":"levelo://app?vid=52091d03-9a2d-4146-a28b-bfef8db666c3","ios":"levelo://app?vid=52091d03-9a2d-4146-a28b-bfef8db666c3"},"vehicle_type_id":"4","last_reported":1768976506,"current_range_meters":8800,"station_id":"ce4bhmp2rcd13ifvqgng","pricing_plan_id":"cebpf4jnsgd1na2vs0mg"},{"bike_id":"e60b80c1-e035-4d06-8dfd-6a5996278e1f","system_id":"levelo_inurba_marseille","lat":43.244732,"lon":5.425382,"is_reserved":false,"is_disabled":false,"rental_uris":{"android":"levelo://app?vid=e60b80c1-e035-4d06-8dfd-6a5996278e1f","ios":"levelo://app?vid=e60b80c1-e035-4d06-8dfd-6a5996278e1f"},"vehicle_type_id":"4","last_reported":1768976506,"current_range_meters":8800,"station_id":"st_d4a3vfp97mjs738cd8kg","pricing_plan_id":"cebpf4jnsgd1na2vs0mg"},{"bike_id":"b65e5898-fb70-46dc-994d-a863c78055ba","system_id":"levelo_inurba_marseille","lat":43.28837,"lon":5.35849,"is_reserved":false,"is_disabled":false,"rental_uris":{"android":"levelo://app?vid=b65e5898-fb70-46dc-994d-a863c78055ba","ios":"levelo://app?vid=b65e5898-fb70-46dc-994d-a863c78055ba"},"vehicle_type_id":"4","last_reported":1768976506,"current_range_meters":8800,"station_id":"ce4bhb12rcd13ifvqem0","pricing_plan_id":"cebpf4jnsgd1na2vs0mg"},{"bike_id":"131d083d-d299-49de-ae79-91ebeb210640","system_id":"levelo_inurba_marseille","lat":43.25705,"lon":5.41773,"is_reserved":false,"is_disabled":false,"rental_uris":{"android":"levelo://app?vid=131d083d-d299-49de-ae79-91ebeb210640","ios":"levelo://app?vid=131d083d-d299-49de-ae79-91ebeb210640"},"vehicle_type_id":"4","last_reported":1768976506,"current_range_meters":8800,"station_id":"","pricing_plan_id":"cebpf4jnsgd1na2vs0mg"},{"bike_id":"b26b1a89-bfd7-4ae9-8891-f8a5f84b50c4","system_id":"levelo_inurba_marseille","lat":43.292686,"lon":5.368411,"is_reserved":false,"is_disabled":false,"rental_uris":{"android":"levelo://app?vid=b26b1a89-bfd7-4ae9-8891-f8a5f84b50c4","ios":"levelo://app?vid=b26b1a89-bfd7-4ae9-8891-f8a5f84b50c4"},"vehicle_type_id":"4","last_reported":1768976506,"current_range_meters":9200,"station_id":"ce4bhbp2rcd13ifvqesg","pricing_plan_id":"cebpf4jnsgd1na2vs0mg"},{"bike_id":"b91f503c-8605-4d6a-a4e9-dcdc7e1616c6","system_id":"levelo_inurba_marseille","lat":43.307834,"lon":5.37652,"is_reserved":false,"is_disabled":false,"rental_uris":{"android":"levelo://app?vid=b91f503c-8605-4d6a-a4e9-dcdc7e1616c6","ios":"levelo://app?vid=b91f503c-8605-4d6a-a4e9-dcdc7e1616c6"},"vehicle_type_id":"4","last_reported":1768976506,"current_range_meters":9200,"station_id":"ce4bgv92rcd13ifvqcq0","pricing_plan_id":"cebpf4jnsgd1na2vs0mg"},{"bike_id":"19c9b524-76f1-4e5d-8be9-000b11a19079","system_id":"levelo_inurba_marseille","lat":43.25001,"lon":5.38924,"is_reserved":false,"is_disabled":false,"rental_uris":{"android":"levelo://app?vid=19c9b524-76f1-4e5d-8be9-000b11a19079","ios":"levelo://app?vid=19c9b524-76f1-4e5d-8be9-000b11a19079"},"vehicle_type_id":"4","last_reported":1768976506,"current_range_meters":9200,"station_id":"ce4bhgp2rcd13ifvqfd0","pricing_plan_id":"cebpf4jnsgd1na2vs0mg"},{"bike_id":"ebc59118-e1a4-482d-84d0-eafb34b0b9ea","system_id":"levelo_inurba_marseille","lat":43.23783,"lon":5.36631,"is_reserved":false,"is_disabled":false,"rental_uris":{"android":"levelo://app?vid=ebc59118-e1a4-482d-84d0-eafb34b0b9ea","ios":"levelo://app?vid=ebc59118-e1a4-482d-84d0-eafb34b0b9ea"},"vehicle_type_id":"4","last_reported":1768976506,"current_range_meters":9200,"station_id":"st_d3nk18o9ro0c73en2l3g","pricing_plan_id":"cebpf4jnsgd1na2vs0mg"},{"bike_id":"afcede41-e8c8-492e-a6e3-4b5afc8eead9","system_id":"levelo_inurba_marseille","lat":43.27824,"lon":5.40696,"is_reserved":false,"is_disabled":false,"rental_uris":{"android":"levelo://app?vid=afcede41-e8c8-492e-a6e3-4b5afc8eead9","ios":"levelo://app?vid=afcede41-e8c8-492e-a6e3-4b5afc8eead9"},"vehicle_type_id":"4","last_reported":1768976506,"current_range_meters":9200,"station_id":"ce4bhnh2rcd13ifvqgtg","pricing_plan_id":"cebpf4jnsgd1na2vs0mg"},{"bike_id":"fe2a828f-710f-491e-b529-f22ca09a8365","system_id":"levelo_inurba_marseille","lat":43.30725,"lon":5.40957,"is_reserved":false,"is_disabled":false,"rental_uris":{"android":"levelo://app?vid=fe2a828f-710f-491e-b529-f22ca09a8365","ios":"levelo://app?vid=fe2a828f-710f-491e-b529-f22ca09a8365"},"vehicle_type_id":"4","last_reported":1768976506,"current_range_meters":9200,"station_id":"","pricing_plan_id":"cebpf4jnsgd1na2vs0mg"},{"bike_id":"f245b279-0874-4580-99fa-dc4431352954","system_id":"levelo_inurba_marseille","lat":43.28709,"lon":5.37945,"is_reserved":false,"is_disabled":true,"rental_uris":{"android":"levelo://app?vid=f245b279-0874-4580-99fa-dc4431352954","ios":"levelo://app?vid=f245b279-0874-4580-99fa-dc4431352954"},"vehicle_type_id":"4","last_reported":1768976506,"current_range_meters":9200,"station_id":"ce4bh9p2rcd13ifvqec0","pricing_plan_id":"cebpf4jnsgd1na2vs0mg"},{"bike_id":"90fd9743-abf7-4844-951b-b0c621e30ae6","system_id":"levelo_inurba_marseille","lat":43.30928,"lon":5.36885,"is_reserved":false,"is_disabled":false,"rental_uris":{"android":"levelo://app?vid=90fd9743-abf7-4844-951b-b0c621e30ae6","ios":"levelo://app?vid=90fd9743-abf7-4844-951b-b0c621e30ae6"},"vehicle_type_id":"4","last_reported":1768976506,"current_range_meters":9200,"station_id":"ce4bgn92rcd13ifvqbvg","pricing_plan_id":"cebpf4jnsgd1na2vs0mg"},{"bike_id":"fd1c73ac-12ba-4a8c-91cc-21e7ccdfc477","system_id":"levelo_inurba_marseille","lat":43.29198,"lon":5.35806,"is_reserved":false,"is_disabled":false,"rental_uris":{"android":"levelo://app?vid=fd1c73ac-12ba-4a8c-91cc-21e7ccdfc477","ios":"levelo://app?vid=fd1c73ac-12ba-4a8c-91cc-21e7ccdfc477"},"vehicle_type_id":"4","last_reported":1768976506,"current_range_meters":9200,"station_id":"ce4bhb12rcd13ifvqel0","pricing_plan_id":"cebpf4jnsgd1na2vs0mg"},{"bike_id":"ed000a20-5fdd-4a1e-860a-e789c3aab9e6","system_id":"levelo_inurba_marseille","lat":43.245481,"lon":5.395194,"is_reserved":false,"is_disabled":false,"rental_uris":{"android":"levelo://app?vid=ed000a20-5fdd-4a1e-860a-e789c3aab9e6","ios":"levelo://app?vid=ed000a20-5fdd-4a1e-860a-e789c3aab9e6"},"vehicle_type_id":"4","last_reported":1768976506,"current_range_meters":9200,"station_id":"ce4bhlp2rcd13ifvqgjg","pricing_plan_id":"cebpf4jnsgd1na2vs0mg"},{"bike_id":"d3a42661-d9b0-4432-8a27-a3866875170d","system_id":"levelo_inurba_marseille","lat":43.27813,"lon":5.4074,"is_reserved":false,"is_disabled":false,"rental_uris":{"android":"levelo://app?vid=d3a42661-d9b0-4432-8a27-a3866875170d","ios":"levelo://app?vid=d3a42661-d9b0-4432-8a27-a3866875170d"},"vehicle_type_id":"4","last_reported":1768976506,"current_range_meters":9200,"station_id":"ce4bhnh2rcd13ifvqgtg","pricing_plan_id":"cebpf4jnsgd1na2vs0mg"},{"bike_id":"aec5c08c-9f05-47e9-bb02-2d63b83fc483","system_id":"levelo_inurba_marseille","lat":43.26738,"lon":5.39221,"is_reserved":false,"is_disabled":false,"rental_uris":{"android":"levelo://app?vid=aec5c08c-9f05-47e9-bb02-2d63b83fc483","ios":"levelo://app?vid=aec5c08c-9f05-47e9-bb02-2d63b83fc483"},"vehicle_type_id":"4","last_reported":1768976506,"current_range_meters":9200,"station_id":"","pricing_plan_id":"cebpf4jnsgd1na2vs0mg"},{"bike_id":"9eb838f2-7d77-4f99-980e-746abce00d4e","system_id":"levelo_inurba_marseille","lat":43.24798,"lon":5.37458,"is_reserved":false,"is_disabled":false,"rental_uris":{"android":"levelo://app?vid=9eb838f2-7d77-4f99-980e-746abce00d4e","ios":"levelo://app?vid=9eb838f2-7d77-4f99-980e-746abce00d4e"},"vehicle_type_id":"4","last_reported":1768976506,"current_range_meters":9200,"station_id":"ce4bhgh2rcd13ifvqfb0","pricing_plan_id":"cebpf4jnsgd1na2vs0mg"},{"bike_id":"ae89a686-146c-4374-afec-ea771da0bdb6","system_id":"levelo_inurba_marseille","lat":43.30233,"lon":5.40058,"is_reserved":false,"is_disabled":false,"rental_uris":{"android":"levelo://app?vid=ae89a686-146c-4374-afec-ea771da0bdb6","ios":"levelo://app?vid=ae89a686-146c-4374-afec-ea771da0bdb6"},"vehicle_type_id":"4","last_reported":1768976506,"current_range_meters":9200,"station_id":"","pricing_plan_id":"cebpf4jnsgd1na2vs0mg"},{"bike_id":"186cac83-ddb6-4b01-b2ec-699c3d975dab","system_id":"levelo_inurba_marseille","lat":43.30252,"lon":5.40093,"is_reserved":false,"is_disabled":false,"rental_uris":{"android":"levelo://app?vid=186cac83-ddb6-4b01-b2ec-699c3d975dab","ios":"levelo://app?vid=186cac83-ddb6-4b01-b2ec-699c3d975dab"},"vehicle_type_id":"4","last_reported":1768976506,"current_range_meters":9200,"station_id":"ce4bgvh2rcd13ifvqcs0","pricing_plan_id":"cebpf4jnsgd1na2vs0mg"},{"bike_id":"83461687-2d6f-44e3-8195-fb721f9fb181","system_id":"levelo_inurba_marseille","lat":43.28479,"lon":5.48406,"is_reserved":false,"is_disabled":false,"rental_uris":{"android":"levelo://app?vid=83461687-2d6f-44e3-8195-fb721f9fb181","ios":"levelo://app?vid=83461687-2d6f-44e3-8195-fb721f9fb181"},"vehicle_type_id":"4","last_reported":1768976506,"current_range_meters":9200,"station_id":"","pricing_plan_id":"cebpf4jnsgd1na2vs0mg"},{"bike_id":"4283ae00-0abb-45bc-aa76-5673a8076207","system_id":"levelo_inurba_marseille","lat":43.32538,"lon":5.41434,"is_reserved":false,"is_disabled":false,"rental_uris":{"android":"levelo://app?vid=4283ae00-0abb-45bc-aa76-5673a8076207","ios":"levelo://app?vid=4283ae00-0abb-45bc-aa76-5673a8076207"},"vehicle_type_id":"4","last_reported":1768976506,"current_range_meters":9200,"station_id":"ce4bhq12rcd13ifvqhhg","pricing_plan_id":"cebpf4jnsgd1na2vs0mg"},{"bike_id":"08d4b5bb-2524-47d0-805a-b030853100e4","system_id":"levelo_inurba_marseille","lat":43.25907,"lon":5.41697,"is_reserved":false,"is_disabled":false,"rental_uris":{"android":"levelo://app?vid=08d4b5bb-2524-47d0-805a-b030853100e4","ios":"levelo://app?vid=08d4b5bb-2524-47d0-805a-b030853100e4"},"vehicle_type_id":"4","last_reported":1768976506,"current_range_meters":9200,"station_id":"","pricing_plan_id":"cebpf4jnsgd1na2vs0mg"},{"bike_id":"e10b96cc-cdf7-441b-8565-de90d642fec7","system_id":"levelo_inurba_marseille","lat":43.24383,"lon":5.37074,"is_reserved":false,"is_disabled":false,"rental_uris":{"android":"levelo://app?vid=e10b96cc-cdf7-441b-8565-de90d642fec7","ios":"levelo://app?vid=e10b96cc-cdf7-441b-8565-de90d642fec7"},"vehicle_type_id":"4","last_reported":1768976506,"current_range_meters":9200,"station_id":"ce4bhhh2rcd13ifvqfk0","pricing_plan_id":"cebpf4jnsgd1na2vs0mg"},{"bike_id":"fe9f1289-1fc0-4c7b-a4ac-a107fa9f848f","system_id":"levelo_inurba_marseille","lat":43.24068,"lon":5.37731,"is_reserved":false,"is_disabled":false,"rental_uris":{"android":"levelo://app?vid=fe9f1289-1fc0-4c7b-a4ac-a107fa9f848f","ios":"levelo://app?vid=fe9f1289-1fc0-4c7b-a4ac-a107fa9f848f"},"vehicle_type_id":"4","last_reported":1768976506,"current_range_meters":9200,"station_id":"ce4bhnp2rcd13ifvqgvg","pricing_plan_id":"cebpf4jnsgd1na2vs0mg"},{"bike_id":"6ba5d123-2092-4d97-91f8-f9504f975b34","system_id":"levelo_inurba_marseille","lat":43.30164,"lon":5.38089,"is_reserved":false,"is_disabled":false,"rental_uris":{"android":"levelo://app?vid=6ba5d123-2092-4d97-91f8-f9504f975b34","ios":"levelo://app?vid=6ba5d123-2092-4d97-91f8-f9504f975b34"},"vehicle_type_id":"4","last_reported":1768976506,"current_range_meters":9200,"station_id":"ce4bgjp2rcd13ifvqbh0","pricing_plan_id":"cebpf4jnsgd1na2vs0mg"},{"bike_id":"867ac40e-a8dc-48f5-8111-7f82cf98b0b9","system_id":"levelo_inurba_marseille","lat":43.31117,"lon":5.37761,"is_reserved":false,"is_disabled":false,"rental_uris":{"android":"levelo://app?vid=867ac40e-a8dc-48f5-8111-7f82cf98b0b9","ios":"levelo://app?vid=867ac40e-a8dc-48f5-8111-7f82cf98b0b9"},"vehicle_type_id":"4","last_reported":1768976506,"current_range_meters":9600,"station_id":"ce4bgt92rcd13ifvqcg0","pricing_plan_id":"cebpf4jnsgd1na2vs0mg"},{"bike_id":"f39e92a3-72b1-4b42-9dde-43229ba98f93","system_id":"levelo_inurba_marseille","lat":43.27623,"lon":5.36098,"is_reserved":false,"is_disabled":true,"rental_uris":{"android":"levelo://app?vid=f39e92a3-72b1-4b42-9dde-43229ba98f93","ios":"levelo://app?vid=f39e92a3-72b1-4b42-9dde-43229ba98f93"},"vehicle_type_id":"4","last_reported":1768976506,"current_range_meters":9600,"station_id":"ce4bgj92rcd13ifvqbe0","pricing_plan_id":"cebpf4jnsgd1na2vs0mg"},{"bike_id":"ee2e06a1-c073-46a8-803e-c03f544825f4","system_id":"levelo_inurba_marseille","lat":43.29878,"lon":5.38896,"is_reserved":false,"is_disabled":false,"rental_uris":{"android":"levelo://app?vid=ee2e06a1-c073-46a8-803e-c03f544825f4","ios":"levelo://app?vid=ee2e06a1-c073-46a8-803e-c03f544825f4"},"vehicle_type_id":"4","last_reported":1768976506,"current_range_meters":9600,"station_id":"ce4bh392rcd13ifvqdl0","pricing_plan_id":"cebpf4jnsgd1na2vs0mg"},{"bike_id":"31beee0b-310d-4fa6-8c0d-3f98a82c1c3d","system_id":"levelo_inurba_marseille","lat":43.29788,"lon":5.39347,"is_reserved":false,"is_disabled":false,"rental_uris":{"android":"levelo://app?vid=31beee0b-310d-4fa6-8c0d-3f98a82c1c3d","ios":"levelo://app?vid=31beee0b-310d-4fa6-8c0d-3f98a82c1c3d"},"vehicle_type_id":"4","last_reported":1768976506,"current_range_meters":9600,"station_id":"chh1huq6cuj3fo74tm60","pricing_plan_id":"cebpf4jnsgd1na2vs0mg"},{"bike_id":"fddbb7cb-a21d-46ff-8d07-df9eecd44019","system_id":"levelo_inurba_marseille","lat":43.32107,"lon":5.36783,"is_reserved":false,"is_disabled":false,"rental_uris":{"android":"levelo://app?vid=fddbb7cb-a21d-46ff-8d07-df9eecd44019","ios":"levelo://app?vid=fddbb7cb-a21d-46ff-8d07-df9eecd44019"},"vehicle_type_id":"4","last_reported":1768976506,"current_range_meters":9600,"station_id":"ce4bhrh2rcd13ifvqhug","pricing_plan_id":"cebpf4jnsgd1na2vs0mg"},{"bike_id":"bf9df301-dc0d-41cc-96a1-27301e9f819b","system_id":"levelo_inurba_marseille","lat":43.28484,"lon":5.48383,"is_reserved":false,"is_disabled":false,"rental_uris":{"android":"levelo://app?vid=bf9df301-dc0d-41cc-96a1-27301e9f819b","ios":"levelo://app?vid=bf9df301-dc0d-41cc-96a1-27301e9f819b"},"vehicle_type_id":"4","last_reported":1768976506,"current_range_meters":9600,"station_id":"","pricing_plan_id":"cebpf4jnsgd1na2vs0mg"},{"bike_id":"5dff584e-04d8-4b32-afe1-ae3c81652a10","system_id":"levelo_inurba_marseille","lat":43.31176,"lon":5.38682,"is_reserved":false,"is_disabled":false,"rental_uris":{"android":"levelo://app?vid=5dff584e-04d8-4b32-afe1-ae3c81652a10","ios":"levelo://app?vid=5dff584e-04d8-4b32-afe1-ae3c81652a10"},"vehicle_type_id":"4","last_reported":1768976506,"current_range_meters":9600,"station_id":"ce4bgv12rcd13ifvqcp0","pricing_plan_id":"cebpf4jnsgd1na2vs0mg"},{"bike_id":"84946e03-8d8b-49e2-9882-f17beafc3255","system_id":"levelo_inurba_marseille","lat":43.3027,"lon":5.3772,"is_reserved":false,"is_disabled":false,"rental_uris":{"android":"levelo://app?vid=84946e03-8d8b-49e2-9882-f17beafc3255","ios":"levelo://app?vid=84946e03-8d8b-49e2-9882-f17beafc3255"},"vehicle_type_id":"4","last_reported":1768976506,"current_range_meters":9600,"station_id":"ce4bguh2rcd13ifvqcj0","pricing_plan_id":"cebpf4jnsgd1na2vs0mg"},{"bike_id":"22bc6d8e-7e0c-4234-afe0-c88e2589ac70","system_id":"levelo_inurba_marseille","lat":43.27046,"lon":5.39893,"is_reserved":false,"is_disabled":false,"rental_uris":{"android":"levelo://app?vid=22bc6d8e-7e0c-4234-afe0-c88e2589ac70","ios":"levelo://app?vid=22bc6d8e-7e0c-4234-afe0-c88e2589ac70"},"vehicle_type_id":"4","last_reported":1768976506,"current_range_meters":9600,"station_id":"","pricing_plan_id":"cebpf4jnsgd1na2vs0mg"},{"bike_id":"babbe422-28f9-4e25-b94d-b05370be84e3","system_id":"levelo_inurba_marseille","lat":43.25102,"lon":5.40332,"is_reserved":false,"is_disabled":true,"rental_uris":{"android":"levelo://app?vid=babbe422-28f9-4e25-b94d-b05370be84e3","ios":"levelo://app?vid=babbe422-28f9-4e25-b94d-b05370be84e3"},"vehicle_type_id":"4","last_reported":1768976506,"current_range_meters":9600,"station_id":"ce4bhlh2rcd13ifvqgig","pricing_plan_id":"cebpf4jnsgd1na2vs0mg"},{"bike_id":"517d179a-f25c-4156-b253-19a2cee8811d","system_id":"levelo_inurba_marseille","lat":43.24398,"lon":5.37031,"is_reserved":false,"is_disabled":false,"rental_uris":{"android":"levelo://app?vid=517d179a-f25c-4156-b253-19a2cee8811d","ios":"levelo://app?vid=517d179a-f25c-4156-b253-19a2cee8811d"},"vehicle_type_id":"4","last_reported":1768976506,"current_range_meters":9600,"station_id":"ce4bhhh2rcd13ifvqfk0","pricing_plan_id":"cebpf4jnsgd1na2vs0mg"},{"bike_id":"f733edff-8edc-4a21-9891-a9e1270bd171","system_id":"levelo_inurba_marseille","lat":43.281109,"lon":5.378473,"is_reserved":false,"is_disabled":false,"rental_uris":{"android":"levelo://app?vid=f733edff-8edc-4a21-9891-a9e1270bd171","ios":"levelo://app?vid=f733edff-8edc-4a21-9891-a9e1270bd171"},"vehicle_type_id":"4","last_reported":1768976506,"current_range_meters":9600,"station_id":"ce4bha12rcd13ifvqee0","pricing_plan_id":"cebpf4jnsgd1na2vs0mg"},{"bike_id":"92fae753-14ea-45c8-9fbe-b2f17fe3a0df","system_id":"levelo_inurba_marseille","lat":43.32106,"lon":5.36783,"is_reserved":false,"is_disabled":false,"rental_uris":{"android":"levelo://app?vid=92fae753-14ea-45c8-9fbe-b2f17fe3a0df","ios":"levelo://app?vid=92fae753-14ea-45c8-9fbe-b2f17fe3a0df"},"vehicle_type_id":"4","last_reported":1768976506,"current_range_meters":9600,"station_id":"ce4bhrh2rcd13ifvqhug","pricing_plan_id":"cebpf4jnsgd1na2vs0mg"},{"bike_id":"8cc2b70e-0ddd-4669-90a2-ae1a09f6a6c7","system_id":"levelo_inurba_marseille","lat":43.26219,"lon":5.40454,"is_reserved":false,"is_disabled":false,"rental_uris":{"android":"levelo://app?vid=8cc2b70e-0ddd-4669-90a2-ae1a09f6a6c7","ios":"levelo://app?vid=8cc2b70e-0ddd-4669-90a2-ae1a09f6a6c7"},"vehicle_type_id":"4","last_reported":1768976506,"current_range_meters":9600,"station_id":"ce4bhmh2rcd13ifvqgmg","pricing_plan_id":"cebpf4jnsgd1na2vs0mg"},{"bike_id":"8d79b599-322a-4b8d-bfb0-fd0690ea34d0","system_id":"levelo_inurba_marseille","lat":43.28795,"lon":5.38027,"is_reserved":false,"is_disabled":false,"rental_uris":{"android":"levelo://app?vid=8d79b599-322a-4b8d-bfb0-fd0690ea34d0","ios":"levelo://app?vid=8d79b599-322a-4b8d-bfb0-fd0690ea34d0"},"vehicle_type_id":"4","last_reported":1768976506,"current_range_meters":9600,"station_id":"","pricing_plan_id":"cebpf4jnsgd1na2vs0mg"},{"bike_id":"269a2c2d-eddf-45ef-b28f-d0f4cb063a62","system_id":"levelo_inurba_marseille","lat":43.28102,"lon":5.37834,"is_reserved":false,"is_disabled":false,"rental_uris":{"android":"levelo://app?vid=269a2c2d-eddf-45ef-b28f-d0f4cb063a62","ios":"levelo://app?vid=269a2c2d-eddf-45ef-b28f-d0f4cb063a62"},"vehicle_type_id":"4","last_reported":1768976506,"current_range_meters":9600,"station_id":"ce4bha12rcd13ifvqee0","pricing_plan_id":"cebpf4jnsgd1na2vs0mg"},{"bike_id":"6fb19c91-7ffd-4222-b20e-e8f53699bc07","system_id":"levelo_inurba_marseille","lat":43.318845,"lon":5.407334,"is_reserved":false,"is_disabled":false,"rental_uris":{"android":"levelo://app?vid=6fb19c91-7ffd-4222-b20e-e8f53699bc07","ios":"levelo://app?vid=6fb19c91-7ffd-4222-b20e-e8f53699bc07"},"vehicle_type_id":"4","last_reported":1768976506,"current_range_meters":10000,"station_id":"ce4bhq12rcd13ifvqhig","pricing_plan_id":"cebpf4jnsgd1na2vs0mg"},{"bike_id":"e5d5a4a3-57b6-4832-bd60-a336b01cb951","system_id":"levelo_inurba_marseille","lat":43.29627,"lon":5.37149,"is_reserved":false,"is_disabled":false,"rental_uris":{"android":"levelo://app?vid=e5d5a4a3-57b6-4832-bd60-a336b01cb951","ios":"levelo://app?vid=e5d5a4a3-57b6-4832-bd60-a336b01cb951"},"vehicle_type_id":"4","last_reported":1768976506,"current_range_meters":10000,"station_id":"ce4bgnh2rcd13ifvqc0g","pricing_plan_id":"cebpf4jnsgd1na2vs0mg"},{"bike_id":"e07cc4c7-f8da-43b9-86b7-9b5a29a91e8f","system_id":"levelo_inurba_marseille","lat":43.27885,"lon":5.3803,"is_reserved":false,"is_disabled":false,"rental_uris":{"android":"levelo://app?vid=e07cc4c7-f8da-43b9-86b7-9b5a29a91e8f","ios":"levelo://app?vid=e07cc4c7-f8da-43b9-86b7-9b5a29a91e8f"},"vehicle_type_id":"4","last_reported":1768976506,"current_range_meters":10000,"station_id":"ce4bhf92rcd13ifvqf50","pricing_plan_id":"cebpf4jnsgd1na2vs0mg"},{"bike_id":"315ff8a3-8d34-4b7a-963e-294ff30f0246","system_id":"levelo_inurba_marseille","lat":43.2629,"lon":5.40958,"is_reserved":false,"is_disabled":false,"rental_uris":{"android":"levelo://app?vid=315ff8a3-8d34-4b7a-963e-294ff30f0246","ios":"levelo://app?vid=315ff8a3-8d34-4b7a-963e-294ff30f0246"},"vehicle_type_id":"4","last_reported":1768976506,"current_range_meters":10000,"station_id":"st_d4e5ca6na9uc73bfl5fg","pricing_plan_id":"cebpf4jnsgd1na2vs0mg"},{"bike_id":"86fab962-3ac3-4bbf-b258-0c4cf3a7dea9","system_id":"levelo_inurba_marseille","lat":43.28609,"lon":5.37069,"is_reserved":false,"is_disabled":false,"rental_uris":{"android":"levelo://app?vid=86fab962-3ac3-4bbf-b258-0c4cf3a7dea9","ios":"levelo://app?vid=86fab962-3ac3-4bbf-b258-0c4cf3a7dea9"},