{"last_updated":1731199749,"ttl":60,"version":"2.2","data":{"bikes":[{"bike_id":"dcd8b508-2c18-4839-ab68-7b52cc2d3fb7","system_id":"levelo_inurba_marseille","lat":43.27067,"lon":5.42277,"is_reserved":false,"is_disabled":false,"rental_uris":{"android":"levelo://app?vid=dcd8b508-2c18-4839-ab68-7b52cc2d3fb7","ios":"levelo://app?vid=dcd8b508-2c18-4839-ab68-7b52cc2d3fb7"},"vehicle_type_id":"4","last_reported":1731199749,"current_range_meters":33200,"station_id":"ce4bhk92rcd13ifvqgb0","pricing_plan_id":"cebpf4jnsgd1na2vs0mg"},{"bike_id":"e94e2327-9eaf-4d26-bd7f-903afa708be6","system_id":"levelo_inurba_marseille","lat":43.33765,"lon":5.39181,"is_reserved":false,"is_disabled":false,"rental_uris":{"android":"levelo://app?vid=e94e2327-9eaf-4d26-bd7f-903afa708be6","ios":"levelo://app?vid=e94e2327-9eaf-4d26-bd7f-903afa708be6"},"vehicle_type_id":"4","last_reported":1731199749,"current_range_meters":16800,"station_id":"ce4bhr92rcd13ifvqhsg","pricing_plan_id":"cebpf4jnsgd1na2vs0mg"},{"bike_id":"2304e544-6b17-4622-a619-ac8da97a0fbf","system_id":"levelo_inurba_marseille","lat":43.31359,"lon":5.38502,"is_reserved":false,"is_disabled":false,"rental_uris":{"android":"levelo://app?vid=2304e544-6b17-4622-a619-ac8da97a0fbf","ios":"levelo://app?vid=2304e544-6b17-4622-a619-ac8da97a0fbf"},"vehicle_type_id":"4","last_reported":1731199749,"current_range_meters":27600,"station_id":"ce4bgt92rcd13ifvqcf0","pricing_plan_id":"cebpf4jnsgd1na2vs0mg"},{"bike_id":"1044c177-1d80-40b2-bb54-9bfa5350a595","system_id":"levelo_inurba_marseille","lat":43.31231,"lon":5.36855,"is_reserved":false,"is_disabled":false,"rental_uris":{"android":"levelo://app?vid=1044c177-1d80-40b2-bb54-9bfa5350a595","ios":"levelo://app?vid=1044c177-1d80-40b2-bb54-9bfa5350a595"},"vehicle_type_id":"4","last_reported":1731199749,"current_range_meters":32400,"station_id":"ce4bgl92rcd13ifvqbq0","pricing_plan_id":"cebpf4jnsgd1na2vs0mg"},{"bike_id":"8d618ad3-e42f-4b7f-961b-1ad00e2aa17c","system_id":"levelo_inurba_marseille","lat":43.25002,"lon":5.38909,"is_reserved":false,"is_disabled":false,"rental_uris":{"android":"levelo://app?vid=8d618ad3-e42f-4b7f-961b-1ad00e2aa17c","ios":"levelo://app?vid=8d618ad3-e42f-4b7f-961b-1ad00e2aa17c"},"vehicle_type_id":"4","last_reported":1731199749,"current_range_meters":38000,"station_id":"ce4bhgp2rcd13ifvqfd0","pricing_plan_id":"cebpf4jnsgd1na2vs0mg"},{"bike_id":"68bb9078-c705-4e4c-81de-7ae7c7d86c43","system_id":"levelo_inurba_marseille","lat":43.31696,"lon":5.3776,"is_reserved":false,"is_disabled":false,"rental_uris":{"android":"levelo://app?vid=68bb9078-c705-4e4c-81de-7ae7c7d86c43","ios":"levelo://app?vid=68bb9078-c705-4e4c-81de-7ae7c7d86c43"},"vehicle_type_id":"4","last_reported":1731199749,"current_range_meters":26000,"station_id":"ce4bgth2rcd13ifvqch0","pricing_plan_id":"cebpf4jnsgd1na2vs0mg"},{"bike_id":"15f90ada-8244-4909-9a39-7b6a6ccd8d5c","system_id":"levelo_inurba_marseille","lat":43.29694,"lon":5.37276,"is_reserved":false,"is_disabled":false,"rental_uris":{"android":"levelo://app?vid=15f90ada-8244-4909-9a39-7b6a6ccd8d5c","ios":"levelo://app?vid=15f90ada-8244-4909-9a39-7b6a6ccd8d5c"},"vehicle_type_id":"4","last_reported":1731199749,"current_range_meters":36400,"station_id":"ce4bgk12rcd13ifvqbj0","pricing_plan_id":"cebpf4jnsgd1na2vs0mg"},{"bike_id":"a4191671-fa31-45dd-a3de-35cd529d11a5","system_id":"levelo_inurba_marseille","lat":43.29446,"lon":5.39756,"is_reserved":false,"is_disabled":false,"rental_uris":{"android":"levelo://app?vid=a4191671-fa31-45dd-a3de-35cd529d11a5","ios":"levelo://app?vid=a4191671-fa31-45dd-a3de-35cd529d11a5"},"vehicle_type_id":"4","last_reported":1731199749,"current_range_meters":30400,"station_id":"ce4bh3h2rcd13ifvqdo0","pricing_plan_id":"cebpf4jnsgd1na2vs0mg"},{"bike_id":"5daf7e81-adca-4c69-ac49-7439dac41928","system_id":"levelo_inurba_marseille","lat":43.29541,"lon":5.4228,"is_reserved":false,"is_disabled":false,"rental_uris":{"android":"levelo://app?vid=5daf7e81-adca-4c69-ac49-7439dac41928","ios":"levelo://app?vid=5daf7e81-adca-4c69-ac49-7439dac41928"},"vehicle_type_id":"4","last_reported":1731199749,"current_range_meters":39200,"station_id":"ce4bhph2rcd13ifvqhdg","pricing_plan_id":"cebpf4jnsgd1na2vs0mg"},{"bike_id":"323d82ca-cc3d-4ad5-a6d0-2fffde3d3d99","system_id":"levelo_inurba_marseille","lat":43.31991,"lon":5.38151,"is_reserved":false,"is_disabled":false,"rental_uris":{"android":"levelo://app?vid=323d82ca-cc3d-4ad5-a6d0-2fffde3d3d99","ios":"levelo://app?vid=323d82ca-cc3d-4ad5-a6d0-2fffde3d3d99"},"vehicle_type_id":"4","last_reported":1731199749,"current_range_meters":30800,"station_id":"ce4bhr12rcd13ifvqhpg","pricing_plan_id":"cebpf4jnsgd1na2vs0mg"},{"bike_id":"bab7e8bf-3dd9-4ba8-ae9e-1d78dcf614a2","system_id":"levelo_inurba_marseille","lat":43.25118,"lon":5.39488,"is_reserved":false,"is_disabled":false,"rental_uris":{"android":"levelo://app?vid=bab7e8bf-3dd9-4ba8-ae9e-1d78dcf614a2","ios":"levelo://app?vid=bab7e8bf-3dd9-4ba8-ae9e-1d78dcf614a2"},"vehicle_type_id":"4","last_reported":1731199749,"current_range_meters":38000,"station_id":"ce4bhm12rcd13ifvqgkg","pricing_plan_id":"cebpf4jnsgd1na2vs0mg"},{"bike_id":"e216a384-3e35-4268-818c-54b5ad9b419d","system_id":"levelo_inurba_marseille","lat":43.27616,"lon":5.36115,"is_reserved":false,"is_disabled":false,"rental_uris":{"android":"levelo://app?vid=e216a384-3e35-4268-818c-54b5ad9b419d","ios":"levelo://app?vid=e216a384-3e35-4268-818c-54b5ad9b419d"},"vehicle_type_id":"4","last_reported":1731199749,"current_range_meters":26000,"station_id":"ce4bgj92rcd13ifvqbe0","pricing_plan_id":"cebpf4jnsgd1na2vs0mg"},{"bike_id":"3cba9fdd-e01f-406a-8731-509d66a1b107","system_id":"levelo_inurba_marseille","lat":43.26065,"lon":5.39398,"is_reserved":false,"is_disabled":false,"rental_uris":{"android":"levelo://app?vid=3cba9fdd-e01f-406a-8731-509d66a1b107","ios":"levelo://app?vid=3cba9fdd-e01f-406a-8731-509d66a1b107"},"vehicle_type_id":"4","last_reported":1731199749,"current_range_meters":25200,"station_id":"ce4bhh92rcd13ifvqfj0","pricing_plan_id":"cebpf4jnsgd1na2vs0mg"},{"bike_id":"4eb8cd11-f10e-4d12-8a9c-4645e2f4f74b","system_id":"levelo_inurba_marseille","lat":43.27826,"lon":5.392023,"is_reserved":false,"is_disabled":false,"rental_uris":{"android":"levelo://app?vid=4eb8cd11-f10e-4d12-8a9c-4645e2f4f74b","ios":"levelo://app?vid=4eb8cd11-f10e-4d12-8a9c-4645e2f4f74b"},"vehicle_type_id":"4","last_reported":1731199749,"current_range_meters":38800,"station_id":"ce4bhjp2rcd13ifvqga0","pricing_plan_id":"cebpf4jnsgd1na2vs0mg"},{"bike_id":"75d7723d-292b-4cf1-b075-38d80c293ebd","system_id":"levelo_inurba_marseille","lat":43.299846,"lon":5.37186,"is_reserved":false,"is_disabled":false,"rental_uris":{"android":"levelo://app?vid=75d7723d-292b-4cf1-b075-38d80c293ebd","ios":"levelo://app?vid=75d7723d-292b-4cf1-b075-38d80c293ebd"},"vehicle_type_id":"4","last_reported":1731199749,"current_range_meters":10000,"station_id":"ce4bgr92rcd13ifvqc7g","pricing_plan_id":"cebpf4jnsgd1na2vs0mg"},{"bike_id":"b0c647e6-5db7-4db3-9140-4c39b6d1fcfc","system_id":"levelo_inurba_marseille","lat":43.28936,"lon":5.36628,"is_reserved":false,"is_disabled":false,"rental_uris":{"android":"levelo://app?vid=b0c647e6-5db7-4db3-9140-4c39b6d1fcfc","ios":"levelo://app?vid=b0c647e6-5db7-4db3-9140-4c39b6d1fcfc"},"vehicle_type_id":"4","last_reported":1731199749,"current_range_meters":38800,"station_id":"ce4bhap2rcd13ifvqek0","pricing_plan_id":"cebpf4jnsgd1na2vs0mg"},{"bike_id":"9110cb2e-2e72-4bc3-9f77-b10b73b70273","system_id":"levelo_inurba_marseille","lat":43.260592,"lon":5.393962,"is_reserved":false,"is_disabled":false,"rental_uris":{"android":"levelo://app?vid=9110cb2e-2e72-4bc3-9f77-b10b73b70273","ios":"levelo://app?vid=9110cb2e-2e72-4bc3-9f77-b10b73b70273"},"vehicle_type_id":"4","last_reported":1731199749,"current_range_meters":25600,"station_id":"ce4bhh92rcd13ifvqfj0","pricing_plan_id":"cebpf4jnsgd1na2vs0mg"},{"bike_id":"edf7c120-0d22-4436-bf52-8d48ff351261","system_id":"levelo_inurba_marseille","lat":43.30598,"lon":5.37203,"is_reserved":false,"is_disabled":false,"rental_uris":{"android":"levelo://app?vid=edf7c120-0d22-4436-bf52-8d48ff351261","ios":"levelo://app?vid=edf7c120-0d22-4436-bf52-8d48ff351261"},"vehicle_type_id":"4","last_reported":1731199749,"current_range_meters":19200,"station_id":"ce4bgqh2rcd13ifvqc4g","pricing_plan_id":"cebpf4jnsgd1na2vs0mg"},{"bike_id":"7defb6b2-8a22-4446-a519-80d52013912b","system_id":"levelo_inurba_marseille","lat":43.25004,"lon":5.38919,"is_reserved":false,"is_disabled":false,"rental_uris":{"android":"levelo://app?vid=7defb6b2-8a22-4446-a519-80d52013912b","ios":"levelo://app?vid=7defb6b2-8a22-4446-a519-80d52013912b"},"vehicle_type_id":"4","last_reported":1731199749,"current_range_meters":9200,"station_id":"ce4bhgp2rcd13ifvqfd0","pricing_plan_id":"cebpf4jnsgd1na2vs0mg"},{"bike_id":"ed569e71-046c-4d62-baeb-5fe711272a56","system_id":"levelo_inurba_marseille","lat":43.265582,"lon":5.37277,"is_reserved":false,"is_disabled":false,"rental_uris":{"android":"levelo://app?vid=ed569e71-046c-4d62-baeb-5fe711272a56","ios":"levelo://app?vid=ed569e71-046c-4d62-baeb-5fe711272a56"},"vehicle_type_id":"4","last_reported":1731199749,"current_range_meters":14000,"station_id":"ce4bhoh2rcd13ifvqh5g","pricing_plan_id":"cebpf4jnsgd1na2vs0mg"},{"bike_id":"1770fd63-95f4-4b3d-bc0d-9430ae57c710","system_id":"levelo_inurba_marseille","lat":43.30183,"lon":5.36599,"is_reserved":false,"is_disabled":false,"rental_uris":{"android":"levelo://app?vid=1770fd63-95f4-4b3d-bc0d-9430ae57c710","ios":"levelo://app?vid=1770fd63-95f4-4b3d-bc0d-9430ae57c710"},"vehicle_type_id":"4","last_reported":1731199749,"current_range_meters":38800,"station_id":"ce4bgrh2rcd13ifvqc8g","pricing_plan_id":"cebpf4jnsgd1na2vs0mg"},{"bike_id":"7019b5d3-a9a1-4b12-937a-6c431068640e","system_id":"levelo_inurba_marseille","lat":43.28696,"lon":5.37387,"is_reserved":false,"is_disabled":false,"rental_uris":{"android":"levelo://app?vid=7019b5d3-a9a1-4b12-937a-6c431068640e","ios":"levelo://app?vid=7019b5d3-a9a1-4b12-937a-6c431068640e"},"vehicle_type_id":"4","last_reported":1731199749,"current_range_meters":35200,"station_id":"ce4bh3p2rcd13ifvqdq0","pricing_plan_id":"cebpf4jnsgd1na2vs0mg"},{"bike_id":"51d16f6c-9f36-496f-ab0e-4a4383b8d0b1","system_id":"levelo_inurba_marseille","lat":43.26201,"lon":5.37936,"is_reserved":false,"is_disabled":false,"rental_uris":{"android":"levelo://app?vid=51d16f6c-9f36-496f-ab0e-4a4383b8d0b1","ios":"levelo://app?vid=51d16f6c-9f36-496f-ab0e-4a4383b8d0b1"},"vehicle_type_id":"4","last_reported":1731199749,"current_range_meters":14400,"station_id":"ce4bhjp2rcd13ifvqg90","pricing_plan_id":"cebpf4jnsgd1na2vs0mg"},{"bike_id":"b3e47c63-7f80-4237-b227-50e17af583df","system_id":"levelo_inurba_marseille","lat":43.302933,"lon":5.39205,"is_reserved":false,"is_disabled":false,"rental_uris":{"android":"levelo://app?vid=b3e47c63-7f80-4237-b227-50e17af583df","ios":"levelo://app?vid=b3e47c63-7f80-4237-b227-50e17af583df"},"vehicle_type_id":"4","last_reported":1731199749,"current_range_meters":38800,"station_id":"ce4bgkh2rcd13ifvqbk0","pricing_plan_id":"cebpf4jnsgd1na2vs0mg"},{"bike_id":"4845f3f4-4e31-44c2-a5d2-505a1c2cad52","system_id":"levelo_inurba_marseille","lat":43.31221,"lon":5.3685,"is_reserved":false,"is_disabled":false,"rental_uris":{"android":"levelo://app?vid=4845f3f4-4e31-44c2-a5d2-505a1c2cad52","ios":"levelo://app?vid=4845f3f4-4e31-44c2-a5d2-505a1c2cad52"},"vehicle_type_id":"4","last_reported":1731199749,"current_range_meters":9600,"station_id":"ce4bgl92rcd13ifvqbq0","pricing_plan_id":"cebpf4jnsgd1na2vs0mg"},{"bike_id":"b9059161-bc2a-4853-8231-de961bd5f1e7","system_id":"levelo_inurba_marseille","lat":43.33718,"lon":5.39188,"is_reserved":false,"is_disabled":false,"rental_uris":{"android":"levelo://app?vid=b9059161-bc2a-4853-8231-de961bd5f1e7","ios":"levelo://app?vid=b9059161-bc2a-4853-8231-de961bd5f1e7"},"vehicle_type_id":"4","last_reported":1731199749,"current_range_meters":19600,"station_id":"ce4bhr92rcd13ifvqhsg","pricing_plan_id":"cebpf4jnsgd1na2vs0mg"},{"bike_id":"6ea94fb0-7e96-4776-8b9b-dcfd387eb047","system_id":"levelo_inurba_marseille","lat":43.29036,"lon":5.39964,"is_reserved":false,"is_disabled":false,"rental_uris":{"android":"levelo://app?vid=6ea94fb0-7e96-4776-8b9b-dcfd387eb047","ios":"levelo://app?vid=6ea94fb0-7e96-4776-8b9b-dcfd387eb047"},"vehicle_type_id":"4","last_reported":1731199749,"current_range_meters":19600,"station_id":"ce4bh392rcd13ifvqdm0","pricing_plan_id":"cebpf4jnsgd1na2vs0mg"},{"bike_id":"9e00ae8d-b3a9-4d4b-a691-62debbf0e14c","system_id":"levelo_inurba_marseille","lat":43.23187,"lon":5.39991,"is_reserved":false,"is_disabled":false,"rental_uris":{"android":"levelo://app?vid=9e00ae8d-b3a9-4d4b-a691-62debbf0e14c","ios":"levelo://app?vid=9e00ae8d-b3a9-4d4b-a691-62debbf0e14c"},"vehicle_type_id":"4","last_reported":1731199749,"current_range_meters":38400,"station_id":"ce4bhn12rcd13ifvqgqg","pricing_plan_id":"cebpf4jnsgd1na2vs0mg"},{"bike_id":"3e09356d-842a-4c31-9cc1-46c2d49b70cc","system_id":"levelo_inurba_marseille","lat":43.32365,"lon":5.38881,"is_reserved":false,"is_disabled":false,"rental_uris":{"android":"levelo://app?vid=3e09356d-842a-4c31-9cc1-46c2d49b70cc","ios":"levelo://app?vid=3e09356d-842a-4c31-9cc1-46c2d49b70cc"},"vehicle_type_id":"4","last_reported":1731199749,"current_range_meters":34000,"station_id":"ce4bhqp2rcd13ifvqhog","pricing_plan_id":"cebpf4jnsgd1na2vs0mg"},{"bike_id":"2169ddcf-d2ce-4ed2-9566-36e1c534e32b","system_id":"levelo_inurba_marseille","lat":43.28622,"lon":5.35099,"is_reserved":false,"is_disabled":false,"rental_uris":{"android":"levelo://app?vid=2169ddcf-d2ce-4ed2-9566-36e1c534e32b","ios":"levelo://app?vid=2169ddcf-d2ce-4ed2-9566-36e1c534e32b"},"vehicle_type_id":"4","last_reported":1731199749,"current_range_meters":4800,"station_id":"ce4bhch2rcd13ifvqeug","pricing_plan_id":"cebpf4jnsgd1na2vs0mg"},{"bike_id":"0c840890-4ab7-41f8-8e64-cf28adac14a2","system_id":"levelo_inurba_marseille","lat":43.24996,"lon":5.38933,"is_reserved":false,"is_disabled":false,"rental_uris":{"android":"levelo://app?vid=0c840890-4ab7-41f8-8e64-cf28adac14a2","ios":"levelo://app?vid=0c840890-4ab7-41f8-8e64-cf28adac14a2"},"vehicle_type_id":"4","last_reported":1731199749,"current_range_meters":30000,"station_id":"ce4bhgp2rcd13ifvqfd0","pricing_plan_id":"cebpf4jnsgd1na2vs0mg"},{"bike_id":"7f6039b9-3968-4840-8062-3d5a572ce874","system_id":"levelo_inurba_marseille","lat":43.29628,"lon":5.38782,"is_reserved":false,"is_disabled":false,"rental_uris":{"android":"levelo://app?vid=7f6039b9-3968-4840-8062-3d5a572ce874","ios":"levelo://app?vid=7f6039b9-3968-4840-8062-3d5a572ce874"},"vehicle_type_id":"4","last_reported":1731199749,"current_range_meters":36000,"station_id":"","pricing_plan_id":"cebpf4jnsgd1na2vs0mg"},{"bike_id":"ede9d860-d94a-4114-8394-8a869e4436e3","system_id":"levelo_inurba_marseille","lat":43.31354,"lon":5.36714,"is_reserved":false,"is_disabled":false,"rental_uris":{"android":"levelo://app?vid=ede9d860-d94a-4114-8394-8a869e4436e3","ios":"levelo://app?vid=ede9d860-d94a-4114-8394-8a869e4436e3"},"vehicle_type_id":"4","last_reported":1731199749,"current_range_meters":23200,"station_id":"ce4bgr92rcd13ifvqc6g","pricing_plan_id":"cebpf4jnsgd1na2vs0mg"},{"bike_id":"ecaa8b17-d888-4acb-9ce7-1cb979cb9592","system_id":"levelo_inurba_marseille","lat":43.29558,"lon":5.42287,"is_reserved":false,"is_disabled":false,"rental_uris":{"android":"levelo://app?vid=ecaa8b17-d888-4acb-9ce7-1cb979cb9592","ios":"levelo://app?vid=ecaa8b17-d888-4acb-9ce7-1cb979cb9592"},"vehicle_type_id":"4","last_reported":1731199749,"current_range_meters":18000,"station_id":"ce4bhph2rcd13ifvqhdg","pricing_plan_id":"cebpf4jnsgd1na2vs0mg"},{"bike_id":"d2b69f2e-daf8-4233-be65-2d8ca4c447e9","system_id":"levelo_inurba_marseille","lat":43.25821,"lon":5.39434,"is_reserved":false,"is_disabled":false,"rental_uris":{"android":"levelo://app?vid=d2b69f2e-daf8-4233-be65-2d8ca4c447e9","ios":"levelo://app?vid=d2b69f2e-daf8-4233-be65-2d8ca4c447e9"},"vehicle_type_id":"4","last_reported":1731199749,"current_range_meters":32800,"station_id":"ce4bhip2rcd13ifvqft0","pricing_plan_id":"cebpf4jnsgd1na2vs0mg"},{"bike_id":"b89d6516-0dc4-4705-9993-76b039773ae0","system_id":"levelo_inurba_marseille","lat":43.30139,"lon":5.37414,"is_reserved":false,"is_disabled":false,"rental_uris":{"android":"levelo://app?vid=b89d6516-0dc4-4705-9993-76b039773ae0","ios":"levelo://app?vid=b89d6516-0dc4-4705-9993-76b039773ae0"},"vehicle_type_id":"4","last_reported":1731199749,"current_range_meters":38400,"station_id":"ce4bgs92rcd13ifvqcc0","pricing_plan_id":"cebpf4jnsgd1na2vs0mg"},{"bike_id":"022a6c3f-2c40-4cbf-9753-f6fa44b0f843","system_id":"levelo_inurba_marseille","lat":43.3128,"lon":5.4016,"is_reserved":false,"is_disabled":false,"rental_uris":{"android":"levelo://app?vid=022a6c3f-2c40-4cbf-9753-f6fa44b0f843","ios":"levelo://app?vid=022a6c3f-2c40-4cbf-9753-f6fa44b0f843"},"vehicle_type_id":"4","last_reported":1731199749,"current_range_meters":37600,"station_id":"ce4bh092rcd13ifvqd30","pricing_plan_id":"cebpf4jnsgd1na2vs0mg"},{"bike_id":"b3853e53-117a-4f15-b4eb-8096528db125","system_id":"levelo_inurba_marseille","lat":43.26212,"lon":5.37923,"is_reserved":false,"is_disabled":false,"rental_uris":{"android":"levelo://app?vid=b3853e53-117a-4f15-b4eb-8096528db125","ios":"levelo://app?vid=b3853e53-117a-4f15-b4eb-8096528db125"},"vehicle_type_id":"4","last_reported":1731199749,"current_range_meters":38800,"station_id":"ce4bhjp2rcd13ifvqg90","pricing_plan_id":"cebpf4jnsgd1na2vs0mg"},{"bike_id":"0372fede-2494-49af-96fb-519c63df2481","system_id":"levelo_inurba_marseille","lat":43.24804,"lon":5.37458,"is_reserved":false,"is_disabled":false,"rental_uris":{"android":"levelo://app?vid=0372fede-2494-49af-96fb-519c63df2481","ios":"levelo://app?vid=0372fede-2494-49af-96fb-519c63df2481"},"vehicle_type_id":"4","last_reported":1731199749,"current_range_meters":6800,"station_id":"ce4bhgh2rcd13ifvqfb0","pricing_plan_id":"cebpf4jnsgd1na2vs0mg"},{"bike_id":"2ed4bddd-45e5-48bb-9d09-0c307c8ce034","system_id":"levelo_inurba_marseille","lat":43.26198,"lon":5.37931,"is_reserved":false,"is_disabled":false,"rental_uris":{"android":"levelo://app?vid=2ed4bddd-45e5-48bb-9d09-0c307c8ce034","ios":"levelo://app?vid=2ed4bddd-45e5-48bb-9d09-0c307c8ce034"},"vehicle_type_id":"4","last_reported":1731199749,"current_range_meters":6400,"station_id":"ce4bhjp2rcd13ifvqg90","pricing_plan_id":"cebpf4jnsgd1na2vs0mg"},{"bike_id":"28f09721-67d4-41a8-ab2a-53385300bde7","system_id":"levelo_inurba_marseille","lat":43.2465,"lon":5.38892,"is_reserved":false,"is_disabled":false,"rental_uris":{"android":"levelo://app?vid=28f09721-67d4-41a8-ab2a-53385300bde7","ios":"levelo://app?vid=28f09721-67d4-41a8-ab2a-53385300bde7"},"vehicle_type_id":"4","last_reported":1731199749,"current_range_meters":22800,"station_id":"ce4bhg12rcd13ifvqf60","pricing_plan_id":"cebpf4jnsgd1na2vs0mg"},{"bike_id":"38566bf5-225e-4225-8299-daa9c197198d","system_id":"levelo_inurba_marseille","lat":43.2956,"lon":5.42284,"is_reserved":false,"is_disabled":false,"rental_uris":{"android":"levelo://app?vid=38566bf5-225e-4225-8299-daa9c197198d","ios":"levelo://app?vid=38566bf5-225e-4225-8299-daa9c197198d"},"vehicle_type_id":"4","last_reported":1731199749,"current_range_meters":38800,"station_id":"ce4bhph2rcd13ifvqhdg","pricing_plan_id":"cebpf4jnsgd1na2vs0mg"},{"bike_id":"c100340e-0352-473b-9235-5d8c7722d299","system_id":"levelo_inurba_marseille","lat":43.30575,"lon":5.37247,"is_reserved":false,"is_disabled":false,"rental_uris":{"android":"levelo://app?vid=c100340e-0352-473b-9235-5d8c7722d299","ios":"levelo://app?vid=c100340e-0352-473b-9235-5d8c7722d299"},"vehicle_type_id":"4","last_reported":1731199749,"current_range_meters":38800,"station_id":"ce4bgqh2rcd13ifvqc4g","pricing_plan_id":"cebpf4jnsgd1na2vs0mg"},{"bike_id":"955bf4db-6c4e-46ac-8b4c-286008cae8b5","system_id":"levelo_inurba_marseille","lat":43.31328,"lon":5.39698,"is_reserved":false,"is_disabled":false,"rental_uris":{"android":"levelo://app?vid=955bf4db-6c4e-46ac-8b4c-286008cae8b5","ios":"levelo://app?vid=955bf4db-6c4e-46ac-8b4c-286008cae8b5"},"vehicle_type_id":"4","last_reported":1731199749,"current_range_meters":35600,"station_id":"ce4bgvp2rcd13ifvqcu0","pricing_plan_id":"cebpf4jnsgd1na2vs0mg"},{"bike_id":"e931dbea-a637-4f2a-b715-63e0aded4802","system_id":"levelo_inurba_marseille","lat":43.311689,"lon":5.387139,"is_reserved":false,"is_disabled":false,"rental_uris":{"android":"levelo://app?vid=e931dbea-a637-4f2a-b715-63e0aded4802","ios":"levelo://app?vid=e931dbea-a637-4f2a-b715-63e0aded4802"},"vehicle_type_id":"4","last_reported":1731199749,"current_range_meters":39200,"station_id":"ce4bgv12rcd13ifvqcp0","pricing_plan_id":"cebpf4jnsgd1na2vs0mg"},{"bike_id":"c2e7ed3a-f62d-4fe5-9088-bf07ba717243","system_id":"levelo_inurba_marseille","lat":43.26687,"lon":5.38273,"is_reserved":false,"is_disabled":false,"rental_uris":{"android":"levelo://app?vid=c2e7ed3a-f62d-4fe5-9088-bf07ba717243","ios":"levelo://app?vid=c2e7ed3a-f62d-4fe5-9088-bf07ba717243"},"vehicle_type_id":"4","last_reported":1731199749,"current_range_meters":28400,"station_id":"ce4bhg92rcd13ifvqf90","pricing_plan_id":"cebpf4jnsgd1na2vs0mg"},{"bike_id":"b2bda100-55bb-4b95-840e-426b436ee1ac","system_id":"levelo_inurba_marseille","lat":43.31484,"lon":5.37303,"is_reserved":false,"is_disabled":false,"rental_uris":{"android":"levelo://app?vid=b2bda100-55bb-4b95-840e-426b436ee1ac","ios":"levelo://app?vid=b2bda100-55bb-4b95-840e-426b436ee1ac"},"vehicle_type_id":"4","last_reported":1731199749,"current_range_meters":24800,"station_id":"ce4bgt12rcd13ifvqcd0","pricing_plan_id":"cebpf4jnsgd1na2vs0mg"},{"bike_id":"c94909dd-e782-4a49-bf66-6d27f36ac2ee","system_id":"levelo_inurba_marseille","lat":43.29628,"lon":5.38078,"is_reserved":false,"is_disabled":false,"rental_uris":{"android":"levelo://app?vid=c94909dd-e782-4a49-bf66-6d27f36ac2ee","ios":"levelo://app?vid=c94909dd-e782-4a49-bf66-6d27f36ac2ee"},"vehicle_type_id":"4","last_reported":1731199749,"current_range_meters":32000,"station_id":"ce4bgl12rcd13ifvqbo0","pricing_plan_id":"cebpf4jnsgd1na2vs0mg"},{"bike_id":"c221efe7-efcb-49b8-a1b0-1dd8d171a453","system_id":"levelo_inurba_marseille","lat":43.33724,"lon":5.39187,"is_reserved":false,"is_disabled":false,"rental_uris":{"android":"levelo://app?vid=c221efe7-efcb-49b8-a1b0-1dd8d171a453","ios":"levelo://app?vid=c221efe7-efcb-49b8-a1b0-1dd8d171a453"},"vehicle_type_id":"4","last_reported":1731199749,"current_range_meters":38000,"station_id":"ce4bhr92rcd13ifvqhsg","pricing_plan_id":"cebpf4jnsgd1na2vs0mg"},{"bike_id":"b8fdd341-0697-41ca-82c9-e4253415f4e6","system_id":"levelo_inurba_marseille","lat":43.23061,"lon":5.35489,"is_reserved":false,"is_disabled":false,"rental_uris":{"android":"levelo://app?vid=b8fdd341-0697-41ca-82c9-e4253415f4e6","ios":"levelo://app?vid=b8fdd341-0697-41ca-82c9-e4253415f4e6"},"vehicle_type_id":"4","last_reported":1731199749,"current_range_meters":30000,"station_id":"cpo3342slgdg3j2ifvpg","pricing_plan_id":"cebpf4jnsgd1na2vs0mg"},{"bike_id":"cf9daf46-3bd1-47e7-80ac-0de06577c598","system_id":"levelo_inurba_marseille","lat":43.24386,"lon":5.37053,"is_reserved":false,"is_disabled":false,"rental_uris":{"android":"levelo://app?vid=cf9daf46-3bd1-47e7-80ac-0de06577c598","ios":"levelo://app?vid=cf9daf46-3bd1-47e7-80ac-0de06577c598"},"vehicle_type_id":"4","last_reported":1731199749,"current_range_meters":39200,"station_id":"ce4bhhh2rcd13ifvqfk0","pricing_plan_id":"cebpf4jnsgd1na2vs0mg"},{"bike_id":"e44b3744-3989-4f49-805e-68da9c21350d","system_id":"levelo_inurba_marseille","lat":43.29793,"lon":5.39329,"is_reserved":false,"is_disabled":false,"rental_uris":{"android":"levelo://app?vid=e44b3744-3989-4f49-805e-68da9c21350d","ios":"levelo://app?vid=e44b3744-3989-4f49-805e-68da9c21350d"},"vehicle_type_id":"4","last_reported":1731199749,"current_range_meters":38800,"station_id":"chh1huq6cuj3fo74tm60","pricing_plan_id":"cebpf4jnsgd1na2vs0mg"},{"bike_id":"c67a1795-3146-4b01-8240-7fe64c056eca","system_id":"levelo_inurba_marseille","lat":43.309333,"lon":5.401359,"is_reserved":false,"is_disabled":false,"rental_uris":{"android":"levelo://app?vid=c67a1795-3146-4b01-8240-7fe64c056eca","ios":"levelo://app?vid=c67a1795-3146-4b01-8240-7fe64c056eca"},"vehicle_type_id":"4","last_reported":1731199749,"current_range_meters":28800,"station_id":"ce4bgvp2rcd13ifvqct0","pricing_plan_id":"cebpf4jnsgd1na2vs0mg"},{"bike_id":"33cf5912-b13c-4ed1-bc67-986058e9d053","system_id":"levelo_inurba_marseille","lat":43.31362,"lon":5.36694,"is_reserved":false,"is_disabled":false,"rental_uris":{"android":"levelo://app?vid=33cf5912-b13c-4ed1-bc67-986058e9d053","ios":"levelo://app?vid=33cf5912-b13c-4ed1-bc67-986058e9d053"},"vehicle_type_id":"4","last_reported":1731199749,"current_range_meters":32400,"station_id":"ce4bgr92rcd13ifvqc6g","pricing_plan_id":"cebpf4jnsgd1na2vs0mg"},{"bike_id":"79cfb2da-a585-4fce-98cf-dc3b63c5a31f","system_id":"levelo_inurba_marseille","lat":43.25086,"lon":5.39519,"is_reserved":false,"is_disabled":false,"rental_uris":{"android":"levelo://app?vid=79cfb2da-a585-4fce-98cf-dc3b63c5a31f","ios":"levelo://app?vid=79cfb2da-a585-4fce-98cf-dc3b63c5a31f"},"vehicle_type_id":"4","last_reported":1731199749,"current_range_meters":36400,"station_id":"ce4bhm12rcd13ifvqgkg","pricing_plan_id":"cebpf4jnsgd1na2vs0mg"},{"bike_id":"388bccca-bdb5-4031-9e3c-b3950c0a071e","system_id":"levelo_inurba_marseille","lat":43.24662,"lon":5.38165,"is_reserved":false,"is_disabled":false,"rental_uris":{"android":"levelo://app?vid=388bccca-bdb5-4031-9e3c-b3950c0a071e","ios":"levelo://app?vid=388bccca-bdb5-4031-9e3c-b3950c0a071e"},"vehicle_type_id":"4","last_reported":1731199749,"current_range_meters":37600,"station_id":"ce4bhih2rcd13ifvqfr0","pricing_plan_id":"cebpf4jnsgd1na2vs0mg"},{"bike_id":"bc4759fa-afe0-409c-990b-9bc7a136ee1f","system_id":"levelo_inurba_marseille","lat":43.29268,"lon":5.40899,"is_reserved":false,"is_disabled":false,"rental_uris":{"android":"levelo://app?vid=bc4759fa-afe0-409c-990b-9bc7a136ee1f","ios":"levelo://app?vid=bc4759fa-afe0-409c-990b-9bc7a136ee1f"},"vehicle_type_id":"4","last_reported":1731199749,"current_range_meters":30000,"station_id":"ce4bh192rcd13ifvqdc0","pricing_plan_id":"cebpf4jnsgd1na2vs0mg"},{"bike_id":"6e608317-3e29-44a0-8789-07972a7497dd","system_id":"levelo_inurba_marseille","lat":43.296356,"lon":5.400303,"is_reserved":false,"is_disabled":false,"rental_uris":{"android":"levelo://app?vid=6e608317-3e29-44a0-8789-07972a7497dd","ios":"levelo://app?vid=6e608317-3e29-44a0-8789-07972a7497dd"},"vehicle_type_id":"4","last_reported":1731199749,"current_range_meters":36000,"station_id":"","pricing_plan_id":"cebpf4jnsgd1na2vs0mg"},{"bike_id":"45da62df-7f80-44a3-ba8e-1acd781a5f69","system_id":"levelo_inurba_marseille","lat":43.29561,"lon":5.42285,"is_reserved":false,"is_disabled":false,"rental_uris":{"android":"levelo://app?vid=45da62df-7f80-44a3-ba8e-1acd781a5f69","ios":"levelo://app?vid=45da62df-7f80-44a3-ba8e-1acd781a5f69"},"vehicle_type_id":"4","last_reported":1731199749,"current_range_meters":27600,"station_id":"ce4bhph2rcd13ifvqhdg","pricing_plan_id":"cebpf4jnsgd1na2vs0mg"},{"bike_id":"ce01ded0-ddab-4ea7-9bb2-beecf3db090d","system_id":"levelo_inurba_marseille","lat":43.29262,"lon":5.40904,"is_reserved":false,"is_disabled":false,"rental_uris":{"android":"levelo://app?vid=ce01ded0-ddab-4ea7-9bb2-beecf3db090d","ios":"levelo://app?vid=ce01ded0-ddab-4ea7-9bb2-beecf3db090d"},"vehicle_type_id":"4","last_reported":1731199749,"current_range_meters":16400,"station_id":"ce4bh192rcd13ifvqdc0","pricing_plan_id":"cebpf4jnsgd1na2vs0mg"},{"bike_id":"2972f759-c98e-4fe7-9758-85d215895273","system_id":"levelo_inurba_marseille","lat":43.2396,"lon":5.36622,"is_reserved":false,"is_disabled":false,"rental_uris":{"android":"levelo://app?vid=2972f759-c98e-4fe7-9758-85d215895273","ios":"levelo://app?vid=2972f759-c98e-4fe7-9758-85d215895273"},"vehicle_type_id":"4","last_reported":1731199749,"current_range_meters":38000,"station_id":"ce4bhi12rcd13ifvqfp0","pricing_plan_id":"cebpf4jnsgd1na2vs0mg"},{"bike_id":"010d3bc6-1da9-4e2e-9558-6436a5780c21","system_id":"levelo_inurba_marseille","lat":43.23195,"lon":5.3555,"is_reserved":false,"is_disabled":false,"rental_uris":{"android":"levelo://app?vid=010d3bc6-1da9-4e2e-9558-6436a5780c21","ios":"levelo://app?vid=010d3bc6-1da9-4e2e-9558-6436a5780c21"},"vehicle_type_id":"4","last_reported":1731199749,"current_range_meters":39200,"station_id":"ce4bhu92rcd13ifvqi70","pricing_plan_id":"cebpf4jnsgd1na2vs0mg"},{"bike_id":"720179be-536c-414c-b19d-c298d2a8d0ec","system_id":"levelo_inurba_marseille","lat":43.29563,"lon":5.42287,"is_reserved":false,"is_disabled":false,"rental_uris":{"android":"levelo://app?vid=720179be-536c-414c-b19d-c298d2a8d0ec","ios":"levelo://app?vid=720179be-536c-414c-b19d-c298d2a8d0ec"},"vehicle_type_id":"4","last_reported":1731199749,"current_range_meters":16000,"station_id":"ce4bhph2rcd13ifvqhdg","pricing_plan_id":"cebpf4jnsgd1na2vs0mg"},{"bike_id":"9eb8d370-cdcf-4de0-9b17-b3e2bf659554","system_id":"levelo_inurba_marseille","lat":43.27565,"lon":5.38436,"is_reserved":false,"is_disabled":false,"rental_uris":{"android":"levelo://app?vid=9eb8d370-cdcf-4de0-9b17-b3e2bf659554","ios":"levelo://app?vid=9eb8d370-cdcf-4de0-9b17-b3e2bf659554"},"vehicle_type_id":"4","last_reported":1731199749,"current_range_meters":16800,"station_id":"ce4bhh92rcd13ifvqfi0","pricing_plan_id":"cebpf4jnsgd1na2vs0mg"},{"bike_id":"b25de221-e9a7-4c18-8d50-062dbb86e768","system_id":"levelo_inurba_marseille","lat":43.3249,"lon":5.36552,"is_reserved":false,"is_disabled":false,"rental_uris":{"android":"levelo://app?vid=b25de221-e9a7-4c18-8d50-062dbb86e768","ios":"levelo://app?vid=b25de221-e9a7-4c18-8d50-062dbb86e768"},"vehicle_type_id":"4","last_reported":1731199749,"current_range_meters":38800,"station_id":"ce4bhs12rcd13ifvqhvg","pricing_plan_id":"cebpf4jnsgd1na2vs0mg"},{"bike_id":"f5a1521a-7e43-4951-9b46-858430fdbb17","system_id":"levelo_inurba_marseille","lat":43.29575,"lon":5.37517,"is_reserved":false,"is_disabled":false,"rental_uris":{"android":"levelo://app?vid=f5a1521a-7e43-4951-9b46-858430fdbb17","ios":"levelo://app?vid=f5a1521a-7e43-4951-9b46-858430fdbb17"},"vehicle_type_id":"4","last_reported":1731199749,"current_range_meters":14000,"station_id":"ce4bgh92rcd13ifvqb50","pricing_plan_id":"cebpf4jnsgd1na2vs0mg"},{"bike_id":"0a11ffea-6ccf-45d5-8ce9-b6dd253b1ff7","system_id":"levelo_inurba_marseille","lat":43.3189,"lon":5.40731,"is_reserved":false,"is_disabled":false,"rental_uris":{"android":"levelo://app?vid=0a11ffea-6ccf-45d5-8ce9-b6dd253b1ff7","ios":"levelo://app?vid=0a11ffea-6ccf-45d5-8ce9-b6dd253b1ff7"},"vehicle_type_id":"4","last_reported":1731199749,"current_range_meters":33600,"station_id":"ce4bhq12rcd13ifvqhig","pricing_plan_id":"cebpf4jnsgd1na2vs0mg"},{"bike_id":"28885fc9-fae5-41f1-9814-07398739cd43","system_id":"levelo_inurba_marseille","lat":43.2894,"lon":5.39619,"is_reserved":false,"is_disabled":false,"rental_uris":{"android":"levelo://app?vid=28885fc9-fae5-41f1-9814-07398739cd43","ios":"levelo://app?vid=28885fc9-fae5-41f1-9814-07398739cd43"},"vehicle_type_id":"4","last_reported":1731199749,"current_range_meters":38800,"station_id":"ce4bh3h2rcd13ifvqdn0","pricing_plan_id":"cebpf4jnsgd1na2vs0mg"},{"bike_id":"109ff5b9-d141-44dc-83ac-6b675282ae43","system_id":"levelo_inurba_marseille","lat":43.29787,"lon":5.38103,"is_reserved":false,"is_disabled":false,"rental_uris":{"android":"levelo://app?vid=109ff5b9-d141-44dc-83ac-6b675282ae43","ios":"levelo://app?vid=109ff5b9-d141-44dc-83ac-6b675282ae43"},"vehicle_type_id":"4","last_reported":1731199749,"current_range_meters":31200,"station_id":"ce4bgip2rcd13ifvqbb0","pricing_plan_id":"cebpf4jnsgd1na2vs0mg"},{"bike_id":"d41fb0f1-e480-4160-8e49-a6b72f7db271","system_id":"levelo_inurba_marseille","lat":43.27941,"lon":5.41049,"is_reserved":false,"is_disabled":false,"rental_uris":{"android":"levelo://app?vid=d41fb0f1-e480-4160-8e49-a6b72f7db271","ios":"levelo://app?vid=d41fb0f1-e480-4160-8e49-a6b72f7db271"},"vehicle_type_id":"4","last_reported":1731199749,"current_range_meters":30000,"station_id":"ce4bhnp2rcd13ifvqh0g","pricing_plan_id":"cebpf4jnsgd1na2vs0mg"},{"bike_id":"7412918f-e852-4734-ac8b-c4b5d62b6217","system_id":"levelo_inurba_marseille","lat":43.31354,"lon":5.385,"is_reserved":false,"is_disabled":false,"rental_uris":{"android":"levelo://app?vid=7412918f-e852-4734-ac8b-c4b5d62b6217","ios":"levelo://app?vid=7412918f-e852-4734-ac8b-c4b5d62b6217"},"vehicle_type_id":"4","last_reported":1731199749,"current_range_meters":18000,"station_id":"ce4bgt92rcd13ifvqcf0","pricing_plan_id":"cebpf4jnsgd1na2vs0mg"},{"bike_id":"2ad361b6-540e-4873-9e5b-6b5de9b52523","system_id":"levelo_inurba_marseille","lat":43.23963,"lon":5.36622,"is_reserved":false,"is_disabled":false,"rental_uris":{"android":"levelo://app?vid=2ad361b6-540e-4873-9e5b-6b5de9b52523","ios":"levelo://app?vid=2ad361b6-540e-4873-9e5b-6b5de9b52523"},"vehicle_type_id":"4","last_reported":1731199749,"current_range_meters":4800,"station_id":"ce4bhi12rcd13ifvqfp0","pricing_plan_id":"cebpf4jnsgd1na2vs0mg"},{"bike_id":"cb9b0141-af3c-4068-925c-38c2867ded80","system_id":"levelo_inurba_marseille","lat":43.27359,"lon":5.36243,"is_reserved":false,"is_disabled":false,"rental_uris":{"android":"levelo://app?vid=cb9b0141-af3c-4068-925c-38c2867ded80","ios":"levelo://app?vid=cb9b0141-af3c-4068-925c-38c2867ded80"},"vehicle_type_id":"4","last_reported":1731199749,"current_range_meters":10000,"station_id":"ce4bhbh2rcd13ifvqeo0","pricing_plan_id":"cebpf4jnsgd1na2vs0mg"},{"bike_id":"3cedd8e9-721e-4740-aeea-d77f0d12e13b","system_id":"levelo_inurba_marseille","lat":43.26497,"lon":5.39546,"is_reserved":false,"is_disabled":false,"rental_uris":{"android":"levelo://app?vid=3cedd8e9-721e-4740-aeea-d77f0d12e13b","ios":"levelo://app?vid=3cedd8e9-721e-4740-aeea-d77f0d12e13b"},"vehicle_type_id":"4","last_reported":1731199749,"current_range_meters":20000,"station_id":"ce4bhi12rcd13ifvqfq0","pricing_plan_id":"cebpf4jnsgd1na2vs0mg"},{"bike_id":"b0d32fd2-ce85-4d93-9b5c-215bd177a1f1","system_id":"levelo_inurba_marseille","lat":43.2737,"lon":5.36255,"is_reserved":false,"is_disabled":false,"rental_uris":{"android":"levelo://app?vid=b0d32fd2-ce85-4d93-9b5c-215bd177a1f1","ios":"levelo://app?vid=b0d32fd2-ce85-4d93-9b5c-215bd177a1f1"},"vehicle_type_id":"4","last_reported":1731199749,"current_range_meters":22000,"station_id":"ce4bhbh2rcd13ifvqeo0","pricing_plan_id":"cebpf4jnsgd1na2vs0mg"},{"bike_id":"869738c5-886c-49b1-a665-cbc6f5e7ba53","system_id":"levelo_inurba_marseille","lat":43.24583,"lon":5.39264,"is_reserved":false,"is_disabled":false,"rental_uris":{"android":"levelo://app?vid=869738c5-886c-49b1-a665-cbc6f5e7ba53","ios":"levelo://app?vid=869738c5-886c-49b1-a665-cbc6f5e7ba53"},"vehicle_type_id":"4","last_reported":1731199749,"current_range_meters":9200,"station_id":"","pricing_plan_id":"cebpf4jnsgd1na2vs0mg"},{"bike_id":"b9478b1d-79e3-44c9-ae60-496dd5151f62","system_id":"levelo_inurba_marseille","lat":43.29165,"lon":5.37142,"is_reserved":false,"is_disabled":false,"rental_uris":{"android":"levelo://app?vid=b9478b1d-79e3-44c9-ae60-496dd5151f62","ios":"levelo://app?vid=b9478b1d-79e3-44c9-ae60-496dd5151f62"},"vehicle_type_id":"4","last_reported":1731199749,"current_range_meters":34800,"station_id":"ce4bha92rcd13ifvqeh0","pricing_plan_id":"cebpf4jnsgd1na2vs0mg"},{"bike_id":"fb6fad82-6f33-40bd-bb2d-d30796a69c48","system_id":"levelo_inurba_marseille","lat":43.25727,"lon":5.41103,"is_reserved":false,"is_disabled":false,"rental_uris":{"android":"levelo://app?vid=fb6fad82-6f33-40bd-bb2d-d30796a69c48","ios":"levelo://app?vid=fb6fad82-6f33-40bd-bb2d-d30796a69c48"},"vehicle_type_id":"4","last_reported":1731199749,"current_range_meters":19200,"station_id":"ce4bhkp2rcd13ifvqgd0","pricing_plan_id":"cebpf4jnsgd1na2vs0mg"},{"bike_id":"4204c697-9142-4d6f-a64b-20f319f8c9a7","system_id":"levelo_inurba_marseille","lat":43.2707,"lon":5.42277,"is_reserved":false,"is_disabled":false,"rental_uris":{"android":"levelo://app?vid=4204c697-9142-4d6f-a64b-20f319f8c9a7","ios":"levelo://app?vid=4204c697-9142-4d6f-a64b-20f319f8c9a7"},"vehicle_type_id":"4","last_reported":1731199749,"current_range_meters":10000,"station_id":"ce4bhk92rcd13ifvqgb0","pricing_plan_id":"cebpf4jnsgd1na2vs0mg"},{"bike_id":"784b2a2a-419a-460b-9e9b-be804f36db5c","system_id":"levelo_inurba_marseille","lat":43.24794,"lon":5.37445,"is_reserved":false,"is_disabled":false,"rental_uris":{"android":"levelo://app?vid=784b2a2a-419a-460b-9e9b-be804f36db5c","ios":"levelo://app?vid=784b2a2a-419a-460b-9e9b-be804f36db5c"},"vehicle_type_id":"4","last_reported":1731199749,"current_range_meters":6000,"station_id":"ce4bhgh2rcd13ifvqfb0","pricing_plan_id":"cebpf4jnsgd1na2vs0mg"},{"bike_id":"099eb452-8c91-42a7-91de-78e125cd1c27","system_id":"levelo_inurba_marseille","lat":43.29569,"lon":5.39977,"is_reserved":false,"is_disabled":false,"rental_uris":{"android":"levelo://app?vid=099eb452-8c91-42a7-91de-78e125cd1c27","ios":"levelo://app?vid=099eb452-8c91-42a7-91de-78e125cd1c27"},"vehicle_type_id":"4","last_reported":1731199749,"current_range_meters":3200,"station_id":"ce4bh312rcd13ifvqdj0","pricing_plan_id":"cebpf4jnsgd1na2vs0mg"},{"bike_id":"5352b2a5-25fd-4e9d-b302-ba55bce24904","system_id":"levelo_inurba_marseille","lat":43.31351,"lon":5.38494,"is_reserved":false,"is_disabled":false,"rental_uris":{"android":"levelo://app?vid=5352b2a5-25fd-4e9d-b302-ba55bce24904","ios":"levelo://app?vid=5352b2a5-25fd-4e9d-b302-ba55bce24904"},"vehicle_type_id":"4","last_reported":1731199749,"current_range_meters":38800,"station_id":"ce4bgt92rcd13ifvqcf0","pricing_plan_id":"cebpf4jnsgd1na2vs0mg"},{"bike_id":"4f8f3d05-77a1-4608-a529-e5ae940296cc","system_id":"levelo_inurba_marseille","lat":43.28927,"lon":5.36632,"is_reserved":false,"is_disabled":false,"rental_uris":{"android":"levelo://app?vid=4f8f3d05-77a1-4608-a529-e5ae940296cc","ios":"levelo://app?vid=4f8f3d05-77a1-4608-a529-e5ae940296cc"},"vehicle_type_id":"4","last_reported":1731199749,"current_range_meters":39200,"station_id":"ce4bhap2rcd13ifvqek0","pricing_plan_id":"cebpf4jnsgd1na2vs0mg"},{"bike_id":"ef356e8e-0769-41da-b1b4-1cc38104ce18","system_id":"levelo_inurba_marseille","lat":43.29896,"lon":5.43669,"is_reserved":false,"is_disabled":false,"rental_uris":{"android":"levelo://app?vid=ef356e8e-0769-41da-b1b4-1cc38104ce18","ios":"levelo://app?vid=ef356e8e-0769-41da-b1b4-1cc38104ce18"},"vehicle_type_id":"4","last_reported":1731199749,"current_range_meters":20400,"station_id":"ce4bhpp2rcd13ifvqhfg","pricing_plan_id":"cebpf4jnsgd1na2vs0mg"},{"bike_id":"3d35a84d-d2e5-4e42-811b-597b89e5e6ed","system_id":"levelo_inurba_marseille","lat":43.28853,"lon":5.35841,"is_reserved":false,"is_disabled":false,"rental_uris":{"android":"levelo://app?vid=3d35a84d-d2e5-4e42-811b-597b89e5e6ed","ios":"levelo://app?vid=3d35a84d-d2e5-4e42-811b-597b89e5e6ed"},"vehicle_type_id":"4","last_reported":1731199749,"current_range_meters":30400,"station_id":"ce4bhb12rcd13ifvqem0","pricing_plan_id":"cebpf4jnsgd1na2vs0mg"},{"bike_id":"aa1f7452-3c8e-4bbd-b352-ac234539263e","system_id":"levelo_inurba_marseille","lat":43.27178,"lon":5.40982,"is_reserved":false,"is_disabled":false,"rental_uris":{"android":"levelo://app?vid=aa1f7452-3c8e-4bbd-b352-ac234539263e","ios":"levelo://app?vid=aa1f7452-3c8e-4bbd-b352-ac234539263e"},"vehicle_type_id":"4","last_reported":1731199749,"current_range_meters":36800,"station_id":"ce4bhl12rcd13ifvqgf0","pricing_plan_id":"cebpf4jnsgd1na2vs0mg"},{"bike_id":"9b3d39b7-4227-43f2-a945-f9a2852d37a4","system_id":"levelo_inurba_marseille","lat":43.25725,"lon":5.41099,"is_reserved":false,"is_disabled":false,"rental_uris":{"android":"levelo://app?vid=9b3d39b7-4227-43f2-a945-f9a2852d37a4","ios":"levelo://app?vid=9b3d39b7-4227-43f2-a945-f9a2852d37a4"},"vehicle_type_id":"4","last_reported":1731199749,"current_range_meters":27600,"station_id":"ce4bhkp2rcd13ifvqgd0","pricing_plan_id":"cebpf4jnsgd1na2vs0mg"},{"bike_id":"281376e1-147e-4d81-b62c-a38cf4533d28","system_id":"levelo_inurba_marseille","lat":43.27676,"lon":5.38883,"is_reserved":false,"is_disabled":false,"rental_uris":{"android":"levelo://app?vid=281376e1-147e-4d81-b62c-a38cf4533d28","ios":"levelo://app?vid=281376e1-147e-4d81-b62c-a38cf4533d28"},"vehicle_type_id":"4","last_reported":1731199749,"current_range_meters":28800,"station_id":"ce4bhi12rcd13ifvqfo0","pricing_plan_id":"cebpf4jnsgd1na2vs0mg"},{"bike_id":"e6dc57cf-44da-4102-9d69-7c7b35161e11","system_id":"levelo_inurba_marseille","lat":43.24167,"lon":5.36394,"is_reserved":false,"is_disabled":false,"rental_uris":{"android":"levelo://app?vid=e6dc57cf-44da-4102-9d69-7c7b35161e11","ios":"levelo://app?vid=e6dc57cf-44da-4102-9d69-7c7b35161e11"},"vehicle_type_id":"4","last_reported":1731199749,"current_range_meters":38000,"station_id":"cpo36qri1sfpv3e86is0","pricing_plan_id":"cebpf4jnsgd1na2vs0mg"},{"bike_id":"ef288286-229d-4b9a-a189-8d61840dcffb","system_id":"levelo_inurba_marseille","lat":43.23193,"lon":5.35548,"is_reserved":false,"is_disabled":false,"rental_uris":{"android":"levelo://app?vid=ef288286-229d-4b9a-a189-8d61840dcffb","ios":"levelo://app?vid=ef288286-229d-4b9a-a189-8d61840dcffb"},"vehicle_type_id":"4","last_reported":1731199749,"current_range_meters":30400,"station_id":"ce4bhu92rcd13ifvqi70","pricing_plan_id":"cebpf4jnsgd1na2vs0mg"},{"bike_id":"19887d72-f836-433f-b350-83e8322b009e","system_id":"levelo_inurba_marseille","lat":43.27314,"lon":5.39085,"is_reserved":false,"is_disabled":false,"rental_uris":{"android":"levelo://app?vid=19887d72-f836-433f-b350-83e8322b009e","ios":"levelo://app?vid=19887d72-f836-433f-b350-83e8322b009e"},"vehicle_type_id":"4","last_reported":1731199749,"current_range_meters":22000,"station_id":"ce4bhgp2rcd13ifvqfe0","pricing_plan_id":"cebpf4jnsgd1na2vs0mg"},{"bike_id":"2ea4cdc0-19ab-4dff-87fb-51569b0ae962","system_id":"levelo_inurba_marseille","lat":43.29026,"lon":5.3755,"is_reserved":false,"is_disabled":false,"rental_uris":{"android":"levelo://app?vid=2ea4cdc0-19ab-4dff-87fb-51569b0ae962","ios":"levelo://app?vid=2ea4cdc0-19ab-4dff-87fb-51569b0ae962"},"vehicle_type_id":"4","last_reported":1731199749,"current_range_meters":30000,"station_id":"ce4bh692rcd13ifvqe90","pricing_plan_id":"cebpf4jnsgd1na2vs0mg"},{"bike_id":"ac90a180-dc22-4584-8f31-6d740d02c25d","system_id":"levelo_inurba_marseille","lat":43.30132,"lon":5.39862,"is_reserved":false,"is_disabled":false,"rental_uris":{"android":"levelo://app?vid=ac90a180-dc22-4584-8f31-6d740d02c25d","ios":"levelo://app?vid=ac90a180-dc22-4584-8f31-6d740d02c25d"},"vehicle_type_id":"4","last_reported":1731199749,"current_range_meters":6800,"station_id":"ce4bh0h2rcd13ifvqd40","pricing_plan_id":"cebpf4jnsgd1na2vs0mg"},{"bike_id":"27c7f1fe-a965-4360-8b02-b0693a82b5bc","system_id":"levelo_inurba_marseille","lat":43.28926,"lon":5.38403,"is_reserved":false,"is_disabled":false,"rental_uris":{"android":"levelo://app?vid=27c7f1fe-a965-4360-8b02-b0693a82b5bc","ios":"levelo://app?vid=27c7f1fe-a965-4360-8b02-b0693a82b5bc"},"vehicle_type_id":"4","last_reported":1731199749,"current_range_meters":37600,"station_id":"ce4bh612rcd13ifvqe6g","pricing_plan_id":"cebpf4jnsgd1na2vs0mg"},{"bike_id":"9b0fb1a0-7e01-421f-ac3b-6f547e117032","system_id":"levelo_inurba_marseille","lat":43.28699,"lon":5.39979,"is_reserved":false,"is_disabled":false,"rental_uris":{"android":"levelo://app?vid=9b0fb1a0-7e01-421f-ac3b-6f547e117032","ios":"levelo://app?vid=9b0fb1a0-7e01-421f-ac3b-6f547e117032"},"vehicle_type_id":"4","last_reported":1731199749,"current_range_meters":4800,"station_id":"ce4bho92rcd13ifvqh3g","pricing_plan_id":"cebpf4jnsgd1na2vs0mg"},{"bike_id":"f7259474-edd7-4bc5-baba-5ffb7665f7cf","system_id":"levelo_inurba_marseille","lat":43.29227,"lon":5.36068,"is_reserved":false,"is_disabled":false,"rental_uris":{"android":"levelo://app?vid=f7259474-edd7-4bc5-baba-5ffb7665f7cf","ios":"levelo://app?vid=f7259474-edd7-4bc5-baba-5ffb7665f7cf"},"vehicle_type_id":"4","last_reported":1731199749,"current_range_meters":20400,"station_id":"ce4bhbh2rcd13ifvqeqg","pricing_plan_id":"cebpf4jnsgd1na2vs0mg"},{"bike_id":"7f7f84af-ffe9-47cf-b789-c7ea2ca5b7eb","system_id":"levelo_inurba_marseille","lat":43.29253,"lon":5.40901,"is_reserved":false,"is_disabled":false,"rental_uris":{"android":"levelo://app?vid=7f7f84af-ffe9-47cf-b789-c7ea2ca5b7eb","ios":"levelo://app?vid=7f7f84af-ffe9-47cf-b789-c7ea2ca5b7eb"},"vehicle_type_id":"4","last_reported":1731199749,"current_range_meters":34800,"station_id":"ce4bh192rcd13ifvqdc0","pricing_plan_id":"cebpf4jnsgd1na2vs0mg"},{"bike_id":"50dbf5a8-127a-4b83-8559-ce30ebb77bae","system_id":"levelo_inurba_marseille","lat":43.25089,"lon":5.39528,"is_reserved":false,"is_disabled":false,"rental_uris":{"android":"levelo://app?vid=50dbf5a8-127a-4b83-8559-ce30ebb77bae","ios":"levelo://app?vid=50dbf5a8-127a-4b83-8559-ce30ebb77bae"},"vehicle_type_id":"4","last_reported":1731199749,"current_range_meters":38800,"station_id":"ce4bhm12rcd13ifvqgkg","pricing_plan_id":"cebpf4jnsgd1na2vs0mg"},{"bike_id":"81d75b94-235f-4d66-95b8-a1c86584fb9a","system_id":"levelo_inurba_marseille","lat":43.29855,"lon":5.36282,"is_reserved":false,"is_disabled":false,"rental_uris":{"android":"levelo://app?vid=81d75b94-235f-4d66-95b8-a1c86584fb9a","ios":"levelo://app?vid=81d75b94-235f-4d66-95b8-a1c86584fb9a"},"vehicle_type_id":"4","last_reported":1731199749,"current_range_meters":10800,"station_id":"ce4bgpp2rcd13ifvqc3g","pricing_plan_id":"cebpf4jnsgd1na2vs0mg"},{"bike_id":"b01d7fc4-44eb-4965-9f4e-710d757215f2","system_id":"levelo_inurba_marseille","lat":43.295166,"lon":5.390372,"is_reserved":false,"is_disabled":false,"rental_uris":{"android":"levelo://app?vid=b01d7fc4-44eb-4965-9f4e-710d757215f2","ios":"levelo://app?vid=b01d7fc4-44eb-4965-9f4e-710d757215f2"},"vehicle_type_id":"4","last_reported":1731199749,"current_range_meters":38800,"station_id":"ce4bh5p2rcd13ifvqe4g","pricing_plan_id":"cebpf4jnsgd1na2vs0mg"},{"bike_id":"09c9cff7-1ba3-4283-b4d2-416023d9c0d5","system_id":"levelo_inurba_marseille","lat":43.27208,"lon":5.39185,"is_reserved":false,"is_disabled":false,"rental_uris":{"android":"levelo://app?vid=09c9cff7-1ba3-4283-b4d2-416023d9c0d5","ios":"levelo://app?vid=09c9cff7-1ba3-4283-b4d2-416023d9c0d5"},"vehicle_type_id":"4","last_reported":1731199749,"current_range_meters":16400,"station_id":"ce4bhhp2rcd13ifvqfm0","pricing_plan_id":"cebpf4jnsgd1na2vs0mg"},{"bike_id":"8aaadb4c-3f17-44f1-8d16-964059d064e7","system_id":"levelo_inurba_marseille","lat":43.28479,"lon":5.38419,"is_reserved":false,"is_disabled":false,"rental_uris":{"android":"levelo://app?vid=8aaadb4c-3f17-44f1-8d16-964059d064e7","ios":"levelo://app?vid=8aaadb4c-3f17-44f1-8d16-964059d064e7"},"vehicle_type_id":"4","last_reported":1731199749,"current_range_meters":29600,"station_id":"ce4bh512rcd13ifvqe3g","pricing_plan_id":"cebpf4jnsgd1na2vs0mg"},{"bike_id":"f0730e13-11c4-4020-956a-ca204d2dd6c0","system_id":"levelo_inurba_marseille","lat":43.29557,"lon":5.42296,"is_reserved":false,"is_disabled":false,"rental_uris":{"android":"levelo://app?vid=f0730e13-11c4-4020-956a-ca204d2dd6c0","ios":"levelo://app?vid=f0730e13-11c4-4020-956a-ca204d2dd6c0"},"vehicle_type_id":"4","last_reported":1731199749,"current_range_meters":19600,"station_id":"ce4bhph2rcd13ifvqhdg","pricing_plan_id":"cebpf4jnsgd1na2vs0mg"},{"bike_id":"da169ceb-ae56-419a-8329-1caa20980f29","system_id":"levelo_inurba_marseille","lat":43.25823,"lon":5.39426,"is_reserved":false,"is_disabled":false,"rental_uris":{"android":"levelo://app?vid=da169ceb-ae56-419a-8329-1caa20980f29","ios":"levelo://app?vid=da169ceb-ae56-419a-8329-1caa20980f29"},"vehicle_type_id":"4","last_reported":1731199749,"current_range_meters":27200,"station_id":"ce4bhip2rcd13ifvqft0","pricing_plan_id":"cebpf4jnsgd1na2vs0mg"},{"bike_id":"7dd58fa2-256b-4976-9ccd-79d00d13c0e3","system_id":"levelo_inurba_marseille","lat":43.28074,"lon":5.39649,"is_reserved":false,"is_disabled":false,"rental_uris":{"android":"levelo://app?vid=7dd58fa2-256b-4976-9ccd-79d00d13c0e3","ios":"levelo://app?vid=7dd58fa2-256b-4976-9ccd-79d00d13c0e3"},"vehicle_type_id":"4","last_reported":1731199749,"current_range_meters":40000,"station_id":"ce4bho12rcd13ifvqh2g","pricing_plan_id":"cebpf4jnsgd1na2vs0mg"},{"bike_id":"acfc4c88-f0d5-497e-86c1-c566b23c1747","system_id":"levelo_inurba_marseille","lat":43.24808,"lon":5.37457,"is_reserved":false,"is_disabled":false,"rental_uris":{"android":"levelo://app?vid=acfc4c88-f0d5-497e-86c1-c566b23c1747","ios":"levelo://app?vid=acfc4c88-f0d5-497e-86c1-c566b23c1747"},"vehicle_type_id":"4","last_reported":1731199749,"current_range_meters":5600,"station_id":"ce4bhgh2rcd13ifvqfb0","pricing_plan_id":"cebpf4jnsgd1na2vs0mg"},{"bike_id":"d8b069df-29e1-4273-99b0-c9104446d9c3","system_id":"levelo_inurba_marseille","lat":43.23191,"lon":5.3556,"is_reserved":false,"is_disabled":false,"rental_uris":{"android":"levelo://app?vid=d8b069df-29e1-4273-99b0-c9104446d9c3","ios":"levelo://app?vid=d8b069df-29e1-4273-99b0-c9104446d9c3"},"vehicle_type_id":"4","last_reported":1731199749,"current_range_meters":8000,"station_id":"ce4bhu92rcd13ifvqi70","pricing_plan_id":"cebpf4jnsgd1na2vs0mg"},{"bike_id":"7bb5871f-cc9d-417c-af00-3f2a72d466bc","system_id":"levelo_inurba_marseille","lat":43.30801,"lon":5.38154,"is_reserved":false,"is_disabled":false,"rental_uris":{"android":"levelo://app?vid=7bb5871f-cc9d-417c-af00-3f2a72d466bc","ios":"levelo://app?vid=7bb5871f-cc9d-417c-af00-3f2a72d466bc"},"vehicle_type_id":"4","last_reported":1731199749,"current_range_meters":38800,"station_id":"ce4bgt12rcd13ifvqce0","pricing_plan_id":"cebpf4jnsgd1na2vs0mg"},{"bike_id":"aed49dd4-304d-4222-a024-c67cec1bcce7","system_id":"levelo_inurba_marseille","lat":43.25717,"lon":5.41103,"is_reserved":false,"is_disabled":false,"rental_uris":{"android":"levelo://app?vid=aed49dd4-304d-4222-a024-c67cec1bcce7","ios":"levelo://app?vid=aed49dd4-304d-4222-a024-c67cec1bcce7"},"vehicle_type_id":"4","last_reported":1731199749,"current_range_meters":38800,"station_id":"ce4bhkp2rcd13ifvqgd0","pricing_plan_id":"cebpf4jnsgd1na2vs0mg"},{"bike_id":"7a80c00b-adb0-4ce4-9713-34aec0a8ead8","system_id":"levelo_inurba_marseille","lat":43.26561,"lon":5.38998,"is_reserved":false,"is_disabled":false,"rental_uris":{"android":"levelo://app?vid=7a80c00b-adb0-4ce4-9713-34aec0a8ead8","ios":"levelo://app?vid=7a80c00b-adb0-4ce4-9713-34aec0a8ead8"},"vehicle_type_id":"4","last_reported":1731199749,"current_range_meters":11200,"station_id":"ce4bhe12rcd13ifvqf30","pricing_plan_id":"cebpf4jnsgd1na2vs0mg"},{"bike_id":"fbbe362b-7b29-4c8f-b506-484f07761f02","system_id":"levelo_inurba_marseille","lat":43.29914,"lon":5.37444,"is_reserved":false,"is_disabled":false,"rental_uris":{"android":"levelo://app?vid=fbbe362b-7b29-4c8f-b506-484f07761f02","ios":"levelo://app?vid=fbbe362b-7b29-4c8f-b506-484f07761f02"},"vehicle_type_id":"4","last_reported":1731199749,"current_range_meters":37600,"station_id":"ce4bgjh2rcd13ifvqbg0","pricing_plan_id":"cebpf4jnsgd1na2vs0mg"},{"bike_id":"018a5969-48d6-493e-abbb-cd5d32841d3f","system_id":"levelo_inurba_marseille","lat":43.28261,"lon":5.35058,"is_reserved":false,"is_disabled":false,"rental_uris":{"android":"levelo://app?vid=018a5969-48d6-493e-abbb-cd5d32841d3f","ios":"levelo://app?vid=018a5969-48d6-493e-abbb-cd5d32841d3f"},"vehicle_type_id":"4","last_reported":1731199749,"current_range_meters":38400,"station_id":"ce4bhbp2rcd13ifvqerg","pricing_plan_id":"cebpf4jnsgd1na2vs0mg"},{"bike_id":"dcd709ed-79d9-41fc-9445-9918e3f66a59","system_id":"levelo_inurba_marseille","lat":43.30594,"lon":5.37214,"is_reserved":false,"is_disabled":false,"rental_uris":{"android":"levelo://app?vid=dcd709ed-79d9-41fc-9445-9918e3f66a59","ios":"levelo://app?vid=dcd709ed-79d9-41fc-9445-9918e3f66a59"},"vehicle_type_id":"4","last_reported":1731199749,"current_range_meters":38400,"station_id":"ce4bgqh2rcd13ifvqc4g","pricing_plan_id":"cebpf4jnsgd1na2vs0mg"},{"bike_id":"cac8bcd2-dfdf-4af2-875a-999ea9ac81ea","system_id":"levelo_inurba_marseille","lat":43.29172,"lon":5.37146,"is_reserved":false,"is_disabled":false,"rental_uris":{"android":"levelo://app?vid=cac8bcd2-dfdf-4af2-875a-999ea9ac81ea","ios":"levelo://app?vid=cac8bcd2-dfdf-4af2-875a-999ea9ac81ea"},"vehicle_type_id":"4","last_reported":1731199749,"current_range_meters":38800,"station_id":"ce4bha92rcd13ifvqeh0","pricing_plan_id":"cebpf4jnsgd1na2vs0mg"},{"bike_id":"f9aeacdd-bf01-432f-bf4e-03e65cef4bbd","system_id":"levelo_inurba_marseille","lat":43.29552,"lon":5.42284,"is_reserved":false,"is_disabled":false,"rental_uris":{"android":"levelo://app?vid=f9aeacdd-bf01-432f-bf4e-03e65cef4bbd","ios":"levelo://app?vid=f9aeacdd-bf01-432f-bf4e-03e65cef4bbd"},"vehicle_type_id":"4","last_reported":1731199749,"current_range_meters":39200,"station_id":"ce4bhph2rcd13ifvqhdg","pricing_plan_id":"cebpf4jnsgd1na2vs0mg"},{"bike_id":"c57a525c-f071-4533-b30f-a7e0981a7452","system_id":"levelo_inurba_marseille","lat":43.31385,"lon":5.385,"is_reserved":false,"is_disabled":false,"rental_uris":{"android":"levelo://app?vid=c57a525c-f071-4533-b30f-a7e0981a7452","ios":"levelo://app?vid=c57a525c-f071-4533-b30f-a7e0981a7452"},"vehicle_type_id":"4","last_reported":1731199749,"current_range_meters":37600,"station_id":"ce4bgt92rcd13ifvqcf0","pricing_plan_id":"cebpf4jnsgd1na2vs0mg"},{"bike_id":"037ae61b-1599-46be-a4c0-8490f0e128bc","system_id":"levelo_inurba_marseille","lat":43.30421,"lon":5.39747,"is_reserved":false,"is_disabled":false,"rental_uris":{"android":"levelo://app?vid=037ae61b-1599-46be-a4c0-8490f0e128bc","ios":"levelo://app?vid=037ae61b-1599-46be-a4c0-8490f0e128bc"},"vehicle_type_id":"4","last_reported":1731199749,"current_range_meters":30800,"station_id":"ce4bh092rcd13ifvqd20","pricing_plan_id":"cebpf4jnsgd1na2vs0mg"},{"bike_id":"cfce580b-5f0b-4f3e-850b-bda83bbf1dbc","system_id":"levelo_inurba_marseille","lat":43.27955,"lon":5.41048,"is_reserved":false,"is_disabled":false,"rental_uris":{"android":"levelo://app?vid=cfce580b-5f0b-4f3e-850b-bda83bbf1dbc","ios":"levelo://app?vid=cfce580b-5f0b-4f3e-850b-bda83bbf1dbc"},"vehicle_type_id":"4","last_reported":1731199749,"current_range_meters":8400,"station_id":"ce4bhnp2rcd13ifvqh0g","pricing_plan_id":"cebpf4jnsgd1na2vs0mg"},{"bike_id":"995aecd1-b4f2-408a-87e9-a93fa136c6f6","system_id":"levelo_inurba_marseille","lat":43.2867,"lon":5.38662,"is_reserved":false,"is_disabled":false,"rental_uris":{"android":"levelo://app?vid=995aecd1-b4f2-408a-87e9-a93fa136c6f6","ios":"levelo://app?vid=995aecd1-b4f2-408a-87e9-a93fa136c6f6"},"vehicle_type_id":"4","last_reported":1731199749,"current_range_meters":38000,"station_id":"ce4bh492rcd13ifvqdug","pricing_plan_id":"cebpf4jnsgd1na2vs0mg"},{"bike_id":"b6cc784d-7246-4aad-a56b-95e685683567","system_id":"levelo_inurba_marseille","lat":43.28107,"lon":5.37832,"is_reserved":false,"is_disabled":false,"rental_uris":{"android":"levelo://app?vid=b6cc784d-7246-4aad-a56b-95e685683567","ios":"levelo://app?vid=b6cc784d-7246-4aad-a56b-95e685683567"},"vehicle_type_id":"4","last_reported":1731199749,"current_range_meters":34800,"station_id":"ce4bha12rcd13ifvqee0","pricing_plan_id":"cebpf4jnsgd1na2vs0mg"},{"bike_id":"0e9f5ce2-26d1-4491-8a8e-2ea326b02441","system_id":"levelo_inurba_marseille","lat":43.292014,"lon":5.393296,"is_reserved":false,"is_disabled":false,"rental_uris":{"android":"levelo://app?vid=0e9f5ce2-26d1-4491-8a8e-2ea326b02441","ios":"levelo://app?vid=0e9f5ce2-26d1-4491-8a8e-2ea326b02441"},"vehicle_type_id":"4","last_reported":1731199749,"current_range_meters":34800,"station_id":"ce4bh192rcd13ifvqdd0","pricing_plan_id":"cebpf4jnsgd1na2vs0mg"},{"bike_id":"5276d4e8-4a19-46d6-b89e-7c204f4f8615","system_id":"levelo_inurba_marseille","lat":43.266163,"lon":5.390416,"is_reserved":false,"is_disabled":false,"rental_uris":{"android":"levelo://app?vid=5276d4e8-4a19-46d6-b89e-7c204f4f8615","ios":"levelo://app?vid=5276d4e8-4a19-46d6-b89e-7c204f4f8615"},"vehicle_type_id":"4","last_reported":1731199749,"current_range_meters":38000,"station_id":"ce4bhh12rcd13ifvqfg0","pricing_plan_id":"cebpf4jnsgd1na2vs0mg"},{"bike_id":"3cd036b1-82b2-4728-9c4f-a57fb25f0cb6","system_id":"levelo_inurba_marseille","lat":43.24078,"lon":5.37754,"is_reserved":false,"is_disabled":false,"rental_uris":{"android":"levelo://app?vid=3cd036b1-82b2-4728-9c4f-a57fb25f0cb6","ios":"levelo://app?vid=3cd036b1-82b2-4728-9c4f-a57fb25f0cb6"},"vehicle_type_id":"4","last_reported":1731199749,"current_range_meters":9200,"station_id":"ce4bhnp2rcd13ifvqgvg","pricing_plan_id":"cebpf4jnsgd1na2vs0mg"},{"bike_id":"4ee176aa-62ce-43ff-965b-8f612d211053","system_id":"levelo_inurba_marseille","lat":43.30325,"lon":5.40435,"is_reserved":false,"is_disabled":false,"rental_uris":{"android":"levelo://app?vid=4ee176aa-62ce-43ff-965b-8f612d211053","ios":"levelo://app?vid=4ee176aa-62ce-43ff-965b-8f612d211053"},"vehicle_type_id":"4","last_reported":1731199749,"current_range_meters":26000,"station_id":"ce4bh012rcd13ifvqd10","pricing_plan_id":"cebpf4jnsgd1na2vs0mg"},{"bike_id":"1f72dfe9-3d53-4420-8aeb-30b7325a8507","system_id":"levelo_inurba_marseille","lat":43.33608,"lon":5.41031,"is_reserved":false,"is_disabled":false,"rental_uris":{"android":"levelo://app?vid=1f72dfe9-3d53-4420-8aeb-30b7325a8507","ios":"levelo://app?vid=1f72dfe9-3d53-4420-8aeb-30b7325a8507"},"vehicle_type_id":"4","last_reported":1731199749,"current_range_meters":26000,"station_id":"ce4bhqh2rcd13ifvqhmg","pricing_plan_id":"cebpf4jnsgd1na2vs0mg"},{"bike_id":"10e6df93-8a30-4a80-82ae-a340ec8e5dcc","system_id":"levelo_inurba_marseille","lat":43.27997,"lon":5.40007,"is_reserved":false,"is_disabled":false,"rental_uris":{"android":"levelo://app?vid=10e6df93-8a30-4a80-82ae-a340ec8e5dcc","ios":"levelo://app?vid=10e6df93-8a30-4a80-82ae-a340ec8e5dcc"},"vehicle_type_id":"4","last_reported":1731199749,"current_range_meters":27200,"station_id":"ce4bho92rcd13ifvqh4g","pricing_plan_id":"cebpf4jnsgd1na2vs0mg"},{"bike_id":"13b4a197-6831-4b68-9981-da5dcf4350fa","system_id":"levelo_inurba_marseille","lat":43.28702,"lon":5.39977,"is_reserved":false,"is_disabled":false,"rental_uris":{"android":"levelo://app?vid=13b4a197-6831-4b68-9981-da5dcf4350fa","ios":"levelo://app?vid=13b4a197-6831-4b68-9981-da5dcf4350fa"},"vehicle_type_id":"4","last_reported":1731199749,"current_range_meters":2800,"station_id":"ce4bho92rcd13ifvqh3g","pricing_plan_id":"cebpf4jnsgd1na2vs0mg"},{"bike_id":"297f033e-87da-4632-8152-550bc3bd6546","system_id":"levelo_inurba_marseille","lat":43.24807,"lon":5.37453,"is_reserved":false,"is_disabled":false,"rental_uris":{"android":"levelo://app?vid=297f033e-87da-4632-8152-550bc3bd6546","ios":"levelo://app?vid=297f033e-87da-4632-8152-550bc3bd6546"},"vehicle_type_id":"4","last_reported":1731199749,"current_range_meters":40000,"station_id":"ce4bhgh2rcd13ifvqfb0","pricing_plan_id":"cebpf4jnsgd1na2vs0mg"},{"bike_id":"2e31e025-be53-461c-b785-4a93a2965a1e","system_id":"levelo_inurba_marseille","lat":43.28858,"lon":5.39304,"is_reserved":false,"is_disabled":false,"rental_uris":{"android":"levelo://app?vid=2e31e025-be53-461c-b785-4a93a2965a1e","ios":"levelo://app?vid=2e31e025-be53-461c-b785-4a93a2965a1e"},"vehicle_type_id":"4","last_reported":1731199749,"current_range_meters":38800,"station_id":"ce4bh2p2rcd13ifvqdi0","pricing_plan_id":"cebpf4jnsgd1na2vs0mg"},{"bike_id":"2c085216-e118-4d2f-b289-0c7e4a4fe1d0","system_id":"levelo_inurba_marseille","lat":43.31279,"lon":5.40168,"is_reserved":false,"is_disabled":false,"rental_uris":{"android":"levelo://app?vid=2c085216-e118-4d2f-b289-0c7e4a4fe1d0","ios":"levelo://app?vid=2c085216-e118-4d2f-b289-0c7e4a4fe1d0"},"vehicle_type_id":"4","last_reported":1731199749,"current_range_meters":38800,"station_id":"ce4bh092rcd13ifvqd30","pricing_plan_id":"cebpf4jnsgd1na2vs0mg"},{"bike_id":"26b19a86-03b6-439d-a286-d17362989328","system_id":"levelo_inurba_marseille","lat":43.28,"lon":5.40016,"is_reserved":false,"is_disabled":false,"rental_uris":{"android":"levelo://app?vid=26b19a86-03b6-439d-a286-d17362989328","ios":"levelo://app?vid=26b19a86-03b6-439d-a286-d17362989328"},"vehicle_type_id":"4","last_reported":1731199749,"current_range_meters":24800,"station_id":"ce4bho92rcd13ifvqh4g","pricing_plan_id":"cebpf4jnsgd1na2vs0mg"},{"bike_id":"8ef26954-9ad2-4b20-8d64-fa139e02bca1","system_id":"levelo_inurba_marseille","lat":43.3136,"lon":5.36691,"is_reserved":false,"is_disabled":false,"rental_uris":{"android":"levelo://app?vid=8ef26954-9ad2-4b20-8d64-fa139e02bca1","ios":"levelo://app?vid=8ef26954-9ad2-4b20-8d64-fa139e02bca1"},"vehicle_type_id":"4","last_reported":1731199749,"current_range_meters":29600,"station_id":"ce4bgr92rcd13ifvqc6g","pricing_plan_id":"cebpf4jnsgd1na2vs0mg"},{"bike_id":"6aae269e-8155-4150-9733-cd5c5482b6df","system_id":"levelo_inurba_marseille","lat":43.28463,"lon":5.35884,"is_reserved":false,"is_disabled":false,"rental_uris":{"android":"levelo://app?vid=6aae269e-8155-4150-9733-cd5c5482b6df","ios":"levelo://app?vid=6aae269e-8155-4150-9733-cd5c5482b6df"},"vehicle_type_id":"4","last_reported":1731199749,"current_range_meters":26800,"station_id":"ce4bhah2rcd13ifvqei0","pricing_plan_id":"cebpf4jnsgd1na2vs0mg"},{"bike_id":"046683b0-3026-49cc-ba6a-fff965a0393e","system_id":"levelo_inurba_marseille","lat":43.24073,"lon":5.37756,"is_reserved":false,"is_disabled":false,"rental_uris":{"android":"levelo://app?vid=046683b0-3026-49cc-ba6a-fff965a0393e","ios":"levelo://app?vid=046683b0-3026-49cc-ba6a-fff965a0393e"},"vehicle_type_id":"4","last_reported":1731199749,"current_range_meters":19600,"station_id":"ce4bhnp2rcd13ifvqgvg","pricing_plan_id":"cebpf4jnsgd1na2vs0mg"},{"bike_id":"652d69a3-691f-4e91-8a32-748c211d8f0c","system_id":"levelo_inurba_marseille","lat":43.293762,"lon":5.378456,"is_reserved":false,"is_disabled":false,"rental_uris":{"android":"levelo://app?vid=652d69a3-691f-4e91-8a32-748c211d8f0c","ios":"levelo://app?vid=652d69a3-691f-4e91-8a32-748c211d8f0c"},"vehicle_type_id":"4","last_reported":1731199749,"current_range_meters":38800,"station_id":"ce4bgjh2rcd13ifvqbf0","pricing_plan_id":"cebpf4jnsgd1na2vs0mg"},{"bike_id":"dcf6845c-2214-41f7-b152-0b5ecc060131","system_id":"levelo_inurba_marseille","lat":43.29439,"lon":5.39749,"is_reserved":false,"is_disabled":false,"rental_uris":{"android":"levelo://app?vid=dcf6845c-2214-41f7-b152-0b5ecc060131","ios":"levelo://app?vid=dcf6845c-2214-41f7-b152-0b5ecc060131"},"vehicle_type_id":"4","last_reported":1731199749,"current_range_meters":20800,"station_id":"ce4bh3h2rcd13ifvqdo0","pricing_plan_id":"cebpf4jnsgd1na2vs0mg"},{"bike_id":"0a64ed50-8cfc-463a-acb6-61f6f9203091","system_id":"levelo_inurba_marseille","lat":43.29899,"lon":5.43667,"is_reserved":false,"is_disabled":false,"rental_uris":{"android":"levelo://app?vid=0a64ed50-8cfc-463a-acb6-61f6f9203091","ios":"levelo://app?vid=0a64ed50-8cfc-463a-acb6-61f6f9203091"},"vehicle_type_id":"4","last_reported":1731199749,"current_range_meters":30800,"station_id":"ce4bhpp2rcd13ifvqhfg","pricing_plan_id":"cebpf4jnsgd1na2vs0mg"},{"bike_id":"96aef8c1-f007-442e-b872-036e6f6c58ad","system_id":"levelo_inurba_marseille","lat":43.31763,"lon":5.3901,"is_reserved":false,"is_disabled":false,"rental_uris":{"android":"levelo://app?vid=96aef8c1-f007-442e-b872-036e6f6c58ad","ios":"levelo://app?vid=96aef8c1-f007-442e-b872-036e6f6c58ad"},"vehicle_type_id":"4","last_reported":1731199749,"current_range_meters":38800,"station_id":"ce4bhqp2rcd13ifvqhng","pricing_plan_id":"cebpf4jnsgd1na2vs0mg"},{"bike_id":"a3bbae90-eb29-4f42-adee-aa56b5ba422b","system_id":"levelo_inurba_marseille","lat":43.30353,"lon":5.4187,"is_reserved":false,"is_disabled":false,"rental_uris":{"android":"levelo://app?vid=a3bbae90-eb29-4f42-adee-aa56b5ba422b","ios":"levelo://app?vid=a3bbae90-eb29-4f42-adee-aa56b5ba422b"},"vehicle_type_id":"4","last_reported":1731199749,"current_range_meters":28400,"station_id":"ce4bhop2rcd13ifvqh7g","pricing_plan_id":"cebpf4jnsgd1na2vs0mg"},{"bike_id":"134ce1ce-579d-4d82-bde6-b146c0c11c11","system_id":"levelo_inurba_marseille","lat":43.29894,"lon":5.43671,"is_reserved":false,"is_disabled":false,"rental_uris":{"android":"levelo://app?vid=134ce1ce-579d-4d82-bde6-b146c0c11c11","ios":"levelo://app?vid=134ce1ce-579d-4d82-bde6-b146c0c11c11"},"vehicle_type_id":"4","last_reported":1731199749,"current_range_meters":6000,"station_id":"ce4bhpp2rcd13ifvqhfg","pricing_plan_id":"cebpf4jnsgd1na2vs0mg"},{"bike_id":"901d0e1b-e30d-4036-b73c-cb7c4fb9a461","system_id":"levelo_inurba_marseille","lat":43.27913,"lon":5.39583,"is_reserved":false,"is_disabled":false,"rental_uris":{"android":"levelo://app?vid=901d0e1b-e30d-4036-b73c-cb7c4fb9a461","ios":"levelo://app?vid=901d0e1b-e30d-4036-b73c-cb7c4fb9a461"},"vehicle_type_id":"4","last_reported":1731199749,"current_range_meters":8400,"station_id":"ce4bhf92rcd13ifvqf40","pricing_plan_id":"cebpf4jnsgd1na2vs0mg"},{"bike_id":"74a41359-ed80-4cd3-85be-bd7b0ea67a0d","system_id":"levelo_inurba_marseille","lat":43.31536,"lon":5.38028,"is_reserved":false,"is_disabled":false,"rental_uris":{"android":"levelo://app?vid=74a41359-ed80-4cd3-85be-bd7b0ea67a0d","ios":"levelo://app?vid=74a41359-ed80-4cd3-85be-bd7b0ea67a0d"},"vehicle_type_id":"4","last_reported":1731199749,"current_range_meters":20800,"station_id":"ce4bhsp2rcd13ifvqi50","pricing_plan_id":"cebpf4jnsgd1na2vs0mg"},{"bike_id":"68b903df-b6b4-4eea-a59c-f17d49778932","system_id":"levelo_inurba_marseille","lat":43.28724,"lon":5.36079,"is_reserved":false,"is_disabled":false,"rental_uris":{"android":"levelo://app?vid=68b903df-b6b4-4eea-a59c-f17d49778932","ios":"levelo://app?vid=68b903df-b6b4-4eea-a59c-f17d49778932"},"vehicle_type_id":"4","last_reported":1731199749,"current_range_meters":29600,"station_id":"cki0cbj6b192h4jlfktg","pricing_plan_id":"cebpf4jnsgd1na2vs0mg"},{"bike_id":"181fa628-fd06-4339-88f4-5d411c857699","system_id":"levelo_inurba_marseille","lat":43.27073,"lon":5.42281,"is_reserved":false,"is_disabled":false,"rental_uris":{"android":"levelo://app?vid=181fa628-fd06-4339-88f4-5d411c857699","ios":"levelo://app?vid=181fa628-fd06-4339-88f4-5d411c857699"},"vehicle_type_id":"4","last_reported":1731199749,"current_range_meters":11200,"station_id":"ce4bhk92rcd13ifvqgb0","pricing_plan_id":"cebpf4jnsgd1na2vs0mg"},{"bike_id":"d9a5da0a-59f7-40f5-8e63-d8883b3e81f7","system_id":"levelo_inurba_marseille","lat":43.28698,"lon":5.37393,"is_reserved":false,"is_disabled":false,"rental_uris":{"android":"levelo://app?vid=d9a5da0a-59f7-40f5-8e63-d8883b3e81f7","ios":"levelo://app?vid=d9a5da0a-59f7-40f5-8e63-d8883b3e81f7"},"vehicle_type_id":"4","last_reported":1731199749,"current_range_meters":36000,"station_id":"ce4bh3p2rcd13ifvqdq0","pricing_plan_id":"cebpf4jnsgd1na2vs0mg"},{"bike_id":"7ad1fcfb-dbad-4f2f-94e3-26a08d9ba442","system_id":"levelo_inurba_marseille","lat":43.279913,"lon":5.416621,"is_reserved":false,"is_disabled":false,"rental_uris":{"android":"levelo://app?vid=7ad1fcfb-dbad-4f2f-94e3-26a08d9ba442","ios":"levelo://app?vid=7ad1fcfb-dbad-4f2f-94e3-26a08d9ba442"},"vehicle_type_id":"4","last_reported":1731199749,"current_range_meters":27600,"station_id":"ce4bho12rcd13ifvqh1g","pricing_plan_id":"cebpf4jnsgd1na2vs0mg"},{"bike_id":"64f1e304-55fc-4bb7-bb27-4faaf7cf65c1","system_id":"levelo_inurba_marseille","lat":43.2754,"lon":5.40921,"is_reserved":false,"is_disabled":false,"rental_uris":{"android":"levelo://app?vid=64f1e304-55fc-4bb7-bb27-4faaf7cf65c1","ios":"levelo://app?vid=64f1e304-55fc-4bb7-bb27-4faaf7cf65c1"},"vehicle_type_id":"4","last_reported":1731199749,"current_range_meters":8400,"station_id":"","pricing_plan_id":"cebpf4jnsgd1na2vs0mg"},{"bike_id":"ead40d64-e809-4f11-bc15-a09dd07af041","system_id":"levelo_inurba_marseille","lat":43.23965,"lon":5.36627,"is_reserved":false,"is_disabled":false,"rental_uris":{"android":"levelo://app?vid=ead40d64-e809-4f11-bc15-a09dd07af041","ios":"levelo://app?vid=ead40d64-e809-4f11-bc15-a09dd07af041"},"vehicle_type_id":"4","last_reported":1731199749,"current_range_meters":36400,"station_id":"ce4bhi12rcd13ifvqfp0","pricing_plan_id":"cebpf4jnsgd1na2vs0mg"},{"bike_id":"8f1c1ae5-ef93-4ad5-b8de-8fc22bdaac98","system_id":"levelo_inurba_marseille","lat":43.28461,"lon":5.35876,"is_reserved":false,"is_disabled":false,"rental_uris":{"android":"levelo://app?vid=8f1c1ae5-ef93-4ad5-b8de-8fc22bdaac98","ios":"levelo://app?vid=8f1c1ae5-ef93-4ad5-b8de-8fc22bdaac98"},"vehicle_type_id":"4","last_reported":1731199749,"current_range_meters":12800,"station_id":"ce4bhah2rcd13ifvqei0","pricing_plan_id":"cebpf4jnsgd1na2vs0mg"},{"bike_id":"607664c8-a97e-430d-bd73-4898f4cdc580","system_id":"levelo_inurba_marseille","lat":43.33026,"lon":5.39036,"is_reserved":false,"is_disabled":false,"rental_uris":{"android":"levelo://app?vid=607664c8-a97e-430d-bd73-4898f4cdc580","ios":"levelo://app?vid=607664c8-a97e-430d-bd73-4898f4cdc580"},"vehicle_type_id":"4","last_reported":1731199749,"current_range_meters":28400,"station_id":"ce4bhr92rcd13ifvqhrg","pricing_plan_id":"cebpf4jnsgd1na2vs0mg"},{"bike_id":"27e15419-d9b0-4647-890e-e21a7149b1cd","system_id":"levelo_inurba_marseille","lat":43.27069,"lon":5.42284,"is_reserved":false,"is_disabled":false,"rental_uris":{"android":"levelo://app?vid=27e15419-d9b0-4647-890e-e21a7149b1cd","ios":"levelo://app?vid=27e15419-d9b0-4647-890e-e21a7149b1cd"},"vehicle_type_id":"4","last_reported":1731199749,"current_range_meters":10800,"station_id":"ce4bhk92rcd13ifvqgb0","pricing_plan_id":"cebpf4jnsgd1na2vs0mg"},{"bike_id":"55f47cbb-4cd2-4214-9965-9e0698b16e2e","system_id":"levelo_inurba_marseille","lat":43.32392,"lon":5.37004,"is_reserved":false,"is_disabled":false,"rental_uris":{"android":"levelo://app?vid=55f47cbb-4cd2-4214-9965-9e0698b16e2e","ios":"levelo://app?vid=55f47cbb-4cd2-4214-9965-9e0698b16e2e"},"vehicle_type_id":"4","last_reported":1731199749,"current_range_meters":38400,"station_id":"","pricing_plan_id":"cebpf4jnsgd1na2vs0mg"},{"bike_id":"b2059399-4a96-475f-ae2b-3d23973d224d","system_id":"levelo_inurba_marseille","lat":43.29193,"lon":5.39321,"is_reserved":false,"is_disabled":false,"rental_uris":{"android":"levelo://app?vid=b2059399-4a96-475f-ae2b-3d23973d224d","ios":"levelo://app?vid=b2059399-4a96-475f-ae2b-3d23973d224d"},"vehicle_type_id":"4","last_reported":1731199749,"current_range_meters":38800,"station_id":"ce4bh192rcd13ifvqdd0","pricing_plan_id":"cebpf4jnsgd1na2vs0mg"},{"bike_id":"ae59c122-6f6a-4058-b9e4-cf3f9a369f15","system_id":"levelo_inurba_marseille","lat":43.33027,"lon":5.39037,"is_reserved":false,"is_disabled":false,"rental_uris":{"android":"levelo://app?vid=ae59c122-6f6a-4058-b9e4-cf3f9a369f15","ios":"levelo://app?vid=ae59c122-6f6a-4058-b9e4-cf3f9a369f15"},"vehicle_type_id":"4","last_reported":1731199749,"current_range_meters":24000,"station_id":"ce4bhr92rcd13ifvqhrg","pricing_plan_id":"cebpf4jnsgd1na2vs0mg"},{"bike_id":"d3406ac4-2b11-4ea0-9b0a-0e7941a136c5","system_id":"levelo_inurba_marseille","lat":43.29972,"lon":5.37171,"is_reserved":false,"is_disabled":false,"rental_uris":{"android":"levelo://app?vid=d3406ac4-2b11-4ea0-9b0a-0e7941a136c5","ios":"levelo://app?vid=d3406ac4-2b11-4ea0-9b0a-0e7941a136c5"},"vehicle_type_id":"4","last_reported":1731199749,"current_range_meters":36000,"station_id":"ce4bgr92rcd13ifvqc7g","pricing_plan_id":"cebpf4jnsgd1na2vs0mg"},{"bike_id":"0d93b31b-854a-4c31-b287-70df5cbe7d07","system_id":"levelo_inurba_marseille","lat":43.24084,"lon":5.37739,"is_reserved":false,"is_disabled":false,"rental_uris":{"android":"levelo://app?vid=0d93b31b-854a-4c31-b287-70df5cbe7d07","ios":"levelo://app?vid=0d93b31b-854a-4c31-b287-70df5cbe7d07"},"vehicle_type_id":"4","last_reported":1731199749,"current_range_meters":13600,"station_id":"ce4bhnp2rcd13ifvqgvg","pricing_plan_id":"cebpf4jnsgd1na2vs0mg"},{"bike_id":"8d2b72fb-c6f8-44de-b9b8-8b5223930e89","system_id":"levelo_inurba_marseille","lat":43.24606,"lon":5.38969,"is_reserved":false,"is_disabled":false,"rental_uris":{"android":"levelo://app?vid=8d2b72fb-c6f8-44de-b9b8-8b5223930e89","ios":"levelo://app?vid=8d2b72fb-c6f8-44de-b9b8-8b5223930e89"},"vehicle_type_id":"4","last_reported":1731199749,"current_range_meters":27200,"station_id":"","pricing_plan_id":"cebpf4jnsgd1na2vs0mg"},{"bike_id":"25fe25a4-403f-4e6f-b9e1-cc790ad299ec","system_id":"levelo_inurba_marseille","lat":43.24389,"lon":5.37063,"is_reserved":false,"is_disabled":false,"rental_uris":{"android":"levelo://app?vid=25fe25a4-403f-4e6f-b9e1-cc790ad299ec","ios":"levelo://app?vid=25fe25a4-403f-4e6f-b9e1-cc790ad299ec"},"vehicle_type_id":"4","last_reported":1731199749,"current_range_meters":24000,"station_id":"ce4bhhh2rcd13ifvqfk0","pricing_plan_id":"cebpf4jnsgd1na2vs0mg"},{"bike_id":"f3bf7e69-48df-4afb-93a9-ec803cd90f94","system_id":"levelo_inurba_marseille","lat":43.28855,"lon":5.3585,"is_reserved":false,"is_disabled":false,"rental_uris":{"android":"levelo://app?vid=f3bf7e69-48df-4afb-93a9-ec803cd90f94","ios":"levelo://app?vid=f3bf7e69-48df-4afb-93a9-ec803cd90f94"},"vehicle_type_id":"4","last_reported":1731199749,"current_range_meters":30000,"station_id":"ce4bhb12rcd13ifvqem0","pricing_plan_id":"cebpf4jnsgd1na2vs0mg"},{"bike_id":"4ddd9b6d-9923-4ea7-9d85-630cb6e30a7e","system_id":"levelo_inurba_marseille","lat":43.30546,"lon":5.3842,"is_reserved":false,"is_disabled":false,"rental_uris":{"android":"levelo://app?vid=4ddd9b6d-9923-4ea7-9d85-630cb6e30a7e","ios":"levelo://app?vid=4ddd9b6d-9923-4ea7-9d85-630cb6e30a7e"},"vehicle_type_id":"4","last_reported":1731199749,"current_range_meters":37600,"station_id":"ce4bgg92rcd13ifvqb30","pricing_plan_id":"cebpf4jnsgd1na2vs0mg"},{"bike_id":"09fd6b48-5b17-42a1-a15e-dce7aa293b94","system_id":"levelo_inurba_marseille","lat":43.28339,"lon":5.38114,"is_reserved":false,"is_disabled":false,"rental_uris":{"android":"levelo://app?vid=09fd6b48-5b17-42a1-a15e-dce7aa293b94","ios":"levelo://app?vid=09fd6b48-5b17-42a1-a15e-dce7aa293b94"},"vehicle_type_id":"4","last_reported":1731199749,"current_range_meters":38400,"station_id":"ce4bh412rcd13ifvqdr0","pricing_plan_id":"cebpf4jnsgd1na2vs0mg"},{"bike_id":"a07f20d1-05dd-4db7-a3c7-1eb8629f57d6","system_id":"levelo_inurba_marseille","lat":43.28939,"lon":5.36629,"is_reserved":false,"is_disabled":false,"rental_uris":{"android":"levelo://app?vid=a07f20d1-05dd-4db7-a3c7-1eb8629f57d6","ios":"levelo://app?vid=a07f20d1-05dd-4db7-a3c7-1eb8629f57d6"},"vehicle_type_id":"4","last_reported":1731199749,"current_range_meters":18000,"station_id":"ce4bhap2rcd13ifvqek0","pricing_plan_id":"cebpf4jnsgd1na2vs0mg"},{"bike_id":"8c003b91-8903-492b-a8d4-f7da3364d268","system_id":"levelo_inurba_marseille","lat":43.28569,"lon":5.39506,"is_reserved":false,"is_disabled":false,"rental_uris":{"android":"levelo://app?vid=8c003b91-8903-492b-a8d4-f7da3364d268","ios":"levelo://app?vid=8c003b91-8903-492b-a8d4-f7da3364d268"},"vehicle_type_id":"4","last_reported":1731199749,"current_range_meters":37600,"station_id":"ce4bh292rcd13ifvqdg0","pricing_plan_id":"cebpf4jnsgd1na2vs0mg"},{"bike_id":"2528636a-da2b-4d92-947d-4f76e0e8e5ea","system_id":"levelo_inurba_marseille","lat":43.2944,"lon":5.39753,"is_reserved":false,"is_disabled":false,"rental_uris":{"android":"levelo://app?vid=2528636a-da2b-4d92-947d-4f76e0e8e5ea","ios":"levelo://app?vid=2528636a-da2b-4d92-947d-4f76e0e8e5ea"},"vehicle_type_id":"4","last_reported":1731199749,"current_range_meters":40000,"station_id":"ce4bh3h2rcd13ifvqdo0","pricing_plan_id":"cebpf4jnsgd1na2vs0mg"},{"bike_id":"bbd5bb4f-1dec-419e-a2df-d1fc7088882e","system_id":"levelo_inurba_marseille","lat":43.3137,"lon":5.38488,"is_reserved":false,"is_disabled":false,"rental_uris":{"android":"levelo://app?vid=bbd5bb4f-1dec-419e-a2df-d1fc7088882e","ios":"levelo://app?vid=bbd5bb4f-1dec-419e-a2df-d1fc7088882e"},"vehicle_type_id":"4","last_reported":1731199749,"current_range_meters":36800,"station_id":"ce4bgt92rcd13ifvqcf0","pricing_plan_id":"cebpf4jnsgd1na2vs0mg"},{"bike_id":"c6ae65bf-8d5e-4ea9-a3a9-adc79d0ebafe","system_id":"levelo_inurba_marseille","lat":43.24387,"lon":5.37052,"is_reserved":false,"is_disabled":false,"rental_uris":{"android":"levelo://app?vid=c6ae65bf-8d5e-4ea9-a3a9-adc79d0ebafe","ios":"levelo://app?vid=c6ae65bf-8d5e-4ea9-a3a9-adc79d0ebafe"},"vehicle_type_id":"4","last_reported":1731199749,"current_range_meters":24800,"station_id":"ce4bhhh2rcd13ifvqfk0","pricing_plan_id":"cebpf4jnsgd1na2vs0mg"},{"bike_id":"99ee7c5d-6e65-4a9b-a86a-ad54643ebf7a","system_id":"levelo_inurba_marseille","lat":43.31376,"lon":5.3849,"is_reserved":false,"is_disabled":false,"rental_uris":{"android":"levelo://app?vid=99ee7c5d-6e65-4a9b-a86a-ad54643ebf7a","ios":"levelo://app?vid=99ee7c5d-6e65-4a9b-a86a-ad54643ebf7a"},"vehicle_type_id":"4","last_reported":1731199749,"current_range_meters":38800,"station_id":"ce4bgt92rcd13ifvqcf0","pricing_plan_id":"cebpf4jnsgd1na2vs0mg"},{"bike_id":"1b641421-2e55-46f2-aa52-a5bd61345632","system_id":"levelo_inurba_marseille","lat":43.24171,"lon":5.36392,"is_reserved":false,"is_disabled":false,"rental_uris":{"android":"levelo://app?vid=1b641421-2e55-46f2-aa52-a5bd61345632","ios":"levelo://app?vid=1b641421-2e55-46f2-aa52-a5bd61345632"},"vehicle_type_id":"4","last_reported":1731199749,"current_range_meters":14400,"station_id":"cpo36qri1sfpv3e86is0","pricing_plan_id":"cebpf4jnsgd1na2vs0mg"},{"bike_id":"8c1953c0-420e-4a2e-adc5-053e7021636a","system_id":"levelo_inurba_marseille","lat":43.29929,"lon":5.36551,"is_reserved":false,"is_disabled":false,"rental_uris":{"android":"levelo://app?vid=8c1953c0-420e-4a2e-adc5-053e7021636a","ios":"levelo://app?vid=8c1953c0-420e-4a2e-adc5-053e7021636a"},"vehicle_type_id":"4","last_reported":1731199749,"current_range_meters":25600,"station_id":"ce4bgm92rcd13ifvqbr0","pricing_plan_id":"cebpf4jnsgd1na2vs0mg"},{"bike_id":"ba4109b1-d99b-4b96-b8be-e7a7d80ac365","system_id":"levelo_inurba_marseille","lat":43.32371,"lon":5.38883,"is_reserved":false,"is_disabled":false,"rental_uris":{"android":"levelo://app?vid=ba4109b1-d99b-4b96-b8be-e7a7d80ac365","ios":"levelo://app?vid=ba4109b1-d99b-4b96-b8be-e7a7d80ac365"},"vehicle_type_id":"4","last_reported":1731199749,"current_range_meters":38400,"station_id":"ce4bhqp2rcd13ifvqhog","pricing_plan_id":"cebpf4jnsgd1na2vs0mg"},{"bike_id":"27b464f9-caaa-4ce7-9079-f637dd48276c","system_id":"levelo_inurba_marseille","lat":43.313648,"lon":5.384952,"is_reserved":false,"is_disabled":false,"rental_uris":{"android":"levelo://app?vid=27b464f9-caaa-4ce7-9079-f637dd48276c","ios":"levelo://app?vid=27b464f9-caaa-4ce7-9079-f637dd48276c"},"vehicle_type_id":"4","last_reported":1731199749,"current_range_meters":29600,"station_id":"ce4bgt92rcd13ifvqcf0","pricing_plan_id":"cebpf4jnsgd1na2vs0mg"},{"bike_id":"e4a539db-2fe7-452d-977d-bb7960e31883","system_id":"levelo_inurba_marseille","lat":43.32541,"lon":5.41434,"is_reserved":false,"is_disabled":false,"rental_uris":{"android":"levelo://app?vid=e4a539db-2fe7-452d-977d-bb7960e31883","ios":"levelo://app?vid=e4a539db-2fe7-452d-977d-bb7960e31883"},"vehicle_type_id":"4","last_reported":1731199749,"current_range_meters":37600,"station_id":"ce4bhq12rcd13ifvqhhg","pricing_plan_id":"cebpf4jnsgd1na2vs0mg"},{"bike_id":"0d0ef880-2434-4d1b-be5b-12320ed92e83","system_id":"levelo_inurba_marseille","lat":43.25729,"lon":5.41109,"is_reserved":false,"is_disabled":false,"rental_uris":{"android":"levelo://app?vid=0d0ef880-2434-4d1b-be5b-12320ed92e83","ios":"levelo://app?vid=0d0ef880-2434-4d1b-be5b-12320ed92e83"},"vehicle_type_id":"4","last_reported":1731199749,"current_range_meters":27600,"station_id":"ce4bhkp2rcd13ifvqgd0","pricing_plan_id":"cebpf4jnsgd1na2vs0mg"},{"bike_id":"07704a86-dbed-425a-854d-11b1a4e3d84c","system_id":"levelo_inurba_marseille","lat":43.33753,"lon":5.37444,"is_reserved":false,"is_disabled":false,"rental_uris":{"android":"levelo://app?vid=07704a86-dbed-425a-854d-11b1a4e3d84c","ios":"levelo://app?vid=07704a86-dbed-425a-854d-11b1a4e3d84c"},"vehicle_type_id":"4","last_reported":1731199749,"current_range_meters":34000,"station_id":"","pricing_plan_id":"cebpf4jnsgd1na2vs0mg"},{"bike_id":"79b39923-b687-4420-a58b-1f85feafef16","system_id":"levelo_inurba_marseille","lat":43.30005,"lon":5.37443,"is_reserved":false,"is_disabled":false,"rental_uris":{"android":"levelo://app?vid=79b39923-b687-4420-a58b-1f85feafef16","ios":"levelo://app?vid=79b39923-b687-4420-a58b-1f85feafef16"},"vehicle_type_id":"4","last_reported":1731199749,"current_range_meters":38800,"station_id":"","pricing_plan_id":"cebpf4jnsgd1na2vs0mg"},{"bike_id":"d232d878-dab1-48a1-9209-14b73d196817","system_id":"levelo_inurba_marseille","lat":43.29522,"lon":5.375,"is_reserved":false,"is_disabled":false,"rental_uris":{"android":"levelo://app?vid=d232d878-dab1-48a1-9209-14b73d196817","ios":"levelo://app?vid=d232d878-dab1-48a1-9209-14b73d196817"},"vehicle_type_id":"4","last_reported":1731199749,"current_range_meters":38800,"station_id":"ce4bgkp2rcd13ifvqbmg","pricing_plan_id":"cebpf4jnsgd1na2vs0mg"},{"bike_id":"c088b376-e9fa-40d3-b3dd-b80a17e0912a","system_id":"levelo_inurba_marseille","lat":43.3054,"lon":5.38429,"is_reserved":false,"is_disabled":false,"rental_uris":{"android":"levelo://app?vid=c088b376-e9fa-40d3-b3dd-b80a17e0912a","ios":"levelo://app?vid=c088b376-e9fa-40d3-b3dd-b80a17e0912a"},"vehicle_type_id":"4","last_reported":1731199749,"current_range_meters":32400,"station_id":"ce4bgg92rcd13ifvqb30","pricing_plan_id":"cebpf4jnsgd1na2vs0mg"},{"bike_id":"39e0fb1d-6066-4204-83e9-c454b4b8332c","system_id":"levelo_inurba_marseille","lat":43.2783,"lon":5.39199,"is_reserved":false,"is_disabled":false,"rental_uris":{"android":"levelo://app?vid=39e0fb1d-6066-4204-83e9-c454b4b8332c","ios":"levelo://app?vid=39e0fb1d-6066-4204-83e9-c454b4b8332c"},"vehicle_type_id":"4","last_reported":1731199749,"current_range_meters":38800,"station_id":"ce4bhjp2rcd13ifvqga0","pricing_plan_id":"cebpf4jnsgd1na2vs0mg"},{"bike_id":"0b74ce83-e6b1-4485-8ca6-3897f29a426e","system_id":"levelo_inurba_marseille","lat":43.23957,"lon":5.36627,"is_reserved":false,"is_disabled":false,"rental_uris":{"android":"levelo://app?vid=0b74ce83-e6b1-4485-8ca6-3897f29a426e","ios":"levelo://app?vid=0b74ce83-e6b1-4485-8ca6-3897f29a426e"},"vehicle_type_id":"4","last_reported":1731199749,"current_range_meters":12000,"station_id":"ce4bhi12rcd13ifvqfp0","pricing_plan_id":"cebpf4jnsgd1na2vs0mg"},{"bike_id":"3fabc4cc-b457-4bba-9e24-32c6827aa837","system_id":"levelo_inurba_marseille","lat":43.29034,"lon":5.3996,"is_reserved":false,"is_disabled":false,"rental_uris":{"android":"levelo://app?vid=3fabc4cc-b457-4bba-9e24-32c6827aa837","ios":"levelo://app?vid=3fabc4cc-b457-4bba-9e24-32c6827aa837"},"vehicle_type_id":"4","last_reported":1731199749,"current_range_meters":19200,"station_id":"ce4bh392rcd13ifvqdm0","pricing_plan_id":"cebpf4jnsgd1na2vs0mg"},{"bike_id":"bc0ec24b-df15-4c50-abd6-c32ca10001d8","system_id":"levelo_inurba_marseille","lat":43.310738,"lon":5.383485,"is_reserved":false,"is_disabled":false,"rental_uris":{"android":"levelo://app?vid=bc0ec24b-df15-4c50-abd6-c32ca10001d8","ios":"levelo://app?vid=bc0ec24b-df15-4c50-abd6-c32ca10001d8"},"vehicle_type_id":"4","last_reported":1731199749,"current_range_meters":30800,"station_id":"ce4bgv92rcd13ifvqcr0","pricing_plan_id":"cebpf4jnsgd1na2vs0mg"},{"bike_id":"cec05772-88fc-40f1-b561-c75ea0611103","system_id":"levelo_inurba_marseille","lat":43.27499,"lon":5.42448,"is_reserved":false,"is_disabled":false,"rental_uris":{"android":"levelo://app?vid=cec05772-88fc-40f1-b561-c75ea0611103","ios":"levelo://app?vid=cec05772-88fc-40f1-b561-c75ea0611103"},"vehicle_type_id":"4","last_reported":1731199749,"current_range_meters":38400,"station_id":"ce4bhn92rcd13ifvqgrg","pricing_plan_id":"cebpf4jnsgd1na2vs0mg"},{"bike_id":"dd864a7f-f1a7-4305-835f-3d04cff744ea","system_id":"levelo_inurba_marseille","lat":43.30937,"lon":5.40143,"is_reserved":false,"is_disabled":false,"rental_uris":{"android":"levelo://app?vid=dd864a7f-f1a7-4305-835f-3d04cff744ea","ios":"levelo://app?vid=dd864a7f-f1a7-4305-835f-3d04cff744ea"},"vehicle_type_id":"4","last_reported":1731199749,"current_range_meters":38400,"station_id":"ce4bgvp2rcd13ifvqct0","pricing_plan_id":"cebpf4jnsgd1na2vs0mg"},{"bike_id":"c9ad0dd3-1717-45f0-b6fd-d1036bba5dcb","system_id":"levelo_inurba_marseille","lat":43.32545,"lon":5.41437,"is_reserved":false,"is_disabled":false,"rental_uris":{"android":"levelo://app?vid=c9ad0dd3-1717-45f0-b6fd-d1036bba5dcb","ios":"levelo://app?vid=c9ad0dd3-1717-45f0-b6fd-d1036bba5dcb"},"vehicle_type_id":"4","last_reported":1731199749,"current_range_meters":20800,"station_id":"ce4bhq12rcd13ifvqhhg","pricing_plan_id":"cebpf4jnsgd1na2vs0mg"},{"bike_id":"af9cd3eb-6786-4eb5-818d-938dc019f111","system_id":"levelo_inurba_marseille","lat":43.31165,"lon":5.38728,"is_reserved":false,"is_disabled":false,"rental_uris":{"android":"levelo://app?vid=af9cd3eb-6786-4eb5-818d-938dc019f111","ios":"levelo://app?vid=af9cd3eb-6786-4eb5-818d-938dc019f111"},"vehicle_type_id":"4","last_reported":1731199749,"current_range_meters":39200,"station_id":"ce4bgv12rcd13ifvqcp0","pricing_plan_id":"cebpf4jnsgd1na2vs0mg"},{"bike_id":"896a2ba9-5285-4686-975d-79ddd9cd99a3","system_id":"levelo_inurba_marseille","lat":43.25828,"lon":5.39442,"is_reserved":false,"is_disabled":false,"rental_uris":{"android":"levelo://app?vid=896a2ba9-5285-4686-975d-79ddd9cd99a3","ios":"levelo://app?vid=896a2ba9-5285-4686-975d-79ddd9cd99a3"},"vehicle_type_id":"4","last_reported":1731199749,"current_range_meters":36000,"station_id":"ce4bhip2rcd13ifvqft0","pricing_plan_id":"cebpf4jnsgd1na2vs0mg"},{"bike_id":"bc947982-4313-4264-aab0-ba10b887de87","system_id":"levelo_inurba_marseille","lat":43.31325,"lon":5.39693,"is_reserved":false,"is_disabled":false,"rental_uris":{"android":"levelo://app?vid=bc947982-4313-4264-aab0-ba10b887de87","ios":"levelo://app?vid=bc947982-4313-4264-aab0-ba10b887de87"},"vehicle_type_id":"4","last_reported":1731199749,"current_range_meters":30000,"station_id":"ce4bgvp2rcd13ifvqcu0","pricing_plan_id":"cebpf4jnsgd1na2vs0mg"},{"bike_id":"2c42f401-8588-45b2-801d-41b9137e6000","system_id":"levelo_inurba_marseille","lat":43.31698,"lon":5.4046,"is_reserved":false,"is_disabled":false,"rental_uris":{"android":"levelo://app?vid=2c42f401-8588-45b2-801d-41b9137e6000","ios":"levelo://app?vid=2c42f401-8588-45b2-801d-41b9137e6000"},"vehicle_type_id":"4","last_reported":1731199749,"current_range_meters":27600,"station_id":"ce4bh012rcd13ifvqd00","pricing_plan_id":"cebpf4jnsgd1na2vs0mg"},{"bike_id":"baac3be3-010c-4ab7-b814-2af962c842f8","system_id":"levelo_inurba_marseille","lat":43.28358,"lon":5.37518,"is_reserved":false,"is_disabled":false,"rental_uris":{"android":"levelo://app?vid=baac3be3-010c-4ab7-b814-2af962c842f8","ios":"levelo://app?vid=baac3be3-010c-4ab7-b814-2af962c842f8"},"vehicle_type_id":"4","last_reported":1731199749,"current_range_meters":28400,"station_id":"ce4bh412rcd13ifvqds0","pricing_plan_id":"cebpf4jnsgd1na2vs0mg"},{"bike_id":"00760ec1-cc76-43c8-b9c4-f943bf95bb11","system_id":"levelo_inurba_marseille","lat":43.29876,"lon":5.39733,"is_reserved":false,"is_disabled":false,"rental_uris":{"android":"levelo://app?vid=00760ec1-cc76-43c8-b9c4-f943bf95bb11","ios":"levelo://app?vid=00760ec1-cc76-43c8-b9c4-f943bf95bb11"},"vehicle_type_id":"4","last_reported":1731199749,"current_range_meters":22400,"station_id":"ce4bh0h2rcd13ifvqd50","pricing_plan_id":"cebpf4jnsgd1na2vs0mg"},{"bike_id":"04d2e88f-c5a5-441d-a13d-50ee686a0c76","system_id":"levelo_inurba_marseille","lat":43.30959,"lon":5.39029,"is_reserved":false,"is_disabled":false,"rental_uris":{"android":"levelo://app?vid=04d2e88f-c5a5-441d-a13d-50ee686a0c76","ios":"levelo://app?vid=04d2e88f-c5a5-441d-a13d-50ee686a0c76"},"vehicle_type_id":"4","last_reported":1731199749,"current_range_meters":14000,"station_id":"ce4bgup2rcd13ifvqco0","pricing_plan_id":"cebpf4jnsgd1na2vs0mg"},{"bike_id":"ce2879f6-b67d-4289-ac71-73576ea9f6c4","system_id":"levelo_inurba_marseille","lat":43.33022,"lon":5.39032,"is_reserved":false,"is_disabled":false,"rental_uris":{"android":"levelo://app?vid=ce2879f6-b67d-4289-ac71-73576ea9f6c4","ios":"levelo://app?vid=ce2879f6-b67d-4289-ac71-73576ea9f6c4"},"vehicle_type_id":"4","last_reported":1731199749,"current_range_meters":31200,"station_id":"ce4bhr92rcd13ifvqhrg","pricing_plan_id":"cebpf4jnsgd1na2vs0mg"},{"bike_id":"d17d14b6-bd39-4f6f-860c-b6baae4afc33","system_id":"levelo_inurba_marseille","lat":43.26061,"lon":5.39389,"is_reserved":false,"is_disabled":false,"rental_uris":{"android":"levelo://app?vid=d17d14b6-bd39-4f6f-860c-b6baae4afc33","ios":"levelo://app?vid=d17d14b6-bd39-4f6f-860c-b6baae4afc33"},"vehicle_type_id":"4","last_reported":1731199749,"current_range_meters":17200,"station_id":"ce4bhh92rcd13ifvqfj0","pricing_plan_id":"cebpf4jnsgd1na2vs0mg"},{"bike_id":"2469dea4-2bdb-4e7c-b9ad-a622084a1af5","system_id":"levelo_inurba_marseille","lat":43.25827,"lon":5.39433,"is_reserved":false,"is_disabled":false,"rental_uris":{"android":"levelo://app?vid=2469dea4-2bdb-4e7c-b9ad-a622084a1af5","ios":"levelo://app?vid=2469dea4-2bdb-4e7c-b9ad-a622084a1af5"},"vehicle_type_id":"4","last_reported":1731199749,"current_range_meters":14400,"station_id":"ce4bhip2rcd13ifvqft0","pricing_plan_id":"cebpf4jnsgd1na2vs0mg"},{"bike_id":"8ce6f633-0f5a-460c-a3e1-34556e06cfde","system_id":"levelo_inurba_marseille","lat":43.28858,"lon":5.35844,"is_reserved":false,"is_disabled":false,"rental_uris":{"android":"levelo://app?vid=8ce6f633-0f5a-460c-a3e1-34556e06cfde","ios":"levelo://app?vid=8ce6f633-0f5a-460c-a3e1-34556e06cfde"},"vehicle_type_id":"4","last_reported":1731199749,"current_range_meters":30800,"station_id":"ce4bhb12rcd13ifvqem0","pricing_plan_id":"cebpf4jnsgd1na2vs0mg"},{"bike_id":"9aaddf82-74a7-418a-9e26-a161c0c905b8","system_id":"levelo_inurba_marseille","lat":43.31156,"lon":5.3873,"is_reserved":false,"is_disabled":false,"rental_uris":{"android":"levelo://app?vid=9aaddf82-74a7-418a-9e26-a161c0c905b8","ios":"levelo://app?vid=9aaddf82-74a7-418a-9e26-a161c0c905b8"},"vehicle_type_id":"4","last_reported":1731199749,"current_range_meters":36800,"station_id":"ce4bgv12rcd13ifvqcp0","pricing_plan_id":"cebpf4jnsgd1na2vs0mg"},{"bike_id":"40f593b1-c6b4-4056-9082-85c23863896b","system_id":"levelo_inurba_marseille","lat":43.25487,"lon":5.37641,"is_reserved":false,"is_disabled":false,"rental_uris":{"android":"levelo://app?vid=40f593b1-c6b4-4056-9082-85c23863896b","ios":"levelo://app?vid=40f593b1-c6b4-4056-9082-85c23863896b"},"vehicle_type_id":"4","last_reported":1731199749,"current_range_meters":38400,"station_id":"ce4bhh12rcd13ifvqff0","pricing_plan_id":"cebpf4jnsgd1na2vs0mg"},{"bike_id":"704db654-401c-45e6-bc2d-cc005358368c","system_id":"levelo_inurba_marseille","lat":43.24391,"lon":5.37058,"is_reserved":false,"is_disabled":false,"rental_uris":{"android":"levelo://app?vid=704db654-401c-45e6-bc2d-cc005358368c","ios":"levelo://app?vid=704db654-401c-45e6-bc2d-cc005358368c"},"vehicle_type_id":"4","last_reported":1731199749,"current_range_meters":36400,"station_id":"ce4bhhh2rcd13ifvqfk0","pricing_plan_id":"cebpf4jnsgd1na2vs0mg"},{"bike_id":"26792d84-a86a-4b12-bb51-35da91b8245b","system_id":"levelo_inurba_marseille","lat":43.23965,"lon":5.36629,"is_reserved":false,"is_disabled":false,"rental_uris":{"android":"levelo://app?vid=26792d84-a86a-4b12-bb51-35da91b8245b","ios":"levelo://app?vid=26792d84-a86a-4b12-bb51-35da91b8245b"},"vehicle_type_id":"4","last_reported":1731199749,"current_range_meters":8800,"station_id":"ce4bhi12rcd13ifvqfp0","pricing_plan_id":"cebpf4jnsgd1na2vs0mg"},{"bike_id":"6f961811-5f23-4dc4-b408-e315f611fdd1","system_id":"levelo_inurba_marseille","lat":43.28075,"lon":5.39658,"is_reserved":false,"is_disabled":false,"rental_uris":{"android":"levelo://app?vid=6f961811-5f23-4dc4-b408-e315f611fdd1","ios":"levelo://app?vid=6f961811-5f23-4dc4-b408-e315f611fdd1"},"vehicle_type_id":"4","last_reported":1731199749,"current_range_meters":28000,"station_id":"ce4bho12rcd13ifvqh2g","pricing_plan_id":"cebpf4jnsgd1na2vs0mg"},{"bike_id":"b4eb30bc-dd09-4cbf-8ece-3b8ada662aaf","system_id":"levelo_inurba_marseille","lat":43.25005,"lon":5.38916,"is_reserved":false,"is_disabled":false,"rental_uris":{"android":"levelo://app?vid=b4eb30bc-dd09-4cbf-8ece-3b8ada662aaf","ios":"levelo://app?vid=b4eb30bc-dd09-4cbf-8ece-3b8ada662aaf"},"vehicle_type_id":"4","last_reported":1731199749,"current_range_meters":16800,"station_id":"ce4bhgp2rcd13ifvqfd0","pricing_plan_id":"cebpf4jnsgd1na2vs0mg"},{"bike_id":"1afcaa9e-ea84-4954-84dd-ca676ff4a65b","system_id":"levelo_inurba_marseille","lat":43.29004,"lon":5.35615,"is_reserved":false,"is_disabled":false,"rental_uris":{"android":"levelo://app?vid=1afcaa9e-ea84-4954-84dd-ca676ff4a65b","ios":"levelo://app?vid=1afcaa9e-ea84-4954-84dd-ca676ff4a65b"},"vehicle_type_id":"4","last_reported":1731199749,"current_range_meters":36000,"station_id":"ce4bhb92rcd13ifvqen0","pricing_plan_id":"cebpf4jnsgd1na2vs0mg"},{"bike_id":"ec8d8eec-0eba-4e2f-b8b6-8b469f03cc6e","system_id":"levelo_inurba_marseille","lat":43.30128,"lon":5.39869,"is_reserved":false,"is_disabled":false,"rental_uris":{"android":"levelo://app?vid=ec8d8eec-0eba-4e2f-b8b6-8b469f03cc6e","ios":"levelo://app?vid=ec8d8eec-0eba-4e2f-b8b6-8b469f03cc6e"},"vehicle_type_id":"4","last_reported":1731199749,"current_range_meters":29600,"station_id":"ce4bh0h2rcd13ifvqd40","pricing_plan_id":"cebpf4jnsgd1na2vs0mg"},{"bike_id":"1567277a-359d-4040-841b-65e835dca85b","system_id":"levelo_inurba_marseille","lat":43.2693,"lon":5.38914,"is_reserved":false,"is_disabled":false,"rental_uris":{"android":"levelo://app?vid=1567277a-359d-4040-841b-65e835dca85b","ios":"levelo://app?vid=1567277a-359d-4040-841b-65e835dca85b"},"vehicle_type_id":"4","last_reported":1731199749,"current_range_meters":21600,"station_id":"ce4bhhh2rcd13ifvqfl0","pricing_plan_id":"cebpf4jnsgd1na2vs0mg"},{"bike_id":"9e6119a6-7da4-4e19-883a-a722018f9dea","system_id":"levelo_inurba_marseille","lat":43.24072,"lon":5.37735,"is_reserved":false,"is_disabled":false,"rental_uris":{"android":"levelo://app?vid=9e6119a6-7da4-4e19-883a-a722018f9dea","ios":"levelo://app?vid=9e6119a6-7da4-4e19-883a-a722018f9dea"},"vehicle_type_id":"4","last_reported":1731199749,"current_range_meters":33200,"station_id":"ce4bhnp2rcd13ifvqgvg","pricing_plan_id":"cebpf4jnsgd1na2vs0mg"},{"bike_id":"be94c940-c56d-4132-af66-fedb762b3e0f","system_id":"levelo_inurba_marseille","lat":43.23187,"lon":5.35554,"is_reserved":false,"is_disabled":false,"rental_uris":{"android":"levelo://app?vid=be94c940-c56d-4132-af66-fedb762b3e0f","ios":"levelo://app?vid=be94c940-c56d-4132-af66-fedb762b3e0f"},"vehicle_type_id":"4","last_reported":1731199749,"current_range_meters":35200,"station_id":"ce4bhu92rcd13ifvqi70","pricing_plan_id":"cebpf4jnsgd1na2vs0mg"},{"bike_id":"8ca37d2e-6db5-4432-ba52-7297c2291466","system_id":"levelo_inurba_marseille","lat":43.2511,"lon":5.4032,"is_reserved":false,"is_disabled":false,"rental_uris":{"android":"levelo://app?vid=8ca37d2e-6db5-4432-ba52-7297c2291466","ios":"levelo://app?vid=8ca37d2e-6db5-4432-ba52-7297c2291466"},"vehicle_type_id":"4","last_reported":1731199749,"current_range_meters":38800,"station_id":"ce4bhlh2rcd13ifvqgig","pricing_plan_id":"cebpf4jnsgd1na2vs0mg"},{"bike_id":"9769b54a-608a-49dc-ab6a-d885f78ea978","system_id":"levelo_inurba_marseille","lat":43.31124,"lon":5.37763,"is_reserved":false,"is_disabled":false,"rental_uris":{"android":"levelo://app?vid=9769b54a-608a-49dc-ab6a-d885f78ea978","ios":"levelo://app?vid=9769b54a-608a-49dc-ab6a-d885f78ea978"},"vehicle_type_id":"4","last_reported":1731199749,"current_range_meters":18000,"station_id":"ce4bgt92rcd13ifvqcg0","pricing_plan_id":"cebpf4jnsgd1na2vs0mg"},{"bike_id":"cf43c170-786d-415d-a9f8-96b6650f2427","system_id":"levelo_inurba_marseille","lat":43.27944,"lon":5.41044,"is_reserved":false,"is_disabled":false,"rental_uris":{"android":"levelo://app?vid=cf43c170-786d-415d-a9f8-96b6650f2427","ios":"levelo://app?vid=cf43c170-786d-415d-a9f8-96b6650f2427"},"vehicle_type_id":"4","last_reported":1731199749,"current_range_meters":32000,"station_id":"ce4bhnp2rcd13ifvqh0g","pricing_plan_id":"cebpf4jnsgd1na2vs0mg"},{"bike_id":"43b229ac-bbbf-4206-9089-19575dcc2314","system_id":"levelo_inurba_marseille","lat":43.31689,"lon":5.40473,"is_reserved":false,"is_disabled":false,"rental_uris":{"android":"levelo://app?vid=43b229ac-bbbf-4206-9089-19575dcc2314","ios":"levelo://app?vid=43b229ac-bbbf-4206-9089-19575dcc2314"},"vehicle_type_id":"4","last_reported":1731199749,"current_range_meters":28000,"station_id":"ce4bh012rcd13ifvqd00","pricing_plan_id":"cebpf4jnsgd1na2vs0mg"},{"bike_id":"799051fd-d983-438d-b1a6-f94aa3428752","system_id":"levelo_inurba_marseille","lat":43.29556,"lon":5.42293,"is_reserved":false,"is_disabled":false,"rental_uris":{"android":"levelo://app?vid=799051fd-d983-438d-b1a6-f94aa3428752","ios":"levelo://app?vid=799051fd-d983-438d-b1a6-f94aa3428752"},"vehicle_type_id":"4","last_reported":1731199749,"current_range_meters":38800,"station_id":"ce4bhph2rcd13ifvqhdg","pricing_plan_id":"cebpf4jnsgd1na2vs0mg"},{"bike_id":"2f4fe126-9423-4754-95ef-63242eaa6081","system_id":"levelo_inurba_marseille","lat":43.30788,"lon":5.37648,"is_reserved":false,"is_disabled":false,"rental_uris":{"android":"levelo://app?vid=2f4fe126-9423-4754-95ef-63242eaa6081","ios":"levelo://app?vid=2f4fe126-9423-4754-95ef-63242eaa6081"},"vehicle_type_id":"4","last_reported":1731199749,"current_range_meters":24400,"station_id":"ce4bgv92rcd13ifvqcq0","pricing_plan_id":"cebpf4jnsgd1na2vs0mg"},{"bike_id":"f0792be0-366f-4646-90bc-071bcc3a47a5","system_id":"levelo_inurba_marseille","lat":43.2993,"lon":5.36545,"is_reserved":false,"is_disabled":false,"rental_uris":{"android":"levelo://app?vid=f0792be0-366f-4646-90bc-071bcc3a47a5","ios":"levelo://app?vid=f0792be0-366f-4646-90bc-071bcc3a47a5"},"vehicle_type_id":"4","last_reported":1731199749,"current_range_meters":29600,"station_id":"ce4bgm92rcd13ifvqbr0","pricing_plan_id":"cebpf4jnsgd1na2vs0mg"},{"bike_id":"6da863f9-b1f5-4ce2-ba72-ca1bb82a1827","system_id":"levelo_inurba_marseille","lat":43.30931,"lon":5.40134,"is_reserved":false,"is_disabled":false,"rental_uris":{"android":"levelo://app?vid=6da863f9-b1f5-4ce2-ba72-ca1bb82a1827","ios":"levelo://app?vid=6da863f9-b1f5-4ce2-ba72-ca1bb82a1827"},"vehicle_type_id":"4","last_reported":1731199749,"current_range_meters":38800,"station_id":"ce4bgvp2rcd13ifvqct0","pricing_plan_id":"cebpf4jnsgd1na2vs0mg"},{"bike_id":"f72b2085-259d-46a1-85f4-e5379370f7c2","system_id":"levelo_inurba_marseille","lat":43.29514,"lon":5.39393,"is_reserved":false,"is_disabled":false,"rental_uris":{"android":"levelo://app?vid=f72b2085-259d-46a1-85f4-e5379370f7c2","ios":"levelo://app?vid=f72b2085-259d-46a1-85f4-e5379370f7c2"},"vehicle_type_id":"4","last_reported":1731199749,"current_range_meters":18000,"station_id":"ce4bh292rcd13ifvqdf0","pricing_plan_id":"cebpf4jnsgd1na2vs0mg"},{"bike_id":"89560c1c-9f8c-467a-83a2-6e82b26175ca","system_id":"levelo_inurba_marseille","lat":43.30963,"lon":5.39034,"is_reserved":false,"is_disabled":false,"rental_uris":{"android":"levelo://app?vid=89560c1c-9f8c-467a-83a2-6e82b26175ca","ios":"levelo://app?vid=89560c1c-9f8c-467a-83a2-6e82b26175ca"},"vehicle_type_id":"4","last_reported":1731199749,"current_range_meters":25200,"station_id":"ce4bgup2rcd13ifvqco0","pricing_plan_id":"cebpf4jnsgd1na2vs0mg"},{"bike_id":"99b8ae59-9027-460d-8555-7c68729d39a5","system_id":"levelo_inurba_marseille","lat":43.28923,"lon":5.38408,"is_reserved":false,"is_disabled":false,"rental_uris":{"android":"levelo://app?vid=99b8ae59-9027-460d-8555-7c68729d39a5","ios":"levelo://app?vid=99b8ae59-9027-460d-8555-7c68729d39a5"},"vehicle_type_id":"4","last_reported":1731199749,"current_range_meters":38800,"station_id":"ce4bh612rcd13ifvqe6g","pricing_plan_id":"cebpf4jnsgd1na2vs0mg"},{"bike_id":"d0c4b5ca-604f-481e-861a-fed9d1781334","system_id":"levelo_inurba_marseille","lat":43.24171,"lon":5.36398,"is_reserved":false,"is_disabled":false,"rental_uris":{"android":"levelo://app?vid=d0c4b5ca-604f-481e-861a-fed9d1781334","ios":"levelo://app?vid=d0c4b5ca-604f-481e-861a-fed9d1781334"},"vehicle_type_id":"4","last_reported":1731199749,"current_range_meters":27600,"station_id":"cpo36qri1sfpv3e86is0","pricing_plan_id":"cebpf4jnsgd1na2vs0mg"},{"bike_id":"2a2b6bd4-7604-497d-9ca3-0e5e501b0d20","system_id":"levelo_inurba_marseille","lat":43.3117,"lon":5.38715,"is_reserved":false,"is_disabled":false,"rental_uris":{"android":"levelo://app?vid=2a2b6bd4-7604-497d-9ca3-0e5e501b0d20","ios":"levelo://app?vid=2a2b6bd4-7604-497d-9ca3-0e5e501b0d20"},"vehicle_type_id":"4","last_reported":1731199749,"current_range_meters":38800,"station_id":"ce4bgv12rcd13ifvqcp0","pricing_plan_id":"cebpf4jnsgd1na2vs0mg"},