{"last_updated":1737385754,"ttl":60,"version":"2.2","data":{"bikes":[{"bike_id":"2ca0328f-3d2d-4294-8174-c06834c570ff","system_id":"levelo_inurba_marseille","lat":43.30418,"lon":5.41292,"is_reserved":false,"is_disabled":false,"rental_uris":{"android":"levelo://app?vid=2ca0328f-3d2d-4294-8174-c06834c570ff","ios":"levelo://app?vid=2ca0328f-3d2d-4294-8174-c06834c570ff"},"vehicle_type_id":"4","last_reported":1737385754,"current_range_meters":29600,"station_id":"ce4bhop2rcd13ifvqh8g","pricing_plan_id":"cebpf4jnsgd1na2vs0mg"},{"bike_id":"e9aed1e6-8cf3-47f5-92c8-fb51f6b90cef","system_id":"levelo_inurba_marseille","lat":43.303308,"lon":5.404394,"is_reserved":false,"is_disabled":false,"rental_uris":{"android":"levelo://app?vid=e9aed1e6-8cf3-47f5-92c8-fb51f6b90cef","ios":"levelo://app?vid=e9aed1e6-8cf3-47f5-92c8-fb51f6b90cef"},"vehicle_type_id":"4","last_reported":1737385754,"current_range_meters":36800,"station_id":"ce4bh012rcd13ifvqd10","pricing_plan_id":"cebpf4jnsgd1na2vs0mg"},{"bike_id":"976d939b-a82d-41e6-abb4-e25496ddb17f","system_id":"levelo_inurba_marseille","lat":43.25893,"lon":5.40849,"is_reserved":false,"is_disabled":false,"rental_uris":{"android":"levelo://app?vid=976d939b-a82d-41e6-abb4-e25496ddb17f","ios":"levelo://app?vid=976d939b-a82d-41e6-abb4-e25496ddb17f"},"vehicle_type_id":"4","last_reported":1737385754,"current_range_meters":27600,"station_id":"ce4bhm92rcd13ifvqglg","pricing_plan_id":"cebpf4jnsgd1na2vs0mg"},{"bike_id":"a3d0aefc-a2f5-45cd-9489-1be9c32278de","system_id":"levelo_inurba_marseille","lat":43.23959,"lon":5.36626,"is_reserved":false,"is_disabled":false,"rental_uris":{"android":"levelo://app?vid=a3d0aefc-a2f5-45cd-9489-1be9c32278de","ios":"levelo://app?vid=a3d0aefc-a2f5-45cd-9489-1be9c32278de"},"vehicle_type_id":"4","last_reported":1737385754,"current_range_meters":32800,"station_id":"ce4bhi12rcd13ifvqfp0","pricing_plan_id":"cebpf4jnsgd1na2vs0mg"},{"bike_id":"ff1df0fd-be2f-4894-8690-e8a61da9c700","system_id":"levelo_inurba_marseille","lat":43.28688,"lon":5.37404,"is_reserved":false,"is_disabled":true,"rental_uris":{"android":"levelo://app?vid=ff1df0fd-be2f-4894-8690-e8a61da9c700","ios":"levelo://app?vid=ff1df0fd-be2f-4894-8690-e8a61da9c700"},"vehicle_type_id":"4","last_reported":1737385754,"current_range_meters":38800,"station_id":"ce4bh3p2rcd13ifvqdq0","pricing_plan_id":"cebpf4jnsgd1na2vs0mg"},{"bike_id":"26d92998-8ba2-4647-a669-43b8de185c89","system_id":"levelo_inurba_marseille","lat":43.23054,"lon":5.35485,"is_reserved":false,"is_disabled":false,"rental_uris":{"android":"levelo://app?vid=26d92998-8ba2-4647-a669-43b8de185c89","ios":"levelo://app?vid=26d92998-8ba2-4647-a669-43b8de185c89"},"vehicle_type_id":"4","last_reported":1737385754,"current_range_meters":18000,"station_id":"cpo3342slgdg3j2ifvpg","pricing_plan_id":"cebpf4jnsgd1na2vs0mg"},{"bike_id":"7892ac31-7700-4177-a2f1-2367f3230e10","system_id":"levelo_inurba_marseille","lat":43.30931,"lon":5.40143,"is_reserved":false,"is_disabled":false,"rental_uris":{"android":"levelo://app?vid=7892ac31-7700-4177-a2f1-2367f3230e10","ios":"levelo://app?vid=7892ac31-7700-4177-a2f1-2367f3230e10"},"vehicle_type_id":"4","last_reported":1737385754,"current_range_meters":30400,"station_id":"ce4bgvp2rcd13ifvqct0","pricing_plan_id":"cebpf4jnsgd1na2vs0mg"},{"bike_id":"5cb1264a-175f-4702-b950-5c526f1c16bb","system_id":"levelo_inurba_marseille","lat":43.287,"lon":5.37388,"is_reserved":false,"is_disabled":false,"rental_uris":{"android":"levelo://app?vid=5cb1264a-175f-4702-b950-5c526f1c16bb","ios":"levelo://app?vid=5cb1264a-175f-4702-b950-5c526f1c16bb"},"vehicle_type_id":"4","last_reported":1737385754,"current_range_meters":38800,"station_id":"ce4bh3p2rcd13ifvqdq0","pricing_plan_id":"cebpf4jnsgd1na2vs0mg"},{"bike_id":"a523a7c9-f532-4fd5-9970-a05b91409fe2","system_id":"levelo_inurba_marseille","lat":43.27056,"lon":5.40268,"is_reserved":false,"is_disabled":false,"rental_uris":{"android":"levelo://app?vid=a523a7c9-f532-4fd5-9970-a05b91409fe2","ios":"levelo://app?vid=a523a7c9-f532-4fd5-9970-a05b91409fe2"},"vehicle_type_id":"4","last_reported":1737385754,"current_range_meters":7200,"station_id":"ce4bhk92rcd13ifvqgc0","pricing_plan_id":"cebpf4jnsgd1na2vs0mg"},{"bike_id":"cd302cab-5b48-4489-bbb2-e76c626da4d9","system_id":"levelo_inurba_marseille","lat":43.28936,"lon":5.36389,"is_reserved":false,"is_disabled":false,"rental_uris":{"android":"levelo://app?vid=cd302cab-5b48-4489-bbb2-e76c626da4d9","ios":"levelo://app?vid=cd302cab-5b48-4489-bbb2-e76c626da4d9"},"vehicle_type_id":"4","last_reported":1737385754,"current_range_meters":16000,"station_id":"ce4bhc92rcd13ifvqetg","pricing_plan_id":"cebpf4jnsgd1na2vs0mg"},{"bike_id":"e3d5a69f-7604-4ab5-bfce-dc9cf0dd7b56","system_id":"levelo_inurba_marseille","lat":43.2957,"lon":5.39959,"is_reserved":false,"is_disabled":true,"rental_uris":{"android":"levelo://app?vid=e3d5a69f-7604-4ab5-bfce-dc9cf0dd7b56","ios":"levelo://app?vid=e3d5a69f-7604-4ab5-bfce-dc9cf0dd7b56"},"vehicle_type_id":"4","last_reported":1737385754,"current_range_meters":38800,"station_id":"ce4bh312rcd13ifvqdj0","pricing_plan_id":"cebpf4jnsgd1na2vs0mg"},{"bike_id":"5ac681da-264c-466a-938e-74fcf6afae77","system_id":"levelo_inurba_marseille","lat":43.29041,"lon":5.37567,"is_reserved":false,"is_disabled":false,"rental_uris":{"android":"levelo://app?vid=5ac681da-264c-466a-938e-74fcf6afae77","ios":"levelo://app?vid=5ac681da-264c-466a-938e-74fcf6afae77"},"vehicle_type_id":"4","last_reported":1737385754,"current_range_meters":33200,"station_id":"ce4bh692rcd13ifvqe90","pricing_plan_id":"cebpf4jnsgd1na2vs0mg"},{"bike_id":"8d75a337-4d40-4645-b036-ba405a92d1c5","system_id":"levelo_inurba_marseille","lat":43.27322,"lon":5.39073,"is_reserved":false,"is_disabled":false,"rental_uris":{"android":"levelo://app?vid=8d75a337-4d40-4645-b036-ba405a92d1c5","ios":"levelo://app?vid=8d75a337-4d40-4645-b036-ba405a92d1c5"},"vehicle_type_id":"4","last_reported":1737385754,"current_range_meters":32800,"station_id":"ce4bhgp2rcd13ifvqfe0","pricing_plan_id":"cebpf4jnsgd1na2vs0mg"},{"bike_id":"90e36e1c-5570-43a1-a8e1-9c8e930fdcde","system_id":"levelo_inurba_marseille","lat":43.28943,"lon":5.36402,"is_reserved":false,"is_disabled":false,"rental_uris":{"android":"levelo://app?vid=90e36e1c-5570-43a1-a8e1-9c8e930fdcde","ios":"levelo://app?vid=90e36e1c-5570-43a1-a8e1-9c8e930fdcde"},"vehicle_type_id":"4","last_reported":1737385754,"current_range_meters":28000,"station_id":"ce4bhc92rcd13ifvqetg","pricing_plan_id":"cebpf4jnsgd1na2vs0mg"},{"bike_id":"cb6acc65-5525-40d4-bab1-4ad8f3a7aa53","system_id":"levelo_inurba_marseille","lat":43.273138,"lon":5.390866,"is_reserved":false,"is_disabled":false,"rental_uris":{"android":"levelo://app?vid=cb6acc65-5525-40d4-bab1-4ad8f3a7aa53","ios":"levelo://app?vid=cb6acc65-5525-40d4-bab1-4ad8f3a7aa53"},"vehicle_type_id":"4","last_reported":1737385754,"current_range_meters":39200,"station_id":"ce4bhgp2rcd13ifvqfe0","pricing_plan_id":"cebpf4jnsgd1na2vs0mg"},{"bike_id":"763ed4fc-16fd-47a0-aedf-62c028daa66f","system_id":"levelo_inurba_marseille","lat":43.3639,"lon":5.35565,"is_reserved":false,"is_disabled":false,"rental_uris":{"android":"levelo://app?vid=763ed4fc-16fd-47a0-aedf-62c028daa66f","ios":"levelo://app?vid=763ed4fc-16fd-47a0-aedf-62c028daa66f"},"vehicle_type_id":"4","last_reported":1737385754,"current_range_meters":8800,"station_id":"","pricing_plan_id":"cebpf4jnsgd1na2vs0mg"},{"bike_id":"54e47bbf-d358-4fc6-9623-23d2eb6b92a9","system_id":"levelo_inurba_marseille","lat":43.276747,"lon":5.388474,"is_reserved":false,"is_disabled":true,"rental_uris":{"android":"levelo://app?vid=54e47bbf-d358-4fc6-9623-23d2eb6b92a9","ios":"levelo://app?vid=54e47bbf-d358-4fc6-9623-23d2eb6b92a9"},"vehicle_type_id":"4","last_reported":1737385754,"current_range_meters":16800,"station_id":"","pricing_plan_id":"cebpf4jnsgd1na2vs0mg"},{"bike_id":"a2771881-b956-4a9a-9bc9-a89642d437c9","system_id":"levelo_inurba_marseille","lat":43.23211,"lon":5.35564,"is_reserved":false,"is_disabled":false,"rental_uris":{"android":"levelo://app?vid=a2771881-b956-4a9a-9bc9-a89642d437c9","ios":"levelo://app?vid=a2771881-b956-4a9a-9bc9-a89642d437c9"},"vehicle_type_id":"4","last_reported":1737385754,"current_range_meters":39200,"station_id":"ce4bhu92rcd13ifvqi70","pricing_plan_id":"cebpf4jnsgd1na2vs0mg"},{"bike_id":"3b26ab37-3b51-49df-bcb5-b23c8b5b2a76","system_id":"levelo_inurba_marseille","lat":43.32089,"lon":5.36785,"is_reserved":false,"is_disabled":false,"rental_uris":{"android":"levelo://app?vid=3b26ab37-3b51-49df-bcb5-b23c8b5b2a76","ios":"levelo://app?vid=3b26ab37-3b51-49df-bcb5-b23c8b5b2a76"},"vehicle_type_id":"4","last_reported":1737385754,"current_range_meters":17600,"station_id":"ce4bhrh2rcd13ifvqhug","pricing_plan_id":"cebpf4jnsgd1na2vs0mg"},{"bike_id":"1f46188d-5e81-46fa-8687-79c4e15ba169","system_id":"levelo_inurba_marseille","lat":43.25869,"lon":5.39894,"is_reserved":false,"is_disabled":false,"rental_uris":{"android":"levelo://app?vid=1f46188d-5e81-46fa-8687-79c4e15ba169","ios":"levelo://app?vid=1f46188d-5e81-46fa-8687-79c4e15ba169"},"vehicle_type_id":"4","last_reported":1737385754,"current_range_meters":37600,"station_id":"ce4bhl92rcd13ifvqghg","pricing_plan_id":"cebpf4jnsgd1na2vs0mg"},{"bike_id":"43b2003f-3bfe-48b5-9d2a-33b80c14b10b","system_id":"levelo_inurba_marseille","lat":43.325386,"lon":5.414426,"is_reserved":false,"is_disabled":false,"rental_uris":{"android":"levelo://app?vid=43b2003f-3bfe-48b5-9d2a-33b80c14b10b","ios":"levelo://app?vid=43b2003f-3bfe-48b5-9d2a-33b80c14b10b"},"vehicle_type_id":"4","last_reported":1737385754,"current_range_meters":10800,"station_id":"ce4bhq12rcd13ifvqhhg","pricing_plan_id":"cebpf4jnsgd1na2vs0mg"},{"bike_id":"f3c94274-f861-4c89-8bb1-1ebe1a531935","system_id":"levelo_inurba_marseille","lat":43.25023,"lon":5.38885,"is_reserved":false,"is_disabled":false,"rental_uris":{"android":"levelo://app?vid=f3c94274-f861-4c89-8bb1-1ebe1a531935","ios":"levelo://app?vid=f3c94274-f861-4c89-8bb1-1ebe1a531935"},"vehicle_type_id":"4","last_reported":1737385754,"current_range_meters":33600,"station_id":"ce4bhgp2rcd13ifvqfd0","pricing_plan_id":"cebpf4jnsgd1na2vs0mg"},{"bike_id":"ea820ade-d81d-428e-82b9-7f165f7e8e75","system_id":"levelo_inurba_marseille","lat":43.3236,"lon":5.36762,"is_reserved":false,"is_disabled":false,"rental_uris":{"android":"levelo://app?vid=ea820ade-d81d-428e-82b9-7f165f7e8e75","ios":"levelo://app?vid=ea820ade-d81d-428e-82b9-7f165f7e8e75"},"vehicle_type_id":"4","last_reported":1737385754,"current_range_meters":10000,"station_id":"ce4bhsh2rcd13ifvqi2g","pricing_plan_id":"cebpf4jnsgd1na2vs0mg"},{"bike_id":"5f262b45-21cb-46aa-9761-637255883aa5","system_id":"levelo_inurba_marseille","lat":43.2846,"lon":5.35893,"is_reserved":false,"is_disabled":false,"rental_uris":{"android":"levelo://app?vid=5f262b45-21cb-46aa-9761-637255883aa5","ios":"levelo://app?vid=5f262b45-21cb-46aa-9761-637255883aa5"},"vehicle_type_id":"4","last_reported":1737385754,"current_range_meters":28400,"station_id":"ce4bhah2rcd13ifvqei0","pricing_plan_id":"cebpf4jnsgd1na2vs0mg"},{"bike_id":"c29020e0-83ef-4b06-ac4f-c4422257f84a","system_id":"levelo_inurba_marseille","lat":43.3642,"lon":5.35592,"is_reserved":false,"is_disabled":false,"rental_uris":{"android":"levelo://app?vid=c29020e0-83ef-4b06-ac4f-c4422257f84a","ios":"levelo://app?vid=c29020e0-83ef-4b06-ac4f-c4422257f84a"},"vehicle_type_id":"4","last_reported":1737385754,"current_range_meters":12800,"station_id":"","pricing_plan_id":"cebpf4jnsgd1na2vs0mg"},{"bike_id":"307a86f7-b40b-4fa4-85df-bffd9864657e","system_id":"levelo_inurba_marseille","lat":43.26811,"lon":5.39415,"is_reserved":false,"is_disabled":false,"rental_uris":{"android":"levelo://app?vid=307a86f7-b40b-4fa4-85df-bffd9864657e","ios":"levelo://app?vid=307a86f7-b40b-4fa4-85df-bffd9864657e"},"vehicle_type_id":"4","last_reported":1737385754,"current_range_meters":38800,"station_id":"ce4bhh12rcd13ifvqfg0","pricing_plan_id":"cebpf4jnsgd1na2vs0mg"},{"bike_id":"2134fa96-3287-49a0-8c4d-ce46e95d9fc9","system_id":"levelo_inurba_marseille","lat":43.25938,"lon":5.4088,"is_reserved":false,"is_disabled":false,"rental_uris":{"android":"levelo://app?vid=2134fa96-3287-49a0-8c4d-ce46e95d9fc9","ios":"levelo://app?vid=2134fa96-3287-49a0-8c4d-ce46e95d9fc9"},"vehicle_type_id":"4","last_reported":1737385754,"current_range_meters":28800,"station_id":"ce4bhm92rcd13ifvqglg","pricing_plan_id":"cebpf4jnsgd1na2vs0mg"},{"bike_id":"7fae7311-f0f7-4b6b-8820-b9d072d9fbb6","system_id":"levelo_inurba_marseille","lat":43.32659,"lon":5.40989,"is_reserved":false,"is_disabled":false,"rental_uris":{"android":"levelo://app?vid=7fae7311-f0f7-4b6b-8820-b9d072d9fbb6","ios":"levelo://app?vid=7fae7311-f0f7-4b6b-8820-b9d072d9fbb6"},"vehicle_type_id":"4","last_reported":1737385754,"current_range_meters":18000,"station_id":"ce4bhpp2rcd13ifvqhgg","pricing_plan_id":"cebpf4jnsgd1na2vs0mg"},{"bike_id":"6bf5bd29-3e54-437a-9020-86384919dc04","system_id":"levelo_inurba_marseille","lat":43.32289,"lon":5.38277,"is_reserved":false,"is_disabled":false,"rental_uris":{"android":"levelo://app?vid=6bf5bd29-3e54-437a-9020-86384919dc04","ios":"levelo://app?vid=6bf5bd29-3e54-437a-9020-86384919dc04"},"vehicle_type_id":"4","last_reported":1737385754,"current_range_meters":38800,"station_id":"ce4bhr12rcd13ifvqhqg","pricing_plan_id":"cebpf4jnsgd1na2vs0mg"},{"bike_id":"48330974-b965-408b-95db-afd7193563fb","system_id":"levelo_inurba_marseille","lat":43.2795,"lon":5.41053,"is_reserved":false,"is_disabled":false,"rental_uris":{"android":"levelo://app?vid=48330974-b965-408b-95db-afd7193563fb","ios":"levelo://app?vid=48330974-b965-408b-95db-afd7193563fb"},"vehicle_type_id":"4","last_reported":1737385754,"current_range_meters":25200,"station_id":"ce4bhnp2rcd13ifvqh0g","pricing_plan_id":"cebpf4jnsgd1na2vs0mg"},{"bike_id":"b0790ea1-acd3-4a30-b70f-5c563270b1db","system_id":"levelo_inurba_marseille","lat":43.27568,"lon":5.38423,"is_reserved":false,"is_disabled":false,"rental_uris":{"android":"levelo://app?vid=b0790ea1-acd3-4a30-b70f-5c563270b1db","ios":"levelo://app?vid=b0790ea1-acd3-4a30-b70f-5c563270b1db"},"vehicle_type_id":"4","last_reported":1737385754,"current_range_meters":19600,"station_id":"ce4bhh92rcd13ifvqfi0","pricing_plan_id":"cebpf4jnsgd1na2vs0mg"},{"bike_id":"04e7f6b2-1170-476d-8eb7-54bc6ab7d23c","system_id":"levelo_inurba_marseille","lat":43.24402,"lon":5.37041,"is_reserved":false,"is_disabled":false,"rental_uris":{"android":"levelo://app?vid=04e7f6b2-1170-476d-8eb7-54bc6ab7d23c","ios":"levelo://app?vid=04e7f6b2-1170-476d-8eb7-54bc6ab7d23c"},"vehicle_type_id":"4","last_reported":1737385754,"current_range_meters":33600,"station_id":"ce4bhhh2rcd13ifvqfk0","pricing_plan_id":"cebpf4jnsgd1na2vs0mg"},{"bike_id":"7155ecea-82fc-4f1f-9068-f62cdcd87961","system_id":"levelo_inurba_marseille","lat":43.30212,"lon":5.39478,"is_reserved":false,"is_disabled":false,"rental_uris":{"android":"levelo://app?vid=7155ecea-82fc-4f1f-9068-f62cdcd87961","ios":"levelo://app?vid=7155ecea-82fc-4f1f-9068-f62cdcd87961"},"vehicle_type_id":"4","last_reported":1737385754,"current_range_meters":6800,"station_id":"ce4bh0p2rcd13ifvqd70","pricing_plan_id":"cebpf4jnsgd1na2vs0mg"},{"bike_id":"93286c9c-996e-4acd-a021-157def215515","system_id":"levelo_inurba_marseille","lat":43.27383,"lon":5.36243,"is_reserved":false,"is_disabled":false,"rental_uris":{"android":"levelo://app?vid=93286c9c-996e-4acd-a021-157def215515","ios":"levelo://app?vid=93286c9c-996e-4acd-a021-157def215515"},"vehicle_type_id":"4","last_reported":1737385754,"current_range_meters":7200,"station_id":"ce4bhbh2rcd13ifvqeo0","pricing_plan_id":"cebpf4jnsgd1na2vs0mg"},{"bike_id":"98c1d16b-6b2e-42fc-9091-c80c2614bdd1","system_id":"levelo_inurba_marseille","lat":43.28155,"lon":5.42646,"is_reserved":false,"is_disabled":false,"rental_uris":{"android":"levelo://app?vid=98c1d16b-6b2e-42fc-9091-c80c2614bdd1","ios":"levelo://app?vid=98c1d16b-6b2e-42fc-9091-c80c2614bdd1"},"vehicle_type_id":"4","last_reported":1737385754,"current_range_meters":6400,"station_id":"ce4bhnh2rcd13ifvqgug","pricing_plan_id":"cebpf4jnsgd1na2vs0mg"},{"bike_id":"1d380783-b8e7-4ad2-ac4b-fb3cfd34f749","system_id":"levelo_inurba_marseille","lat":43.29707,"lon":5.37298,"is_reserved":false,"is_disabled":false,"rental_uris":{"android":"levelo://app?vid=1d380783-b8e7-4ad2-ac4b-fb3cfd34f749","ios":"levelo://app?vid=1d380783-b8e7-4ad2-ac4b-fb3cfd34f749"},"vehicle_type_id":"4","last_reported":1737385754,"current_range_meters":38400,"station_id":"ce4bgk12rcd13ifvqbj0","pricing_plan_id":"cebpf4jnsgd1na2vs0mg"},{"bike_id":"c8fe6bd0-5be5-4ede-8e98-69d8c19fd7cf","system_id":"levelo_inurba_marseille","lat":43.23149,"lon":5.43721,"is_reserved":false,"is_disabled":false,"rental_uris":{"android":"levelo://app?vid=c8fe6bd0-5be5-4ede-8e98-69d8c19fd7cf","ios":"levelo://app?vid=c8fe6bd0-5be5-4ede-8e98-69d8c19fd7cf"},"vehicle_type_id":"4","last_reported":1737385754,"current_range_meters":39200,"station_id":"ce4bhmp2rcd13ifvqgog","pricing_plan_id":"cebpf4jnsgd1na2vs0mg"},{"bike_id":"5f05c92c-107e-48b8-bed2-f4c829be322c","system_id":"levelo_inurba_marseille","lat":43.32652,"lon":5.40997,"is_reserved":false,"is_disabled":false,"rental_uris":{"android":"levelo://app?vid=5f05c92c-107e-48b8-bed2-f4c829be322c","ios":"levelo://app?vid=5f05c92c-107e-48b8-bed2-f4c829be322c"},"vehicle_type_id":"4","last_reported":1737385754,"current_range_meters":11200,"station_id":"ce4bhpp2rcd13ifvqhgg","pricing_plan_id":"cebpf4jnsgd1na2vs0mg"},{"bike_id":"57b0e606-8fdf-401d-8223-87c7978ca31e","system_id":"levelo_inurba_marseille","lat":43.26219,"lon":5.40441,"is_reserved":false,"is_disabled":false,"rental_uris":{"android":"levelo://app?vid=57b0e606-8fdf-401d-8223-87c7978ca31e","ios":"levelo://app?vid=57b0e606-8fdf-401d-8223-87c7978ca31e"},"vehicle_type_id":"4","last_reported":1737385754,"current_range_meters":30400,"station_id":"","pricing_plan_id":"cebpf4jnsgd1na2vs0mg"},{"bike_id":"d6dda788-2ee0-45e5-a6fd-f8b98f248df1","system_id":"levelo_inurba_marseille","lat":43.23157,"lon":5.43696,"is_reserved":false,"is_disabled":false,"rental_uris":{"android":"levelo://app?vid=d6dda788-2ee0-45e5-a6fd-f8b98f248df1","ios":"levelo://app?vid=d6dda788-2ee0-45e5-a6fd-f8b98f248df1"},"vehicle_type_id":"4","last_reported":1737385754,"current_range_meters":38800,"station_id":"ce4bhmp2rcd13ifvqgog","pricing_plan_id":"cebpf4jnsgd1na2vs0mg"},{"bike_id":"54faa076-f87a-449b-9aaf-c46a9bd845cd","system_id":"levelo_inurba_marseille","lat":43.28734,"lon":5.37938,"is_reserved":false,"is_disabled":false,"rental_uris":{"android":"levelo://app?vid=54faa076-f87a-449b-9aaf-c46a9bd845cd","ios":"levelo://app?vid=54faa076-f87a-449b-9aaf-c46a9bd845cd"},"vehicle_type_id":"4","last_reported":1737385754,"current_range_meters":35200,"station_id":"ce4bh9p2rcd13ifvqec0","pricing_plan_id":"cebpf4jnsgd1na2vs0mg"},{"bike_id":"973f58e7-e64f-4d94-84af-841fac743b01","system_id":"levelo_inurba_marseille","lat":43.23949,"lon":5.36648,"is_reserved":false,"is_disabled":false,"rental_uris":{"android":"levelo://app?vid=973f58e7-e64f-4d94-84af-841fac743b01","ios":"levelo://app?vid=973f58e7-e64f-4d94-84af-841fac743b01"},"vehicle_type_id":"4","last_reported":1737385754,"current_range_meters":28400,"station_id":"ce4bhi12rcd13ifvqfp0","pricing_plan_id":"cebpf4jnsgd1na2vs0mg"},{"bike_id":"e5f0b0c7-6bda-4a57-afed-1bbbd287a9f7","system_id":"levelo_inurba_marseille","lat":43.32257,"lon":5.3656,"is_reserved":false,"is_disabled":false,"rental_uris":{"android":"levelo://app?vid=e5f0b0c7-6bda-4a57-afed-1bbbd287a9f7","ios":"levelo://app?vid=e5f0b0c7-6bda-4a57-afed-1bbbd287a9f7"},"vehicle_type_id":"4","last_reported":1737385754,"current_range_meters":30000,"station_id":"ce4bhsh2rcd13ifvqi2g","pricing_plan_id":"cebpf4jnsgd1na2vs0mg"},{"bike_id":"6c02db1f-d0da-4e22-ae8a-6e12fbd1f50c","system_id":"levelo_inurba_marseille","lat":43.27441,"lon":5.3942,"is_reserved":false,"is_disabled":false,"rental_uris":{"android":"levelo://app?vid=6c02db1f-d0da-4e22-ae8a-6e12fbd1f50c","ios":"levelo://app?vid=6c02db1f-d0da-4e22-ae8a-6e12fbd1f50c"},"vehicle_type_id":"4","last_reported":1737385754,"current_range_meters":38400,"station_id":"ce4bhdp2rcd13ifvqf20","pricing_plan_id":"cebpf4jnsgd1na2vs0mg"},{"bike_id":"c0ca7781-c364-4c57-8944-068415c5e26a","system_id":"levelo_inurba_marseille","lat":43.30546,"lon":5.36713,"is_reserved":false,"is_disabled":false,"rental_uris":{"android":"levelo://app?vid=c0ca7781-c364-4c57-8944-068415c5e26a","ios":"levelo://app?vid=c0ca7781-c364-4c57-8944-068415c5e26a"},"vehicle_type_id":"4","last_reported":1737385754,"current_range_meters":39200,"station_id":"ce4bgrp2rcd13ifvqc9g","pricing_plan_id":"cebpf4jnsgd1na2vs0mg"},{"bike_id":"cea80681-e52c-4742-85ca-4a7b202634a3","system_id":"levelo_inurba_marseille","lat":43.2955,"lon":5.42287,"is_reserved":false,"is_disabled":false,"rental_uris":{"android":"levelo://app?vid=cea80681-e52c-4742-85ca-4a7b202634a3","ios":"levelo://app?vid=cea80681-e52c-4742-85ca-4a7b202634a3"},"vehicle_type_id":"4","last_reported":1737385754,"current_range_meters":14000,"station_id":"ce4bhph2rcd13ifvqhdg","pricing_plan_id":"cebpf4jnsgd1na2vs0mg"},{"bike_id":"33894d47-927f-41e1-a254-e20c60e4b726","system_id":"levelo_inurba_marseille","lat":43.29618,"lon":5.3807,"is_reserved":false,"is_disabled":false,"rental_uris":{"android":"levelo://app?vid=33894d47-927f-41e1-a254-e20c60e4b726","ios":"levelo://app?vid=33894d47-927f-41e1-a254-e20c60e4b726"},"vehicle_type_id":"4","last_reported":1737385754,"current_range_meters":18800,"station_id":"ce4bgl12rcd13ifvqbo0","pricing_plan_id":"cebpf4jnsgd1na2vs0mg"},{"bike_id":"b01a0517-838b-46fa-b08a-ced719493443","system_id":"levelo_inurba_marseille","lat":43.29841,"lon":5.39777,"is_reserved":false,"is_disabled":false,"rental_uris":{"android":"levelo://app?vid=b01a0517-838b-46fa-b08a-ced719493443","ios":"levelo://app?vid=b01a0517-838b-46fa-b08a-ced719493443"},"vehicle_type_id":"4","last_reported":1737385754,"current_range_meters":6800,"station_id":"","pricing_plan_id":"cebpf4jnsgd1na2vs0mg"},{"bike_id":"3860f79b-6390-4baa-9962-103869425bc6","system_id":"levelo_inurba_marseille","lat":43.298949,"lon":5.436759,"is_reserved":false,"is_disabled":false,"rental_uris":{"android":"levelo://app?vid=3860f79b-6390-4baa-9962-103869425bc6","ios":"levelo://app?vid=3860f79b-6390-4baa-9962-103869425bc6"},"vehicle_type_id":"4","last_reported":1737385754,"current_range_meters":17200,"station_id":"ce4bhpp2rcd13ifvqhfg","pricing_plan_id":"cebpf4jnsgd1na2vs0mg"},{"bike_id":"ac8e1196-360c-4ab6-90e9-20cd2c79cad0","system_id":"levelo_inurba_marseille","lat":43.29305,"lon":5.37177,"is_reserved":false,"is_disabled":false,"rental_uris":{"android":"levelo://app?vid=ac8e1196-360c-4ab6-90e9-20cd2c79cad0","ios":"levelo://app?vid=ac8e1196-360c-4ab6-90e9-20cd2c79cad0"},"vehicle_type_id":"4","last_reported":1737385754,"current_range_meters":38800,"station_id":"ce4bgh92rcd13ifvqb40","pricing_plan_id":"cebpf4jnsgd1na2vs0mg"},{"bike_id":"a364b5b0-02b2-4225-862b-6943ac0285be","system_id":"levelo_inurba_marseille","lat":43.31275,"lon":5.40168,"is_reserved":false,"is_disabled":false,"rental_uris":{"android":"levelo://app?vid=a364b5b0-02b2-4225-862b-6943ac0285be","ios":"levelo://app?vid=a364b5b0-02b2-4225-862b-6943ac0285be"},"vehicle_type_id":"4","last_reported":1737385754,"current_range_meters":26000,"station_id":"ce4bh092rcd13ifvqd30","pricing_plan_id":"cebpf4jnsgd1na2vs0mg"},{"bike_id":"ca8aa51d-4833-4c77-8009-59b7c07323a3","system_id":"levelo_inurba_marseille","lat":43.32444,"lon":5.36592,"is_reserved":false,"is_disabled":false,"rental_uris":{"android":"levelo://app?vid=ca8aa51d-4833-4c77-8009-59b7c07323a3","ios":"levelo://app?vid=ca8aa51d-4833-4c77-8009-59b7c07323a3"},"vehicle_type_id":"4","last_reported":1737385754,"current_range_meters":32000,"station_id":"ce4bhs12rcd13ifvqhvg","pricing_plan_id":"cebpf4jnsgd1na2vs0mg"},{"bike_id":"3dc1825f-ac46-4fc4-980c-6c1844837d93","system_id":"levelo_inurba_marseille","lat":43.28424,"lon":5.37513,"is_reserved":false,"is_disabled":false,"rental_uris":{"android":"levelo://app?vid=3dc1825f-ac46-4fc4-980c-6c1844837d93","ios":"levelo://app?vid=3dc1825f-ac46-4fc4-980c-6c1844837d93"},"vehicle_type_id":"4","last_reported":1737385754,"current_range_meters":31200,"station_id":"ce4bh412rcd13ifvqds0","pricing_plan_id":"cebpf4jnsgd1na2vs0mg"},{"bike_id":"df1fc8c1-7428-450e-a744-0efcacb82501","system_id":"levelo_inurba_marseille","lat":43.27837,"lon":5.39209,"is_reserved":false,"is_disabled":false,"rental_uris":{"android":"levelo://app?vid=df1fc8c1-7428-450e-a744-0efcacb82501","ios":"levelo://app?vid=df1fc8c1-7428-450e-a744-0efcacb82501"},"vehicle_type_id":"4","last_reported":1737385754,"current_range_meters":21600,"station_id":"ce4bhjp2rcd13ifvqga0","pricing_plan_id":"cebpf4jnsgd1na2vs0mg"},{"bike_id":"51379e9f-1ebd-43ee-bd84-6927ab606473","system_id":"levelo_inurba_marseille","lat":43.24182,"lon":5.36406,"is_reserved":false,"is_disabled":false,"rental_uris":{"android":"levelo://app?vid=51379e9f-1ebd-43ee-bd84-6927ab606473","ios":"levelo://app?vid=51379e9f-1ebd-43ee-bd84-6927ab606473"},"vehicle_type_id":"4","last_reported":1737385754,"current_range_meters":22000,"station_id":"cpo36qri1sfpv3e86is0","pricing_plan_id":"cebpf4jnsgd1na2vs0mg"},{"bike_id":"57d9fa47-e597-4ea4-913f-9b45079bd718","system_id":"levelo_inurba_marseille","lat":43.33016,"lon":5.39023,"is_reserved":false,"is_disabled":false,"rental_uris":{"android":"levelo://app?vid=57d9fa47-e597-4ea4-913f-9b45079bd718","ios":"levelo://app?vid=57d9fa47-e597-4ea4-913f-9b45079bd718"},"vehicle_type_id":"4","last_reported":1737385754,"current_range_meters":38800,"station_id":"ce4bhr92rcd13ifvqhrg","pricing_plan_id":"cebpf4jnsgd1na2vs0mg"},{"bike_id":"e3ed28e1-a9df-4580-93e8-6f989d83e39f","system_id":"levelo_inurba_marseille","lat":43.30934,"lon":5.40136,"is_reserved":false,"is_disabled":false,"rental_uris":{"android":"levelo://app?vid=e3ed28e1-a9df-4580-93e8-6f989d83e39f","ios":"levelo://app?vid=e3ed28e1-a9df-4580-93e8-6f989d83e39f"},"vehicle_type_id":"4","last_reported":1737385754,"current_range_meters":38400,"station_id":"ce4bgvp2rcd13ifvqct0","pricing_plan_id":"cebpf4jnsgd1na2vs0mg"},{"bike_id":"a6817152-9db4-45be-84b1-a30b6bbc47cf","system_id":"levelo_inurba_marseille","lat":43.24174,"lon":5.39726,"is_reserved":false,"is_disabled":false,"rental_uris":{"android":"levelo://app?vid=a6817152-9db4-45be-84b1-a30b6bbc47cf","ios":"levelo://app?vid=a6817152-9db4-45be-84b1-a30b6bbc47cf"},"vehicle_type_id":"4","last_reported":1737385754,"current_range_meters":38800,"station_id":"ce4bhn12rcd13ifvqgpg","pricing_plan_id":"cebpf4jnsgd1na2vs0mg"},{"bike_id":"d7b57092-5089-4c4a-819e-bef9772d11d8","system_id":"levelo_inurba_marseille","lat":43.31809,"lon":5.37793,"is_reserved":false,"is_disabled":false,"rental_uris":{"android":"levelo://app?vid=d7b57092-5089-4c4a-819e-bef9772d11d8","ios":"levelo://app?vid=d7b57092-5089-4c4a-819e-bef9772d11d8"},"vehicle_type_id":"4","last_reported":1737385754,"current_range_meters":28400,"station_id":"","pricing_plan_id":"cebpf4jnsgd1na2vs0mg"},{"bike_id":"0f9a51b5-33b6-4681-96a4-d75e5d427826","system_id":"levelo_inurba_marseille","lat":43.26047,"lon":5.39376,"is_reserved":false,"is_disabled":false,"rental_uris":{"android":"levelo://app?vid=0f9a51b5-33b6-4681-96a4-d75e5d427826","ios":"levelo://app?vid=0f9a51b5-33b6-4681-96a4-d75e5d427826"},"vehicle_type_id":"4","last_reported":1737385754,"current_range_meters":39200,"station_id":"ce4bhh92rcd13ifvqfj0","pricing_plan_id":"cebpf4jnsgd1na2vs0mg"},{"bike_id":"970eacc2-5e8f-4753-aa3e-5d8cafb72393","system_id":"levelo_inurba_marseille","lat":43.25914,"lon":5.40849,"is_reserved":false,"is_disabled":false,"rental_uris":{"android":"levelo://app?vid=970eacc2-5e8f-4753-aa3e-5d8cafb72393","ios":"levelo://app?vid=970eacc2-5e8f-4753-aa3e-5d8cafb72393"},"vehicle_type_id":"4","last_reported":1737385754,"current_range_meters":31200,"station_id":"ce4bhm92rcd13ifvqglg","pricing_plan_id":"cebpf4jnsgd1na2vs0mg"},{"bike_id":"4dd18008-a90c-4b53-a79b-268ac6e528c0","system_id":"levelo_inurba_marseille","lat":43.25587,"lon":5.38231,"is_reserved":false,"is_disabled":false,"rental_uris":{"android":"levelo://app?vid=4dd18008-a90c-4b53-a79b-268ac6e528c0","ios":"levelo://app?vid=4dd18008-a90c-4b53-a79b-268ac6e528c0"},"vehicle_type_id":"4","last_reported":1737385754,"current_range_meters":6000,"station_id":"ce4bhih2rcd13ifvqfs0","pricing_plan_id":"cebpf4jnsgd1na2vs0mg"},{"bike_id":"ebaeafd1-46aa-457e-a8d6-6e9b76060e98","system_id":"levelo_inurba_marseille","lat":43.26213,"lon":5.37438,"is_reserved":false,"is_disabled":false,"rental_uris":{"android":"levelo://app?vid=ebaeafd1-46aa-457e-a8d6-6e9b76060e98","ios":"levelo://app?vid=ebaeafd1-46aa-457e-a8d6-6e9b76060e98"},"vehicle_type_id":"4","last_reported":1737385754,"current_range_meters":9600,"station_id":"ce4bhgp2rcd13ifvqfc0","pricing_plan_id":"cebpf4jnsgd1na2vs0mg"},{"bike_id":"4104cbba-088f-4383-b2a0-261d17699731","system_id":"levelo_inurba_marseille","lat":43.23964,"lon":5.36633,"is_reserved":false,"is_disabled":false,"rental_uris":{"android":"levelo://app?vid=4104cbba-088f-4383-b2a0-261d17699731","ios":"levelo://app?vid=4104cbba-088f-4383-b2a0-261d17699731"},"vehicle_type_id":"4","last_reported":1737385754,"current_range_meters":32000,"station_id":"ce4bhi12rcd13ifvqfp0","pricing_plan_id":"cebpf4jnsgd1na2vs0mg"},{"bike_id":"dd87f22f-9bef-4002-9dbf-de2af369e46e","system_id":"levelo_inurba_marseille","lat":43.31994,"lon":5.38155,"is_reserved":false,"is_disabled":false,"rental_uris":{"android":"levelo://app?vid=dd87f22f-9bef-4002-9dbf-de2af369e46e","ios":"levelo://app?vid=dd87f22f-9bef-4002-9dbf-de2af369e46e"},"vehicle_type_id":"4","last_reported":1737385754,"current_range_meters":8000,"station_id":"ce4bhr12rcd13ifvqhpg","pricing_plan_id":"cebpf4jnsgd1na2vs0mg"},{"bike_id":"e4f8bbc0-3e71-4438-9c78-7d4251a5823b","system_id":"levelo_inurba_marseille","lat":43.29574,"lon":5.37491,"is_reserved":false,"is_disabled":false,"rental_uris":{"android":"levelo://app?vid=e4f8bbc0-3e71-4438-9c78-7d4251a5823b","ios":"levelo://app?vid=e4f8bbc0-3e71-4438-9c78-7d4251a5823b"},"vehicle_type_id":"4","last_reported":1737385754,"current_range_meters":30000,"station_id":"ce4bgh92rcd13ifvqb50","pricing_plan_id":"cebpf4jnsgd1na2vs0mg"},{"bike_id":"e769477c-b503-4bb8-b7d3-b7f7ff9ddf2d","system_id":"levelo_inurba_marseille","lat":43.29194,"lon":5.36904,"is_reserved":false,"is_disabled":false,"rental_uris":{"android":"levelo://app?vid=e769477c-b503-4bb8-b7d3-b7f7ff9ddf2d","ios":"levelo://app?vid=e769477c-b503-4bb8-b7d3-b7f7ff9ddf2d"},"vehicle_type_id":"4","last_reported":1737385754,"current_range_meters":14800,"station_id":"","pricing_plan_id":"cebpf4jnsgd1na2vs0mg"},{"bike_id":"28ef1c1e-dd89-43e8-817b-9b489831397b","system_id":"levelo_inurba_marseille","lat":43.27124,"lon":5.39618,"is_reserved":false,"is_disabled":true,"rental_uris":{"android":"levelo://app?vid=28ef1c1e-dd89-43e8-817b-9b489831397b","ios":"levelo://app?vid=28ef1c1e-dd89-43e8-817b-9b489831397b"},"vehicle_type_id":"4","last_reported":1737385754,"current_range_meters":0,"station_id":"","pricing_plan_id":"cebpf4jnsgd1na2vs0mg"},{"bike_id":"a090d58d-a1fb-4921-bd15-f1d1e2db9ea4","system_id":"levelo_inurba_marseille","lat":43.24165,"lon":5.39715,"is_reserved":false,"is_disabled":false,"rental_uris":{"android":"levelo://app?vid=a090d58d-a1fb-4921-bd15-f1d1e2db9ea4","ios":"levelo://app?vid=a090d58d-a1fb-4921-bd15-f1d1e2db9ea4"},"vehicle_type_id":"4","last_reported":1737385754,"current_range_meters":26800,"station_id":"ce4bhn12rcd13ifvqgpg","pricing_plan_id":"cebpf4jnsgd1na2vs0mg"},{"bike_id":"ec0cd54a-c755-41ed-9338-6090d917cbdb","system_id":"levelo_inurba_marseille","lat":43.25108,"lon":5.40318,"is_reserved":false,"is_disabled":false,"rental_uris":{"android":"levelo://app?vid=ec0cd54a-c755-41ed-9338-6090d917cbdb","ios":"levelo://app?vid=ec0cd54a-c755-41ed-9338-6090d917cbdb"},"vehicle_type_id":"4","last_reported":1737385754,"current_range_meters":21600,"station_id":"ce4bhlh2rcd13ifvqgig","pricing_plan_id":"cebpf4jnsgd1na2vs0mg"},{"bike_id":"973357c8-dead-42ca-92e9-500225bc994c","system_id":"levelo_inurba_marseille","lat":43.3301,"lon":5.39051,"is_reserved":false,"is_disabled":false,"rental_uris":{"android":"levelo://app?vid=973357c8-dead-42ca-92e9-500225bc994c","ios":"levelo://app?vid=973357c8-dead-42ca-92e9-500225bc994c"},"vehicle_type_id":"4","last_reported":1737385754,"current_range_meters":38000,"station_id":"ce4bhr92rcd13ifvqhrg","pricing_plan_id":"cebpf4jnsgd1na2vs0mg"},{"bike_id":"e694c080-0fba-4b06-afa7-4a0a93648e7a","system_id":"levelo_inurba_marseille","lat":43.30889,"lon":5.39652,"is_reserved":false,"is_disabled":false,"rental_uris":{"android":"levelo://app?vid=e694c080-0fba-4b06-afa7-4a0a93648e7a","ios":"levelo://app?vid=e694c080-0fba-4b06-afa7-4a0a93648e7a"},"vehicle_type_id":"4","last_reported":1737385754,"current_range_meters":38800,"station_id":"ce4bh012rcd13ifvqcv0","pricing_plan_id":"cebpf4jnsgd1na2vs0mg"},{"bike_id":"4ae41f7d-b4e2-4bab-8aec-8596641bac6c","system_id":"levelo_inurba_marseille","lat":43.29975,"lon":5.37165,"is_reserved":false,"is_disabled":false,"rental_uris":{"android":"levelo://app?vid=4ae41f7d-b4e2-4bab-8aec-8596641bac6c","ios":"levelo://app?vid=4ae41f7d-b4e2-4bab-8aec-8596641bac6c"},"vehicle_type_id":"4","last_reported":1737385754,"current_range_meters":36400,"station_id":"ce4bgr92rcd13ifvqc7g","pricing_plan_id":"cebpf4jnsgd1na2vs0mg"},{"bike_id":"4ca0c0a8-ebec-4495-a31b-51805b75ee6d","system_id":"levelo_inurba_marseille","lat":43.24655,"lon":5.38877,"is_reserved":false,"is_disabled":false,"rental_uris":{"android":"levelo://app?vid=4ca0c0a8-ebec-4495-a31b-51805b75ee6d","ios":"levelo://app?vid=4ca0c0a8-ebec-4495-a31b-51805b75ee6d"},"vehicle_type_id":"4","last_reported":1737385754,"current_range_meters":39200,"station_id":"ce4bhg12rcd13ifvqf60","pricing_plan_id":"cebpf4jnsgd1na2vs0mg"},{"bike_id":"f476d878-7cd0-4f0c-8ec2-9d9f08b67a27","system_id":"levelo_inurba_marseille","lat":43.31269,"lon":5.40162,"is_reserved":false,"is_disabled":false,"rental_uris":{"android":"levelo://app?vid=f476d878-7cd0-4f0c-8ec2-9d9f08b67a27","ios":"levelo://app?vid=f476d878-7cd0-4f0c-8ec2-9d9f08b67a27"},"vehicle_type_id":"4","last_reported":1737385754,"current_range_meters":4400,"station_id":"ce4bh092rcd13ifvqd30","pricing_plan_id":"cebpf4jnsgd1na2vs0mg"},{"bike_id":"572111e7-56a7-4348-acc2-ff87890d28e9","system_id":"levelo_inurba_marseille","lat":43.29527,"lon":5.38548,"is_reserved":false,"is_disabled":false,"rental_uris":{"android":"levelo://app?vid=572111e7-56a7-4348-acc2-ff87890d28e9","ios":"levelo://app?vid=572111e7-56a7-4348-acc2-ff87890d28e9"},"vehicle_type_id":"4","last_reported":1737385754,"current_range_meters":32000,"station_id":"ce4bgih2rcd13ifvqba0","pricing_plan_id":"cebpf4jnsgd1na2vs0mg"},{"bike_id":"6f6889ed-f4f2-4b31-a15e-30f64090c9c8","system_id":"levelo_inurba_marseille","lat":43.29645,"lon":5.40601,"is_reserved":false,"is_disabled":false,"rental_uris":{"android":"levelo://app?vid=6f6889ed-f4f2-4b31-a15e-30f64090c9c8","ios":"levelo://app?vid=6f6889ed-f4f2-4b31-a15e-30f64090c9c8"},"vehicle_type_id":"4","last_reported":1737385754,"current_range_meters":35200,"station_id":"ce4bh0h2rcd13ifvqd60","pricing_plan_id":"cebpf4jnsgd1na2vs0mg"},{"bike_id":"4bfa3751-2adf-4e24-ad92-d28f2c20305c","system_id":"levelo_inurba_marseille","lat":43.26789,"lon":5.39405,"is_reserved":false,"is_disabled":false,"rental_uris":{"android":"levelo://app?vid=4bfa3751-2adf-4e24-ad92-d28f2c20305c","ios":"levelo://app?vid=4bfa3751-2adf-4e24-ad92-d28f2c20305c"},"vehicle_type_id":"4","last_reported":1737385754,"current_range_meters":38800,"station_id":"ce4bhh12rcd13ifvqfg0","pricing_plan_id":"cebpf4jnsgd1na2vs0mg"},{"bike_id":"0243ca9a-116e-44db-9d88-7d30f1fb4775","system_id":"levelo_inurba_marseille","lat":43.24661,"lon":5.3816,"is_reserved":false,"is_disabled":false,"rental_uris":{"android":"levelo://app?vid=0243ca9a-116e-44db-9d88-7d30f1fb4775","ios":"levelo://app?vid=0243ca9a-116e-44db-9d88-7d30f1fb4775"},"vehicle_type_id":"4","last_reported":1737385754,"current_range_meters":20000,"station_id":"ce4bhih2rcd13ifvqfr0","pricing_plan_id":"cebpf4jnsgd1na2vs0mg"},{"bike_id":"01a07bd9-36a1-4c19-a88b-7c9e3a6ee490","system_id":"levelo_inurba_marseille","lat":43.250902,"lon":5.395184,"is_reserved":false,"is_disabled":false,"rental_uris":{"android":"levelo://app?vid=01a07bd9-36a1-4c19-a88b-7c9e3a6ee490","ios":"levelo://app?vid=01a07bd9-36a1-4c19-a88b-7c9e3a6ee490"},"vehicle_type_id":"4","last_reported":1737385754,"current_range_meters":28400,"station_id":"ce4bhm12rcd13ifvqgkg","pricing_plan_id":"cebpf4jnsgd1na2vs0mg"},{"bike_id":"30868fb9-be18-4137-b148-fea1b914be52","system_id":"levelo_inurba_marseille","lat":43.28011,"lon":5.40016,"is_reserved":false,"is_disabled":false,"rental_uris":{"android":"levelo://app?vid=30868fb9-be18-4137-b148-fea1b914be52","ios":"levelo://app?vid=30868fb9-be18-4137-b148-fea1b914be52"},"vehicle_type_id":"4","last_reported":1737385754,"current_range_meters":37600,"station_id":"ce4bho92rcd13ifvqh4g","pricing_plan_id":"cebpf4jnsgd1na2vs0mg"},{"bike_id":"ace5b467-5f52-42c7-ab93-a72a7a8bb190","system_id":"levelo_inurba_marseille","lat":43.29804,"lon":5.40404,"is_reserved":false,"is_disabled":false,"rental_uris":{"android":"levelo://app?vid=ace5b467-5f52-42c7-ab93-a72a7a8bb190","ios":"levelo://app?vid=ace5b467-5f52-42c7-ab93-a72a7a8bb190"},"vehicle_type_id":"4","last_reported":1737385754,"current_range_meters":18000,"station_id":"ce4bh112rcd13ifvqd90","pricing_plan_id":"cebpf4jnsgd1na2vs0mg"},{"bike_id":"9e3bad08-34dc-40b3-9278-f08b4d14df27","system_id":"levelo_inurba_marseille","lat":43.25494,"lon":5.37652,"is_reserved":false,"is_disabled":false,"rental_uris":{"android":"levelo://app?vid=9e3bad08-34dc-40b3-9278-f08b4d14df27","ios":"levelo://app?vid=9e3bad08-34dc-40b3-9278-f08b4d14df27"},"vehicle_type_id":"4","last_reported":1737385754,"current_range_meters":16800,"station_id":"ce4bhh12rcd13ifvqff0","pricing_plan_id":"cebpf4jnsgd1na2vs0mg"},{"bike_id":"fccc6e17-f4f8-4c97-a66a-3fb63053cf88","system_id":"levelo_inurba_marseille","lat":43.25861,"lon":5.39908,"is_reserved":false,"is_disabled":false,"rental_uris":{"android":"levelo://app?vid=fccc6e17-f4f8-4c97-a66a-3fb63053cf88","ios":"levelo://app?vid=fccc6e17-f4f8-4c97-a66a-3fb63053cf88"},"vehicle_type_id":"4","last_reported":1737385754,"current_range_meters":36400,"station_id":"ce4bhl92rcd13ifvqghg","pricing_plan_id":"cebpf4jnsgd1na2vs0mg"},{"bike_id":"ea68e914-6bb7-49e3-b50f-5e87e9543ffe","system_id":"levelo_inurba_marseille","lat":43.30129,"lon":5.374,"is_reserved":false,"is_disabled":false,"rental_uris":{"android":"levelo://app?vid=ea68e914-6bb7-49e3-b50f-5e87e9543ffe","ios":"levelo://app?vid=ea68e914-6bb7-49e3-b50f-5e87e9543ffe"},"vehicle_type_id":"4","last_reported":1737385754,"current_range_meters":30000,"station_id":"ce4bgs92rcd13ifvqcc0","pricing_plan_id":"cebpf4jnsgd1na2vs0mg"},{"bike_id":"ef65797d-8480-4e4b-8d48-79dae38aa545","system_id":"levelo_inurba_marseille","lat":43.29531,"lon":5.38534,"is_reserved":false,"is_disabled":false,"rental_uris":{"android":"levelo://app?vid=ef65797d-8480-4e4b-8d48-79dae38aa545","ios":"levelo://app?vid=ef65797d-8480-4e4b-8d48-79dae38aa545"},"vehicle_type_id":"4","last_reported":1737385754,"current_range_meters":38800,"station_id":"ce4bgih2rcd13ifvqba0","pricing_plan_id":"cebpf4jnsgd1na2vs0mg"},{"bike_id":"c42268c0-a5e0-42b8-b874-93ef21576df8","system_id":"levelo_inurba_marseille","lat":43.281461,"lon":5.426579,"is_reserved":false,"is_disabled":false,"rental_uris":{"android":"levelo://app?vid=c42268c0-a5e0-42b8-b874-93ef21576df8","ios":"levelo://app?vid=c42268c0-a5e0-42b8-b874-93ef21576df8"},"vehicle_type_id":"4","last_reported":1737385754,"current_range_meters":23200,"station_id":"ce4bhnh2rcd13ifvqgug","pricing_plan_id":"cebpf4jnsgd1na2vs0mg"},{"bike_id":"478e4b7e-c5b9-4109-b7f2-4b23513ead4d","system_id":"levelo_inurba_marseille","lat":43.2397,"lon":5.36632,"is_reserved":false,"is_disabled":false,"rental_uris":{"android":"levelo://app?vid=478e4b7e-c5b9-4109-b7f2-4b23513ead4d","ios":"levelo://app?vid=478e4b7e-c5b9-4109-b7f2-4b23513ead4d"},"vehicle_type_id":"4","last_reported":1737385754,"current_range_meters":38800,"station_id":"ce4bhi12rcd13ifvqfp0","pricing_plan_id":"cebpf4jnsgd1na2vs0mg"},{"bike_id":"f6477394-37ad-474b-869e-23ecf9fee49a","system_id":"levelo_inurba_marseille","lat":43.24173,"lon":5.39738,"is_reserved":false,"is_disabled":false,"rental_uris":{"android":"levelo://app?vid=f6477394-37ad-474b-869e-23ecf9fee49a","ios":"levelo://app?vid=f6477394-37ad-474b-869e-23ecf9fee49a"},"vehicle_type_id":"4","last_reported":1737385754,"current_range_meters":38800,"station_id":"ce4bhn12rcd13ifvqgpg","pricing_plan_id":"cebpf4jnsgd1na2vs0mg"},{"bike_id":"01e6e722-f692-47ad-9954-e66b12f335ac","system_id":"levelo_inurba_marseille","lat":43.299748,"lon":5.371926,"is_reserved":false,"is_disabled":false,"rental_uris":{"android":"levelo://app?vid=01e6e722-f692-47ad-9954-e66b12f335ac","ios":"levelo://app?vid=01e6e722-f692-47ad-9954-e66b12f335ac"},"vehicle_type_id":"4","last_reported":1737385754,"current_range_meters":16400,"station_id":"ce4bgr92rcd13ifvqc7g","pricing_plan_id":"cebpf4jnsgd1na2vs0mg"},{"bike_id":"7f095a12-4f92-4659-8967-ab82406b1c77","system_id":"levelo_inurba_marseille","lat":43.23193,"lon":5.39985,"is_reserved":false,"is_disabled":false,"rental_uris":{"android":"levelo://app?vid=7f095a12-4f92-4659-8967-ab82406b1c77","ios":"levelo://app?vid=7f095a12-4f92-4659-8967-ab82406b1c77"},"vehicle_type_id":"4","last_reported":1737385754,"current_range_meters":18800,"station_id":"ce4bhn12rcd13ifvqgqg","pricing_plan_id":"cebpf4jnsgd1na2vs0mg"},{"bike_id":"e9708e1f-0a87-441e-80c6-172d60135fa9","system_id":"levelo_inurba_marseille","lat":43.30645,"lon":5.4009,"is_reserved":false,"is_disabled":false,"rental_uris":{"android":"levelo://app?vid=e9708e1f-0a87-441e-80c6-172d60135fa9","ios":"levelo://app?vid=e9708e1f-0a87-441e-80c6-172d60135fa9"},"vehicle_type_id":"4","last_reported":1737385754,"current_range_meters":38000,"station_id":"ce4bh112rcd13ifvqda0","pricing_plan_id":"cebpf4jnsgd1na2vs0mg"},{"bike_id":"84442a82-0016-4e1a-8bce-e4f7cfc11b46","system_id":"levelo_inurba_marseille","lat":43.28553,"lon":5.37057,"is_reserved":false,"is_disabled":false,"rental_uris":{"android":"levelo://app?vid=84442a82-0016-4e1a-8bce-e4f7cfc11b46","ios":"levelo://app?vid=84442a82-0016-4e1a-8bce-e4f7cfc11b46"},"vehicle_type_id":"4","last_reported":1737385754,"current_range_meters":38800,"station_id":"ce4bht12rcd13ifvqi60","pricing_plan_id":"cebpf4jnsgd1na2vs0mg"},{"bike_id":"03c0808c-4f0a-4ccf-af29-f60079a88ada","system_id":"levelo_inurba_marseille","lat":43.29031,"lon":5.39973,"is_reserved":false,"is_disabled":false,"rental_uris":{"android":"levelo://app?vid=03c0808c-4f0a-4ccf-af29-f60079a88ada","ios":"levelo://app?vid=03c0808c-4f0a-4ccf-af29-f60079a88ada"},"vehicle_type_id":"4","last_reported":1737385754,"current_range_meters":30000,"station_id":"ce4bh392rcd13ifvqdm0","pricing_plan_id":"cebpf4jnsgd1na2vs0mg"},{"bike_id":"519729fb-0d81-4731-817e-6571db3673db","system_id":"levelo_inurba_marseille","lat":43.27568,"lon":5.38414,"is_reserved":false,"is_disabled":false,"rental_uris":{"android":"levelo://app?vid=519729fb-0d81-4731-817e-6571db3673db","ios":"levelo://app?vid=519729fb-0d81-4731-817e-6571db3673db"},"vehicle_type_id":"4","last_reported":1737385754,"current_range_meters":10000,"station_id":"ce4bhh92rcd13ifvqfi0","pricing_plan_id":"cebpf4jnsgd1na2vs0mg"},{"bike_id":"32c787de-90a2-4b26-8e28-584af39ce073","system_id":"levelo_inurba_marseille","lat":43.24165,"lon":5.39728,"is_reserved":false,"is_disabled":false,"rental_uris":{"android":"levelo://app?vid=32c787de-90a2-4b26-8e28-584af39ce073","ios":"levelo://app?vid=32c787de-90a2-4b26-8e28-584af39ce073"},"vehicle_type_id":"4","last_reported":1737385754,"current_range_meters":28000,"station_id":"ce4bhn12rcd13ifvqgpg","pricing_plan_id":"cebpf4jnsgd1na2vs0mg"},{"bike_id":"80bcc3e7-77de-44a5-8965-f19acb6d7452","system_id":"levelo_inurba_marseille","lat":43.33014,"lon":5.39041,"is_reserved":false,"is_disabled":false,"rental_uris":{"android":"levelo://app?vid=80bcc3e7-77de-44a5-8965-f19acb6d7452","ios":"levelo://app?vid=80bcc3e7-77de-44a5-8965-f19acb6d7452"},"vehicle_type_id":"4","last_reported":1737385754,"current_range_meters":38800,"station_id":"ce4bhr92rcd13ifvqhrg","pricing_plan_id":"cebpf4jnsgd1na2vs0mg"},{"bike_id":"a0236cea-e849-4bca-98c0-25af03f7105f","system_id":"levelo_inurba_marseille","lat":43.28261,"lon":5.3508,"is_reserved":false,"is_disabled":false,"rental_uris":{"android":"levelo://app?vid=a0236cea-e849-4bca-98c0-25af03f7105f","ios":"levelo://app?vid=a0236cea-e849-4bca-98c0-25af03f7105f"},"vehicle_type_id":"4","last_reported":1737385754,"current_range_meters":37600,"station_id":"ce4bhbp2rcd13ifvqerg","pricing_plan_id":"cebpf4jnsgd1na2vs0mg"},{"bike_id":"76458d9c-debe-4829-9595-db34e50d2ccc","system_id":"levelo_inurba_marseille","lat":43.286005,"lon":5.37066,"is_reserved":false,"is_disabled":false,"rental_uris":{"android":"levelo://app?vid=76458d9c-debe-4829-9595-db34e50d2ccc","ios":"levelo://app?vid=76458d9c-debe-4829-9595-db34e50d2ccc"},"vehicle_type_id":"4","last_reported":1737385754,"current_range_meters":38800,"station_id":"ce4bht12rcd13ifvqi60","pricing_plan_id":"cebpf4jnsgd1na2vs0mg"},{"bike_id":"5c647c6a-f36f-4ac4-a081-cf09345ba7c6","system_id":"levelo_inurba_marseille","lat":43.25868,"lon":5.399,"is_reserved":false,"is_disabled":false,"rental_uris":{"android":"levelo://app?vid=5c647c6a-f36f-4ac4-a081-cf09345ba7c6","ios":"levelo://app?vid=5c647c6a-f36f-4ac4-a081-cf09345ba7c6"},"vehicle_type_id":"4","last_reported":1737385754,"current_range_meters":38400,"station_id":"ce4bhl92rcd13ifvqghg","pricing_plan_id":"cebpf4jnsgd1na2vs0mg"},{"bike_id":"0f9502e1-eaf5-4b8a-b146-cc2e05e77720","system_id":"levelo_inurba_marseille","lat":43.323659,"lon":5.388839,"is_reserved":false,"is_disabled":false,"rental_uris":{"android":"levelo://app?vid=0f9502e1-eaf5-4b8a-b146-cc2e05e77720","ios":"levelo://app?vid=0f9502e1-eaf5-4b8a-b146-cc2e05e77720"},"vehicle_type_id":"4","last_reported":1737385754,"current_range_meters":38800,"station_id":"ce4bhqp2rcd13ifvqhog","pricing_plan_id":"cebpf4jnsgd1na2vs0mg"},{"bike_id":"bdcfdf44-1c1d-45e8-8e58-21892a26482d","system_id":"levelo_inurba_marseille","lat":43.30541,"lon":5.36705,"is_reserved":false,"is_disabled":false,"rental_uris":{"android":"levelo://app?vid=bdcfdf44-1c1d-45e8-8e58-21892a26482d","ios":"levelo://app?vid=bdcfdf44-1c1d-45e8-8e58-21892a26482d"},"vehicle_type_id":"4","last_reported":1737385754,"current_range_meters":33600,"station_id":"ce4bgrp2rcd13ifvqc9g","pricing_plan_id":"cebpf4jnsgd1na2vs0mg"},{"bike_id":"6eae1927-108a-4bce-be9f-88f2b62606f2","system_id":"levelo_inurba_marseille","lat":43.27989,"lon":5.40031,"is_reserved":false,"is_disabled":false,"rental_uris":{"android":"levelo://app?vid=6eae1927-108a-4bce-be9f-88f2b62606f2","ios":"levelo://app?vid=6eae1927-108a-4bce-be9f-88f2b62606f2"},"vehicle_type_id":"4","last_reported":1737385754,"current_range_meters":38800,"station_id":"ce4bho92rcd13ifvqh4g","pricing_plan_id":"cebpf4jnsgd1na2vs0mg"},{"bike_id":"aea28129-7b19-417e-8504-29dd778b304f","system_id":"levelo_inurba_marseille","lat":43.30786,"lon":5.37651,"is_reserved":false,"is_disabled":false,"rental_uris":{"android":"levelo://app?vid=aea28129-7b19-417e-8504-29dd778b304f","ios":"levelo://app?vid=aea28129-7b19-417e-8504-29dd778b304f"},"vehicle_type_id":"4","last_reported":1737385754,"current_range_meters":34000,"station_id":"ce4bgv92rcd13ifvqcq0","pricing_plan_id":"cebpf4jnsgd1na2vs0mg"},{"bike_id":"b887ec45-2824-4a19-a327-1b38cefbc7dc","system_id":"levelo_inurba_marseille","lat":43.309,"lon":5.36846,"is_reserved":false,"is_disabled":true,"rental_uris":{"android":"levelo://app?vid=b887ec45-2824-4a19-a327-1b38cefbc7dc","ios":"levelo://app?vid=b887ec45-2824-4a19-a327-1b38cefbc7dc"},"vehicle_type_id":"4","last_reported":1737385754,"current_range_meters":34000,"station_id":"ce4bgn92rcd13ifvqbvg","pricing_plan_id":"cebpf4jnsgd1na2vs0mg"},{"bike_id":"b61c958d-4f9f-4dbb-8776-0f3cc9c2c6ba","system_id":"levelo_inurba_marseille","lat":43.29092,"lon":5.38116,"is_reserved":false,"is_disabled":false,"rental_uris":{"android":"levelo://app?vid=b61c958d-4f9f-4dbb-8776-0f3cc9c2c6ba","ios":"levelo://app?vid=b61c958d-4f9f-4dbb-8776-0f3cc9c2c6ba"},"vehicle_type_id":"4","last_reported":1737385754,"current_range_meters":38400,"station_id":"ce4bh512rcd13ifvqe2g","pricing_plan_id":"cebpf4jnsgd1na2vs0mg"},{"bike_id":"8cbb2087-b6b4-4ae0-b8d5-771aab7c927f","system_id":"levelo_inurba_marseille","lat":43.32481,"lon":5.36562,"is_reserved":false,"is_disabled":false,"rental_uris":{"android":"levelo://app?vid=8cbb2087-b6b4-4ae0-b8d5-771aab7c927f","ios":"levelo://app?vid=8cbb2087-b6b4-4ae0-b8d5-771aab7c927f"},"vehicle_type_id":"4","last_reported":1737385754,"current_range_meters":38800,"station_id":"ce4bhs12rcd13ifvqhvg","pricing_plan_id":"cebpf4jnsgd1na2vs0mg"},{"bike_id":"b39f6109-7f56-4b17-b737-eaa8ed0334b8","system_id":"levelo_inurba_marseille","lat":43.30464,"lon":5.37891,"is_reserved":false,"is_disabled":true,"rental_uris":{"android":"levelo://app?vid=b39f6109-7f56-4b17-b737-eaa8ed0334b8","ios":"levelo://app?vid=b39f6109-7f56-4b17-b737-eaa8ed0334b8"},"vehicle_type_id":"4","last_reported":1737385754,"current_range_meters":37600,"station_id":"ce4bgup2rcd13ifvqcn0","pricing_plan_id":"cebpf4jnsgd1na2vs0mg"},{"bike_id":"a0d7a3a5-14dd-46c1-86a2-d2b484840284","system_id":"levelo_inurba_marseille","lat":43.29909,"lon":5.37471,"is_reserved":false,"is_disabled":false,"rental_uris":{"android":"levelo://app?vid=a0d7a3a5-14dd-46c1-86a2-d2b484840284","ios":"levelo://app?vid=a0d7a3a5-14dd-46c1-86a2-d2b484840284"},"vehicle_type_id":"4","last_reported":1737385754,"current_range_meters":9600,"station_id":"ce4bgjh2rcd13ifvqbg0","pricing_plan_id":"cebpf4jnsgd1na2vs0mg"},{"bike_id":"43ab6a6e-18b0-45a2-bdfd-26946078537a","system_id":"levelo_inurba_marseille","lat":43.25025,"lon":5.38909,"is_reserved":false,"is_disabled":false,"rental_uris":{"android":"levelo://app?vid=43ab6a6e-18b0-45a2-bdfd-26946078537a","ios":"levelo://app?vid=43ab6a6e-18b0-45a2-bdfd-26946078537a"},"vehicle_type_id":"4","last_reported":1737385754,"current_range_meters":37600,"station_id":"ce4bhgp2rcd13ifvqfd0","pricing_plan_id":"cebpf4jnsgd1na2vs0mg"},{"bike_id":"204709d2-202a-44aa-8b82-4261c4ea494c","system_id":"levelo_inurba_marseille","lat":43.31682,"lon":5.37736,"is_reserved":false,"is_disabled":false,"rental_uris":{"android":"levelo://app?vid=204709d2-202a-44aa-8b82-4261c4ea494c","ios":"levelo://app?vid=204709d2-202a-44aa-8b82-4261c4ea494c"},"vehicle_type_id":"4","last_reported":1737385754,"current_range_meters":24800,"station_id":"ce4bgth2rcd13ifvqch0","pricing_plan_id":"cebpf4jnsgd1na2vs0mg"},{"bike_id":"d7f6cc1a-b771-4692-87d0-909699ee3858","system_id":"levelo_inurba_marseille","lat":43.292734,"lon":5.368332,"is_reserved":false,"is_disabled":false,"rental_uris":{"android":"levelo://app?vid=d7f6cc1a-b771-4692-87d0-909699ee3858","ios":"levelo://app?vid=d7f6cc1a-b771-4692-87d0-909699ee3858"},"vehicle_type_id":"4","last_reported":1737385754,"current_range_meters":38800,"station_id":"ce4bhbp2rcd13ifvqesg","pricing_plan_id":"cebpf4jnsgd1na2vs0mg"},{"bike_id":"8bdac708-50de-4854-bf5a-e838028e3d1d","system_id":"levelo_inurba_marseille","lat":43.29023,"lon":5.38639,"is_reserved":false,"is_disabled":true,"rental_uris":{"android":"levelo://app?vid=8bdac708-50de-4854-bf5a-e838028e3d1d","ios":"levelo://app?vid=8bdac708-50de-4854-bf5a-e838028e3d1d"},"vehicle_type_id":"4","last_reported":1737385754,"current_range_meters":400,"station_id":"ce4bh4p2rcd13ifvqe0g","pricing_plan_id":"cebpf4jnsgd1na2vs0mg"},{"bike_id":"0e0bbc31-3416-4f49-9d28-8e19e3b61c87","system_id":"levelo_inurba_marseille","lat":43.25823,"lon":5.39447,"is_reserved":false,"is_disabled":false,"rental_uris":{"android":"levelo://app?vid=0e0bbc31-3416-4f49-9d28-8e19e3b61c87","ios":"levelo://app?vid=0e0bbc31-3416-4f49-9d28-8e19e3b61c87"},"vehicle_type_id":"4","last_reported":1737385754,"current_range_meters":23200,"station_id":"ce4bhip2rcd13ifvqft0","pricing_plan_id":"cebpf4jnsgd1na2vs0mg"},{"bike_id":"de5adbf7-c4d4-49e3-ba68-72cc812f5662","system_id":"levelo_inurba_marseille","lat":43.29605,"lon":5.37711,"is_reserved":false,"is_disabled":true,"rental_uris":{"android":"levelo://app?vid=de5adbf7-c4d4-49e3-ba68-72cc812f5662","ios":"levelo://app?vid=de5adbf7-c4d4-49e3-ba68-72cc812f5662"},"vehicle_type_id":"4","last_reported":1737385754,"current_range_meters":38800,"station_id":"ce4bgi92rcd13ifvqb90","pricing_plan_id":"cebpf4jnsgd1na2vs0mg"},{"bike_id":"b697c026-1a3f-4173-8937-04c71439dde2","system_id":"levelo_inurba_marseille","lat":43.29785,"lon":5.39333,"is_reserved":false,"is_disabled":false,"rental_uris":{"android":"levelo://app?vid=b697c026-1a3f-4173-8937-04c71439dde2","ios":"levelo://app?vid=b697c026-1a3f-4173-8937-04c71439dde2"},"vehicle_type_id":"4","last_reported":1737385754,"current_range_meters":36000,"station_id":"chh1huq6cuj3fo74tm60","pricing_plan_id":"cebpf4jnsgd1na2vs0mg"},{"bike_id":"2ab4c899-df3c-4ed8-992f-68390121015a","system_id":"levelo_inurba_marseille","lat":43.27179,"lon":5.40985,"is_reserved":false,"is_disabled":false,"rental_uris":{"android":"levelo://app?vid=2ab4c899-df3c-4ed8-992f-68390121015a","ios":"levelo://app?vid=2ab4c899-df3c-4ed8-992f-68390121015a"},"vehicle_type_id":"4","last_reported":1737385754,"current_range_meters":7200,"station_id":"ce4bhl12rcd13ifvqgf0","pricing_plan_id":"cebpf4jnsgd1na2vs0mg"},{"bike_id":"26b4e719-bb9f-4afe-9060-2745b71e02ff","system_id":"levelo_inurba_marseille","lat":43.27324,"lon":5.3909,"is_reserved":false,"is_disabled":false,"rental_uris":{"android":"levelo://app?vid=26b4e719-bb9f-4afe-9060-2745b71e02ff","ios":"levelo://app?vid=26b4e719-bb9f-4afe-9060-2745b71e02ff"},"vehicle_type_id":"4","last_reported":1737385754,"current_range_meters":38800,"station_id":"ce4bhgp2rcd13ifvqfe0","pricing_plan_id":"cebpf4jnsgd1na2vs0mg"},{"bike_id":"df5b741f-aef4-4d5d-b97c-690eff86a165","system_id":"levelo_inurba_marseille","lat":43.29631,"lon":5.3716,"is_reserved":false,"is_disabled":false,"rental_uris":{"android":"levelo://app?vid=df5b741f-aef4-4d5d-b97c-690eff86a165","ios":"levelo://app?vid=df5b741f-aef4-4d5d-b97c-690eff86a165"},"vehicle_type_id":"4","last_reported":1737385754,"current_range_meters":19600,"station_id":"ce4bgnh2rcd13ifvqc0g","pricing_plan_id":"cebpf4jnsgd1na2vs0mg"},{"bike_id":"0e91b70c-1e42-4d65-a90a-72cbd40954b0","system_id":"levelo_inurba_marseille","lat":43.32367,"lon":5.36763,"is_reserved":false,"is_disabled":false,"rental_uris":{"android":"levelo://app?vid=0e91b70c-1e42-4d65-a90a-72cbd40954b0","ios":"levelo://app?vid=0e91b70c-1e42-4d65-a90a-72cbd40954b0"},"vehicle_type_id":"4","last_reported":1737385754,"current_range_meters":37600,"station_id":"ce4bhsh2rcd13ifvqi2g","pricing_plan_id":"cebpf4jnsgd1na2vs0mg"},{"bike_id":"40d77ee8-b898-48dd-9100-4cc71df6ae2b","system_id":"levelo_inurba_marseille","lat":43.30514,"lon":5.36522,"is_reserved":false,"is_disabled":true,"rental_uris":{"android":"levelo://app?vid=40d77ee8-b898-48dd-9100-4cc71df6ae2b","ios":"levelo://app?vid=40d77ee8-b898-48dd-9100-4cc71df6ae2b"},"vehicle_type_id":"4","last_reported":1737385754,"current_range_meters":0,"station_id":"","pricing_plan_id":"cebpf4jnsgd1na2vs0mg"},{"bike_id":"794621e3-3124-4bb3-96e3-bbeccc7c03ca","system_id":"levelo_inurba_marseille","lat":43.27788,"lon":5.40684,"is_reserved":false,"is_disabled":false,"rental_uris":{"android":"levelo://app?vid=794621e3-3124-4bb3-96e3-bbeccc7c03ca","ios":"levelo://app?vid=794621e3-3124-4bb3-96e3-bbeccc7c03ca"},"vehicle_type_id":"4","last_reported":1737385754,"current_range_meters":30800,"station_id":"ce4bhnh2rcd13ifvqgtg","pricing_plan_id":"cebpf4jnsgd1na2vs0mg"},{"bike_id":"a3a88281-9ad8-4451-a225-7a4c052d342b","system_id":"levelo_inurba_marseille","lat":43.30137,"lon":5.37411,"is_reserved":false,"is_disabled":false,"rental_uris":{"android":"levelo://app?vid=a3a88281-9ad8-4451-a225-7a4c052d342b","ios":"levelo://app?vid=a3a88281-9ad8-4451-a225-7a4c052d342b"},"vehicle_type_id":"4","last_reported":1737385754,"current_range_meters":35600,"station_id":"ce4bgs92rcd13ifvqcc0","pricing_plan_id":"cebpf4jnsgd1na2vs0mg"},{"bike_id":"da3a7eb9-5fa6-49b3-9e5b-6452969eedf1","system_id":"levelo_inurba_marseille","lat":43.24396,"lon":5.37066,"is_reserved":false,"is_disabled":true,"rental_uris":{"android":"levelo://app?vid=da3a7eb9-5fa6-49b3-9e5b-6452969eedf1","ios":"levelo://app?vid=da3a7eb9-5fa6-49b3-9e5b-6452969eedf1"},"vehicle_type_id":"4","last_reported":1737385754,"current_range_meters":24400,"station_id":"ce4bhhh2rcd13ifvqfk0","pricing_plan_id":"cebpf4jnsgd1na2vs0mg"},{"bike_id":"1c92ca80-b478-4b98-8b2b-ce49639e8b36","system_id":"levelo_inurba_marseille","lat":43.29531,"lon":5.38544,"is_reserved":false,"is_disabled":false,"rental_uris":{"android":"levelo://app?vid=1c92ca80-b478-4b98-8b2b-ce49639e8b36","ios":"levelo://app?vid=1c92ca80-b478-4b98-8b2b-ce49639e8b36"},"vehicle_type_id":"4","last_reported":1737385754,"current_range_meters":32400,"station_id":"ce4bgih2rcd13ifvqba0","pricing_plan_id":"cebpf4jnsgd1na2vs0mg"},{"bike_id":"46fff60c-da93-4e15-9cbf-bedd254fc83d","system_id":"levelo_inurba_marseille","lat":43.2294,"lon":5.35376,"is_reserved":false,"is_disabled":false,"rental_uris":{"android":"levelo://app?vid=46fff60c-da93-4e15-9cbf-bedd254fc83d","ios":"levelo://app?vid=46fff60c-da93-4e15-9cbf-bedd254fc83d"},"vehicle_type_id":"4","last_reported":1737385754,"current_range_meters":35200,"station_id":"cpo3532slgdg3j2ikp40","pricing_plan_id":"cebpf4jnsgd1na2vs0mg"},{"bike_id":"6e9db01f-0755-4ec6-9d15-a5292faa4a4a","system_id":"levelo_inurba_marseille","lat":43.2759,"lon":5.38411,"is_reserved":false,"is_disabled":false,"rental_uris":{"android":"levelo://app?vid=6e9db01f-0755-4ec6-9d15-a5292faa4a4a","ios":"levelo://app?vid=6e9db01f-0755-4ec6-9d15-a5292faa4a4a"},"vehicle_type_id":"4","last_reported":1737385754,"current_range_meters":24400,"station_id":"ce4bhh92rcd13ifvqfi0","pricing_plan_id":"cebpf4jnsgd1na2vs0mg"},{"bike_id":"5f1a1802-506c-4238-8b77-eda8d7a2cfff","system_id":"levelo_inurba_marseille","lat":43.31754,"lon":5.39011,"is_reserved":false,"is_disabled":false,"rental_uris":{"android":"levelo://app?vid=5f1a1802-506c-4238-8b77-eda8d7a2cfff","ios":"levelo://app?vid=5f1a1802-506c-4238-8b77-eda8d7a2cfff"},"vehicle_type_id":"4","last_reported":1737385754,"current_range_meters":35600,"station_id":"ce4bhqp2rcd13ifvqhng","pricing_plan_id":"cebpf4jnsgd1na2vs0mg"},{"bike_id":"201184dd-de12-42f6-b9a8-f94cf04ddff5","system_id":"levelo_inurba_marseille","lat":43.31278,"lon":5.40167,"is_reserved":false,"is_disabled":false,"rental_uris":{"android":"levelo://app?vid=201184dd-de12-42f6-b9a8-f94cf04ddff5","ios":"levelo://app?vid=201184dd-de12-42f6-b9a8-f94cf04ddff5"},"vehicle_type_id":"4","last_reported":1737385754,"current_range_meters":33200,"station_id":"ce4bh092rcd13ifvqd30","pricing_plan_id":"cebpf4jnsgd1na2vs0mg"},{"bike_id":"50dba693-3f20-4623-8166-70f63f76c0f6","system_id":"levelo_inurba_marseille","lat":43.29076,"lon":5.37167,"is_reserved":false,"is_disabled":false,"rental_uris":{"android":"levelo://app?vid=50dba693-3f20-4623-8166-70f63f76c0f6","ios":"levelo://app?vid=50dba693-3f20-4623-8166-70f63f76c0f6"},"vehicle_type_id":"4","last_reported":1737385754,"current_range_meters":24800,"station_id":"ce4bh5p2rcd13ifvqe4g","pricing_plan_id":"cebpf4jnsgd1na2vs0mg"},{"bike_id":"4237003f-139f-4045-9ac4-cad8fa734532","system_id":"levelo_inurba_marseille","lat":43.27988,"lon":5.41663,"is_reserved":false,"is_disabled":false,"rental_uris":{"android":"levelo://app?vid=4237003f-139f-4045-9ac4-cad8fa734532","ios":"levelo://app?vid=4237003f-139f-4045-9ac4-cad8fa734532"},"vehicle_type_id":"4","last_reported":1737385754,"current_range_meters":39200,"station_id":"ce4bho12rcd13ifvqh1g","pricing_plan_id":"cebpf4jnsgd1na2vs0mg"},{"bike_id":"7f17028b-ec16-42d8-8e33-51365f79cce3","system_id":"levelo_inurba_marseille","lat":43.32361,"lon":5.36764,"is_reserved":false,"is_disabled":false,"rental_uris":{"android":"levelo://app?vid=7f17028b-ec16-42d8-8e33-51365f79cce3","ios":"levelo://app?vid=7f17028b-ec16-42d8-8e33-51365f79cce3"},"vehicle_type_id":"4","last_reported":1737385754,"current_range_meters":23200,"station_id":"ce4bhsh2rcd13ifvqi2g","pricing_plan_id":"cebpf4jnsgd1na2vs0mg"},{"bike_id":"4b88b371-38a3-443d-96cf-2b99cc4f3954","system_id":"levelo_inurba_marseille","lat":43.29719,"lon":5.37671,"is_reserved":false,"is_disabled":true,"rental_uris":{"android":"levelo://app?vid=4b88b371-38a3-443d-96cf-2b99cc4f3954","ios":"levelo://app?vid=4b88b371-38a3-443d-96cf-2b99cc4f3954"},"vehicle_type_id":"4","last_reported":1737385754,"current_range_meters":18800,"station_id":"ce4bgkh2rcd13ifvqbl0","pricing_plan_id":"cebpf4jnsgd1na2vs0mg"},{"bike_id":"7a956b0b-b8f6-4389-bb50-97bccab2a50c","system_id":"levelo_inurba_marseille","lat":43.2592,"lon":5.40861,"is_reserved":false,"is_disabled":false,"rental_uris":{"android":"levelo://app?vid=7a956b0b-b8f6-4389-bb50-97bccab2a50c","ios":"levelo://app?vid=7a956b0b-b8f6-4389-bb50-97bccab2a50c"},"vehicle_type_id":"4","last_reported":1737385754,"current_range_meters":38800,"station_id":"ce4bhm92rcd13ifvqglg","pricing_plan_id":"cebpf4jnsgd1na2vs0mg"},{"bike_id":"b41d8d28-f9f4-4ebd-811b-644579f3942b","system_id":"levelo_inurba_marseille","lat":43.25,"lon":5.38918,"is_reserved":false,"is_disabled":false,"rental_uris":{"android":"levelo://app?vid=b41d8d28-f9f4-4ebd-811b-644579f3942b","ios":"levelo://app?vid=b41d8d28-f9f4-4ebd-811b-644579f3942b"},"vehicle_type_id":"4","last_reported":1737385754,"current_range_meters":36400,"station_id":"ce4bhgp2rcd13ifvqfd0","pricing_plan_id":"cebpf4jnsgd1na2vs0mg"},{"bike_id":"a80b852c-67f7-4f92-bf4d-54e70b44a4b9","system_id":"levelo_inurba_marseille","lat":43.29841,"lon":5.36268,"is_reserved":false,"is_disabled":false,"rental_uris":{"android":"levelo://app?vid=a80b852c-67f7-4f92-bf4d-54e70b44a4b9","ios":"levelo://app?vid=a80b852c-67f7-4f92-bf4d-54e70b44a4b9"},"vehicle_type_id":"4","last_reported":1737385754,"current_range_meters":38800,"station_id":"ce4bgpp2rcd13ifvqc3g","pricing_plan_id":"cebpf4jnsgd1na2vs0mg"},{"bike_id":"e6756df9-0434-4060-9b7a-23ac21659d75","system_id":"levelo_inurba_marseille","lat":43.29431,"lon":5.38619,"is_reserved":false,"is_disabled":false,"rental_uris":{"android":"levelo://app?vid=e6756df9-0434-4060-9b7a-23ac21659d75","ios":"levelo://app?vid=e6756df9-0434-4060-9b7a-23ac21659d75"},"vehicle_type_id":"4","last_reported":1737385754,"current_range_meters":39200,"station_id":"ce4bh2h2rcd13ifvqdh0","pricing_plan_id":"cebpf4jnsgd1na2vs0mg"},{"bike_id":"1fff2a9f-023a-43ec-bd02-633596668a23","system_id":"levelo_inurba_marseille","lat":43.29633,"lon":5.37151,"is_reserved":false,"is_disabled":false,"rental_uris":{"android":"levelo://app?vid=1fff2a9f-023a-43ec-bd02-633596668a23","ios":"levelo://app?vid=1fff2a9f-023a-43ec-bd02-633596668a23"},"vehicle_type_id":"4","last_reported":1737385754,"current_range_meters":38800,"station_id":"ce4bgnh2rcd13ifvqc0g","pricing_plan_id":"cebpf4jnsgd1na2vs0mg"},{"bike_id":"504e09bb-6142-458d-b747-807450eb3617","system_id":"levelo_inurba_marseille","lat":43.28937,"lon":5.38389,"is_reserved":false,"is_disabled":false,"rental_uris":{"android":"levelo://app?vid=504e09bb-6142-458d-b747-807450eb3617","ios":"levelo://app?vid=504e09bb-6142-458d-b747-807450eb3617"},"vehicle_type_id":"4","last_reported":1737385754,"current_range_meters":28800,"station_id":"ce4bh612rcd13ifvqe6g","pricing_plan_id":"cebpf4jnsgd1na2vs0mg"},{"bike_id":"bd829f17-878a-44a0-9d05-08cf1ff995f3","system_id":"levelo_inurba_marseille","lat":43.26925,"lon":5.38915,"is_reserved":false,"is_disabled":false,"rental_uris":{"android":"levelo://app?vid=bd829f17-878a-44a0-9d05-08cf1ff995f3","ios":"levelo://app?vid=bd829f17-878a-44a0-9d05-08cf1ff995f3"},"vehicle_type_id":"4","last_reported":1737385754,"current_range_meters":38000,"station_id":"ce4bhhh2rcd13ifvqfl0","pricing_plan_id":"cebpf4jnsgd1na2vs0mg"},{"bike_id":"56ffccb1-6f83-4a26-a09b-549af458dc43","system_id":"levelo_inurba_marseille","lat":43.27617,"lon":5.36115,"is_reserved":false,"is_disabled":false,"rental_uris":{"android":"levelo://app?vid=56ffccb1-6f83-4a26-a09b-549af458dc43","ios":"levelo://app?vid=56ffccb1-6f83-4a26-a09b-549af458dc43"},"vehicle_type_id":"4","last_reported":1737385754,"current_range_meters":26000,"station_id":"ce4bgj92rcd13ifvqbe0","pricing_plan_id":"cebpf4jnsgd1na2vs0mg"},{"bike_id":"e274159c-9d85-4e90-b9c4-fcc879511945","system_id":"levelo_inurba_marseille","lat":43.33027,"lon":5.39038,"is_reserved":false,"is_disabled":false,"rental_uris":{"android":"levelo://app?vid=e274159c-9d85-4e90-b9c4-fcc879511945","ios":"levelo://app?vid=e274159c-9d85-4e90-b9c4-fcc879511945"},"vehicle_type_id":"4","last_reported":1737385754,"current_range_meters":38800,"station_id":"ce4bhr92rcd13ifvqhrg","pricing_plan_id":"cebpf4jnsgd1na2vs0mg"},{"bike_id":"f2390374-e060-4fe1-bcfa-cb2711193e58","system_id":"levelo_inurba_marseille","lat":43.25092,"lon":5.39519,"is_reserved":false,"is_disabled":false,"rental_uris":{"android":"levelo://app?vid=f2390374-e060-4fe1-bcfa-cb2711193e58","ios":"levelo://app?vid=f2390374-e060-4fe1-bcfa-cb2711193e58"},"vehicle_type_id":"4","last_reported":1737385754,"current_range_meters":35200,"station_id":"ce4bhm12rcd13ifvqgkg","pricing_plan_id":"cebpf4jnsgd1na2vs0mg"},{"bike_id":"0f8104d8-ae0e-40b2-9d64-c24deeb12b25","system_id":"levelo_inurba_marseille","lat":43.30686,"lon":5.36911,"is_reserved":false,"is_disabled":false,"rental_uris":{"android":"levelo://app?vid=0f8104d8-ae0e-40b2-9d64-c24deeb12b25","ios":"levelo://app?vid=0f8104d8-ae0e-40b2-9d64-c24deeb12b25"},"vehicle_type_id":"4","last_reported":1737385754,"current_range_meters":24400,"station_id":"","pricing_plan_id":"cebpf4jnsgd1na2vs0mg"},{"bike_id":"ef6fbc77-630d-4348-abf5-45b0f182dadb","system_id":"levelo_inurba_marseille","lat":43.32364,"lon":5.38884,"is_reserved":false,"is_disabled":false,"rental_uris":{"android":"levelo://app?vid=ef6fbc77-630d-4348-abf5-45b0f182dadb","ios":"levelo://app?vid=ef6fbc77-630d-4348-abf5-45b0f182dadb"},"vehicle_type_id":"4","last_reported":1737385754,"current_range_meters":24400,"station_id":"ce4bhqp2rcd13ifvqhog","pricing_plan_id":"cebpf4jnsgd1na2vs0mg"},{"bike_id":"6fa96e81-a119-436e-b985-1cf31a85cc4c","system_id":"levelo_inurba_marseille","lat":43.27907,"lon":5.38005,"is_reserved":false,"is_disabled":false,"rental_uris":{"android":"levelo://app?vid=6fa96e81-a119-436e-b985-1cf31a85cc4c","ios":"levelo://app?vid=6fa96e81-a119-436e-b985-1cf31a85cc4c"},"vehicle_type_id":"4","last_reported":1737385754,"current_range_meters":28800,"station_id":"ce4bhf92rcd13ifvqf50","pricing_plan_id":"cebpf4jnsgd1na2vs0mg"},{"bike_id":"2c745f4c-3059-4d3d-99d0-8a2b7829caa1","system_id":"levelo_inurba_marseille","lat":43.31483,"lon":5.37285,"is_reserved":false,"is_disabled":false,"rental_uris":{"android":"levelo://app?vid=2c745f4c-3059-4d3d-99d0-8a2b7829caa1","ios":"levelo://app?vid=2c745f4c-3059-4d3d-99d0-8a2b7829caa1"},"vehicle_type_id":"4","last_reported":1737385754,"current_range_meters":38800,"station_id":"ce4bgt12rcd13ifvqcd0","pricing_plan_id":"cebpf4jnsgd1na2vs0mg"},{"bike_id":"bfa6561b-6f46-46eb-8fc3-e21d1a0cb5d2","system_id":"levelo_inurba_marseille","lat":43.30647,"lon":5.40099,"is_reserved":false,"is_disabled":false,"rental_uris":{"android":"levelo://app?vid=bfa6561b-6f46-46eb-8fc3-e21d1a0cb5d2","ios":"levelo://app?vid=bfa6561b-6f46-46eb-8fc3-e21d1a0cb5d2"},"vehicle_type_id":"4","last_reported":1737385754,"current_range_meters":35600,"station_id":"ce4bh112rcd13ifvqda0","pricing_plan_id":"cebpf4jnsgd1na2vs0mg"},{"bike_id":"e768d22a-471b-44a7-9c0b-92942b2bfa50","system_id":"levelo_inurba_marseille","lat":43.24399,"lon":5.37067,"is_reserved":false,"is_disabled":false,"rental_uris":{"android":"levelo://app?vid=e768d22a-471b-44a7-9c0b-92942b2bfa50","ios":"levelo://app?vid=e768d22a-471b-44a7-9c0b-92942b2bfa50"},"vehicle_type_id":"4","last_reported":1737385754,"current_range_meters":27600,"station_id":"ce4bhhh2rcd13ifvqfk0","pricing_plan_id":"cebpf4jnsgd1na2vs0mg"},{"bike_id":"29709dd5-89d5-4afa-843d-98e99f944858","system_id":"levelo_inurba_marseille","lat":43.299822,"lon":5.37182,"is_reserved":false,"is_disabled":false,"rental_uris":{"android":"levelo://app?vid=29709dd5-89d5-4afa-843d-98e99f944858","ios":"levelo://app?vid=29709dd5-89d5-4afa-843d-98e99f944858"},"vehicle_type_id":"4","last_reported":1737385754,"current_range_meters":38800,"station_id":"ce4bgr92rcd13ifvqc7g","pricing_plan_id":"cebpf4jnsgd1na2vs0mg"},{"bike_id":"428faabc-ce64-4181-8395-0edb69b9e20d","system_id":"levelo_inurba_marseille","lat":43.30572,"lon":5.36697,"is_reserved":false,"is_disabled":false,"rental_uris":{"android":"levelo://app?vid=428faabc-ce64-4181-8395-0edb69b9e20d","ios":"levelo://app?vid=428faabc-ce64-4181-8395-0edb69b9e20d"},"vehicle_type_id":"4","last_reported":1737385754,"current_range_meters":38800,"station_id":"ce4bgrp2rcd13ifvqc9g","pricing_plan_id":"cebpf4jnsgd1na2vs0mg"},{"bike_id":"432dd31d-cc41-4b41-a4f4-a795e2e3aa37","system_id":"levelo_inurba_marseille","lat":43.29794,"lon":5.38074,"is_reserved":false,"is_disabled":false,"rental_uris":{"android":"levelo://app?vid=432dd31d-cc41-4b41-a4f4-a795e2e3aa37","ios":"levelo://app?vid=432dd31d-cc41-4b41-a4f4-a795e2e3aa37"},"vehicle_type_id":"4","last_reported":1737385754,"current_range_meters":32400,"station_id":"ce4bgip2rcd13ifvqbb0","pricing_plan_id":"cebpf4jnsgd1na2vs0mg"},{"bike_id":"5e339aa2-ed7e-44c6-9974-2fdc1901c1ee","system_id":"levelo_inurba_marseille","lat":43.317573,"lon":5.390205,"is_reserved":false,"is_disabled":false,"rental_uris":{"android":"levelo://app?vid=5e339aa2-ed7e-44c6-9974-2fdc1901c1ee","ios":"levelo://app?vid=5e339aa2-ed7e-44c6-9974-2fdc1901c1ee"},"vehicle_type_id":"4","last_reported":1737385754,"current_range_meters":10000,"station_id":"ce4bhqp2rcd13ifvqhng","pricing_plan_id":"cebpf4jnsgd1na2vs0mg"},{"bike_id":"52f8f905-79d8-425c-a877-6c8f235af70d","system_id":"levelo_inurba_marseille","lat":43.3089,"lon":5.39654,"is_reserved":false,"is_disabled":false,"rental_uris":{"android":"levelo://app?vid=52f8f905-79d8-425c-a877-6c8f235af70d","ios":"levelo://app?vid=52f8f905-79d8-425c-a877-6c8f235af70d"},"vehicle_type_id":"4","last_reported":1737385754,"current_range_meters":24000,"station_id":"ce4bh012rcd13ifvqcv0","pricing_plan_id":"cebpf4jnsgd1na2vs0mg"},{"bike_id":"36b02f5b-366d-4c8d-ac75-9c5f7c4d6ba1","system_id":"levelo_inurba_marseille","lat":43.31279,"lon":5.40164,"is_reserved":false,"is_disabled":false,"rental_uris":{"android":"levelo://app?vid=36b02f5b-366d-4c8d-ac75-9c5f7c4d6ba1","ios":"levelo://app?vid=36b02f5b-366d-4c8d-ac75-9c5f7c4d6ba1"},"vehicle_type_id":"4","last_reported":1737385754,"current_range_meters":39200,"station_id":"ce4bh092rcd13ifvqd30","pricing_plan_id":"cebpf4jnsgd1na2vs0mg"},{"bike_id":"c4190f9c-0a89-4de8-9ad4-9ce6122ee200","system_id":"levelo_inurba_marseille","lat":43.25086,"lon":5.39527,"is_reserved":false,"is_disabled":false,"rental_uris":{"android":"levelo://app?vid=c4190f9c-0a89-4de8-9ad4-9ce6122ee200","ios":"levelo://app?vid=c4190f9c-0a89-4de8-9ad4-9ce6122ee200"},"vehicle_type_id":"4","last_reported":1737385754,"current_range_meters":16000,"station_id":"ce4bhm12rcd13ifvqgkg","pricing_plan_id":"cebpf4jnsgd1na2vs0mg"},{"bike_id":"0e37a4bd-7850-41b7-91e1-556e8b5c7017","system_id":"levelo_inurba_marseille","lat":43.28156,"lon":5.4264,"is_reserved":false,"is_disabled":false,"rental_uris":{"android":"levelo://app?vid=0e37a4bd-7850-41b7-91e1-556e8b5c7017","ios":"levelo://app?vid=0e37a4bd-7850-41b7-91e1-556e8b5c7017"},"vehicle_type_id":"4","last_reported":1737385754,"current_range_meters":29600,"station_id":"ce4bhnh2rcd13ifvqgug","pricing_plan_id":"cebpf4jnsgd1na2vs0mg"},{"bike_id":"9fc46796-0a4e-4d63-aab0-34221c086d80","system_id":"levelo_inurba_marseille","lat":43.29836,"lon":5.39294,"is_reserved":false,"is_disabled":false,"rental_uris":{"android":"levelo://app?vid=9fc46796-0a4e-4d63-aab0-34221c086d80","ios":"levelo://app?vid=9fc46796-0a4e-4d63-aab0-34221c086d80"},"vehicle_type_id":"4","last_reported":1737385754,"current_range_meters":16000,"station_id":"ce4bh092rcd13ifvqd30","pricing_plan_id":"cebpf4jnsgd1na2vs0mg"},{"bike_id":"726d19e3-8e15-462e-b816-e1720b7842d5","system_id":"levelo_inurba_marseille","lat":43.26789,"lon":5.39428,"is_reserved":false,"is_disabled":false,"rental_uris":{"android":"levelo://app?vid=726d19e3-8e15-462e-b816-e1720b7842d5","ios":"levelo://app?vid=726d19e3-8e15-462e-b816-e1720b7842d5"},"vehicle_type_id":"4","last_reported":1737385754,"current_range_meters":38800,"station_id":"ce4bhh12rcd13ifvqfg0","pricing_plan_id":"cebpf4jnsgd1na2vs0mg"},{"bike_id":"0fb4a906-1210-425c-8246-71b92a62dd57","system_id":"levelo_inurba_marseille","lat":43.32543,"lon":5.41466,"is_reserved":false,"is_disabled":false,"rental_uris":{"android":"levelo://app?vid=0fb4a906-1210-425c-8246-71b92a62dd57","ios":"levelo://app?vid=0fb4a906-1210-425c-8246-71b92a62dd57"},"vehicle_type_id":"4","last_reported":1737385754,"current_range_meters":35200,"station_id":"ce4bhq12rcd13ifvqhhg","pricing_plan_id":"cebpf4jnsgd1na2vs0mg"},{"bike_id":"5957b55c-bbf3-4d79-a9fa-182e34bda710","system_id":"levelo_inurba_marseille","lat":43.26687,"lon":5.40299,"is_reserved":false,"is_disabled":false,"rental_uris":{"android":"levelo://app?vid=5957b55c-bbf3-4d79-a9fa-182e34bda710","ios":"levelo://app?vid=5957b55c-bbf3-4d79-a9fa-182e34bda710"},"vehicle_type_id":"4","last_reported":1737385754,"current_range_meters":10000,"station_id":"","pricing_plan_id":"cebpf4jnsgd1na2vs0mg"},{"bike_id":"668f9767-c78d-438a-96bb-c0760f782967","system_id":"levelo_inurba_marseille","lat":43.26207,"lon":5.37911,"is_reserved":false,"is_disabled":false,"rental_uris":{"android":"levelo://app?vid=668f9767-c78d-438a-96bb-c0760f782967","ios":"levelo://app?vid=668f9767-c78d-438a-96bb-c0760f782967"},"vehicle_type_id":"4","last_reported":1737385754,"current_range_meters":31200,"station_id":"ce4bhjp2rcd13ifvqg90","pricing_plan_id":"cebpf4jnsgd1na2vs0mg"},{"bike_id":"b4fa5c01-cecc-49e4-9482-65309291a760","system_id":"levelo_inurba_marseille","lat":43.25003,"lon":5.3894,"is_reserved":false,"is_disabled":false,"rental_uris":{"android":"levelo://app?vid=b4fa5c01-cecc-49e4-9482-65309291a760","ios":"levelo://app?vid=b4fa5c01-cecc-49e4-9482-65309291a760"},"vehicle_type_id":"4","last_reported":1737385754,"current_range_meters":32800,"station_id":"ce4bhgp2rcd13ifvqfd0","pricing_plan_id":"cebpf4jnsgd1na2vs0mg"},{"bike_id":"508fb08a-89ba-4f4d-a1a9-980afbb62692","system_id":"levelo_inurba_marseille","lat":43.29272,"lon":5.36846,"is_reserved":false,"is_disabled":false,"rental_uris":{"android":"levelo://app?vid=508fb08a-89ba-4f4d-a1a9-980afbb62692","ios":"levelo://app?vid=508fb08a-89ba-4f4d-a1a9-980afbb62692"},"vehicle_type_id":"4","last_reported":1737385754,"current_range_meters":36400,"station_id":"ce4bhbp2rcd13ifvqesg","pricing_plan_id":"cebpf4jnsgd1na2vs0mg"},{"bike_id":"4f40d972-06fd-42b6-87d8-47b7f66628c5","system_id":"levelo_inurba_marseille","lat":43.23957,"lon":5.36635,"is_reserved":false,"is_disabled":false,"rental_uris":{"android":"levelo://app?vid=4f40d972-06fd-42b6-87d8-47b7f66628c5","ios":"levelo://app?vid=4f40d972-06fd-42b6-87d8-47b7f66628c5"},"vehicle_type_id":"4","last_reported":1737385754,"current_range_meters":6400,"station_id":"ce4bhi12rcd13ifvqfp0","pricing_plan_id":"cebpf4jnsgd1na2vs0mg"},{"bike_id":"17f1257a-2651-4875-bbfd-907c51ed2829","system_id":"levelo_inurba_marseille","lat":43.23963,"lon":5.36628,"is_reserved":false,"is_disabled":false,"rental_uris":{"android":"levelo://app?vid=17f1257a-2651-4875-bbfd-907c51ed2829","ios":"levelo://app?vid=17f1257a-2651-4875-bbfd-907c51ed2829"},"vehicle_type_id":"4","last_reported":1737385754,"current_range_meters":36000,"station_id":"ce4bhi12rcd13ifvqfp0","pricing_plan_id":"cebpf4jnsgd1na2vs0mg"},{"bike_id":"3c4babb6-5989-4438-bf36-39d55ca1c696","system_id":"levelo_inurba_marseille","lat":43.29018,"lon":5.38142,"is_reserved":false,"is_disabled":false,"rental_uris":{"android":"levelo://app?vid=3c4babb6-5989-4438-bf36-39d55ca1c696","ios":"levelo://app?vid=3c4babb6-5989-4438-bf36-39d55ca1c696"},"vehicle_type_id":"4","last_reported":1737385754,"current_range_meters":25600,"station_id":"ce4bh4p2rcd13ifvqe1g","pricing_plan_id":"cebpf4jnsgd1na2vs0mg"},{"bike_id":"55ffbcd1-eef7-48c6-8e1e-15dc3a2da4c1","system_id":"levelo_inurba_marseille","lat":43.28149,"lon":5.4264,"is_reserved":false,"is_disabled":false,"rental_uris":{"android":"levelo://app?vid=55ffbcd1-eef7-48c6-8e1e-15dc3a2da4c1","ios":"levelo://app?vid=55ffbcd1-eef7-48c6-8e1e-15dc3a2da4c1"},"vehicle_type_id":"4","last_reported":1737385754,"current_range_meters":26000,"station_id":"ce4bhnh2rcd13ifvqgug","pricing_plan_id":"cebpf4jnsgd1na2vs0mg"},{"bike_id":"2398b642-cd0a-4a16-abf3-3ac0b4a8c4a8","system_id":"levelo_inurba_marseille","lat":43.32473,"lon":5.3659,"is_reserved":false,"is_disabled":false,"rental_uris":{"android":"levelo://app?vid=2398b642-cd0a-4a16-abf3-3ac0b4a8c4a8","ios":"levelo://app?vid=2398b642-cd0a-4a16-abf3-3ac0b4a8c4a8"},"vehicle_type_id":"4","last_reported":1737385754,"current_range_meters":16000,"station_id":"ce4bhs12rcd13ifvqhvg","pricing_plan_id":"cebpf4jnsgd1na2vs0mg"},{"bike_id":"3133a507-5996-4484-a064-80f7bc3eca44","system_id":"levelo_inurba_marseille","lat":43.30326,"lon":5.40434,"is_reserved":false,"is_disabled":false,"rental_uris":{"android":"levelo://app?vid=3133a507-5996-4484-a064-80f7bc3eca44","ios":"levelo://app?vid=3133a507-5996-4484-a064-80f7bc3eca44"},"vehicle_type_id":"4","last_reported":1737385754,"current_range_meters":38800,"station_id":"ce4bh012rcd13ifvqd10","pricing_plan_id":"cebpf4jnsgd1na2vs0mg"},{"bike_id":"187a71e0-c1c3-4e71-8a26-0d48a596fe6b","system_id":"levelo_inurba_marseille","lat":43.25089,"lon":5.39505,"is_reserved":false,"is_disabled":false,"rental_uris":{"android":"levelo://app?vid=187a71e0-c1c3-4e71-8a26-0d48a596fe6b","ios":"levelo://app?vid=187a71e0-c1c3-4e71-8a26-0d48a596fe6b"},"vehicle_type_id":"4","last_reported":1737385754,"current_range_meters":30000,"station_id":"ce4bhm12rcd13ifvqgkg","pricing_plan_id":"cebpf4jnsgd1na2vs0mg"},{"bike_id":"aeeb7245-8a7c-4b79-b9ac-efca69f7818a","system_id":"levelo_inurba_marseille","lat":43.3212,"lon":5.367683,"is_reserved":false,"is_disabled":false,"rental_uris":{"android":"levelo://app?vid=aeeb7245-8a7c-4b79-b9ac-efca69f7818a","ios":"levelo://app?vid=aeeb7245-8a7c-4b79-b9ac-efca69f7818a"},"vehicle_type_id":"4","last_reported":1737385754,"current_range_meters":16000,"station_id":"ce4bhrh2rcd13ifvqhug","pricing_plan_id":"cebpf4jnsgd1na2vs0mg"},{"bike_id":"7555d10f-5228-403b-838d-0dce11b04ab4","system_id":"levelo_inurba_marseille","lat":43.30133,"lon":5.37421,"is_reserved":false,"is_disabled":false,"rental_uris":{"android":"levelo://app?vid=7555d10f-5228-403b-838d-0dce11b04ab4","ios":"levelo://app?vid=7555d10f-5228-403b-838d-0dce11b04ab4"},"vehicle_type_id":"4","last_reported":1737385754,"current_range_meters":38800,"station_id":"ce4bgs92rcd13ifvqcc0","pricing_plan_id":"cebpf4jnsgd1na2vs0mg"},{"bike_id":"9eb335b9-be9e-4d87-ab11-b7aad1d486a4","system_id":"levelo_inurba_marseille","lat":43.23149,"lon":5.4373,"is_reserved":false,"is_disabled":false,"rental_uris":{"android":"levelo://app?vid=9eb335b9-be9e-4d87-ab11-b7aad1d486a4","ios":"levelo://app?vid=9eb335b9-be9e-4d87-ab11-b7aad1d486a4"},"vehicle_type_id":"4","last_reported":1737385754,"current_range_meters":38000,"station_id":"ce4bhmp2rcd13ifvqgog","pricing_plan_id":"cebpf4jnsgd1na2vs0mg"},{"bike_id":"c545f56d-e86e-4a68-8ceb-abc1233e3e9c","system_id":"levelo_inurba_marseille","lat":43.32547,"lon":5.41436,"is_reserved":false,"is_disabled":false,"rental_uris":{"android":"levelo://app?vid=c545f56d-e86e-4a68-8ceb-abc1233e3e9c","ios":"levelo://app?vid=c545f56d-e86e-4a68-8ceb-abc1233e3e9c"},"vehicle_type_id":"4","last_reported":1737385754,"current_range_meters":38000,"station_id":"ce4bhq12rcd13ifvqhhg","pricing_plan_id":"cebpf4jnsgd1na2vs0mg"},{"bike_id":"f6284fa0-01cf-475e-8478-d0120fba3ab8","system_id":"levelo_inurba_marseille","lat":43.30356,"lon":5.41884,"is_reserved":false,"is_disabled":false,"rental_uris":{"android":"levelo://app?vid=f6284fa0-01cf-475e-8478-d0120fba3ab8","ios":"levelo://app?vid=f6284fa0-01cf-475e-8478-d0120fba3ab8"},"vehicle_type_id":"4","last_reported":1737385754,"current_range_meters":8400,"station_id":"ce4bhop2rcd13ifvqh7g","pricing_plan_id":"cebpf4jnsgd1na2vs0mg"},{"bike_id":"afcc0f6d-75f2-4024-b1a0-a5f9f72e4aad","system_id":"levelo_inurba_marseille","lat":43.277,"lon":5.38904,"is_reserved":false,"is_disabled":false,"rental_uris":{"android":"levelo://app?vid=afcc0f6d-75f2-4024-b1a0-a5f9f72e4aad","ios":"levelo://app?vid=afcc0f6d-75f2-4024-b1a0-a5f9f72e4aad"},"vehicle_type_id":"4","last_reported":1737385754,"current_range_meters":38800,"station_id":"ce4bhi12rcd13ifvqfo0","pricing_plan_id":"cebpf4jnsgd1na2vs0mg"},{"bike_id":"8e17c2ce-e183-405d-a65b-bf29450ef5ad","system_id":"levelo_inurba_marseille","lat":43.23183,"lon":5.39988,"is_reserved":false,"is_disabled":false,"rental_uris":{"android":"levelo://app?vid=8e17c2ce-e183-405d-a65b-bf29450ef5ad","ios":"levelo://app?vid=8e17c2ce-e183-405d-a65b-bf29450ef5ad"},"vehicle_type_id":"4","last_reported":1737385754,"current_range_meters":28000,"station_id":"ce4bhn12rcd13ifvqgqg","pricing_plan_id":"cebpf4jnsgd1na2vs0mg"},{"bike_id":"5434439c-80a7-45ef-8e7d-a897cb833684","system_id":"levelo_inurba_marseille","lat":43.3243,"lon":5.36736,"is_reserved":false,"is_disabled":false,"rental_uris":{"android":"levelo://app?vid=5434439c-80a7-45ef-8e7d-a897cb833684","ios":"levelo://app?vid=5434439c-80a7-45ef-8e7d-a897cb833684"},"vehicle_type_id":"4","last_reported":1737385754,"current_range_meters":7200,"station_id":"","pricing_plan_id":"cebpf4jnsgd1na2vs0mg"},{"bike_id":"6a90710c-c516-4c6e-ae5f-b292940a7c14","system_id":"levelo_inurba_marseille","lat":43.29583,"lon":5.37517,"is_reserved":false,"is_disabled":false,"rental_uris":{"android":"levelo://app?vid=6a90710c-c516-4c6e-ae5f-b292940a7c14","ios":"levelo://app?vid=6a90710c-c516-4c6e-ae5f-b292940a7c14"},"vehicle_type_id":"4","last_reported":1737385754,"current_range_meters":39200,"station_id":"ce4bgh92rcd13ifvqb50","pricing_plan_id":"cebpf4jnsgd1na2vs0mg"},{"bike_id":"11fd930d-55ad-45a3-834b-9225c6541090","system_id":"levelo_inurba_marseille","lat":43.32484,"lon":5.36573,"is_reserved":false,"is_disabled":false,"rental_uris":{"android":"levelo://app?vid=11fd930d-55ad-45a3-834b-9225c6541090","ios":"levelo://app?vid=11fd930d-55ad-45a3-834b-9225c6541090"},"vehicle_type_id":"4","last_reported":1737385754,"current_range_meters":32800,"station_id":"ce4bhs12rcd13ifvqhvg","pricing_plan_id":"cebpf4jnsgd1na2vs0mg"},{"bike_id":"df00be52-92ae-4aee-985f-60baf0786455","system_id":"levelo_inurba_marseille","lat":43.27616,"lon":5.36098,"is_reserved":false,"is_disabled":false,"rental_uris":{"android":"levelo://app?vid=df00be52-92ae-4aee-985f-60baf0786455","ios":"levelo://app?vid=df00be52-92ae-4aee-985f-60baf0786455"},"vehicle_type_id":"4","last_reported":1737385754,"current_range_meters":22800,"station_id":"ce4bgj92rcd13ifvqbe0","pricing_plan_id":"cebpf4jnsgd1na2vs0mg"},{"bike_id":"50267a36-8428-4ee1-ac27-ac6a771a71af","system_id":"levelo_inurba_marseille","lat":43.33712,"lon":5.35512,"is_reserved":false,"is_disabled":true,"rental_uris":{"android":"levelo://app?vid=50267a36-8428-4ee1-ac27-ac6a771a71af","ios":"levelo://app?vid=50267a36-8428-4ee1-ac27-ac6a771a71af"},"vehicle_type_id":"4","last_reported":1737385754,"current_range_meters":400,"station_id":"","pricing_plan_id":"cebpf4jnsgd1na2vs0mg"},{"bike_id":"91014ab9-b87c-499d-a18c-72e641cbcb7d","system_id":"levelo_inurba_marseille","lat":43.29619,"lon":5.37156,"is_reserved":false,"is_disabled":false,"rental_uris":{"android":"levelo://app?vid=91014ab9-b87c-499d-a18c-72e641cbcb7d","ios":"levelo://app?vid=91014ab9-b87c-499d-a18c-72e641cbcb7d"},"vehicle_type_id":"4","last_reported":1737385754,"current_range_meters":20000,"station_id":"ce4bgnh2rcd13ifvqc0g","pricing_plan_id":"cebpf4jnsgd1na2vs0mg"},{"bike_id":"f5863b18-13a1-4c6e-92de-5668ea912ad3","system_id":"levelo_inurba_marseille","lat":43.26234,"lon":5.40439,"is_reserved":false,"is_disabled":true,"rental_uris":{"android":"levelo://app?vid=f5863b18-13a1-4c6e-92de-5668ea912ad3","ios":"levelo://app?vid=f5863b18-13a1-4c6e-92de-5668ea912ad3"},"vehicle_type_id":"4","last_reported":1737385754,"current_range_meters":0,"station_id":"","pricing_plan_id":"cebpf4jnsgd1na2vs0mg"},{"bike_id":"d56f3ba3-9723-41f7-9882-3ad30310eb78","system_id":"levelo_inurba_marseille","lat":43.31271,"lon":5.40153,"is_reserved":false,"is_disabled":false,"rental_uris":{"android":"levelo://app?vid=d56f3ba3-9723-41f7-9882-3ad30310eb78","ios":"levelo://app?vid=d56f3ba3-9723-41f7-9882-3ad30310eb78"},"vehicle_type_id":"4","last_reported":1737385754,"current_range_meters":38800,"station_id":"ce4bh092rcd13ifvqd30","pricing_plan_id":"cebpf4jnsgd1na2vs0mg"},{"bike_id":"d25fce73-d5e2-4c5b-8e78-1e449d6a88dc","system_id":"levelo_inurba_marseille","lat":43.29856,"lon":5.36296,"is_reserved":false,"is_disabled":false,"rental_uris":{"android":"levelo://app?vid=d25fce73-d5e2-4c5b-8e78-1e449d6a88dc","ios":"levelo://app?vid=d25fce73-d5e2-4c5b-8e78-1e449d6a88dc"},"vehicle_type_id":"4","last_reported":1737385754,"current_range_meters":31200,"station_id":"ce4bgpp2rcd13ifvqc3g","pricing_plan_id":"cebpf4jnsgd1na2vs0mg"},{"bike_id":"eb6fcbf2-4dba-4dcc-a3a1-6b992d95097c","system_id":"levelo_inurba_marseille","lat":43.23965,"lon":5.36636,"is_reserved":false,"is_disabled":false,"rental_uris":{"android":"levelo://app?vid=eb6fcbf2-4dba-4dcc-a3a1-6b992d95097c","ios":"levelo://app?vid=eb6fcbf2-4dba-4dcc-a3a1-6b992d95097c"},"vehicle_type_id":"4","last_reported":1737385754,"current_range_meters":28000,"station_id":"ce4bhi12rcd13ifvqfp0","pricing_plan_id":"cebpf4jnsgd1na2vs0mg"},{"bike_id":"6519ee08-6a25-4184-bbec-90f6d328acd1","system_id":"levelo_inurba_marseille","lat":43.29291,"lon":5.36843,"is_reserved":false,"is_disabled":false,"rental_uris":{"android":"levelo://app?vid=6519ee08-6a25-4184-bbec-90f6d328acd1","ios":"levelo://app?vid=6519ee08-6a25-4184-bbec-90f6d328acd1"},"vehicle_type_id":"4","last_reported":1737385754,"current_range_meters":38800,"station_id":"ce4bhbp2rcd13ifvqesg","pricing_plan_id":"cebpf4jnsgd1na2vs0mg"},{"bike_id":"b35a45dd-624c-4204-8aff-abbfea742a09","system_id":"levelo_inurba_marseille","lat":43.30888,"lon":5.39636,"is_reserved":false,"is_disabled":false,"rental_uris":{"android":"levelo://app?vid=b35a45dd-624c-4204-8aff-abbfea742a09","ios":"levelo://app?vid=b35a45dd-624c-4204-8aff-abbfea742a09"},"vehicle_type_id":"4","last_reported":1737385754,"current_range_meters":38800,"station_id":"ce4bh012rcd13ifvqcv0","pricing_plan_id":"cebpf4jnsgd1na2vs0mg"},{"bike_id":"c7cc3d8a-71da-4ee2-a75b-e00177e5ac9a","system_id":"levelo_inurba_marseille","lat":43.26468,"lon":5.37313,"is_reserved":false,"is_disabled":false,"rental_uris":{"android":"levelo://app?vid=c7cc3d8a-71da-4ee2-a75b-e00177e5ac9a","ios":"levelo://app?vid=c7cc3d8a-71da-4ee2-a75b-e00177e5ac9a"},"vehicle_type_id":"4","last_reported":1737385754,"current_range_meters":38800,"station_id":"ce4bhg12rcd13ifvqf70","pricing_plan_id":"cebpf4jnsgd1na2vs0mg"},{"bike_id":"310291eb-51c1-4d9b-a9e0-6140421d3b91","system_id":"levelo_inurba_marseille","lat":43.27887,"lon":5.37996,"is_reserved":false,"is_disabled":false,"rental_uris":{"android":"levelo://app?vid=310291eb-51c1-4d9b-a9e0-6140421d3b91","ios":"levelo://app?vid=310291eb-51c1-4d9b-a9e0-6140421d3b91"},"vehicle_type_id":"4","last_reported":1737385754,"current_range_meters":10000,"station_id":"ce4bhf92rcd13ifvqf50","pricing_plan_id":"cebpf4jnsgd1na2vs0mg"},{"bike_id":"4fe58642-8ec3-4f25-a4fc-eb5dc3dc47a8","system_id":"levelo_inurba_marseille","lat":43.33533,"lon":5.36113,"is_reserved":false,"is_disabled":true,"rental_uris":{"android":"levelo://app?vid=4fe58642-8ec3-4f25-a4fc-eb5dc3dc47a8","ios":"levelo://app?vid=4fe58642-8ec3-4f25-a4fc-eb5dc3dc47a8"},"vehicle_type_id":"4","last_reported":1737385754,"current_range_meters":25200,"station_id":"","pricing_plan_id":"cebpf4jnsgd1na2vs0mg"},{"bike_id":"9cccd2ff-b864-466b-83c6-b52ec2815836","system_id":"levelo_inurba_marseille","lat":43.25694,"lon":5.41122,"is_reserved":false,"is_disabled":false,"rental_uris":{"android":"levelo://app?vid=9cccd2ff-b864-466b-83c6-b52ec2815836","ios":"levelo://app?vid=9cccd2ff-b864-466b-83c6-b52ec2815836"},"vehicle_type_id":"4","last_reported":1737385754,"current_range_meters":32000,"station_id":"ce4bhkp2rcd13ifvqgd0","pricing_plan_id":"cebpf4jnsgd1na2vs0mg"},{"bike_id":"8ba3986b-3e7d-44d2-b647-aea26edf2089","system_id":"levelo_inurba_marseille","lat":43.30557,"lon":5.36709,"is_reserved":false,"is_disabled":false,"rental_uris":{"android":"levelo://app?vid=8ba3986b-3e7d-44d2-b647-aea26edf2089","ios":"levelo://app?vid=8ba3986b-3e7d-44d2-b647-aea26edf2089"},"vehicle_type_id":"4","last_reported":1737385754,"current_range_meters":10800,"station_id":"ce4bgrp2rcd13ifvqc9g","pricing_plan_id":"cebpf4jnsgd1na2vs0mg"},{"bike_id":"6f062b3a-7ded-458f-aab4-fe0ca8455bdf","system_id":"levelo_inurba_marseille","lat":43.30134,"lon":5.39863,"is_reserved":false,"is_disabled":false,"rental_uris":{"android":"levelo://app?vid=6f062b3a-7ded-458f-aab4-fe0ca8455bdf","ios":"levelo://app?vid=6f062b3a-7ded-458f-aab4-fe0ca8455bdf"},"vehicle_type_id":"4","last_reported":1737385754,"current_range_meters":32000,"station_id":"ce4bh0h2rcd13ifvqd40","pricing_plan_id":"cebpf4jnsgd1na2vs0mg"},{"bike_id":"b5b91842-f1aa-4bba-964f-7a9484225fb0","system_id":"levelo_inurba_marseille","lat":43.25883,"lon":5.39909,"is_reserved":false,"is_disabled":false,"rental_uris":{"android":"levelo://app?vid=b5b91842-f1aa-4bba-964f-7a9484225fb0","ios":"levelo://app?vid=b5b91842-f1aa-4bba-964f-7a9484225fb0"},"vehicle_type_id":"4","last_reported":1737385754,"current_range_meters":39200,"station_id":"ce4bhl92rcd13ifvqghg","pricing_plan_id":"cebpf4jnsgd1na2vs0mg"},{"bike_id":"e1339308-882b-4e96-912a-640943a1cb50","system_id":"levelo_inurba_marseille","lat":43.31491,"lon":5.37308,"is_reserved":false,"is_disabled":false,"rental_uris":{"android":"levelo://app?vid=e1339308-882b-4e96-912a-640943a1cb50","ios":"levelo://app?vid=e1339308-882b-4e96-912a-640943a1cb50"},"vehicle_type_id":"4","last_reported":1737385754,"current_range_meters":38800,"station_id":"ce4bgt12rcd13ifvqcd0","pricing_plan_id":"cebpf4jnsgd1na2vs0mg"},{"bike_id":"13a9853e-21c2-4d7a-8ae7-af374064a8b8","system_id":"levelo_inurba_marseille","lat":43.31793,"lon":5.37381,"is_reserved":false,"is_disabled":false,"rental_uris":{"android":"levelo://app?vid=13a9853e-21c2-4d7a-8ae7-af374064a8b8","ios":"levelo://app?vid=13a9853e-21c2-4d7a-8ae7-af374064a8b8"},"vehicle_type_id":"4","last_reported":1737385754,"current_range_meters":21600,"station_id":"","pricing_plan_id":"cebpf4jnsgd1na2vs0mg"},{"bike_id":"60b7d049-237a-4dbd-ad0c-436ecde1802f","system_id":"levelo_inurba_marseille","lat":43.23213,"lon":5.35552,"is_reserved":false,"is_disabled":false,"rental_uris":{"android":"levelo://app?vid=60b7d049-237a-4dbd-ad0c-436ecde1802f","ios":"levelo://app?vid=60b7d049-237a-4dbd-ad0c-436ecde1802f"},"vehicle_type_id":"4","last_reported":1737385754,"current_range_meters":24800,"station_id":"ce4bhu92rcd13ifvqi70","pricing_plan_id":"cebpf4jnsgd1na2vs0mg"},{"bike_id":"334f45a9-4817-41f4-9181-29fb05bd96de","system_id":"levelo_inurba_marseille","lat":43.30539,"lon":5.36704,"is_reserved":false,"is_disabled":false,"rental_uris":{"android":"levelo://app?vid=334f45a9-4817-41f4-9181-29fb05bd96de","ios":"levelo://app?vid=334f45a9-4817-41f4-9181-29fb05bd96de"},"vehicle_type_id":"4","last_reported":1737385754,"current_range_meters":34000,"station_id":"ce4bgrp2rcd13ifvqc9g","pricing_plan_id":"cebpf4jnsgd1na2vs0mg"},{"bike_id":"23a5b3f4-0f7a-4a4e-8090-ef0fdae8d7e5","system_id":"levelo_inurba_marseille","lat":43.324695,"lon":5.366028,"is_reserved":false,"is_disabled":false,"rental_uris":{"android":"levelo://app?vid=23a5b3f4-0f7a-4a4e-8090-ef0fdae8d7e5","ios":"levelo://app?vid=23a5b3f4-0f7a-4a4e-8090-ef0fdae8d7e5"},"vehicle_type_id":"4","last_reported":1737385754,"current_range_meters":14800,"station_id":"ce4bhs12rcd13ifvqhvg","pricing_plan_id":"cebpf4jnsgd1na2vs0mg"},{"bike_id":"cf40481f-97f4-4879-8257-c88865bf4f6c","system_id":"levelo_inurba_marseille","lat":43.24824,"lon":5.37434,"is_reserved":false,"is_disabled":false,"rental_uris":{"android":"levelo://app?vid=cf40481f-97f4-4879-8257-c88865bf4f6c","ios":"levelo://app?vid=cf40481f-97f4-4879-8257-c88865bf4f6c"},"vehicle_type_id":"4","last_reported":1737385754,"current_range_meters":38400,"station_id":"ce4bhgh2rcd13ifvqfb0","pricing_plan_id":"cebpf4jnsgd1na2vs0mg"},{"bike_id":"8a3a0fcc-7ef4-44c2-a48f-4191b9c60868","system_id":"levelo_inurba_marseille","lat":43.3249,"lon":5.36554,"is_reserved":false,"is_disabled":false,"rental_uris":{"android":"levelo://app?vid=8a3a0fcc-7ef4-44c2-a48f-4191b9c60868","ios":"levelo://app?vid=8a3a0fcc-7ef4-44c2-a48f-4191b9c60868"},"vehicle_type_id":"4","last_reported":1737385754,"current_range_meters":38800,"station_id":"ce4bhs12rcd13ifvqhvg","pricing_plan_id":"cebpf4jnsgd1na2vs0mg"},{"bike_id":"423ace4f-d89a-418c-9d4d-6b96b1d05757","system_id":"levelo_inurba_marseille","lat":43.29911,"lon":5.3746,"is_reserved":false,"is_disabled":false,"rental_uris":{"android":"levelo://app?vid=423ace4f-d89a-418c-9d4d-6b96b1d05757","ios":"levelo://app?vid=423ace4f-d89a-418c-9d4d-6b96b1d05757"},"vehicle_type_id":"4","last_reported":1737385754,"current_range_meters":38400,"station_id":"ce4bgjh2rcd13ifvqbg0","pricing_plan_id":"cebpf4jnsgd1na2vs0mg"},{"bike_id":"56dd42ef-5b7f-4a2a-9a0b-dfa0077dd812","system_id":"levelo_inurba_marseille","lat":43.30244,"lon":5.40046,"is_reserved":false,"is_disabled":false,"rental_uris":{"android":"levelo://app?vid=56dd42ef-5b7f-4a2a-9a0b-dfa0077dd812","ios":"levelo://app?vid=56dd42ef-5b7f-4a2a-9a0b-dfa0077dd812"},"vehicle_type_id":"4","last_reported":1737385754,"current_range_meters":28000,"station_id":"ce4bgvh2rcd13ifvqcs0","pricing_plan_id":"cebpf4jnsgd1na2vs0mg"},{"bike_id":"b8d5bf2d-97a7-44e1-8559-d131856cf917","system_id":"levelo_inurba_marseille","lat":43.29893,"lon":5.38892,"is_reserved":false,"is_disabled":false,"rental_uris":{"android":"levelo://app?vid=b8d5bf2d-97a7-44e1-8559-d131856cf917","ios":"levelo://app?vid=b8d5bf2d-97a7-44e1-8559-d131856cf917"},"vehicle_type_id":"4","last_reported":1737385754,"current_range_meters":33200,"station_id":"ce4bh392rcd13ifvqdl0","pricing_plan_id":"cebpf4jnsgd1na2vs0mg"},{"bike_id":"95b517d0-9dcf-47f9-8053-773bec6e6a69","system_id":"levelo_inurba_marseille","lat":43.26684,"lon":5.39522,"is_reserved":false,"is_disabled":false,"rental_uris":{"android":"levelo://app?vid=95b517d0-9dcf-47f9-8053-773bec6e6a69","ios":"levelo://app?vid=95b517d0-9dcf-47f9-8053-773bec6e6a69"},"vehicle_type_id":"4","last_reported":1737385754,"current_range_meters":8000,"station_id":"","pricing_plan_id":"cebpf4jnsgd1na2vs0mg"},{"bike_id":"ef6995fd-e68e-4985-8c9d-7187adb30bbc","system_id":"levelo_inurba_marseille","lat":43.24669,"lon":5.38906,"is_reserved":false,"is_disabled":false,"rental_uris":{"android":"levelo://app?vid=ef6995fd-e68e-4985-8c9d-7187adb30bbc","ios":"levelo://app?vid=ef6995fd-e68e-4985-8c9d-7187adb30bbc"},"vehicle_type_id":"4","last_reported":1737385754,"current_range_meters":38800,"station_id":"ce4bhg12rcd13ifvqf60","pricing_plan_id":"cebpf4jnsgd1na2vs0mg"},{"bike_id":"a643d90a-e087-4793-be3a-93d477b5118c","system_id":"levelo_inurba_marseille","lat":43.296,"lon":5.38082,"is_reserved":false,"is_disabled":false,"rental_uris":{"android":"levelo://app?vid=a643d90a-e087-4793-be3a-93d477b5118c","ios":"levelo://app?vid=a643d90a-e087-4793-be3a-93d477b5118c"},"vehicle_type_id":"4","last_reported":1737385754,"current_range_meters":9600,"station_id":"ce4bgl12rcd13ifvqbo0","pricing_plan_id":"cebpf4jnsgd1na2vs0mg"},{"bike_id":"47ad60ef-9d71-4c2b-9c0f-48487854fa86","system_id":"levelo_inurba_marseille","lat":43.29634,"lon":5.37163,"is_reserved":false,"is_disabled":false,"rental_uris":{"android":"levelo://app?vid=47ad60ef-9d71-4c2b-9c0f-48487854fa86","ios":"levelo://app?vid=47ad60ef-9d71-4c2b-9c0f-48487854fa86"},"vehicle_type_id":"4","last_reported":1737385754,"current_range_meters":38000,"station_id":"ce4bgnh2rcd13ifvqc0g","pricing_plan_id":"cebpf4jnsgd1na2vs0mg"},{"bike_id":"0e2e71fa-c63e-4eb1-b562-1a96f49e9aae","system_id":"levelo_inurba_marseille","lat":43.29794,"lon":5.38091,"is_reserved":false,"is_disabled":false,"rental_uris":{"android":"levelo://app?vid=0e2e71fa-c63e-4eb1-b562-1a96f49e9aae","ios":"levelo://app?vid=0e2e71fa-c63e-4eb1-b562-1a96f49e9aae"},"vehicle_type_id":"4","last_reported":1737385754,"current_range_meters":10000,"station_id":"ce4bgip2rcd13ifvqbb0","pricing_plan_id":"cebpf4jnsgd1na2vs0mg"},{"bike_id":"b9714942-6669-482c-91f3-a89014ba1447","system_id":"levelo_inurba_marseille","lat":43.30914,"lon":5.36838,"is_reserved":false,"is_disabled":true,"rental_uris":{"android":"levelo://app?vid=b9714942-6669-482c-91f3-a89014ba1447","ios":"levelo://app?vid=b9714942-6669-482c-91f3-a89014ba1447"},"vehicle_type_id":"4","last_reported":1737385754,"current_range_meters":33200,"station_id":"ce4bgn92rcd13ifvqbvg","pricing_plan_id":"cebpf4jnsgd1na2vs0mg"},{"bike_id":"5961b515-60f1-4a1c-8177-ae6e3d2a1fe8","system_id":"levelo_inurba_marseille","lat":43.2996,"lon":5.41329,"is_reserved":false,"is_disabled":false,"rental_uris":{"android":"levelo://app?vid=5961b515-60f1-4a1c-8177-ae6e3d2a1fe8","ios":"levelo://app?vid=5961b515-60f1-4a1c-8177-ae6e3d2a1fe8"},"vehicle_type_id":"4","last_reported":1737385754,"current_range_meters":12800,"station_id":"ce4bhp12rcd13ifvqh9g","pricing_plan_id":"cebpf4jnsgd1na2vs0mg"},{"bike_id":"5afe258a-6d79-4a86-8590-c2751cf273f0","system_id":"levelo_inurba_marseille","lat":43.2621,"lon":5.37444,"is_reserved":false,"is_disabled":false,"rental_uris":{"android":"levelo://app?vid=5afe258a-6d79-4a86-8590-c2751cf273f0","ios":"levelo://app?vid=5afe258a-6d79-4a86-8590-c2751cf273f0"},"vehicle_type_id":"4","last_reported":1737385754,"current_range_meters":4400,"station_id":"ce4bhgp2rcd13ifvqfc0","pricing_plan_id":"cebpf4jnsgd1na2vs0mg"},{"bike_id":"c3a502cf-8ade-4420-87b0-051a6b1ff1d3","system_id":"levelo_inurba_marseille","lat":43.294331,"lon":5.386347,"is_reserved":false,"is_disabled":false,"rental_uris":{"android":"levelo://app?vid=c3a502cf-8ade-4420-87b0-051a6b1ff1d3","ios":"levelo://app?vid=c3a502cf-8ade-4420-87b0-051a6b1ff1d3"},"vehicle_type_id":"4","last_reported":1737385754,"current_range_meters":28800,"station_id":"ce4bh2h2rcd13ifvqdh0","pricing_plan_id":"cebpf4jnsgd1na2vs0mg"},{"bike_id":"37def594-d241-48d9-9cdd-96311bde1897","system_id":"levelo_inurba_marseille","lat":43.32108,"lon":5.36786,"is_reserved":false,"is_disabled":false,"rental_uris":{"android":"levelo://app?vid=37def594-d241-48d9-9cdd-96311bde1897","ios":"levelo://app?vid=37def594-d241-48d9-9cdd-96311bde1897"},"vehicle_type_id":"4","last_reported":1737385754,"current_range_meters":37600,"station_id":"ce4bhrh2rcd13ifvqhug","pricing_plan_id":"cebpf4jnsgd1na2vs0mg"},{"bike_id":"34405b41-6cc5-4b3a-876f-38fd11be1250","system_id":"levelo_inurba_marseille","lat":43.25945,"lon":5.40889,"is_reserved":false,"is_disabled":false,"rental_uris":{"android":"levelo://app?vid=34405b41-6cc5-4b3a-876f-38fd11be1250","ios":"levelo://app?vid=34405b41-6cc5-4b3a-876f-38fd11be1250"},"vehicle_type_id":"4","last_reported":1737385754,"current_range_meters":38800,"station_id":"ce4bhm92rcd13ifvqglg","pricing_plan_id":"cebpf4jnsgd1na2vs0mg"},{"bike_id":"6f1b2b09-a7b0-4569-8ae6-e7c005adc101","system_id":"levelo_inurba_marseille","lat":43.28271,"lon":5.35059,"is_reserved":false,"is_disabled":false,"rental_uris":{"android":"levelo://app?vid=6f1b2b09-a7b0-4569-8ae6-e7c005adc101","ios":"levelo://app?vid=6f1b2b09-a7b0-4569-8ae6-e7c005adc101"},"vehicle_type_id":"4","last_reported":1737385754,"current_range_meters":31200,"station_id":"ce4bhbp2rcd13ifvqerg","pricing_plan_id":"cebpf4jnsgd1na2vs0mg"},