{"last_updated":1748902515,"ttl":60,"version":"2.2","data":{"bikes":[{"bike_id":"5736accb-991c-4877-a612-8be882a83c2f","system_id":"levelo_inurba_marseille","lat":43.33771,"lon":5.37424,"is_reserved":false,"is_disabled":true,"rental_uris":{"android":"levelo://app?vid=5736accb-991c-4877-a612-8be882a83c2f","ios":"levelo://app?vid=5736accb-991c-4877-a612-8be882a83c2f"},"vehicle_type_id":"4","last_reported":1748902515,"current_range_meters":0,"station_id":"","pricing_plan_id":"cebpf4jnsgd1na2vs0mg"},{"bike_id":"55a5c057-4e97-4693-8616-8ebd3dc507dc","system_id":"levelo_inurba_marseille","lat":43.337499,"lon":5.374469,"is_reserved":false,"is_disabled":true,"rental_uris":{"android":"levelo://app?vid=55a5c057-4e97-4693-8616-8ebd3dc507dc","ios":"levelo://app?vid=55a5c057-4e97-4693-8616-8ebd3dc507dc"},"vehicle_type_id":"4","last_reported":1748902515,"current_range_meters":0,"station_id":"","pricing_plan_id":"cebpf4jnsgd1na2vs0mg"},{"bike_id":"58872a66-6d13-4e73-8bc3-e26429814b74","system_id":"levelo_inurba_marseille","lat":43.337444,"lon":5.374475,"is_reserved":false,"is_disabled":true,"rental_uris":{"android":"levelo://app?vid=58872a66-6d13-4e73-8bc3-e26429814b74","ios":"levelo://app?vid=58872a66-6d13-4e73-8bc3-e26429814b74"},"vehicle_type_id":"4","last_reported":1748902515,"current_range_meters":0,"station_id":"","pricing_plan_id":"cebpf4jnsgd1na2vs0mg"},{"bike_id":"aedab83c-b9e3-4c27-91f4-79f4c3b37920","system_id":"levelo_inurba_marseille","lat":43.337444,"lon":5.374475,"is_reserved":false,"is_disabled":true,"rental_uris":{"android":"levelo://app?vid=aedab83c-b9e3-4c27-91f4-79f4c3b37920","ios":"levelo://app?vid=aedab83c-b9e3-4c27-91f4-79f4c3b37920"},"vehicle_type_id":"4","last_reported":1748902515,"current_range_meters":0,"station_id":"","pricing_plan_id":"cebpf4jnsgd1na2vs0mg"},{"bike_id":"0e5c7fc5-efe6-4da0-bbfc-434e48e22be5","system_id":"levelo_inurba_marseille","lat":43.31928,"lon":5.44178,"is_reserved":false,"is_disabled":true,"rental_uris":{"android":"levelo://app?vid=0e5c7fc5-efe6-4da0-bbfc-434e48e22be5","ios":"levelo://app?vid=0e5c7fc5-efe6-4da0-bbfc-434e48e22be5"},"vehicle_type_id":"4","last_reported":1748902515,"current_range_meters":0,"station_id":"","pricing_plan_id":"cebpf4jnsgd1na2vs0mg"},{"bike_id":"6e7e5163-991a-4d7d-9c2b-4faf721e9959","system_id":"levelo_inurba_marseille","lat":43.27881,"lon":5.3536,"is_reserved":false,"is_disabled":true,"rental_uris":{"android":"levelo://app?vid=6e7e5163-991a-4d7d-9c2b-4faf721e9959","ios":"levelo://app?vid=6e7e5163-991a-4d7d-9c2b-4faf721e9959"},"vehicle_type_id":"4","last_reported":1748902515,"current_range_meters":0,"station_id":"","pricing_plan_id":"cebpf4jnsgd1na2vs0mg"},{"bike_id":"0cb8dc3d-d38b-4878-b5e9-590134d30ddf","system_id":"levelo_inurba_marseille","lat":43.31709,"lon":5.43713,"is_reserved":false,"is_disabled":false,"rental_uris":{"android":"levelo://app?vid=0cb8dc3d-d38b-4878-b5e9-590134d30ddf","ios":"levelo://app?vid=0cb8dc3d-d38b-4878-b5e9-590134d30ddf"},"vehicle_type_id":"4","last_reported":1748902515,"current_range_meters":0,"station_id":"ce4bhp92rcd13ifvqhcg","pricing_plan_id":"cebpf4jnsgd1na2vs0mg"},{"bike_id":"4c1083b2-7c65-444d-967c-a49d82bbdfb0","system_id":"levelo_inurba_marseille","lat":43.31174,"lon":5.38712,"is_reserved":false,"is_disabled":true,"rental_uris":{"android":"levelo://app?vid=4c1083b2-7c65-444d-967c-a49d82bbdfb0","ios":"levelo://app?vid=4c1083b2-7c65-444d-967c-a49d82bbdfb0"},"vehicle_type_id":"4","last_reported":1748902515,"current_range_meters":1600,"station_id":"ce4bgv12rcd13ifvqcp0","pricing_plan_id":"cebpf4jnsgd1na2vs0mg"},{"bike_id":"aadb95fc-d156-41e0-9614-75d762b11d28","system_id":"levelo_inurba_marseille","lat":43.31965,"lon":5.44073,"is_reserved":false,"is_disabled":false,"rental_uris":{"android":"levelo://app?vid=aadb95fc-d156-41e0-9614-75d762b11d28","ios":"levelo://app?vid=aadb95fc-d156-41e0-9614-75d762b11d28"},"vehicle_type_id":"4","last_reported":1748902515,"current_range_meters":4400,"station_id":"","pricing_plan_id":"cebpf4jnsgd1na2vs0mg"},{"bike_id":"b07eb18b-0f4c-4b5a-87b0-ed99beab6346","system_id":"levelo_inurba_marseille","lat":43.31125,"lon":5.37745,"is_reserved":false,"is_disabled":false,"rental_uris":{"android":"levelo://app?vid=b07eb18b-0f4c-4b5a-87b0-ed99beab6346","ios":"levelo://app?vid=b07eb18b-0f4c-4b5a-87b0-ed99beab6346"},"vehicle_type_id":"4","last_reported":1748902515,"current_range_meters":5600,"station_id":"ce4bgt92rcd13ifvqcg0","pricing_plan_id":"cebpf4jnsgd1na2vs0mg"},{"bike_id":"97fc1ec5-0845-41b0-9c95-f39726570e02","system_id":"levelo_inurba_marseille","lat":43.28934,"lon":5.38385,"is_reserved":false,"is_disabled":false,"rental_uris":{"android":"levelo://app?vid=97fc1ec5-0845-41b0-9c95-f39726570e02","ios":"levelo://app?vid=97fc1ec5-0845-41b0-9c95-f39726570e02"},"vehicle_type_id":"4","last_reported":1748902515,"current_range_meters":6800,"station_id":"ce4bh612rcd13ifvqe6g","pricing_plan_id":"cebpf4jnsgd1na2vs0mg"},{"bike_id":"5dead81c-52cf-467b-885d-461d40fb80a5","system_id":"levelo_inurba_marseille","lat":43.25101,"lon":5.40961,"is_reserved":false,"is_disabled":false,"rental_uris":{"android":"levelo://app?vid=5dead81c-52cf-467b-885d-461d40fb80a5","ios":"levelo://app?vid=5dead81c-52cf-467b-885d-461d40fb80a5"},"vehicle_type_id":"4","last_reported":1748902515,"current_range_meters":7200,"station_id":"","pricing_plan_id":"cebpf4jnsgd1na2vs0mg"},{"bike_id":"7b99b595-58cd-41da-b22e-d23123bcfb40","system_id":"levelo_inurba_marseille","lat":43.3091,"lon":5.40123,"is_reserved":false,"is_disabled":false,"rental_uris":{"android":"levelo://app?vid=7b99b595-58cd-41da-b22e-d23123bcfb40","ios":"levelo://app?vid=7b99b595-58cd-41da-b22e-d23123bcfb40"},"vehicle_type_id":"4","last_reported":1748902515,"current_range_meters":7200,"station_id":"ce4bgvp2rcd13ifvqct0","pricing_plan_id":"cebpf4jnsgd1na2vs0mg"},{"bike_id":"907989c4-217b-4f7b-9ff7-4afa285967be","system_id":"levelo_inurba_marseille","lat":43.30935,"lon":5.401474,"is_reserved":false,"is_disabled":false,"rental_uris":{"android":"levelo://app?vid=907989c4-217b-4f7b-9ff7-4afa285967be","ios":"levelo://app?vid=907989c4-217b-4f7b-9ff7-4afa285967be"},"vehicle_type_id":"4","last_reported":1748902515,"current_range_meters":7200,"station_id":"ce4bgvp2rcd13ifvqct0","pricing_plan_id":"cebpf4jnsgd1na2vs0mg"},{"bike_id":"d72d5a5e-a033-4555-a5b7-2e9b101d2f01","system_id":"levelo_inurba_marseille","lat":43.24373,"lon":5.41138,"is_reserved":false,"is_disabled":false,"rental_uris":{"android":"levelo://app?vid=d72d5a5e-a033-4555-a5b7-2e9b101d2f01","ios":"levelo://app?vid=d72d5a5e-a033-4555-a5b7-2e9b101d2f01"},"vehicle_type_id":"4","last_reported":1748902515,"current_range_meters":8000,"station_id":"","pricing_plan_id":"cebpf4jnsgd1na2vs0mg"},{"bike_id":"d6429eeb-a3ae-439c-9074-5279d9f064c1","system_id":"levelo_inurba_marseille","lat":43.29681,"lon":5.37305,"is_reserved":false,"is_disabled":false,"rental_uris":{"android":"levelo://app?vid=d6429eeb-a3ae-439c-9074-5279d9f064c1","ios":"levelo://app?vid=d6429eeb-a3ae-439c-9074-5279d9f064c1"},"vehicle_type_id":"4","last_reported":1748902515,"current_range_meters":8000,"station_id":"ce4bgk12rcd13ifvqbj0","pricing_plan_id":"cebpf4jnsgd1na2vs0mg"},{"bike_id":"3ed95189-92a5-426a-a5fd-bf460f15fac3","system_id":"levelo_inurba_marseille","lat":43.29035,"lon":5.39977,"is_reserved":false,"is_disabled":false,"rental_uris":{"android":"levelo://app?vid=3ed95189-92a5-426a-a5fd-bf460f15fac3","ios":"levelo://app?vid=3ed95189-92a5-426a-a5fd-bf460f15fac3"},"vehicle_type_id":"4","last_reported":1748902515,"current_range_meters":8000,"station_id":"ce4bh392rcd13ifvqdm0","pricing_plan_id":"cebpf4jnsgd1na2vs0mg"},{"bike_id":"37a58c92-30a2-4013-86fc-a45750203582","system_id":"levelo_inurba_marseille","lat":43.28663,"lon":5.36344,"is_reserved":false,"is_disabled":false,"rental_uris":{"android":"levelo://app?vid=37a58c92-30a2-4013-86fc-a45750203582","ios":"levelo://app?vid=37a58c92-30a2-4013-86fc-a45750203582"},"vehicle_type_id":"4","last_reported":1748902515,"current_range_meters":8000,"station_id":"ce4bhah2rcd13ifvqej0","pricing_plan_id":"cebpf4jnsgd1na2vs0mg"},{"bike_id":"2fe63ade-f157-4876-b5f4-d6f719b9159f","system_id":"levelo_inurba_marseille","lat":43.23177,"lon":5.39995,"is_reserved":false,"is_disabled":false,"rental_uris":{"android":"levelo://app?vid=2fe63ade-f157-4876-b5f4-d6f719b9159f","ios":"levelo://app?vid=2fe63ade-f157-4876-b5f4-d6f719b9159f"},"vehicle_type_id":"4","last_reported":1748902515,"current_range_meters":8400,"station_id":"ce4bhn12rcd13ifvqgqg","pricing_plan_id":"cebpf4jnsgd1na2vs0mg"},{"bike_id":"881498e7-33fc-4c1c-a65b-3c31d2a03915","system_id":"levelo_inurba_marseille","lat":43.33729,"lon":5.39164,"is_reserved":false,"is_disabled":false,"rental_uris":{"android":"levelo://app?vid=881498e7-33fc-4c1c-a65b-3c31d2a03915","ios":"levelo://app?vid=881498e7-33fc-4c1c-a65b-3c31d2a03915"},"vehicle_type_id":"4","last_reported":1748902515,"current_range_meters":8400,"station_id":"ce4bhr92rcd13ifvqhsg","pricing_plan_id":"cebpf4jnsgd1na2vs0mg"},{"bike_id":"56682653-f924-40ce-bdd5-3d63175e605c","system_id":"levelo_inurba_marseille","lat":43.28724,"lon":5.36104,"is_reserved":false,"is_disabled":false,"rental_uris":{"android":"levelo://app?vid=56682653-f924-40ce-bdd5-3d63175e605c","ios":"levelo://app?vid=56682653-f924-40ce-bdd5-3d63175e605c"},"vehicle_type_id":"4","last_reported":1748902515,"current_range_meters":8800,"station_id":"cki0cbj6b192h4jlfktg","pricing_plan_id":"cebpf4jnsgd1na2vs0mg"},{"bike_id":"24b5a71f-fabf-4fa6-9fec-f2c7385ad3aa","system_id":"levelo_inurba_marseille","lat":43.33009,"lon":5.39068,"is_reserved":false,"is_disabled":false,"rental_uris":{"android":"levelo://app?vid=24b5a71f-fabf-4fa6-9fec-f2c7385ad3aa","ios":"levelo://app?vid=24b5a71f-fabf-4fa6-9fec-f2c7385ad3aa"},"vehicle_type_id":"4","last_reported":1748902515,"current_range_meters":9200,"station_id":"ce4bhr92rcd13ifvqhrg","pricing_plan_id":"cebpf4jnsgd1na2vs0mg"},{"bike_id":"a0888236-4e90-4aeb-b880-7b9acc4d2d36","system_id":"levelo_inurba_marseille","lat":43.33033,"lon":5.39028,"is_reserved":false,"is_disabled":false,"rental_uris":{"android":"levelo://app?vid=a0888236-4e90-4aeb-b880-7b9acc4d2d36","ios":"levelo://app?vid=a0888236-4e90-4aeb-b880-7b9acc4d2d36"},"vehicle_type_id":"4","last_reported":1748902515,"current_range_meters":9200,"station_id":"ce4bhr92rcd13ifvqhrg","pricing_plan_id":"cebpf4jnsgd1na2vs0mg"},{"bike_id":"73e86e11-a868-4694-a4d1-66fa2f8bc783","system_id":"levelo_inurba_marseille","lat":43.269226,"lon":5.388998,"is_reserved":false,"is_disabled":false,"rental_uris":{"android":"levelo://app?vid=73e86e11-a868-4694-a4d1-66fa2f8bc783","ios":"levelo://app?vid=73e86e11-a868-4694-a4d1-66fa2f8bc783"},"vehicle_type_id":"4","last_reported":1748902515,"current_range_meters":9600,"station_id":"ce4bhhh2rcd13ifvqfl0","pricing_plan_id":"cebpf4jnsgd1na2vs0mg"},{"bike_id":"49cc33e9-1fe0-4f9c-89a2-6849222882d4","system_id":"levelo_inurba_marseille","lat":43.30352,"lon":5.41877,"is_reserved":false,"is_disabled":false,"rental_uris":{"android":"levelo://app?vid=49cc33e9-1fe0-4f9c-89a2-6849222882d4","ios":"levelo://app?vid=49cc33e9-1fe0-4f9c-89a2-6849222882d4"},"vehicle_type_id":"4","last_reported":1748902515,"current_range_meters":9600,"station_id":"ce4bhop2rcd13ifvqh7g","pricing_plan_id":"cebpf4jnsgd1na2vs0mg"},{"bike_id":"acdfb4ec-72f4-4860-9958-ed448301f50b","system_id":"levelo_inurba_marseille","lat":43.30089,"lon":5.37932,"is_reserved":false,"is_disabled":false,"rental_uris":{"android":"levelo://app?vid=acdfb4ec-72f4-4860-9958-ed448301f50b","ios":"levelo://app?vid=acdfb4ec-72f4-4860-9958-ed448301f50b"},"vehicle_type_id":"4","last_reported":1748902515,"current_range_meters":10000,"station_id":"","pricing_plan_id":"cebpf4jnsgd1na2vs0mg"},{"bike_id":"fc965fb7-1713-48f5-b901-55f6dfd35708","system_id":"levelo_inurba_marseille","lat":43.29448,"lon":5.39755,"is_reserved":false,"is_disabled":false,"rental_uris":{"android":"levelo://app?vid=fc965fb7-1713-48f5-b901-55f6dfd35708","ios":"levelo://app?vid=fc965fb7-1713-48f5-b901-55f6dfd35708"},"vehicle_type_id":"4","last_reported":1748902515,"current_range_meters":10000,"station_id":"ce4bh3h2rcd13ifvqdo0","pricing_plan_id":"cebpf4jnsgd1na2vs0mg"},{"bike_id":"113d0131-8168-44ff-af6f-a57421e1ccf2","system_id":"levelo_inurba_marseille","lat":43.30924,"lon":5.40113,"is_reserved":false,"is_disabled":false,"rental_uris":{"android":"levelo://app?vid=113d0131-8168-44ff-af6f-a57421e1ccf2","ios":"levelo://app?vid=113d0131-8168-44ff-af6f-a57421e1ccf2"},"vehicle_type_id":"4","last_reported":1748902515,"current_range_meters":10800,"station_id":"ce4bgvp2rcd13ifvqct0","pricing_plan_id":"cebpf4jnsgd1na2vs0mg"},{"bike_id":"f1c8c7e1-3f34-4d38-a503-caa580ebde75","system_id":"levelo_inurba_marseille","lat":43.22499,"lon":5.34783,"is_reserved":false,"is_disabled":false,"rental_uris":{"android":"levelo://app?vid=f1c8c7e1-3f34-4d38-a503-caa580ebde75","ios":"levelo://app?vid=f1c8c7e1-3f34-4d38-a503-caa580ebde75"},"vehicle_type_id":"4","last_reported":1748902515,"current_range_meters":10800,"station_id":"st_cvj5dfep6f1abm77gieg","pricing_plan_id":"cebpf4jnsgd1na2vs0mg"},{"bike_id":"f9ba8850-482d-43cd-93c6-da015477c7af","system_id":"levelo_inurba_marseille","lat":43.28606,"lon":5.38353,"is_reserved":false,"is_disabled":false,"rental_uris":{"android":"levelo://app?vid=f9ba8850-482d-43cd-93c6-da015477c7af","ios":"levelo://app?vid=f9ba8850-482d-43cd-93c6-da015477c7af"},"vehicle_type_id":"4","last_reported":1748902515,"current_range_meters":11200,"station_id":"","pricing_plan_id":"cebpf4jnsgd1na2vs0mg"},{"bike_id":"dcc954dd-b31c-407a-a6c4-56ff51393cba","system_id":"levelo_inurba_marseille","lat":43.3092,"lon":5.40143,"is_reserved":false,"is_disabled":false,"rental_uris":{"android":"levelo://app?vid=dcc954dd-b31c-407a-a6c4-56ff51393cba","ios":"levelo://app?vid=dcc954dd-b31c-407a-a6c4-56ff51393cba"},"vehicle_type_id":"4","last_reported":1748902515,"current_range_meters":11200,"station_id":"ce4bgvp2rcd13ifvqct0","pricing_plan_id":"cebpf4jnsgd1na2vs0mg"},{"bike_id":"cd693c4f-7556-46d4-b51d-98253789afd6","system_id":"levelo_inurba_marseille","lat":43.28435,"lon":5.37506,"is_reserved":false,"is_disabled":false,"rental_uris":{"android":"levelo://app?vid=cd693c4f-7556-46d4-b51d-98253789afd6","ios":"levelo://app?vid=cd693c4f-7556-46d4-b51d-98253789afd6"},"vehicle_type_id":"4","last_reported":1748902515,"current_range_meters":11200,"station_id":"ce4bh412rcd13ifvqds0","pricing_plan_id":"cebpf4jnsgd1na2vs0mg"},{"bike_id":"007e4502-aef9-4f31-a7e9-af5cf0b42e27","system_id":"levelo_inurba_marseille","lat":43.28018,"lon":5.36924,"is_reserved":false,"is_disabled":false,"rental_uris":{"android":"levelo://app?vid=007e4502-aef9-4f31-a7e9-af5cf0b42e27","ios":"levelo://app?vid=007e4502-aef9-4f31-a7e9-af5cf0b42e27"},"vehicle_type_id":"4","last_reported":1748902515,"current_range_meters":11200,"station_id":"ce4bha12rcd13ifvqef0","pricing_plan_id":"cebpf4jnsgd1na2vs0mg"},{"bike_id":"6e97afee-9337-497f-907b-0dcf237dc3c0","system_id":"levelo_inurba_marseille","lat":43.28729,"lon":5.3609,"is_reserved":false,"is_disabled":false,"rental_uris":{"android":"levelo://app?vid=6e97afee-9337-497f-907b-0dcf237dc3c0","ios":"levelo://app?vid=6e97afee-9337-497f-907b-0dcf237dc3c0"},"vehicle_type_id":"4","last_reported":1748902515,"current_range_meters":11200,"station_id":"cki0cbj6b192h4jlfktg","pricing_plan_id":"cebpf4jnsgd1na2vs0mg"},{"bike_id":"6c842597-662d-4008-b404-86e67251dde8","system_id":"levelo_inurba_marseille","lat":43.28221,"lon":5.39046,"is_reserved":false,"is_disabled":false,"rental_uris":{"android":"levelo://app?vid=6c842597-662d-4008-b404-86e67251dde8","ios":"levelo://app?vid=6c842597-662d-4008-b404-86e67251dde8"},"vehicle_type_id":"4","last_reported":1748902515,"current_range_meters":11600,"station_id":"","pricing_plan_id":"cebpf4jnsgd1na2vs0mg"},{"bike_id":"7f9a23ed-facf-4a72-8ec1-0b4b1214aff5","system_id":"levelo_inurba_marseille","lat":43.30434,"lon":5.38895,"is_reserved":false,"is_disabled":false,"rental_uris":{"android":"levelo://app?vid=7f9a23ed-facf-4a72-8ec1-0b4b1214aff5","ios":"levelo://app?vid=7f9a23ed-facf-4a72-8ec1-0b4b1214aff5"},"vehicle_type_id":"4","last_reported":1748902515,"current_range_meters":11600,"station_id":"ce4bgk12rcd13ifvqbi0","pricing_plan_id":"cebpf4jnsgd1na2vs0mg"},{"bike_id":"f28d3417-c4b6-4a5f-ba62-4961d9e4e13a","system_id":"levelo_inurba_marseille","lat":43.29534,"lon":5.3939,"is_reserved":false,"is_disabled":false,"rental_uris":{"android":"levelo://app?vid=f28d3417-c4b6-4a5f-ba62-4961d9e4e13a","ios":"levelo://app?vid=f28d3417-c4b6-4a5f-ba62-4961d9e4e13a"},"vehicle_type_id":"4","last_reported":1748902515,"current_range_meters":11600,"station_id":"ce4bh292rcd13ifvqdf0","pricing_plan_id":"cebpf4jnsgd1na2vs0mg"},{"bike_id":"09e2d14a-4e1b-4edd-9db4-b62dee8c4a48","system_id":"levelo_inurba_marseille","lat":43.309223,"lon":5.40133,"is_reserved":false,"is_disabled":false,"rental_uris":{"android":"levelo://app?vid=09e2d14a-4e1b-4edd-9db4-b62dee8c4a48","ios":"levelo://app?vid=09e2d14a-4e1b-4edd-9db4-b62dee8c4a48"},"vehicle_type_id":"4","last_reported":1748902515,"current_range_meters":12000,"station_id":"ce4bgvp2rcd13ifvqct0","pricing_plan_id":"cebpf4jnsgd1na2vs0mg"},{"bike_id":"d33dd8e7-72ba-4302-905c-8a138456e3bc","system_id":"levelo_inurba_marseille","lat":43.309213,"lon":5.401423,"is_reserved":false,"is_disabled":false,"rental_uris":{"android":"levelo://app?vid=d33dd8e7-72ba-4302-905c-8a138456e3bc","ios":"levelo://app?vid=d33dd8e7-72ba-4302-905c-8a138456e3bc"},"vehicle_type_id":"4","last_reported":1748902515,"current_range_meters":12000,"station_id":"ce4bgvp2rcd13ifvqct0","pricing_plan_id":"cebpf4jnsgd1na2vs0mg"},{"bike_id":"5b0c04c7-3e5d-4981-ba91-7d65704822b2","system_id":"levelo_inurba_marseille","lat":43.279141,"lon":5.380091,"is_reserved":false,"is_disabled":false,"rental_uris":{"android":"levelo://app?vid=5b0c04c7-3e5d-4981-ba91-7d65704822b2","ios":"levelo://app?vid=5b0c04c7-3e5d-4981-ba91-7d65704822b2"},"vehicle_type_id":"4","last_reported":1748902515,"current_range_meters":12000,"station_id":"ce4bhf92rcd13ifvqf50","pricing_plan_id":"cebpf4jnsgd1na2vs0mg"},{"bike_id":"fa62253e-e4db-42d1-9a63-6ab16922bf00","system_id":"levelo_inurba_marseille","lat":43.31992,"lon":5.36816,"is_reserved":false,"is_disabled":false,"rental_uris":{"android":"levelo://app?vid=fa62253e-e4db-42d1-9a63-6ab16922bf00","ios":"levelo://app?vid=fa62253e-e4db-42d1-9a63-6ab16922bf00"},"vehicle_type_id":"4","last_reported":1748902515,"current_range_meters":12400,"station_id":"","pricing_plan_id":"cebpf4jnsgd1na2vs0mg"},{"bike_id":"cfd8a61b-5b9f-4b59-b997-bf8355304b02","system_id":"levelo_inurba_marseille","lat":43.28843,"lon":5.35846,"is_reserved":false,"is_disabled":false,"rental_uris":{"android":"levelo://app?vid=cfd8a61b-5b9f-4b59-b997-bf8355304b02","ios":"levelo://app?vid=cfd8a61b-5b9f-4b59-b997-bf8355304b02"},"vehicle_type_id":"4","last_reported":1748902515,"current_range_meters":12400,"station_id":"ce4bhb12rcd13ifvqem0","pricing_plan_id":"cebpf4jnsgd1na2vs0mg"},{"bike_id":"2e454d1b-7315-4339-b29b-5b569ba90d7a","system_id":"levelo_inurba_marseille","lat":43.282289,"lon":5.390621,"is_reserved":false,"is_disabled":false,"rental_uris":{"android":"levelo://app?vid=2e454d1b-7315-4339-b29b-5b569ba90d7a","ios":"levelo://app?vid=2e454d1b-7315-4339-b29b-5b569ba90d7a"},"vehicle_type_id":"4","last_reported":1748902515,"current_range_meters":12800,"station_id":"","pricing_plan_id":"cebpf4jnsgd1na2vs0mg"},{"bike_id":"f5cb770c-864c-402a-9473-5c3f691aa53d","system_id":"levelo_inurba_marseille","lat":43.2952,"lon":5.39034,"is_reserved":false,"is_disabled":false,"rental_uris":{"android":"levelo://app?vid=f5cb770c-864c-402a-9473-5c3f691aa53d","ios":"levelo://app?vid=f5cb770c-864c-402a-9473-5c3f691aa53d"},"vehicle_type_id":"4","last_reported":1748902515,"current_range_meters":12800,"station_id":"ce4bh3p2rcd13ifvqdp0","pricing_plan_id":"cebpf4jnsgd1na2vs0mg"},{"bike_id":"53fe3fb2-6688-4f4d-81d4-25e02c5ee914","system_id":"levelo_inurba_marseille","lat":43.28659,"lon":5.36345,"is_reserved":false,"is_disabled":false,"rental_uris":{"android":"levelo://app?vid=53fe3fb2-6688-4f4d-81d4-25e02c5ee914","ios":"levelo://app?vid=53fe3fb2-6688-4f4d-81d4-25e02c5ee914"},"vehicle_type_id":"4","last_reported":1748902515,"current_range_meters":12800,"station_id":"ce4bhah2rcd13ifvqej0","pricing_plan_id":"cebpf4jnsgd1na2vs0mg"},{"bike_id":"900d1018-62d7-44ad-a7bd-2d294560b817","system_id":"levelo_inurba_marseille","lat":43.25103,"lon":5.40325,"is_reserved":false,"is_disabled":false,"rental_uris":{"android":"levelo://app?vid=900d1018-62d7-44ad-a7bd-2d294560b817","ios":"levelo://app?vid=900d1018-62d7-44ad-a7bd-2d294560b817"},"vehicle_type_id":"4","last_reported":1748902515,"current_range_meters":12800,"station_id":"ce4bhlh2rcd13ifvqgig","pricing_plan_id":"cebpf4jnsgd1na2vs0mg"},{"bike_id":"132751d0-a1d2-4547-8139-b08ba3b87187","system_id":"levelo_inurba_marseille","lat":43.32334,"lon":5.40569,"is_reserved":false,"is_disabled":false,"rental_uris":{"android":"levelo://app?vid=132751d0-a1d2-4547-8139-b08ba3b87187","ios":"levelo://app?vid=132751d0-a1d2-4547-8139-b08ba3b87187"},"vehicle_type_id":"4","last_reported":1748902515,"current_range_meters":12800,"station_id":"ce4bhq92rcd13ifvqhjg","pricing_plan_id":"cebpf4jnsgd1na2vs0mg"},{"bike_id":"3082751b-d3f4-42ac-b6c0-bf946931c7e5","system_id":"levelo_inurba_marseille","lat":43.211927,"lon":5.350721,"is_reserved":false,"is_disabled":false,"rental_uris":{"android":"levelo://app?vid=3082751b-d3f4-42ac-b6c0-bf946931c7e5","ios":"levelo://app?vid=3082751b-d3f4-42ac-b6c0-bf946931c7e5"},"vehicle_type_id":"4","last_reported":1748902515,"current_range_meters":12800,"station_id":"st_cvj6sg6p6f1abm77japg","pricing_plan_id":"cebpf4jnsgd1na2vs0mg"},{"bike_id":"a33c9ded-afda-47fd-87fa-ac593a798cfa","system_id":"levelo_inurba_marseille","lat":43.26849,"lon":5.3892,"is_reserved":false,"is_disabled":false,"rental_uris":{"android":"levelo://app?vid=a33c9ded-afda-47fd-87fa-ac593a798cfa","ios":"levelo://app?vid=a33c9ded-afda-47fd-87fa-ac593a798cfa"},"vehicle_type_id":"4","last_reported":1748902515,"current_range_meters":13600,"station_id":"","pricing_plan_id":"cebpf4jnsgd1na2vs0mg"},{"bike_id":"9873ea8e-c2af-49bc-9f62-b61d54c33967","system_id":"levelo_inurba_marseille","lat":43.28943,"lon":5.36404,"is_reserved":false,"is_disabled":false,"rental_uris":{"android":"levelo://app?vid=9873ea8e-c2af-49bc-9f62-b61d54c33967","ios":"levelo://app?vid=9873ea8e-c2af-49bc-9f62-b61d54c33967"},"vehicle_type_id":"4","last_reported":1748902515,"current_range_meters":13600,"station_id":"ce4bhc92rcd13ifvqetg","pricing_plan_id":"cebpf4jnsgd1na2vs0mg"},{"bike_id":"9b5f546d-e25a-4080-ba47-25b7850f5bd3","system_id":"levelo_inurba_marseille","lat":43.28728,"lon":5.36078,"is_reserved":false,"is_disabled":false,"rental_uris":{"android":"levelo://app?vid=9b5f546d-e25a-4080-ba47-25b7850f5bd3","ios":"levelo://app?vid=9b5f546d-e25a-4080-ba47-25b7850f5bd3"},"vehicle_type_id":"4","last_reported":1748902515,"current_range_meters":13600,"station_id":"cki0cbj6b192h4jlfktg","pricing_plan_id":"cebpf4jnsgd1na2vs0mg"},{"bike_id":"25bb10df-011f-4179-aa26-1d1dd6e6598f","system_id":"levelo_inurba_marseille","lat":43.29744,"lon":5.40085,"is_reserved":false,"is_disabled":false,"rental_uris":{"android":"levelo://app?vid=25bb10df-011f-4179-aa26-1d1dd6e6598f","ios":"levelo://app?vid=25bb10df-011f-4179-aa26-1d1dd6e6598f"},"vehicle_type_id":"4","last_reported":1748902515,"current_range_meters":14000,"station_id":"","pricing_plan_id":"cebpf4jnsgd1na2vs0mg"},{"bike_id":"aab1d16a-9f0c-4100-bb72-0114cbb59630","system_id":"levelo_inurba_marseille","lat":43.28405,"lon":5.37523,"is_reserved":false,"is_disabled":false,"rental_uris":{"android":"levelo://app?vid=aab1d16a-9f0c-4100-bb72-0114cbb59630","ios":"levelo://app?vid=aab1d16a-9f0c-4100-bb72-0114cbb59630"},"vehicle_type_id":"4","last_reported":1748902515,"current_range_meters":14000,"station_id":"ce4bh412rcd13ifvqds0","pricing_plan_id":"cebpf4jnsgd1na2vs0mg"},{"bike_id":"d144d0a6-8442-4d6c-b649-3639d789aa9f","system_id":"levelo_inurba_marseille","lat":43.29476,"lon":5.38654,"is_reserved":false,"is_disabled":false,"rental_uris":{"android":"levelo://app?vid=d144d0a6-8442-4d6c-b649-3639d789aa9f","ios":"levelo://app?vid=d144d0a6-8442-4d6c-b649-3639d789aa9f"},"vehicle_type_id":"4","last_reported":1748902515,"current_range_meters":14400,"station_id":"","pricing_plan_id":"cebpf4jnsgd1na2vs0mg"},{"bike_id":"543575ef-c4c5-4309-92ad-658f80252cfc","system_id":"levelo_inurba_marseille","lat":43.31067,"lon":5.383545,"is_reserved":false,"is_disabled":false,"rental_uris":{"android":"levelo://app?vid=543575ef-c4c5-4309-92ad-658f80252cfc","ios":"levelo://app?vid=543575ef-c4c5-4309-92ad-658f80252cfc"},"vehicle_type_id":"4","last_reported":1748902515,"current_range_meters":14400,"station_id":"ce4bgv92rcd13ifvqcr0","pricing_plan_id":"cebpf4jnsgd1na2vs0mg"},{"bike_id":"e289ab91-0bec-45a1-90d3-6439ba734579","system_id":"levelo_inurba_marseille","lat":43.3045,"lon":5.38868,"is_reserved":false,"is_disabled":false,"rental_uris":{"android":"levelo://app?vid=e289ab91-0bec-45a1-90d3-6439ba734579","ios":"levelo://app?vid=e289ab91-0bec-45a1-90d3-6439ba734579"},"vehicle_type_id":"4","last_reported":1748902515,"current_range_meters":14800,"station_id":"ce4bgk12rcd13ifvqbi0","pricing_plan_id":"cebpf4jnsgd1na2vs0mg"},{"bike_id":"abd1a18a-034f-460d-b1a6-574249a9d126","system_id":"levelo_inurba_marseille","lat":43.30921,"lon":5.40145,"is_reserved":false,"is_disabled":false,"rental_uris":{"android":"levelo://app?vid=abd1a18a-034f-460d-b1a6-574249a9d126","ios":"levelo://app?vid=abd1a18a-034f-460d-b1a6-574249a9d126"},"vehicle_type_id":"4","last_reported":1748902515,"current_range_meters":14800,"station_id":"ce4bgvp2rcd13ifvqct0","pricing_plan_id":"cebpf4jnsgd1na2vs0mg"},{"bike_id":"0ad7a620-d49a-4300-a404-a0ee7002ef3a","system_id":"levelo_inurba_marseille","lat":43.29227,"lon":5.38539,"is_reserved":false,"is_disabled":false,"rental_uris":{"android":"levelo://app?vid=0ad7a620-d49a-4300-a404-a0ee7002ef3a","ios":"levelo://app?vid=0ad7a620-d49a-4300-a404-a0ee7002ef3a"},"vehicle_type_id":"4","last_reported":1748902515,"current_range_meters":14800,"station_id":"ce4bh692rcd13ifvqea0","pricing_plan_id":"cebpf4jnsgd1na2vs0mg"},{"bike_id":"cf9a9959-303f-40f9-b57e-3ca93b1edd13","system_id":"levelo_inurba_marseille","lat":43.288419,"lon":5.358497,"is_reserved":false,"is_disabled":false,"rental_uris":{"android":"levelo://app?vid=cf9a9959-303f-40f9-b57e-3ca93b1edd13","ios":"levelo://app?vid=cf9a9959-303f-40f9-b57e-3ca93b1edd13"},"vehicle_type_id":"4","last_reported":1748902515,"current_range_meters":14800,"station_id":"ce4bhb12rcd13ifvqem0","pricing_plan_id":"cebpf4jnsgd1na2vs0mg"},{"bike_id":"d511c3c9-7058-43fd-a6dc-1a1b5eb4a6dd","system_id":"levelo_inurba_marseille","lat":43.2987,"lon":5.38909,"is_reserved":false,"is_disabled":false,"rental_uris":{"android":"levelo://app?vid=d511c3c9-7058-43fd-a6dc-1a1b5eb4a6dd","ios":"levelo://app?vid=d511c3c9-7058-43fd-a6dc-1a1b5eb4a6dd"},"vehicle_type_id":"4","last_reported":1748902515,"current_range_meters":15200,"station_id":"ce4bh392rcd13ifvqdl0","pricing_plan_id":"cebpf4jnsgd1na2vs0mg"},{"bike_id":"98d1d76e-4f30-4abc-a043-19e8cb9be672","system_id":"levelo_inurba_marseille","lat":43.24677,"lon":5.38135,"is_reserved":false,"is_disabled":false,"rental_uris":{"android":"levelo://app?vid=98d1d76e-4f30-4abc-a043-19e8cb9be672","ios":"levelo://app?vid=98d1d76e-4f30-4abc-a043-19e8cb9be672"},"vehicle_type_id":"4","last_reported":1748902515,"current_range_meters":15200,"station_id":"ce4bhih2rcd13ifvqfr0","pricing_plan_id":"cebpf4jnsgd1na2vs0mg"},{"bike_id":"53196814-6051-40e4-bd7e-568c420b5ed1","system_id":"levelo_inurba_marseille","lat":43.25111,"lon":5.40308,"is_reserved":false,"is_disabled":false,"rental_uris":{"android":"levelo://app?vid=53196814-6051-40e4-bd7e-568c420b5ed1","ios":"levelo://app?vid=53196814-6051-40e4-bd7e-568c420b5ed1"},"vehicle_type_id":"4","last_reported":1748902515,"current_range_meters":15200,"station_id":"ce4bhlh2rcd13ifvqgig","pricing_plan_id":"cebpf4jnsgd1na2vs0mg"},{"bike_id":"fe449715-63e8-4bb0-ab50-1ce780da3af6","system_id":"levelo_inurba_marseille","lat":43.311181,"lon":5.37772,"is_reserved":false,"is_disabled":false,"rental_uris":{"android":"levelo://app?vid=fe449715-63e8-4bb0-ab50-1ce780da3af6","ios":"levelo://app?vid=fe449715-63e8-4bb0-ab50-1ce780da3af6"},"vehicle_type_id":"4","last_reported":1748902515,"current_range_meters":16000,"station_id":"ce4bgt92rcd13ifvqcg0","pricing_plan_id":"cebpf4jnsgd1na2vs0mg"},{"bike_id":"3217bca0-eca5-48b9-889b-e7329da08508","system_id":"levelo_inurba_marseille","lat":43.2927,"lon":5.38436,"is_reserved":false,"is_disabled":false,"rental_uris":{"android":"levelo://app?vid=3217bca0-eca5-48b9-889b-e7329da08508","ios":"levelo://app?vid=3217bca0-eca5-48b9-889b-e7329da08508"},"vehicle_type_id":"4","last_reported":1748902515,"current_range_meters":16000,"station_id":"ce4bh692rcd13ifvqea0","pricing_plan_id":"cebpf4jnsgd1na2vs0mg"},{"bike_id":"e0f5d272-c930-470d-a35e-7204d2d26eb6","system_id":"levelo_inurba_marseille","lat":43.28615,"lon":5.35109,"is_reserved":false,"is_disabled":false,"rental_uris":{"android":"levelo://app?vid=e0f5d272-c930-470d-a35e-7204d2d26eb6","ios":"levelo://app?vid=e0f5d272-c930-470d-a35e-7204d2d26eb6"},"vehicle_type_id":"4","last_reported":1748902515,"current_range_meters":16000,"station_id":"ce4bhch2rcd13ifvqeug","pricing_plan_id":"cebpf4jnsgd1na2vs0mg"},{"bike_id":"82762f70-216b-4762-9e82-daaa45d19a35","system_id":"levelo_inurba_marseille","lat":43.241669,"lon":5.364017,"is_reserved":false,"is_disabled":false,"rental_uris":{"android":"levelo://app?vid=82762f70-216b-4762-9e82-daaa45d19a35","ios":"levelo://app?vid=82762f70-216b-4762-9e82-daaa45d19a35"},"vehicle_type_id":"4","last_reported":1748902515,"current_range_meters":16000,"station_id":"cpo36qri1sfpv3e86is0","pricing_plan_id":"cebpf4jnsgd1na2vs0mg"},{"bike_id":"64c320f3-8739-4026-9c50-8263b15c7ee9","system_id":"levelo_inurba_marseille","lat":43.30428,"lon":5.38878,"is_reserved":false,"is_disabled":false,"rental_uris":{"android":"levelo://app?vid=64c320f3-8739-4026-9c50-8263b15c7ee9","ios":"levelo://app?vid=64c320f3-8739-4026-9c50-8263b15c7ee9"},"vehicle_type_id":"4","last_reported":1748902515,"current_range_meters":16400,"station_id":"ce4bgk12rcd13ifvqbi0","pricing_plan_id":"cebpf4jnsgd1na2vs0mg"},{"bike_id":"1c1abc4d-aec8-4e72-acbd-81b6f6255a94","system_id":"levelo_inurba_marseille","lat":43.30556,"lon":5.36663,"is_reserved":false,"is_disabled":false,"rental_uris":{"android":"levelo://app?vid=1c1abc4d-aec8-4e72-acbd-81b6f6255a94","ios":"levelo://app?vid=1c1abc4d-aec8-4e72-acbd-81b6f6255a94"},"vehicle_type_id":"4","last_reported":1748902515,"current_range_meters":16400,"station_id":"ce4bgrp2rcd13ifvqc9g","pricing_plan_id":"cebpf4jnsgd1na2vs0mg"},{"bike_id":"063c29b9-1301-46d1-9308-5957595af501","system_id":"levelo_inurba_marseille","lat":43.309423,"lon":5.401545,"is_reserved":false,"is_disabled":false,"rental_uris":{"android":"levelo://app?vid=063c29b9-1301-46d1-9308-5957595af501","ios":"levelo://app?vid=063c29b9-1301-46d1-9308-5957595af501"},"vehicle_type_id":"4","last_reported":1748902515,"current_range_meters":16400,"station_id":"ce4bgvp2rcd13ifvqct0","pricing_plan_id":"cebpf4jnsgd1na2vs0mg"},{"bike_id":"44ae72ad-2a29-4306-829f-e2d7b277057b","system_id":"levelo_inurba_marseille","lat":43.30628,"lon":5.40078,"is_reserved":false,"is_disabled":false,"rental_uris":{"android":"levelo://app?vid=44ae72ad-2a29-4306-829f-e2d7b277057b","ios":"levelo://app?vid=44ae72ad-2a29-4306-829f-e2d7b277057b"},"vehicle_type_id":"4","last_reported":1748902515,"current_range_meters":16400,"station_id":"ce4bh112rcd13ifvqda0","pricing_plan_id":"cebpf4jnsgd1na2vs0mg"},{"bike_id":"6c7dc0b6-cea1-43c5-94ac-b10f8cfc40be","system_id":"levelo_inurba_marseille","lat":43.33018,"lon":5.39034,"is_reserved":false,"is_disabled":false,"rental_uris":{"android":"levelo://app?vid=6c7dc0b6-cea1-43c5-94ac-b10f8cfc40be","ios":"levelo://app?vid=6c7dc0b6-cea1-43c5-94ac-b10f8cfc40be"},"vehicle_type_id":"4","last_reported":1748902515,"current_range_meters":16400,"station_id":"ce4bhr92rcd13ifvqhrg","pricing_plan_id":"cebpf4jnsgd1na2vs0mg"},{"bike_id":"f3254fa9-5ad1-4846-bfd4-4f8bc3692f7a","system_id":"levelo_inurba_marseille","lat":43.32639,"lon":5.42484,"is_reserved":false,"is_disabled":false,"rental_uris":{"android":"levelo://app?vid=f3254fa9-5ad1-4846-bfd4-4f8bc3692f7a","ios":"levelo://app?vid=f3254fa9-5ad1-4846-bfd4-4f8bc3692f7a"},"vehicle_type_id":"4","last_reported":1748902515,"current_range_meters":16800,"station_id":"","pricing_plan_id":"cebpf4jnsgd1na2vs0mg"},{"bike_id":"e31c84f5-c44b-48e2-adf2-52a2beace6c7","system_id":"levelo_inurba_marseille","lat":43.31747,"lon":5.37414,"is_reserved":false,"is_disabled":false,"rental_uris":{"android":"levelo://app?vid=e31c84f5-c44b-48e2-adf2-52a2beace6c7","ios":"levelo://app?vid=e31c84f5-c44b-48e2-adf2-52a2beace6c7"},"vehicle_type_id":"4","last_reported":1748902515,"current_range_meters":16800,"station_id":"","pricing_plan_id":"cebpf4jnsgd1na2vs0mg"},{"bike_id":"a1e4485b-9791-4082-b91a-5d59d1183912","system_id":"levelo_inurba_marseille","lat":43.29307,"lon":5.37174,"is_reserved":false,"is_disabled":false,"rental_uris":{"android":"levelo://app?vid=a1e4485b-9791-4082-b91a-5d59d1183912","ios":"levelo://app?vid=a1e4485b-9791-4082-b91a-5d59d1183912"},"vehicle_type_id":"4","last_reported":1748902515,"current_range_meters":16800,"station_id":"ce4bgh92rcd13ifvqb40","pricing_plan_id":"cebpf4jnsgd1na2vs0mg"},{"bike_id":"e7146f3b-a9eb-48e9-be8c-dba034b3e8e4","system_id":"levelo_inurba_marseille","lat":43.30793,"lon":5.37646,"is_reserved":false,"is_disabled":false,"rental_uris":{"android":"levelo://app?vid=e7146f3b-a9eb-48e9-be8c-dba034b3e8e4","ios":"levelo://app?vid=e7146f3b-a9eb-48e9-be8c-dba034b3e8e4"},"vehicle_type_id":"4","last_reported":1748902515,"current_range_meters":16800,"station_id":"ce4bgv92rcd13ifvqcq0","pricing_plan_id":"cebpf4jnsgd1na2vs0mg"},{"bike_id":"667c34cd-57b7-4207-b615-fd66ddd9efe2","system_id":"levelo_inurba_marseille","lat":43.29528,"lon":5.39045,"is_reserved":false,"is_disabled":false,"rental_uris":{"android":"levelo://app?vid=667c34cd-57b7-4207-b615-fd66ddd9efe2","ios":"levelo://app?vid=667c34cd-57b7-4207-b615-fd66ddd9efe2"},"vehicle_type_id":"4","last_reported":1748902515,"current_range_meters":16800,"station_id":"ce4bh3p2rcd13ifvqdp0","pricing_plan_id":"cebpf4jnsgd1na2vs0mg"},{"bike_id":"c61aa0f8-37eb-4f90-b064-55fcc4e26378","system_id":"levelo_inurba_marseille","lat":43.2836,"lon":5.38115,"is_reserved":false,"is_disabled":false,"rental_uris":{"android":"levelo://app?vid=c61aa0f8-37eb-4f90-b064-55fcc4e26378","ios":"levelo://app?vid=c61aa0f8-37eb-4f90-b064-55fcc4e26378"},"vehicle_type_id":"4","last_reported":1748902515,"current_range_meters":16800,"station_id":"ce4bh412rcd13ifvqdr0","pricing_plan_id":"cebpf4jnsgd1na2vs0mg"},{"bike_id":"4138fca8-1b57-43a6-b6a9-09abaa470214","system_id":"levelo_inurba_marseille","lat":43.30422,"lon":5.41282,"is_reserved":false,"is_disabled":false,"rental_uris":{"android":"levelo://app?vid=4138fca8-1b57-43a6-b6a9-09abaa470214","ios":"levelo://app?vid=4138fca8-1b57-43a6-b6a9-09abaa470214"},"vehicle_type_id":"4","last_reported":1748902515,"current_range_meters":16800,"station_id":"ce4bhop2rcd13ifvqh8g","pricing_plan_id":"cebpf4jnsgd1na2vs0mg"},{"bike_id":"56ebd079-5325-4146-a252-c6e09bfabc00","system_id":"levelo_inurba_marseille","lat":43.318951,"lon":5.407369,"is_reserved":false,"is_disabled":false,"rental_uris":{"android":"levelo://app?vid=56ebd079-5325-4146-a252-c6e09bfabc00","ios":"levelo://app?vid=56ebd079-5325-4146-a252-c6e09bfabc00"},"vehicle_type_id":"4","last_reported":1748902515,"current_range_meters":16800,"station_id":"ce4bhq12rcd13ifvqhig","pricing_plan_id":"cebpf4jnsgd1na2vs0mg"},{"bike_id":"b7557344-82f1-4a35-96d4-b128a1446f19","system_id":"levelo_inurba_marseille","lat":43.32366,"lon":5.38867,"is_reserved":false,"is_disabled":false,"rental_uris":{"android":"levelo://app?vid=b7557344-82f1-4a35-96d4-b128a1446f19","ios":"levelo://app?vid=b7557344-82f1-4a35-96d4-b128a1446f19"},"vehicle_type_id":"4","last_reported":1748902515,"current_range_meters":16800,"station_id":"ce4bhqp2rcd13ifvqhog","pricing_plan_id":"cebpf4jnsgd1na2vs0mg"},{"bike_id":"a082cfc8-70c0-4316-b58b-8dca0406cb1a","system_id":"levelo_inurba_marseille","lat":43.25447,"lon":5.41849,"is_reserved":false,"is_disabled":false,"rental_uris":{"android":"levelo://app?vid=a082cfc8-70c0-4316-b58b-8dca0406cb1a","ios":"levelo://app?vid=a082cfc8-70c0-4316-b58b-8dca0406cb1a"},"vehicle_type_id":"4","last_reported":1748902515,"current_range_meters":17200,"station_id":"","pricing_plan_id":"cebpf4jnsgd1na2vs0mg"},{"bike_id":"9b8faa06-2806-4de2-b0e4-fcb9710ee2db","system_id":"levelo_inurba_marseille","lat":43.29781,"lon":5.38042,"is_reserved":false,"is_disabled":false,"rental_uris":{"android":"levelo://app?vid=9b8faa06-2806-4de2-b0e4-fcb9710ee2db","ios":"levelo://app?vid=9b8faa06-2806-4de2-b0e4-fcb9710ee2db"},"vehicle_type_id":"4","last_reported":1748902515,"current_range_meters":17200,"station_id":"","pricing_plan_id":"cebpf4jnsgd1na2vs0mg"},{"bike_id":"91e2ebb5-9aae-49b8-891c-7675c71ef12d","system_id":"levelo_inurba_marseille","lat":43.30878,"lon":5.39621,"is_reserved":false,"is_disabled":false,"rental_uris":{"android":"levelo://app?vid=91e2ebb5-9aae-49b8-891c-7675c71ef12d","ios":"levelo://app?vid=91e2ebb5-9aae-49b8-891c-7675c71ef12d"},"vehicle_type_id":"4","last_reported":1748902515,"current_range_meters":17200,"station_id":"ce4bh012rcd13ifvqcv0","pricing_plan_id":"cebpf4jnsgd1na2vs0mg"},{"bike_id":"89fe64c7-aff6-494e-8271-d9c172c2b8af","system_id":"levelo_inurba_marseille","lat":43.27951,"lon":5.41031,"is_reserved":false,"is_disabled":false,"rental_uris":{"android":"levelo://app?vid=89fe64c7-aff6-494e-8271-d9c172c2b8af","ios":"levelo://app?vid=89fe64c7-aff6-494e-8271-d9c172c2b8af"},"vehicle_type_id":"4","last_reported":1748902515,"current_range_meters":17200,"station_id":"ce4bhnp2rcd13ifvqh0g","pricing_plan_id":"cebpf4jnsgd1na2vs0mg"},{"bike_id":"dba232dd-05ec-4177-8fee-3d3dc476d851","system_id":"levelo_inurba_marseille","lat":43.27963,"lon":5.41666,"is_reserved":false,"is_disabled":false,"rental_uris":{"android":"levelo://app?vid=dba232dd-05ec-4177-8fee-3d3dc476d851","ios":"levelo://app?vid=dba232dd-05ec-4177-8fee-3d3dc476d851"},"vehicle_type_id":"4","last_reported":1748902515,"current_range_meters":17200,"station_id":"ce4bho12rcd13ifvqh1g","pricing_plan_id":"cebpf4jnsgd1na2vs0mg"},{"bike_id":"1cb7c0a1-48f8-49ab-9106-52040059037c","system_id":"levelo_inurba_marseille","lat":43.23052,"lon":5.3549,"is_reserved":false,"is_disabled":false,"rental_uris":{"android":"levelo://app?vid=1cb7c0a1-48f8-49ab-9106-52040059037c","ios":"levelo://app?vid=1cb7c0a1-48f8-49ab-9106-52040059037c"},"vehicle_type_id":"4","last_reported":1748902515,"current_range_meters":17200,"station_id":"cpo3342slgdg3j2ifvpg","pricing_plan_id":"cebpf4jnsgd1na2vs0mg"},{"bike_id":"6db8da9d-ed27-45cf-9935-6e37c99d0be9","system_id":"levelo_inurba_marseille","lat":43.26224,"lon":5.40151,"is_reserved":false,"is_disabled":false,"rental_uris":{"android":"levelo://app?vid=6db8da9d-ed27-45cf-9935-6e37c99d0be9","ios":"levelo://app?vid=6db8da9d-ed27-45cf-9935-6e37c99d0be9"},"vehicle_type_id":"4","last_reported":1748902515,"current_range_meters":17600,"station_id":"","pricing_plan_id":"cebpf4jnsgd1na2vs0mg"},{"bike_id":"88eccdcd-903a-44e4-8275-66e19ce5c14e","system_id":"levelo_inurba_marseille","lat":43.29919,"lon":5.37494,"is_reserved":false,"is_disabled":false,"rental_uris":{"android":"levelo://app?vid=88eccdcd-903a-44e4-8275-66e19ce5c14e","ios":"levelo://app?vid=88eccdcd-903a-44e4-8275-66e19ce5c14e"},"vehicle_type_id":"4","last_reported":1748902515,"current_range_meters":17600,"station_id":"ce4bgjh2rcd13ifvqbg0","pricing_plan_id":"cebpf4jnsgd1na2vs0mg"},{"bike_id":"9e504378-d525-47d7-8d5a-bc9af4bdf462","system_id":"levelo_inurba_marseille","lat":43.295686,"lon":5.397667,"is_reserved":false,"is_disabled":false,"rental_uris":{"android":"levelo://app?vid=9e504378-d525-47d7-8d5a-bc9af4bdf462","ios":"levelo://app?vid=9e504378-d525-47d7-8d5a-bc9af4bdf462"},"vehicle_type_id":"4","last_reported":1748902515,"current_range_meters":17600,"station_id":"ce4bh012rcd13ifvqcv0","pricing_plan_id":"cebpf4jnsgd1na2vs0mg"},{"bike_id":"4043fffd-2516-49d1-becf-7635bb59418b","system_id":"levelo_inurba_marseille","lat":43.27908,"lon":5.38011,"is_reserved":false,"is_disabled":false,"rental_uris":{"android":"levelo://app?vid=4043fffd-2516-49d1-becf-7635bb59418b","ios":"levelo://app?vid=4043fffd-2516-49d1-becf-7635bb59418b"},"vehicle_type_id":"4","last_reported":1748902515,"current_range_meters":17600,"station_id":"ce4bhf92rcd13ifvqf50","pricing_plan_id":"cebpf4jnsgd1na2vs0mg"},{"bike_id":"859fcab1-74b2-40a1-b9e6-866c899a681e","system_id":"levelo_inurba_marseille","lat":43.279964,"lon":5.400108,"is_reserved":false,"is_disabled":false,"rental_uris":{"android":"levelo://app?vid=859fcab1-74b2-40a1-b9e6-866c899a681e","ios":"levelo://app?vid=859fcab1-74b2-40a1-b9e6-866c899a681e"},"vehicle_type_id":"4","last_reported":1748902515,"current_range_meters":17600,"station_id":"ce4bho92rcd13ifvqh4g","pricing_plan_id":"cebpf4jnsgd1na2vs0mg"},{"bike_id":"a5dacdef-3d90-4902-a512-e6d1a0ec18a0","system_id":"levelo_inurba_marseille","lat":43.28445,"lon":5.39208,"is_reserved":false,"is_disabled":false,"rental_uris":{"android":"levelo://app?vid=a5dacdef-3d90-4902-a512-e6d1a0ec18a0","ios":"levelo://app?vid=a5dacdef-3d90-4902-a512-e6d1a0ec18a0"},"vehicle_type_id":"4","last_reported":1748902515,"current_range_meters":17600,"station_id":"ce4bhoh2rcd13ifvqh5g","pricing_plan_id":"cebpf4jnsgd1na2vs0mg"},{"bike_id":"257d7cf8-c558-4d81-87fd-d284a30fde73","system_id":"levelo_inurba_marseille","lat":43.31883,"lon":5.4074,"is_reserved":false,"is_disabled":false,"rental_uris":{"android":"levelo://app?vid=257d7cf8-c558-4d81-87fd-d284a30fde73","ios":"levelo://app?vid=257d7cf8-c558-4d81-87fd-d284a30fde73"},"vehicle_type_id":"4","last_reported":1748902515,"current_range_meters":17600,"station_id":"ce4bhq12rcd13ifvqhig","pricing_plan_id":"cebpf4jnsgd1na2vs0mg"},{"bike_id":"6a1d81c6-deed-4676-a232-253b9c013538","system_id":"levelo_inurba_marseille","lat":43.30435,"lon":5.38878,"is_reserved":false,"is_disabled":false,"rental_uris":{"android":"levelo://app?vid=6a1d81c6-deed-4676-a232-253b9c013538","ios":"levelo://app?vid=6a1d81c6-deed-4676-a232-253b9c013538"},"vehicle_type_id":"4","last_reported":1748902515,"current_range_meters":18000,"station_id":"ce4bgk12rcd13ifvqbi0","pricing_plan_id":"cebpf4jnsgd1na2vs0mg"},{"bike_id":"61ce4ee7-d702-4080-8219-2a202017ab3c","system_id":"levelo_inurba_marseille","lat":43.298721,"lon":5.397321,"is_reserved":false,"is_disabled":false,"rental_uris":{"android":"levelo://app?vid=61ce4ee7-d702-4080-8219-2a202017ab3c","ios":"levelo://app?vid=61ce4ee7-d702-4080-8219-2a202017ab3c"},"vehicle_type_id":"4","last_reported":1748902515,"current_range_meters":18000,"station_id":"ce4bh0h2rcd13ifvqd50","pricing_plan_id":"cebpf4jnsgd1na2vs0mg"},{"bike_id":"8e45c534-9f38-4aaf-bfc0-20831aa0c778","system_id":"levelo_inurba_marseille","lat":43.260591,"lon":5.393841,"is_reserved":false,"is_disabled":false,"rental_uris":{"android":"levelo://app?vid=8e45c534-9f38-4aaf-bfc0-20831aa0c778","ios":"levelo://app?vid=8e45c534-9f38-4aaf-bfc0-20831aa0c778"},"vehicle_type_id":"4","last_reported":1748902515,"current_range_meters":18000,"station_id":"ce4bhh92rcd13ifvqfj0","pricing_plan_id":"cebpf4jnsgd1na2vs0mg"},{"bike_id":"88f86794-7a34-4854-8fce-692d6612186e","system_id":"levelo_inurba_marseille","lat":43.24383,"lon":5.37059,"is_reserved":false,"is_disabled":false,"rental_uris":{"android":"levelo://app?vid=88f86794-7a34-4854-8fce-692d6612186e","ios":"levelo://app?vid=88f86794-7a34-4854-8fce-692d6612186e"},"vehicle_type_id":"4","last_reported":1748902515,"current_range_meters":18000,"station_id":"ce4bhhh2rcd13ifvqfk0","pricing_plan_id":"cebpf4jnsgd1na2vs0mg"},{"bike_id":"e073c3b9-579e-431b-8c54-b6a28caa0933","system_id":"levelo_inurba_marseille","lat":43.229366,"lon":5.353894,"is_reserved":false,"is_disabled":false,"rental_uris":{"android":"levelo://app?vid=e073c3b9-579e-431b-8c54-b6a28caa0933","ios":"levelo://app?vid=e073c3b9-579e-431b-8c54-b6a28caa0933"},"vehicle_type_id":"4","last_reported":1748902515,"current_range_meters":18000,"station_id":"cpo3532slgdg3j2ikp40","pricing_plan_id":"cebpf4jnsgd1na2vs0mg"},{"bike_id":"4e17c123-8236-4a02-a8a2-a61cdc625d7e","system_id":"levelo_inurba_marseille","lat":43.30487,"lon":5.37111,"is_reserved":false,"is_disabled":false,"rental_uris":{"android":"levelo://app?vid=4e17c123-8236-4a02-a8a2-a61cdc625d7e","ios":"levelo://app?vid=4e17c123-8236-4a02-a8a2-a61cdc625d7e"},"vehicle_type_id":"4","last_reported":1748902515,"current_range_meters":18800,"station_id":"","pricing_plan_id":"cebpf4jnsgd1na2vs0mg"},{"bike_id":"9577edff-be42-4822-a3a7-3ee7b299d51a","system_id":"levelo_inurba_marseille","lat":43.30781,"lon":5.37653,"is_reserved":false,"is_disabled":false,"rental_uris":{"android":"levelo://app?vid=9577edff-be42-4822-a3a7-3ee7b299d51a","ios":"levelo://app?vid=9577edff-be42-4822-a3a7-3ee7b299d51a"},"vehicle_type_id":"4","last_reported":1748902515,"current_range_meters":18800,"station_id":"ce4bgv92rcd13ifvqcq0","pricing_plan_id":"cebpf4jnsgd1na2vs0mg"},{"bike_id":"96425785-67ec-44b8-ac35-6530cd1939ae","system_id":"levelo_inurba_marseille","lat":43.24181,"lon":5.39728,"is_reserved":false,"is_disabled":false,"rental_uris":{"android":"levelo://app?vid=96425785-67ec-44b8-ac35-6530cd1939ae","ios":"levelo://app?vid=96425785-67ec-44b8-ac35-6530cd1939ae"},"vehicle_type_id":"4","last_reported":1748902515,"current_range_meters":18800,"station_id":"ce4bhn12rcd13ifvqgpg","pricing_plan_id":"cebpf4jnsgd1na2vs0mg"},{"bike_id":"75b78a8c-e650-4bd1-8ece-c515b3b1ca86","system_id":"levelo_inurba_marseille","lat":43.24068,"lon":5.3776,"is_reserved":false,"is_disabled":false,"rental_uris":{"android":"levelo://app?vid=75b78a8c-e650-4bd1-8ece-c515b3b1ca86","ios":"levelo://app?vid=75b78a8c-e650-4bd1-8ece-c515b3b1ca86"},"vehicle_type_id":"4","last_reported":1748902515,"current_range_meters":18800,"station_id":"ce4bhnp2rcd13ifvqgvg","pricing_plan_id":"cebpf4jnsgd1na2vs0mg"},{"bike_id":"6e95673a-fc97-481f-9569-79e0a78bf150","system_id":"levelo_inurba_marseille","lat":43.27953,"lon":5.41017,"is_reserved":false,"is_disabled":false,"rental_uris":{"android":"levelo://app?vid=6e95673a-fc97-481f-9569-79e0a78bf150","ios":"levelo://app?vid=6e95673a-fc97-481f-9569-79e0a78bf150"},"vehicle_type_id":"4","last_reported":1748902515,"current_range_meters":18800,"station_id":"ce4bhnp2rcd13ifvqh0g","pricing_plan_id":"cebpf4jnsgd1na2vs0mg"},{"bike_id":"5b536054-600d-4e23-8558-f74f4f3ec365","system_id":"levelo_inurba_marseille","lat":43.33013,"lon":5.39058,"is_reserved":false,"is_disabled":false,"rental_uris":{"android":"levelo://app?vid=5b536054-600d-4e23-8558-f74f4f3ec365","ios":"levelo://app?vid=5b536054-600d-4e23-8558-f74f4f3ec365"},"vehicle_type_id":"4","last_reported":1748902515,"current_range_meters":18800,"station_id":"ce4bhr92rcd13ifvqhrg","pricing_plan_id":"cebpf4jnsgd1na2vs0mg"},{"bike_id":"0b356486-7882-4a7b-adf5-4fabd328daf9","system_id":"levelo_inurba_marseille","lat":43.28719,"lon":5.36086,"is_reserved":false,"is_disabled":false,"rental_uris":{"android":"levelo://app?vid=0b356486-7882-4a7b-adf5-4fabd328daf9","ios":"levelo://app?vid=0b356486-7882-4a7b-adf5-4fabd328daf9"},"vehicle_type_id":"4","last_reported":1748902515,"current_range_meters":18800,"station_id":"cki0cbj6b192h4jlfktg","pricing_plan_id":"cebpf4jnsgd1na2vs0mg"},{"bike_id":"a062fae3-bf19-4ed3-b11f-bbec44e3344b","system_id":"levelo_inurba_marseille","lat":43.32091,"lon":5.40768,"is_reserved":false,"is_disabled":false,"rental_uris":{"android":"levelo://app?vid=a062fae3-bf19-4ed3-b11f-bbec44e3344b","ios":"levelo://app?vid=a062fae3-bf19-4ed3-b11f-bbec44e3344b"},"vehicle_type_id":"4","last_reported":1748902515,"current_range_meters":19200,"station_id":"","pricing_plan_id":"cebpf4jnsgd1na2vs0mg"},{"bike_id":"ed2ade22-5b7a-41a9-9182-3b41389df743","system_id":"levelo_inurba_marseille","lat":43.28193,"lon":5.39023,"is_reserved":false,"is_disabled":false,"rental_uris":{"android":"levelo://app?vid=ed2ade22-5b7a-41a9-9182-3b41389df743","ios":"levelo://app?vid=ed2ade22-5b7a-41a9-9182-3b41389df743"},"vehicle_type_id":"4","last_reported":1748902515,"current_range_meters":19200,"station_id":"","pricing_plan_id":"cebpf4jnsgd1na2vs0mg"},{"bike_id":"1c0d1be6-a5fc-47ef-9364-f57695611439","system_id":"levelo_inurba_marseille","lat":43.33129,"lon":5.41398,"is_reserved":false,"is_disabled":false,"rental_uris":{"android":"levelo://app?vid=1c0d1be6-a5fc-47ef-9364-f57695611439","ios":"levelo://app?vid=1c0d1be6-a5fc-47ef-9364-f57695611439"},"vehicle_type_id":"4","last_reported":1748902515,"current_range_meters":19200,"station_id":"","pricing_plan_id":"cebpf4jnsgd1na2vs0mg"},{"bike_id":"14f0ed1a-aa51-482a-9398-adf227d7b031","system_id":"levelo_inurba_marseille","lat":43.30536,"lon":5.36717,"is_reserved":false,"is_disabled":false,"rental_uris":{"android":"levelo://app?vid=14f0ed1a-aa51-482a-9398-adf227d7b031","ios":"levelo://app?vid=14f0ed1a-aa51-482a-9398-adf227d7b031"},"vehicle_type_id":"4","last_reported":1748902515,"current_range_meters":19200,"station_id":"ce4bgrp2rcd13ifvqc9g","pricing_plan_id":"cebpf4jnsgd1na2vs0mg"},{"bike_id":"d637341d-e5b5-41b1-9b2c-0a3f7fc6d4c4","system_id":"levelo_inurba_marseille","lat":43.30254,"lon":5.40074,"is_reserved":false,"is_disabled":false,"rental_uris":{"android":"levelo://app?vid=d637341d-e5b5-41b1-9b2c-0a3f7fc6d4c4","ios":"levelo://app?vid=d637341d-e5b5-41b1-9b2c-0a3f7fc6d4c4"},"vehicle_type_id":"4","last_reported":1748902515,"current_range_meters":19200,"station_id":"ce4bgvh2rcd13ifvqcs0","pricing_plan_id":"cebpf4jnsgd1na2vs0mg"},{"bike_id":"bae57be5-cdae-42d5-be07-b232b26642d0","system_id":"levelo_inurba_marseille","lat":43.32351,"lon":5.40599,"is_reserved":false,"is_disabled":false,"rental_uris":{"android":"levelo://app?vid=bae57be5-cdae-42d5-be07-b232b26642d0","ios":"levelo://app?vid=bae57be5-cdae-42d5-be07-b232b26642d0"},"vehicle_type_id":"4","last_reported":1748902515,"current_range_meters":19200,"station_id":"ce4bhq92rcd13ifvqhjg","pricing_plan_id":"cebpf4jnsgd1na2vs0mg"},{"bike_id":"23976131-e815-4c78-b392-beb17b57ea0f","system_id":"levelo_inurba_marseille","lat":43.341521,"lon":5.40898,"is_reserved":false,"is_disabled":false,"rental_uris":{"android":"levelo://app?vid=23976131-e815-4c78-b392-beb17b57ea0f","ios":"levelo://app?vid=23976131-e815-4c78-b392-beb17b57ea0f"},"vehicle_type_id":"4","last_reported":1748902515,"current_range_meters":19200,"station_id":"ce4bhqh2rcd13ifvqhlg","pricing_plan_id":"cebpf4jnsgd1na2vs0mg"},{"bike_id":"f0d34e7f-8103-46e9-a438-c85d36f28543","system_id":"levelo_inurba_marseille","lat":43.27858,"lon":5.35428,"is_reserved":false,"is_disabled":false,"rental_uris":{"android":"levelo://app?vid=f0d34e7f-8103-46e9-a438-c85d36f28543","ios":"levelo://app?vid=f0d34e7f-8103-46e9-a438-c85d36f28543"},"vehicle_type_id":"4","last_reported":1748902515,"current_range_meters":19600,"station_id":"","pricing_plan_id":"cebpf4jnsgd1na2vs0mg"},{"bike_id":"4a4d6d52-1c98-4646-ac8f-eab0676b6035","system_id":"levelo_inurba_marseille","lat":43.30637,"lon":5.37242,"is_reserved":false,"is_disabled":false,"rental_uris":{"android":"levelo://app?vid=4a4d6d52-1c98-4646-ac8f-eab0676b6035","ios":"levelo://app?vid=4a4d6d52-1c98-4646-ac8f-eab0676b6035"},"vehicle_type_id":"4","last_reported":1748902515,"current_range_meters":19600,"station_id":"ce4bgqh2rcd13ifvqc4g","pricing_plan_id":"cebpf4jnsgd1na2vs0mg"},{"bike_id":"f76fef82-f050-49ee-893b-b71824e9c659","system_id":"levelo_inurba_marseille","lat":43.28709,"lon":5.3737,"is_reserved":false,"is_disabled":false,"rental_uris":{"android":"levelo://app?vid=f76fef82-f050-49ee-893b-b71824e9c659","ios":"levelo://app?vid=f76fef82-f050-49ee-893b-b71824e9c659"},"vehicle_type_id":"4","last_reported":1748902515,"current_range_meters":19600,"station_id":"ce4bh3p2rcd13ifvqdq0","pricing_plan_id":"cebpf4jnsgd1na2vs0mg"},{"bike_id":"afd16c10-99dc-4900-b89b-fa3b07370883","system_id":"levelo_inurba_marseille","lat":43.28452,"lon":5.35881,"is_reserved":false,"is_disabled":false,"rental_uris":{"android":"levelo://app?vid=afd16c10-99dc-4900-b89b-fa3b07370883","ios":"levelo://app?vid=afd16c10-99dc-4900-b89b-fa3b07370883"},"vehicle_type_id":"4","last_reported":1748902515,"current_range_meters":19600,"station_id":"ce4bhah2rcd13ifvqei0","pricing_plan_id":"cebpf4jnsgd1na2vs0mg"},{"bike_id":"fb596a8f-b4d3-43a2-8ca3-55a861bd54ea","system_id":"levelo_inurba_marseille","lat":43.28861,"lon":5.35852,"is_reserved":false,"is_disabled":false,"rental_uris":{"android":"levelo://app?vid=fb596a8f-b4d3-43a2-8ca3-55a861bd54ea","ios":"levelo://app?vid=fb596a8f-b4d3-43a2-8ca3-55a861bd54ea"},"vehicle_type_id":"4","last_reported":1748902515,"current_range_meters":19600,"station_id":"ce4bhb12rcd13ifvqem0","pricing_plan_id":"cebpf4jnsgd1na2vs0mg"},{"bike_id":"6510286f-2a40-4e5c-a7f5-4e2aa3381de2","system_id":"levelo_inurba_marseille","lat":43.26211,"lon":5.37442,"is_reserved":false,"is_disabled":false,"rental_uris":{"android":"levelo://app?vid=6510286f-2a40-4e5c-a7f5-4e2aa3381de2","ios":"levelo://app?vid=6510286f-2a40-4e5c-a7f5-4e2aa3381de2"},"vehicle_type_id":"4","last_reported":1748902515,"current_range_meters":19600,"station_id":"ce4bhgp2rcd13ifvqfc0","pricing_plan_id":"cebpf4jnsgd1na2vs0mg"},{"bike_id":"03c8c524-d600-4d9e-aa7f-f80a900da483","system_id":"levelo_inurba_marseille","lat":43.27947,"lon":5.41036,"is_reserved":false,"is_disabled":false,"rental_uris":{"android":"levelo://app?vid=03c8c524-d600-4d9e-aa7f-f80a900da483","ios":"levelo://app?vid=03c8c524-d600-4d9e-aa7f-f80a900da483"},"vehicle_type_id":"4","last_reported":1748902515,"current_range_meters":19600,"station_id":"ce4bhnp2rcd13ifvqh0g","pricing_plan_id":"cebpf4jnsgd1na2vs0mg"},{"bike_id":"22f839c0-7837-49f4-b4b1-6cd233d79363","system_id":"levelo_inurba_marseille","lat":43.299026,"lon":5.436631,"is_reserved":false,"is_disabled":false,"rental_uris":{"android":"levelo://app?vid=22f839c0-7837-49f4-b4b1-6cd233d79363","ios":"levelo://app?vid=22f839c0-7837-49f4-b4b1-6cd233d79363"},"vehicle_type_id":"4","last_reported":1748902515,"current_range_meters":19600,"station_id":"ce4bhpp2rcd13ifvqhfg","pricing_plan_id":"cebpf4jnsgd1na2vs0mg"},{"bike_id":"2a804f07-ef43-4ee0-aa11-f4b6cb9df5af","system_id":"levelo_inurba_marseille","lat":43.29806,"lon":5.39314,"is_reserved":false,"is_disabled":false,"rental_uris":{"android":"levelo://app?vid=2a804f07-ef43-4ee0-aa11-f4b6cb9df5af","ios":"levelo://app?vid=2a804f07-ef43-4ee0-aa11-f4b6cb9df5af"},"vehicle_type_id":"4","last_reported":1748902515,"current_range_meters":19600,"station_id":"chh1huq6cuj3fo74tm60","pricing_plan_id":"cebpf4jnsgd1na2vs0mg"},{"bike_id":"5078f4c3-6e97-4a53-af7c-872f764df23c","system_id":"levelo_inurba_marseille","lat":43.30926,"lon":5.40145,"is_reserved":false,"is_disabled":false,"rental_uris":{"android":"levelo://app?vid=5078f4c3-6e97-4a53-af7c-872f764df23c","ios":"levelo://app?vid=5078f4c3-6e97-4a53-af7c-872f764df23c"},"vehicle_type_id":"4","last_reported":1748902515,"current_range_meters":20000,"station_id":"ce4bgvp2rcd13ifvqct0","pricing_plan_id":"cebpf4jnsgd1na2vs0mg"},{"bike_id":"7b2dbc74-1a85-494d-9e5e-f3ffacd55231","system_id":"levelo_inurba_marseille","lat":43.30928,"lon":5.40139,"is_reserved":false,"is_disabled":false,"rental_uris":{"android":"levelo://app?vid=7b2dbc74-1a85-494d-9e5e-f3ffacd55231","ios":"levelo://app?vid=7b2dbc74-1a85-494d-9e5e-f3ffacd55231"},"vehicle_type_id":"4","last_reported":1748902515,"current_range_meters":20000,"station_id":"ce4bgvp2rcd13ifvqct0","pricing_plan_id":"cebpf4jnsgd1na2vs0mg"},{"bike_id":"3c8e7a18-de47-410f-938b-d8977225abf3","system_id":"levelo_inurba_marseille","lat":43.29282,"lon":5.40139,"is_reserved":false,"is_disabled":false,"rental_uris":{"android":"levelo://app?vid=3c8e7a18-de47-410f-938b-d8977225abf3","ios":"levelo://app?vid=3c8e7a18-de47-410f-938b-d8977225abf3"},"vehicle_type_id":"4","last_reported":1748902515,"current_range_meters":20000,"station_id":"ce4bh312rcd13ifvqdk0","pricing_plan_id":"cebpf4jnsgd1na2vs0mg"},{"bike_id":"f499ec0f-5b97-4106-9d62-953eecf013c2","system_id":"levelo_inurba_marseille","lat":43.240693,"lon":5.377613,"is_reserved":false,"is_disabled":false,"rental_uris":{"android":"levelo://app?vid=f499ec0f-5b97-4106-9d62-953eecf013c2","ios":"levelo://app?vid=f499ec0f-5b97-4106-9d62-953eecf013c2"},"vehicle_type_id":"4","last_reported":1748902515,"current_range_meters":20000,"station_id":"ce4bhnp2rcd13ifvqgvg","pricing_plan_id":"cebpf4jnsgd1na2vs0mg"},{"bike_id":"613cc675-3da8-4431-90a7-c12f688e1bcb","system_id":"levelo_inurba_marseille","lat":43.32334,"lon":5.40621,"is_reserved":false,"is_disabled":false,"rental_uris":{"android":"levelo://app?vid=613cc675-3da8-4431-90a7-c12f688e1bcb","ios":"levelo://app?vid=613cc675-3da8-4431-90a7-c12f688e1bcb"},"vehicle_type_id":"4","last_reported":1748902515,"current_range_meters":20000,"station_id":"ce4bhq92rcd13ifvqhjg","pricing_plan_id":"cebpf4jnsgd1na2vs0mg"},{"bike_id":"719dbaa0-d7d4-4f58-bd08-266c7d44d286","system_id":"levelo_inurba_marseille","lat":43.33606,"lon":5.40986,"is_reserved":false,"is_disabled":false,"rental_uris":{"android":"levelo://app?vid=719dbaa0-d7d4-4f58-bd08-266c7d44d286","ios":"levelo://app?vid=719dbaa0-d7d4-4f58-bd08-266c7d44d286"},"vehicle_type_id":"4","last_reported":1748902515,"current_range_meters":20000,"station_id":"ce4bhqh2rcd13ifvqhmg","pricing_plan_id":"cebpf4jnsgd1na2vs0mg"},{"bike_id":"da26f9ff-4cda-48ab-9722-2ad8b0e7cac4","system_id":"levelo_inurba_marseille","lat":43.28416,"lon":5.375148,"is_reserved":false,"is_disabled":false,"rental_uris":{"android":"levelo://app?vid=da26f9ff-4cda-48ab-9722-2ad8b0e7cac4","ios":"levelo://app?vid=da26f9ff-4cda-48ab-9722-2ad8b0e7cac4"},"vehicle_type_id":"4","last_reported":1748902515,"current_range_meters":20400,"station_id":"ce4bh412rcd13ifvqds0","pricing_plan_id":"cebpf4jnsgd1na2vs0mg"},{"bike_id":"e69a33a5-c4d6-4eaa-8ae6-4cc135b884a8","system_id":"levelo_inurba_marseille","lat":43.29262,"lon":5.38438,"is_reserved":false,"is_disabled":false,"rental_uris":{"android":"levelo://app?vid=e69a33a5-c4d6-4eaa-8ae6-4cc135b884a8","ios":"levelo://app?vid=e69a33a5-c4d6-4eaa-8ae6-4cc135b884a8"},"vehicle_type_id":"4","last_reported":1748902515,"current_range_meters":20400,"station_id":"ce4bh692rcd13ifvqea0","pricing_plan_id":"cebpf4jnsgd1na2vs0mg"},{"bike_id":"a3dfb24d-2bc1-4dbc-b2b2-807b9fa8d499","system_id":"levelo_inurba_marseille","lat":43.30811,"lon":5.43507,"is_reserved":false,"is_disabled":false,"rental_uris":{"android":"levelo://app?vid=a3dfb24d-2bc1-4dbc-b2b2-807b9fa8d499","ios":"levelo://app?vid=a3dfb24d-2bc1-4dbc-b2b2-807b9fa8d499"},"vehicle_type_id":"4","last_reported":1748902515,"current_range_meters":20400,"station_id":"ce4bhph2rcd13ifvqheg","pricing_plan_id":"cebpf4jnsgd1na2vs0mg"},{"bike_id":"dec96109-a0fb-442f-a562-372e88b6c666","system_id":"levelo_inurba_marseille","lat":43.3079,"lon":5.38159,"is_reserved":false,"is_disabled":false,"rental_uris":{"android":"levelo://app?vid=dec96109-a0fb-442f-a562-372e88b6c666","ios":"levelo://app?vid=dec96109-a0fb-442f-a562-372e88b6c666"},"vehicle_type_id":"4","last_reported":1748902515,"current_range_meters":20800,"station_id":"ce4bgt12rcd13ifvqce0","pricing_plan_id":"cebpf4jnsgd1na2vs0mg"},{"bike_id":"8dd40f6b-85b1-43f0-9250-5e6e12011669","system_id":"levelo_inurba_marseille","lat":43.30793,"lon":5.37653,"is_reserved":false,"is_disabled":false,"rental_uris":{"android":"levelo://app?vid=8dd40f6b-85b1-43f0-9250-5e6e12011669","ios":"levelo://app?vid=8dd40f6b-85b1-43f0-9250-5e6e12011669"},"vehicle_type_id":"4","last_reported":1748902515,"current_range_meters":20800,"station_id":"ce4bgv92rcd13ifvqcq0","pricing_plan_id":"cebpf4jnsgd1na2vs0mg"},{"bike_id":"50f2762f-7ef4-4d8a-8d1e-6ecf8747f020","system_id":"levelo_inurba_marseille","lat":43.30924,"lon":5.40142,"is_reserved":false,"is_disabled":false,"rental_uris":{"android":"levelo://app?vid=50f2762f-7ef4-4d8a-8d1e-6ecf8747f020","ios":"levelo://app?vid=50f2762f-7ef4-4d8a-8d1e-6ecf8747f020"},"vehicle_type_id":"4","last_reported":1748902515,"current_range_meters":20800,"station_id":"ce4bgvp2rcd13ifvqct0","pricing_plan_id":"cebpf4jnsgd1na2vs0mg"},{"bike_id":"826b2db6-1579-4beb-a849-09c1cda03041","system_id":"levelo_inurba_marseille","lat":43.279107,"lon":5.380013,"is_reserved":false,"is_disabled":false,"rental_uris":{"android":"levelo://app?vid=826b2db6-1579-4beb-a849-09c1cda03041","ios":"levelo://app?vid=826b2db6-1579-4beb-a849-09c1cda03041"},"vehicle_type_id":"4","last_reported":1748902515,"current_range_meters":20800,"station_id":"ce4bhf92rcd13ifvqf50","pricing_plan_id":"cebpf4jnsgd1na2vs0mg"},{"bike_id":"e7f15fd9-8b2c-43d1-a904-4e2dd62e6e56","system_id":"levelo_inurba_marseille","lat":43.27832,"lon":5.39199,"is_reserved":false,"is_disabled":false,"rental_uris":{"android":"levelo://app?vid=e7f15fd9-8b2c-43d1-a904-4e2dd62e6e56","ios":"levelo://app?vid=e7f15fd9-8b2c-43d1-a904-4e2dd62e6e56"},"vehicle_type_id":"4","last_reported":1748902515,"current_range_meters":20800,"station_id":"ce4bhjp2rcd13ifvqga0","pricing_plan_id":"cebpf4jnsgd1na2vs0mg"},{"bike_id":"ceb1816b-c7e3-4924-824e-780e5d9cb515","system_id":"levelo_inurba_marseille","lat":43.25107,"lon":5.40321,"is_reserved":false,"is_disabled":false,"rental_uris":{"android":"levelo://app?vid=ceb1816b-c7e3-4924-824e-780e5d9cb515","ios":"levelo://app?vid=ceb1816b-c7e3-4924-824e-780e5d9cb515"},"vehicle_type_id":"4","last_reported":1748902515,"current_range_meters":20800,"station_id":"ce4bhlh2rcd13ifvqgig","pricing_plan_id":"cebpf4jnsgd1na2vs0mg"},{"bike_id":"e5ffc1cb-a704-403e-ab7b-31df1fc02011","system_id":"levelo_inurba_marseille","lat":43.27938,"lon":5.41041,"is_reserved":false,"is_disabled":false,"rental_uris":{"android":"levelo://app?vid=e5ffc1cb-a704-403e-ab7b-31df1fc02011","ios":"levelo://app?vid=e5ffc1cb-a704-403e-ab7b-31df1fc02011"},"vehicle_type_id":"4","last_reported":1748902515,"current_range_meters":20800,"station_id":"ce4bhnp2rcd13ifvqh0g","pricing_plan_id":"cebpf4jnsgd1na2vs0mg"},{"bike_id":"39465794-52fd-4ae0-a617-b2ec2aa583f4","system_id":"levelo_inurba_marseille","lat":43.28726,"lon":5.39975,"is_reserved":false,"is_disabled":false,"rental_uris":{"android":"levelo://app?vid=39465794-52fd-4ae0-a617-b2ec2aa583f4","ios":"levelo://app?vid=39465794-52fd-4ae0-a617-b2ec2aa583f4"},"vehicle_type_id":"4","last_reported":1748902515,"current_range_meters":20800,"station_id":"ce4bho92rcd13ifvqh3g","pricing_plan_id":"cebpf4jnsgd1na2vs0mg"},{"bike_id":"143434d9-c66a-4f6f-95e1-671fee3703ec","system_id":"levelo_inurba_marseille","lat":43.25322,"lon":5.377037,"is_reserved":false,"is_disabled":false,"rental_uris":{"android":"levelo://app?vid=143434d9-c66a-4f6f-95e1-671fee3703ec","ios":"levelo://app?vid=143434d9-c66a-4f6f-95e1-671fee3703ec"},"vehicle_type_id":"4","last_reported":1748902515,"current_range_meters":21600,"station_id":"","pricing_plan_id":"cebpf4jnsgd1na2vs0mg"},{"bike_id":"81464a5a-ce0f-4aff-ae30-f525a3b63571","system_id":"levelo_inurba_marseille","lat":43.29616,"lon":5.37156,"is_reserved":false,"is_disabled":false,"rental_uris":{"android":"levelo://app?vid=81464a5a-ce0f-4aff-ae30-f525a3b63571","ios":"levelo://app?vid=81464a5a-ce0f-4aff-ae30-f525a3b63571"},"vehicle_type_id":"4","last_reported":1748902515,"current_range_meters":21600,"station_id":"ce4bgnh2rcd13ifvqc0g","pricing_plan_id":"cebpf4jnsgd1na2vs0mg"},{"bike_id":"2acb9976-18d4-480b-9828-39ad05b56efc","system_id":"levelo_inurba_marseille","lat":43.284598,"lon":5.358869,"is_reserved":false,"is_disabled":false,"rental_uris":{"android":"levelo://app?vid=2acb9976-18d4-480b-9828-39ad05b56efc","ios":"levelo://app?vid=2acb9976-18d4-480b-9828-39ad05b56efc"},"vehicle_type_id":"4","last_reported":1748902515,"current_range_meters":21600,"station_id":"ce4bhah2rcd13ifvqei0","pricing_plan_id":"cebpf4jnsgd1na2vs0mg"},{"bike_id":"48da913c-189e-4adb-8b41-df2f525f675f","system_id":"levelo_inurba_marseille","lat":43.27884,"lon":5.38038,"is_reserved":false,"is_disabled":false,"rental_uris":{"android":"levelo://app?vid=48da913c-189e-4adb-8b41-df2f525f675f","ios":"levelo://app?vid=48da913c-189e-4adb-8b41-df2f525f675f"},"vehicle_type_id":"4","last_reported":1748902515,"current_range_meters":21600,"station_id":"ce4bhf92rcd13ifvqf50","pricing_plan_id":"cebpf4jnsgd1na2vs0mg"},{"bike_id":"ba04a7a3-0ee0-4a4a-a541-5893a2d59118","system_id":"levelo_inurba_marseille","lat":43.25817,"lon":5.3944,"is_reserved":false,"is_disabled":false,"rental_uris":{"android":"levelo://app?vid=ba04a7a3-0ee0-4a4a-a541-5893a2d59118","ios":"levelo://app?vid=ba04a7a3-0ee0-4a4a-a541-5893a2d59118"},"vehicle_type_id":"4","last_reported":1748902515,"current_range_meters":21600,"station_id":"ce4bhip2rcd13ifvqft0","pricing_plan_id":"cebpf4jnsgd1na2vs0mg"},{"bike_id":"d132d9b5-c167-4dfd-afdf-58198eef141b","system_id":"levelo_inurba_marseille","lat":43.24547,"lon":5.39538,"is_reserved":false,"is_disabled":false,"rental_uris":{"android":"levelo://app?vid=d132d9b5-c167-4dfd-afdf-58198eef141b","ios":"levelo://app?vid=d132d9b5-c167-4dfd-afdf-58198eef141b"},"vehicle_type_id":"4","last_reported":1748902515,"current_range_meters":21600,"station_id":"ce4bhlp2rcd13ifvqgjg","pricing_plan_id":"cebpf4jnsgd1na2vs0mg"},{"bike_id":"974f370c-97c1-408b-8bbb-7e476b676ad0","system_id":"levelo_inurba_marseille","lat":43.30934,"lon":5.40141,"is_reserved":false,"is_disabled":false,"rental_uris":{"android":"levelo://app?vid=974f370c-97c1-408b-8bbb-7e476b676ad0","ios":"levelo://app?vid=974f370c-97c1-408b-8bbb-7e476b676ad0"},"vehicle_type_id":"4","last_reported":1748902515,"current_range_meters":22000,"station_id":"ce4bgvp2rcd13ifvqct0","pricing_plan_id":"cebpf4jnsgd1na2vs0mg"},{"bike_id":"2cf5c3dc-6026-40f6-970c-d851d11de452","system_id":"levelo_inurba_marseille","lat":43.30212,"lon":5.39469,"is_reserved":false,"is_disabled":false,"rental_uris":{"android":"levelo://app?vid=2cf5c3dc-6026-40f6-970c-d851d11de452","ios":"levelo://app?vid=2cf5c3dc-6026-40f6-970c-d851d11de452"},"vehicle_type_id":"4","last_reported":1748902515,"current_range_meters":22000,"station_id":"ce4bh0p2rcd13ifvqd70","pricing_plan_id":"cebpf4jnsgd1na2vs0mg"},{"bike_id":"71af0257-4ccb-49c9-89e1-f5353687ca7e","system_id":"levelo_inurba_marseille","lat":43.30106,"lon":5.39044,"is_reserved":false,"is_disabled":false,"rental_uris":{"android":"levelo://app?vid=71af0257-4ccb-49c9-89e1-f5353687ca7e","ios":"levelo://app?vid=71af0257-4ccb-49c9-89e1-f5353687ca7e"},"vehicle_type_id":"4","last_reported":1748902515,"current_range_meters":22000,"station_id":"ce4bh192rcd13ifvqdb0","pricing_plan_id":"cebpf4jnsgd1na2vs0mg"},{"bike_id":"46cb7811-158f-49ae-a587-7d0f141e2c09","system_id":"levelo_inurba_marseille","lat":43.25822,"lon":5.39436,"is_reserved":false,"is_disabled":false,"rental_uris":{"android":"levelo://app?vid=46cb7811-158f-49ae-a587-7d0f141e2c09","ios":"levelo://app?vid=46cb7811-158f-49ae-a587-7d0f141e2c09"},"vehicle_type_id":"4","last_reported":1748902515,"current_range_meters":22000,"station_id":"ce4bhip2rcd13ifvqft0","pricing_plan_id":"cebpf4jnsgd1na2vs0mg"},{"bike_id":"c2e1d283-a417-4a2a-b2e7-7c87606a7a42","system_id":"levelo_inurba_marseille","lat":43.25111,"lon":5.40316,"is_reserved":false,"is_disabled":false,"rental_uris":{"android":"levelo://app?vid=c2e1d283-a417-4a2a-b2e7-7c87606a7a42","ios":"levelo://app?vid=c2e1d283-a417-4a2a-b2e7-7c87606a7a42"},"vehicle_type_id":"4","last_reported":1748902515,"current_range_meters":22000,"station_id":"ce4bhlh2rcd13ifvqgig","pricing_plan_id":"cebpf4jnsgd1na2vs0mg"},{"bike_id":"2a6dca92-5f50-417b-99c5-6c535ece6724","system_id":"levelo_inurba_marseille","lat":43.27493,"lon":5.42448,"is_reserved":false,"is_disabled":false,"rental_uris":{"android":"levelo://app?vid=2a6dca92-5f50-417b-99c5-6c535ece6724","ios":"levelo://app?vid=2a6dca92-5f50-417b-99c5-6c535ece6724"},"vehicle_type_id":"4","last_reported":1748902515,"current_range_meters":22000,"station_id":"ce4bhn92rcd13ifvqgrg","pricing_plan_id":"cebpf4jnsgd1na2vs0mg"},{"bike_id":"2fff380a-d7bc-4388-862d-11e5e84c0c37","system_id":"levelo_inurba_marseille","lat":43.27492,"lon":5.4245,"is_reserved":false,"is_disabled":false,"rental_uris":{"android":"levelo://app?vid=2fff380a-d7bc-4388-862d-11e5e84c0c37","ios":"levelo://app?vid=2fff380a-d7bc-4388-862d-11e5e84c0c37"},"vehicle_type_id":"4","last_reported":1748902515,"current_range_meters":22000,"station_id":"ce4bhn92rcd13ifvqgrg","pricing_plan_id":"cebpf4jnsgd1na2vs0mg"},{"bike_id":"1babe9d8-378d-4fa2-98f3-e8f47a3294f3","system_id":"levelo_inurba_marseille","lat":43.29599,"lon":5.38106,"is_reserved":false,"is_disabled":false,"rental_uris":{"android":"levelo://app?vid=1babe9d8-378d-4fa2-98f3-e8f47a3294f3","ios":"levelo://app?vid=1babe9d8-378d-4fa2-98f3-e8f47a3294f3"},"vehicle_type_id":"4","last_reported":1748902515,"current_range_meters":22400,"station_id":"ce4bgl12rcd13ifvqbo0","pricing_plan_id":"cebpf4jnsgd1na2vs0mg"},{"bike_id":"c1a2c293-cc24-4ae3-a4df-d19cf1f82b1a","system_id":"levelo_inurba_marseille","lat":43.31706,"lon":5.37767,"is_reserved":false,"is_disabled":false,"rental_uris":{"android":"levelo://app?vid=c1a2c293-cc24-4ae3-a4df-d19cf1f82b1a","ios":"levelo://app?vid=c1a2c293-cc24-4ae3-a4df-d19cf1f82b1a"},"vehicle_type_id":"4","last_reported":1748902515,"current_range_meters":22400,"station_id":"ce4bgth2rcd13ifvqch0","pricing_plan_id":"cebpf4jnsgd1na2vs0mg"},{"bike_id":"62956cae-5e9e-4b89-8455-cf68c1489f6a","system_id":"levelo_inurba_marseille","lat":43.29254,"lon":5.40905,"is_reserved":false,"is_disabled":false,"rental_uris":{"android":"levelo://app?vid=62956cae-5e9e-4b89-8455-cf68c1489f6a","ios":"levelo://app?vid=62956cae-5e9e-4b89-8455-cf68c1489f6a"},"vehicle_type_id":"4","last_reported":1748902515,"current_range_meters":22400,"station_id":"ce4bh192rcd13ifvqdc0","pricing_plan_id":"cebpf4jnsgd1na2vs0mg"},{"bike_id":"5fa646f4-bffb-4734-adc7-03d3700275cf","system_id":"levelo_inurba_marseille","lat":43.29273,"lon":5.40115,"is_reserved":false,"is_disabled":false,"rental_uris":{"android":"levelo://app?vid=5fa646f4-bffb-4734-adc7-03d3700275cf","ios":"levelo://app?vid=5fa646f4-bffb-4734-adc7-03d3700275cf"},"vehicle_type_id":"4","last_reported":1748902515,"current_range_meters":22400,"station_id":"ce4bh312rcd13ifvqdk0","pricing_plan_id":"cebpf4jnsgd1na2vs0mg"},{"bike_id":"9c9248a1-9cf3-4d6f-b4d7-3d2bcc2d5dc8","system_id":"levelo_inurba_marseille","lat":43.28943,"lon":5.39628,"is_reserved":false,"is_disabled":false,"rental_uris":{"android":"levelo://app?vid=9c9248a1-9cf3-4d6f-b4d7-3d2bcc2d5dc8","ios":"levelo://app?vid=9c9248a1-9cf3-4d6f-b4d7-3d2bcc2d5dc8"},"vehicle_type_id":"4","last_reported":1748902515,"current_range_meters":22400,"station_id":"ce4bh3h2rcd13ifvqdn0","pricing_plan_id":"cebpf4jnsgd1na2vs0mg"},{"bike_id":"ddea05cf-725e-4434-ada8-8766d2fc8394","system_id":"levelo_inurba_marseille","lat":43.289417,"lon":5.363941,"is_reserved":false,"is_disabled":false,"rental_uris":{"android":"levelo://app?vid=ddea05cf-725e-4434-ada8-8766d2fc8394","ios":"levelo://app?vid=ddea05cf-725e-4434-ada8-8766d2fc8394"},"vehicle_type_id":"4","last_reported":1748902515,"current_range_meters":22400,"station_id":"ce4bhc92rcd13ifvqetg","pricing_plan_id":"cebpf4jnsgd1na2vs0mg"},{"bike_id":"98c734dd-e4aa-447d-891b-d6b331d7f13e","system_id":"levelo_inurba_marseille","lat":43.25819,"lon":5.39434,"is_reserved":false,"is_disabled":false,"rental_uris":{"android":"levelo://app?vid=98c734dd-e4aa-447d-891b-d6b331d7f13e","ios":"levelo://app?vid=98c734dd-e4aa-447d-891b-d6b331d7f13e"},"vehicle_type_id":"4","last_reported":1748902515,"current_range_meters":22400,"station_id":"ce4bhip2rcd13ifvqft0","pricing_plan_id":"cebpf4jnsgd1na2vs0mg"},{"bike_id":"01732b13-da80-4366-932e-2c059e98b438","system_id":"levelo_inurba_marseille","lat":43.25107,"lon":5.40323,"is_reserved":false,"is_disabled":false,"rental_uris":{"android":"levelo://app?vid=01732b13-da80-4366-932e-2c059e98b438","ios":"levelo://app?vid=01732b13-da80-4366-932e-2c059e98b438"},"vehicle_type_id":"4","last_reported":1748902515,"current_range_meters":22400,"station_id":"ce4bhlh2rcd13ifvqgig","pricing_plan_id":"cebpf4jnsgd1na2vs0mg"},{"bike_id":"68288e49-174f-40df-b75f-5772a685791e","system_id":"levelo_inurba_marseille","lat":43.28688,"lon":5.39996,"is_reserved":false,"is_disabled":false,"rental_uris":{"android":"levelo://app?vid=68288e49-174f-40df-b75f-5772a685791e","ios":"levelo://app?vid=68288e49-174f-40df-b75f-5772a685791e"},"vehicle_type_id":"4","last_reported":1748902515,"current_range_meters":22400,"station_id":"ce4bho92rcd13ifvqh3g","pricing_plan_id":"cebpf4jnsgd1na2vs0mg"},{"bike_id":"1eec2072-a52b-4af8-8b2c-ae122356f86f","system_id":"levelo_inurba_marseille","lat":43.28227,"lon":5.38979,"is_reserved":false,"is_disabled":false,"rental_uris":{"android":"levelo://app?vid=1eec2072-a52b-4af8-8b2c-ae122356f86f","ios":"levelo://app?vid=1eec2072-a52b-4af8-8b2c-ae122356f86f"},"vehicle_type_id":"4","last_reported":1748902515,"current_range_meters":22800,"station_id":"","pricing_plan_id":"cebpf4jnsgd1na2vs0mg"},{"bike_id":"4b8b6b82-1649-48a5-8568-c6d2a474a21c","system_id":"levelo_inurba_marseille","lat":43.28713,"lon":5.37377,"is_reserved":false,"is_disabled":false,"rental_uris":{"android":"levelo://app?vid=4b8b6b82-1649-48a5-8568-c6d2a474a21c","ios":"levelo://app?vid=4b8b6b82-1649-48a5-8568-c6d2a474a21c"},"vehicle_type_id":"4","last_reported":1748902515,"current_range_meters":22800,"station_id":"ce4bh3p2rcd13ifvqdq0","pricing_plan_id":"cebpf4jnsgd1na2vs0mg"},{"bike_id":"b3e9e6a3-8b24-44f4-8cb4-4778f79554da","system_id":"levelo_inurba_marseille","lat":43.2834,"lon":5.38093,"is_reserved":false,"is_disabled":false,"rental_uris":{"android":"levelo://app?vid=b3e9e6a3-8b24-44f4-8cb4-4778f79554da","ios":"levelo://app?vid=b3e9e6a3-8b24-44f4-8cb4-4778f79554da"},"vehicle_type_id":"4","last_reported":1748902515,"current_range_meters":22800,"station_id":"ce4bh412rcd13ifvqdr0","pricing_plan_id":"cebpf4jnsgd1na2vs0mg"},{"bike_id":"1f7647d3-70cd-424d-bb59-10046bafbf36","system_id":"levelo_inurba_marseille","lat":43.27059,"lon":5.40245,"is_reserved":false,"is_disabled":false,"rental_uris":{"android":"levelo://app?vid=1f7647d3-70cd-424d-bb59-10046bafbf36","ios":"levelo://app?vid=1f7647d3-70cd-424d-bb59-10046bafbf36"},"vehicle_type_id":"4","last_reported":1748902515,"current_range_meters":22800,"station_id":"ce4bhk92rcd13ifvqgc0","pricing_plan_id":"cebpf4jnsgd1na2vs0mg"},{"bike_id":"a11ea1a8-2e68-484b-8edf-fe757e754272","system_id":"levelo_inurba_marseille","lat":43.278164,"lon":5.407231,"is_reserved":false,"is_disabled":false,"rental_uris":{"android":"levelo://app?vid=a11ea1a8-2e68-484b-8edf-fe757e754272","ios":"levelo://app?vid=a11ea1a8-2e68-484b-8edf-fe757e754272"},"vehicle_type_id":"4","last_reported":1748902515,"current_range_meters":22800,"station_id":"ce4bhnh2rcd13ifvqgtg","pricing_plan_id":"cebpf4jnsgd1na2vs0mg"},{"bike_id":"392aba08-8c80-4f58-bd27-a0f1e97f2380","system_id":"levelo_inurba_marseille","lat":43.34157,"lon":5.40901,"is_reserved":false,"is_disabled":false,"rental_uris":{"android":"levelo://app?vid=392aba08-8c80-4f58-bd27-a0f1e97f2380","ios":"levelo://app?vid=392aba08-8c80-4f58-bd27-a0f1e97f2380"},"vehicle_type_id":"4","last_reported":1748902515,"current_range_meters":22800,"station_id":"ce4bhqh2rcd13ifvqhlg","pricing_plan_id":"cebpf4jnsgd1na2vs0mg"},{"bike_id":"cba6c288-7603-41a8-92a6-e8587baf262b","system_id":"levelo_inurba_marseille","lat":43.33724,"lon":5.39187,"is_reserved":false,"is_disabled":false,"rental_uris":{"android":"levelo://app?vid=cba6c288-7603-41a8-92a6-e8587baf262b","ios":"levelo://app?vid=cba6c288-7603-41a8-92a6-e8587baf262b"},"vehicle_type_id":"4","last_reported":1748902515,"current_range_meters":22800,"station_id":"ce4bhr92rcd13ifvqhsg","pricing_plan_id":"cebpf4jnsgd1na2vs0mg"},{"bike_id":"bd15d3c1-5fc5-4006-9923-c4638e3da994","system_id":"levelo_inurba_marseille","lat":43.301075,"lon":5.371115,"is_reserved":false,"is_disabled":false,"rental_uris":{"android":"levelo://app?vid=bd15d3c1-5fc5-4006-9923-c4638e3da994","ios":"levelo://app?vid=bd15d3c1-5fc5-4006-9923-c4638e3da994"},"vehicle_type_id":"4","last_reported":1748902515,"current_range_meters":23200,"station_id":"","pricing_plan_id":"cebpf4jnsgd1na2vs0mg"},{"bike_id":"d066c01f-0db1-47e0-823d-32ee04588d8a","system_id":"levelo_inurba_marseille","lat":43.284533,"lon":5.358795,"is_reserved":false,"is_disabled":false,"rental_uris":{"android":"levelo://app?vid=d066c01f-0db1-47e0-823d-32ee04588d8a","ios":"levelo://app?vid=d066c01f-0db1-47e0-823d-32ee04588d8a"},"vehicle_type_id":"4","last_reported":1748902515,"current_range_meters":23200,"station_id":"ce4bhah2rcd13ifvqei0","pricing_plan_id":"cebpf4jnsgd1na2vs0mg"},{"bike_id":"69163c81-274d-4423-a7d7-226b3e0a91bf","system_id":"levelo_inurba_marseille","lat":43.248,"lon":5.37453,"is_reserved":false,"is_disabled":false,"rental_uris":{"android":"levelo://app?vid=69163c81-274d-4423-a7d7-226b3e0a91bf","ios":"levelo://app?vid=69163c81-274d-4423-a7d7-226b3e0a91bf"},"vehicle_type_id":"4","last_reported":1748902515,"current_range_meters":23200,"station_id":"ce4bhgh2rcd13ifvqfb0","pricing_plan_id":"cebpf4jnsgd1na2vs0mg"},{"bike_id":"8b13bdc1-d9ad-402b-9335-01bd02d81f63","system_id":"levelo_inurba_marseille","lat":43.31069,"lon":5.39076,"is_reserved":false,"is_disabled":false,"rental_uris":{"android":"levelo://app?vid=8b13bdc1-d9ad-402b-9335-01bd02d81f63","ios":"levelo://app?vid=8b13bdc1-d9ad-402b-9335-01bd02d81f63"},"vehicle_type_id":"4","last_reported":1748902515,"current_range_meters":24000,"station_id":"","pricing_plan_id":"cebpf4jnsgd1na2vs0mg"},{"bike_id":"642c74c6-3586-4605-ad44-0280811ba7c7","system_id":"levelo_inurba_marseille","lat":43.295146,"lon":5.374513,"is_reserved":false,"is_disabled":false,"rental_uris":{"android":"levelo://app?vid=642c74c6-3586-4605-ad44-0280811ba7c7","ios":"levelo://app?vid=642c74c6-3586-4605-ad44-0280811ba7c7"},"vehicle_type_id":"4","last_reported":1748902515,"current_range_meters":24000,"station_id":"","pricing_plan_id":"cebpf4jnsgd1na2vs0mg"},{"bike_id":"aade0917-1da7-445e-b146-a15c7cfad8e7","system_id":"levelo_inurba_marseille","lat":43.31059,"lon":5.38375,"is_reserved":false,"is_disabled":false,"rental_uris":{"android":"levelo://app?vid=aade0917-1da7-445e-b146-a15c7cfad8e7","ios":"levelo://app?vid=aade0917-1da7-445e-b146-a15c7cfad8e7"},"vehicle_type_id":"4","last_reported":1748902515,"current_range_meters":24000,"station_id":"ce4bgv92rcd13ifvqcr0","pricing_plan_id":"cebpf4jnsgd1na2vs0mg"},{"bike_id":"e826a1c6-d482-4671-8605-6612e2f41edc","system_id":"levelo_inurba_marseille","lat":43.301277,"lon":5.398566,"is_reserved":false,"is_disabled":false,"rental_uris":{"android":"levelo://app?vid=e826a1c6-d482-4671-8605-6612e2f41edc","ios":"levelo://app?vid=e826a1c6-d482-4671-8605-6612e2f41edc"},"vehicle_type_id":"4","last_reported":1748902515,"current_range_meters":24000,"station_id":"ce4bh0h2rcd13ifvqd40","pricing_plan_id":"cebpf4jnsgd1na2vs0mg"},{"bike_id":"67025b4c-b990-4842-b8ee-7321a057148a","system_id":"levelo_inurba_marseille","lat":43.26566,"lon":5.40318,"is_reserved":false,"is_disabled":false,"rental_uris":{"android":"levelo://app?vid=67025b4c-b990-4842-b8ee-7321a057148a","ios":"levelo://app?vid=67025b4c-b990-4842-b8ee-7321a057148a"},"vehicle_type_id":"4","last_reported":1748902515,"current_range_meters":24400,"station_id":"","pricing_plan_id":"cebpf4jnsgd1na2vs0mg"},{"bike_id":"d97c9eea-94c7-4ef3-89fc-78566bc3e9e5","system_id":"levelo_inurba_marseille","lat":43.31225,"lon":5.36869,"is_reserved":false,"is_disabled":false,"rental_uris":{"android":"levelo://app?vid=d97c9eea-94c7-4ef3-89fc-78566bc3e9e5","ios":"levelo://app?vid=d97c9eea-94c7-4ef3-89fc-78566bc3e9e5"},"vehicle_type_id":"4","last_reported":1748902515,"current_range_meters":24400,"station_id":"ce4bgl92rcd13ifvqbq0","pricing_plan_id":"cebpf4jnsgd1na2vs0mg"},{"bike_id":"ed58e77d-5129-46f9-b1eb-7172074a5190","system_id":"levelo_inurba_marseille","lat":43.28692,"lon":5.37404,"is_reserved":false,"is_disabled":false,"rental_uris":{"android":"levelo://app?vid=ed58e77d-5129-46f9-b1eb-7172074a5190","ios":"levelo://app?vid=ed58e77d-5129-46f9-b1eb-7172074a5190"},"vehicle_type_id":"4","last_reported":1748902515,"current_range_meters":24400,"station_id":"ce4bh3p2rcd13ifvqdq0","pricing_plan_id":"cebpf4jnsgd1na2vs0mg"},{"bike_id":"266c31fb-d9bd-40d1-b4e4-a13cb346d2b7","system_id":"levelo_inurba_marseille","lat":43.289689,"lon":5.386869,"is_reserved":false,"is_disabled":false,"rental_uris":{"android":"levelo://app?vid=266c31fb-d9bd-40d1-b4e4-a13cb346d2b7","ios":"levelo://app?vid=266c31fb-d9bd-40d1-b4e4-a13cb346d2b7"},"vehicle_type_id":"4","last_reported":1748902515,"current_range_meters":24400,"station_id":"ce4bh4p2rcd13ifvqe0g","pricing_plan_id":"cebpf4jnsgd1na2vs0mg"},{"bike_id":"da71f552-d9e5-46af-bdef-e0177c564da4","system_id":"levelo_inurba_marseille","lat":43.3053,"lon":5.38434,"is_reserved":false,"is_disabled":false,"rental_uris":{"android":"levelo://app?vid=da71f552-d9e5-46af-bdef-e0177c564da4","ios":"levelo://app?vid=da71f552-d9e5-46af-bdef-e0177c564da4"},"vehicle_type_id":"4","last_reported":1748902515,"current_range_meters":24800,"station_id":"ce4bgg92rcd13ifvqb30","pricing_plan_id":"cebpf4jnsgd1na2vs0mg"},{"bike_id":"37868853-266a-4621-a72d-7d868d1e3776","system_id":"levelo_inurba_marseille","lat":43.29972,"lon":5.3718,"is_reserved":false,"is_disabled":false,"rental_uris":{"android":"levelo://app?vid=37868853-266a-4621-a72d-7d868d1e3776","ios":"levelo://app?vid=37868853-266a-4621-a72d-7d868d1e3776"},"vehicle_type_id":"4","last_reported":1748902515,"current_range_meters":24800,"station_id":"ce4bgr92rcd13ifvqc7g","pricing_plan_id":"cebpf4jnsgd1na2vs0mg"},{"bike_id":"eec6d8b3-6953-42e3-81ad-17cf49e99da0","system_id":"levelo_inurba_marseille","lat":43.30883,"lon":5.39644,"is_reserved":false,"is_disabled":false,"rental_uris":{"android":"levelo://app?vid=eec6d8b3-6953-42e3-81ad-17cf49e99da0","ios":"levelo://app?vid=eec6d8b3-6953-42e3-81ad-17cf49e99da0"},"vehicle_type_id":"4","last_reported":1748902515,"current_range_meters":24800,"station_id":"ce4bh012rcd13ifvqcv0","pricing_plan_id":"cebpf4jnsgd1na2vs0mg"},{"bike_id":"99f0b70b-0749-4613-8f0b-52750b17cc5a","system_id":"levelo_inurba_marseille","lat":43.29263,"lon":5.40124,"is_reserved":false,"is_disabled":false,"rental_uris":{"android":"levelo://app?vid=99f0b70b-0749-4613-8f0b-52750b17cc5a","ios":"levelo://app?vid=99f0b70b-0749-4613-8f0b-52750b17cc5a"},"vehicle_type_id":"4","last_reported":1748902515,"current_range_meters":24800,"station_id":"ce4bh312rcd13ifvqdk0","pricing_plan_id":"cebpf4jnsgd1na2vs0mg"},{"bike_id":"4f25bd85-d159-4b51-bc72-141c43ab622c","system_id":"levelo_inurba_marseille","lat":43.29279,"lon":5.40118,"is_reserved":false,"is_disabled":false,"rental_uris":{"android":"levelo://app?vid=4f25bd85-d159-4b51-bc72-141c43ab622c","ios":"levelo://app?vid=4f25bd85-d159-4b51-bc72-141c43ab622c"},"vehicle_type_id":"4","last_reported":1748902515,"current_range_meters":24800,"station_id":"ce4bh312rcd13ifvqdk0","pricing_plan_id":"cebpf4jnsgd1na2vs0mg"},{"bike_id":"67079772-4496-419f-8f60-de37ff9300e4","system_id":"levelo_inurba_marseille","lat":43.28472,"lon":5.35862,"is_reserved":false,"is_disabled":false,"rental_uris":{"android":"levelo://app?vid=67079772-4496-419f-8f60-de37ff9300e4","ios":"levelo://app?vid=67079772-4496-419f-8f60-de37ff9300e4"},"vehicle_type_id":"4","last_reported":1748902515,"current_range_meters":24800,"station_id":"ce4bhah2rcd13ifvqei0","pricing_plan_id":"cebpf4jnsgd1na2vs0mg"},{"bike_id":"05dd8858-2240-4ec1-a8bd-ad471b03b4f3","system_id":"levelo_inurba_marseille","lat":43.288519,"lon":5.358529,"is_reserved":false,"is_disabled":false,"rental_uris":{"android":"levelo://app?vid=05dd8858-2240-4ec1-a8bd-ad471b03b4f3","ios":"levelo://app?vid=05dd8858-2240-4ec1-a8bd-ad471b03b4f3"},"vehicle_type_id":"4","last_reported":1748902515,"current_range_meters":24800,"station_id":"ce4bhb12rcd13ifvqem0","pricing_plan_id":"cebpf4jnsgd1na2vs0mg"},{"bike_id":"6df47c6e-b2ac-4eab-a269-9d0f98ee4b6f","system_id":"levelo_inurba_marseille","lat":43.27839,"lon":5.39206,"is_reserved":false,"is_disabled":false,"rental_uris":{"android":"levelo://app?vid=6df47c6e-b2ac-4eab-a269-9d0f98ee4b6f","ios":"levelo://app?vid=6df47c6e-b2ac-4eab-a269-9d0f98ee4b6f"},"vehicle_type_id":"4","last_reported":1748902515,"current_range_meters":24800,"station_id":"ce4bhjp2rcd13ifvqga0","pricing_plan_id":"cebpf4jnsgd1na2vs0mg"},{"bike_id":"42e5de30-2d32-429b-8b1d-e095ea273922","system_id":"levelo_inurba_marseille","lat":43.23195,"lon":5.39978,"is_reserved":false,"is_disabled":false,"rental_uris":{"android":"levelo://app?vid=42e5de30-2d32-429b-8b1d-e095ea273922","ios":"levelo://app?vid=42e5de30-2d32-429b-8b1d-e095ea273922"},"vehicle_type_id":"4","last_reported":1748902515,"current_range_meters":24800,"station_id":"ce4bhn12rcd13ifvqgqg","pricing_plan_id":"cebpf4jnsgd1na2vs0mg"},{"bike_id":"55b881e4-3019-43bb-b1d5-5266354957e8","system_id":"levelo_inurba_marseille","lat":43.31756,"lon":5.39012,"is_reserved":false,"is_disabled":false,"rental_uris":{"android":"levelo://app?vid=55b881e4-3019-43bb-b1d5-5266354957e8","ios":"levelo://app?vid=55b881e4-3019-43bb-b1d5-5266354957e8"},"vehicle_type_id":"4","last_reported":1748902515,"current_range_meters":24800,"station_id":"ce4bhqp2rcd13ifvqhng","pricing_plan_id":"cebpf4jnsgd1na2vs0mg"},{"bike_id":"83302060-b3ed-4cab-bb63-30cfa9c0b348","system_id":"levelo_inurba_marseille","lat":43.29519,"lon":5.39034,"is_reserved":false,"is_disabled":false,"rental_uris":{"android":"levelo://app?vid=83302060-b3ed-4cab-bb63-30cfa9c0b348","ios":"levelo://app?vid=83302060-b3ed-4cab-bb63-30cfa9c0b348"},"vehicle_type_id":"4","last_reported":1748902515,"current_range_meters":25200,"station_id":"ce4bh3p2rcd13ifvqdp0","pricing_plan_id":"cebpf4jnsgd1na2vs0mg"},{"bike_id":"538fbf07-6c51-4c2b-b04c-60b124695884","system_id":"levelo_inurba_marseille","lat":43.2886,"lon":5.35856,"is_reserved":false,"is_disabled":false,"rental_uris":{"android":"levelo://app?vid=538fbf07-6c51-4c2b-b04c-60b124695884","ios":"levelo://app?vid=538fbf07-6c51-4c2b-b04c-60b124695884"},"vehicle_type_id":"4","last_reported":1748902515,"current_range_meters":25200,"station_id":"ce4bhb12rcd13ifvqem0","pricing_plan_id":"cebpf4jnsgd1na2vs0mg"},{"bike_id":"f53e0c7a-6b89-4727-a4bd-a6df225fe200","system_id":"levelo_inurba_marseille","lat":43.24069,"lon":5.37775,"is_reserved":false,"is_disabled":false,"rental_uris":{"android":"levelo://app?vid=f53e0c7a-6b89-4727-a4bd-a6df225fe200","ios":"levelo://app?vid=f53e0c7a-6b89-4727-a4bd-a6df225fe200"},"vehicle_type_id":"4","last_reported":1748902515,"current_range_meters":25200,"station_id":"ce4bhnp2rcd13ifvqgvg","pricing_plan_id":"cebpf4jnsgd1na2vs0mg"},{"bike_id":"399b6894-a57f-4255-81a3-8873dc3d4f63","system_id":"levelo_inurba_marseille","lat":43.30601,"lon":5.37221,"is_reserved":false,"is_disabled":false,"rental_uris":{"android":"levelo://app?vid=399b6894-a57f-4255-81a3-8873dc3d4f63","ios":"levelo://app?vid=399b6894-a57f-4255-81a3-8873dc3d4f63"},"vehicle_type_id":"4","last_reported":1748902515,"current_range_meters":25600,"station_id":"ce4bgqh2rcd13ifvqc4g","pricing_plan_id":"cebpf4jnsgd1na2vs0mg"},{"bike_id":"9f55290d-8d98-428e-9d44-dcf0ffb64500","system_id":"levelo_inurba_marseille","lat":43.311768,"lon":5.386997,"is_reserved":false,"is_disabled":false,"rental_uris":{"android":"levelo://app?vid=9f55290d-8d98-428e-9d44-dcf0ffb64500","ios":"levelo://app?vid=9f55290d-8d98-428e-9d44-dcf0ffb64500"},"vehicle_type_id":"4","last_reported":1748902515,"current_range_meters":25600,"station_id":"ce4bgv12rcd13ifvqcp0","pricing_plan_id":"cebpf4jnsgd1na2vs0mg"},{"bike_id":"3f920b0e-805b-4a1e-b243-71a0773046bc","system_id":"levelo_inurba_marseille","lat":43.3065,"lon":5.40088,"is_reserved":false,"is_disabled":false,"rental_uris":{"android":"levelo://app?vid=3f920b0e-805b-4a1e-b243-71a0773046bc","ios":"levelo://app?vid=3f920b0e-805b-4a1e-b243-71a0773046bc"},"vehicle_type_id":"4","last_reported":1748902515,"current_range_meters":25600,"station_id":"ce4bh112rcd13ifvqda0","pricing_plan_id":"cebpf4jnsgd1na2vs0mg"},{"bike_id":"758bea52-6e48-4fee-885b-8f6c986bae16","system_id":"levelo_inurba_marseille","lat":43.28579,"lon":5.39491,"is_reserved":false,"is_disabled":false,"rental_uris":{"android":"levelo://app?vid=758bea52-6e48-4fee-885b-8f6c986bae16","ios":"levelo://app?vid=758bea52-6e48-4fee-885b-8f6c986bae16"},"vehicle_type_id":"4","last_reported":1748902515,"current_range_meters":25600,"station_id":"ce4bh292rcd13ifvqdg0","pricing_plan_id":"cebpf4jnsgd1na2vs0mg"},{"bike_id":"23e204a8-ae58-4c70-acc1-8b7210317b05","system_id":"levelo_inurba_marseille","lat":43.28696,"lon":5.37382,"is_reserved":false,"is_disabled":false,"rental_uris":{"android":"levelo://app?vid=23e204a8-ae58-4c70-acc1-8b7210317b05","ios":"levelo://app?vid=23e204a8-ae58-4c70-acc1-8b7210317b05"},"vehicle_type_id":"4","last_reported":1748902515,"current_range_meters":25600,"station_id":"ce4bh3p2rcd13ifvqdq0","pricing_plan_id":"cebpf4jnsgd1na2vs0mg"},{"bike_id":"0e69b15d-a3ea-4bef-966d-63fadb738ab1","system_id":"levelo_inurba_marseille","lat":43.28386,"lon":5.37494,"is_reserved":false,"is_disabled":false,"rental_uris":{"android":"levelo://app?vid=0e69b15d-a3ea-4bef-966d-63fadb738ab1","ios":"levelo://app?vid=0e69b15d-a3ea-4bef-966d-63fadb738ab1"},"vehicle_type_id":"4","last_reported":1748902515,"current_range_meters":25600,"station_id":"ce4bh412rcd13ifvqds0","pricing_plan_id":"cebpf4jnsgd1na2vs0mg"},{"bike_id":"a8607ef7-24ac-4938-9ee2-94d4cfd915c1","system_id":"levelo_inurba_marseille","lat":43.28929,"lon":5.38391,"is_reserved":false,"is_disabled":false,"rental_uris":{"android":"levelo://app?vid=a8607ef7-24ac-4938-9ee2-94d4cfd915c1","ios":"levelo://app?vid=a8607ef7-24ac-4938-9ee2-94d4cfd915c1"},"vehicle_type_id":"4","last_reported":1748902515,"current_range_meters":25600,"station_id":"ce4bh612rcd13ifvqe6g","pricing_plan_id":"cebpf4jnsgd1na2vs0mg"},{"bike_id":"41cc959b-a23c-45c8-b31e-0a514d4b983e","system_id":"levelo_inurba_marseille","lat":43.287138,"lon":5.379383,"is_reserved":false,"is_disabled":false,"rental_uris":{"android":"levelo://app?vid=41cc959b-a23c-45c8-b31e-0a514d4b983e","ios":"levelo://app?vid=41cc959b-a23c-45c8-b31e-0a514d4b983e"},"vehicle_type_id":"4","last_reported":1748902515,"current_range_meters":25600,"station_id":"ce4bh9p2rcd13ifvqec0","pricing_plan_id":"cebpf4jnsgd1na2vs0mg"},{"bike_id":"a5e68b1e-03ce-4572-93f1-79799391457d","system_id":"levelo_inurba_marseille","lat":43.280395,"lon":5.369461,"is_reserved":false,"is_disabled":false,"rental_uris":{"android":"levelo://app?vid=a5e68b1e-03ce-4572-93f1-79799391457d","ios":"levelo://app?vid=a5e68b1e-03ce-4572-93f1-79799391457d"},"vehicle_type_id":"4","last_reported":1748902515,"current_range_meters":25600,"station_id":"ce4bha12rcd13ifvqef0","pricing_plan_id":"cebpf4jnsgd1na2vs0mg"},{"bike_id":"a0001732-78ec-4f7f-8baa-567b12cd9b54","system_id":"levelo_inurba_marseille","lat":43.28461,"lon":5.35894,"is_reserved":false,"is_disabled":false,"rental_uris":{"android":"levelo://app?vid=a0001732-78ec-4f7f-8baa-567b12cd9b54","ios":"levelo://app?vid=a0001732-78ec-4f7f-8baa-567b12cd9b54"},"vehicle_type_id":"4","last_reported":1748902515,"current_range_meters":25600,"station_id":"ce4bhah2rcd13ifvqei0","pricing_plan_id":"cebpf4jnsgd1na2vs0mg"},{"bike_id":"5e3ae34e-5689-4920-b467-6ec9d7756619","system_id":"levelo_inurba_marseille","lat":43.26213,"lon":5.37445,"is_reserved":false,"is_disabled":false,"rental_uris":{"android":"levelo://app?vid=5e3ae34e-5689-4920-b467-6ec9d7756619","ios":"levelo://app?vid=5e3ae34e-5689-4920-b467-6ec9d7756619"},"vehicle_type_id":"4","last_reported":1748902515,"current_range_meters":25600,"station_id":"ce4bhgp2rcd13ifvqfc0","pricing_plan_id":"cebpf4jnsgd1na2vs0mg"},{"bike_id":"3599c5ae-f3b1-45fb-99a2-304e99bbbd96","system_id":"levelo_inurba_marseille","lat":43.24143,"lon":5.39685,"is_reserved":false,"is_disabled":false,"rental_uris":{"android":"levelo://app?vid=3599c5ae-f3b1-45fb-99a2-304e99bbbd96","ios":"levelo://app?vid=3599c5ae-f3b1-45fb-99a2-304e99bbbd96"},"vehicle_type_id":"4","last_reported":1748902515,"current_range_meters":25600,"station_id":"ce4bhn12rcd13ifvqgpg","pricing_plan_id":"cebpf4jnsgd1na2vs0mg"},{"bike_id":"f4831d0d-68d7-418e-b50e-5e455fb4c280","system_id":"levelo_inurba_marseille","lat":43.34146,"lon":5.40895,"is_reserved":false,"is_disabled":false,"rental_uris":{"android":"levelo://app?vid=f4831d0d-68d7-418e-b50e-5e455fb4c280","ios":"levelo://app?vid=f4831d0d-68d7-418e-b50e-5e455fb4c280"},"vehicle_type_id":"4","last_reported":1748902515,"current_range_meters":25600,"station_id":"ce4bhqh2rcd13ifvqhlg","pricing_plan_id":"cebpf4jnsgd1na2vs0mg"},{"bike_id":"a6cc7a95-9cbb-43a9-9270-523c8416be20","system_id":"levelo_inurba_marseille","lat":43.30528,"lon":5.3842,"is_reserved":false,"is_disabled":false,"rental_uris":{"android":"levelo://app?vid=a6cc7a95-9cbb-43a9-9270-523c8416be20","ios":"levelo://app?vid=a6cc7a95-9cbb-43a9-9270-523c8416be20"},"vehicle_type_id":"4","last_reported":1748902515,"current_range_meters":26000,"station_id":"ce4bgg92rcd13ifvqb30","pricing_plan_id":"cebpf4jnsgd1na2vs0mg"},{"bike_id":"d21ffd14-f6ca-47b1-ad42-9232bd444d7c","system_id":"levelo_inurba_marseille","lat":43.317,"lon":5.37728,"is_reserved":false,"is_disabled":false,"rental_uris":{"android":"levelo://app?vid=d21ffd14-f6ca-47b1-ad42-9232bd444d7c","ios":"levelo://app?vid=d21ffd14-f6ca-47b1-ad42-9232bd444d7c"},"vehicle_type_id":"4","last_reported":1748902515,"current_range_meters":26000,"station_id":"ce4bgth2rcd13ifvqch0","pricing_plan_id":"cebpf4jnsgd1na2vs0mg"},{"bike_id":"56711115-8717-4aaa-a15c-b5e0caa24e6d","system_id":"levelo_inurba_marseille","lat":43.28846,"lon":5.39299,"is_reserved":false,"is_disabled":false,"rental_uris":{"android":"levelo://app?vid=56711115-8717-4aaa-a15c-b5e0caa24e6d","ios":"levelo://app?vid=56711115-8717-4aaa-a15c-b5e0caa24e6d"},"vehicle_type_id":"4","last_reported":1748902515,"current_range_meters":26000,"station_id":"ce4bh2p2rcd13ifvqdi0","pricing_plan_id":"cebpf4jnsgd1na2vs0mg"},{"bike_id":"1cddc135-bfc5-4d94-a21d-02f1f0289092","system_id":"levelo_inurba_marseille","lat":43.29875,"lon":5.389,"is_reserved":false,"is_disabled":false,"rental_uris":{"android":"levelo://app?vid=1cddc135-bfc5-4d94-a21d-02f1f0289092","ios":"levelo://app?vid=1cddc135-bfc5-4d94-a21d-02f1f0289092"},"vehicle_type_id":"4","last_reported":1748902515,"current_range_meters":26000,"station_id":"ce4bh392rcd13ifvqdl0","pricing_plan_id":"cebpf4jnsgd1na2vs0mg"},{"bike_id":"b357ff8d-9043-4978-b714-9bbab24911fe","system_id":"levelo_inurba_marseille","lat":43.28346,"lon":5.38097,"is_reserved":false,"is_disabled":false,"rental_uris":{"android":"levelo://app?vid=b357ff8d-9043-4978-b714-9bbab24911fe","ios":"levelo://app?vid=b357ff8d-9043-4978-b714-9bbab24911fe"},"vehicle_type_id":"4","last_reported":1748902515,"current_range_meters":26000,"station_id":"ce4bh412rcd13ifvqdr0","pricing_plan_id":"cebpf4jnsgd1na2vs0mg"},{"bike_id":"2c42c0e8-9eaa-4da0-905c-0595a047554a","system_id":"levelo_inurba_marseille","lat":43.29092,"lon":5.38144,"is_reserved":false,"is_disabled":false,"rental_uris":{"android":"levelo://app?vid=2c42c0e8-9eaa-4da0-905c-0595a047554a","ios":"levelo://app?vid=2c42c0e8-9eaa-4da0-905c-0595a047554a"},"vehicle_type_id":"4","last_reported":1748902515,"current_range_meters":26000,"station_id":"ce4bh512rcd13ifvqe2g","pricing_plan_id":"cebpf4jnsgd1na2vs0mg"},{"bike_id":"98f7f3ac-5ef0-40fb-b3fd-928b30f2766a","system_id":"levelo_inurba_marseille","lat":43.28614,"lon":5.35105,"is_reserved":false,"is_disabled":false,"rental_uris":{"android":"levelo://app?vid=98f7f3ac-5ef0-40fb-b3fd-928b30f2766a","ios":"levelo://app?vid=98f7f3ac-5ef0-40fb-b3fd-928b30f2766a"},"vehicle_type_id":"4","last_reported":1748902515,"current_range_meters":26000,"station_id":"ce4bhch2rcd13ifvqeug","pricing_plan_id":"cebpf4jnsgd1na2vs0mg"},{"bike_id":"e6c55f02-83d9-4581-9181-2720e9d20f24","system_id":"levelo_inurba_marseille","lat":43.27971,"lon":5.38739,"is_reserved":false,"is_disabled":false,"rental_uris":{"android":"levelo://app?vid=e6c55f02-83d9-4581-9181-2720e9d20f24","ios":"levelo://app?vid=e6c55f02-83d9-4581-9181-2720e9d20f24"},"vehicle_type_id":"4","last_reported":1748902515,"current_range_meters":26000,"station_id":"ce4bhg12rcd13ifvqf80","pricing_plan_id":"cebpf4jnsgd1na2vs0mg"},{"bike_id":"c38d0712-32f5-42ac-9bd6-99664d949b49","system_id":"levelo_inurba_marseille","lat":43.279294,"lon":5.410238,"is_reserved":false,"is_disabled":false,"rental_uris":{"android":"levelo://app?vid=c38d0712-32f5-42ac-9bd6-99664d949b49","ios":"levelo://app?vid=c38d0712-32f5-42ac-9bd6-99664d949b49"},"vehicle_type_id":"4","last_reported":1748902515,"current_range_meters":26000,"station_id":"ce4bhnp2rcd13ifvqh0g","pricing_plan_id":"cebpf4jnsgd1na2vs0mg"},{"bike_id":"59f0cfae-2cf1-4af7-b349-41c24f6b0f68","system_id":"levelo_inurba_marseille","lat":43.28075,"lon":5.39652,"is_reserved":false,"is_disabled":false,"rental_uris":{"android":"levelo://app?vid=59f0cfae-2cf1-4af7-b349-41c24f6b0f68","ios":"levelo://app?vid=59f0cfae-2cf1-4af7-b349-41c24f6b0f68"},"vehicle_type_id":"4","last_reported":1748902515,"current_range_meters":26000,"station_id":"ce4bho12rcd13ifvqh2g","pricing_plan_id":"cebpf4jnsgd1na2vs0mg"},{"bike_id":"d66a0bf9-0780-42a2-8e10-921c1e58a1e1","system_id":"levelo_inurba_marseille","lat":43.28077,"lon":5.39656,"is_reserved":false,"is_disabled":false,"rental_uris":{"android":"levelo://app?vid=d66a0bf9-0780-42a2-8e10-921c1e58a1e1","ios":"levelo://app?vid=d66a0bf9-0780-42a2-8e10-921c1e58a1e1"},"vehicle_type_id":"4","last_reported":1748902515,"current_range_meters":26000,"station_id":"ce4bho12rcd13ifvqh2g","pricing_plan_id":"cebpf4jnsgd1na2vs0mg"},{"bike_id":"4056785d-fe19-4951-b63e-18b5d3919fc8","system_id":"levelo_inurba_marseille","lat":43.3373,"lon":5.39187,"is_reserved":false,"is_disabled":false,"rental_uris":{"android":"levelo://app?vid=4056785d-fe19-4951-b63e-18b5d3919fc8","ios":"levelo://app?vid=4056785d-fe19-4951-b63e-18b5d3919fc8"},"vehicle_type_id":"4","last_reported":1748902515,"current_range_meters":26000,"station_id":"ce4bhr92rcd13ifvqhsg","pricing_plan_id":"cebpf4jnsgd1na2vs0mg"},{"bike_id":"efad2ba9-2415-4214-bb49-234487517d62","system_id":"levelo_inurba_marseille","lat":43.31325,"lon":5.39691,"is_reserved":false,"is_disabled":false,"rental_uris":{"android":"levelo://app?vid=efad2ba9-2415-4214-bb49-234487517d62","ios":"levelo://app?vid=efad2ba9-2415-4214-bb49-234487517d62"},"vehicle_type_id":"4","last_reported":1748902515,"current_range_meters":26800,"station_id":"ce4bgvp2rcd13ifvqcu0","pricing_plan_id":"cebpf4jnsgd1na2vs0mg"},{"bike_id":"860b7b09-6bff-4105-b03f-da385af72bcc","system_id":"levelo_inurba_marseille","lat":43.29271,"lon":5.40133,"is_reserved":false,"is_disabled":false,"rental_uris":{"android":"levelo://app?vid=860b7b09-6bff-4105-b03f-da385af72bcc","ios":"levelo://app?vid=860b7b09-6bff-4105-b03f-da385af72bcc"},"vehicle_type_id":"4","last_reported":1748902515,"current_range_meters":26800,"station_id":"ce4bh312rcd13ifvqdk0","pricing_plan_id":"cebpf4jnsgd1na2vs0mg"},{"bike_id":"59e5f6ef-f08a-434c-ad78-5ad16f2c41f0","system_id":"levelo_inurba_marseille","lat":43.31067,"lon":5.38352,"is_reserved":false,"is_disabled":false,"rental_uris":{"android":"levelo://app?vid=59e5f6ef-f08a-434c-ad78-5ad16f2c41f0","ios":"levelo://app?vid=59e5f6ef-f08a-434c-ad78-5ad16f2c41f0"},"vehicle_type_id":"4","last_reported":1748902515,"current_range_meters":27200,"station_id":"ce4bgv92rcd13ifvqcr0","pricing_plan_id":"cebpf4jnsgd1na2vs0mg"},{"bike_id":"58b1b58a-df22-44aa-8621-8935f047f3a2","system_id":"levelo_inurba_marseille","lat":43.31683,"lon":5.4047,"is_reserved":false,"is_disabled":false,"rental_uris":{"android":"levelo://app?vid=58b1b58a-df22-44aa-8621-8935f047f3a2","ios":"levelo://app?vid=58b1b58a-df22-44aa-8621-8935f047f3a2"},"vehicle_type_id":"4","last_reported":1748902515,"current_range_meters":27200,"station_id":"ce4bh012rcd13ifvqd00","pricing_plan_id":"cebpf4jnsgd1na2vs0mg"},