{"last_updated":1768990575,"ttl":60,"version":"2.2","data":{"bikes":[{"bike_id":"a583b132-6404-4143-b4a9-6a54e8b15c26","system_id":"levelo_inurba_marseille","lat":43.2844,"lon":5.39215,"is_reserved":false,"is_disabled":false,"rental_uris":{"android":"levelo://app?vid=a583b132-6404-4143-b4a9-6a54e8b15c26","ios":"levelo://app?vid=a583b132-6404-4143-b4a9-6a54e8b15c26"},"vehicle_type_id":"4","last_reported":1768990576,"current_range_meters":2800,"station_id":"ce4bhoh2rcd13ifvqh5g","pricing_plan_id":"cebpf4jnsgd1na2vs0mg"},{"bike_id":"09862818-671a-4376-a7a2-2bb4e426d3ba","system_id":"levelo_inurba_marseille","lat":43.30415,"lon":5.41307,"is_reserved":false,"is_disabled":false,"rental_uris":{"android":"levelo://app?vid=09862818-671a-4376-a7a2-2bb4e426d3ba","ios":"levelo://app?vid=09862818-671a-4376-a7a2-2bb4e426d3ba"},"vehicle_type_id":"4","last_reported":1768990576,"current_range_meters":2800,"station_id":"ce4bhop2rcd13ifvqh8g","pricing_plan_id":"cebpf4jnsgd1na2vs0mg"},{"bike_id":"f77322d8-6406-4dce-9762-2db983fcf32d","system_id":"levelo_inurba_marseille","lat":43.30934,"lon":5.36851,"is_reserved":false,"is_disabled":false,"rental_uris":{"android":"levelo://app?vid=f77322d8-6406-4dce-9762-2db983fcf32d","ios":"levelo://app?vid=f77322d8-6406-4dce-9762-2db983fcf32d"},"vehicle_type_id":"4","last_reported":1768990576,"current_range_meters":2800,"station_id":"ce4bgn92rcd13ifvqbvg","pricing_plan_id":"cebpf4jnsgd1na2vs0mg"},{"bike_id":"9d8f0c64-8e98-4af7-a64b-a4b33ae6c396","system_id":"levelo_inurba_marseille","lat":43.26957,"lon":5.38631,"is_reserved":false,"is_disabled":false,"rental_uris":{"android":"levelo://app?vid=9d8f0c64-8e98-4af7-a64b-a4b33ae6c396","ios":"levelo://app?vid=9d8f0c64-8e98-4af7-a64b-a4b33ae6c396"},"vehicle_type_id":"4","last_reported":1768990576,"current_range_meters":2800,"station_id":"ce4bhh92rcd13ifvqfh0","pricing_plan_id":"cebpf4jnsgd1na2vs0mg"},{"bike_id":"8182caca-b56d-4e87-bc73-40b9e52e713b","system_id":"levelo_inurba_marseille","lat":43.287,"lon":5.37957,"is_reserved":false,"is_disabled":false,"rental_uris":{"android":"levelo://app?vid=8182caca-b56d-4e87-bc73-40b9e52e713b","ios":"levelo://app?vid=8182caca-b56d-4e87-bc73-40b9e52e713b"},"vehicle_type_id":"4","last_reported":1768990576,"current_range_meters":2800,"station_id":"ce4bh9p2rcd13ifvqec0","pricing_plan_id":"cebpf4jnsgd1na2vs0mg"},{"bike_id":"c766203c-fe51-459b-bf74-dd6b3df74629","system_id":"levelo_inurba_marseille","lat":43.231852,"lon":5.399921,"is_reserved":false,"is_disabled":false,"rental_uris":{"android":"levelo://app?vid=c766203c-fe51-459b-bf74-dd6b3df74629","ios":"levelo://app?vid=c766203c-fe51-459b-bf74-dd6b3df74629"},"vehicle_type_id":"4","last_reported":1768990576,"current_range_meters":2800,"station_id":"ce4bhn12rcd13ifvqgqg","pricing_plan_id":"cebpf4jnsgd1na2vs0mg"},{"bike_id":"40e2667e-f23a-4ded-8ddb-fef4d5eb0dfe","system_id":"levelo_inurba_marseille","lat":43.25514,"lon":5.37672,"is_reserved":false,"is_disabled":false,"rental_uris":{"android":"levelo://app?vid=40e2667e-f23a-4ded-8ddb-fef4d5eb0dfe","ios":"levelo://app?vid=40e2667e-f23a-4ded-8ddb-fef4d5eb0dfe"},"vehicle_type_id":"4","last_reported":1768990576,"current_range_meters":2800,"station_id":"ce4bhh12rcd13ifvqff0","pricing_plan_id":"cebpf4jnsgd1na2vs0mg"},{"bike_id":"7232eb7a-b101-485f-842b-a17949e0ef26","system_id":"levelo_inurba_marseille","lat":43.2842,"lon":5.34989,"is_reserved":false,"is_disabled":false,"rental_uris":{"android":"levelo://app?vid=7232eb7a-b101-485f-842b-a17949e0ef26","ios":"levelo://app?vid=7232eb7a-b101-485f-842b-a17949e0ef26"},"vehicle_type_id":"4","last_reported":1768990576,"current_range_meters":2800,"station_id":"ce4bhbh2rcd13ifvqepg","pricing_plan_id":"cebpf4jnsgd1na2vs0mg"},{"bike_id":"5be159af-dd5e-4648-a180-087e2a7775cf","system_id":"levelo_inurba_marseille","lat":43.30533,"lon":5.36561,"is_reserved":false,"is_disabled":false,"rental_uris":{"android":"levelo://app?vid=5be159af-dd5e-4648-a180-087e2a7775cf","ios":"levelo://app?vid=5be159af-dd5e-4648-a180-087e2a7775cf"},"vehicle_type_id":"4","last_reported":1768990576,"current_range_meters":2800,"station_id":"ce4bgs12rcd13ifvqcag","pricing_plan_id":"cebpf4jnsgd1na2vs0mg"},{"bike_id":"7ced09e8-33c0-4866-ae30-e107ea424cac","system_id":"levelo_inurba_marseille","lat":43.28493,"lon":5.38549,"is_reserved":false,"is_disabled":false,"rental_uris":{"android":"levelo://app?vid=7ced09e8-33c0-4866-ae30-e107ea424cac","ios":"levelo://app?vid=7ced09e8-33c0-4866-ae30-e107ea424cac"},"vehicle_type_id":"4","last_reported":1768990576,"current_range_meters":2800,"station_id":"ce4bh8p2rcd13ifvqeb0","pricing_plan_id":"cebpf4jnsgd1na2vs0mg"},{"bike_id":"7db0be04-a532-468b-902a-7b5fe08e94a8","system_id":"levelo_inurba_marseille","lat":43.31223,"lon":5.36856,"is_reserved":false,"is_disabled":false,"rental_uris":{"android":"levelo://app?vid=7db0be04-a532-468b-902a-7b5fe08e94a8","ios":"levelo://app?vid=7db0be04-a532-468b-902a-7b5fe08e94a8"},"vehicle_type_id":"4","last_reported":1768990576,"current_range_meters":3200,"station_id":"ce4bgl92rcd13ifvqbq0","pricing_plan_id":"cebpf4jnsgd1na2vs0mg"},{"bike_id":"3f19db83-e6c2-450e-973c-f194a67cd9a7","system_id":"levelo_inurba_marseille","lat":43.30425,"lon":5.39741,"is_reserved":false,"is_disabled":false,"rental_uris":{"android":"levelo://app?vid=3f19db83-e6c2-450e-973c-f194a67cd9a7","ios":"levelo://app?vid=3f19db83-e6c2-450e-973c-f194a67cd9a7"},"vehicle_type_id":"4","last_reported":1768990576,"current_range_meters":3200,"station_id":"ce4bh092rcd13ifvqd20","pricing_plan_id":"cebpf4jnsgd1na2vs0mg"},{"bike_id":"a89da980-36be-4958-9aa0-4e1f42aab655","system_id":"levelo_inurba_marseille","lat":43.25003,"lon":5.38939,"is_reserved":false,"is_disabled":false,"rental_uris":{"android":"levelo://app?vid=a89da980-36be-4958-9aa0-4e1f42aab655","ios":"levelo://app?vid=a89da980-36be-4958-9aa0-4e1f42aab655"},"vehicle_type_id":"4","last_reported":1768990576,"current_range_meters":3200,"station_id":"ce4bhgp2rcd13ifvqfd0","pricing_plan_id":"cebpf4jnsgd1na2vs0mg"},{"bike_id":"77c5b01e-246f-4ecd-8487-233ea9e71a7f","system_id":"levelo_inurba_marseille","lat":43.28962,"lon":5.39615,"is_reserved":false,"is_disabled":false,"rental_uris":{"android":"levelo://app?vid=77c5b01e-246f-4ecd-8487-233ea9e71a7f","ios":"levelo://app?vid=77c5b01e-246f-4ecd-8487-233ea9e71a7f"},"vehicle_type_id":"4","last_reported":1768990576,"current_range_meters":3200,"station_id":"ce4bh3h2rcd13ifvqdn0","pricing_plan_id":"cebpf4jnsgd1na2vs0mg"},{"bike_id":"c90f8d49-c464-4abb-b50f-a6f2833250ba","system_id":"levelo_inurba_marseille","lat":43.260608,"lon":5.393956,"is_reserved":false,"is_disabled":false,"rental_uris":{"android":"levelo://app?vid=c90f8d49-c464-4abb-b50f-a6f2833250ba","ios":"levelo://app?vid=c90f8d49-c464-4abb-b50f-a6f2833250ba"},"vehicle_type_id":"4","last_reported":1768990576,"current_range_meters":3600,"station_id":"ce4bhh92rcd13ifvqfj0","pricing_plan_id":"cebpf4jnsgd1na2vs0mg"},{"bike_id":"7802e83c-9509-415b-89fd-929c16596565","system_id":"levelo_inurba_marseille","lat":43.297596,"lon":5.381206,"is_reserved":false,"is_disabled":false,"rental_uris":{"android":"levelo://app?vid=7802e83c-9509-415b-89fd-929c16596565","ios":"levelo://app?vid=7802e83c-9509-415b-89fd-929c16596565"},"vehicle_type_id":"4","last_reported":1768990576,"current_range_meters":3600,"station_id":"ce4bgip2rcd13ifvqbb0","pricing_plan_id":"cebpf4jnsgd1na2vs0mg"},{"bike_id":"ccaef91d-4df9-4bcb-875d-e470e77ac854","system_id":"levelo_inurba_marseille","lat":43.25734,"lon":5.4109,"is_reserved":false,"is_disabled":false,"rental_uris":{"android":"levelo://app?vid=ccaef91d-4df9-4bcb-875d-e470e77ac854","ios":"levelo://app?vid=ccaef91d-4df9-4bcb-875d-e470e77ac854"},"vehicle_type_id":"4","last_reported":1768990576,"current_range_meters":3600,"station_id":"ce4bhkp2rcd13ifvqgd0","pricing_plan_id":"cebpf4jnsgd1na2vs0mg"},{"bike_id":"fbbedfeb-5767-4a40-9eeb-fb558ba05242","system_id":"levelo_inurba_marseille","lat":43.24992,"lon":5.38956,"is_reserved":false,"is_disabled":false,"rental_uris":{"android":"levelo://app?vid=fbbedfeb-5767-4a40-9eeb-fb558ba05242","ios":"levelo://app?vid=fbbedfeb-5767-4a40-9eeb-fb558ba05242"},"vehicle_type_id":"4","last_reported":1768990576,"current_range_meters":3600,"station_id":"ce4bhgp2rcd13ifvqfd0","pricing_plan_id":"cebpf4jnsgd1na2vs0mg"},{"bike_id":"627dbf1f-0919-45a7-a8b9-d0e95e16ab30","system_id":"levelo_inurba_marseille","lat":43.29561,"lon":5.37523,"is_reserved":false,"is_disabled":false,"rental_uris":{"android":"levelo://app?vid=627dbf1f-0919-45a7-a8b9-d0e95e16ab30","ios":"levelo://app?vid=627dbf1f-0919-45a7-a8b9-d0e95e16ab30"},"vehicle_type_id":"4","last_reported":1768990576,"current_range_meters":3600,"station_id":"ce4bgh92rcd13ifvqb50","pricing_plan_id":"cebpf4jnsgd1na2vs0mg"},{"bike_id":"3e57c784-076f-487c-b622-a075cc851190","system_id":"levelo_inurba_marseille","lat":43.2466,"lon":5.38168,"is_reserved":false,"is_disabled":false,"rental_uris":{"android":"levelo://app?vid=3e57c784-076f-487c-b622-a075cc851190","ios":"levelo://app?vid=3e57c784-076f-487c-b622-a075cc851190"},"vehicle_type_id":"4","last_reported":1768990576,"current_range_meters":3600,"station_id":"ce4bhih2rcd13ifvqfr0","pricing_plan_id":"cebpf4jnsgd1na2vs0mg"},{"bike_id":"ab8f0e9e-82c0-4cd4-ae4a-73fe86db6b63","system_id":"levelo_inurba_marseille","lat":43.30161,"lon":5.38073,"is_reserved":false,"is_disabled":false,"rental_uris":{"android":"levelo://app?vid=ab8f0e9e-82c0-4cd4-ae4a-73fe86db6b63","ios":"levelo://app?vid=ab8f0e9e-82c0-4cd4-ae4a-73fe86db6b63"},"vehicle_type_id":"4","last_reported":1768990576,"current_range_meters":3600,"station_id":"ce4bgjp2rcd13ifvqbh0","pricing_plan_id":"cebpf4jnsgd1na2vs0mg"},{"bike_id":"1714e9ac-fe45-44b7-b95b-ee43c0a44989","system_id":"levelo_inurba_marseille","lat":43.32532,"lon":5.41485,"is_reserved":false,"is_disabled":false,"rental_uris":{"android":"levelo://app?vid=1714e9ac-fe45-44b7-b95b-ee43c0a44989","ios":"levelo://app?vid=1714e9ac-fe45-44b7-b95b-ee43c0a44989"},"vehicle_type_id":"4","last_reported":1768990576,"current_range_meters":3600,"station_id":"ce4bhq12rcd13ifvqhhg","pricing_plan_id":"cebpf4jnsgd1na2vs0mg"},{"bike_id":"ce65da15-5103-4c08-86e5-b4783ea2b238","system_id":"levelo_inurba_marseille","lat":43.29313,"lon":5.37181,"is_reserved":false,"is_disabled":false,"rental_uris":{"android":"levelo://app?vid=ce65da15-5103-4c08-86e5-b4783ea2b238","ios":"levelo://app?vid=ce65da15-5103-4c08-86e5-b4783ea2b238"},"vehicle_type_id":"4","last_reported":1768990576,"current_range_meters":3600,"station_id":"ce4bgh92rcd13ifvqb40","pricing_plan_id":"cebpf4jnsgd1na2vs0mg"},{"bike_id":"b542d9be-979c-4406-9b40-3e9f44a01626","system_id":"levelo_inurba_marseille","lat":43.25564,"lon":5.38233,"is_reserved":false,"is_disabled":false,"rental_uris":{"android":"levelo://app?vid=b542d9be-979c-4406-9b40-3e9f44a01626","ios":"levelo://app?vid=b542d9be-979c-4406-9b40-3e9f44a01626"},"vehicle_type_id":"4","last_reported":1768990576,"current_range_meters":3600,"station_id":"ce4bhih2rcd13ifvqfs0","pricing_plan_id":"cebpf4jnsgd1na2vs0mg"},{"bike_id":"5d6ec190-4e3f-4728-8145-239caf53150f","system_id":"levelo_inurba_marseille","lat":43.30696,"lon":5.4032,"is_reserved":false,"is_disabled":false,"rental_uris":{"android":"levelo://app?vid=5d6ec190-4e3f-4728-8145-239caf53150f","ios":"levelo://app?vid=5d6ec190-4e3f-4728-8145-239caf53150f"},"vehicle_type_id":"4","last_reported":1768990576,"current_range_meters":3600,"station_id":"","pricing_plan_id":"cebpf4jnsgd1na2vs0mg"},{"bike_id":"31096d93-1491-4886-84da-d02432ca2a62","system_id":"levelo_inurba_marseille","lat":43.24156,"lon":5.36398,"is_reserved":false,"is_disabled":false,"rental_uris":{"android":"levelo://app?vid=31096d93-1491-4886-84da-d02432ca2a62","ios":"levelo://app?vid=31096d93-1491-4886-84da-d02432ca2a62"},"vehicle_type_id":"4","last_reported":1768990576,"current_range_meters":3600,"station_id":"cpo36qri1sfpv3e86is0","pricing_plan_id":"cebpf4jnsgd1na2vs0mg"},{"bike_id":"0e13d790-90a3-487d-b69b-8c70dc8e733c","system_id":"levelo_inurba_marseille","lat":43.27999,"lon":5.38676,"is_reserved":false,"is_disabled":false,"rental_uris":{"android":"levelo://app?vid=0e13d790-90a3-487d-b69b-8c70dc8e733c","ios":"levelo://app?vid=0e13d790-90a3-487d-b69b-8c70dc8e733c"},"vehicle_type_id":"4","last_reported":1768990576,"current_range_meters":4000,"station_id":"ce4bhg12rcd13ifvqf80","pricing_plan_id":"cebpf4jnsgd1na2vs0mg"},{"bike_id":"c01a2081-77b9-4bca-a28c-0a50c35491c9","system_id":"levelo_inurba_marseille","lat":43.29759,"lon":5.42785,"is_reserved":false,"is_disabled":false,"rental_uris":{"android":"levelo://app?vid=c01a2081-77b9-4bca-a28c-0a50c35491c9","ios":"levelo://app?vid=c01a2081-77b9-4bca-a28c-0a50c35491c9"},"vehicle_type_id":"4","last_reported":1768990576,"current_range_meters":4000,"station_id":"st_d3md5207bmas73dh9klg","pricing_plan_id":"cebpf4jnsgd1na2vs0mg"},{"bike_id":"73ae4884-9252-4ee5-8e21-86034c5de9a8","system_id":"levelo_inurba_marseille","lat":43.29174,"lon":5.37151,"is_reserved":false,"is_disabled":false,"rental_uris":{"android":"levelo://app?vid=73ae4884-9252-4ee5-8e21-86034c5de9a8","ios":"levelo://app?vid=73ae4884-9252-4ee5-8e21-86034c5de9a8"},"vehicle_type_id":"4","last_reported":1768990576,"current_range_meters":4000,"station_id":"ce4bha92rcd13ifvqeh0","pricing_plan_id":"cebpf4jnsgd1na2vs0mg"},{"bike_id":"4d9fb050-4361-4bab-ba3c-960b4264587c","system_id":"levelo_inurba_marseille","lat":43.33066,"lon":5.39052,"is_reserved":false,"is_disabled":false,"rental_uris":{"android":"levelo://app?vid=4d9fb050-4361-4bab-ba3c-960b4264587c","ios":"levelo://app?vid=4d9fb050-4361-4bab-ba3c-960b4264587c"},"vehicle_type_id":"4","last_reported":1768990576,"current_range_meters":4000,"station_id":"","pricing_plan_id":"cebpf4jnsgd1na2vs0mg"},{"bike_id":"d2cb0070-0422-466b-b462-1892f78475a2","system_id":"levelo_inurba_marseille","lat":43.22927,"lon":5.35407,"is_reserved":false,"is_disabled":true,"rental_uris":{"android":"levelo://app?vid=d2cb0070-0422-466b-b462-1892f78475a2","ios":"levelo://app?vid=d2cb0070-0422-466b-b462-1892f78475a2"},"vehicle_type_id":"4","last_reported":1768990576,"current_range_meters":4000,"station_id":"cpo3532slgdg3j2ikp40","pricing_plan_id":"cebpf4jnsgd1na2vs0mg"},{"bike_id":"52c85b02-607c-4226-bd7b-fd246dd2dae8","system_id":"levelo_inurba_marseille","lat":43.2256,"lon":5.41636,"is_reserved":false,"is_disabled":false,"rental_uris":{"android":"levelo://app?vid=52c85b02-607c-4226-bd7b-fd246dd2dae8","ios":"levelo://app?vid=52c85b02-607c-4226-bd7b-fd246dd2dae8"},"vehicle_type_id":"4","last_reported":1768990576,"current_range_meters":4000,"station_id":"st_d2o4gvlbi1j2169b742g","pricing_plan_id":"cebpf4jnsgd1na2vs0mg"},{"bike_id":"d21d2665-7535-4f09-8212-7d04d7b29927","system_id":"levelo_inurba_marseille","lat":43.32493,"lon":5.38297,"is_reserved":false,"is_disabled":false,"rental_uris":{"android":"levelo://app?vid=d21d2665-7535-4f09-8212-7d04d7b29927","ios":"levelo://app?vid=d21d2665-7535-4f09-8212-7d04d7b29927"},"vehicle_type_id":"4","last_reported":1768990576,"current_range_meters":4000,"station_id":"st_d4asgbiv49dc73anf9m0","pricing_plan_id":"cebpf4jnsgd1na2vs0mg"},{"bike_id":"f9c756b7-6ab4-4842-b242-46f06e32e85d","system_id":"levelo_inurba_marseille","lat":43.28012,"lon":5.39991,"is_reserved":false,"is_disabled":false,"rental_uris":{"android":"levelo://app?vid=f9c756b7-6ab4-4842-b242-46f06e32e85d","ios":"levelo://app?vid=f9c756b7-6ab4-4842-b242-46f06e32e85d"},"vehicle_type_id":"4","last_reported":1768990576,"current_range_meters":4400,"station_id":"ce4bho92rcd13ifvqh4g","pricing_plan_id":"cebpf4jnsgd1na2vs0mg"},{"bike_id":"3c5b1e7e-87c7-4a96-bd4f-174256b4cc8c","system_id":"levelo_inurba_marseille","lat":43.299131,"lon":5.381407,"is_reserved":false,"is_disabled":false,"rental_uris":{"android":"levelo://app?vid=3c5b1e7e-87c7-4a96-bd4f-174256b4cc8c","ios":"levelo://app?vid=3c5b1e7e-87c7-4a96-bd4f-174256b4cc8c"},"vehicle_type_id":"4","last_reported":1768990576,"current_range_meters":4400,"station_id":"ce4bgj12rcd13ifvqbc0","pricing_plan_id":"cebpf4jnsgd1na2vs0mg"},{"bike_id":"f58dc067-4dd9-4635-8ae5-365aced9c977","system_id":"levelo_inurba_marseille","lat":43.26183,"lon":5.40397,"is_reserved":false,"is_disabled":false,"rental_uris":{"android":"levelo://app?vid=f58dc067-4dd9-4635-8ae5-365aced9c977","ios":"levelo://app?vid=f58dc067-4dd9-4635-8ae5-365aced9c977"},"vehicle_type_id":"4","last_reported":1768990576,"current_range_meters":4400,"station_id":"ce4bhmh2rcd13ifvqgmg","pricing_plan_id":"cebpf4jnsgd1na2vs0mg"},{"bike_id":"8794cdb3-b07a-4a6a-b8a7-d49e68bcc2e0","system_id":"levelo_inurba_marseille","lat":43.27843,"lon":5.40746,"is_reserved":false,"is_disabled":false,"rental_uris":{"android":"levelo://app?vid=8794cdb3-b07a-4a6a-b8a7-d49e68bcc2e0","ios":"levelo://app?vid=8794cdb3-b07a-4a6a-b8a7-d49e68bcc2e0"},"vehicle_type_id":"4","last_reported":1768990576,"current_range_meters":4400,"station_id":"ce4bhnh2rcd13ifvqgtg","pricing_plan_id":"cebpf4jnsgd1na2vs0mg"},{"bike_id":"10483c0a-1726-407f-8492-2530493c0d67","system_id":"levelo_inurba_marseille","lat":43.25014,"lon":5.38927,"is_reserved":false,"is_disabled":false,"rental_uris":{"android":"levelo://app?vid=10483c0a-1726-407f-8492-2530493c0d67","ios":"levelo://app?vid=10483c0a-1726-407f-8492-2530493c0d67"},"vehicle_type_id":"4","last_reported":1768990576,"current_range_meters":4400,"station_id":"ce4bhgp2rcd13ifvqfd0","pricing_plan_id":"cebpf4jnsgd1na2vs0mg"},{"bike_id":"52a8e2dc-a331-438b-8cd8-653c6d5644ae","system_id":"levelo_inurba_marseille","lat":43.27905,"lon":5.38307,"is_reserved":false,"is_disabled":false,"rental_uris":{"android":"levelo://app?vid=52a8e2dc-a331-438b-8cd8-653c6d5644ae","ios":"levelo://app?vid=52a8e2dc-a331-438b-8cd8-653c6d5644ae"},"vehicle_type_id":"4","last_reported":1768990576,"current_range_meters":4400,"station_id":"","pricing_plan_id":"cebpf4jnsgd1na2vs0mg"},{"bike_id":"56aebe64-5e14-40af-99f2-62c233e94a99","system_id":"levelo_inurba_marseille","lat":43.29699,"lon":5.38729,"is_reserved":false,"is_disabled":false,"rental_uris":{"android":"levelo://app?vid=56aebe64-5e14-40af-99f2-62c233e94a99","ios":"levelo://app?vid=56aebe64-5e14-40af-99f2-62c233e94a99"},"vehicle_type_id":"4","last_reported":1768990576,"current_range_meters":4400,"station_id":"","pricing_plan_id":"cebpf4jnsgd1na2vs0mg"},{"bike_id":"5c5d8eba-7ee4-4e8f-8c15-5f2384fc7801","system_id":"levelo_inurba_marseille","lat":43.29932,"lon":5.36549,"is_reserved":false,"is_disabled":false,"rental_uris":{"android":"levelo://app?vid=5c5d8eba-7ee4-4e8f-8c15-5f2384fc7801","ios":"levelo://app?vid=5c5d8eba-7ee4-4e8f-8c15-5f2384fc7801"},"vehicle_type_id":"4","last_reported":1768990576,"current_range_meters":4400,"station_id":"ce4bgm92rcd13ifvqbr0","pricing_plan_id":"cebpf4jnsgd1na2vs0mg"},{"bike_id":"9dff9bae-d519-49ab-850f-a6b93762d1fc","system_id":"levelo_inurba_marseille","lat":43.25333,"lon":5.42173,"is_reserved":false,"is_disabled":false,"rental_uris":{"android":"levelo://app?vid=9dff9bae-d519-49ab-850f-a6b93762d1fc","ios":"levelo://app?vid=9dff9bae-d519-49ab-850f-a6b93762d1fc"},"vehicle_type_id":"4","last_reported":1768990576,"current_range_meters":4400,"station_id":"st_d2m65c5bi1j21697t3ng","pricing_plan_id":"cebpf4jnsgd1na2vs0mg"},{"bike_id":"4b68c0f2-a098-4371-9aa9-73b5399ef6fa","system_id":"levelo_inurba_marseille","lat":43.25567,"lon":5.38226,"is_reserved":false,"is_disabled":false,"rental_uris":{"android":"levelo://app?vid=4b68c0f2-a098-4371-9aa9-73b5399ef6fa","ios":"levelo://app?vid=4b68c0f2-a098-4371-9aa9-73b5399ef6fa"},"vehicle_type_id":"4","last_reported":1768990576,"current_range_meters":4400,"station_id":"ce4bhih2rcd13ifvqfs0","pricing_plan_id":"cebpf4jnsgd1na2vs0mg"},{"bike_id":"9212e46b-13fd-4057-8d99-2da36d0d74d0","system_id":"levelo_inurba_marseille","lat":43.26937,"lon":5.38651,"is_reserved":false,"is_disabled":false,"rental_uris":{"android":"levelo://app?vid=9212e46b-13fd-4057-8d99-2da36d0d74d0","ios":"levelo://app?vid=9212e46b-13fd-4057-8d99-2da36d0d74d0"},"vehicle_type_id":"4","last_reported":1768990576,"current_range_meters":4400,"station_id":"ce4bhh92rcd13ifvqfh0","pricing_plan_id":"cebpf4jnsgd1na2vs0mg"},{"bike_id":"053bfcff-e6f6-44b6-9d91-650c48e762bf","system_id":"levelo_inurba_marseille","lat":43.26783,"lon":5.3945,"is_reserved":false,"is_disabled":false,"rental_uris":{"android":"levelo://app?vid=053bfcff-e6f6-44b6-9d91-650c48e762bf","ios":"levelo://app?vid=053bfcff-e6f6-44b6-9d91-650c48e762bf"},"vehicle_type_id":"4","last_reported":1768990576,"current_range_meters":4800,"station_id":"ce4bhh12rcd13ifvqfg0","pricing_plan_id":"cebpf4jnsgd1na2vs0mg"},{"bike_id":"0741d286-8222-40c8-8fa6-1c495507f6b5","system_id":"levelo_inurba_marseille","lat":43.29288,"lon":5.36847,"is_reserved":false,"is_disabled":false,"rental_uris":{"android":"levelo://app?vid=0741d286-8222-40c8-8fa6-1c495507f6b5","ios":"levelo://app?vid=0741d286-8222-40c8-8fa6-1c495507f6b5"},"vehicle_type_id":"4","last_reported":1768990576,"current_range_meters":4800,"station_id":"ce4bhbp2rcd13ifvqesg","pricing_plan_id":"cebpf4jnsgd1na2vs0mg"},{"bike_id":"35eb0f0f-42a8-4fd5-956e-bec6aa3f7ee3","system_id":"levelo_inurba_marseille","lat":43.231788,"lon":5.399988,"is_reserved":false,"is_disabled":false,"rental_uris":{"android":"levelo://app?vid=35eb0f0f-42a8-4fd5-956e-bec6aa3f7ee3","ios":"levelo://app?vid=35eb0f0f-42a8-4fd5-956e-bec6aa3f7ee3"},"vehicle_type_id":"4","last_reported":1768990576,"current_range_meters":4800,"station_id":"ce4bhn12rcd13ifvqgqg","pricing_plan_id":"cebpf4jnsgd1na2vs0mg"},{"bike_id":"e775e37a-88b9-408c-8364-888bc63e91d3","system_id":"levelo_inurba_marseille","lat":43.2439,"lon":5.37106,"is_reserved":false,"is_disabled":false,"rental_uris":{"android":"levelo://app?vid=e775e37a-88b9-408c-8364-888bc63e91d3","ios":"levelo://app?vid=e775e37a-88b9-408c-8364-888bc63e91d3"},"vehicle_type_id":"4","last_reported":1768990576,"current_range_meters":4800,"station_id":"ce4bhhh2rcd13ifvqfk0","pricing_plan_id":"cebpf4jnsgd1na2vs0mg"},{"bike_id":"05445378-8a5d-473e-a02e-3796d63a29c8","system_id":"levelo_inurba_marseille","lat":43.26376,"lon":5.41111,"is_reserved":false,"is_disabled":false,"rental_uris":{"android":"levelo://app?vid=05445378-8a5d-473e-a02e-3796d63a29c8","ios":"levelo://app?vid=05445378-8a5d-473e-a02e-3796d63a29c8"},"vehicle_type_id":"4","last_reported":1768990576,"current_range_meters":4800,"station_id":"st_d4e5ca6na9uc73bfl5fg","pricing_plan_id":"cebpf4jnsgd1na2vs0mg"},{"bike_id":"ae82840e-6713-4278-be7e-382935799675","system_id":"levelo_inurba_marseille","lat":43.32345,"lon":5.38513,"is_reserved":false,"is_disabled":false,"rental_uris":{"android":"levelo://app?vid=ae82840e-6713-4278-be7e-382935799675","ios":"levelo://app?vid=ae82840e-6713-4278-be7e-382935799675"},"vehicle_type_id":"4","last_reported":1768990576,"current_range_meters":4800,"station_id":"st_d45171o9ee8s73djdqug","pricing_plan_id":"cebpf4jnsgd1na2vs0mg"},{"bike_id":"c9632c24-d4ba-453f-a643-952c5a012a8a","system_id":"levelo_inurba_marseille","lat":43.22572,"lon":5.41621,"is_reserved":false,"is_disabled":false,"rental_uris":{"android":"levelo://app?vid=c9632c24-d4ba-453f-a643-952c5a012a8a","ios":"levelo://app?vid=c9632c24-d4ba-453f-a643-952c5a012a8a"},"vehicle_type_id":"4","last_reported":1768990576,"current_range_meters":5600,"station_id":"st_d2o4gvlbi1j2169b742g","pricing_plan_id":"cebpf4jnsgd1na2vs0mg"},{"bike_id":"c8b36723-7039-4b4e-b709-3c4707457d93","system_id":"levelo_inurba_marseille","lat":43.23963,"lon":5.36649,"is_reserved":false,"is_disabled":false,"rental_uris":{"android":"levelo://app?vid=c8b36723-7039-4b4e-b709-3c4707457d93","ios":"levelo://app?vid=c8b36723-7039-4b4e-b709-3c4707457d93"},"vehicle_type_id":"4","last_reported":1768990576,"current_range_meters":5600,"station_id":"ce4bhi12rcd13ifvqfp0","pricing_plan_id":"cebpf4jnsgd1na2vs0mg"},{"bike_id":"04d1fa74-7078-4e54-86c0-c9d3f7b08c45","system_id":"levelo_inurba_marseille","lat":43.25577,"lon":5.3824,"is_reserved":false,"is_disabled":false,"rental_uris":{"android":"levelo://app?vid=04d1fa74-7078-4e54-86c0-c9d3f7b08c45","ios":"levelo://app?vid=04d1fa74-7078-4e54-86c0-c9d3f7b08c45"},"vehicle_type_id":"4","last_reported":1768990576,"current_range_meters":5600,"station_id":"ce4bhih2rcd13ifvqfs0","pricing_plan_id":"cebpf4jnsgd1na2vs0mg"},{"bike_id":"ff420292-33a4-47f1-b129-ae45e1e7b7ea","system_id":"levelo_inurba_marseille","lat":43.2919,"lon":5.36061,"is_reserved":false,"is_disabled":false,"rental_uris":{"android":"levelo://app?vid=ff420292-33a4-47f1-b129-ae45e1e7b7ea","ios":"levelo://app?vid=ff420292-33a4-47f1-b129-ae45e1e7b7ea"},"vehicle_type_id":"4","last_reported":1768990576,"current_range_meters":5600,"station_id":"ce4bhbh2rcd13ifvqeqg","pricing_plan_id":"cebpf4jnsgd1na2vs0mg"},{"bike_id":"7d2f250a-191b-441d-876b-7325dd6245a6","system_id":"levelo_inurba_marseille","lat":43.25001,"lon":5.38933,"is_reserved":false,"is_disabled":false,"rental_uris":{"android":"levelo://app?vid=7d2f250a-191b-441d-876b-7325dd6245a6","ios":"levelo://app?vid=7d2f250a-191b-441d-876b-7325dd6245a6"},"vehicle_type_id":"4","last_reported":1768990576,"current_range_meters":5600,"station_id":"ce4bhgp2rcd13ifvqfd0","pricing_plan_id":"cebpf4jnsgd1na2vs0mg"},{"bike_id":"87a84f1a-44a6-4bd8-83cc-698fe41789c4","system_id":"levelo_inurba_marseille","lat":43.290714,"lon":5.371711,"is_reserved":false,"is_disabled":false,"rental_uris":{"android":"levelo://app?vid=87a84f1a-44a6-4bd8-83cc-698fe41789c4","ios":"levelo://app?vid=87a84f1a-44a6-4bd8-83cc-698fe41789c4"},"vehicle_type_id":"4","last_reported":1768990576,"current_range_meters":5600,"station_id":"ce4bh5p2rcd13ifvqe4g","pricing_plan_id":"cebpf4jnsgd1na2vs0mg"},{"bike_id":"66160d64-23f9-4d70-b989-daa254cf260e","system_id":"levelo_inurba_marseille","lat":43.28155,"lon":5.42606,"is_reserved":false,"is_disabled":true,"rental_uris":{"android":"levelo://app?vid=66160d64-23f9-4d70-b989-daa254cf260e","ios":"levelo://app?vid=66160d64-23f9-4d70-b989-daa254cf260e"},"vehicle_type_id":"4","last_reported":1768990576,"current_range_meters":5600,"station_id":"ce4bhnh2rcd13ifvqgug","pricing_plan_id":"cebpf4jnsgd1na2vs0mg"},{"bike_id":"7667f2bf-976d-4261-8a3e-92df91d2fdcb","system_id":"levelo_inurba_marseille","lat":43.26796,"lon":5.39422,"is_reserved":false,"is_disabled":false,"rental_uris":{"android":"levelo://app?vid=7667f2bf-976d-4261-8a3e-92df91d2fdcb","ios":"levelo://app?vid=7667f2bf-976d-4261-8a3e-92df91d2fdcb"},"vehicle_type_id":"4","last_reported":1768990576,"current_range_meters":5600,"station_id":"ce4bhh12rcd13ifvqfg0","pricing_plan_id":"cebpf4jnsgd1na2vs0mg"},{"bike_id":"f28dab8c-22b5-43d8-96b4-ff15ffb80192","system_id":"levelo_inurba_marseille","lat":43.29761,"lon":5.42769,"is_reserved":false,"is_disabled":false,"rental_uris":{"android":"levelo://app?vid=f28dab8c-22b5-43d8-96b4-ff15ffb80192","ios":"levelo://app?vid=f28dab8c-22b5-43d8-96b4-ff15ffb80192"},"vehicle_type_id":"4","last_reported":1768990576,"current_range_meters":5600,"station_id":"st_d3md5207bmas73dh9klg","pricing_plan_id":"cebpf4jnsgd1na2vs0mg"},{"bike_id":"2cf1ea64-26bb-4964-939a-03465aee6659","system_id":"levelo_inurba_marseille","lat":43.22561,"lon":5.41621,"is_reserved":false,"is_disabled":false,"rental_uris":{"android":"levelo://app?vid=2cf1ea64-26bb-4964-939a-03465aee6659","ios":"levelo://app?vid=2cf1ea64-26bb-4964-939a-03465aee6659"},"vehicle_type_id":"4","last_reported":1768990576,"current_range_meters":5600,"station_id":"st_d2o4gvlbi1j2169b742g","pricing_plan_id":"cebpf4jnsgd1na2vs0mg"},{"bike_id":"a53ce889-7f48-423c-a39a-8f7e906a512a","system_id":"levelo_inurba_marseille","lat":43.2669,"lon":5.38278,"is_reserved":false,"is_disabled":false,"rental_uris":{"android":"levelo://app?vid=a53ce889-7f48-423c-a39a-8f7e906a512a","ios":"levelo://app?vid=a53ce889-7f48-423c-a39a-8f7e906a512a"},"vehicle_type_id":"4","last_reported":1768990576,"current_range_meters":6000,"station_id":"ce4bhg92rcd13ifvqf90","pricing_plan_id":"cebpf4jnsgd1na2vs0mg"},{"bike_id":"293136cd-5d42-4c08-9ddf-09ac7f96a32c","system_id":"levelo_inurba_marseille","lat":43.310766,"lon":5.383562,"is_reserved":false,"is_disabled":false,"rental_uris":{"android":"levelo://app?vid=293136cd-5d42-4c08-9ddf-09ac7f96a32c","ios":"levelo://app?vid=293136cd-5d42-4c08-9ddf-09ac7f96a32c"},"vehicle_type_id":"4","last_reported":1768990576,"current_range_meters":6000,"station_id":"ce4bgv92rcd13ifvqcr0","pricing_plan_id":"cebpf4jnsgd1na2vs0mg"},{"bike_id":"dcf8f2c8-09f3-49b6-bb1e-f52ff55b4501","system_id":"levelo_inurba_marseille","lat":43.30549,"lon":5.36708,"is_reserved":false,"is_disabled":false,"rental_uris":{"android":"levelo://app?vid=dcf8f2c8-09f3-49b6-bb1e-f52ff55b4501","ios":"levelo://app?vid=dcf8f2c8-09f3-49b6-bb1e-f52ff55b4501"},"vehicle_type_id":"4","last_reported":1768990576,"current_range_meters":6000,"station_id":"ce4bgrp2rcd13ifvqc9g","pricing_plan_id":"cebpf4jnsgd1na2vs0mg"},{"bike_id":"7c860edb-32a4-4e9c-bf66-fe03b3b3e5ba","system_id":"levelo_inurba_marseille","lat":43.31701,"lon":5.3782,"is_reserved":false,"is_disabled":false,"rental_uris":{"android":"levelo://app?vid=7c860edb-32a4-4e9c-bf66-fe03b3b3e5ba","ios":"levelo://app?vid=7c860edb-32a4-4e9c-bf66-fe03b3b3e5ba"},"vehicle_type_id":"4","last_reported":1768990576,"current_range_meters":6000,"station_id":"ce4bgth2rcd13ifvqch0","pricing_plan_id":"cebpf4jnsgd1na2vs0mg"},{"bike_id":"02b19501-ae2b-4d21-ae93-ce26586838ae","system_id":"levelo_inurba_marseille","lat":43.29555,"lon":5.42313,"is_reserved":false,"is_disabled":false,"rental_uris":{"android":"levelo://app?vid=02b19501-ae2b-4d21-ae93-ce26586838ae","ios":"levelo://app?vid=02b19501-ae2b-4d21-ae93-ce26586838ae"},"vehicle_type_id":"4","last_reported":1768990576,"current_range_meters":6000,"station_id":"ce4bhph2rcd13ifvqhdg","pricing_plan_id":"cebpf4jnsgd1na2vs0mg"},{"bike_id":"faaacbc1-5a19-4efa-9ae2-5a94ffe333dc","system_id":"levelo_inurba_marseille","lat":43.29077,"lon":5.39995,"is_reserved":false,"is_disabled":false,"rental_uris":{"android":"levelo://app?vid=faaacbc1-5a19-4efa-9ae2-5a94ffe333dc","ios":"levelo://app?vid=faaacbc1-5a19-4efa-9ae2-5a94ffe333dc"},"vehicle_type_id":"4","last_reported":1768990576,"current_range_meters":6000,"station_id":"ce4bh392rcd13ifvqdm0","pricing_plan_id":"cebpf4jnsgd1na2vs0mg"},{"bike_id":"c103ce9c-0aaa-4a53-b373-a704be8ed706","system_id":"levelo_inurba_marseille","lat":43.2534,"lon":5.42154,"is_reserved":false,"is_disabled":false,"rental_uris":{"android":"levelo://app?vid=c103ce9c-0aaa-4a53-b373-a704be8ed706","ios":"levelo://app?vid=c103ce9c-0aaa-4a53-b373-a704be8ed706"},"vehicle_type_id":"4","last_reported":1768990576,"current_range_meters":6000,"station_id":"st_d2m65c5bi1j21697t3ng","pricing_plan_id":"cebpf4jnsgd1na2vs0mg"},{"bike_id":"6ed8c7ae-caef-4abd-a9d4-aaf7d0882a8a","system_id":"levelo_inurba_marseille","lat":43.29606,"lon":5.37709,"is_reserved":false,"is_disabled":false,"rental_uris":{"android":"levelo://app?vid=6ed8c7ae-caef-4abd-a9d4-aaf7d0882a8a","ios":"levelo://app?vid=6ed8c7ae-caef-4abd-a9d4-aaf7d0882a8a"},"vehicle_type_id":"4","last_reported":1768990576,"current_range_meters":6000,"station_id":"ce4bgi92rcd13ifvqb90","pricing_plan_id":"cebpf4jnsgd1na2vs0mg"},{"bike_id":"5dbfcf3f-7cec-4c29-8168-14f9c37f7762","system_id":"levelo_inurba_marseille","lat":43.22555,"lon":5.41637,"is_reserved":false,"is_disabled":false,"rental_uris":{"android":"levelo://app?vid=5dbfcf3f-7cec-4c29-8168-14f9c37f7762","ios":"levelo://app?vid=5dbfcf3f-7cec-4c29-8168-14f9c37f7762"},"vehicle_type_id":"4","last_reported":1768990576,"current_range_meters":6000,"station_id":"st_d2o4gvlbi1j2169b742g","pricing_plan_id":"cebpf4jnsgd1na2vs0mg"},{"bike_id":"b121601a-6e7a-428f-a3ab-7a3f4a6e400e","system_id":"levelo_inurba_marseille","lat":43.27497,"lon":5.42455,"is_reserved":false,"is_disabled":false,"rental_uris":{"android":"levelo://app?vid=b121601a-6e7a-428f-a3ab-7a3f4a6e400e","ios":"levelo://app?vid=b121601a-6e7a-428f-a3ab-7a3f4a6e400e"},"vehicle_type_id":"4","last_reported":1768990576,"current_range_meters":6000,"station_id":"ce4bhn92rcd13ifvqgrg","pricing_plan_id":"cebpf4jnsgd1na2vs0mg"},{"bike_id":"fe1b5e20-be92-4ec8-b2e3-fe1343feecc9","system_id":"levelo_inurba_marseille","lat":43.30433,"lon":5.39762,"is_reserved":false,"is_disabled":false,"rental_uris":{"android":"levelo://app?vid=fe1b5e20-be92-4ec8-b2e3-fe1343feecc9","ios":"levelo://app?vid=fe1b5e20-be92-4ec8-b2e3-fe1343feecc9"},"vehicle_type_id":"4","last_reported":1768990576,"current_range_meters":6000,"station_id":"ce4bh092rcd13ifvqd20","pricing_plan_id":"cebpf4jnsgd1na2vs0mg"},{"bike_id":"8155f86b-6d64-4287-9ed7-7fbe9d103dde","system_id":"levelo_inurba_marseille","lat":43.22563,"lon":5.41626,"is_reserved":false,"is_disabled":false,"rental_uris":{"android":"levelo://app?vid=8155f86b-6d64-4287-9ed7-7fbe9d103dde","ios":"levelo://app?vid=8155f86b-6d64-4287-9ed7-7fbe9d103dde"},"vehicle_type_id":"4","last_reported":1768990576,"current_range_meters":6000,"station_id":"st_d2o4gvlbi1j2169b742g","pricing_plan_id":"cebpf4jnsgd1na2vs0mg"},{"bike_id":"7f57e4b7-adcc-40f6-a2f9-1294ef7abba0","system_id":"levelo_inurba_marseille","lat":43.30885,"lon":5.36857,"is_reserved":false,"is_disabled":false,"rental_uris":{"android":"levelo://app?vid=7f57e4b7-adcc-40f6-a2f9-1294ef7abba0","ios":"levelo://app?vid=7f57e4b7-adcc-40f6-a2f9-1294ef7abba0"},"vehicle_type_id":"4","last_reported":1768990576,"current_range_meters":6400,"station_id":"ce4bgn92rcd13ifvqbvg","pricing_plan_id":"cebpf4jnsgd1na2vs0mg"},{"bike_id":"b20e1abe-9c71-4746-af9e-938b9fabdb3f","system_id":"levelo_inurba_marseille","lat":43.31363,"lon":5.38484,"is_reserved":false,"is_disabled":false,"rental_uris":{"android":"levelo://app?vid=b20e1abe-9c71-4746-af9e-938b9fabdb3f","ios":"levelo://app?vid=b20e1abe-9c71-4746-af9e-938b9fabdb3f"},"vehicle_type_id":"4","last_reported":1768990576,"current_range_meters":6400,"station_id":"ce4bgt92rcd13ifvqcf0","pricing_plan_id":"cebpf4jnsgd1na2vs0mg"},{"bike_id":"619e29a9-4be3-462f-83e3-b5cb89740787","system_id":"levelo_inurba_marseille","lat":43.24072,"lon":5.37751,"is_reserved":false,"is_disabled":false,"rental_uris":{"android":"levelo://app?vid=619e29a9-4be3-462f-83e3-b5cb89740787","ios":"levelo://app?vid=619e29a9-4be3-462f-83e3-b5cb89740787"},"vehicle_type_id":"4","last_reported":1768990576,"current_range_meters":6400,"station_id":"ce4bhnp2rcd13ifvqgvg","pricing_plan_id":"cebpf4jnsgd1na2vs0mg"},{"bike_id":"4eba8ab0-a760-4c8f-be2e-adcd88a4d0b1","system_id":"levelo_inurba_marseille","lat":43.26482,"lon":5.39565,"is_reserved":false,"is_disabled":false,"rental_uris":{"android":"levelo://app?vid=4eba8ab0-a760-4c8f-be2e-adcd88a4d0b1","ios":"levelo://app?vid=4eba8ab0-a760-4c8f-be2e-adcd88a4d0b1"},"vehicle_type_id":"4","last_reported":1768990576,"current_range_meters":6400,"station_id":"ce4bhi12rcd13ifvqfq0","pricing_plan_id":"cebpf4jnsgd1na2vs0mg"},{"bike_id":"02bb5eed-6d46-4907-942b-2953f5d09c0c","system_id":"levelo_inurba_marseille","lat":43.30918,"lon":5.36848,"is_reserved":false,"is_disabled":false,"rental_uris":{"android":"levelo://app?vid=02bb5eed-6d46-4907-942b-2953f5d09c0c","ios":"levelo://app?vid=02bb5eed-6d46-4907-942b-2953f5d09c0c"},"vehicle_type_id":"4","last_reported":1768990576,"current_range_meters":6400,"station_id":"ce4bgn92rcd13ifvqbvg","pricing_plan_id":"cebpf4jnsgd1na2vs0mg"},{"bike_id":"ae14426c-d055-48d5-a4ff-6e0b03ad465f","system_id":"levelo_inurba_marseille","lat":43.25826,"lon":5.3943,"is_reserved":false,"is_disabled":false,"rental_uris":{"android":"levelo://app?vid=ae14426c-d055-48d5-a4ff-6e0b03ad465f","ios":"levelo://app?vid=ae14426c-d055-48d5-a4ff-6e0b03ad465f"},"vehicle_type_id":"4","last_reported":1768990576,"current_range_meters":6400,"station_id":"ce4bhip2rcd13ifvqft0","pricing_plan_id":"cebpf4jnsgd1na2vs0mg"},{"bike_id":"5b4297a0-0ac4-4bd0-9a55-c6c4e22e8f86","system_id":"levelo_inurba_marseille","lat":43.29071,"lon":5.39992,"is_reserved":false,"is_disabled":false,"rental_uris":{"android":"levelo://app?vid=5b4297a0-0ac4-4bd0-9a55-c6c4e22e8f86","ios":"levelo://app?vid=5b4297a0-0ac4-4bd0-9a55-c6c4e22e8f86"},"vehicle_type_id":"4","last_reported":1768990576,"current_range_meters":6400,"station_id":"ce4bh392rcd13ifvqdm0","pricing_plan_id":"cebpf4jnsgd1na2vs0mg"},{"bike_id":"1edb5c63-c990-41f9-b5b2-f4a8f1d1a7f0","system_id":"levelo_inurba_marseille","lat":43.2657,"lon":5.39009,"is_reserved":false,"is_disabled":false,"rental_uris":{"android":"levelo://app?vid=1edb5c63-c990-41f9-b5b2-f4a8f1d1a7f0","ios":"levelo://app?vid=1edb5c63-c990-41f9-b5b2-f4a8f1d1a7f0"},"vehicle_type_id":"4","last_reported":1768990576,"current_range_meters":6400,"station_id":"ce4bhe12rcd13ifvqf30","pricing_plan_id":"cebpf4jnsgd1na2vs0mg"},{"bike_id":"a1bd2c02-f564-4521-8b18-c32914bc01b2","system_id":"levelo_inurba_marseille","lat":43.25921,"lon":5.40889,"is_reserved":false,"is_disabled":false,"rental_uris":{"android":"levelo://app?vid=a1bd2c02-f564-4521-8b18-c32914bc01b2","ios":"levelo://app?vid=a1bd2c02-f564-4521-8b18-c32914bc01b2"},"vehicle_type_id":"4","last_reported":1768990576,"current_range_meters":6400,"station_id":"ce4bhm92rcd13ifvqglg","pricing_plan_id":"cebpf4jnsgd1na2vs0mg"},{"bike_id":"db1c9188-1f27-4bd4-888f-08df2e2a3d7e","system_id":"levelo_inurba_marseille","lat":43.30299,"lon":5.39225,"is_reserved":false,"is_disabled":false,"rental_uris":{"android":"levelo://app?vid=db1c9188-1f27-4bd4-888f-08df2e2a3d7e","ios":"levelo://app?vid=db1c9188-1f27-4bd4-888f-08df2e2a3d7e"},"vehicle_type_id":"4","last_reported":1768990576,"current_range_meters":6800,"station_id":"ce4bgkh2rcd13ifvqbk0","pricing_plan_id":"cebpf4jnsgd1na2vs0mg"},{"bike_id":"e9cf4d98-a47d-4cc7-82f6-b2e075f45c6a","system_id":"levelo_inurba_marseille","lat":43.22557,"lon":5.41647,"is_reserved":false,"is_disabled":false,"rental_uris":{"android":"levelo://app?vid=e9cf4d98-a47d-4cc7-82f6-b2e075f45c6a","ios":"levelo://app?vid=e9cf4d98-a47d-4cc7-82f6-b2e075f45c6a"},"vehicle_type_id":"4","last_reported":1768990576,"current_range_meters":6800,"station_id":"st_d2o4gvlbi1j2169b742g","pricing_plan_id":"cebpf4jnsgd1na2vs0mg"},{"bike_id":"993f1288-6929-4206-b35f-06e772769526","system_id":"levelo_inurba_marseille","lat":43.30733,"lon":5.4244,"is_reserved":false,"is_disabled":false,"rental_uris":{"android":"levelo://app?vid=993f1288-6929-4206-b35f-06e772769526","ios":"levelo://app?vid=993f1288-6929-4206-b35f-06e772769526"},"vehicle_type_id":"4","last_reported":1768990576,"current_range_meters":6800,"station_id":"st_cvj6ca6bvosntc0bfgr0","pricing_plan_id":"cebpf4jnsgd1na2vs0mg"},{"bike_id":"67ff9a75-4fe8-45e7-914d-fc416a457597","system_id":"levelo_inurba_marseille","lat":43.32109,"lon":5.36762,"is_reserved":false,"is_disabled":false,"rental_uris":{"android":"levelo://app?vid=67ff9a75-4fe8-45e7-914d-fc416a457597","ios":"levelo://app?vid=67ff9a75-4fe8-45e7-914d-fc416a457597"},"vehicle_type_id":"4","last_reported":1768990576,"current_range_meters":6800,"station_id":"ce4bhrh2rcd13ifvqhug","pricing_plan_id":"cebpf4jnsgd1na2vs0mg"},{"bike_id":"fc4e3a66-55ac-450e-a159-861862597655","system_id":"levelo_inurba_marseille","lat":43.27304,"lon":5.39103,"is_reserved":false,"is_disabled":false,"rental_uris":{"android":"levelo://app?vid=fc4e3a66-55ac-450e-a159-861862597655","ios":"levelo://app?vid=fc4e3a66-55ac-450e-a159-861862597655"},"vehicle_type_id":"4","last_reported":1768990576,"current_range_meters":6800,"station_id":"ce4bhgp2rcd13ifvqfe0","pricing_plan_id":"cebpf4jnsgd1na2vs0mg"},{"bike_id":"a3e2caaf-f379-45ac-a2b8-d61c1da080dd","system_id":"levelo_inurba_marseille","lat":43.3249,"lon":5.38279,"is_reserved":false,"is_disabled":true,"rental_uris":{"android":"levelo://app?vid=a3e2caaf-f379-45ac-a2b8-d61c1da080dd","ios":"levelo://app?vid=a3e2caaf-f379-45ac-a2b8-d61c1da080dd"},"vehicle_type_id":"4","last_reported":1768990576,"current_range_meters":6800,"station_id":"st_d4asgbiv49dc73anf9m0","pricing_plan_id":"cebpf4jnsgd1na2vs0mg"},{"bike_id":"8069f374-6bb2-4df8-950d-be2e50fcd180","system_id":"levelo_inurba_marseille","lat":43.31151,"lon":5.37758,"is_reserved":false,"is_disabled":true,"rental_uris":{"android":"levelo://app?vid=8069f374-6bb2-4df8-950d-be2e50fcd180","ios":"levelo://app?vid=8069f374-6bb2-4df8-950d-be2e50fcd180"},"vehicle_type_id":"4","last_reported":1768990576,"current_range_meters":6800,"station_id":"ce4bgt92rcd13ifvqcg0","pricing_plan_id":"cebpf4jnsgd1na2vs0mg"},{"bike_id":"511fc97e-4342-48bd-969a-a85990179b2c","system_id":"levelo_inurba_marseille","lat":43.30108,"lon":5.38113,"is_reserved":false,"is_disabled":false,"rental_uris":{"android":"levelo://app?vid=511fc97e-4342-48bd-969a-a85990179b2c","ios":"levelo://app?vid=511fc97e-4342-48bd-969a-a85990179b2c"},"vehicle_type_id":"4","last_reported":1768990576,"current_range_meters":6800,"station_id":"ce4bgjp2rcd13ifvqbh0","pricing_plan_id":"cebpf4jnsgd1na2vs0mg"},{"bike_id":"56496f15-285b-4dff-92b3-54ffdff3e399","system_id":"levelo_inurba_marseille","lat":43.268253,"lon":5.395962,"is_reserved":false,"is_disabled":false,"rental_uris":{"android":"levelo://app?vid=56496f15-285b-4dff-92b3-54ffdff3e399","ios":"levelo://app?vid=56496f15-285b-4dff-92b3-54ffdff3e399"},"vehicle_type_id":"4","last_reported":1768990576,"current_range_meters":6800,"station_id":"","pricing_plan_id":"cebpf4jnsgd1na2vs0mg"},{"bike_id":"6b0a7910-4f3c-47d6-b165-5319282e4ed9","system_id":"levelo_inurba_marseille","lat":43.33538,"lon":5.37446,"is_reserved":false,"is_disabled":false,"rental_uris":{"android":"levelo://app?vid=6b0a7910-4f3c-47d6-b165-5319282e4ed9","ios":"levelo://app?vid=6b0a7910-4f3c-47d6-b165-5319282e4ed9"},"vehicle_type_id":"4","last_reported":1768990576,"current_range_meters":6800,"station_id":"","pricing_plan_id":"cebpf4jnsgd1na2vs0mg"},{"bike_id":"5b1bd5c9-d178-476d-b09d-36e29337329a","system_id":"levelo_inurba_marseille","lat":43.2956,"lon":5.37533,"is_reserved":false,"is_disabled":false,"rental_uris":{"android":"levelo://app?vid=5b1bd5c9-d178-476d-b09d-36e29337329a","ios":"levelo://app?vid=5b1bd5c9-d178-476d-b09d-36e29337329a"},"vehicle_type_id":"4","last_reported":1768990576,"current_range_meters":6800,"station_id":"ce4bgh92rcd13ifvqb50","pricing_plan_id":"cebpf4jnsgd1na2vs0mg"},{"bike_id":"8f6720ee-6d73-4b90-9795-6388a8527dfc","system_id":"levelo_inurba_marseille","lat":43.240742,"lon":5.377607,"is_reserved":false,"is_disabled":false,"rental_uris":{"android":"levelo://app?vid=8f6720ee-6d73-4b90-9795-6388a8527dfc","ios":"levelo://app?vid=8f6720ee-6d73-4b90-9795-6388a8527dfc"},"vehicle_type_id":"4","last_reported":1768990576,"current_range_meters":6800,"station_id":"ce4bhc92rcd13ifvqetg","pricing_plan_id":"cebpf4jnsgd1na2vs0mg"},{"bike_id":"f95122a3-6668-4583-b826-9418658a5a04","system_id":"levelo_inurba_marseille","lat":43.291841,"lon":5.372421,"is_reserved":false,"is_disabled":false,"rental_uris":{"android":"levelo://app?vid=f95122a3-6668-4583-b826-9418658a5a04","ios":"levelo://app?vid=f95122a3-6668-4583-b826-9418658a5a04"},"vehicle_type_id":"4","last_reported":1768990576,"current_range_meters":6800,"station_id":"ce4bha92rcd13ifvqeh0","pricing_plan_id":"cebpf4jnsgd1na2vs0mg"},{"bike_id":"bc53fded-5652-4ab5-920f-ec142a69c388","system_id":"levelo_inurba_marseille","lat":43.29782,"lon":5.3937,"is_reserved":false,"is_disabled":false,"rental_uris":{"android":"levelo://app?vid=bc53fded-5652-4ab5-920f-ec142a69c388","ios":"levelo://app?vid=bc53fded-5652-4ab5-920f-ec142a69c388"},"vehicle_type_id":"4","last_reported":1768990576,"current_range_meters":6800,"station_id":"chh1huq6cuj3fo74tm60","pricing_plan_id":"cebpf4jnsgd1na2vs0mg"},{"bike_id":"37bf797b-18ef-4836-9cb3-d3ead8cb520d","system_id":"levelo_inurba_marseille","lat":43.29973,"lon":5.38495,"is_reserved":false,"is_disabled":true,"rental_uris":{"android":"levelo://app?vid=37bf797b-18ef-4836-9cb3-d3ead8cb520d","ios":"levelo://app?vid=37bf797b-18ef-4836-9cb3-d3ead8cb520d"},"vehicle_type_id":"4","last_reported":1768990576,"current_range_meters":6800,"station_id":"ce4bgj92rcd13ifvqbd0","pricing_plan_id":"cebpf4jnsgd1na2vs0mg"},{"bike_id":"8601f452-8783-4df4-9843-86b8cb8fc416","system_id":"levelo_inurba_marseille","lat":43.29308,"lon":5.37156,"is_reserved":false,"is_disabled":false,"rental_uris":{"android":"levelo://app?vid=8601f452-8783-4df4-9843-86b8cb8fc416","ios":"levelo://app?vid=8601f452-8783-4df4-9843-86b8cb8fc416"},"vehicle_type_id":"4","last_reported":1768990576,"current_range_meters":6800,"station_id":"ce4bgh92rcd13ifvqb40","pricing_plan_id":"cebpf4jnsgd1na2vs0mg"},{"bike_id":"60148071-7ffe-4c05-9362-c2fce58ba206","system_id":"levelo_inurba_marseille","lat":43.279846,"lon":5.416647,"is_reserved":false,"is_disabled":false,"rental_uris":{"android":"levelo://app?vid=60148071-7ffe-4c05-9362-c2fce58ba206","ios":"levelo://app?vid=60148071-7ffe-4c05-9362-c2fce58ba206"},"vehicle_type_id":"4","last_reported":1768990576,"current_range_meters":6800,"station_id":"ce4bho12rcd13ifvqh1g","pricing_plan_id":"cebpf4jnsgd1na2vs0mg"},{"bike_id":"1e9683fd-3419-4707-ab97-e3b80d5f4bea","system_id":"levelo_inurba_marseille","lat":43.27158,"lon":5.40458,"is_reserved":false,"is_disabled":false,"rental_uris":{"android":"levelo://app?vid=1e9683fd-3419-4707-ab97-e3b80d5f4bea","ios":"levelo://app?vid=1e9683fd-3419-4707-ab97-e3b80d5f4bea"},"vehicle_type_id":"4","last_reported":1768990576,"current_range_meters":6800,"station_id":"","pricing_plan_id":"cebpf4jnsgd1na2vs0mg"},{"bike_id":"b99aaddc-1726-460c-84a6-0a94e13d2bd1","system_id":"levelo_inurba_marseille","lat":43.30474,"lon":5.37914,"is_reserved":false,"is_disabled":false,"rental_uris":{"android":"levelo://app?vid=b99aaddc-1726-460c-84a6-0a94e13d2bd1","ios":"levelo://app?vid=b99aaddc-1726-460c-84a6-0a94e13d2bd1"},"vehicle_type_id":"4","last_reported":1768990576,"current_range_meters":6800,"station_id":"ce4bgup2rcd13ifvqcn0","pricing_plan_id":"cebpf4jnsgd1na2vs0mg"},{"bike_id":"5751443d-1e68-4681-971c-4c283c875c94","system_id":"levelo_inurba_marseille","lat":43.24395,"lon":5.3706,"is_reserved":false,"is_disabled":false,"rental_uris":{"android":"levelo://app?vid=5751443d-1e68-4681-971c-4c283c875c94","ios":"levelo://app?vid=5751443d-1e68-4681-971c-4c283c875c94"},"vehicle_type_id":"4","last_reported":1768990576,"current_range_meters":6800,"station_id":"ce4bhhh2rcd13ifvqfk0","pricing_plan_id":"cebpf4jnsgd1na2vs0mg"},{"bike_id":"e6df6fb7-994b-4037-99d6-76175fe9a7d0","system_id":"levelo_inurba_marseille","lat":43.23183,"lon":5.40005,"is_reserved":false,"is_disabled":false,"rental_uris":{"android":"levelo://app?vid=e6df6fb7-994b-4037-99d6-76175fe9a7d0","ios":"levelo://app?vid=e6df6fb7-994b-4037-99d6-76175fe9a7d0"},"vehicle_type_id":"4","last_reported":1768990576,"current_range_meters":6800,"station_id":"ce4bhn12rcd13ifvqgqg","pricing_plan_id":"cebpf4jnsgd1na2vs0mg"},{"bike_id":"e7f76cdd-69c1-4b4a-aab9-81b38847c33b","system_id":"levelo_inurba_marseille","lat":43.24383,"lon":5.37061,"is_reserved":false,"is_disabled":false,"rental_uris":{"android":"levelo://app?vid=e7f76cdd-69c1-4b4a-aab9-81b38847c33b","ios":"levelo://app?vid=e7f76cdd-69c1-4b4a-aab9-81b38847c33b"},"vehicle_type_id":"4","last_reported":1768990576,"current_range_meters":6800,"station_id":"ce4bhhh2rcd13ifvqfk0","pricing_plan_id":"cebpf4jnsgd1na2vs0mg"},{"bike_id":"24efff43-3e2c-4c39-956d-a24897b2024e","system_id":"levelo_inurba_marseille","lat":43.26555,"lon":5.39045,"is_reserved":false,"is_disabled":false,"rental_uris":{"android":"levelo://app?vid=24efff43-3e2c-4c39-956d-a24897b2024e","ios":"levelo://app?vid=24efff43-3e2c-4c39-956d-a24897b2024e"},"vehicle_type_id":"4","last_reported":1768990576,"current_range_meters":6800,"station_id":"ce4bhe12rcd13ifvqf30","pricing_plan_id":"cebpf4jnsgd1na2vs0mg"},{"bike_id":"e47dfb0a-fd42-4915-8bd4-c942b77cb4c9","system_id":"levelo_inurba_marseille","lat":43.2557,"lon":5.382362,"is_reserved":false,"is_disabled":false,"rental_uris":{"android":"levelo://app?vid=e47dfb0a-fd42-4915-8bd4-c942b77cb4c9","ios":"levelo://app?vid=e47dfb0a-fd42-4915-8bd4-c942b77cb4c9"},"vehicle_type_id":"4","last_reported":1768990576,"current_range_meters":6800,"station_id":"ce4bhih2rcd13ifvqfs0","pricing_plan_id":"cebpf4jnsgd1na2vs0mg"},{"bike_id":"29bfec45-ad76-429c-882a-34b6f5ca4191","system_id":"levelo_inurba_marseille","lat":43.3212,"lon":5.36772,"is_reserved":false,"is_disabled":false,"rental_uris":{"android":"levelo://app?vid=29bfec45-ad76-429c-882a-34b6f5ca4191","ios":"levelo://app?vid=29bfec45-ad76-429c-882a-34b6f5ca4191"},"vehicle_type_id":"4","last_reported":1768990576,"current_range_meters":6800,"station_id":"ce4bhrh2rcd13ifvqhug","pricing_plan_id":"cebpf4jnsgd1na2vs0mg"},{"bike_id":"f3f27d86-0784-4222-889b-15433e5b0baf","system_id":"levelo_inurba_marseille","lat":43.24464,"lon":5.42532,"is_reserved":false,"is_disabled":false,"rental_uris":{"android":"levelo://app?vid=f3f27d86-0784-4222-889b-15433e5b0baf","ios":"levelo://app?vid=f3f27d86-0784-4222-889b-15433e5b0baf"},"vehicle_type_id":"4","last_reported":1768990576,"current_range_meters":7200,"station_id":"st_d4a3vfp97mjs738cd8kg","pricing_plan_id":"cebpf4jnsgd1na2vs0mg"},{"bike_id":"279ecc0c-732d-4b1d-b5af-667c2f79f52d","system_id":"levelo_inurba_marseille","lat":43.23143,"lon":5.4369,"is_reserved":false,"is_disabled":false,"rental_uris":{"android":"levelo://app?vid=279ecc0c-732d-4b1d-b5af-667c2f79f52d","ios":"levelo://app?vid=279ecc0c-732d-4b1d-b5af-667c2f79f52d"},"vehicle_type_id":"4","last_reported":1768990576,"current_range_meters":7200,"station_id":"ce4bhmp2rcd13ifvqgog","pricing_plan_id":"cebpf4jnsgd1na2vs0mg"},{"bike_id":"ae45e7b8-de7c-45e5-8163-1690f33217ae","system_id":"levelo_inurba_marseille","lat":43.301547,"lon":5.380753,"is_reserved":false,"is_disabled":false,"rental_uris":{"android":"levelo://app?vid=ae45e7b8-de7c-45e5-8163-1690f33217ae","ios":"levelo://app?vid=ae45e7b8-de7c-45e5-8163-1690f33217ae"},"vehicle_type_id":"4","last_reported":1768990576,"current_range_meters":7200,"station_id":"ce4bgjp2rcd13ifvqbh0","pricing_plan_id":"cebpf4jnsgd1na2vs0mg"},{"bike_id":"f73788f7-dec5-4308-a431-6e346b811946","system_id":"levelo_inurba_marseille","lat":43.30177,"lon":5.38069,"is_reserved":false,"is_disabled":false,"rental_uris":{"android":"levelo://app?vid=f73788f7-dec5-4308-a431-6e346b811946","ios":"levelo://app?vid=f73788f7-dec5-4308-a431-6e346b811946"},"vehicle_type_id":"4","last_reported":1768990576,"current_range_meters":7200,"station_id":"ce4bgjp2rcd13ifvqbh0","pricing_plan_id":"cebpf4jnsgd1na2vs0mg"},{"bike_id":"99d65f09-c0e6-4f0f-b72f-6e110c0f1bd4","system_id":"levelo_inurba_marseille","lat":43.2898,"lon":5.3762,"is_reserved":false,"is_disabled":false,"rental_uris":{"android":"levelo://app?vid=99d65f09-c0e6-4f0f-b72f-6e110c0f1bd4","ios":"levelo://app?vid=99d65f09-c0e6-4f0f-b72f-6e110c0f1bd4"},"vehicle_type_id":"4","last_reported":1768990576,"current_range_meters":7200,"station_id":"","pricing_plan_id":"cebpf4jnsgd1na2vs0mg"},{"bike_id":"5f477738-733e-4c98-961a-33429c5938fd","system_id":"levelo_inurba_marseille","lat":43.260586,"lon":5.393984,"is_reserved":false,"is_disabled":false,"rental_uris":{"android":"levelo://app?vid=5f477738-733e-4c98-961a-33429c5938fd","ios":"levelo://app?vid=5f477738-733e-4c98-961a-33429c5938fd"},"vehicle_type_id":"4","last_reported":1768990576,"current_range_meters":7200,"station_id":"ce4bhh92rcd13ifvqfj0","pricing_plan_id":"cebpf4jnsgd1na2vs0mg"},{"bike_id":"9fe9b7fa-bf5e-456b-b148-d56a572e2392","system_id":"levelo_inurba_marseille","lat":43.22561,"lon":5.41624,"is_reserved":false,"is_disabled":false,"rental_uris":{"android":"levelo://app?vid=9fe9b7fa-bf5e-456b-b148-d56a572e2392","ios":"levelo://app?vid=9fe9b7fa-bf5e-456b-b148-d56a572e2392"},"vehicle_type_id":"4","last_reported":1768990576,"current_range_meters":7200,"station_id":"st_d2o4gvlbi1j2169b742g","pricing_plan_id":"cebpf4jnsgd1na2vs0mg"},{"bike_id":"2351e1c9-97c0-42ed-8ba7-93d168c64106","system_id":"levelo_inurba_marseille","lat":43.29774,"lon":5.42771,"is_reserved":false,"is_disabled":false,"rental_uris":{"android":"levelo://app?vid=2351e1c9-97c0-42ed-8ba7-93d168c64106","ios":"levelo://app?vid=2351e1c9-97c0-42ed-8ba7-93d168c64106"},"vehicle_type_id":"4","last_reported":1768990576,"current_range_meters":7200,"station_id":"st_d3md5207bmas73dh9klg","pricing_plan_id":"cebpf4jnsgd1na2vs0mg"},{"bike_id":"00729f81-defe-4949-ab38-da427b717ebf","system_id":"levelo_inurba_marseille","lat":43.262224,"lon":5.404466,"is_reserved":false,"is_disabled":false,"rental_uris":{"android":"levelo://app?vid=00729f81-defe-4949-ab38-da427b717ebf","ios":"levelo://app?vid=00729f81-defe-4949-ab38-da427b717ebf"},"vehicle_type_id":"4","last_reported":1768990576,"current_range_meters":7200,"station_id":"ce4bhmh2rcd13ifvqgmg","pricing_plan_id":"cebpf4jnsgd1na2vs0mg"},{"bike_id":"d98520b4-91a8-4177-8c18-76a9f2e51189","system_id":"levelo_inurba_marseille","lat":43.3019,"lon":5.38089,"is_reserved":false,"is_disabled":false,"rental_uris":{"android":"levelo://app?vid=d98520b4-91a8-4177-8c18-76a9f2e51189","ios":"levelo://app?vid=d98520b4-91a8-4177-8c18-76a9f2e51189"},"vehicle_type_id":"4","last_reported":1768990576,"current_range_meters":7200,"station_id":"ce4bgjp2rcd13ifvqbh0","pricing_plan_id":"cebpf4jnsgd1na2vs0mg"},{"bike_id":"5bdad711-817a-42cc-84b1-10d4beae812a","system_id":"levelo_inurba_marseille","lat":43.22558,"lon":5.41635,"is_reserved":false,"is_disabled":false,"rental_uris":{"android":"levelo://app?vid=5bdad711-817a-42cc-84b1-10d4beae812a","ios":"levelo://app?vid=5bdad711-817a-42cc-84b1-10d4beae812a"},"vehicle_type_id":"4","last_reported":1768990576,"current_range_meters":7200,"station_id":"st_d2o4gvlbi1j2169b742g","pricing_plan_id":"cebpf4jnsgd1na2vs0mg"},{"bike_id":"3d96ffd7-6511-4f4c-9ea6-5bc5f2f34ed3","system_id":"levelo_inurba_marseille","lat":43.30527,"lon":5.36563,"is_reserved":false,"is_disabled":false,"rental_uris":{"android":"levelo://app?vid=3d96ffd7-6511-4f4c-9ea6-5bc5f2f34ed3","ios":"levelo://app?vid=3d96ffd7-6511-4f4c-9ea6-5bc5f2f34ed3"},"vehicle_type_id":"4","last_reported":1768990576,"current_range_meters":7200,"station_id":"ce4bgs12rcd13ifvqcag","pricing_plan_id":"cebpf4jnsgd1na2vs0mg"},{"bike_id":"dadde713-07e8-4354-a92d-6299a510144e","system_id":"levelo_inurba_marseille","lat":43.28515,"lon":5.38436,"is_reserved":false,"is_disabled":false,"rental_uris":{"android":"levelo://app?vid=dadde713-07e8-4354-a92d-6299a510144e","ios":"levelo://app?vid=dadde713-07e8-4354-a92d-6299a510144e"},"vehicle_type_id":"4","last_reported":1768990576,"current_range_meters":7200,"station_id":"ce4bh512rcd13ifvqe3g","pricing_plan_id":"cebpf4jnsgd1na2vs0mg"},{"bike_id":"4f518510-2233-4dca-ade8-5d7dcbc437ed","system_id":"levelo_inurba_marseille","lat":43.30474,"lon":5.37915,"is_reserved":false,"is_disabled":false,"rental_uris":{"android":"levelo://app?vid=4f518510-2233-4dca-ade8-5d7dcbc437ed","ios":"levelo://app?vid=4f518510-2233-4dca-ade8-5d7dcbc437ed"},"vehicle_type_id":"4","last_reported":1768990576,"current_range_meters":7200,"station_id":"ce4bgup2rcd13ifvqcn0","pricing_plan_id":"cebpf4jnsgd1na2vs0mg"},{"bike_id":"8c9d9dd5-6ae3-4a8b-ab79-ea51ac5d3931","system_id":"levelo_inurba_marseille","lat":43.27981,"lon":5.41663,"is_reserved":false,"is_disabled":true,"rental_uris":{"android":"levelo://app?vid=8c9d9dd5-6ae3-4a8b-ab79-ea51ac5d3931","ios":"levelo://app?vid=8c9d9dd5-6ae3-4a8b-ab79-ea51ac5d3931"},"vehicle_type_id":"4","last_reported":1768990576,"current_range_meters":7200,"station_id":"ce4bho12rcd13ifvqh1g","pricing_plan_id":"cebpf4jnsgd1na2vs0mg"},{"bike_id":"2e67810b-4f4a-431b-b148-ec05c2d01539","system_id":"levelo_inurba_marseille","lat":43.28161,"lon":5.42649,"is_reserved":false,"is_disabled":false,"rental_uris":{"android":"levelo://app?vid=2e67810b-4f4a-431b-b148-ec05c2d01539","ios":"levelo://app?vid=2e67810b-4f4a-431b-b148-ec05c2d01539"},"vehicle_type_id":"4","last_reported":1768990576,"current_range_meters":7200,"station_id":"ce4bhnh2rcd13ifvqgug","pricing_plan_id":"cebpf4jnsgd1na2vs0mg"},{"bike_id":"b2b1dff7-f6c8-4dbd-b544-d71f01a6a04b","system_id":"levelo_inurba_marseille","lat":43.27995,"lon":5.40026,"is_reserved":false,"is_disabled":false,"rental_uris":{"android":"levelo://app?vid=b2b1dff7-f6c8-4dbd-b544-d71f01a6a04b","ios":"levelo://app?vid=b2b1dff7-f6c8-4dbd-b544-d71f01a6a04b"},"vehicle_type_id":"4","last_reported":1768990576,"current_range_meters":7200,"station_id":"ce4bho92rcd13ifvqh4g","pricing_plan_id":"cebpf4jnsgd1na2vs0mg"},{"bike_id":"99930023-4f93-4749-9faf-99c0761e2fac","system_id":"levelo_inurba_marseille","lat":43.27811,"lon":5.40722,"is_reserved":false,"is_disabled":false,"rental_uris":{"android":"levelo://app?vid=99930023-4f93-4749-9faf-99c0761e2fac","ios":"levelo://app?vid=99930023-4f93-4749-9faf-99c0761e2fac"},"vehicle_type_id":"4","last_reported":1768990576,"current_range_meters":7200,"station_id":"ce4bhnh2rcd13ifvqgtg","pricing_plan_id":"cebpf4jnsgd1na2vs0mg"},{"bike_id":"d800779d-1be3-4b3b-bd26-326b29efb8d6","system_id":"levelo_inurba_marseille","lat":43.24341,"lon":5.396584,"is_reserved":false,"is_disabled":false,"rental_uris":{"android":"levelo://app?vid=d800779d-1be3-4b3b-bd26-326b29efb8d6","ios":"levelo://app?vid=d800779d-1be3-4b3b-bd26-326b29efb8d6"},"vehicle_type_id":"4","last_reported":1768990576,"current_range_meters":7200,"station_id":"st_d3nk18o9ro0c73en2l3g","pricing_plan_id":"cebpf4jnsgd1na2vs0mg"},{"bike_id":"f24c27d5-82a4-418f-8937-4521e4ce4f83","system_id":"levelo_inurba_marseille","lat":43.27323,"lon":5.39098,"is_reserved":false,"is_disabled":true,"rental_uris":{"android":"levelo://app?vid=f24c27d5-82a4-418f-8937-4521e4ce4f83","ios":"levelo://app?vid=f24c27d5-82a4-418f-8937-4521e4ce4f83"},"vehicle_type_id":"4","last_reported":1768990576,"current_range_meters":7200,"station_id":"ce4bhgp2rcd13ifvqfe0","pricing_plan_id":"cebpf4jnsgd1na2vs0mg"},{"bike_id":"31c21be6-18ca-494d-8d01-2f205767068d","system_id":"levelo_inurba_marseille","lat":43.31826,"lon":5.37496,"is_reserved":false,"is_disabled":false,"rental_uris":{"android":"levelo://app?vid=31c21be6-18ca-494d-8d01-2f205767068d","ios":"levelo://app?vid=31c21be6-18ca-494d-8d01-2f205767068d"},"vehicle_type_id":"4","last_reported":1768990576,"current_range_meters":7200,"station_id":"","pricing_plan_id":"cebpf4jnsgd1na2vs0mg"},{"bike_id":"2c0995a4-2dde-4941-9bf7-449a4c636ac0","system_id":"levelo_inurba_marseille","lat":43.24404,"lon":5.37074,"is_reserved":false,"is_disabled":false,"rental_uris":{"android":"levelo://app?vid=2c0995a4-2dde-4941-9bf7-449a4c636ac0","ios":"levelo://app?vid=2c0995a4-2dde-4941-9bf7-449a4c636ac0"},"vehicle_type_id":"4","last_reported":1768990576,"current_range_meters":7200,"station_id":"ce4bhhh2rcd13ifvqfk0","pricing_plan_id":"cebpf4jnsgd1na2vs0mg"},{"bike_id":"e2c28729-8d62-45b4-8926-9ab1e71d898f","system_id":"levelo_inurba_marseille","lat":43.29819,"lon":5.365773,"is_reserved":false,"is_disabled":false,"rental_uris":{"android":"levelo://app?vid=e2c28729-8d62-45b4-8926-9ab1e71d898f","ios":"levelo://app?vid=e2c28729-8d62-45b4-8926-9ab1e71d898f"},"vehicle_type_id":"4","last_reported":1768990576,"current_range_meters":7200,"station_id":"","pricing_plan_id":"cebpf4jnsgd1na2vs0mg"},{"bike_id":"6da61cd4-1cf4-43fa-922d-ca1b6d722142","system_id":"levelo_inurba_marseille","lat":43.30942,"lon":5.390493,"is_reserved":false,"is_disabled":false,"rental_uris":{"android":"levelo://app?vid=6da61cd4-1cf4-43fa-922d-ca1b6d722142","ios":"levelo://app?vid=6da61cd4-1cf4-43fa-922d-ca1b6d722142"},"vehicle_type_id":"4","last_reported":1768990576,"current_range_meters":7200,"station_id":"ce4bgup2rcd13ifvqco0","pricing_plan_id":"cebpf4jnsgd1na2vs0mg"},{"bike_id":"5836bed6-9d39-4dfd-bfbd-28dce6d1a570","system_id":"levelo_inurba_marseille","lat":43.28488,"lon":5.38596,"is_reserved":false,"is_disabled":false,"rental_uris":{"android":"levelo://app?vid=5836bed6-9d39-4dfd-bfbd-28dce6d1a570","ios":"levelo://app?vid=5836bed6-9d39-4dfd-bfbd-28dce6d1a570"},"vehicle_type_id":"4","last_reported":1768990576,"current_range_meters":7200,"station_id":"ce4bh8p2rcd13ifvqeb0","pricing_plan_id":"cebpf4jnsgd1na2vs0mg"},{"bike_id":"416786c9-5441-4ae2-97be-8dd18ff4a833","system_id":"levelo_inurba_marseille","lat":43.26567,"lon":5.40324,"is_reserved":false,"is_disabled":false,"rental_uris":{"android":"levelo://app?vid=416786c9-5441-4ae2-97be-8dd18ff4a833","ios":"levelo://app?vid=416786c9-5441-4ae2-97be-8dd18ff4a833"},"vehicle_type_id":"4","last_reported":1768990576,"current_range_meters":7200,"station_id":"ce4bhmp2rcd13ifvqgng","pricing_plan_id":"cebpf4jnsgd1na2vs0mg"},{"bike_id":"f09c06aa-a05d-4b00-b228-d8bee2b62b4f","system_id":"levelo_inurba_marseille","lat":43.3235,"lon":5.36745,"is_reserved":false,"is_disabled":false,"rental_uris":{"android":"levelo://app?vid=f09c06aa-a05d-4b00-b228-d8bee2b62b4f","ios":"levelo://app?vid=f09c06aa-a05d-4b00-b228-d8bee2b62b4f"},"vehicle_type_id":"4","last_reported":1768990576,"current_range_meters":8000,"station_id":"ce4bhsh2rcd13ifvqi2g","pricing_plan_id":"cebpf4jnsgd1na2vs0mg"},{"bike_id":"d8373f63-23a5-4dce-918e-b18767dc6d8e","system_id":"levelo_inurba_marseille","lat":43.25116,"lon":5.40344,"is_reserved":false,"is_disabled":false,"rental_uris":{"android":"levelo://app?vid=d8373f63-23a5-4dce-918e-b18767dc6d8e","ios":"levelo://app?vid=d8373f63-23a5-4dce-918e-b18767dc6d8e"},"vehicle_type_id":"4","last_reported":1768990576,"current_range_meters":8000,"station_id":"ce4bhlh2rcd13ifvqgig","pricing_plan_id":"cebpf4jnsgd1na2vs0mg"},{"bike_id":"9e20e9aa-065b-496c-abe5-3590a969b99e","system_id":"levelo_inurba_marseille","lat":43.26487,"lon":5.39543,"is_reserved":false,"is_disabled":false,"rental_uris":{"android":"levelo://app?vid=9e20e9aa-065b-496c-abe5-3590a969b99e","ios":"levelo://app?vid=9e20e9aa-065b-496c-abe5-3590a969b99e"},"vehicle_type_id":"4","last_reported":1768990576,"current_range_meters":8000,"station_id":"ce4bhi12rcd13ifvqfq0","pricing_plan_id":"cebpf4jnsgd1na2vs0mg"},{"bike_id":"054e163b-1e47-4a0a-a038-a7939885860e","system_id":"levelo_inurba_marseille","lat":43.32351,"lon":5.36735,"is_reserved":false,"is_disabled":false,"rental_uris":{"android":"levelo://app?vid=054e163b-1e47-4a0a-a038-a7939885860e","ios":"levelo://app?vid=054e163b-1e47-4a0a-a038-a7939885860e"},"vehicle_type_id":"4","last_reported":1768990576,"current_range_meters":8000,"station_id":"ce4bhsh2rcd13ifvqi2g","pricing_plan_id":"cebpf4jnsgd1na2vs0mg"},{"bike_id":"e16a1716-709d-4830-b4cc-3f4c9537f310","system_id":"levelo_inurba_marseille","lat":43.30476,"lon":5.37952,"is_reserved":false,"is_disabled":false,"rental_uris":{"android":"levelo://app?vid=e16a1716-709d-4830-b4cc-3f4c9537f310","ios":"levelo://app?vid=e16a1716-709d-4830-b4cc-3f4c9537f310"},"vehicle_type_id":"4","last_reported":1768990576,"current_range_meters":8000,"station_id":"ce4bgup2rcd13ifvqcn0","pricing_plan_id":"cebpf4jnsgd1na2vs0mg"},{"bike_id":"f1d4233d-2911-4edf-a268-ad1589486129","system_id":"levelo_inurba_marseille","lat":43.24167,"lon":5.39738,"is_reserved":false,"is_disabled":false,"rental_uris":{"android":"levelo://app?vid=f1d4233d-2911-4edf-a268-ad1589486129","ios":"levelo://app?vid=f1d4233d-2911-4edf-a268-ad1589486129"},"vehicle_type_id":"4","last_reported":1768990576,"current_range_meters":8000,"station_id":"ce4bhn12rcd13ifvqgpg","pricing_plan_id":"cebpf4jnsgd1na2vs0mg"},{"bike_id":"6023d276-e3d8-4ad5-a78e-493b827c30b3","system_id":"levelo_inurba_marseille","lat":43.23153,"lon":5.43705,"is_reserved":false,"is_disabled":false,"rental_uris":{"android":"levelo://app?vid=6023d276-e3d8-4ad5-a78e-493b827c30b3","ios":"levelo://app?vid=6023d276-e3d8-4ad5-a78e-493b827c30b3"},"vehicle_type_id":"4","last_reported":1768990576,"current_range_meters":8000,"station_id":"","pricing_plan_id":"cebpf4jnsgd1na2vs0mg"},{"bike_id":"921d35bb-fcdc-4ecc-b2f9-0fb7af3055d8","system_id":"levelo_inurba_marseille","lat":43.29272,"lon":5.38432,"is_reserved":false,"is_disabled":false,"rental_uris":{"android":"levelo://app?vid=921d35bb-fcdc-4ecc-b2f9-0fb7af3055d8","ios":"levelo://app?vid=921d35bb-fcdc-4ecc-b2f9-0fb7af3055d8"},"vehicle_type_id":"4","last_reported":1768990576,"current_range_meters":8000,"station_id":"ce4bh692rcd13ifvqea0","pricing_plan_id":"cebpf4jnsgd1na2vs0mg"},{"bike_id":"df4049dc-9a8b-4faa-aedc-bb3153116fad","system_id":"levelo_inurba_marseille","lat":43.30483,"lon":5.37906,"is_reserved":false,"is_disabled":false,"rental_uris":{"android":"levelo://app?vid=df4049dc-9a8b-4faa-aedc-bb3153116fad","ios":"levelo://app?vid=df4049dc-9a8b-4faa-aedc-bb3153116fad"},"vehicle_type_id":"4","last_reported":1768990576,"current_range_meters":8000,"station_id":"ce4bgup2rcd13ifvqcn0","pricing_plan_id":"cebpf4jnsgd1na2vs0mg"},{"bike_id":"67ee24bc-76b2-4aeb-9e34-516f561b3506","system_id":"levelo_inurba_marseille","lat":43.25927,"lon":5.40904,"is_reserved":false,"is_disabled":false,"rental_uris":{"android":"levelo://app?vid=67ee24bc-76b2-4aeb-9e34-516f561b3506","ios":"levelo://app?vid=67ee24bc-76b2-4aeb-9e34-516f561b3506"},"vehicle_type_id":"4","last_reported":1768990576,"current_range_meters":8000,"station_id":"ce4bhm92rcd13ifvqglg","pricing_plan_id":"cebpf4jnsgd1na2vs0mg"},{"bike_id":"69cadbd2-5224-4e51-ae89-c9629cd1670e","system_id":"levelo_inurba_marseille","lat":43.21195,"lon":5.35079,"is_reserved":false,"is_disabled":false,"rental_uris":{"android":"levelo://app?vid=69cadbd2-5224-4e51-ae89-c9629cd1670e","ios":"levelo://app?vid=69cadbd2-5224-4e51-ae89-c9629cd1670e"},"vehicle_type_id":"4","last_reported":1768990576,"current_range_meters":8000,"station_id":"","pricing_plan_id":"cebpf4jnsgd1na2vs0mg"},{"bike_id":"5e4f73e3-15b5-4161-b411-195292d3e766","system_id":"levelo_inurba_marseille","lat":43.24471,"lon":5.42531,"is_reserved":false,"is_disabled":false,"rental_uris":{"android":"levelo://app?vid=5e4f73e3-15b5-4161-b411-195292d3e766","ios":"levelo://app?vid=5e4f73e3-15b5-4161-b411-195292d3e766"},"vehicle_type_id":"4","last_reported":1768990576,"current_range_meters":8000,"station_id":"st_d4a3vfp97mjs738cd8kg","pricing_plan_id":"cebpf4jnsgd1na2vs0mg"},{"bike_id":"4f4ed773-2cf0-4a1e-88c1-db1d7cfd52cc","system_id":"levelo_inurba_marseille","lat":43.28942,"lon":5.36629,"is_reserved":false,"is_disabled":true,"rental_uris":{"android":"levelo://app?vid=4f4ed773-2cf0-4a1e-88c1-db1d7cfd52cc","ios":"levelo://app?vid=4f4ed773-2cf0-4a1e-88c1-db1d7cfd52cc"},"vehicle_type_id":"4","last_reported":1768990576,"current_range_meters":8000,"station_id":"ce4bhap2rcd13ifvqek0","pricing_plan_id":"cebpf4jnsgd1na2vs0mg"},{"bike_id":"87376c51-7b52-4611-acd2-49441baafe3f","system_id":"levelo_inurba_marseille","lat":43.24616,"lon":5.40214,"is_reserved":false,"is_disabled":false,"rental_uris":{"android":"levelo://app?vid=87376c51-7b52-4611-acd2-49441baafe3f","ios":"levelo://app?vid=87376c51-7b52-4611-acd2-49441baafe3f"},"vehicle_type_id":"4","last_reported":1768990576,"current_range_meters":8000,"station_id":"","pricing_plan_id":"cebpf4jnsgd1na2vs0mg"},{"bike_id":"89c47dd6-b48b-456f-9606-c6f1e386ec61","system_id":"levelo_inurba_marseille","lat":43.30476,"lon":5.379176,"is_reserved":false,"is_disabled":false,"rental_uris":{"android":"levelo://app?vid=89c47dd6-b48b-456f-9606-c6f1e386ec61","ios":"levelo://app?vid=89c47dd6-b48b-456f-9606-c6f1e386ec61"},"vehicle_type_id":"4","last_reported":1768990576,"current_range_meters":8000,"station_id":"ce4bgup2rcd13ifvqcn0","pricing_plan_id":"cebpf4jnsgd1na2vs0mg"},{"bike_id":"03ce0b7c-9543-4497-b202-ed769e3c0842","system_id":"levelo_inurba_marseille","lat":43.26799,"lon":5.3943,"is_reserved":false,"is_disabled":false,"rental_uris":{"android":"levelo://app?vid=03ce0b7c-9543-4497-b202-ed769e3c0842","ios":"levelo://app?vid=03ce0b7c-9543-4497-b202-ed769e3c0842"},"vehicle_type_id":"4","last_reported":1768990576,"current_range_meters":8000,"station_id":"ce4bhh12rcd13ifvqfg0","pricing_plan_id":"cebpf4jnsgd1na2vs0mg"},{"bike_id":"c055199c-bd62-490e-8577-d64c0f179897","system_id":"levelo_inurba_marseille","lat":43.285355,"lon":5.441084,"is_reserved":false,"is_disabled":false,"rental_uris":{"android":"levelo://app?vid=c055199c-bd62-490e-8577-d64c0f179897","ios":"levelo://app?vid=c055199c-bd62-490e-8577-d64c0f179897"},"vehicle_type_id":"4","last_reported":1768990576,"current_range_meters":8000,"station_id":"st_d3j3df2ikq2c7380ej80","pricing_plan_id":"cebpf4jnsgd1na2vs0mg"},{"bike_id":"a57784bc-f5d9-4a04-91a0-a0ce88abf185","system_id":"levelo_inurba_marseille","lat":43.24403,"lon":5.37031,"is_reserved":false,"is_disabled":false,"rental_uris":{"android":"levelo://app?vid=a57784bc-f5d9-4a04-91a0-a0ce88abf185","ios":"levelo://app?vid=a57784bc-f5d9-4a04-91a0-a0ce88abf185"},"vehicle_type_id":"4","last_reported":1768990576,"current_range_meters":8400,"station_id":"ce4bhhh2rcd13ifvqfk0","pricing_plan_id":"cebpf4jnsgd1na2vs0mg"},{"bike_id":"a168c8db-8861-4110-a8a2-7d15d5c68caa","system_id":"levelo_inurba_marseille","lat":43.23191,"lon":5.39983,"is_reserved":false,"is_disabled":false,"rental_uris":{"android":"levelo://app?vid=a168c8db-8861-4110-a8a2-7d15d5c68caa","ios":"levelo://app?vid=a168c8db-8861-4110-a8a2-7d15d5c68caa"},"vehicle_type_id":"4","last_reported":1768990576,"current_range_meters":8400,"station_id":"ce4bhn12rcd13ifvqgqg","pricing_plan_id":"cebpf4jnsgd1na2vs0mg"},{"bike_id":"bbdf18db-231e-4ed5-8700-c5b9cb7287e0","system_id":"levelo_inurba_marseille","lat":43.24809,"lon":5.37444,"is_reserved":false,"is_disabled":false,"rental_uris":{"android":"levelo://app?vid=bbdf18db-231e-4ed5-8700-c5b9cb7287e0","ios":"levelo://app?vid=bbdf18db-231e-4ed5-8700-c5b9cb7287e0"},"vehicle_type_id":"4","last_reported":1768990576,"current_range_meters":8400,"station_id":"ce4bhgh2rcd13ifvqfb0","pricing_plan_id":"cebpf4jnsgd1na2vs0mg"},{"bike_id":"d9fff92a-3943-4a01-98e1-7c430b29f114","system_id":"levelo_inurba_marseille","lat":43.2799,"lon":5.41665,"is_reserved":false,"is_disabled":false,"rental_uris":{"android":"levelo://app?vid=d9fff92a-3943-4a01-98e1-7c430b29f114","ios":"levelo://app?vid=d9fff92a-3943-4a01-98e1-7c430b29f114"},"vehicle_type_id":"4","last_reported":1768990576,"current_range_meters":8400,"station_id":"ce4bho12rcd13ifvqh1g","pricing_plan_id":"cebpf4jnsgd1na2vs0mg"},{"bike_id":"f245b279-0874-4580-99fa-dc4431352954","system_id":"levelo_inurba_marseille","lat":43.28703,"lon":5.37984,"is_reserved":false,"is_disabled":false,"rental_uris":{"android":"levelo://app?vid=f245b279-0874-4580-99fa-dc4431352954","ios":"levelo://app?vid=f245b279-0874-4580-99fa-dc4431352954"},"vehicle_type_id":"4","last_reported":1768990576,"current_range_meters":8400,"station_id":"ce4bh9p2rcd13ifvqec0","pricing_plan_id":"cebpf4jnsgd1na2vs0mg"},{"bike_id":"f3a01c85-86e9-4a7c-837b-602faf4bbfde","system_id":"levelo_inurba_marseille","lat":43.28004,"lon":5.38669,"is_reserved":false,"is_disabled":false,"rental_uris":{"android":"levelo://app?vid=f3a01c85-86e9-4a7c-837b-602faf4bbfde","ios":"levelo://app?vid=f3a01c85-86e9-4a7c-837b-602faf4bbfde"},"vehicle_type_id":"4","last_reported":1768990576,"current_range_meters":8400,"station_id":"","pricing_plan_id":"cebpf4jnsgd1na2vs0mg"},{"bike_id":"8f183662-dea5-4080-88fc-e9e009eed202","system_id":"levelo_inurba_marseille","lat":43.24182,"lon":5.39719,"is_reserved":false,"is_disabled":false,"rental_uris":{"android":"levelo://app?vid=8f183662-dea5-4080-88fc-e9e009eed202","ios":"levelo://app?vid=8f183662-dea5-4080-88fc-e9e009eed202"},"vehicle_type_id":"4","last_reported":1768990576,"current_range_meters":8400,"station_id":"ce4bhn12rcd13ifvqgpg","pricing_plan_id":"cebpf4jnsgd1na2vs0mg"},{"bike_id":"afd8fd13-cc34-473a-ab6a-36eb79f6c2a7","system_id":"levelo_inurba_marseille","lat":43.30304,"lon":5.36905,"is_reserved":false,"is_disabled":false,"rental_uris":{"android":"levelo://app?vid=afd8fd13-cc34-473a-ab6a-36eb79f6c2a7","ios":"levelo://app?vid=afd8fd13-cc34-473a-ab6a-36eb79f6c2a7"},"vehicle_type_id":"4","last_reported":1768990576,"current_range_meters":8400,"station_id":"ce4bgqh2rcd13ifvqc5g","pricing_plan_id":"cebpf4jnsgd1na2vs0mg"},{"bike_id":"f9ca995a-cc09-49fb-a65b-5cbcd6266ccb","system_id":"levelo_inurba_marseille","lat":43.3016,"lon":5.38094,"is_reserved":false,"is_disabled":false,"rental_uris":{"android":"levelo://app?vid=f9ca995a-cc09-49fb-a65b-5cbcd6266ccb","ios":"levelo://app?vid=f9ca995a-cc09-49fb-a65b-5cbcd6266ccb"},"vehicle_type_id":"4","last_reported":1768990576,"current_range_meters":8400,"station_id":"ce4bgjp2rcd13ifvqbh0","pricing_plan_id":"cebpf4jnsgd1na2vs0mg"},{"bike_id":"3c087dff-0dfb-46c5-8cb7-525bb0a6edcb","system_id":"levelo_inurba_marseille","lat":43.27486,"lon":5.42485,"is_reserved":false,"is_disabled":false,"rental_uris":{"android":"levelo://app?vid=3c087dff-0dfb-46c5-8cb7-525bb0a6edcb","ios":"levelo://app?vid=3c087dff-0dfb-46c5-8cb7-525bb0a6edcb"},"vehicle_type_id":"4","last_reported":1768990576,"current_range_meters":8400,"station_id":"ce4bhn92rcd13ifvqgrg","pricing_plan_id":"cebpf4jnsgd1na2vs0mg"},{"bike_id":"2df2b395-8651-45e0-b24b-6ceb74dd000d","system_id":"levelo_inurba_marseille","lat":43.30952,"lon":5.39057,"is_reserved":false,"is_disabled":false,"rental_uris":{"android":"levelo://app?vid=2df2b395-8651-45e0-b24b-6ceb74dd000d","ios":"levelo://app?vid=2df2b395-8651-45e0-b24b-6ceb74dd000d"},"vehicle_type_id":"4","last_reported":1768990576,"current_range_meters":8400,"station_id":"ce4bgup2rcd13ifvqco0","pricing_plan_id":"cebpf4jnsgd1na2vs0mg"},{"bike_id":"cc08d2b6-69fb-4c32-9f0f-91f88c556b74","system_id":"levelo_inurba_marseille","lat":43.22935,"lon":5.35391,"is_reserved":false,"is_disabled":false,"rental_uris":{"android":"levelo://app?vid=cc08d2b6-69fb-4c32-9f0f-91f88c556b74","ios":"levelo://app?vid=cc08d2b6-69fb-4c32-9f0f-91f88c556b74"},"vehicle_type_id":"4","last_reported":1768990576,"current_range_meters":8400,"station_id":"cpo3532slgdg3j2ikp40","pricing_plan_id":"cebpf4jnsgd1na2vs0mg"},{"bike_id":"19c9b4d2-1ea0-4167-80ed-614d6330d907","system_id":"levelo_inurba_marseille","lat":43.23187,"lon":5.3998,"is_reserved":false,"is_disabled":false,"rental_uris":{"android":"levelo://app?vid=19c9b4d2-1ea0-4167-80ed-614d6330d907","ios":"levelo://app?vid=19c9b4d2-1ea0-4167-80ed-614d6330d907"},"vehicle_type_id":"4","last_reported":1768990576,"current_range_meters":8400,"station_id":"ce4bhn12rcd13ifvqgqg","pricing_plan_id":"cebpf4jnsgd1na2vs0mg"},{"bike_id":"2b1b3c19-5da4-4c36-93e6-de9c01ebb21d","system_id":"levelo_inurba_marseille","lat":43.32478,"lon":5.36569,"is_reserved":false,"is_disabled":false,"rental_uris":{"android":"levelo://app?vid=2b1b3c19-5da4-4c36-93e6-de9c01ebb21d","ios":"levelo://app?vid=2b1b3c19-5da4-4c36-93e6-de9c01ebb21d"},"vehicle_type_id":"4","last_reported":1768990576,"current_range_meters":8400,"station_id":"ce4bhs12rcd13ifvqhvg","pricing_plan_id":"cebpf4jnsgd1na2vs0mg"},{"bike_id":"e60b80c1-e035-4d06-8dfd-6a5996278e1f","system_id":"levelo_inurba_marseille","lat":43.24471,"lon":5.42535,"is_reserved":false,"is_disabled":false,"rental_uris":{"android":"levelo://app?vid=e60b80c1-e035-4d06-8dfd-6a5996278e1f","ios":"levelo://app?vid=e60b80c1-e035-4d06-8dfd-6a5996278e1f"},"vehicle_type_id":"4","last_reported":1768990576,"current_range_meters":8400,"station_id":"st_d4a3vfp97mjs738cd8kg","pricing_plan_id":"cebpf4jnsgd1na2vs0mg"},{"bike_id":"131d083d-d299-49de-ae79-91ebeb210640","system_id":"levelo_inurba_marseille","lat":43.25696,"lon":5.41811,"is_reserved":false,"is_disabled":false,"rental_uris":{"android":"levelo://app?vid=131d083d-d299-49de-ae79-91ebeb210640","ios":"levelo://app?vid=131d083d-d299-49de-ae79-91ebeb210640"},"vehicle_type_id":"4","last_reported":1768990576,"current_range_meters":8400,"station_id":"","pricing_plan_id":"cebpf4jnsgd1na2vs0mg"},{"bike_id":"6fb19c91-7ffd-4222-b20e-e8f53699bc07","system_id":"levelo_inurba_marseille","lat":43.318911,"lon":5.407445,"is_reserved":false,"is_disabled":false,"rental_uris":{"android":"levelo://app?vid=6fb19c91-7ffd-4222-b20e-e8f53699bc07","ios":"levelo://app?vid=6fb19c91-7ffd-4222-b20e-e8f53699bc07"},"vehicle_type_id":"4","last_reported":1768990576,"current_range_meters":8800,"station_id":"ce4bhq12rcd13ifvqhig","pricing_plan_id":"cebpf4jnsgd1na2vs0mg"},{"bike_id":"408e8636-0be7-4b88-bee2-39675973c9f7","system_id":"levelo_inurba_marseille","lat":43.29025,"lon":5.40041,"is_reserved":false,"is_disabled":false,"rental_uris":{"android":"levelo://app?vid=408e8636-0be7-4b88-bee2-39675973c9f7","ios":"levelo://app?vid=408e8636-0be7-4b88-bee2-39675973c9f7"},"vehicle_type_id":"4","last_reported":1768990576,"current_range_meters":8800,"station_id":"","pricing_plan_id":"cebpf4jnsgd1na2vs0mg"},{"bike_id":"e18e15b1-254c-4764-89f5-4ecaf6dde180","system_id":"levelo_inurba_marseille","lat":43.31395,"lon":5.36741,"is_reserved":false,"is_disabled":false,"rental_uris":{"android":"levelo://app?vid=e18e15b1-254c-4764-89f5-4ecaf6dde180","ios":"levelo://app?vid=e18e15b1-254c-4764-89f5-4ecaf6dde180"},"vehicle_type_id":"4","last_reported":1768990576,"current_range_meters":8800,"station_id":"","pricing_plan_id":"cebpf4jnsgd1na2vs0mg"},{"bike_id":"19c9b524-76f1-4e5d-8be9-000b11a19079","system_id":"levelo_inurba_marseille","lat":43.25024,"lon":5.38924,"is_reserved":false,"is_disabled":false,"rental_uris":{"android":"levelo://app?vid=19c9b524-76f1-4e5d-8be9-000b11a19079","ios":"levelo://app?vid=19c9b524-76f1-4e5d-8be9-000b11a19079"},"vehicle_type_id":"4","last_reported":1768990576,"current_range_meters":8800,"station_id":"ce4bhgp2rcd13ifvqfd0","pricing_plan_id":"cebpf4jnsgd1na2vs0mg"},{"bike_id":"ebc59118-e1a4-482d-84d0-eafb34b0b9ea","system_id":"levelo_inurba_marseille","lat":43.23776,"lon":5.36631,"is_reserved":false,"is_disabled":false,"rental_uris":{"android":"levelo://app?vid=ebc59118-e1a4-482d-84d0-eafb34b0b9ea","ios":"levelo://app?vid=ebc59118-e1a4-482d-84d0-eafb34b0b9ea"},"vehicle_type_id":"4","last_reported":1768990576,"current_range_meters":8800,"station_id":"st_d3nk18o9ro0c73en2l3g","pricing_plan_id":"cebpf4jnsgd1na2vs0mg"},{"bike_id":"28f55ca8-d2ea-41c1-902d-e5277b239569","system_id":"levelo_inurba_marseille","lat":43.2642,"lon":5.41009,"is_reserved":false,"is_disabled":false,"rental_uris":{"android":"levelo://app?vid=28f55ca8-d2ea-41c1-902d-e5277b239569","ios":"levelo://app?vid=28f55ca8-d2ea-41c1-902d-e5277b239569"},"vehicle_type_id":"4","last_reported":1768990576,"current_range_meters":8800,"station_id":"st_d4e5ca6na9uc73bfl5fg","pricing_plan_id":"cebpf4jnsgd1na2vs0mg"},{"bike_id":"afcede41-e8c8-492e-a6e3-4b5afc8eead9","system_id":"levelo_inurba_marseille","lat":43.27845,"lon":5.40693,"is_reserved":false,"is_disabled":false,"rental_uris":{"android":"levelo://app?vid=afcede41-e8c8-492e-a6e3-4b5afc8eead9","ios":"levelo://app?vid=afcede41-e8c8-492e-a6e3-4b5afc8eead9"},"vehicle_type_id":"4","last_reported":1768990576,"current_range_meters":8800,"station_id":"ce4bhnh2rcd13ifvqgtg","pricing_plan_id":"cebpf4jnsgd1na2vs0mg"},{"bike_id":"fe2a828f-710f-491e-b529-f22ca09a8365","system_id":"levelo_inurba_marseille","lat":43.30696,"lon":5.40964,"is_reserved":false,"is_disabled":false,"rental_uris":{"android":"levelo://app?vid=fe2a828f-710f-491e-b529-f22ca09a8365","ios":"levelo://app?vid=fe2a828f-710f-491e-b529-f22ca09a8365"},"vehicle_type_id":"4","last_reported":1768990576,"current_range_meters":8800,"station_id":"","pricing_plan_id":"cebpf4jnsgd1na2vs0mg"},{"bike_id":"90fd9743-abf7-4844-951b-b0c621e30ae6","system_id":"levelo_inurba_marseille","lat":43.30943,"lon":5.36837,"is_reserved":false,"is_disabled":false,"rental_uris":{"android":"levelo://app?vid=90fd9743-abf7-4844-951b-b0c621e30ae6","ios":"levelo://app?vid=90fd9743-abf7-4844-951b-b0c621e30ae6"},"vehicle_type_id":"4","last_reported":1768990576,"current_range_meters":8800,"station_id":"ce4bgn92rcd13ifvqbvg","pricing_plan_id":"cebpf4jnsgd1na2vs0mg"},{"bike_id":"fddbb7cb-a21d-46ff-8d07-df9eecd44019","system_id":"levelo_inurba_marseille","lat":43.321,"lon":5.36793,"is_reserved":false,"is_disabled":false,"rental_uris":{"android":"levelo://app?vid=fddbb7cb-a21d-46ff-8d07-df9eecd44019","ios":"levelo://app?vid=fddbb7cb-a21d-46ff-8d07-df9eecd44019"},"vehicle_type_id":"4","last_reported":1768990576,"current_range_meters":8800,"station_id":"ce4bhrh2rcd13ifvqhug","pricing_plan_id":"cebpf4jnsgd1na2vs0mg"},{"bike_id":"ca1f68a2-e356-46d7-8d5f-503710c9279d","system_id":"levelo_inurba_marseille","lat":43.25603,"lon":5.38208,"is_reserved":false,"is_disabled":false,"rental_uris":{"android":"levelo://app?vid=ca1f68a2-e356-46d7-8d5f-503710c9279d","ios":"levelo://app?vid=ca1f68a2-e356-46d7-8d5f-503710c9279d"},"vehicle_type_id":"4","last_reported":1768990576,"current_range_meters":8800,"station_id":"ce4bhih2rcd13ifvqfs0","pricing_plan_id":"cebpf4jnsgd1na2vs0mg"},{"bike_id":"0c39f0d8-be10-4e6d-9b77-03ab45f27e26","system_id":"levelo_inurba_marseille","lat":43.2782,"lon":5.40722,"is_reserved":false,"is_disabled":false,"rental_uris":{"android":"levelo://app?vid=0c39f0d8-be10-4e6d-9b77-03ab45f27e26","ios":"levelo://app?vid=0c39f0d8-be10-4e6d-9b77-03ab45f27e26"},"vehicle_type_id":"4","last_reported":1768990576,"current_range_meters":8800,"station_id":"ce4bhnh2rcd13ifvqgtg","pricing_plan_id":"cebpf4jnsgd1na2vs0mg"},{"bike_id":"23108308-7cb6-4a6a-a88c-b5f7bb971ba2","system_id":"levelo_inurba_marseille","lat":43.29137,"lon":5.40065,"is_reserved":false,"is_disabled":false,"rental_uris":{"android":"levelo://app?vid=23108308-7cb6-4a6a-a88c-b5f7bb971ba2","ios":"levelo://app?vid=23108308-7cb6-4a6a-a88c-b5f7bb971ba2"},"vehicle_type_id":"4","last_reported":1768990576,"current_range_meters":8800,"station_id":"","pricing_plan_id":"cebpf4jnsgd1na2vs0mg"},{"bike_id":"6ce190b6-c466-4ac6-bb9d-9cc75b2398c8","system_id":"levelo_inurba_marseille","lat":43.30959,"lon":5.3907,"is_reserved":false,"is_disabled":false,"rental_uris":{"android":"levelo://app?vid=6ce190b6-c466-4ac6-bb9d-9cc75b2398c8","ios":"levelo://app?vid=6ce190b6-c466-4ac6-bb9d-9cc75b2398c8"},"vehicle_type_id":"4","last_reported":1768990576,"current_range_meters":8800,"station_id":"ce4bgup2rcd13ifvqco0","pricing_plan_id":"cebpf4jnsgd1na2vs0mg"},{"bike_id":"af810d0b-f695-4286-a0d5-3e1ff6f3f852","system_id":"levelo_inurba_marseille","lat":43.231896,"lon":5.399865,"is_reserved":false,"is_disabled":false,"rental_uris":{"android":"levelo://app?vid=af810d0b-f695-4286-a0d5-3e1ff6f3f852","ios":"levelo://app?vid=af810d0b-f695-4286-a0d5-3e1ff6f3f852"},"vehicle_type_id":"4","last_reported":1768990576,"current_range_meters":8800,"station_id":"ce4bhn12rcd13ifvqgqg","pricing_plan_id":"cebpf4jnsgd1na2vs0mg"},{"bike_id":"aec5c08c-9f05-47e9-bb02-2d63b83fc483","system_id":"levelo_inurba_marseille","lat":43.26764,"lon":5.39216,"is_reserved":false,"is_disabled":false,"rental_uris":{"android":"levelo://app?vid=aec5c08c-9f05-47e9-bb02-2d63b83fc483","ios":"levelo://app?vid=aec5c08c-9f05-47e9-bb02-2d63b83fc483"},"vehicle_type_id":"4","last_reported":1768990576,"current_range_meters":8800,"station_id":"","pricing_plan_id":"cebpf4jnsgd1na2vs0mg"},{"bike_id":"dd72fdba-bff0-468c-841b-91cb39930c02","system_id":"levelo_inurba_marseille","lat":43.32481,"lon":5.36564,"is_reserved":false,"is_disabled":false,"rental_uris":{"android":"levelo://app?vid=dd72fdba-bff0-468c-841b-91cb39930c02","ios":"levelo://app?vid=dd72fdba-bff0-468c-841b-91cb39930c02"},"vehicle_type_id":"4","last_reported":1768990576,"current_range_meters":8800,"station_id":"ce4bhs12rcd13ifvqhvg","pricing_plan_id":"cebpf4jnsgd1na2vs0mg"},{"bike_id":"ebf3a951-6feb-4a52-b19b-c1128277b0f9","system_id":"levelo_inurba_marseille","lat":43.24045,"lon":5.37733,"is_reserved":false,"is_disabled":false,"rental_uris":{"android":"levelo://app?vid=ebf3a951-6feb-4a52-b19b-c1128277b0f9","ios":"levelo://app?vid=ebf3a951-6feb-4a52-b19b-c1128277b0f9"},"vehicle_type_id":"4","last_reported":1768990576,"current_range_meters":8800,"station_id":"ce4bhnp2rcd13ifvqgvg","pricing_plan_id":"cebpf4jnsgd1na2vs0mg"},{"bike_id":"9eb838f2-7d77-4f99-980e-746abce00d4e","system_id":"levelo_inurba_marseille","lat":43.2478,"lon":5.3749,"is_reserved":false,"is_disabled":false,"rental_uris":{"android":"levelo://app?vid=9eb838f2-7d77-4f99-980e-746abce00d4e","ios":"levelo://app?vid=9eb838f2-7d77-4f99-980e-746abce00d4e"},"vehicle_type_id":"4","last_reported":1768990576,"current_range_meters":8800,"station_id":"ce4bhgh2rcd13ifvqfb0","pricing_plan_id":"cebpf4jnsgd1na2vs0mg"},{"bike_id":"83461687-2d6f-44e3-8195-fb721f9fb181","system_id":"levelo_inurba_marseille","lat":43.28479,"lon":5.484,"is_reserved":false,"is_disabled":false,"rental_uris":{"android":"levelo://app?vid=83461687-2d6f-44e3-8195-fb721f9fb181","ios":"levelo://app?vid=83461687-2d6f-44e3-8195-fb721f9fb181"},"vehicle_type_id":"4","last_reported":1768990576,"current_range_meters":8800,"station_id":"","pricing_plan_id":"cebpf4jnsgd1na2vs0mg"},{"bike_id":"b451a4e3-2bf4-4d2b-8c22-e5d25007c832","system_id":"levelo_inurba_marseille","lat":43.29764,"lon":5.42771,"is_reserved":false,"is_disabled":false,"rental_uris":{"android":"levelo://app?vid=b451a4e3-2bf4-4d2b-8c22-e5d25007c832","ios":"levelo://app?vid=b451a4e3-2bf4-4d2b-8c22-e5d25007c832"},"vehicle_type_id":"4","last_reported":1768990576,"current_range_meters":8800,"station_id":"st_d3md5207bmas73dh9klg","pricing_plan_id":"cebpf4jnsgd1na2vs0mg"},{"bike_id":"fd99152b-620b-4da2-98d5-b6726198a6c5","system_id":"levelo_inurba_marseille","lat":43.25817,"lon":5.39442,"is_reserved":false,"is_disabled":false,"rental_uris":{"android":"levelo://app?vid=fd99152b-620b-4da2-98d5-b6726198a6c5","ios":"levelo://app?vid=fd99152b-620b-4da2-98d5-b6726198a6c5"},"vehicle_type_id":"4","last_reported":1768990576,"current_range_meters":8800,"station_id":"ce4bhip2rcd13ifvqft0","pricing_plan_id":"cebpf4jnsgd1na2vs0mg"},{"bike_id":"66588bd4-ede7-4f16-9000-80e9462d12b2","system_id":"levelo_inurba_marseille","lat":43.30946,"lon":5.39006,"is_reserved":false,"is_disabled":false,"rental_uris":{"android":"levelo://app?vid=66588bd4-ede7-4f16-9000-80e9462d12b2","ios":"levelo://app?vid=66588bd4-ede7-4f16-9000-80e9462d12b2"},"vehicle_type_id":"4","last_reported":1768990576,"current_range_meters":8800,"station_id":"ce4bgup2rcd13ifvqco0","pricing_plan_id":"cebpf4jnsgd1na2vs0mg"},{"bike_id":"9bc06f7c-25cb-4ca5-beb3-d5bc8e7cd8ed","system_id":"levelo_inurba_marseille","lat":43.27217,"lon":5.39175,"is_reserved":false,"is_disabled":false,"rental_uris":{"android":"levelo://app?vid=9bc06f7c-25cb-4ca5-beb3-d5bc8e7cd8ed","ios":"levelo://app?vid=9bc06f7c-25cb-4ca5-beb3-d5bc8e7cd8ed"},"vehicle_type_id":"4","last_reported":1768990576,"current_range_meters":8800,"station_id":"ce4bhhp2rcd13ifvqfm0","pricing_plan_id":"cebpf4jnsgd1na2vs0mg"},{"bike_id":"b26b1a89-bfd7-4ae9-8891-f8a5f84b50c4","system_id":"levelo_inurba_marseille","lat":43.29273,"lon":5.3681,"is_reserved":false,"is_disabled":false,"rental_uris":{"android":"levelo://app?vid=b26b1a89-bfd7-4ae9-8891-f8a5f84b50c4","ios":"levelo://app?vid=b26b1a89-bfd7-4ae9-8891-f8a5f84b50c4"},"vehicle_type_id":"4","last_reported":1768990576,"current_range_meters":9200,"station_id":"ce4bhbp2rcd13ifvqesg","pricing_plan_id":"cebpf4jnsgd1na2vs0mg"},{"bike_id":"e07cc4c7-f8da-43b9-86b7-9b5a29a91e8f","system_id":"levelo_inurba_marseille","lat":43.27887,"lon":5.37999,"is_reserved":false,"is_disabled":false,"rental_uris":{"android":"levelo://app?vid=e07cc4c7-f8da-43b9-86b7-9b5a29a91e8f","ios":"levelo://app?vid=e07cc4c7-f8da-43b9-86b7-9b5a29a91e8f"},"vehicle_type_id":"4","last_reported":1768990576,"current_range_meters":9200,"station_id":"ce4bhf92rcd13ifvqf50","pricing_plan_id":"cebpf4jnsgd1na2vs0mg"},{"bike_id":"ae082b45-528d-4d2d-a946-c7dc2ab87b58","system_id":"levelo_inurba_marseille","lat":43.2738,"lon":5.36258,"is_reserved":false,"is_disabled":false,"rental_uris":{"android":"levelo://app?vid=ae082b45-528d-4d2d-a946-c7dc2ab87b58","ios":"levelo://app?vid=ae082b45-528d-4d2d-a946-c7dc2ab87b58"},"vehicle_type_id":"4","last_reported":1768990576,"current_range_meters":9200,"station_id":"ce4bhbh2rcd13ifvqeo0","pricing_plan_id":"cebpf4jnsgd1na2vs0mg"},{"bike_id":"86fab962-3ac3-4bbf-b258-0c4cf3a7dea9","system_id":"levelo_inurba_marseille","lat":43.28601,"lon":5.37065,"is_reserved":false,"is_disabled":false,"rental_uris":{"android":"levelo://app?vid=86fab962-3ac3-4bbf-b258-0c4cf3a7dea9","ios":"levelo://app?vid=86fab962-3ac3-4bbf-b258-0c4cf3a7dea9"},"vehicle_type_id":"4","last_reported":1768990576,"current_range_meters":9200,"station_id":"ce4bht12rcd13ifvqi60","pricing_plan_id":"cebpf4jnsgd1na2vs0mg"},{"bike_id":"7324fb5c-239f-44d5-b872-0cc0e1e655ec","system_id":"levelo_inurba_marseille","lat":43.30596,"lon":5.37233,"is_reserved":false,"is_disabled":false,"rental_uris":{"android":"levelo://app?vid=7324fb5c-239f-44d5-b872-0cc0e1e655ec","ios":"levelo://app?vid=7324fb5c-239f-44d5-b872-0cc0e1e655ec"},"vehicle_type_id":"4","last_reported":1768990576,"current_range_meters":9200,"station_id":"ce4bgqh2rcd13ifvqc4g","pricing_plan_id":"cebpf4jnsgd1na2vs0mg"},{"bike_id":"0c854f8e-3157-43a2-a218-3c98ead34c78","system_id":"levelo_inurba_marseille","lat":43.337444,"lon":5.374475,"is_reserved":false,"is_disabled":false,"rental_uris":{"android":"levelo://app?vid=0c854f8e-3157-43a2-a218-3c98ead34c78","ios":"levelo://app?vid=0c854f8e-3157-43a2-a218-3c98ead34c78"},"vehicle_type_id":"4","last_reported":1768990576,"current_range_meters":9200,"station_id":"","pricing_plan_id":"cebpf4jnsgd1na2vs0mg"},{"bike_id":"bf9df301-dc0d-41cc-96a1-27301e9f819b","system_id":"levelo_inurba_marseille","lat":43.2848,"lon":5.48396,"is_reserved":false,"is_disabled":false,"rental_uris":{"android":"levelo://app?vid=bf9df301-dc0d-41cc-96a1-27301e9f819b","ios":"levelo://app?vid=bf9df301-dc0d-41cc-96a1-27301e9f819b"},"vehicle_type_id":"4","last_reported":1768990576,"current_range_meters":9200,"station_id":"","pricing_plan_id":"cebpf4jnsgd1na2vs0mg"},{"bike_id":"3a05cc6e-50be-46aa-996b-cd6b30cbdddf","system_id":"levelo_inurba_marseille","lat":43.26687,"lon":5.38276,"is_reserved":false,"is_disabled":false,"rental_uris":{"android":"levelo://app?vid=3a05cc6e-50be-46aa-996b-cd6b30cbdddf","ios":"levelo://app?vid=3a05cc6e-50be-46aa-996b-cd6b30cbdddf"},"vehicle_type_id":"4","last_reported":1768990576,"current_range_meters":9200,"station_id":"ce4bhg92rcd13ifvqf90","pricing_plan_id":"cebpf4jnsgd1na2vs0mg"},{"bike_id":"488d3d36-c3f0-4390-80be-f0194a76248a","system_id":"levelo_inurba_marseille","lat":43.2557,"lon":5.40438,"is_reserved":false,"is_disabled":false,"rental_uris":{"android":"levelo://app?vid=488d3d36-c3f0-4390-80be-f0194a76248a","ios":"levelo://app?vid=488d3d36-c3f0-4390-80be-f0194a76248a"},"vehicle_type_id":"4","last_reported":1768990576,"current_range_meters":9200,"station_id":"","pricing_plan_id":"cebpf4jnsgd1na2vs0mg"},{"bike_id":"d04089d6-b169-438b-a695-c095a5ab5827","system_id":"levelo_inurba_marseille","lat":43.29855,"lon":5.36288,"is_reserved":false,"is_disabled":false,"rental_uris":{"android":"levelo://app?vid=d04089d6-b169-438b-a695-c095a5ab5827","ios":"levelo://app?vid=d04089d6-b169-438b-a695-c095a5ab5827"},"vehicle_type_id":"4","last_reported":1768990576,"current_range_meters":9200,"station_id":"ce4bgpp2rcd13ifvqc3g","pricing_plan_id":"cebpf4jnsgd1na2vs0mg"},{"bike_id":"66b52710-c980-4dbe-934a-c3e8ffc0f9e1","system_id":"levelo_inurba_marseille","lat":43.33085,"lon":5.38799,"is_reserved":false,"is_disabled":false,"rental_uris":{"android":"levelo://app?vid=66b52710-c980-4dbe-934a-c3e8ffc0f9e1","ios":"levelo://app?vid=66b52710-c980-4dbe-934a-c3e8ffc0f9e1"},"vehicle_type_id":"4","last_reported":1768990576,"current_range_meters":9200,"station_id":"","pricing_plan_id":"cebpf4jnsgd1na2vs0mg"},{"bike_id":"c77f1704-f708-4072-8db2-bedc3893d958","system_id":"levelo_inurba_marseille","lat":43.23156,"lon":5.43713,"is_reserved":false,"is_disabled":false,"rental_uris":{"android":"levelo://app?vid=c77f1704-f708-4072-8db2-bedc3893d958","ios":"levelo://app?vid=c77f1704-f708-4072-8db2-bedc3893d958"},"vehicle_type_id":"4","last_reported":1768990576,"current_range_meters":9200,"station_id":"ce4bhmp2rcd13ifvqgog","pricing_plan_id":"cebpf4jnsgd1na2vs0mg"},{"bike_id":"2feb82fa-bd30-43f5-a71f-a400fb7734ef","system_id":"levelo_inurba_marseille","lat":43.30543,"lon":5.36513,"is_reserved":false,"is_disabled":false,"rental_uris":{"android":"levelo://app?vid=2feb82fa-bd30-43f5-a71f-a400fb7734ef","ios":"levelo://app?vid=2feb82fa-bd30-43f5-a71f-a400fb7734ef"},"vehicle_type_id":"4","last_reported":1768990576,"current_range_meters":9200,"station_id":"ce4bgs12rcd13ifvqcag","pricing_plan_id":"cebpf4jnsgd1na2vs0mg"},{"bike_id":"5e95f3a5-60d6-42c1-a352-b82dbff05170","system_id":"levelo_inurba_marseille","lat":43.27208,"lon":5.39196,"is_reserved":false,"is_disabled":false,"rental_uris":{"android":"levelo://app?vid=5e95f3a5-60d6-42c1-a352-b82dbff05170","ios":"levelo://app?vid=5e95f3a5-60d6-42c1-a352-b82dbff05170"},"vehicle_type_id":"4","last_reported":1768990576,"current_range_meters":9200,"station_id":"ce4bhhp2rcd13ifvqfm0","pricing_plan_id":"cebpf4jnsgd1na2vs0mg"},{"bike_id":"403c6f23-738f-48bb-b0ef-6fa5dcc29c1a","system_id":"levelo_inurba_marseille","lat":43.29575,"lon":5.37513,"is_reserved":false,"is_disabled":false,"rental_uris":{"android":"levelo://app?vid=403c6f23-738f-48bb-b0ef-6fa5dcc29c1a","ios":"levelo://app?vid=403c6f23-738f-48bb-b0ef-6fa5dcc29c1a"},"vehicle_type_id":"4","last_reported":1768990576,"current_range_meters":9200,"station_id":"ce4bgh92rcd13ifvqb50","pricing_plan_id":"cebpf4jnsgd1na2vs0mg"},{"bike_id":"f47ede7c-59f4-4af7-bf67-1cb4c2dbd5fc","system_id":"levelo_inurba_marseille","lat":43.295211,"lon":5.375115,"is_reserved":false,"is_disabled":false,"rental_uris":{"android":"levelo://app?vid=f47ede7c-59f4-4af7-bf67-1cb4c2dbd5fc","ios":"levelo://app?vid=f47ede7c-59f4-4af7-bf67-1cb4c2dbd5fc"},"vehicle_type_id":"4","last_reported":1768990576,"current_range_meters":9200,"station_id":"ce4bgkp2rcd13ifvqbmg","pricing_plan_id":"cebpf4jnsgd1na2vs0mg"},{"bike_id":"b00bbbfc-ddcb-461b-835c-1407eb840038","system_id":"levelo_inurba_marseille","lat":43.31233,"lon":5.36865,"is_reserved":false,"is_disabled":false,"rental_uris":{"android":"levelo://app?vid=b00bbbfc-ddcb-461b-835c-1407eb840038","ios":"levelo://app?vid=b00bbbfc-ddcb-461b-835c-1407eb840038"},"vehicle_type_id":"4","last_reported":1768990576,"current_range_meters":9200,"station_id":"ce4bgl92rcd13ifvqbq0","pricing_plan_id":"cebpf4jnsgd1na2vs0mg"},{"bike_id":"b5c2bc57-f6ff-41e2-9304-949bbac9473e","system_id":"levelo_inurba_marseille","lat":43.25575,"lon":5.38231,"is_reserved":false,"is_disabled":false,"rental_uris":{"android":"levelo://app?vid=b5c2bc57-f6ff-41e2-9304-949bbac9473e","ios":"levelo://app?vid=b5c2bc57-f6ff-41e2-9304-949bbac9473e"},"vehicle_type_id":"4","last_reported":1768990576,"current_range_meters":9200,"station_id":"ce4bhih2rcd13ifvqfs0","pricing_plan_id":"cebpf4jnsgd1na2vs0mg"},{"bike_id":"8d79b599-322a-4b8d-bfb0-fd0690ea34d0","system_id":"levelo_inurba_marseille","lat":43.28805,"lon":5.38072,"is_reserved":false,"is_disabled":false,"rental_uris":{"android":"levelo://app?vid=8d79b599-322a-4b8d-bfb0-fd0690ea34d0","ios":"levelo://app?vid=8d79b599-322a-4b8d-bfb0-fd0690ea34d0"},"vehicle_type_id":"4","last_reported":1768990576,"current_range_meters":9200,"station_id":"","pricing_plan_id":"cebpf4jnsgd1na2vs0mg"},{"bike_id":"3349594b-10bf-4c91-a95a-492fb8e73043","system_id":"levelo_inurba_marseille","lat":43.33337,"lon":5.41102,"is_reserved":false,"is_disabled":false,"rental_uris":{"android":"levelo://app?vid=3349594b-10bf-4c91-a95a-492fb8e73043","ios":"levelo://app?vid=3349594b-10bf-4c91-a95a-492fb8e73043"},"vehicle_type_id":"4","last_reported":1768990576,"current_range_meters":9200,"station_id":"","pricing_plan_id":"cebpf4jnsgd1na2vs0mg"},{"bike_id":"79ac280f-8d0f-4c78-92f9-69fedf2b6a2a","system_id":"levelo_inurba_marseille","lat":43.23971,"lon":5.36628,"is_reserved":false,"is_disabled":false,"rental_uris":{"android":"levelo://app?vid=79ac280f-8d0f-4c78-92f9-69fedf2b6a2a","ios":"levelo://app?vid=79ac280f-8d0f-4c78-92f9-69fedf2b6a2a"},"vehicle_type_id":"4","last_reported":1768990576,"current_range_meters":9200,"station_id":"ce4bhi12rcd13ifvqfp0","pricing_plan_id":"cebpf4jnsgd1na2vs0mg"},{"bike_id":"779abb0e-4f39-4b8e-8b0d-385800da86cf","system_id":"levelo_inurba_marseille","lat":43.28514,"lon":5.38523,"is_reserved":false,"is_disabled":true,"rental_uris":{"android":"levelo://app?vid=779abb0e-4f39-4b8e-8b0d-385800da86cf","ios":"levelo://app?vid=779abb0e-4f39-4b8e-8b0d-385800da86cf"},"vehicle_type_id":"4","last_reported":1768990576,"current_range_meters":9600,"station_id":"ce4bh8p2rcd13ifvqeb0","pricing_plan_id":"cebpf4jnsgd1na2vs0mg"},{"bike_id":"6f792e2d-ddd7-454b-9d4b-1594239891ad","system_id":"levelo_inurba_marseille","lat":43.23142,"lon":5.43735,"is_reserved":false,"is_disabled":false,"rental_uris":{"android":"levelo://app?vid=6f792e2d-ddd7-454b-9d4b-1594239891ad","ios":"levelo://app?vid=6f792e2d-ddd7-454b-9d4b-1594239891ad"},"vehicle_type_id":"4","last_reported":1768990576,"current_range_meters":9600,"station_id":"ce4bhmp2rcd13ifvqgog","pricing_plan_id":"cebpf4jnsgd1na2vs0mg"},{"bike_id":"b3af5828-d55e-4f7d-a788-0b9c5f8f9492","system_id":"levelo_inurba_marseille","lat":43.2649,"lon":5.419104,"is_reserved":false,"is_disabled":true,"rental_uris":{"android":"levelo://app?vid=b3af5828-d55e-4f7d-a788-0b9c5f8f9492","ios":"levelo://app?vid=b3af5828-d55e-4f7d-a788-0b9c5f8f9492"},"vehicle_type_id":"4","last_reported":1768990576,"current_range_meters":9600,"station_id":"","pricing_plan_id":"cebpf4jnsgd1na2vs0mg"},{"bike_id":"75b4c89b-52d7-4105-a414-b848ace7b6da","system_id":"levelo_inurba_marseille","lat":43.2721,"lon":5.39196,"is_reserved":false,"is_disabled":false,"rental_uris":{"android":"levelo://app?vid=75b4c89b-52d7-4105-a414-b848ace7b6da","ios":"levelo://app?vid=75b4c89b-52d7-4105-a414-b848ace7b6da"},"vehicle_type_id":"4","last_reported":1768990576,"current_range_meters":9600,"station_id":"ce4bhhp2rcd13ifvqfm0","pricing_plan_id":"cebpf4jnsgd1na2vs0mg"},{"bike_id":"c5a7ae00-03d0-4cfb-9840-3aa4cd0ffad6","system_id":"levelo_inurba_marseille","lat":43.28952,"lon":5.39654,"is_reserved":false,"is_disabled":false,"rental_uris":{"android":"levelo://app?vid=c5a7ae00-03d0-4cfb-9840-3aa4cd0ffad6","ios":"levelo://app?vid=c5a7ae00-03d0-4cfb-9840-3aa4cd0ffad6"},"vehicle_type_id":"4","last_reported":1768990576,"current_range_meters":9600,"station_id":"ce4bh3h2rcd13ifvqdn0","pricing_plan_id":"cebpf4jnsgd1na2vs0mg"},{"bike_id":"22bc6d8e-7e0c-4234-afe0-c88e2589ac70","system_id":"levelo_inurba_marseille","lat":43.27054,"lon":5.39895,"is_reserved":false,"is_disabled":false,"rental_uris":{"android":"levelo://app?vid=22bc6d8e-7e0c-4234-afe0-c88e2589ac70","ios":"levelo://app?vid=22bc6d8e-7e0c-4234-afe0-c88e2589ac70"},"vehicle_type_id":"4","last_reported":1768990576,"current_range_meters":9600,"station_id":"","pricing_plan_id":"cebpf4jnsgd1na2vs0mg"},{"bike_id":"77386d1b-a716-434c-a4f6-ae30c9314cb3","system_id":"levelo_inurba_marseille","lat":43.22934,"lon":5.35393,"is_reserved":false,"is_disabled":false,"rental_uris":{"android":"levelo://app?vid=77386d1b-a716-434c-a4f6-ae30c9314cb3","ios":"levelo://app?vid=77386d1b-a716-434c-a4f6-ae30c9314cb3"},"vehicle_type_id":"4","last_reported":1768990576,"current_range_meters":9600,"station_id":"cpo3532slgdg3j2ikp40","pricing_plan_id":"cebpf4jnsgd1na2vs0mg"},{"bike_id":"460766a1-519b-4704-a327-652a29616e2a","system_id":"levelo_inurba_marseille","lat":43.24668,"lon":5.38157,"is_reserved":false,"is_disabled":false,"rental_uris":{"android":"levelo://app?vid=460766a1-519b-4704-a327-652a29616e2a","ios":"levelo://app?vid=460766a1-519b-4704-a327-652a29616e2a"},"vehicle_type_id":"4","last_reported":1768990576,"current_range_meters":9600,"station_id":"ce4bhih2rcd13ifvqfr0","pricing_plan_id":"cebpf4jnsgd1na2vs0mg"},{"bike_id":"737cdf6e-8c2e-4b43-8e7d-478c69e4c6a4","system_id":"levelo_inurba_marseille","lat":43.33058,"lon":5.39,"is_reserved":false,"is_disabled":false,"rental_uris":{"android":"levelo://app?vid=737cdf6e-8c2e-4b43-8e7d-478c69e4c6a4","ios":"levelo://app?vid=737cdf6e-8c2e-4b43-8e7d-478c69e4c6a4"},"vehicle_type_id":"4","last_reported":1768990576,"current_range_meters":9600,"station_id":"","pricing_plan_id":"cebpf4jnsgd1na2vs0mg"},{"bike_id":"7f1d8e5c-3363-49f3-8cc4-0ce47a0acd21","system_id":"levelo_inurba_marseille","lat":43.30662,"lon":5.40094,"is_reserved":false,"is_disabled":false,"rental_uris":{"android":"levelo://app?vid=7f1d8e5c-3363-49f3-8cc4-0ce47a0acd21","ios":"levelo://app?vid=7f1d8e5c-3363-49f3-8cc4-0ce47a0acd21"},"vehicle_type_id":"4","last_reported":1768990576,"current_range_meters":10000,"station_id":"ce4bh112rcd13ifvqda0","pricing_plan_id":"cebpf4jnsgd1na2vs0mg"},