{"last_updated":1743170983,"ttl":60,"version":"2.2","data":{"bikes":[{"bike_id":"8526da9d-05ec-4220-ba85-139293a7b29a","system_id":"levelo_inurba_marseille","lat":43.28263,"lon":5.35081,"is_reserved":false,"is_disabled":false,"rental_uris":{"android":"levelo://app?vid=8526da9d-05ec-4220-ba85-139293a7b29a","ios":"levelo://app?vid=8526da9d-05ec-4220-ba85-139293a7b29a"},"vehicle_type_id":"4","last_reported":1743170983,"current_range_meters":2800,"station_id":"ce4bhbp2rcd13ifvqerg","pricing_plan_id":"cebpf4jnsgd1na2vs0mg"},{"bike_id":"330cbe84-c53d-4bfd-8f14-6be40b853939","system_id":"levelo_inurba_marseille","lat":43.32359,"lon":5.36752,"is_reserved":false,"is_disabled":false,"rental_uris":{"android":"levelo://app?vid=330cbe84-c53d-4bfd-8f14-6be40b853939","ios":"levelo://app?vid=330cbe84-c53d-4bfd-8f14-6be40b853939"},"vehicle_type_id":"4","last_reported":1743170983,"current_range_meters":2800,"station_id":"ce4bhsh2rcd13ifvqi2g","pricing_plan_id":"cebpf4jnsgd1na2vs0mg"},{"bike_id":"9034d27a-b95d-4315-8ce7-bdadc422b160","system_id":"levelo_inurba_marseille","lat":43.290395,"lon":5.386417,"is_reserved":false,"is_disabled":false,"rental_uris":{"android":"levelo://app?vid=9034d27a-b95d-4315-8ce7-bdadc422b160","ios":"levelo://app?vid=9034d27a-b95d-4315-8ce7-bdadc422b160"},"vehicle_type_id":"4","last_reported":1743170983,"current_range_meters":2800,"station_id":"ce4bh4p2rcd13ifvqe0g","pricing_plan_id":"cebpf4jnsgd1na2vs0mg"},{"bike_id":"21052002-290d-46fa-9d0c-78d3fc458077","system_id":"levelo_inurba_marseille","lat":43.28877,"lon":5.35969,"is_reserved":false,"is_disabled":false,"rental_uris":{"android":"levelo://app?vid=21052002-290d-46fa-9d0c-78d3fc458077","ios":"levelo://app?vid=21052002-290d-46fa-9d0c-78d3fc458077"},"vehicle_type_id":"4","last_reported":1743170983,"current_range_meters":2800,"station_id":"","pricing_plan_id":"cebpf4jnsgd1na2vs0mg"},{"bike_id":"2648bce3-8f78-442e-b733-d9347ec43f83","system_id":"levelo_inurba_marseille","lat":43.30474,"lon":5.37905,"is_reserved":false,"is_disabled":false,"rental_uris":{"android":"levelo://app?vid=2648bce3-8f78-442e-b733-d9347ec43f83","ios":"levelo://app?vid=2648bce3-8f78-442e-b733-d9347ec43f83"},"vehicle_type_id":"4","last_reported":1743170983,"current_range_meters":3200,"station_id":"ce4bgup2rcd13ifvqcn0","pricing_plan_id":"cebpf4jnsgd1na2vs0mg"},{"bike_id":"5fd24c06-1d60-41a3-bc1c-c2812c8378de","system_id":"levelo_inurba_marseille","lat":43.30544,"lon":5.36525,"is_reserved":false,"is_disabled":false,"rental_uris":{"android":"levelo://app?vid=5fd24c06-1d60-41a3-bc1c-c2812c8378de","ios":"levelo://app?vid=5fd24c06-1d60-41a3-bc1c-c2812c8378de"},"vehicle_type_id":"4","last_reported":1743170983,"current_range_meters":3200,"station_id":"ce4bgs12rcd13ifvqcag","pricing_plan_id":"cebpf4jnsgd1na2vs0mg"},{"bike_id":"b0e89f64-9c26-4766-b7a8-d99c2c9b8549","system_id":"levelo_inurba_marseille","lat":43.290048,"lon":5.356176,"is_reserved":false,"is_disabled":false,"rental_uris":{"android":"levelo://app?vid=b0e89f64-9c26-4766-b7a8-d99c2c9b8549","ios":"levelo://app?vid=b0e89f64-9c26-4766-b7a8-d99c2c9b8549"},"vehicle_type_id":"4","last_reported":1743170983,"current_range_meters":3200,"station_id":"ce4bhb92rcd13ifvqen0","pricing_plan_id":"cebpf4jnsgd1na2vs0mg"},{"bike_id":"56e7b951-e756-473b-a2d4-96f43619c4fb","system_id":"levelo_inurba_marseille","lat":43.28273,"lon":5.35065,"is_reserved":false,"is_disabled":false,"rental_uris":{"android":"levelo://app?vid=56e7b951-e756-473b-a2d4-96f43619c4fb","ios":"levelo://app?vid=56e7b951-e756-473b-a2d4-96f43619c4fb"},"vehicle_type_id":"4","last_reported":1743170983,"current_range_meters":800,"station_id":"ce4bhbp2rcd13ifvqerg","pricing_plan_id":"cebpf4jnsgd1na2vs0mg"},{"bike_id":"ca52e119-fb93-4258-b327-8c4652e9ec10","system_id":"levelo_inurba_marseille","lat":43.28448,"lon":5.39183,"is_reserved":false,"is_disabled":false,"rental_uris":{"android":"levelo://app?vid=ca52e119-fb93-4258-b327-8c4652e9ec10","ios":"levelo://app?vid=ca52e119-fb93-4258-b327-8c4652e9ec10"},"vehicle_type_id":"4","last_reported":1743170983,"current_range_meters":3200,"station_id":"ce4bhoh2rcd13ifvqh5g","pricing_plan_id":"cebpf4jnsgd1na2vs0mg"},{"bike_id":"1dc766a6-6d2b-4eb8-9062-b1d2b1b4e1d0","system_id":"levelo_inurba_marseille","lat":43.29789,"lon":5.39366,"is_reserved":false,"is_disabled":false,"rental_uris":{"android":"levelo://app?vid=1dc766a6-6d2b-4eb8-9062-b1d2b1b4e1d0","ios":"levelo://app?vid=1dc766a6-6d2b-4eb8-9062-b1d2b1b4e1d0"},"vehicle_type_id":"4","last_reported":1743170983,"current_range_meters":3600,"station_id":"chh1huq6cuj3fo74tm60","pricing_plan_id":"cebpf4jnsgd1na2vs0mg"},{"bike_id":"549b99e2-48ce-4e4f-9b2f-0716c9d6f861","system_id":"levelo_inurba_marseille","lat":43.28696,"lon":5.37395,"is_reserved":false,"is_disabled":false,"rental_uris":{"android":"levelo://app?vid=549b99e2-48ce-4e4f-9b2f-0716c9d6f861","ios":"levelo://app?vid=549b99e2-48ce-4e4f-9b2f-0716c9d6f861"},"vehicle_type_id":"4","last_reported":1743170983,"current_range_meters":4000,"station_id":"ce4bh3p2rcd13ifvqdq0","pricing_plan_id":"cebpf4jnsgd1na2vs0mg"},{"bike_id":"0f85d35d-de69-4423-b4d8-767f7c838383","system_id":"levelo_inurba_marseille","lat":43.25867,"lon":5.39898,"is_reserved":false,"is_disabled":false,"rental_uris":{"android":"levelo://app?vid=0f85d35d-de69-4423-b4d8-767f7c838383","ios":"levelo://app?vid=0f85d35d-de69-4423-b4d8-767f7c838383"},"vehicle_type_id":"4","last_reported":1743170983,"current_range_meters":3600,"station_id":"ce4bhl92rcd13ifvqghg","pricing_plan_id":"cebpf4jnsgd1na2vs0mg"},{"bike_id":"515faa86-fa39-46ff-930a-2fe51eead6f6","system_id":"levelo_inurba_marseille","lat":43.26578,"lon":5.39383,"is_reserved":false,"is_disabled":false,"rental_uris":{"android":"levelo://app?vid=515faa86-fa39-46ff-930a-2fe51eead6f6","ios":"levelo://app?vid=515faa86-fa39-46ff-930a-2fe51eead6f6"},"vehicle_type_id":"4","last_reported":1743170983,"current_range_meters":3600,"station_id":"","pricing_plan_id":"cebpf4jnsgd1na2vs0mg"},{"bike_id":"69465730-e89c-44ee-88aa-0ed36a9bb3c2","system_id":"levelo_inurba_marseille","lat":43.292528,"lon":5.367546,"is_reserved":false,"is_disabled":false,"rental_uris":{"android":"levelo://app?vid=69465730-e89c-44ee-88aa-0ed36a9bb3c2","ios":"levelo://app?vid=69465730-e89c-44ee-88aa-0ed36a9bb3c2"},"vehicle_type_id":"4","last_reported":1743170983,"current_range_meters":3600,"station_id":"ce4bgjh2rcd13ifvqbg0","pricing_plan_id":"cebpf4jnsgd1na2vs0mg"},{"bike_id":"2ed5ddf8-4f62-4c6b-950d-90ba584ab1df","system_id":"levelo_inurba_marseille","lat":43.29618,"lon":5.37702,"is_reserved":false,"is_disabled":false,"rental_uris":{"android":"levelo://app?vid=2ed5ddf8-4f62-4c6b-950d-90ba584ab1df","ios":"levelo://app?vid=2ed5ddf8-4f62-4c6b-950d-90ba584ab1df"},"vehicle_type_id":"4","last_reported":1743170983,"current_range_meters":3600,"station_id":"ce4bgi92rcd13ifvqb90","pricing_plan_id":"cebpf4jnsgd1na2vs0mg"},{"bike_id":"e762fe26-1ae4-4890-b27a-9b9e72fc5150","system_id":"levelo_inurba_marseille","lat":43.298065,"lon":5.381088,"is_reserved":false,"is_disabled":false,"rental_uris":{"android":"levelo://app?vid=e762fe26-1ae4-4890-b27a-9b9e72fc5150","ios":"levelo://app?vid=e762fe26-1ae4-4890-b27a-9b9e72fc5150"},"vehicle_type_id":"4","last_reported":1743170983,"current_range_meters":4000,"station_id":"","pricing_plan_id":"cebpf4jnsgd1na2vs0mg"},{"bike_id":"72407b9c-71b7-4feb-83e9-97e5f2a36163","system_id":"levelo_inurba_marseille","lat":43.24167,"lon":5.36395,"is_reserved":false,"is_disabled":false,"rental_uris":{"android":"levelo://app?vid=72407b9c-71b7-4feb-83e9-97e5f2a36163","ios":"levelo://app?vid=72407b9c-71b7-4feb-83e9-97e5f2a36163"},"vehicle_type_id":"4","last_reported":1743170983,"current_range_meters":4000,"station_id":"cpo36qri1sfpv3e86is0","pricing_plan_id":"cebpf4jnsgd1na2vs0mg"},{"bike_id":"0e552a2b-b844-4a07-bbd3-fc3f148dedc9","system_id":"levelo_inurba_marseille","lat":43.28479,"lon":5.385566,"is_reserved":false,"is_disabled":false,"rental_uris":{"android":"levelo://app?vid=0e552a2b-b844-4a07-bbd3-fc3f148dedc9","ios":"levelo://app?vid=0e552a2b-b844-4a07-bbd3-fc3f148dedc9"},"vehicle_type_id":"4","last_reported":1743170983,"current_range_meters":4000,"station_id":"ce4bh8p2rcd13ifvqeb0","pricing_plan_id":"cebpf4jnsgd1na2vs0mg"},{"bike_id":"bf11597b-0c33-458e-b8a4-c91ea9d1fe61","system_id":"levelo_inurba_marseille","lat":43.28615,"lon":5.35103,"is_reserved":false,"is_disabled":false,"rental_uris":{"android":"levelo://app?vid=bf11597b-0c33-458e-b8a4-c91ea9d1fe61","ios":"levelo://app?vid=bf11597b-0c33-458e-b8a4-c91ea9d1fe61"},"vehicle_type_id":"4","last_reported":1743170983,"current_range_meters":4000,"station_id":"ce4bhch2rcd13ifvqeug","pricing_plan_id":"cebpf4jnsgd1na2vs0mg"},{"bike_id":"cef4d0b2-cb1e-442e-8588-e60cc118d812","system_id":"levelo_inurba_marseille","lat":43.28038,"lon":5.36937,"is_reserved":false,"is_disabled":false,"rental_uris":{"android":"levelo://app?vid=cef4d0b2-cb1e-442e-8588-e60cc118d812","ios":"levelo://app?vid=cef4d0b2-cb1e-442e-8588-e60cc118d812"},"vehicle_type_id":"4","last_reported":1743170983,"current_range_meters":4800,"station_id":"ce4bha12rcd13ifvqef0","pricing_plan_id":"cebpf4jnsgd1na2vs0mg"},{"bike_id":"0506c11c-2531-4d12-95e0-a715f0c39f65","system_id":"levelo_inurba_marseille","lat":43.30416,"lon":5.397279,"is_reserved":false,"is_disabled":false,"rental_uris":{"android":"levelo://app?vid=0506c11c-2531-4d12-95e0-a715f0c39f65","ios":"levelo://app?vid=0506c11c-2531-4d12-95e0-a715f0c39f65"},"vehicle_type_id":"4","last_reported":1743170983,"current_range_meters":4400,"station_id":"","pricing_plan_id":"cebpf4jnsgd1na2vs0mg"},{"bike_id":"5a0ade2d-b37e-4e85-94ed-bcb603e3fea3","system_id":"levelo_inurba_marseille","lat":43.303864,"lon":5.418285,"is_reserved":false,"is_disabled":false,"rental_uris":{"android":"levelo://app?vid=5a0ade2d-b37e-4e85-94ed-bcb603e3fea3","ios":"levelo://app?vid=5a0ade2d-b37e-4e85-94ed-bcb603e3fea3"},"vehicle_type_id":"4","last_reported":1743170983,"current_range_meters":4400,"station_id":"ce4bhop2rcd13ifvqh7g","pricing_plan_id":"cebpf4jnsgd1na2vs0mg"},{"bike_id":"36d61116-0634-4cf4-9bed-8a82ddc5a6c5","system_id":"levelo_inurba_marseille","lat":43.3015,"lon":5.38078,"is_reserved":false,"is_disabled":false,"rental_uris":{"android":"levelo://app?vid=36d61116-0634-4cf4-9bed-8a82ddc5a6c5","ios":"levelo://app?vid=36d61116-0634-4cf4-9bed-8a82ddc5a6c5"},"vehicle_type_id":"4","last_reported":1743170983,"current_range_meters":4400,"station_id":"ce4bgjp2rcd13ifvqbh0","pricing_plan_id":"cebpf4jnsgd1na2vs0mg"},{"bike_id":"3760243d-666b-4b1a-8b1d-f77b96f10b82","system_id":"levelo_inurba_marseille","lat":43.25092,"lon":5.39538,"is_reserved":false,"is_disabled":false,"rental_uris":{"android":"levelo://app?vid=3760243d-666b-4b1a-8b1d-f77b96f10b82","ios":"levelo://app?vid=3760243d-666b-4b1a-8b1d-f77b96f10b82"},"vehicle_type_id":"4","last_reported":1743170983,"current_range_meters":4400,"station_id":"ce4bhm12rcd13ifvqgkg","pricing_plan_id":"cebpf4jnsgd1na2vs0mg"},{"bike_id":"9b32423e-4016-4187-891b-f153e9fc656d","system_id":"levelo_inurba_marseille","lat":43.2922,"lon":5.36085,"is_reserved":false,"is_disabled":false,"rental_uris":{"android":"levelo://app?vid=9b32423e-4016-4187-891b-f153e9fc656d","ios":"levelo://app?vid=9b32423e-4016-4187-891b-f153e9fc656d"},"vehicle_type_id":"4","last_reported":1743170983,"current_range_meters":4400,"station_id":"ce4bhbh2rcd13ifvqeqg","pricing_plan_id":"cebpf4jnsgd1na2vs0mg"},{"bike_id":"65d95aec-81e5-4637-82c1-01fd4130c51e","system_id":"levelo_inurba_marseille","lat":43.30288,"lon":5.37711,"is_reserved":false,"is_disabled":false,"rental_uris":{"android":"levelo://app?vid=65d95aec-81e5-4637-82c1-01fd4130c51e","ios":"levelo://app?vid=65d95aec-81e5-4637-82c1-01fd4130c51e"},"vehicle_type_id":"4","last_reported":1743170983,"current_range_meters":4400,"station_id":"ce4bguh2rcd13ifvqcj0","pricing_plan_id":"cebpf4jnsgd1na2vs0mg"},{"bike_id":"e17800f8-db31-4696-b7f7-47eb7fedad91","system_id":"levelo_inurba_marseille","lat":43.22934,"lon":5.35374,"is_reserved":false,"is_disabled":false,"rental_uris":{"android":"levelo://app?vid=e17800f8-db31-4696-b7f7-47eb7fedad91","ios":"levelo://app?vid=e17800f8-db31-4696-b7f7-47eb7fedad91"},"vehicle_type_id":"4","last_reported":1743170983,"current_range_meters":4400,"station_id":"cpo3532slgdg3j2ikp40","pricing_plan_id":"cebpf4jnsgd1na2vs0mg"},{"bike_id":"ab13311e-36f8-45cf-8f37-164e2df36d6a","system_id":"levelo_inurba_marseille","lat":43.30304,"lon":5.39214,"is_reserved":false,"is_disabled":false,"rental_uris":{"android":"levelo://app?vid=ab13311e-36f8-45cf-8f37-164e2df36d6a","ios":"levelo://app?vid=ab13311e-36f8-45cf-8f37-164e2df36d6a"},"vehicle_type_id":"4","last_reported":1743170983,"current_range_meters":4800,"station_id":"ce4bgkh2rcd13ifvqbk0","pricing_plan_id":"cebpf4jnsgd1na2vs0mg"},{"bike_id":"dabfec76-3b19-409b-b713-1e5581cd0294","system_id":"levelo_inurba_marseille","lat":43.28938,"lon":5.36641,"is_reserved":false,"is_disabled":false,"rental_uris":{"android":"levelo://app?vid=dabfec76-3b19-409b-b713-1e5581cd0294","ios":"levelo://app?vid=dabfec76-3b19-409b-b713-1e5581cd0294"},"vehicle_type_id":"4","last_reported":1743170983,"current_range_meters":4800,"station_id":"ce4bhap2rcd13ifvqek0","pricing_plan_id":"cebpf4jnsgd1na2vs0mg"},{"bike_id":"c18155db-65c7-4d5a-8c5b-923eb75c675d","system_id":"levelo_inurba_marseille","lat":43.32107,"lon":5.36785,"is_reserved":false,"is_disabled":false,"rental_uris":{"android":"levelo://app?vid=c18155db-65c7-4d5a-8c5b-923eb75c675d","ios":"levelo://app?vid=c18155db-65c7-4d5a-8c5b-923eb75c675d"},"vehicle_type_id":"4","last_reported":1743170983,"current_range_meters":4800,"station_id":"ce4bhrh2rcd13ifvqhug","pricing_plan_id":"cebpf4jnsgd1na2vs0mg"},{"bike_id":"5e7d515b-946e-40cf-99c1-3c51f2270c80","system_id":"levelo_inurba_marseille","lat":43.2738,"lon":5.36235,"is_reserved":false,"is_disabled":false,"rental_uris":{"android":"levelo://app?vid=5e7d515b-946e-40cf-99c1-3c51f2270c80","ios":"levelo://app?vid=5e7d515b-946e-40cf-99c1-3c51f2270c80"},"vehicle_type_id":"4","last_reported":1743170983,"current_range_meters":4800,"station_id":"ce4bhbh2rcd13ifvqeo0","pricing_plan_id":"cebpf4jnsgd1na2vs0mg"},{"bike_id":"ce2ec726-5395-47b6-9340-2c39feb627fb","system_id":"levelo_inurba_marseille","lat":43.27374,"lon":5.36251,"is_reserved":false,"is_disabled":false,"rental_uris":{"android":"levelo://app?vid=ce2ec726-5395-47b6-9340-2c39feb627fb","ios":"levelo://app?vid=ce2ec726-5395-47b6-9340-2c39feb627fb"},"vehicle_type_id":"4","last_reported":1743170983,"current_range_meters":5600,"station_id":"ce4bhbh2rcd13ifvqeo0","pricing_plan_id":"cebpf4jnsgd1na2vs0mg"},{"bike_id":"e5a59378-a789-4968-b1ce-36de21ee8347","system_id":"levelo_inurba_marseille","lat":43.25943,"lon":5.40914,"is_reserved":false,"is_disabled":false,"rental_uris":{"android":"levelo://app?vid=e5a59378-a789-4968-b1ce-36de21ee8347","ios":"levelo://app?vid=e5a59378-a789-4968-b1ce-36de21ee8347"},"vehicle_type_id":"4","last_reported":1743170983,"current_range_meters":5600,"station_id":"ce4bhm92rcd13ifvqglg","pricing_plan_id":"cebpf4jnsgd1na2vs0mg"},{"bike_id":"69225a37-07e8-449b-a22c-cba6a35a602f","system_id":"levelo_inurba_marseille","lat":43.28945,"lon":5.3963,"is_reserved":false,"is_disabled":false,"rental_uris":{"android":"levelo://app?vid=69225a37-07e8-449b-a22c-cba6a35a602f","ios":"levelo://app?vid=69225a37-07e8-449b-a22c-cba6a35a602f"},"vehicle_type_id":"4","last_reported":1743170983,"current_range_meters":5600,"station_id":"ce4bh3h2rcd13ifvqdn0","pricing_plan_id":"cebpf4jnsgd1na2vs0mg"},{"bike_id":"affeb7b1-7349-412b-984f-4e09e04793c2","system_id":"levelo_inurba_marseille","lat":43.27942,"lon":5.41046,"is_reserved":false,"is_disabled":false,"rental_uris":{"android":"levelo://app?vid=affeb7b1-7349-412b-984f-4e09e04793c2","ios":"levelo://app?vid=affeb7b1-7349-412b-984f-4e09e04793c2"},"vehicle_type_id":"4","last_reported":1743170983,"current_range_meters":5600,"station_id":"ce4bhnp2rcd13ifvqh0g","pricing_plan_id":"cebpf4jnsgd1na2vs0mg"},{"bike_id":"eb9ee757-b7e3-456b-8f5b-f8fb2f49a112","system_id":"levelo_inurba_marseille","lat":43.27946,"lon":5.387,"is_reserved":false,"is_disabled":false,"rental_uris":{"android":"levelo://app?vid=eb9ee757-b7e3-456b-8f5b-f8fb2f49a112","ios":"levelo://app?vid=eb9ee757-b7e3-456b-8f5b-f8fb2f49a112"},"vehicle_type_id":"4","last_reported":1743170983,"current_range_meters":5600,"station_id":"ce4bhg12rcd13ifvqf80","pricing_plan_id":"cebpf4jnsgd1na2vs0mg"},{"bike_id":"0acd526e-d7bf-446f-8abc-688b22a02cf0","system_id":"levelo_inurba_marseille","lat":43.27374,"lon":5.36237,"is_reserved":false,"is_disabled":false,"rental_uris":{"android":"levelo://app?vid=0acd526e-d7bf-446f-8abc-688b22a02cf0","ios":"levelo://app?vid=0acd526e-d7bf-446f-8abc-688b22a02cf0"},"vehicle_type_id":"4","last_reported":1743170983,"current_range_meters":5600,"station_id":"ce4bhbh2rcd13ifvqeo0","pricing_plan_id":"cebpf4jnsgd1na2vs0mg"},{"bike_id":"c55d3df9-6bd2-406e-93cc-6963ce11d8a1","system_id":"levelo_inurba_marseille","lat":43.33602,"lon":5.4101,"is_reserved":false,"is_disabled":false,"rental_uris":{"android":"levelo://app?vid=c55d3df9-6bd2-406e-93cc-6963ce11d8a1","ios":"levelo://app?vid=c55d3df9-6bd2-406e-93cc-6963ce11d8a1"},"vehicle_type_id":"4","last_reported":1743170983,"current_range_meters":5600,"station_id":"ce4bhqh2rcd13ifvqhmg","pricing_plan_id":"cebpf4jnsgd1na2vs0mg"},{"bike_id":"ee32161e-8dd0-4c04-9ddb-7e7068be431b","system_id":"levelo_inurba_marseille","lat":43.298668,"lon":5.397238,"is_reserved":false,"is_disabled":false,"rental_uris":{"android":"levelo://app?vid=ee32161e-8dd0-4c04-9ddb-7e7068be431b","ios":"levelo://app?vid=ee32161e-8dd0-4c04-9ddb-7e7068be431b"},"vehicle_type_id":"4","last_reported":1743170983,"current_range_meters":6000,"station_id":"ce4bh0h2rcd13ifvqd50","pricing_plan_id":"cebpf4jnsgd1na2vs0mg"},{"bike_id":"f6151552-c18d-4656-bbb7-3cea5d473a1f","system_id":"levelo_inurba_marseille","lat":43.26196,"lon":5.37452,"is_reserved":false,"is_disabled":false,"rental_uris":{"android":"levelo://app?vid=f6151552-c18d-4656-bbb7-3cea5d473a1f","ios":"levelo://app?vid=f6151552-c18d-4656-bbb7-3cea5d473a1f"},"vehicle_type_id":"4","last_reported":1743170983,"current_range_meters":6000,"station_id":"ce4bhgp2rcd13ifvqfc0","pricing_plan_id":"cebpf4jnsgd1na2vs0mg"},{"bike_id":"c56bd301-aefc-4ae9-af33-29a3950d1b37","system_id":"levelo_inurba_marseille","lat":43.28449,"lon":5.39205,"is_reserved":false,"is_disabled":false,"rental_uris":{"android":"levelo://app?vid=c56bd301-aefc-4ae9-af33-29a3950d1b37","ios":"levelo://app?vid=c56bd301-aefc-4ae9-af33-29a3950d1b37"},"vehicle_type_id":"4","last_reported":1743170983,"current_range_meters":6000,"station_id":"ce4bhoh2rcd13ifvqh5g","pricing_plan_id":"cebpf4jnsgd1na2vs0mg"},{"bike_id":"c756d32d-efcb-4a9e-8494-37e13de07e39","system_id":"levelo_inurba_marseille","lat":43.26949,"lon":5.38636,"is_reserved":false,"is_disabled":false,"rental_uris":{"android":"levelo://app?vid=c756d32d-efcb-4a9e-8494-37e13de07e39","ios":"levelo://app?vid=c756d32d-efcb-4a9e-8494-37e13de07e39"},"vehicle_type_id":"4","last_reported":1743170983,"current_range_meters":6000,"station_id":"ce4bhh92rcd13ifvqfh0","pricing_plan_id":"cebpf4jnsgd1na2vs0mg"},{"bike_id":"c977ba8e-3dac-45a0-ab0c-836c45212ead","system_id":"levelo_inurba_marseille","lat":43.28484,"lon":5.3915,"is_reserved":false,"is_disabled":false,"rental_uris":{"android":"levelo://app?vid=c977ba8e-3dac-45a0-ab0c-836c45212ead","ios":"levelo://app?vid=c977ba8e-3dac-45a0-ab0c-836c45212ead"},"vehicle_type_id":"4","last_reported":1743170983,"current_range_meters":6000,"station_id":"ce4bhoh2rcd13ifvqh5g","pricing_plan_id":"cebpf4jnsgd1na2vs0mg"},{"bike_id":"d43b2a86-10ae-42b3-8b7e-8bb72fd0fb1c","system_id":"levelo_inurba_marseille","lat":43.28868,"lon":5.35826,"is_reserved":false,"is_disabled":false,"rental_uris":{"android":"levelo://app?vid=d43b2a86-10ae-42b3-8b7e-8bb72fd0fb1c","ios":"levelo://app?vid=d43b2a86-10ae-42b3-8b7e-8bb72fd0fb1c"},"vehicle_type_id":"4","last_reported":1743170983,"current_range_meters":6000,"station_id":"ce4bhb12rcd13ifvqem0","pricing_plan_id":"cebpf4jnsgd1na2vs0mg"},{"bike_id":"9108efae-73e9-412e-8196-cfca317be609","system_id":"levelo_inurba_marseille","lat":43.29313,"lon":5.37189,"is_reserved":false,"is_disabled":true,"rental_uris":{"android":"levelo://app?vid=9108efae-73e9-412e-8196-cfca317be609","ios":"levelo://app?vid=9108efae-73e9-412e-8196-cfca317be609"},"vehicle_type_id":"4","last_reported":1743170983,"current_range_meters":6400,"station_id":"ce4bgh92rcd13ifvqb40","pricing_plan_id":"cebpf4jnsgd1na2vs0mg"},{"bike_id":"f61bba60-558a-48b1-83cf-d11d1ed39420","system_id":"levelo_inurba_marseille","lat":43.29365,"lon":5.37867,"is_reserved":false,"is_disabled":false,"rental_uris":{"android":"levelo://app?vid=f61bba60-558a-48b1-83cf-d11d1ed39420","ios":"levelo://app?vid=f61bba60-558a-48b1-83cf-d11d1ed39420"},"vehicle_type_id":"4","last_reported":1743170983,"current_range_meters":7200,"station_id":"ce4bgjh2rcd13ifvqbf0","pricing_plan_id":"cebpf4jnsgd1na2vs0mg"},{"bike_id":"85ffaa9e-325a-46a0-9ecf-802df6ae673c","system_id":"levelo_inurba_marseille","lat":43.305439,"lon":5.365538,"is_reserved":false,"is_disabled":false,"rental_uris":{"android":"levelo://app?vid=85ffaa9e-325a-46a0-9ecf-802df6ae673c","ios":"levelo://app?vid=85ffaa9e-325a-46a0-9ecf-802df6ae673c"},"vehicle_type_id":"4","last_reported":1743170983,"current_range_meters":6400,"station_id":"ce4bgs12rcd13ifvqcag","pricing_plan_id":"cebpf4jnsgd1na2vs0mg"},{"bike_id":"a3da10bc-b067-4a00-b60a-7be6ff45323e","system_id":"levelo_inurba_marseille","lat":43.32108,"lon":5.367708,"is_reserved":false,"is_disabled":false,"rental_uris":{"android":"levelo://app?vid=a3da10bc-b067-4a00-b60a-7be6ff45323e","ios":"levelo://app?vid=a3da10bc-b067-4a00-b60a-7be6ff45323e"},"vehicle_type_id":"4","last_reported":1743170983,"current_range_meters":6400,"station_id":"ce4bhrh2rcd13ifvqhug","pricing_plan_id":"cebpf4jnsgd1na2vs0mg"},{"bike_id":"ef697284-8d4a-4342-948e-e74c465a2e60","system_id":"levelo_inurba_marseille","lat":43.290344,"lon":5.386521,"is_reserved":false,"is_disabled":false,"rental_uris":{"android":"levelo://app?vid=ef697284-8d4a-4342-948e-e74c465a2e60","ios":"levelo://app?vid=ef697284-8d4a-4342-948e-e74c465a2e60"},"vehicle_type_id":"4","last_reported":1743170983,"current_range_meters":6400,"station_id":"ce4bhoh2rcd13ifvqh5g","pricing_plan_id":"cebpf4jnsgd1na2vs0mg"},{"bike_id":"334783e7-8a4d-4cfd-99a5-a660fda224da","system_id":"levelo_inurba_marseille","lat":43.25826,"lon":5.39441,"is_reserved":false,"is_disabled":false,"rental_uris":{"android":"levelo://app?vid=334783e7-8a4d-4cfd-99a5-a660fda224da","ios":"levelo://app?vid=334783e7-8a4d-4cfd-99a5-a660fda224da"},"vehicle_type_id":"4","last_reported":1743170983,"current_range_meters":6400,"station_id":"ce4bhip2rcd13ifvqft0","pricing_plan_id":"cebpf4jnsgd1na2vs0mg"},{"bike_id":"70e9d3f4-134d-44c3-a195-30db5b1615c8","system_id":"levelo_inurba_marseille","lat":43.27972,"lon":5.38732,"is_reserved":false,"is_disabled":false,"rental_uris":{"android":"levelo://app?vid=70e9d3f4-134d-44c3-a195-30db5b1615c8","ios":"levelo://app?vid=70e9d3f4-134d-44c3-a195-30db5b1615c8"},"vehicle_type_id":"4","last_reported":1743170983,"current_range_meters":5600,"station_id":"ce4bhg12rcd13ifvqf80","pricing_plan_id":"cebpf4jnsgd1na2vs0mg"},{"bike_id":"fc8e8371-f4e9-4721-bc19-563801e389dc","system_id":"levelo_inurba_marseille","lat":43.337444,"lon":5.374475,"is_reserved":false,"is_disabled":false,"rental_uris":{"android":"levelo://app?vid=fc8e8371-f4e9-4721-bc19-563801e389dc","ios":"levelo://app?vid=fc8e8371-f4e9-4721-bc19-563801e389dc"},"vehicle_type_id":"4","last_reported":1743170983,"current_range_meters":6400,"station_id":"","pricing_plan_id":"cebpf4jnsgd1na2vs0mg"},{"bike_id":"52e8e9df-df0d-4c5e-9920-db3b0847638f","system_id":"levelo_inurba_marseille","lat":43.29262,"lon":5.37615,"is_reserved":false,"is_disabled":false,"rental_uris":{"android":"levelo://app?vid=52e8e9df-df0d-4c5e-9920-db3b0847638f","ios":"levelo://app?vid=52e8e9df-df0d-4c5e-9920-db3b0847638f"},"vehicle_type_id":"4","last_reported":1743170983,"current_range_meters":6800,"station_id":"ce4bgi12rcd13ifvqb80","pricing_plan_id":"cebpf4jnsgd1na2vs0mg"},{"bike_id":"07ee6bfa-3b79-4af2-bfdd-95bdebf3b88c","system_id":"levelo_inurba_marseille","lat":43.313367,"lon":5.396892,"is_reserved":false,"is_disabled":false,"rental_uris":{"android":"levelo://app?vid=07ee6bfa-3b79-4af2-bfdd-95bdebf3b88c","ios":"levelo://app?vid=07ee6bfa-3b79-4af2-bfdd-95bdebf3b88c"},"vehicle_type_id":"4","last_reported":1743170983,"current_range_meters":6800,"station_id":"","pricing_plan_id":"cebpf4jnsgd1na2vs0mg"},{"bike_id":"a840627e-c033-44c5-9bb9-6fb29469bf90","system_id":"levelo_inurba_marseille","lat":43.29575,"lon":5.37506,"is_reserved":false,"is_disabled":false,"rental_uris":{"android":"levelo://app?vid=a840627e-c033-44c5-9bb9-6fb29469bf90","ios":"levelo://app?vid=a840627e-c033-44c5-9bb9-6fb29469bf90"},"vehicle_type_id":"4","last_reported":1743170983,"current_range_meters":6800,"station_id":"ce4bgh92rcd13ifvqb50","pricing_plan_id":"cebpf4jnsgd1na2vs0mg"},{"bike_id":"78804189-2f38-498b-8937-3a11cd08cc7a","system_id":"levelo_inurba_marseille","lat":43.30892,"lon":5.37202,"is_reserved":false,"is_disabled":false,"rental_uris":{"android":"levelo://app?vid=78804189-2f38-498b-8937-3a11cd08cc7a","ios":"levelo://app?vid=78804189-2f38-498b-8937-3a11cd08cc7a"},"vehicle_type_id":"4","last_reported":1743170983,"current_range_meters":6800,"station_id":"ce4bguh2rcd13ifvqckg","pricing_plan_id":"cebpf4jnsgd1na2vs0mg"},{"bike_id":"597c4159-84ca-4ec5-b4f4-125fbc1c07ee","system_id":"levelo_inurba_marseille","lat":43.31994,"lon":5.38136,"is_reserved":false,"is_disabled":false,"rental_uris":{"android":"levelo://app?vid=597c4159-84ca-4ec5-b4f4-125fbc1c07ee","ios":"levelo://app?vid=597c4159-84ca-4ec5-b4f4-125fbc1c07ee"},"vehicle_type_id":"4","last_reported":1743170983,"current_range_meters":7200,"station_id":"ce4bhr12rcd13ifvqhpg","pricing_plan_id":"cebpf4jnsgd1na2vs0mg"},{"bike_id":"073debcf-0704-4d38-b010-82e0fcd8519a","system_id":"levelo_inurba_marseille","lat":43.33024,"lon":5.39053,"is_reserved":false,"is_disabled":false,"rental_uris":{"android":"levelo://app?vid=073debcf-0704-4d38-b010-82e0fcd8519a","ios":"levelo://app?vid=073debcf-0704-4d38-b010-82e0fcd8519a"},"vehicle_type_id":"4","last_reported":1743170983,"current_range_meters":7200,"station_id":"ce4bhr92rcd13ifvqhrg","pricing_plan_id":"cebpf4jnsgd1na2vs0mg"},{"bike_id":"50b58485-1b75-43bb-a404-55d7f170d69a","system_id":"levelo_inurba_marseille","lat":43.23133,"lon":5.43709,"is_reserved":false,"is_disabled":false,"rental_uris":{"android":"levelo://app?vid=50b58485-1b75-43bb-a404-55d7f170d69a","ios":"levelo://app?vid=50b58485-1b75-43bb-a404-55d7f170d69a"},"vehicle_type_id":"4","last_reported":1743170983,"current_range_meters":7200,"station_id":"ce4bhmp2rcd13ifvqgog","pricing_plan_id":"cebpf4jnsgd1na2vs0mg"},{"bike_id":"c0aea687-3eaa-490f-bb6e-3b82080959f7","system_id":"levelo_inurba_marseille","lat":43.28409,"lon":5.37522,"is_reserved":false,"is_disabled":false,"rental_uris":{"android":"levelo://app?vid=c0aea687-3eaa-490f-bb6e-3b82080959f7","ios":"levelo://app?vid=c0aea687-3eaa-490f-bb6e-3b82080959f7"},"vehicle_type_id":"4","last_reported":1743170983,"current_range_meters":7200,"station_id":"ce4bgup2rcd13ifvqcn0","pricing_plan_id":"cebpf4jnsgd1na2vs0mg"},{"bike_id":"0f27e07e-ea4b-4577-b97c-798f5a1c697e","system_id":"levelo_inurba_marseille","lat":43.24659,"lon":5.38167,"is_reserved":false,"is_disabled":false,"rental_uris":{"android":"levelo://app?vid=0f27e07e-ea4b-4577-b97c-798f5a1c697e","ios":"levelo://app?vid=0f27e07e-ea4b-4577-b97c-798f5a1c697e"},"vehicle_type_id":"4","last_reported":1743170983,"current_range_meters":7200,"station_id":"ce4bhih2rcd13ifvqfr0","pricing_plan_id":"cebpf4jnsgd1na2vs0mg"},{"bike_id":"ed1b91e9-4bde-4652-9657-a2a97819f69a","system_id":"levelo_inurba_marseille","lat":43.29037,"lon":5.39963,"is_reserved":false,"is_disabled":false,"rental_uris":{"android":"levelo://app?vid=ed1b91e9-4bde-4652-9657-a2a97819f69a","ios":"levelo://app?vid=ed1b91e9-4bde-4652-9657-a2a97819f69a"},"vehicle_type_id":"4","last_reported":1743170983,"current_range_meters":7200,"station_id":"ce4bh392rcd13ifvqdm0","pricing_plan_id":"cebpf4jnsgd1na2vs0mg"},{"bike_id":"19221227-42ec-4f4b-8f04-42a0818e22f5","system_id":"levelo_inurba_marseille","lat":43.32113,"lon":5.36758,"is_reserved":false,"is_disabled":false,"rental_uris":{"android":"levelo://app?vid=19221227-42ec-4f4b-8f04-42a0818e22f5","ios":"levelo://app?vid=19221227-42ec-4f4b-8f04-42a0818e22f5"},"vehicle_type_id":"4","last_reported":1743170983,"current_range_meters":7200,"station_id":"ce4bhrh2rcd13ifvqhug","pricing_plan_id":"cebpf4jnsgd1na2vs0mg"},{"bike_id":"8add1765-2d59-476f-be7a-5ecb8e55419c","system_id":"levelo_inurba_marseille","lat":43.2837,"lon":5.38631,"is_reserved":false,"is_disabled":false,"rental_uris":{"android":"levelo://app?vid=8add1765-2d59-476f-be7a-5ecb8e55419c","ios":"levelo://app?vid=8add1765-2d59-476f-be7a-5ecb8e55419c"},"vehicle_type_id":"4","last_reported":1743170983,"current_range_meters":7200,"station_id":"ce4bh492rcd13ifvqdvg","pricing_plan_id":"cebpf4jnsgd1na2vs0mg"},{"bike_id":"fb94d37c-a5f0-424c-9c95-a0f43cd760b8","system_id":"levelo_inurba_marseille","lat":43.30413,"lon":5.39755,"is_reserved":false,"is_disabled":true,"rental_uris":{"android":"levelo://app?vid=fb94d37c-a5f0-424c-9c95-a0f43cd760b8","ios":"levelo://app?vid=fb94d37c-a5f0-424c-9c95-a0f43cd760b8"},"vehicle_type_id":"4","last_reported":1743170983,"current_range_meters":7200,"station_id":"ce4bh092rcd13ifvqd20","pricing_plan_id":"cebpf4jnsgd1na2vs0mg"},{"bike_id":"ec940620-2a09-4eae-aace-1a0a72b62180","system_id":"levelo_inurba_marseille","lat":43.30295,"lon":5.40107,"is_reserved":false,"is_disabled":false,"rental_uris":{"android":"levelo://app?vid=ec940620-2a09-4eae-aace-1a0a72b62180","ios":"levelo://app?vid=ec940620-2a09-4eae-aace-1a0a72b62180"},"vehicle_type_id":"4","last_reported":1743170983,"current_range_meters":8000,"station_id":"ce4bgvh2rcd13ifvqcs0","pricing_plan_id":"cebpf4jnsgd1na2vs0mg"},{"bike_id":"241b3bbf-0d79-4c4a-9645-7eaa4cd68cd1","system_id":"levelo_inurba_marseille","lat":43.29048,"lon":5.39946,"is_reserved":false,"is_disabled":false,"rental_uris":{"android":"levelo://app?vid=241b3bbf-0d79-4c4a-9645-7eaa4cd68cd1","ios":"levelo://app?vid=241b3bbf-0d79-4c4a-9645-7eaa4cd68cd1"},"vehicle_type_id":"4","last_reported":1743170983,"current_range_meters":8000,"station_id":"ce4bh392rcd13ifvqdm0","pricing_plan_id":"cebpf4jnsgd1na2vs0mg"},{"bike_id":"71cddb2c-329a-4948-9db8-e93371ab57f6","system_id":"levelo_inurba_marseille","lat":43.24391,"lon":5.37062,"is_reserved":false,"is_disabled":false,"rental_uris":{"android":"levelo://app?vid=71cddb2c-329a-4948-9db8-e93371ab57f6","ios":"levelo://app?vid=71cddb2c-329a-4948-9db8-e93371ab57f6"},"vehicle_type_id":"4","last_reported":1743170983,"current_range_meters":8000,"station_id":"ce4bhhh2rcd13ifvqfk0","pricing_plan_id":"cebpf4jnsgd1na2vs0mg"},{"bike_id":"f5a79fc5-6c67-404a-9aa8-608ab04317ef","system_id":"levelo_inurba_marseille","lat":43.292709,"lon":5.409102,"is_reserved":false,"is_disabled":false,"rental_uris":{"android":"levelo://app?vid=f5a79fc5-6c67-404a-9aa8-608ab04317ef","ios":"levelo://app?vid=f5a79fc5-6c67-404a-9aa8-608ab04317ef"},"vehicle_type_id":"4","last_reported":1743170983,"current_range_meters":8000,"station_id":"ce4bh192rcd13ifvqdc0","pricing_plan_id":"cebpf4jnsgd1na2vs0mg"},{"bike_id":"0ac88cdf-dd3a-494f-aaa5-2b24d1ce393f","system_id":"levelo_inurba_marseille","lat":43.231913,"lon":5.355554,"is_reserved":false,"is_disabled":false,"rental_uris":{"android":"levelo://app?vid=0ac88cdf-dd3a-494f-aaa5-2b24d1ce393f","ios":"levelo://app?vid=0ac88cdf-dd3a-494f-aaa5-2b24d1ce393f"},"vehicle_type_id":"4","last_reported":1743170983,"current_range_meters":8000,"station_id":"ce4bhu92rcd13ifvqi70","pricing_plan_id":"cebpf4jnsgd1na2vs0mg"},{"bike_id":"64f0ea86-1180-4755-95e1-3cbc9c8d4cf5","system_id":"levelo_inurba_marseille","lat":43.33008,"lon":5.43854,"is_reserved":false,"is_disabled":true,"rental_uris":{"android":"levelo://app?vid=64f0ea86-1180-4755-95e1-3cbc9c8d4cf5","ios":"levelo://app?vid=64f0ea86-1180-4755-95e1-3cbc9c8d4cf5"},"vehicle_type_id":"4","last_reported":1743170983,"current_range_meters":8000,"station_id":"","pricing_plan_id":"cebpf4jnsgd1na2vs0mg"},{"bike_id":"fed37be9-d2bc-4f0d-9053-82f7ddd54f00","system_id":"levelo_inurba_marseille","lat":43.26706,"lon":5.38283,"is_reserved":false,"is_disabled":false,"rental_uris":{"android":"levelo://app?vid=fed37be9-d2bc-4f0d-9053-82f7ddd54f00","ios":"levelo://app?vid=fed37be9-d2bc-4f0d-9053-82f7ddd54f00"},"vehicle_type_id":"4","last_reported":1743170983,"current_range_meters":8000,"station_id":"ce4bhg92rcd13ifvqf90","pricing_plan_id":"cebpf4jnsgd1na2vs0mg"},{"bike_id":"a830f16a-ec77-4093-a30f-a0615c88f8fc","system_id":"levelo_inurba_marseille","lat":43.29524,"lon":5.39035,"is_reserved":false,"is_disabled":false,"rental_uris":{"android":"levelo://app?vid=a830f16a-ec77-4093-a30f-a0615c88f8fc","ios":"levelo://app?vid=a830f16a-ec77-4093-a30f-a0615c88f8fc"},"vehicle_type_id":"4","last_reported":1743170983,"current_range_meters":8000,"station_id":"ce4bh3p2rcd13ifvqdp0","pricing_plan_id":"cebpf4jnsgd1na2vs0mg"},{"bike_id":"961245ca-8d90-4d71-b735-61afea929100","system_id":"levelo_inurba_marseille","lat":43.24167,"lon":5.36406,"is_reserved":false,"is_disabled":false,"rental_uris":{"android":"levelo://app?vid=961245ca-8d90-4d71-b735-61afea929100","ios":"levelo://app?vid=961245ca-8d90-4d71-b735-61afea929100"},"vehicle_type_id":"4","last_reported":1743170983,"current_range_meters":8400,"station_id":"cpo36qri1sfpv3e86is0","pricing_plan_id":"cebpf4jnsgd1na2vs0mg"},{"bike_id":"1d7dcea0-dc16-496a-aa58-f096b93f78ce","system_id":"levelo_inurba_marseille","lat":43.3053,"lon":5.36621,"is_reserved":false,"is_disabled":false,"rental_uris":{"android":"levelo://app?vid=1d7dcea0-dc16-496a-aa58-f096b93f78ce","ios":"levelo://app?vid=1d7dcea0-dc16-496a-aa58-f096b93f78ce"},"vehicle_type_id":"4","last_reported":1743170983,"current_range_meters":8400,"station_id":"","pricing_plan_id":"cebpf4jnsgd1na2vs0mg"},{"bike_id":"25c93242-72e6-4525-aea7-7d96e2cd1825","system_id":"levelo_inurba_marseille","lat":43.3482,"lon":5.36249,"is_reserved":false,"is_disabled":false,"rental_uris":{"android":"levelo://app?vid=25c93242-72e6-4525-aea7-7d96e2cd1825","ios":"levelo://app?vid=25c93242-72e6-4525-aea7-7d96e2cd1825"},"vehicle_type_id":"4","last_reported":1743170983,"current_range_meters":8400,"station_id":"","pricing_plan_id":"cebpf4jnsgd1na2vs0mg"},{"bike_id":"ce9e7efc-c14c-46e7-abaa-8ba9eeec87d7","system_id":"levelo_inurba_marseille","lat":43.25576,"lon":5.3823,"is_reserved":false,"is_disabled":false,"rental_uris":{"android":"levelo://app?vid=ce9e7efc-c14c-46e7-abaa-8ba9eeec87d7","ios":"levelo://app?vid=ce9e7efc-c14c-46e7-abaa-8ba9eeec87d7"},"vehicle_type_id":"4","last_reported":1743170983,"current_range_meters":8400,"station_id":"ce4bhih2rcd13ifvqfs0","pricing_plan_id":"cebpf4jnsgd1na2vs0mg"},{"bike_id":"9043c11e-fc9c-4a4f-be86-393f483d3f64","system_id":"levelo_inurba_marseille","lat":43.26947,"lon":5.38638,"is_reserved":false,"is_disabled":false,"rental_uris":{"android":"levelo://app?vid=9043c11e-fc9c-4a4f-be86-393f483d3f64","ios":"levelo://app?vid=9043c11e-fc9c-4a4f-be86-393f483d3f64"},"vehicle_type_id":"4","last_reported":1743170983,"current_range_meters":8400,"station_id":"ce4bhh92rcd13ifvqfh0","pricing_plan_id":"cebpf4jnsgd1na2vs0mg"},{"bike_id":"37703b88-0681-4fe0-a352-8323ebd0e7ba","system_id":"levelo_inurba_marseille","lat":43.28614,"lon":5.37071,"is_reserved":false,"is_disabled":false,"rental_uris":{"android":"levelo://app?vid=37703b88-0681-4fe0-a352-8323ebd0e7ba","ios":"levelo://app?vid=37703b88-0681-4fe0-a352-8323ebd0e7ba"},"vehicle_type_id":"4","last_reported":1743170983,"current_range_meters":8400,"station_id":"ce4bht12rcd13ifvqi60","pricing_plan_id":"cebpf4jnsgd1na2vs0mg"},{"bike_id":"25f40f9e-0038-4a10-b0d7-fac43e22293f","system_id":"levelo_inurba_marseille","lat":43.29375,"lon":5.37855,"is_reserved":false,"is_disabled":false,"rental_uris":{"android":"levelo://app?vid=25f40f9e-0038-4a10-b0d7-fac43e22293f","ios":"levelo://app?vid=25f40f9e-0038-4a10-b0d7-fac43e22293f"},"vehicle_type_id":"4","last_reported":1743170983,"current_range_meters":8400,"station_id":"ce4bgjh2rcd13ifvqbf0","pricing_plan_id":"cebpf4jnsgd1na2vs0mg"},{"bike_id":"b9031b1f-77fa-4cea-8497-3487e7210172","system_id":"levelo_inurba_marseille","lat":43.30204,"lon":5.39483,"is_reserved":false,"is_disabled":false,"rental_uris":{"android":"levelo://app?vid=b9031b1f-77fa-4cea-8497-3487e7210172","ios":"levelo://app?vid=b9031b1f-77fa-4cea-8497-3487e7210172"},"vehicle_type_id":"4","last_reported":1743170983,"current_range_meters":8400,"station_id":"ce4bh0p2rcd13ifvqd70","pricing_plan_id":"cebpf4jnsgd1na2vs0mg"},{"bike_id":"403d7e50-4523-49d1-a7ce-385a53366a0d","system_id":"levelo_inurba_marseille","lat":43.2827,"lon":5.35069,"is_reserved":false,"is_disabled":true,"rental_uris":{"android":"levelo://app?vid=403d7e50-4523-49d1-a7ce-385a53366a0d","ios":"levelo://app?vid=403d7e50-4523-49d1-a7ce-385a53366a0d"},"vehicle_type_id":"4","last_reported":1743170983,"current_range_meters":8400,"station_id":"ce4bhbp2rcd13ifvqerg","pricing_plan_id":"cebpf4jnsgd1na2vs0mg"},{"bike_id":"ba3ec71d-9ef2-4dbc-8fc5-f0e245f8044e","system_id":"levelo_inurba_marseille","lat":43.31229,"lon":5.3688,"is_reserved":false,"is_disabled":false,"rental_uris":{"android":"levelo://app?vid=ba3ec71d-9ef2-4dbc-8fc5-f0e245f8044e","ios":"levelo://app?vid=ba3ec71d-9ef2-4dbc-8fc5-f0e245f8044e"},"vehicle_type_id":"4","last_reported":1743170983,"current_range_meters":8400,"station_id":"ce4bgl92rcd13ifvqbq0","pricing_plan_id":"cebpf4jnsgd1na2vs0mg"},{"bike_id":"8d03e719-94e6-47d9-8d17-410ab7926b87","system_id":"levelo_inurba_marseille","lat":43.27375,"lon":5.36257,"is_reserved":false,"is_disabled":false,"rental_uris":{"android":"levelo://app?vid=8d03e719-94e6-47d9-8d17-410ab7926b87","ios":"levelo://app?vid=8d03e719-94e6-47d9-8d17-410ab7926b87"},"vehicle_type_id":"4","last_reported":1743170983,"current_range_meters":8400,"station_id":"ce4bhbh2rcd13ifvqeo0","pricing_plan_id":"cebpf4jnsgd1na2vs0mg"},{"bike_id":"813634ed-e21d-4b9e-88e8-aa8b87581eb3","system_id":"levelo_inurba_marseille","lat":43.32115,"lon":5.36772,"is_reserved":false,"is_disabled":false,"rental_uris":{"android":"levelo://app?vid=813634ed-e21d-4b9e-88e8-aa8b87581eb3","ios":"levelo://app?vid=813634ed-e21d-4b9e-88e8-aa8b87581eb3"},"vehicle_type_id":"4","last_reported":1743170983,"current_range_meters":8800,"station_id":"ce4bhrh2rcd13ifvqhug","pricing_plan_id":"cebpf4jnsgd1na2vs0mg"},{"bike_id":"f00e0bf1-e77c-4752-8f1b-63a2e565cf51","system_id":"levelo_inurba_marseille","lat":43.2794,"lon":5.3868,"is_reserved":false,"is_disabled":true,"rental_uris":{"android":"levelo://app?vid=f00e0bf1-e77c-4752-8f1b-63a2e565cf51","ios":"levelo://app?vid=f00e0bf1-e77c-4752-8f1b-63a2e565cf51"},"vehicle_type_id":"4","last_reported":1743170983,"current_range_meters":8800,"station_id":"","pricing_plan_id":"cebpf4jnsgd1na2vs0mg"},{"bike_id":"bc698ff6-7fcb-4f8a-a2e4-41654705cb71","system_id":"levelo_inurba_marseille","lat":43.28451,"lon":5.39175,"is_reserved":false,"is_disabled":false,"rental_uris":{"android":"levelo://app?vid=bc698ff6-7fcb-4f8a-a2e4-41654705cb71","ios":"levelo://app?vid=bc698ff6-7fcb-4f8a-a2e4-41654705cb71"},"vehicle_type_id":"4","last_reported":1743170983,"current_range_meters":8800,"station_id":"ce4bhoh2rcd13ifvqh5g","pricing_plan_id":"cebpf4jnsgd1na2vs0mg"},{"bike_id":"ab12f224-4614-4b79-bc2e-dd551aa5f99d","system_id":"levelo_inurba_marseille","lat":43.27496,"lon":5.42455,"is_reserved":false,"is_disabled":false,"rental_uris":{"android":"levelo://app?vid=ab12f224-4614-4b79-bc2e-dd551aa5f99d","ios":"levelo://app?vid=ab12f224-4614-4b79-bc2e-dd551aa5f99d"},"vehicle_type_id":"4","last_reported":1743170983,"current_range_meters":8800,"station_id":"ce4bhn92rcd13ifvqgrg","pricing_plan_id":"cebpf4jnsgd1na2vs0mg"},{"bike_id":"ceecbcc2-ac65-4641-b26a-eff5f63dc82b","system_id":"levelo_inurba_marseille","lat":43.32004,"lon":5.38147,"is_reserved":false,"is_disabled":false,"rental_uris":{"android":"levelo://app?vid=ceecbcc2-ac65-4641-b26a-eff5f63dc82b","ios":"levelo://app?vid=ceecbcc2-ac65-4641-b26a-eff5f63dc82b"},"vehicle_type_id":"4","last_reported":1743170983,"current_range_meters":8800,"station_id":"ce4bhr12rcd13ifvqhpg","pricing_plan_id":"cebpf4jnsgd1na2vs0mg"},{"bike_id":"c4b3ac6f-9889-4438-bded-6806945c4c79","system_id":"levelo_inurba_marseille","lat":43.23968,"lon":5.3663,"is_reserved":false,"is_disabled":false,"rental_uris":{"android":"levelo://app?vid=c4b3ac6f-9889-4438-bded-6806945c4c79","ios":"levelo://app?vid=c4b3ac6f-9889-4438-bded-6806945c4c79"},"vehicle_type_id":"4","last_reported":1743170983,"current_range_meters":8800,"station_id":"ce4bhi12rcd13ifvqfp0","pricing_plan_id":"cebpf4jnsgd1na2vs0mg"},{"bike_id":"09af0b41-54da-4b6e-98eb-087116e3db66","system_id":"levelo_inurba_marseille","lat":43.29529,"lon":5.39052,"is_reserved":false,"is_disabled":false,"rental_uris":{"android":"levelo://app?vid=09af0b41-54da-4b6e-98eb-087116e3db66","ios":"levelo://app?vid=09af0b41-54da-4b6e-98eb-087116e3db66"},"vehicle_type_id":"4","last_reported":1743170983,"current_range_meters":8800,"station_id":"ce4bh3p2rcd13ifvqdp0","pricing_plan_id":"cebpf4jnsgd1na2vs0mg"},{"bike_id":"d9d40530-ec54-4e88-9f5a-d9970ecf75fe","system_id":"levelo_inurba_marseille","lat":43.30207,"lon":5.39473,"is_reserved":false,"is_disabled":false,"rental_uris":{"android":"levelo://app?vid=d9d40530-ec54-4e88-9f5a-d9970ecf75fe","ios":"levelo://app?vid=d9d40530-ec54-4e88-9f5a-d9970ecf75fe"},"vehicle_type_id":"4","last_reported":1743170983,"current_range_meters":9200,"station_id":"ce4bh0p2rcd13ifvqd70","pricing_plan_id":"cebpf4jnsgd1na2vs0mg"},{"bike_id":"734f0f8e-0b73-4e95-a517-86abf5545b75","system_id":"levelo_inurba_marseille","lat":43.24646,"lon":5.38903,"is_reserved":false,"is_disabled":false,"rental_uris":{"android":"levelo://app?vid=734f0f8e-0b73-4e95-a517-86abf5545b75","ios":"levelo://app?vid=734f0f8e-0b73-4e95-a517-86abf5545b75"},"vehicle_type_id":"4","last_reported":1743170983,"current_range_meters":9200,"station_id":"ce4bhg12rcd13ifvqf60","pricing_plan_id":"cebpf4jnsgd1na2vs0mg"},{"bike_id":"8b68b9c9-d0cb-42a9-9c73-a9b2a80be52f","system_id":"levelo_inurba_marseille","lat":43.29976,"lon":5.38494,"is_reserved":false,"is_disabled":false,"rental_uris":{"android":"levelo://app?vid=8b68b9c9-d0cb-42a9-9c73-a9b2a80be52f","ios":"levelo://app?vid=8b68b9c9-d0cb-42a9-9c73-a9b2a80be52f"},"vehicle_type_id":"4","last_reported":1743170983,"current_range_meters":9200,"station_id":"ce4bgj92rcd13ifvqbd0","pricing_plan_id":"cebpf4jnsgd1na2vs0mg"},{"bike_id":"dd3f7b56-d4ab-4454-9b92-86bdc5aa5fbf","system_id":"levelo_inurba_marseille","lat":43.2841,"lon":5.34979,"is_reserved":false,"is_disabled":false,"rental_uris":{"android":"levelo://app?vid=dd3f7b56-d4ab-4454-9b92-86bdc5aa5fbf","ios":"levelo://app?vid=dd3f7b56-d4ab-4454-9b92-86bdc5aa5fbf"},"vehicle_type_id":"4","last_reported":1743170983,"current_range_meters":9200,"station_id":"ce4bhbh2rcd13ifvqepg","pricing_plan_id":"cebpf4jnsgd1na2vs0mg"},{"bike_id":"4a42ca1e-41e4-4233-a4bb-a180f04564d6","system_id":"levelo_inurba_marseille","lat":43.291557,"lon":5.371558,"is_reserved":false,"is_disabled":true,"rental_uris":{"android":"levelo://app?vid=4a42ca1e-41e4-4233-a4bb-a180f04564d6","ios":"levelo://app?vid=4a42ca1e-41e4-4233-a4bb-a180f04564d6"},"vehicle_type_id":"4","last_reported":1743170983,"current_range_meters":9200,"station_id":"ce4bha92rcd13ifvqeh0","pricing_plan_id":"cebpf4jnsgd1na2vs0mg"},{"bike_id":"c5018486-bf6d-429b-99bb-2a08af367b49","system_id":"levelo_inurba_marseille","lat":43.24388,"lon":5.37058,"is_reserved":false,"is_disabled":false,"rental_uris":{"android":"levelo://app?vid=c5018486-bf6d-429b-99bb-2a08af367b49","ios":"levelo://app?vid=c5018486-bf6d-429b-99bb-2a08af367b49"},"vehicle_type_id":"4","last_reported":1743170983,"current_range_meters":9200,"station_id":"ce4bhhh2rcd13ifvqfk0","pricing_plan_id":"cebpf4jnsgd1na2vs0mg"},{"bike_id":"861ae205-c318-4688-ac53-947993e1b65f","system_id":"levelo_inurba_marseille","lat":43.24149,"lon":5.36426,"is_reserved":false,"is_disabled":false,"rental_uris":{"android":"levelo://app?vid=861ae205-c318-4688-ac53-947993e1b65f","ios":"levelo://app?vid=861ae205-c318-4688-ac53-947993e1b65f"},"vehicle_type_id":"4","last_reported":1743170983,"current_range_meters":9200,"station_id":"cpo36qri1sfpv3e86is0","pricing_plan_id":"cebpf4jnsgd1na2vs0mg"},{"bike_id":"2e919ca5-ce98-4c47-a9d7-66e6ab7584e4","system_id":"levelo_inurba_marseille","lat":43.32122,"lon":5.36762,"is_reserved":false,"is_disabled":false,"rental_uris":{"android":"levelo://app?vid=2e919ca5-ce98-4c47-a9d7-66e6ab7584e4","ios":"levelo://app?vid=2e919ca5-ce98-4c47-a9d7-66e6ab7584e4"},"vehicle_type_id":"4","last_reported":1743170983,"current_range_meters":9200,"station_id":"ce4bhrh2rcd13ifvqhug","pricing_plan_id":"cebpf4jnsgd1na2vs0mg"},{"bike_id":"bf570dbf-b0bc-4c04-8841-ce205b9fac1e","system_id":"levelo_inurba_marseille","lat":43.292305,"lon":5.360606,"is_reserved":false,"is_disabled":false,"rental_uris":{"android":"levelo://app?vid=bf570dbf-b0bc-4c04-8841-ce205b9fac1e","ios":"levelo://app?vid=bf570dbf-b0bc-4c04-8841-ce205b9fac1e"},"vehicle_type_id":"4","last_reported":1743170983,"current_range_meters":9200,"station_id":"ce4bhbh2rcd13ifvqeqg","pricing_plan_id":"cebpf4jnsgd1na2vs0mg"},{"bike_id":"fa847661-b485-46b4-9026-bbf7d7813924","system_id":"levelo_inurba_marseille","lat":43.2808,"lon":5.39648,"is_reserved":false,"is_disabled":false,"rental_uris":{"android":"levelo://app?vid=fa847661-b485-46b4-9026-bbf7d7813924","ios":"levelo://app?vid=fa847661-b485-46b4-9026-bbf7d7813924"},"vehicle_type_id":"4","last_reported":1743170983,"current_range_meters":9200,"station_id":"ce4bho12rcd13ifvqh2g","pricing_plan_id":"cebpf4jnsgd1na2vs0mg"},{"bike_id":"2a892e2a-f9aa-4d31-8c9a-cc66001fc87d","system_id":"levelo_inurba_marseille","lat":43.26202,"lon":5.37932,"is_reserved":false,"is_disabled":false,"rental_uris":{"android":"levelo://app?vid=2a892e2a-f9aa-4d31-8c9a-cc66001fc87d","ios":"levelo://app?vid=2a892e2a-f9aa-4d31-8c9a-cc66001fc87d"},"vehicle_type_id":"4","last_reported":1743170983,"current_range_meters":9200,"station_id":"ce4bhjp2rcd13ifvqg90","pricing_plan_id":"cebpf4jnsgd1na2vs0mg"},{"bike_id":"5991ec67-48a5-40de-aa9b-6b430fec0456","system_id":"levelo_inurba_marseille","lat":43.2862,"lon":5.35107,"is_reserved":false,"is_disabled":false,"rental_uris":{"android":"levelo://app?vid=5991ec67-48a5-40de-aa9b-6b430fec0456","ios":"levelo://app?vid=5991ec67-48a5-40de-aa9b-6b430fec0456"},"vehicle_type_id":"4","last_reported":1743170983,"current_range_meters":9200,"station_id":"ce4bhch2rcd13ifvqeug","pricing_plan_id":"cebpf4jnsgd1na2vs0mg"},{"bike_id":"c1d2fb6d-47a4-4f3f-880d-ca6c7b136f54","system_id":"levelo_inurba_marseille","lat":43.29523,"lon":5.39051,"is_reserved":false,"is_disabled":false,"rental_uris":{"android":"levelo://app?vid=c1d2fb6d-47a4-4f3f-880d-ca6c7b136f54","ios":"levelo://app?vid=c1d2fb6d-47a4-4f3f-880d-ca6c7b136f54"},"vehicle_type_id":"4","last_reported":1743170983,"current_range_meters":10000,"station_id":"ce4bh3p2rcd13ifvqdp0","pricing_plan_id":"cebpf4jnsgd1na2vs0mg"},{"bike_id":"0c7c8c97-c432-41cd-96f5-01a03f56e852","system_id":"levelo_inurba_marseille","lat":43.24172,"lon":5.36398,"is_reserved":false,"is_disabled":false,"rental_uris":{"android":"levelo://app?vid=0c7c8c97-c432-41cd-96f5-01a03f56e852","ios":"levelo://app?vid=0c7c8c97-c432-41cd-96f5-01a03f56e852"},"vehicle_type_id":"4","last_reported":1743170983,"current_range_meters":9600,"station_id":"cpo36qri1sfpv3e86is0","pricing_plan_id":"cebpf4jnsgd1na2vs0mg"},{"bike_id":"333904e0-32f1-420f-aad1-809c81209173","system_id":"levelo_inurba_marseille","lat":43.2942,"lon":5.38623,"is_reserved":false,"is_disabled":false,"rental_uris":{"android":"levelo://app?vid=333904e0-32f1-420f-aad1-809c81209173","ios":"levelo://app?vid=333904e0-32f1-420f-aad1-809c81209173"},"vehicle_type_id":"4","last_reported":1743170983,"current_range_meters":9600,"station_id":"ce4bh2h2rcd13ifvqdh0","pricing_plan_id":"cebpf4jnsgd1na2vs0mg"},{"bike_id":"bc3f138a-3af0-4b4e-9b07-2d2a8e540795","system_id":"levelo_inurba_marseille","lat":43.26493,"lon":5.39542,"is_reserved":false,"is_disabled":false,"rental_uris":{"android":"levelo://app?vid=bc3f138a-3af0-4b4e-9b07-2d2a8e540795","ios":"levelo://app?vid=bc3f138a-3af0-4b4e-9b07-2d2a8e540795"},"vehicle_type_id":"4","last_reported":1743170983,"current_range_meters":9600,"station_id":"ce4bhi12rcd13ifvqfq0","pricing_plan_id":"cebpf4jnsgd1na2vs0mg"},{"bike_id":"81a5f7f7-0518-4202-9506-785334cbf7c5","system_id":"levelo_inurba_marseille","lat":43.26182,"lon":5.40374,"is_reserved":false,"is_disabled":false,"rental_uris":{"android":"levelo://app?vid=81a5f7f7-0518-4202-9506-785334cbf7c5","ios":"levelo://app?vid=81a5f7f7-0518-4202-9506-785334cbf7c5"},"vehicle_type_id":"4","last_reported":1743170983,"current_range_meters":9600,"station_id":"","pricing_plan_id":"cebpf4jnsgd1na2vs0mg"},{"bike_id":"4068a412-e485-4789-beab-0501196ae332","system_id":"levelo_inurba_marseille","lat":43.2836,"lon":5.38635,"is_reserved":false,"is_disabled":false,"rental_uris":{"android":"levelo://app?vid=4068a412-e485-4789-beab-0501196ae332","ios":"levelo://app?vid=4068a412-e485-4789-beab-0501196ae332"},"vehicle_type_id":"4","last_reported":1743170983,"current_range_meters":9600,"station_id":"ce4bh492rcd13ifvqdvg","pricing_plan_id":"cebpf4jnsgd1na2vs0mg"},{"bike_id":"ed3f340d-7b56-49a7-952a-c79c8daa5f0f","system_id":"levelo_inurba_marseille","lat":43.30151,"lon":5.38796,"is_reserved":false,"is_disabled":true,"rental_uris":{"android":"levelo://app?vid=ed3f340d-7b56-49a7-952a-c79c8daa5f0f","ios":"levelo://app?vid=ed3f340d-7b56-49a7-952a-c79c8daa5f0f"},"vehicle_type_id":"4","last_reported":1743170983,"current_range_meters":9600,"station_id":"ce4bghh2rcd13ifvqb60","pricing_plan_id":"cebpf4jnsgd1na2vs0mg"},{"bike_id":"7dc939fb-c52f-4cd6-ab9f-1306471e5d5b","system_id":"levelo_inurba_marseille","lat":43.28423,"lon":5.34989,"is_reserved":false,"is_disabled":false,"rental_uris":{"android":"levelo://app?vid=7dc939fb-c52f-4cd6-ab9f-1306471e5d5b","ios":"levelo://app?vid=7dc939fb-c52f-4cd6-ab9f-1306471e5d5b"},"vehicle_type_id":"4","last_reported":1743170983,"current_range_meters":9600,"station_id":"ce4bhbh2rcd13ifvqepg","pricing_plan_id":"cebpf4jnsgd1na2vs0mg"},{"bike_id":"1c14bf9c-ada4-4a36-8853-740a1a2c000a","system_id":"levelo_inurba_marseille","lat":43.23196,"lon":5.35557,"is_reserved":false,"is_disabled":false,"rental_uris":{"android":"levelo://app?vid=1c14bf9c-ada4-4a36-8853-740a1a2c000a","ios":"levelo://app?vid=1c14bf9c-ada4-4a36-8853-740a1a2c000a"},"vehicle_type_id":"4","last_reported":1743170983,"current_range_meters":9600,"station_id":"ce4bhu92rcd13ifvqi70","pricing_plan_id":"cebpf4jnsgd1na2vs0mg"},{"bike_id":"1813b078-e995-4712-8d54-d9ac8a11ef32","system_id":"levelo_inurba_marseille","lat":43.30549,"lon":5.36543,"is_reserved":false,"is_disabled":false,"rental_uris":{"android":"levelo://app?vid=1813b078-e995-4712-8d54-d9ac8a11ef32","ios":"levelo://app?vid=1813b078-e995-4712-8d54-d9ac8a11ef32"},"vehicle_type_id":"4","last_reported":1743170983,"current_range_meters":10000,"station_id":"ce4bgs12rcd13ifvqcag","pricing_plan_id":"cebpf4jnsgd1na2vs0mg"},{"bike_id":"971c92cb-66df-438d-9a85-e63af939e6ff","system_id":"levelo_inurba_marseille","lat":43.28609,"lon":5.35114,"is_reserved":false,"is_disabled":true,"rental_uris":{"android":"levelo://app?vid=971c92cb-66df-438d-9a85-e63af939e6ff","ios":"levelo://app?vid=971c92cb-66df-438d-9a85-e63af939e6ff"},"vehicle_type_id":"4","last_reported":1743170983,"current_range_meters":10000,"station_id":"ce4bhch2rcd13ifvqeug","pricing_plan_id":"cebpf4jnsgd1na2vs0mg"},{"bike_id":"c5887b5d-7662-4633-9b7e-c1f693b96552","system_id":"levelo_inurba_marseille","lat":43.27379,"lon":5.3625,"is_reserved":false,"is_disabled":false,"rental_uris":{"android":"levelo://app?vid=c5887b5d-7662-4633-9b7e-c1f693b96552","ios":"levelo://app?vid=c5887b5d-7662-4633-9b7e-c1f693b96552"},"vehicle_type_id":"4","last_reported":1743170983,"current_range_meters":10000,"station_id":"ce4bhbh2rcd13ifvqeo0","pricing_plan_id":"cebpf4jnsgd1na2vs0mg"},{"bike_id":"bc4aad2a-e29a-45b7-b9a9-740428b25c49","system_id":"levelo_inurba_marseille","lat":43.23198,"lon":5.35555,"is_reserved":false,"is_disabled":false,"rental_uris":{"android":"levelo://app?vid=bc4aad2a-e29a-45b7-b9a9-740428b25c49","ios":"levelo://app?vid=bc4aad2a-e29a-45b7-b9a9-740428b25c49"},"vehicle_type_id":"4","last_reported":1743170983,"current_range_meters":10000,"station_id":"ce4bhu92rcd13ifvqi70","pricing_plan_id":"cebpf4jnsgd1na2vs0mg"},{"bike_id":"e7c22877-90ed-4f32-aefe-fad16712e2ed","system_id":"levelo_inurba_marseille","lat":43.29441,"lon":5.39758,"is_reserved":false,"is_disabled":false,"rental_uris":{"android":"levelo://app?vid=e7c22877-90ed-4f32-aefe-fad16712e2ed","ios":"levelo://app?vid=e7c22877-90ed-4f32-aefe-fad16712e2ed"},"vehicle_type_id":"4","last_reported":1743170983,"current_range_meters":10000,"station_id":"ce4bh3h2rcd13ifvqdo0","pricing_plan_id":"cebpf4jnsgd1na2vs0mg"},{"bike_id":"2580ab7b-c2c0-4c7f-bdbd-6fa15b196b9f","system_id":"levelo_inurba_marseille","lat":43.33601,"lon":5.41021,"is_reserved":false,"is_disabled":false,"rental_uris":{"android":"levelo://app?vid=2580ab7b-c2c0-4c7f-bdbd-6fa15b196b9f","ios":"levelo://app?vid=2580ab7b-c2c0-4c7f-bdbd-6fa15b196b9f"},"vehicle_type_id":"4","last_reported":1743170983,"current_range_meters":10000,"station_id":"ce4bhqh2rcd13ifvqhmg","pricing_plan_id":"cebpf4jnsgd1na2vs0mg"},{"bike_id":"3fbcdfd8-5176-471d-aa84-e8e20bb4418e","system_id":"levelo_inurba_marseille","lat":43.32099,"lon":5.36802,"is_reserved":false,"is_disabled":false,"rental_uris":{"android":"levelo://app?vid=3fbcdfd8-5176-471d-aa84-e8e20bb4418e","ios":"levelo://app?vid=3fbcdfd8-5176-471d-aa84-e8e20bb4418e"},"vehicle_type_id":"4","last_reported":1743170983,"current_range_meters":10800,"station_id":"ce4bhrh2rcd13ifvqhug","pricing_plan_id":"cebpf4jnsgd1na2vs0mg"},{"bike_id":"aeee719e-56c9-4414-9561-e5b2a78b28a9","system_id":"levelo_inurba_marseille","lat":43.25089,"lon":5.39544,"is_reserved":false,"is_disabled":false,"rental_uris":{"android":"levelo://app?vid=aeee719e-56c9-4414-9561-e5b2a78b28a9","ios":"levelo://app?vid=aeee719e-56c9-4414-9561-e5b2a78b28a9"},"vehicle_type_id":"4","last_reported":1743170983,"current_range_meters":10800,"station_id":"ce4bhm12rcd13ifvqgkg","pricing_plan_id":"cebpf4jnsgd1na2vs0mg"},{"bike_id":"4c9e5505-e823-40e1-a0a7-d05573b59f1a","system_id":"levelo_inurba_marseille","lat":43.28445,"lon":5.39198,"is_reserved":false,"is_disabled":false,"rental_uris":{"android":"levelo://app?vid=4c9e5505-e823-40e1-a0a7-d05573b59f1a","ios":"levelo://app?vid=4c9e5505-e823-40e1-a0a7-d05573b59f1a"},"vehicle_type_id":"4","last_reported":1743170983,"current_range_meters":10800,"station_id":"ce4bhoh2rcd13ifvqh5g","pricing_plan_id":"cebpf4jnsgd1na2vs0mg"},{"bike_id":"78232f5c-0aa5-4d6a-9018-e0a78e4aac6b","system_id":"levelo_inurba_marseille","lat":43.24802,"lon":5.37466,"is_reserved":false,"is_disabled":false,"rental_uris":{"android":"levelo://app?vid=78232f5c-0aa5-4d6a-9018-e0a78e4aac6b","ios":"levelo://app?vid=78232f5c-0aa5-4d6a-9018-e0a78e4aac6b"},"vehicle_type_id":"4","last_reported":1743170983,"current_range_meters":10800,"station_id":"ce4bhgh2rcd13ifvqfb0","pricing_plan_id":"cebpf4jnsgd1na2vs0mg"},{"bike_id":"b8606eef-0862-4743-a7ea-e4c5486a9dd3","system_id":"levelo_inurba_marseille","lat":43.30148,"lon":5.38083,"is_reserved":false,"is_disabled":false,"rental_uris":{"android":"levelo://app?vid=b8606eef-0862-4743-a7ea-e4c5486a9dd3","ios":"levelo://app?vid=b8606eef-0862-4743-a7ea-e4c5486a9dd3"},"vehicle_type_id":"4","last_reported":1743170983,"current_range_meters":10800,"station_id":"ce4bgjp2rcd13ifvqbh0","pricing_plan_id":"cebpf4jnsgd1na2vs0mg"},{"bike_id":"1459986b-32a7-46e0-9bd4-ddf310898492","system_id":"levelo_inurba_marseille","lat":43.29026,"lon":5.38642,"is_reserved":false,"is_disabled":false,"rental_uris":{"android":"levelo://app?vid=1459986b-32a7-46e0-9bd4-ddf310898492","ios":"levelo://app?vid=1459986b-32a7-46e0-9bd4-ddf310898492"},"vehicle_type_id":"4","last_reported":1743170983,"current_range_meters":10800,"station_id":"ce4bh4p2rcd13ifvqe0g","pricing_plan_id":"cebpf4jnsgd1na2vs0mg"},{"bike_id":"5001e53d-54cb-4f10-8d6b-4d4be8c8cf42","system_id":"levelo_inurba_marseille","lat":43.29265,"lon":5.37621,"is_reserved":false,"is_disabled":false,"rental_uris":{"android":"levelo://app?vid=5001e53d-54cb-4f10-8d6b-4d4be8c8cf42","ios":"levelo://app?vid=5001e53d-54cb-4f10-8d6b-4d4be8c8cf42"},"vehicle_type_id":"4","last_reported":1743170983,"current_range_meters":10800,"station_id":"ce4bgi12rcd13ifvqb80","pricing_plan_id":"cebpf4jnsgd1na2vs0mg"},{"bike_id":"3baabe1e-785f-4275-b2ae-669cc3f900da","system_id":"levelo_inurba_marseille","lat":43.2781,"lon":5.40719,"is_reserved":false,"is_disabled":true,"rental_uris":{"android":"levelo://app?vid=3baabe1e-785f-4275-b2ae-669cc3f900da","ios":"levelo://app?vid=3baabe1e-785f-4275-b2ae-669cc3f900da"},"vehicle_type_id":"4","last_reported":1743170983,"current_range_meters":11200,"station_id":"ce4bhnh2rcd13ifvqgtg","pricing_plan_id":"cebpf4jnsgd1na2vs0mg"},{"bike_id":"25bb5fbc-8229-4010-b703-31f5ee6ac141","system_id":"levelo_inurba_marseille","lat":43.30424,"lon":5.36497,"is_reserved":false,"is_disabled":false,"rental_uris":{"android":"levelo://app?vid=25bb5fbc-8229-4010-b703-31f5ee6ac141","ios":"levelo://app?vid=25bb5fbc-8229-4010-b703-31f5ee6ac141"},"vehicle_type_id":"4","last_reported":1743170983,"current_range_meters":11200,"station_id":"","pricing_plan_id":"cebpf4jnsgd1na2vs0mg"},{"bike_id":"55f704b7-903b-4c3e-8e76-f22266ee0b2d","system_id":"levelo_inurba_marseille","lat":43.26563,"lon":5.37299,"is_reserved":false,"is_disabled":false,"rental_uris":{"android":"levelo://app?vid=55f704b7-903b-4c3e-8e76-f22266ee0b2d","ios":"levelo://app?vid=55f704b7-903b-4c3e-8e76-f22266ee0b2d"},"vehicle_type_id":"4","last_reported":1743170983,"current_range_meters":11200,"station_id":"ce4bhg12rcd13ifvqf70","pricing_plan_id":"cebpf4jnsgd1na2vs0mg"},{"bike_id":"06f4a67a-b922-473c-9074-32f848be455f","system_id":"levelo_inurba_marseille","lat":43.23154,"lon":5.43721,"is_reserved":false,"is_disabled":false,"rental_uris":{"android":"levelo://app?vid=06f4a67a-b922-473c-9074-32f848be455f","ios":"levelo://app?vid=06f4a67a-b922-473c-9074-32f848be455f"},"vehicle_type_id":"4","last_reported":1743170983,"current_range_meters":11200,"station_id":"ce4bhmp2rcd13ifvqgog","pricing_plan_id":"cebpf4jnsgd1na2vs0mg"},{"bike_id":"39ea9b72-b36d-4fca-9b38-2d6234508e2b","system_id":"levelo_inurba_marseille","lat":43.27378,"lon":5.36238,"is_reserved":false,"is_disabled":false,"rental_uris":{"android":"levelo://app?vid=39ea9b72-b36d-4fca-9b38-2d6234508e2b","ios":"levelo://app?vid=39ea9b72-b36d-4fca-9b38-2d6234508e2b"},"vehicle_type_id":"4","last_reported":1743170983,"current_range_meters":11200,"station_id":"ce4bhbh2rcd13ifvqeo0","pricing_plan_id":"cebpf4jnsgd1na2vs0mg"},{"bike_id":"68e9fc26-8998-4bf7-8da8-af47209f9b7c","system_id":"levelo_inurba_marseille","lat":43.32112,"lon":5.36783,"is_reserved":false,"is_disabled":false,"rental_uris":{"android":"levelo://app?vid=68e9fc26-8998-4bf7-8da8-af47209f9b7c","ios":"levelo://app?vid=68e9fc26-8998-4bf7-8da8-af47209f9b7c"},"vehicle_type_id":"4","last_reported":1743170983,"current_range_meters":11200,"station_id":"ce4bhrh2rcd13ifvqhug","pricing_plan_id":"cebpf4jnsgd1na2vs0mg"},{"bike_id":"65c86302-8ef0-46f4-ab6e-bac7149a2865","system_id":"levelo_inurba_marseille","lat":43.32113,"lon":5.36757,"is_reserved":false,"is_disabled":false,"rental_uris":{"android":"levelo://app?vid=65c86302-8ef0-46f4-ab6e-bac7149a2865","ios":"levelo://app?vid=65c86302-8ef0-46f4-ab6e-bac7149a2865"},"vehicle_type_id":"4","last_reported":1743170983,"current_range_meters":11200,"station_id":"ce4bhrh2rcd13ifvqhug","pricing_plan_id":"cebpf4jnsgd1na2vs0mg"},{"bike_id":"d2be6ce3-8e79-4804-b0d3-008c875e7b9d","system_id":"levelo_inurba_marseille","lat":43.2621,"lon":5.37897,"is_reserved":false,"is_disabled":false,"rental_uris":{"android":"levelo://app?vid=d2be6ce3-8e79-4804-b0d3-008c875e7b9d","ios":"levelo://app?vid=d2be6ce3-8e79-4804-b0d3-008c875e7b9d"},"vehicle_type_id":"4","last_reported":1743170983,"current_range_meters":11600,"station_id":"ce4bhjp2rcd13ifvqg90","pricing_plan_id":"cebpf4jnsgd1na2vs0mg"},{"bike_id":"b6167fd2-87df-4353-a6d8-6cd1558c2310","system_id":"levelo_inurba_marseille","lat":43.30169,"lon":5.38088,"is_reserved":false,"is_disabled":false,"rental_uris":{"android":"levelo://app?vid=b6167fd2-87df-4353-a6d8-6cd1558c2310","ios":"levelo://app?vid=b6167fd2-87df-4353-a6d8-6cd1558c2310"},"vehicle_type_id":"4","last_reported":1743170983,"current_range_meters":11600,"station_id":"ce4bgjp2rcd13ifvqbh0","pricing_plan_id":"cebpf4jnsgd1na2vs0mg"},{"bike_id":"6082a6d8-29f3-4441-bd82-d0f95ead75d7","system_id":"levelo_inurba_marseille","lat":43.231981,"lon":5.355493,"is_reserved":false,"is_disabled":false,"rental_uris":{"android":"levelo://app?vid=6082a6d8-29f3-4441-bd82-d0f95ead75d7","ios":"levelo://app?vid=6082a6d8-29f3-4441-bd82-d0f95ead75d7"},"vehicle_type_id":"4","last_reported":1743170983,"current_range_meters":11600,"station_id":"ce4bhu92rcd13ifvqi70","pricing_plan_id":"cebpf4jnsgd1na2vs0mg"},{"bike_id":"6cbddcc1-9609-4503-9874-4b78c26df24e","system_id":"levelo_inurba_marseille","lat":43.3212,"lon":5.36774,"is_reserved":false,"is_disabled":false,"rental_uris":{"android":"levelo://app?vid=6cbddcc1-9609-4503-9874-4b78c26df24e","ios":"levelo://app?vid=6cbddcc1-9609-4503-9874-4b78c26df24e"},"vehicle_type_id":"4","last_reported":1743170983,"current_range_meters":11600,"station_id":"ce4bhrh2rcd13ifvqhug","pricing_plan_id":"cebpf4jnsgd1na2vs0mg"},{"bike_id":"2c4be945-47f5-4a35-9112-cbec0e0cb109","system_id":"levelo_inurba_marseille","lat":43.26563,"lon":5.37302,"is_reserved":false,"is_disabled":false,"rental_uris":{"android":"levelo://app?vid=2c4be945-47f5-4a35-9112-cbec0e0cb109","ios":"levelo://app?vid=2c4be945-47f5-4a35-9112-cbec0e0cb109"},"vehicle_type_id":"4","last_reported":1743170983,"current_range_meters":11600,"station_id":"ce4bhg12rcd13ifvqf70","pricing_plan_id":"cebpf4jnsgd1na2vs0mg"},{"bike_id":"fb348b09-6abb-47a4-a266-91f2eeaee291","system_id":"levelo_inurba_marseille","lat":43.32113,"lon":5.36795,"is_reserved":false,"is_disabled":false,"rental_uris":{"android":"levelo://app?vid=fb348b09-6abb-47a4-a266-91f2eeaee291","ios":"levelo://app?vid=fb348b09-6abb-47a4-a266-91f2eeaee291"},"vehicle_type_id":"4","last_reported":1743170983,"current_range_meters":12000,"station_id":"ce4bhrh2rcd13ifvqhug","pricing_plan_id":"cebpf4jnsgd1na2vs0mg"},{"bike_id":"94434274-6ad2-4e93-8793-191d961bfcab","system_id":"levelo_inurba_marseille","lat":43.27495,"lon":5.42451,"is_reserved":false,"is_disabled":false,"rental_uris":{"android":"levelo://app?vid=94434274-6ad2-4e93-8793-191d961bfcab","ios":"levelo://app?vid=94434274-6ad2-4e93-8793-191d961bfcab"},"vehicle_type_id":"4","last_reported":1743170983,"current_range_meters":14000,"station_id":"ce4bhn92rcd13ifvqgrg","pricing_plan_id":"cebpf4jnsgd1na2vs0mg"},{"bike_id":"8ce57e29-9e4e-4c4b-9eac-25dbada77966","system_id":"levelo_inurba_marseille","lat":43.27619,"lon":5.36118,"is_reserved":false,"is_disabled":false,"rental_uris":{"android":"levelo://app?vid=8ce57e29-9e4e-4c4b-9eac-25dbada77966","ios":"levelo://app?vid=8ce57e29-9e4e-4c4b-9eac-25dbada77966"},"vehicle_type_id":"4","last_reported":1743170983,"current_range_meters":12000,"station_id":"ce4bgj92rcd13ifvqbe0","pricing_plan_id":"cebpf4jnsgd1na2vs0mg"},{"bike_id":"ec1c7786-1acd-447d-876f-8ab015a8ac03","system_id":"levelo_inurba_marseille","lat":43.29261,"lon":5.37631,"is_reserved":false,"is_disabled":false,"rental_uris":{"android":"levelo://app?vid=ec1c7786-1acd-447d-876f-8ab015a8ac03","ios":"levelo://app?vid=ec1c7786-1acd-447d-876f-8ab015a8ac03"},"vehicle_type_id":"4","last_reported":1743170983,"current_range_meters":12000,"station_id":"ce4bgi12rcd13ifvqb80","pricing_plan_id":"cebpf4jnsgd1na2vs0mg"},{"bike_id":"b66f82de-8436-48e9-a008-e6c12dd172dc","system_id":"levelo_inurba_marseille","lat":43.29631,"lon":5.37716,"is_reserved":false,"is_disabled":false,"rental_uris":{"android":"levelo://app?vid=b66f82de-8436-48e9-a008-e6c12dd172dc","ios":"levelo://app?vid=b66f82de-8436-48e9-a008-e6c12dd172dc"},"vehicle_type_id":"4","last_reported":1743170983,"current_range_meters":12000,"station_id":"ce4bgi92rcd13ifvqb90","pricing_plan_id":"cebpf4jnsgd1na2vs0mg"},{"bike_id":"aed2caaf-e63e-4d9f-9fab-effd4b56045d","system_id":"levelo_inurba_marseille","lat":43.26184,"lon":5.40397,"is_reserved":false,"is_disabled":false,"rental_uris":{"android":"levelo://app?vid=aed2caaf-e63e-4d9f-9fab-effd4b56045d","ios":"levelo://app?vid=aed2caaf-e63e-4d9f-9fab-effd4b56045d"},"vehicle_type_id":"4","last_reported":1743170983,"current_range_meters":12000,"station_id":"ce4bhmh2rcd13ifvqgmg","pricing_plan_id":"cebpf4jnsgd1na2vs0mg"},{"bike_id":"9462a91b-8b4b-430a-ac7a-4612f1bebb31","system_id":"levelo_inurba_marseille","lat":43.29107,"lon":5.38147,"is_reserved":false,"is_disabled":true,"rental_uris":{"android":"levelo://app?vid=9462a91b-8b4b-430a-ac7a-4612f1bebb31","ios":"levelo://app?vid=9462a91b-8b4b-430a-ac7a-4612f1bebb31"},"vehicle_type_id":"4","last_reported":1743170983,"current_range_meters":12000,"station_id":"ce4bh512rcd13ifvqe2g","pricing_plan_id":"cebpf4jnsgd1na2vs0mg"},{"bike_id":"7662328f-4ebe-49b4-8ae4-40e9f4585489","system_id":"levelo_inurba_marseille","lat":43.254938,"lon":5.376457,"is_reserved":false,"is_disabled":false,"rental_uris":{"android":"levelo://app?vid=7662328f-4ebe-49b4-8ae4-40e9f4585489","ios":"levelo://app?vid=7662328f-4ebe-49b4-8ae4-40e9f4585489"},"vehicle_type_id":"4","last_reported":1743170983,"current_range_meters":12000,"station_id":"ce4bhh12rcd13ifvqff0","pricing_plan_id":"cebpf4jnsgd1na2vs0mg"},{"bike_id":"67103af4-3176-4ab3-aa07-51f8d11cb96b","system_id":"levelo_inurba_marseille","lat":43.26208,"lon":5.37926,"is_reserved":false,"is_disabled":false,"rental_uris":{"android":"levelo://app?vid=67103af4-3176-4ab3-aa07-51f8d11cb96b","ios":"levelo://app?vid=67103af4-3176-4ab3-aa07-51f8d11cb96b"},"vehicle_type_id":"4","last_reported":1743170983,"current_range_meters":12000,"station_id":"ce4bhjp2rcd13ifvqg90","pricing_plan_id":"cebpf4jnsgd1na2vs0mg"},{"bike_id":"e4cda1a5-ed5a-4080-bd26-0b718e550ad4","system_id":"levelo_inurba_marseille","lat":43.28145,"lon":5.4264,"is_reserved":false,"is_disabled":false,"rental_uris":{"android":"levelo://app?vid=e4cda1a5-ed5a-4080-bd26-0b718e550ad4","ios":"levelo://app?vid=e4cda1a5-ed5a-4080-bd26-0b718e550ad4"},"vehicle_type_id":"4","last_reported":1743170983,"current_range_meters":12400,"station_id":"ce4bhnh2rcd13ifvqgug","pricing_plan_id":"cebpf4jnsgd1na2vs0mg"},{"bike_id":"9e9f2d5f-da1e-4e90-8530-f8e06b4643cb","system_id":"levelo_inurba_marseille","lat":43.290459,"lon":5.383228,"is_reserved":false,"is_disabled":false,"rental_uris":{"android":"levelo://app?vid=9e9f2d5f-da1e-4e90-8530-f8e06b4643cb","ios":"levelo://app?vid=9e9f2d5f-da1e-4e90-8530-f8e06b4643cb"},"vehicle_type_id":"4","last_reported":1743170983,"current_range_meters":12400,"station_id":"ce4bhh12rcd13ifvqfg0","pricing_plan_id":"cebpf4jnsgd1na2vs0mg"},{"bike_id":"eef0afdf-4ce8-421c-9cf4-68eb1f791b5e","system_id":"levelo_inurba_marseille","lat":43.29191,"lon":5.39311,"is_reserved":false,"is_disabled":false,"rental_uris":{"android":"levelo://app?vid=eef0afdf-4ce8-421c-9cf4-68eb1f791b5e","ios":"levelo://app?vid=eef0afdf-4ce8-421c-9cf4-68eb1f791b5e"},"vehicle_type_id":"4","last_reported":1743170983,"current_range_meters":12400,"station_id":"ce4bh192rcd13ifvqdd0","pricing_plan_id":"cebpf4jnsgd1na2vs0mg"},{"bike_id":"c6c8fb31-86de-4758-859b-e74b70125ab7","system_id":"levelo_inurba_marseille","lat":43.32107,"lon":5.36779,"is_reserved":false,"is_disabled":false,"rental_uris":{"android":"levelo://app?vid=c6c8fb31-86de-4758-859b-e74b70125ab7","ios":"levelo://app?vid=c6c8fb31-86de-4758-859b-e74b70125ab7"},"vehicle_type_id":"4","last_reported":1743170983,"current_range_meters":12400,"station_id":"ce4bhrh2rcd13ifvqhug","pricing_plan_id":"cebpf4jnsgd1na2vs0mg"},{"bike_id":"02b9a32d-6225-4b1a-b561-698fab6b9f9e","system_id":"levelo_inurba_marseille","lat":43.31995,"lon":5.38145,"is_reserved":false,"is_disabled":false,"rental_uris":{"android":"levelo://app?vid=02b9a32d-6225-4b1a-b561-698fab6b9f9e","ios":"levelo://app?vid=02b9a32d-6225-4b1a-b561-698fab6b9f9e"},"vehicle_type_id":"4","last_reported":1743170983,"current_range_meters":12400,"station_id":"ce4bhr12rcd13ifvqhpg","pricing_plan_id":"cebpf4jnsgd1na2vs0mg"},{"bike_id":"01420dd4-933d-44d5-a2b1-9cdbe4821532","system_id":"levelo_inurba_marseille","lat":43.28705,"lon":5.39988,"is_reserved":false,"is_disabled":false,"rental_uris":{"android":"levelo://app?vid=01420dd4-933d-44d5-a2b1-9cdbe4821532","ios":"levelo://app?vid=01420dd4-933d-44d5-a2b1-9cdbe4821532"},"vehicle_type_id":"4","last_reported":1743170983,"current_range_meters":12400,"station_id":"ce4bho92rcd13ifvqh3g","pricing_plan_id":"cebpf4jnsgd1na2vs0mg"},{"bike_id":"9f2583cf-461d-4d57-8c37-99ef1e89cade","system_id":"levelo_inurba_marseille","lat":43.23202,"lon":5.35561,"is_reserved":false,"is_disabled":false,"rental_uris":{"android":"levelo://app?vid=9f2583cf-461d-4d57-8c37-99ef1e89cade","ios":"levelo://app?vid=9f2583cf-461d-4d57-8c37-99ef1e89cade"},"vehicle_type_id":"4","last_reported":1743170983,"current_range_meters":12400,"station_id":"ce4bhu92rcd13ifvqi70","pricing_plan_id":"cebpf4jnsgd1na2vs0mg"},{"bike_id":"511803ee-7434-4930-917d-c8b1c7144de9","system_id":"levelo_inurba_marseille","lat":43.28103,"lon":5.378399,"is_reserved":false,"is_disabled":false,"rental_uris":{"android":"levelo://app?vid=511803ee-7434-4930-917d-c8b1c7144de9","ios":"levelo://app?vid=511803ee-7434-4930-917d-c8b1c7144de9"},"vehicle_type_id":"4","last_reported":1743170983,"current_range_meters":12400,"station_id":"ce4bhf92rcd13ifvqf50","pricing_plan_id":"cebpf4jnsgd1na2vs0mg"},{"bike_id":"62fb228f-760d-4230-a117-b0e3e729e33d","system_id":"levelo_inurba_marseille","lat":43.29204,"lon":5.39334,"is_reserved":false,"is_disabled":false,"rental_uris":{"android":"levelo://app?vid=62fb228f-760d-4230-a117-b0e3e729e33d","ios":"levelo://app?vid=62fb228f-760d-4230-a117-b0e3e729e33d"},"vehicle_type_id":"4","last_reported":1743170983,"current_range_meters":12800,"station_id":"ce4bh192rcd13ifvqdd0","pricing_plan_id":"cebpf4jnsgd1na2vs0mg"},{"bike_id":"9f4a7ed6-290f-4ac1-b05e-471b2f21c37d","system_id":"levelo_inurba_marseille","lat":43.27375,"lon":5.36243,"is_reserved":false,"is_disabled":false,"rental_uris":{"android":"levelo://app?vid=9f4a7ed6-290f-4ac1-b05e-471b2f21c37d","ios":"levelo://app?vid=9f4a7ed6-290f-4ac1-b05e-471b2f21c37d"},"vehicle_type_id":"4","last_reported":1743170983,"current_range_meters":12800,"station_id":"ce4bhbh2rcd13ifvqeo0","pricing_plan_id":"cebpf4jnsgd1na2vs0mg"},{"bike_id":"c8a82d6c-88e4-4fba-b979-bf66cc66d5b3","system_id":"levelo_inurba_marseille","lat":43.28937,"lon":5.36381,"is_reserved":false,"is_disabled":false,"rental_uris":{"android":"levelo://app?vid=c8a82d6c-88e4-4fba-b979-bf66cc66d5b3","ios":"levelo://app?vid=c8a82d6c-88e4-4fba-b979-bf66cc66d5b3"},"vehicle_type_id":"4","last_reported":1743170983,"current_range_meters":13600,"station_id":"ce4bhc92rcd13ifvqetg","pricing_plan_id":"cebpf4jnsgd1na2vs0mg"},{"bike_id":"b6a0d8a2-5ed2-4fc3-9a8b-cec4b9542929","system_id":"levelo_inurba_marseille","lat":43.254883,"lon":5.376483,"is_reserved":false,"is_disabled":false,"rental_uris":{"android":"levelo://app?vid=b6a0d8a2-5ed2-4fc3-9a8b-cec4b9542929","ios":"levelo://app?vid=b6a0d8a2-5ed2-4fc3-9a8b-cec4b9542929"},"vehicle_type_id":"4","last_reported":1743170983,"current_range_meters":12800,"station_id":"ce4bhh12rcd13ifvqff0","pricing_plan_id":"cebpf4jnsgd1na2vs0mg"},{"bike_id":"3f228dfd-9a77-4459-93d5-e23d76b0552f","system_id":"levelo_inurba_marseille","lat":43.25912,"lon":5.40894,"is_reserved":false,"is_disabled":false,"rental_uris":{"android":"levelo://app?vid=3f228dfd-9a77-4459-93d5-e23d76b0552f","ios":"levelo://app?vid=3f228dfd-9a77-4459-93d5-e23d76b0552f"},"vehicle_type_id":"4","last_reported":1743170983,"current_range_meters":12800,"station_id":"ce4bhm92rcd13ifvqglg","pricing_plan_id":"cebpf4jnsgd1na2vs0mg"},{"bike_id":"d72bddf0-b04d-4051-a6ee-2ba46e0f968e","system_id":"levelo_inurba_marseille","lat":43.2792,"lon":5.39578,"is_reserved":false,"is_disabled":false,"rental_uris":{"android":"levelo://app?vid=d72bddf0-b04d-4051-a6ee-2ba46e0f968e","ios":"levelo://app?vid=d72bddf0-b04d-4051-a6ee-2ba46e0f968e"},"vehicle_type_id":"4","last_reported":1743170983,"current_range_meters":12800,"station_id":"ce4bhf92rcd13ifvqf40","pricing_plan_id":"cebpf4jnsgd1na2vs0mg"},{"bike_id":"31fcb7dc-4f6a-428c-b08c-fb6c0bdda347","system_id":"levelo_inurba_marseille","lat":43.24393,"lon":5.3706,"is_reserved":false,"is_disabled":false,"rental_uris":{"android":"levelo://app?vid=31fcb7dc-4f6a-428c-b08c-fb6c0bdda347","ios":"levelo://app?vid=31fcb7dc-4f6a-428c-b08c-fb6c0bdda347"},"vehicle_type_id":"4","last_reported":1743170983,"current_range_meters":13600,"station_id":"ce4bhhh2rcd13ifvqfk0","pricing_plan_id":"cebpf4jnsgd1na2vs0mg"},{"bike_id":"18f2ec53-6a8e-4a47-8a39-870a25dac6e6","system_id":"levelo_inurba_marseille","lat":43.2826,"lon":5.35071,"is_reserved":false,"is_disabled":false,"rental_uris":{"android":"levelo://app?vid=18f2ec53-6a8e-4a47-8a39-870a25dac6e6","ios":"levelo://app?vid=18f2ec53-6a8e-4a47-8a39-870a25dac6e6"},"vehicle_type_id":"4","last_reported":1743170983,"current_range_meters":13600,"station_id":"ce4bhbp2rcd13ifvqerg","pricing_plan_id":"cebpf4jnsgd1na2vs0mg"},{"bike_id":"c9542263-577c-4b8a-a1f4-506a9e37f072","system_id":"levelo_inurba_marseille","lat":43.28419,"lon":5.34977,"is_reserved":false,"is_disabled":false,"rental_uris":{"android":"levelo://app?vid=c9542263-577c-4b8a-a1f4-506a9e37f072","ios":"levelo://app?vid=c9542263-577c-4b8a-a1f4-506a9e37f072"},"vehicle_type_id":"4","last_reported":1743170983,"current_range_meters":14000,"station_id":"ce4bhbh2rcd13ifvqepg","pricing_plan_id":"cebpf4jnsgd1na2vs0mg"},{"bike_id":"983c4c9f-ee1a-4d13-8ce7-bfd36c479f46","system_id":"levelo_inurba_marseille","lat":43.241735,"lon":5.36395,"is_reserved":false,"is_disabled":false,"rental_uris":{"android":"levelo://app?vid=983c4c9f-ee1a-4d13-8ce7-bfd36c479f46","ios":"levelo://app?vid=983c4c9f-ee1a-4d13-8ce7-bfd36c479f46"},"vehicle_type_id":"4","last_reported":1743170983,"current_range_meters":14000,"station_id":"cpo36qri1sfpv3e86is0","pricing_plan_id":"cebpf4jnsgd1na2vs0mg"},{"bike_id":"212c8e98-dbd0-430f-965c-a5211ae16902","system_id":"levelo_inurba_marseille","lat":43.25081,"lon":5.39513,"is_reserved":false,"is_disabled":false,"rental_uris":{"android":"levelo://app?vid=212c8e98-dbd0-430f-965c-a5211ae16902","ios":"levelo://app?vid=212c8e98-dbd0-430f-965c-a5211ae16902"},"vehicle_type_id":"4","last_reported":1743170983,"current_range_meters":14000,"station_id":"ce4bhm12rcd13ifvqgkg","pricing_plan_id":"cebpf4jnsgd1na2vs0mg"},{"bike_id":"c52bfc53-9dc3-4674-af50-c4a5cf819bc5","system_id":"levelo_inurba_marseille","lat":43.29901,"lon":5.3748,"is_reserved":false,"is_disabled":false,"rental_uris":{"android":"levelo://app?vid=c52bfc53-9dc3-4674-af50-c4a5cf819bc5","ios":"levelo://app?vid=c52bfc53-9dc3-4674-af50-c4a5cf819bc5"},"vehicle_type_id":"4","last_reported":1743170983,"current_range_meters":14000,"station_id":"ce4bgjh2rcd13ifvqbg0","pricing_plan_id":"cebpf4jnsgd1na2vs0mg"},{"bike_id":"501dde1b-151d-4eb7-8471-32e8a4b06e81","system_id":"levelo_inurba_marseille","lat":43.29023,"lon":5.38125,"is_reserved":false,"is_disabled":false,"rental_uris":{"android":"levelo://app?vid=501dde1b-151d-4eb7-8471-32e8a4b06e81","ios":"levelo://app?vid=501dde1b-151d-4eb7-8471-32e8a4b06e81"},"vehicle_type_id":"4","last_reported":1743170983,"current_range_meters":13600,"station_id":"ce4bh4p2rcd13ifvqe1g","pricing_plan_id":"cebpf4jnsgd1na2vs0mg"},{"bike_id":"9bbff12d-dc33-46fa-ac7b-c0011df1659e","system_id":"levelo_inurba_marseille","lat":43.24386,"lon":5.37057,"is_reserved":false,"is_disabled":false,"rental_uris":{"android":"levelo://app?vid=9bbff12d-dc33-46fa-ac7b-c0011df1659e","ios":"levelo://app?vid=9bbff12d-dc33-46fa-ac7b-c0011df1659e"},"vehicle_type_id":"4","last_reported":1743170983,"current_range_meters":14000,"station_id":"ce4bhhh2rcd13ifvqfk0","pricing_plan_id":"cebpf4jnsgd1na2vs0mg"},{"bike_id":"5181f99d-b413-455c-a7e3-a873535186da","system_id":"levelo_inurba_marseille","lat":43.30145,"lon":5.38064,"is_reserved":false,"is_disabled":false,"rental_uris":{"android":"levelo://app?vid=5181f99d-b413-455c-a7e3-a873535186da","ios":"levelo://app?vid=5181f99d-b413-455c-a7e3-a873535186da"},"vehicle_type_id":"4","last_reported":1743170983,"current_range_meters":14400,"station_id":"ce4bgjp2rcd13ifvqbh0","pricing_plan_id":"cebpf4jnsgd1na2vs0mg"},{"bike_id":"d67d8652-0f04-45a0-b34d-bbd8839b9d56","system_id":"levelo_inurba_marseille","lat":43.26325,"lon":5.38843,"is_reserved":false,"is_disabled":false,"rental_uris":{"android":"levelo://app?vid=d67d8652-0f04-45a0-b34d-bbd8839b9d56","ios":"levelo://app?vid=d67d8652-0f04-45a0-b34d-bbd8839b9d56"},"vehicle_type_id":"4","last_reported":1743170983,"current_range_meters":14400,"station_id":"","pricing_plan_id":"cebpf4jnsgd1na2vs0mg"},{"bike_id":"ab5156bd-499e-4940-8af8-200f841ae768","system_id":"levelo_inurba_marseille","lat":43.30373,"lon":5.42485,"is_reserved":false,"is_disabled":false,"rental_uris":{"android":"levelo://app?vid=ab5156bd-499e-4940-8af8-200f841ae768","ios":"levelo://app?vid=ab5156bd-499e-4940-8af8-200f841ae768"},"vehicle_type_id":"4","last_reported":1743170983,"current_range_meters":14400,"station_id":"ce4bhoh2rcd13ifvqh6g","pricing_plan_id":"cebpf4jnsgd1na2vs0mg"},{"bike_id":"ad095ff6-2192-4acf-9d3b-75082cfc78be","system_id":"levelo_inurba_marseille","lat":43.2925,"lon":5.37724,"is_reserved":false,"is_disabled":false,"rental_uris":{"android":"levelo://app?vid=ad095ff6-2192-4acf-9d3b-75082cfc78be","ios":"levelo://app?vid=ad095ff6-2192-4acf-9d3b-75082cfc78be"},"vehicle_type_id":"4","last_reported":1743170983,"current_range_meters":14400,"station_id":"","pricing_plan_id":"cebpf4jnsgd1na2vs0mg"},{"bike_id":"9cb0cb87-1e1b-4950-99c8-b92dc702ab40","system_id":"levelo_inurba_marseille","lat":43.30554,"lon":5.36531,"is_reserved":false,"is_disabled":false,"rental_uris":{"android":"levelo://app?vid=9cb0cb87-1e1b-4950-99c8-b92dc702ab40","ios":"levelo://app?vid=9cb0cb87-1e1b-4950-99c8-b92dc702ab40"},"vehicle_type_id":"4","last_reported":1743170983,"current_range_meters":14800,"station_id":"ce4bgs12rcd13ifvqcag","pricing_plan_id":"cebpf4jnsgd1na2vs0mg"},{"bike_id":"f03d6cfd-8e51-4ba9-8b5b-740de8ee4ca2","system_id":"levelo_inurba_marseille","lat":43.33017,"lon":5.39053,"is_reserved":false,"is_disabled":false,"rental_uris":{"android":"levelo://app?vid=f03d6cfd-8e51-4ba9-8b5b-740de8ee4ca2","ios":"levelo://app?vid=f03d6cfd-8e51-4ba9-8b5b-740de8ee4ca2"},"vehicle_type_id":"4","last_reported":1743170983,"current_range_meters":14800,"station_id":"ce4bhr92rcd13ifvqhrg","pricing_plan_id":"cebpf4jnsgd1na2vs0mg"},{"bike_id":"82a36f7e-1275-4975-8acd-2b6ed31c3789","system_id":"levelo_inurba_marseille","lat":43.29006,"lon":5.35609,"is_reserved":false,"is_disabled":false,"rental_uris":{"android":"levelo://app?vid=82a36f7e-1275-4975-8acd-2b6ed31c3789","ios":"levelo://app?vid=82a36f7e-1275-4975-8acd-2b6ed31c3789"},"vehicle_type_id":"4","last_reported":1743170983,"current_range_meters":15200,"station_id":"ce4bhb92rcd13ifvqen0","pricing_plan_id":"cebpf4jnsgd1na2vs0mg"},{"bike_id":"32ce4fae-4873-49dc-8820-dde5305b3a27","system_id":"levelo_inurba_marseille","lat":43.26958,"lon":5.38638,"is_reserved":false,"is_disabled":false,"rental_uris":{"android":"levelo://app?vid=32ce4fae-4873-49dc-8820-dde5305b3a27","ios":"levelo://app?vid=32ce4fae-4873-49dc-8820-dde5305b3a27"},"vehicle_type_id":"4","last_reported":1743170983,"current_range_meters":15200,"station_id":"ce4bhh92rcd13ifvqfh0","pricing_plan_id":"cebpf4jnsgd1na2vs0mg"},{"bike_id":"c40d1f81-f2ae-4f24-8ed6-489d686dce22","system_id":"levelo_inurba_marseille","lat":43.29899,"lon":5.38143,"is_reserved":false,"is_disabled":false,"rental_uris":{"android":"levelo://app?vid=c40d1f81-f2ae-4f24-8ed6-489d686dce22","ios":"levelo://app?vid=c40d1f81-f2ae-4f24-8ed6-489d686dce22"},"vehicle_type_id":"4","last_reported":1743170983,"current_range_meters":15200,"station_id":"ce4bgj12rcd13ifvqbc0","pricing_plan_id":"cebpf4jnsgd1na2vs0mg"},{"bike_id":"36afd4fb-5c3d-4b59-be68-f05d3d00a6ac","system_id":"levelo_inurba_marseille","lat":43.29935,"lon":5.36566,"is_reserved":false,"is_disabled":false,"rental_uris":{"android":"levelo://app?vid=36afd4fb-5c3d-4b59-be68-f05d3d00a6ac","ios":"levelo://app?vid=36afd4fb-5c3d-4b59-be68-f05d3d00a6ac"},"vehicle_type_id":"4","last_reported":1743170983,"current_range_meters":15200,"station_id":"ce4bgm92rcd13ifvqbr0","pricing_plan_id":"cebpf4jnsgd1na2vs0mg"},{"bike_id":"4b2323ae-94b8-41f7-9062-4d9bd4bd549e","system_id":"levelo_inurba_marseille","lat":43.24169,"lon":5.36401,"is_reserved":false,"is_disabled":false,"rental_uris":{"android":"levelo://app?vid=4b2323ae-94b8-41f7-9062-4d9bd4bd549e","ios":"levelo://app?vid=4b2323ae-94b8-41f7-9062-4d9bd4bd549e"},"vehicle_type_id":"4","last_reported":1743170983,"current_range_meters":15200,"station_id":"cpo36qri1sfpv3e86is0","pricing_plan_id":"cebpf4jnsgd1na2vs0mg"},{"bike_id":"40494913-c374-4301-9a91-8351099c675b","system_id":"levelo_inurba_marseille","lat":43.2857,"lon":5.39491,"is_reserved":false,"is_disabled":false,"rental_uris":{"android":"levelo://app?vid=40494913-c374-4301-9a91-8351099c675b","ios":"levelo://app?vid=40494913-c374-4301-9a91-8351099c675b"},"vehicle_type_id":"4","last_reported":1743170983,"current_range_meters":15200,"station_id":"ce4bh292rcd13ifvqdg0","pricing_plan_id":"cebpf4jnsgd1na2vs0mg"},{"bike_id":"4f899a37-bda4-4313-ab84-71d5ddf2a6c1","system_id":"levelo_inurba_marseille","lat":43.34159,"lon":5.40917,"is_reserved":false,"is_disabled":false,"rental_uris":{"android":"levelo://app?vid=4f899a37-bda4-4313-ab84-71d5ddf2a6c1","ios":"levelo://app?vid=4f899a37-bda4-4313-ab84-71d5ddf2a6c1"},"vehicle_type_id":"4","last_reported":1743170983,"current_range_meters":15200,"station_id":"ce4bhqh2rcd13ifvqhlg","pricing_plan_id":"cebpf4jnsgd1na2vs0mg"},{"bike_id":"5fe77b67-e12b-44f4-a5f0-427dbd7c9151","system_id":"levelo_inurba_marseille","lat":43.298471,"lon":5.362855,"is_reserved":false,"is_disabled":false,"rental_uris":{"android":"levelo://app?vid=5fe77b67-e12b-44f4-a5f0-427dbd7c9151","ios":"levelo://app?vid=5fe77b67-e12b-44f4-a5f0-427dbd7c9151"},"vehicle_type_id":"4","last_reported":1743170983,"current_range_meters":15200,"station_id":"ce4bgpp2rcd13ifvqc3g","pricing_plan_id":"cebpf4jnsgd1na2vs0mg"},{"bike_id":"c4929d7e-5a31-4f08-9105-2d588d30f36b","system_id":"levelo_inurba_marseille","lat":43.23162,"lon":5.43715,"is_reserved":false,"is_disabled":false,"rental_uris":{"android":"levelo://app?vid=c4929d7e-5a31-4f08-9105-2d588d30f36b","ios":"levelo://app?vid=c4929d7e-5a31-4f08-9105-2d588d30f36b"},"vehicle_type_id":"4","last_reported":1743170983,"current_range_meters":15200,"station_id":"ce4bhmp2rcd13ifvqgog","pricing_plan_id":"cebpf4jnsgd1na2vs0mg"},{"bike_id":"7ab0f6b6-94be-4f64-8491-e0519c5cc11c","system_id":"levelo_inurba_marseille","lat":43.2997,"lon":5.37433,"is_reserved":false,"is_disabled":false,"rental_uris":{"android":"levelo://app?vid=7ab0f6b6-94be-4f64-8491-e0519c5cc11c","ios":"levelo://app?vid=7ab0f6b6-94be-4f64-8491-e0519c5cc11c"},"vehicle_type_id":"4","last_reported":1743170983,"current_range_meters":16000,"station_id":"ce4bgjh2rcd13ifvqbg0","pricing_plan_id":"cebpf4jnsgd1na2vs0mg"},{"bike_id":"01f43717-9570-4a67-93ba-ed6121529ea8","system_id":"levelo_inurba_marseille","lat":43.28414,"lon":5.34991,"is_reserved":false,"is_disabled":false,"rental_uris":{"android":"levelo://app?vid=01f43717-9570-4a67-93ba-ed6121529ea8","ios":"levelo://app?vid=01f43717-9570-4a67-93ba-ed6121529ea8"},"vehicle_type_id":"4","last_reported":1743170983,"current_range_meters":16000,"station_id":"ce4bhbh2rcd13ifvqepg","pricing_plan_id":"cebpf4jnsgd1na2vs0mg"},{"bike_id":"f2dbedda-6b7d-45bd-a4de-defc18e76d90","system_id":"levelo_inurba_marseille","lat":43.29891,"lon":5.38135,"is_reserved":false,"is_disabled":false,"rental_uris":{"android":"levelo://app?vid=f2dbedda-6b7d-45bd-a4de-defc18e76d90","ios":"levelo://app?vid=f2dbedda-6b7d-45bd-a4de-defc18e76d90"},"vehicle_type_id":"4","last_reported":1743170983,"current_range_meters":16000,"station_id":"ce4bgj12rcd13ifvqbc0","pricing_plan_id":"cebpf4jnsgd1na2vs0mg"},{"bike_id":"422ecaab-c63e-4eed-847f-1572b477ed97","system_id":"levelo_inurba_marseille","lat":43.292603,"lon":5.409096,"is_reserved":false,"is_disabled":false,"rental_uris":{"android":"levelo://app?vid=422ecaab-c63e-4eed-847f-1572b477ed97","ios":"levelo://app?vid=422ecaab-c63e-4eed-847f-1572b477ed97"},"vehicle_type_id":"4","last_reported":1743170983,"current_range_meters":16000,"station_id":"ce4bh192rcd13ifvqdc0","pricing_plan_id":"cebpf4jnsgd1na2vs0mg"},{"bike_id":"5e01f622-47b0-4a3a-bbf8-47503a0b6408","system_id":"levelo_inurba_marseille","lat":43.304606,"lon":5.378959,"is_reserved":false,"is_disabled":false,"rental_uris":{"android":"levelo://app?vid=5e01f622-47b0-4a3a-bbf8-47503a0b6408","ios":"levelo://app?vid=5e01f622-47b0-4a3a-bbf8-47503a0b6408"},"vehicle_type_id":"4","last_reported":1743170983,"current_range_meters":15200,"station_id":"ce4bgup2rcd13ifvqcn0","pricing_plan_id":"cebpf4jnsgd1na2vs0mg"},{"bike_id":"a4c43214-d77b-4446-b8ef-8cc7e4e65e13","system_id":"levelo_inurba_marseille","lat":43.30143,"lon":5.3742,"is_reserved":false,"is_disabled":false,"rental_uris":{"android":"levelo://app?vid=a4c43214-d77b-4446-b8ef-8cc7e4e65e13","ios":"levelo://app?vid=a4c43214-d77b-4446-b8ef-8cc7e4e65e13"},"vehicle_type_id":"4","last_reported":1743170983,"current_range_meters":16000,"station_id":"ce4bgs92rcd13ifvqcc0","pricing_plan_id":"cebpf4jnsgd1na2vs0mg"},{"bike_id":"6848d0ba-0ce0-4648-89dc-a2a02effd7ae","system_id":"levelo_inurba_marseille","lat":43.24808,"lon":5.37458,"is_reserved":false,"is_disabled":false,"rental_uris":{"android":"levelo://app?vid=6848d0ba-0ce0-4648-89dc-a2a02effd7ae","ios":"levelo://app?vid=6848d0ba-0ce0-4648-89dc-a2a02effd7ae"},"vehicle_type_id":"4","last_reported":1743170983,"current_range_meters":16000,"station_id":"ce4bhgh2rcd13ifvqfb0","pricing_plan_id":"cebpf4jnsgd1na2vs0mg"},{"bike_id":"ec1c8d68-cd91-4163-83dd-7bc0d68ff386","system_id":"levelo_inurba_marseille","lat":43.26567,"lon":5.37293,"is_reserved":false,"is_disabled":false,"rental_uris":{"android":"levelo://app?vid=ec1c8d68-cd91-4163-83dd-7bc0d68ff386","ios":"levelo://app?vid=ec1c8d68-cd91-4163-83dd-7bc0d68ff386"},"vehicle_type_id":"4","last_reported":1743170983,"current_range_meters":16000,"station_id":"ce4bhg12rcd13ifvqf70","pricing_plan_id":"cebpf4jnsgd1na2vs0mg"},{"bike_id":"cc2feb73-2143-4a27-844c-53e99e42e37f","system_id":"levelo_inurba_marseille","lat":43.26978,"lon":5.38593,"is_reserved":false,"is_disabled":false,"rental_uris":{"android":"levelo://app?vid=cc2feb73-2143-4a27-844c-53e99e42e37f","ios":"levelo://app?vid=cc2feb73-2143-4a27-844c-53e99e42e37f"},"vehicle_type_id":"4","last_reported":1743170983,"current_range_meters":16000,"station_id":"","pricing_plan_id":"cebpf4jnsgd1na2vs0mg"},{"bike_id":"36a49bbf-172b-4fe2-a9d0-a2e62ab94281","system_id":"levelo_inurba_marseille","lat":43.32365,"lon":5.36738,"is_reserved":false,"is_disabled":false,"rental_uris":{"android":"levelo://app?vid=36a49bbf-172b-4fe2-a9d0-a2e62ab94281","ios":"levelo://app?vid=36a49bbf-172b-4fe2-a9d0-a2e62ab94281"},"vehicle_type_id":"4","last_reported":1743170983,"current_range_meters":16000,"station_id":"ce4bhsh2rcd13ifvqi2g","pricing_plan_id":"cebpf4jnsgd1na2vs0mg"},{"bike_id":"44257693-f2df-4560-95f5-53fa3c9cc72e","system_id":"levelo_inurba_marseille","lat":43.29981,"lon":5.38492,"is_reserved":false,"is_disabled":false,"rental_uris":{"android":"levelo://app?vid=44257693-f2df-4560-95f5-53fa3c9cc72e","ios":"levelo://app?vid=44257693-f2df-4560-95f5-53fa3c9cc72e"},"vehicle_type_id":"4","last_reported":1743170983,"current_range_meters":16000,"station_id":"ce4bgj92rcd13ifvqbd0","pricing_plan_id":"cebpf4jnsgd1na2vs0mg"},{"bike_id":"7fdcd55f-1c78-4ded-99ed-725169c92149","system_id":"levelo_inurba_marseille","lat":43.27372,"lon":5.38309,"is_reserved":false,"is_disabled":false,"rental_uris":{"android":"levelo://app?vid=7fdcd55f-1c78-4ded-99ed-725169c92149","ios":"levelo://app?vid=7fdcd55f-1c78-4ded-99ed-725169c92149"},"vehicle_type_id":"4","last_reported":1743170983,"current_range_meters":16000,"station_id":"","pricing_plan_id":"cebpf4jnsgd1na2vs0mg"},{"bike_id":"f4d43a76-3919-410b-a49f-7e07146ec461","system_id":"levelo_inurba_marseille","lat":43.30549,"lon":5.36555,"is_reserved":false,"is_disabled":false,"rental_uris":{"android":"levelo://app?vid=f4d43a76-3919-410b-a49f-7e07146ec461","ios":"levelo://app?vid=f4d43a76-3919-410b-a49f-7e07146ec461"},"vehicle_type_id":"4","last_reported":1743170983,"current_range_meters":16400,"station_id":"ce4bgs12rcd13ifvqcag","pricing_plan_id":"cebpf4jnsgd1na2vs0mg"},{"bike_id":"d3d57312-c3f1-4315-a107-1f6077dc172b","system_id":"levelo_inurba_marseille","lat":43.26207,"lon":5.37445,"is_reserved":false,"is_disabled":false,"rental_uris":{"android":"levelo://app?vid=d3d57312-c3f1-4315-a107-1f6077dc172b","ios":"levelo://app?vid=d3d57312-c3f1-4315-a107-1f6077dc172b"},"vehicle_type_id":"4","last_reported":1743170983,"current_range_meters":16400,"station_id":"ce4bhgp2rcd13ifvqfc0","pricing_plan_id":"cebpf4jnsgd1na2vs0mg"},{"bike_id":"a9396a75-7abb-49e8-865c-fb81f33fe4db","system_id":"levelo_inurba_marseille","lat":43.28616,"lon":5.35105,"is_reserved":false,"is_disabled":false,"rental_uris":{"android":"levelo://app?vid=a9396a75-7abb-49e8-865c-fb81f33fe4db","ios":"levelo://app?vid=a9396a75-7abb-49e8-865c-fb81f33fe4db"},"vehicle_type_id":"4","last_reported":1743170983,"current_range_meters":16400,"station_id":"ce4bhch2rcd13ifvqeug","pricing_plan_id":"cebpf4jnsgd1na2vs0mg"},{"bike_id":"ee5cf23a-c999-4989-b5ab-8cd81cb31433","system_id":"levelo_inurba_marseille","lat":43.30119,"lon":5.37428,"is_reserved":false,"is_disabled":false,"rental_uris":{"android":"levelo://app?vid=ee5cf23a-c999-4989-b5ab-8cd81cb31433","ios":"levelo://app?vid=ee5cf23a-c999-4989-b5ab-8cd81cb31433"},"vehicle_type_id":"4","last_reported":1743170983,"current_range_meters":16400,"station_id":"ce4bgs92rcd13ifvqcc0","pricing_plan_id":"cebpf4jnsgd1na2vs0mg"},{"bike_id":"3ee3ff33-4d3e-48d3-be5f-8bc8d11f7aaf","system_id":"levelo_inurba_marseille","lat":43.261999,"lon":5.374337,"is_reserved":false,"is_disabled":false,"rental_uris":{"android":"levelo://app?vid=3ee3ff33-4d3e-48d3-be5f-8bc8d11f7aaf","ios":"levelo://app?vid=3ee3ff33-4d3e-48d3-be5f-8bc8d11f7aaf"},"vehicle_type_id":"4","last_reported":1743170983,"current_range_meters":16400,"station_id":"ce4bgkp2rcd13ifvqbmg","pricing_plan_id":"cebpf4jnsgd1na2vs0mg"},{"bike_id":"a2c133c5-296b-4f02-b407-b01207a9e744","system_id":"levelo_inurba_marseille","lat":43.27915,"lon":5.39581,"is_reserved":false,"is_disabled":false,"rental_uris":{"android":"levelo://app?vid=a2c133c5-296b-4f02-b407-b01207a9e744","ios":"levelo://app?vid=a2c133c5-296b-4f02-b407-b01207a9e744"},"vehicle_type_id":"4","last_reported":1743170983,"current_range_meters":16400,"station_id":"ce4bhf92rcd13ifvqf40","pricing_plan_id":"cebpf4jnsgd1na2vs0mg"},{"bike_id":"8f889fa0-5fa0-4391-b0dc-ff8332f1e1e4","system_id":"levelo_inurba_marseille","lat":43.28083,"lon":5.3966,"is_reserved":false,"is_disabled":false,"rental_uris":{"android":"levelo://app?vid=8f889fa0-5fa0-4391-b0dc-ff8332f1e1e4","ios":"levelo://app?vid=8f889fa0-5fa0-4391-b0dc-ff8332f1e1e4"},"vehicle_type_id":"4","last_reported":1743170983,"current_range_meters":16400,"station_id":"ce4bho12rcd13ifvqh2g","pricing_plan_id":"cebpf4jnsgd1na2vs0mg"},{"bike_id":"c1c6b5ae-05df-4e57-b4b9-ca3514040d9b","system_id":"levelo_inurba_marseille","lat":43.24083,"lon":5.3775,"is_reserved":false,"is_disabled":false,"rental_uris":{"android":"levelo://app?vid=c1c6b5ae-05df-4e57-b4b9-ca3514040d9b","ios":"levelo://app?vid=c1c6b5ae-05df-4e57-b4b9-ca3514040d9b"},"vehicle_type_id":"4","last_reported":1743170983,"current_range_meters":17600,"station_id":"ce4bhnp2rcd13ifvqgvg","pricing_plan_id":"cebpf4jnsgd1na2vs0mg"},{"bike_id":"5578b8f3-b9a6-4c9b-8728-fb20aac813b1","system_id":"levelo_inurba_marseille","lat":43.29427,"lon":5.3861,"is_reserved":false,"is_disabled":false,"rental_uris":{"android":"levelo://app?vid=5578b8f3-b9a6-4c9b-8728-fb20aac813b1","ios":"levelo://app?vid=5578b8f3-b9a6-4c9b-8728-fb20aac813b1"},"vehicle_type_id":"4","last_reported":1743170983,"current_range_meters":16400,"station_id":"ce4bh2h2rcd13ifvqdh0","pricing_plan_id":"cebpf4jnsgd1na2vs0mg"},{"bike_id":"1103a267-0abf-4878-b449-cad781e61c4e","system_id":"levelo_inurba_marseille","lat":43.30159,"lon":5.38087,"is_reserved":false,"is_disabled":false,"rental_uris":{"android":"levelo://app?vid=1103a267-0abf-4878-b449-cad781e61c4e","ios":"levelo://app?vid=1103a267-0abf-4878-b449-cad781e61c4e"},"vehicle_type_id":"4","last_reported":1743170983,"current_range_meters":16400,"station_id":"ce4bgjp2rcd13ifvqbh0","pricing_plan_id":"cebpf4jnsgd1na2vs0mg"},{"bike_id":"102115c0-a83b-4ba4-abc2-a0aa14048906","system_id":"levelo_inurba_marseille","lat":43.29576,"lon":5.39985,"is_reserved":false,"is_disabled":false,"rental_uris":{"android":"levelo://app?vid=102115c0-a83b-4ba4-abc2-a0aa14048906","ios":"levelo://app?vid=102115c0-a83b-4ba4-abc2-a0aa14048906"},"vehicle_type_id":"4","last_reported":1743170983,"current_range_meters":16400,"station_id":"ce4bh312rcd13ifvqdj0","pricing_plan_id":"cebpf4jnsgd1na2vs0mg"},{"bike_id":"4586e23a-2d77-446c-8e8c-a15b6ae5de02","system_id":"levelo_inurba_marseille","lat":43.28598,"lon":5.38132,"is_reserved":false,"is_disabled":false,"rental_uris":{"android":"levelo://app?vid=4586e23a-2d77-446c-8e8c-a15b6ae5de02","ios":"levelo://app?vid=4586e23a-2d77-446c-8e8c-a15b6ae5de02"},"vehicle_type_id":"4","last_reported":1743170983,"current_range_meters":16400,"station_id":"","pricing_plan_id":"cebpf4jnsgd1na2vs0mg"},{"bike_id":"4dd06ebc-588b-4f7b-8ecc-1203681c621a","system_id":"levelo_inurba_marseille","lat":43.2985,"lon":5.36281,"is_reserved":false,"is_disabled":false,"rental_uris":{"android":"levelo://app?vid=4dd06ebc-588b-4f7b-8ecc-1203681c621a","ios":"levelo://app?vid=4dd06ebc-588b-4f7b-8ecc-1203681c621a"},"vehicle_type_id":"4","last_reported":1743170983,"current_range_meters":16400,"station_id":"ce4bgpp2rcd13ifvqc3g","pricing_plan_id":"cebpf4jnsgd1na2vs0mg"},{"bike_id":"643da00d-a5ce-4d77-a87f-1f4489660818","system_id":"levelo_inurba_marseille","lat":43.26202,"lon":5.3793,"is_reserved":false,"is_disabled":false,"rental_uris":{"android":"levelo://app?vid=643da00d-a5ce-4d77-a87f-1f4489660818","ios":"levelo://app?vid=643da00d-a5ce-4d77-a87f-1f4489660818"},"vehicle_type_id":"4","last_reported":1743170983,"current_range_meters":16400,"station_id":"ce4bhjp2rcd13ifvqg90","pricing_plan_id":"cebpf4jnsgd1na2vs0mg"},{"bike_id":"e58b5a02-1c15-4f07-8299-9041237f1d4a","system_id":"levelo_inurba_marseille","lat":43.32365,"lon":5.36751,"is_reserved":false,"is_disabled":false,"rental_uris":{"android":"levelo://app?vid=e58b5a02-1c15-4f07-8299-9041237f1d4a","ios":"levelo://app?vid=e58b5a02-1c15-4f07-8299-9041237f1d4a"},"vehicle_type_id":"4","last_reported":1743170983,"current_range_meters":16400,"station_id":"ce4bhsh2rcd13ifvqi2g","pricing_plan_id":"cebpf4jnsgd1na2vs0mg"},{"bike_id":"a042d5db-bccf-483a-a4dc-87d545fe0ecc","system_id":"levelo_inurba_marseille","lat":43.30145,"lon":5.38084,"is_reserved":false,"is_disabled":false,"rental_uris":{"android":"levelo://app?vid=a042d5db-bccf-483a-a4dc-87d545fe0ecc","ios":"levelo://app?vid=a042d5db-bccf-483a-a4dc-87d545fe0ecc"},"vehicle_type_id":"4","last_reported":1743170983,"current_range_meters":16800,"station_id":"ce4bgjp2rcd13ifvqbh0","pricing_plan_id":"cebpf4jnsgd1na2vs0mg"},{"bike_id":"caefedae-6845-4888-9e2f-58617758ac93","system_id":"levelo_inurba_marseille","lat":43.2953,"lon":5.38544,"is_reserved":false,"is_disabled":false,"rental_uris":{"android":"levelo://app?vid=caefedae-6845-4888-9e2f-58617758ac93","ios":"levelo://app?vid=caefedae-6845-4888-9e2f-58617758ac93"},"vehicle_type_id":"4","last_reported":1743170983,"current_range_meters":16800,"station_id":"ce4bgih2rcd13ifvqba0","pricing_plan_id":"cebpf4jnsgd1na2vs0mg"},{"bike_id":"c6974d03-6f73-4a17-a4bf-13fd598ed61f","system_id":"levelo_inurba_marseille","lat":43.27906,"lon":5.3958,"is_reserved":false,"is_disabled":false,"rental_uris":{"android":"levelo://app?vid=c6974d03-6f73-4a17-a4bf-13fd598ed61f","ios":"levelo://app?vid=c6974d03-6f73-4a17-a4bf-13fd598ed61f"},"vehicle_type_id":"4","last_reported":1743170983,"current_range_meters":16800,"station_id":"ce4bhf92rcd13ifvqf40","pricing_plan_id":"cebpf4jnsgd1na2vs0mg"},{"bike_id":"4aa0ea87-0dfc-4309-b3c4-2bf0f7a93693","system_id":"levelo_inurba_marseille","lat":43.299373,"lon":5.365459,"is_reserved":false,"is_disabled":false,"rental_uris":{"android":"levelo://app?vid=4aa0ea87-0dfc-4309-b3c4-2bf0f7a93693","ios":"levelo://app?vid=4aa0ea87-0dfc-4309-b3c4-2bf0f7a93693"},"vehicle_type_id":"4","last_reported":1743170983,"current_range_meters":16800,"station_id":"ce4bgm92rcd13ifvqbr0","pricing_plan_id":"cebpf4jnsgd1na2vs0mg"},{"bike_id":"56c7d975-e736-42e5-8d46-a2b4f71c4ac2","system_id":"levelo_inurba_marseille","lat":43.28719,"lon":5.40003,"is_reserved":false,"is_disabled":true,"rental_uris":{"android":"levelo://app?vid=56c7d975-e736-42e5-8d46-a2b4f71c4ac2","ios":"levelo://app?vid=56c7d975-e736-42e5-8d46-a2b4f71c4ac2"},"vehicle_type_id":"4","last_reported":1743170983,"current_range_meters":16800,"station_id":"ce4bho92rcd13ifvqh3g","pricing_plan_id":"cebpf4jnsgd1na2vs0mg"},{"bike_id":"c9673741-7740-4654-87c1-7ac9c1a7e97c","system_id":"levelo_inurba_marseille","lat":43.292763,"lon":5.36843,"is_reserved":false,"is_disabled":false,"rental_uris":{"android":"levelo://app?vid=c9673741-7740-4654-87c1-7ac9c1a7e97c","ios":"levelo://app?vid=c9673741-7740-4654-87c1-7ac9c1a7e97c"},"vehicle_type_id":"4","last_reported":1743170983,"current_range_meters":16800,"station_id":"","pricing_plan_id":"cebpf4jnsgd1na2vs0mg"},{"bike_id":"ec94554b-c0e0-471c-9a5a-269dcf6b658a","system_id":"levelo_inurba_marseille","lat":43.29714,"lon":5.37698,"is_reserved":false,"is_disabled":false,"rental_uris":{"android":"levelo://app?vid=ec94554b-c0e0-471c-9a5a-269dcf6b658a","ios":"levelo://app?vid=ec94554b-c0e0-471c-9a5a-269dcf6b658a"},"vehicle_type_id":"4","last_reported":1743170983,"current_range_meters":16800,"station_id":"ce4bgkh2rcd13ifvqbl0","pricing_plan_id":"cebpf4jnsgd1na2vs0mg"},{"bike_id":"03893c81-c9e8-4438-b9b0-37e927cfc09a","system_id":"levelo_inurba_marseille","lat":43.29929,"lon":5.3652,"is_reserved":false,"is_disabled":false,"rental_uris":{"android":"levelo://app?vid=03893c81-c9e8-4438-b9b0-37e927cfc09a","ios":"levelo://app?vid=03893c81-c9e8-4438-b9b0-37e927cfc09a"},"vehicle_type_id":"4","last_reported":1743170983,"current_range_meters":16800,"station_id":"ce4bgm92rcd13ifvqbr0","pricing_plan_id":"cebpf4jnsgd1na2vs0mg"},{"bike_id":"d6fe6f04-6267-4b1c-9285-97536fa9742f","system_id":"levelo_inurba_marseille","lat":43.29622,"lon":5.37724,"is_reserved":false,"is_disabled":false,"rental_uris":{"android":"levelo://app?vid=d6fe6f04-6267-4b1c-9285-97536fa9742f","ios":"levelo://app?vid=d6fe6f04-6267-4b1c-9285-97536fa9742f"},"vehicle_type_id":"4","last_reported":1743170983,"current_range_meters":16800,"station_id":"ce4bgi92rcd13ifvqb90","pricing_plan_id":"cebpf4jnsgd1na2vs0mg"},{"bike_id":"39ad4324-e1bf-46cf-8224-67921907a865","system_id":"levelo_inurba_marseille","lat":43.27211,"lon":5.39189,"is_reserved":false,"is_disabled":false,"rental_uris":{"android":"levelo://app?vid=39ad4324-e1bf-46cf-8224-67921907a865","ios":"levelo://app?vid=39ad4324-e1bf-46cf-8224-67921907a865"},