{"last_updated":1691737583,"ttl":30,"version":"2.2","data":{"bikes":[{"bike_id":"ceedaf60-3240-4134-933e-0a812a058e59","system_id":"levelo_inurba_marseille","lat":43.313391,"lon":5.36706,"is_reserved":false,"is_disabled":false,"rental_uris":{"android":"levelo://app?vid=ceedaf60-3240-4134-933e-0a812a058e59","ios":"levelo://app?vid=ceedaf60-3240-4134-933e-0a812a058e59"},"vehicle_type_id":"4","last_reported":1691737583,"current_range_meters":14400,"station_id":"ce4bgr92rcd13ifvqc6g","pricing_plan_id":"free"},{"bike_id":"5c16a003-a34d-407e-8514-6f0ba2677c3d","system_id":"levelo_inurba_marseille","lat":43.313391,"lon":5.36706,"is_reserved":false,"is_disabled":false,"rental_uris":{"android":"levelo://app?vid=5c16a003-a34d-407e-8514-6f0ba2677c3d","ios":"levelo://app?vid=5c16a003-a34d-407e-8514-6f0ba2677c3d"},"vehicle_type_id":"4","last_reported":1691737583,"current_range_meters":31200,"station_id":"ce4bgr92rcd13ifvqc6g","pricing_plan_id":"free"},{"bike_id":"1fc4ed88-5d41-4171-ba21-5a82401754dc","system_id":"levelo_inurba_marseille","lat":43.313391,"lon":5.36706,"is_reserved":false,"is_disabled":false,"rental_uris":{"android":"levelo://app?vid=1fc4ed88-5d41-4171-ba21-5a82401754dc","ios":"levelo://app?vid=1fc4ed88-5d41-4171-ba21-5a82401754dc"},"vehicle_type_id":"4","last_reported":1691737583,"current_range_meters":9200,"station_id":"ce4bgr92rcd13ifvqc6g","pricing_plan_id":"free"},{"bike_id":"6d8e0182-8352-49b3-923c-579306426443","system_id":"levelo_inurba_marseille","lat":43.31341,"lon":5.367098,"is_reserved":false,"is_disabled":false,"rental_uris":{"android":"levelo://app?vid=6d8e0182-8352-49b3-923c-579306426443","ios":"levelo://app?vid=6d8e0182-8352-49b3-923c-579306426443"},"vehicle_type_id":"4","last_reported":1691737583,"current_range_meters":30400,"station_id":"ce4bgr92rcd13ifvqc6g","pricing_plan_id":"free"},{"bike_id":"aabd60b5-8bf9-403c-a87c-cd42a25fa5be","system_id":"levelo_inurba_marseille","lat":43.31341,"lon":5.367098,"is_reserved":false,"is_disabled":false,"rental_uris":{"android":"levelo://app?vid=aabd60b5-8bf9-403c-a87c-cd42a25fa5be","ios":"levelo://app?vid=aabd60b5-8bf9-403c-a87c-cd42a25fa5be"},"vehicle_type_id":"4","last_reported":1691737583,"current_range_meters":3200,"station_id":"ce4bgr92rcd13ifvqc6g","pricing_plan_id":"free"},{"bike_id":"6908930b-9bb8-4f91-9803-ab58c025bf4f","system_id":"levelo_inurba_marseille","lat":43.31341,"lon":5.367098,"is_reserved":false,"is_disabled":false,"rental_uris":{"android":"levelo://app?vid=6908930b-9bb8-4f91-9803-ab58c025bf4f","ios":"levelo://app?vid=6908930b-9bb8-4f91-9803-ab58c025bf4f"},"vehicle_type_id":"4","last_reported":1691737583,"current_range_meters":24400,"station_id":"ce4bgr92rcd13ifvqc6g","pricing_plan_id":"free"},{"bike_id":"bf914716-eac0-4ad3-aa87-62618464429e","system_id":"levelo_inurba_marseille","lat":43.313391,"lon":5.36706,"is_reserved":false,"is_disabled":false,"rental_uris":{"android":"levelo://app?vid=bf914716-eac0-4ad3-aa87-62618464429e","ios":"levelo://app?vid=bf914716-eac0-4ad3-aa87-62618464429e"},"vehicle_type_id":"4","last_reported":1691737583,"current_range_meters":24400,"station_id":"ce4bgr92rcd13ifvqc6g","pricing_plan_id":"free"},{"bike_id":"63dba071-e757-4382-9099-79fdaeef5cf9","system_id":"levelo_inurba_marseille","lat":43.31341,"lon":5.367098,"is_reserved":false,"is_disabled":false,"rental_uris":{"android":"levelo://app?vid=63dba071-e757-4382-9099-79fdaeef5cf9","ios":"levelo://app?vid=63dba071-e757-4382-9099-79fdaeef5cf9"},"vehicle_type_id":"4","last_reported":1691737583,"current_range_meters":24000,"station_id":"ce4bgr92rcd13ifvqc6g","pricing_plan_id":"free"},{"bike_id":"3755b546-aeb5-48dc-83e9-e9f2ed9fa641","system_id":"levelo_inurba_marseille","lat":43.313391,"lon":5.36706,"is_reserved":false,"is_disabled":false,"rental_uris":{"android":"levelo://app?vid=3755b546-aeb5-48dc-83e9-e9f2ed9fa641","ios":"levelo://app?vid=3755b546-aeb5-48dc-83e9-e9f2ed9fa641"},"vehicle_type_id":"4","last_reported":1691737583,"current_range_meters":9600,"station_id":"ce4bgr92rcd13ifvqc6g","pricing_plan_id":"free"},{"bike_id":"29b66fd5-4fe1-4465-b732-de8b555178a3","system_id":"levelo_inurba_marseille","lat":43.31341,"lon":5.367098,"is_reserved":false,"is_disabled":false,"rental_uris":{"android":"levelo://app?vid=29b66fd5-4fe1-4465-b732-de8b555178a3","ios":"levelo://app?vid=29b66fd5-4fe1-4465-b732-de8b555178a3"},"vehicle_type_id":"4","last_reported":1691737583,"current_range_meters":18000,"station_id":"ce4bgr92rcd13ifvqc6g","pricing_plan_id":"free"},{"bike_id":"ef5cd3b1-a911-4159-a342-562b3ce97206","system_id":"levelo_inurba_marseille","lat":43.313391,"lon":5.36706,"is_reserved":false,"is_disabled":false,"rental_uris":{"android":"levelo://app?vid=ef5cd3b1-a911-4159-a342-562b3ce97206","ios":"levelo://app?vid=ef5cd3b1-a911-4159-a342-562b3ce97206"},"vehicle_type_id":"4","last_reported":1691737583,"current_range_meters":29600,"station_id":"ce4bgr92rcd13ifvqc6g","pricing_plan_id":"free"},{"bike_id":"3735332c-8474-4ab8-908b-d7c387d0216c","system_id":"levelo_inurba_marseille","lat":43.31341,"lon":5.367098,"is_reserved":false,"is_disabled":false,"rental_uris":{"android":"levelo://app?vid=3735332c-8474-4ab8-908b-d7c387d0216c","ios":"levelo://app?vid=3735332c-8474-4ab8-908b-d7c387d0216c"},"vehicle_type_id":"4","last_reported":1691737583,"current_range_meters":15200,"station_id":"ce4bgr92rcd13ifvqc6g","pricing_plan_id":"free"},{"bike_id":"303414d0-e466-4d56-93d8-0455494c8226","system_id":"levelo_inurba_marseille","lat":43.313391,"lon":5.36706,"is_reserved":false,"is_disabled":false,"rental_uris":{"android":"levelo://app?vid=303414d0-e466-4d56-93d8-0455494c8226","ios":"levelo://app?vid=303414d0-e466-4d56-93d8-0455494c8226"},"vehicle_type_id":"4","last_reported":1691737583,"current_range_meters":25600,"station_id":"ce4bgr92rcd13ifvqc6g","pricing_plan_id":"free"},{"bike_id":"c78ceb46-a0e1-43d5-bc54-ca5d7d78cf84","system_id":"levelo_inurba_marseille","lat":43.313391,"lon":5.36706,"is_reserved":false,"is_disabled":false,"rental_uris":{"android":"levelo://app?vid=c78ceb46-a0e1-43d5-bc54-ca5d7d78cf84","ios":"levelo://app?vid=c78ceb46-a0e1-43d5-bc54-ca5d7d78cf84"},"vehicle_type_id":"4","last_reported":1691737583,"current_range_meters":4800,"station_id":"ce4bgr92rcd13ifvqc6g","pricing_plan_id":"free"},{"bike_id":"d11d94ab-7cbd-487d-a8bf-550b8d4b3bc0","system_id":"levelo_inurba_marseille","lat":43.31341,"lon":5.367098,"is_reserved":false,"is_disabled":false,"rental_uris":{"android":"levelo://app?vid=d11d94ab-7cbd-487d-a8bf-550b8d4b3bc0","ios":"levelo://app?vid=d11d94ab-7cbd-487d-a8bf-550b8d4b3bc0"},"vehicle_type_id":"4","last_reported":1691737583,"current_range_meters":19600,"station_id":"ce4bgr92rcd13ifvqc6g","pricing_plan_id":"free"},{"bike_id":"bec87a41-18db-474e-8bda-6ee0a0532e6c","system_id":"levelo_inurba_marseille","lat":43.31341,"lon":5.367098,"is_reserved":false,"is_disabled":false,"rental_uris":{"android":"levelo://app?vid=bec87a41-18db-474e-8bda-6ee0a0532e6c","ios":"levelo://app?vid=bec87a41-18db-474e-8bda-6ee0a0532e6c"},"vehicle_type_id":"4","last_reported":1691737583,"current_range_meters":31200,"station_id":"ce4bgr92rcd13ifvqc6g","pricing_plan_id":"free"},{"bike_id":"2b77696b-c391-41f0-8ce4-2bc187605048","system_id":"levelo_inurba_marseille","lat":43.313391,"lon":5.36706,"is_reserved":false,"is_disabled":false,"rental_uris":{"android":"levelo://app?vid=2b77696b-c391-41f0-8ce4-2bc187605048","ios":"levelo://app?vid=2b77696b-c391-41f0-8ce4-2bc187605048"},"vehicle_type_id":"4","last_reported":1691737583,"current_range_meters":24000,"station_id":"ce4bgr92rcd13ifvqc6g","pricing_plan_id":"free"},{"bike_id":"45239263-9a1e-4f1d-a100-acb2c8190d05","system_id":"levelo_inurba_marseille","lat":43.31341,"lon":5.367098,"is_reserved":false,"is_disabled":false,"rental_uris":{"android":"levelo://app?vid=45239263-9a1e-4f1d-a100-acb2c8190d05","ios":"levelo://app?vid=45239263-9a1e-4f1d-a100-acb2c8190d05"},"vehicle_type_id":"4","last_reported":1691737583,"current_range_meters":31200,"station_id":"ce4bgr92rcd13ifvqc6g","pricing_plan_id":"free"},{"bike_id":"6ebf4616-fbbe-478d-b4d4-3941e36bbf81","system_id":"levelo_inurba_marseille","lat":43.313391,"lon":5.36706,"is_reserved":false,"is_disabled":false,"rental_uris":{"android":"levelo://app?vid=6ebf4616-fbbe-478d-b4d4-3941e36bbf81","ios":"levelo://app?vid=6ebf4616-fbbe-478d-b4d4-3941e36bbf81"},"vehicle_type_id":"4","last_reported":1691737583,"current_range_meters":18800,"station_id":"ce4bgr92rcd13ifvqc6g","pricing_plan_id":"free"},{"bike_id":"b3c4094d-47ce-425c-9768-576ff89fd004","system_id":"levelo_inurba_marseille","lat":43.313391,"lon":5.36706,"is_reserved":false,"is_disabled":false,"rental_uris":{"android":"levelo://app?vid=b3c4094d-47ce-425c-9768-576ff89fd004","ios":"levelo://app?vid=b3c4094d-47ce-425c-9768-576ff89fd004"},"vehicle_type_id":"4","last_reported":1691737583,"current_range_meters":14000,"station_id":"ce4bgr92rcd13ifvqc6g","pricing_plan_id":"free"},{"bike_id":"874d6be6-48af-4960-a7c2-cf83f9d584e4","system_id":"levelo_inurba_marseille","lat":43.312239,"lon":5.368562,"is_reserved":false,"is_disabled":false,"rental_uris":{"android":"levelo://app?vid=874d6be6-48af-4960-a7c2-cf83f9d584e4","ios":"levelo://app?vid=874d6be6-48af-4960-a7c2-cf83f9d584e4"},"vehicle_type_id":"4","last_reported":1691737583,"current_range_meters":13200,"station_id":"ce4bgl92rcd13ifvqbq0","pricing_plan_id":"free"},{"bike_id":"75114420-9177-48b8-ba21-1c9ccc539988","system_id":"levelo_inurba_marseille","lat":43.312239,"lon":5.368562,"is_reserved":false,"is_disabled":false,"rental_uris":{"android":"levelo://app?vid=75114420-9177-48b8-ba21-1c9ccc539988","ios":"levelo://app?vid=75114420-9177-48b8-ba21-1c9ccc539988"},"vehicle_type_id":"4","last_reported":1691737583,"current_range_meters":31200,"station_id":"ce4bgl92rcd13ifvqbq0","pricing_plan_id":"free"},{"bike_id":"0596a043-cca9-487e-ae28-93e2b1f9c1c6","system_id":"levelo_inurba_marseille","lat":43.312239,"lon":5.368562,"is_reserved":false,"is_disabled":false,"rental_uris":{"android":"levelo://app?vid=0596a043-cca9-487e-ae28-93e2b1f9c1c6","ios":"levelo://app?vid=0596a043-cca9-487e-ae28-93e2b1f9c1c6"},"vehicle_type_id":"4","last_reported":1691737583,"current_range_meters":30400,"station_id":"ce4bgl92rcd13ifvqbq0","pricing_plan_id":"free"},{"bike_id":"acc1128e-b203-431a-b8b2-183396152f46","system_id":"levelo_inurba_marseille","lat":43.31242,"lon":5.36848,"is_reserved":false,"is_disabled":false,"rental_uris":{"android":"levelo://app?vid=acc1128e-b203-431a-b8b2-183396152f46","ios":"levelo://app?vid=acc1128e-b203-431a-b8b2-183396152f46"},"vehicle_type_id":"4","last_reported":1691737583,"current_range_meters":8000,"station_id":"ce4bgl92rcd13ifvqbq0","pricing_plan_id":"free"},{"bike_id":"937915e8-eb1c-47ac-9993-6f9566c722ca","system_id":"levelo_inurba_marseille","lat":43.312239,"lon":5.368562,"is_reserved":false,"is_disabled":false,"rental_uris":{"android":"levelo://app?vid=937915e8-eb1c-47ac-9993-6f9566c722ca","ios":"levelo://app?vid=937915e8-eb1c-47ac-9993-6f9566c722ca"},"vehicle_type_id":"4","last_reported":1691737583,"current_range_meters":30800,"station_id":"ce4bgl92rcd13ifvqbq0","pricing_plan_id":"free"},{"bike_id":"677e9170-297f-4543-9c48-cc1db9ebc21e","system_id":"levelo_inurba_marseille","lat":43.312239,"lon":5.368562,"is_reserved":false,"is_disabled":false,"rental_uris":{"android":"levelo://app?vid=677e9170-297f-4543-9c48-cc1db9ebc21e","ios":"levelo://app?vid=677e9170-297f-4543-9c48-cc1db9ebc21e"},"vehicle_type_id":"4","last_reported":1691737583,"current_range_meters":28400,"station_id":"ce4bgl92rcd13ifvqbq0","pricing_plan_id":"free"},{"bike_id":"6fc6f80c-21b2-4f4b-89a3-a607d913f838","system_id":"levelo_inurba_marseille","lat":43.312239,"lon":5.368562,"is_reserved":false,"is_disabled":false,"rental_uris":{"android":"levelo://app?vid=6fc6f80c-21b2-4f4b-89a3-a607d913f838","ios":"levelo://app?vid=6fc6f80c-21b2-4f4b-89a3-a607d913f838"},"vehicle_type_id":"4","last_reported":1691737583,"current_range_meters":26000,"station_id":"ce4bgl92rcd13ifvqbq0","pricing_plan_id":"free"},{"bike_id":"d5a16f03-6747-4ee1-b106-522e4ac3449f","system_id":"levelo_inurba_marseille","lat":43.309076,"lon":5.368465,"is_reserved":false,"is_disabled":false,"rental_uris":{"android":"levelo://app?vid=d5a16f03-6747-4ee1-b106-522e4ac3449f","ios":"levelo://app?vid=d5a16f03-6747-4ee1-b106-522e4ac3449f"},"vehicle_type_id":"4","last_reported":1691737583,"current_range_meters":27200,"station_id":"ce4bgn92rcd13ifvqbvg","pricing_plan_id":"free"},{"bike_id":"188068a3-836b-44e5-b267-63534da06df5","system_id":"levelo_inurba_marseille","lat":43.309076,"lon":5.368465,"is_reserved":false,"is_disabled":false,"rental_uris":{"android":"levelo://app?vid=188068a3-836b-44e5-b267-63534da06df5","ios":"levelo://app?vid=188068a3-836b-44e5-b267-63534da06df5"},"vehicle_type_id":"4","last_reported":1691737583,"current_range_meters":31200,"station_id":"ce4bgn92rcd13ifvqbvg","pricing_plan_id":"free"},{"bike_id":"5c2d98a8-be0e-4ee4-8cfa-deb6178e600b","system_id":"levelo_inurba_marseille","lat":43.30903,"lon":5.36853,"is_reserved":false,"is_disabled":false,"rental_uris":{"android":"levelo://app?vid=5c2d98a8-be0e-4ee4-8cfa-deb6178e600b","ios":"levelo://app?vid=5c2d98a8-be0e-4ee4-8cfa-deb6178e600b"},"vehicle_type_id":"4","last_reported":1691737583,"current_range_meters":9200,"station_id":"ce4bgn92rcd13ifvqbvg","pricing_plan_id":"free"},{"bike_id":"ee6165c8-a377-46b1-ab1a-8dbe2a2319d6","system_id":"levelo_inurba_marseille","lat":43.309076,"lon":5.368465,"is_reserved":false,"is_disabled":false,"rental_uris":{"android":"levelo://app?vid=ee6165c8-a377-46b1-ab1a-8dbe2a2319d6","ios":"levelo://app?vid=ee6165c8-a377-46b1-ab1a-8dbe2a2319d6"},"vehicle_type_id":"4","last_reported":1691737583,"current_range_meters":28800,"station_id":"ce4bgn92rcd13ifvqbvg","pricing_plan_id":"free"},{"bike_id":"a0756899-6204-49d0-ae4a-b42de390b070","system_id":"levelo_inurba_marseille","lat":43.314811,"lon":5.373103,"is_reserved":false,"is_disabled":false,"rental_uris":{"android":"levelo://app?vid=a0756899-6204-49d0-ae4a-b42de390b070","ios":"levelo://app?vid=a0756899-6204-49d0-ae4a-b42de390b070"},"vehicle_type_id":"4","last_reported":1691737583,"current_range_meters":9200,"station_id":"ce4bgt12rcd13ifvqcd0","pricing_plan_id":"free"},{"bike_id":"f2d6a390-864c-4641-a227-44c04e5e8851","system_id":"levelo_inurba_marseille","lat":43.30903,"lon":5.37194,"is_reserved":false,"is_disabled":false,"rental_uris":{"android":"levelo://app?vid=f2d6a390-864c-4641-a227-44c04e5e8851","ios":"levelo://app?vid=f2d6a390-864c-4641-a227-44c04e5e8851"},"vehicle_type_id":"4","last_reported":1691737583,"current_range_meters":26800,"station_id":"ce4bguh2rcd13ifvqckg","pricing_plan_id":"free"},{"bike_id":"6352e31d-d3f0-4481-b7c2-0046e5ff96bb","system_id":"levelo_inurba_marseille","lat":43.309039,"lon":5.371797,"is_reserved":false,"is_disabled":false,"rental_uris":{"android":"levelo://app?vid=6352e31d-d3f0-4481-b7c2-0046e5ff96bb","ios":"levelo://app?vid=6352e31d-d3f0-4481-b7c2-0046e5ff96bb"},"vehicle_type_id":"4","last_reported":1691737583,"current_range_meters":30400,"station_id":"ce4bguh2rcd13ifvqckg","pricing_plan_id":"free"},{"bike_id":"f5f191db-c6ea-4b34-90b2-bc2b9958a667","system_id":"levelo_inurba_marseille","lat":43.305368,"lon":5.367343,"is_reserved":false,"is_disabled":false,"rental_uris":{"android":"levelo://app?vid=f5f191db-c6ea-4b34-90b2-bc2b9958a667","ios":"levelo://app?vid=f5f191db-c6ea-4b34-90b2-bc2b9958a667"},"vehicle_type_id":"4","last_reported":1691737583,"current_range_meters":30400,"station_id":"ce4bgrp2rcd13ifvqc9g","pricing_plan_id":"free"},{"bike_id":"4e521615-440d-4a19-84cc-85bc1356802b","system_id":"levelo_inurba_marseille","lat":43.305368,"lon":5.367343,"is_reserved":false,"is_disabled":false,"rental_uris":{"android":"levelo://app?vid=4e521615-440d-4a19-84cc-85bc1356802b","ios":"levelo://app?vid=4e521615-440d-4a19-84cc-85bc1356802b"},"vehicle_type_id":"4","last_reported":1691737583,"current_range_meters":28800,"station_id":"ce4bgrp2rcd13ifvqc9g","pricing_plan_id":"free"},{"bike_id":"ecece0c8-acfa-449c-8f66-2cea02a3d211","system_id":"levelo_inurba_marseille","lat":43.305368,"lon":5.367343,"is_reserved":false,"is_disabled":false,"rental_uris":{"android":"levelo://app?vid=ecece0c8-acfa-449c-8f66-2cea02a3d211","ios":"levelo://app?vid=ecece0c8-acfa-449c-8f66-2cea02a3d211"},"vehicle_type_id":"4","last_reported":1691737583,"current_range_meters":28000,"station_id":"ce4bgrp2rcd13ifvqc9g","pricing_plan_id":"free"},{"bike_id":"897c8691-be66-4500-b70d-56dd0f03a2c5","system_id":"levelo_inurba_marseille","lat":43.305714,"lon":5.365633,"is_reserved":false,"is_disabled":false,"rental_uris":{"android":"levelo://app?vid=897c8691-be66-4500-b70d-56dd0f03a2c5","ios":"levelo://app?vid=897c8691-be66-4500-b70d-56dd0f03a2c5"},"vehicle_type_id":"4","last_reported":1691737583,"current_range_meters":13600,"station_id":"ce4bgs12rcd13ifvqcag","pricing_plan_id":"free"},{"bike_id":"dae09eba-be37-4b1f-94d3-54b5ae7afa1c","system_id":"levelo_inurba_marseille","lat":43.305368,"lon":5.367343,"is_reserved":false,"is_disabled":false,"rental_uris":{"android":"levelo://app?vid=dae09eba-be37-4b1f-94d3-54b5ae7afa1c","ios":"levelo://app?vid=dae09eba-be37-4b1f-94d3-54b5ae7afa1c"},"vehicle_type_id":"4","last_reported":1691737583,"current_range_meters":25600,"station_id":"ce4bgrp2rcd13ifvqc9g","pricing_plan_id":"free"},{"bike_id":"3731d7a5-e647-4d4f-a827-44041d094285","system_id":"levelo_inurba_marseille","lat":43.30544,"lon":5.36688,"is_reserved":false,"is_disabled":false,"rental_uris":{"android":"levelo://app?vid=3731d7a5-e647-4d4f-a827-44041d094285","ios":"levelo://app?vid=3731d7a5-e647-4d4f-a827-44041d094285"},"vehicle_type_id":"4","last_reported":1691737583,"current_range_meters":13200,"station_id":"ce4bgrp2rcd13ifvqc9g","pricing_plan_id":"free"},{"bike_id":"cc832ca2-cf4a-4dc9-858a-2ad729e95ae7","system_id":"levelo_inurba_marseille","lat":43.305368,"lon":5.367343,"is_reserved":false,"is_disabled":false,"rental_uris":{"android":"levelo://app?vid=cc832ca2-cf4a-4dc9-858a-2ad729e95ae7","ios":"levelo://app?vid=cc832ca2-cf4a-4dc9-858a-2ad729e95ae7"},"vehicle_type_id":"4","last_reported":1691737583,"current_range_meters":18000,"station_id":"ce4bgrp2rcd13ifvqc9g","pricing_plan_id":"free"},{"bike_id":"98f9c0bf-f4c0-46c3-8e74-c4fc692445e6","system_id":"levelo_inurba_marseille","lat":43.305368,"lon":5.367343,"is_reserved":false,"is_disabled":false,"rental_uris":{"android":"levelo://app?vid=98f9c0bf-f4c0-46c3-8e74-c4fc692445e6","ios":"levelo://app?vid=98f9c0bf-f4c0-46c3-8e74-c4fc692445e6"},"vehicle_type_id":"4","last_reported":1691737583,"current_range_meters":31200,"station_id":"ce4bgrp2rcd13ifvqc9g","pricing_plan_id":"free"},{"bike_id":"56cd9065-8d38-4ede-9942-f489a5fd10d7","system_id":"levelo_inurba_marseille","lat":43.30539,"lon":5.36683,"is_reserved":false,"is_disabled":false,"rental_uris":{"android":"levelo://app?vid=56cd9065-8d38-4ede-9942-f489a5fd10d7","ios":"levelo://app?vid=56cd9065-8d38-4ede-9942-f489a5fd10d7"},"vehicle_type_id":"4","last_reported":1691737583,"current_range_meters":10400,"station_id":"ce4bgrp2rcd13ifvqc9g","pricing_plan_id":"free"},{"bike_id":"f91e8e61-ef79-4464-bb04-878a482580e6","system_id":"levelo_inurba_marseille","lat":43.305706,"lon":5.365654,"is_reserved":false,"is_disabled":false,"rental_uris":{"android":"levelo://app?vid=f91e8e61-ef79-4464-bb04-878a482580e6","ios":"levelo://app?vid=f91e8e61-ef79-4464-bb04-878a482580e6"},"vehicle_type_id":"4","last_reported":1691737583,"current_range_meters":20000,"station_id":"ce4bgs12rcd13ifvqcag","pricing_plan_id":"free"},{"bike_id":"5cedcccf-6ee5-4511-b3cd-3784d6acc822","system_id":"levelo_inurba_marseille","lat":43.30535,"lon":5.36716,"is_reserved":false,"is_disabled":false,"rental_uris":{"android":"levelo://app?vid=5cedcccf-6ee5-4511-b3cd-3784d6acc822","ios":"levelo://app?vid=5cedcccf-6ee5-4511-b3cd-3784d6acc822"},"vehicle_type_id":"4","last_reported":1691737583,"current_range_meters":22400,"station_id":"ce4bgrp2rcd13ifvqc9g","pricing_plan_id":"free"},{"bike_id":"5a9a83b3-16b2-4fd3-a0d0-042bb498abc7","system_id":"levelo_inurba_marseille","lat":43.305712,"lon":5.365641,"is_reserved":false,"is_disabled":false,"rental_uris":{"android":"levelo://app?vid=5a9a83b3-16b2-4fd3-a0d0-042bb498abc7","ios":"levelo://app?vid=5a9a83b3-16b2-4fd3-a0d0-042bb498abc7"},"vehicle_type_id":"4","last_reported":1691737583,"current_range_meters":28400,"station_id":"ce4bgs12rcd13ifvqcag","pricing_plan_id":"free"},{"bike_id":"792ebbc6-61e3-428a-9990-ecdacf0243b9","system_id":"levelo_inurba_marseille","lat":43.30533,"lon":5.36693,"is_reserved":false,"is_disabled":false,"rental_uris":{"android":"levelo://app?vid=792ebbc6-61e3-428a-9990-ecdacf0243b9","ios":"levelo://app?vid=792ebbc6-61e3-428a-9990-ecdacf0243b9"},"vehicle_type_id":"4","last_reported":1691737583,"current_range_meters":28000,"station_id":"ce4bgrp2rcd13ifvqc9g","pricing_plan_id":"free"},{"bike_id":"040fd6ac-5477-44e9-b429-e884d772faa2","system_id":"levelo_inurba_marseille","lat":43.305714,"lon":5.365633,"is_reserved":false,"is_disabled":false,"rental_uris":{"android":"levelo://app?vid=040fd6ac-5477-44e9-b429-e884d772faa2","ios":"levelo://app?vid=040fd6ac-5477-44e9-b429-e884d772faa2"},"vehicle_type_id":"4","last_reported":1691737583,"current_range_meters":22400,"station_id":"ce4bgs12rcd13ifvqcag","pricing_plan_id":"free"},{"bike_id":"2fd8b8b5-76b6-4dc0-88d2-99d9d9ac16b1","system_id":"levelo_inurba_marseille","lat":43.305714,"lon":5.365633,"is_reserved":false,"is_disabled":false,"rental_uris":{"android":"levelo://app?vid=2fd8b8b5-76b6-4dc0-88d2-99d9d9ac16b1","ios":"levelo://app?vid=2fd8b8b5-76b6-4dc0-88d2-99d9d9ac16b1"},"vehicle_type_id":"4","last_reported":1691737583,"current_range_meters":8400,"station_id":"ce4bgs12rcd13ifvqcag","pricing_plan_id":"free"},{"bike_id":"8dd51069-5df1-4883-a4c2-21a4a0c105b9","system_id":"levelo_inurba_marseille","lat":43.30531,"lon":5.36718,"is_reserved":false,"is_disabled":false,"rental_uris":{"android":"levelo://app?vid=8dd51069-5df1-4883-a4c2-21a4a0c105b9","ios":"levelo://app?vid=8dd51069-5df1-4883-a4c2-21a4a0c105b9"},"vehicle_type_id":"4","last_reported":1691737583,"current_range_meters":23600,"station_id":"ce4bgrp2rcd13ifvqc9g","pricing_plan_id":"free"},{"bike_id":"775c104c-4b43-4e1d-a750-d2c79c458651","system_id":"levelo_inurba_marseille","lat":43.30531,"lon":5.36721,"is_reserved":false,"is_disabled":false,"rental_uris":{"android":"levelo://app?vid=775c104c-4b43-4e1d-a750-d2c79c458651","ios":"levelo://app?vid=775c104c-4b43-4e1d-a750-d2c79c458651"},"vehicle_type_id":"4","last_reported":1691737583,"current_range_meters":10400,"station_id":"ce4bgrp2rcd13ifvqc9g","pricing_plan_id":"free"},{"bike_id":"1911587a-915d-4adc-9763-1a4fac9343b1","system_id":"levelo_inurba_marseille","lat":43.305706,"lon":5.365654,"is_reserved":false,"is_disabled":false,"rental_uris":{"android":"levelo://app?vid=1911587a-915d-4adc-9763-1a4fac9343b1","ios":"levelo://app?vid=1911587a-915d-4adc-9763-1a4fac9343b1"},"vehicle_type_id":"4","last_reported":1691737583,"current_range_meters":25600,"station_id":"ce4bgs12rcd13ifvqcag","pricing_plan_id":"free"},{"bike_id":"d4b6989c-ac9a-43f1-b7ac-ce905ee30b38","system_id":"levelo_inurba_marseille","lat":43.305706,"lon":5.365654,"is_reserved":false,"is_disabled":false,"rental_uris":{"android":"levelo://app?vid=d4b6989c-ac9a-43f1-b7ac-ce905ee30b38","ios":"levelo://app?vid=d4b6989c-ac9a-43f1-b7ac-ce905ee30b38"},"vehicle_type_id":"4","last_reported":1691737583,"current_range_meters":31200,"station_id":"ce4bgs12rcd13ifvqcag","pricing_plan_id":"free"},{"bike_id":"29e185c9-aa5f-4595-99d8-c94f38269b1e","system_id":"levelo_inurba_marseille","lat":43.305706,"lon":5.365654,"is_reserved":false,"is_disabled":false,"rental_uris":{"android":"levelo://app?vid=29e185c9-aa5f-4595-99d8-c94f38269b1e","ios":"levelo://app?vid=29e185c9-aa5f-4595-99d8-c94f38269b1e"},"vehicle_type_id":"4","last_reported":1691737583,"current_range_meters":25200,"station_id":"ce4bgs12rcd13ifvqcag","pricing_plan_id":"free"},{"bike_id":"ce532932-7bbe-4a2a-9206-0ac257d25944","system_id":"levelo_inurba_marseille","lat":43.305989,"lon":5.37225,"is_reserved":false,"is_disabled":false,"rental_uris":{"android":"levelo://app?vid=ce532932-7bbe-4a2a-9206-0ac257d25944","ios":"levelo://app?vid=ce532932-7bbe-4a2a-9206-0ac257d25944"},"vehicle_type_id":"4","last_reported":1691737583,"current_range_meters":28400,"station_id":"ce4bgqh2rcd13ifvqc4g","pricing_plan_id":"free"},{"bike_id":"c177dc0b-0ee7-445d-ba18-2fe07462a309","system_id":"levelo_inurba_marseille","lat":43.305989,"lon":5.37225,"is_reserved":false,"is_disabled":false,"rental_uris":{"android":"levelo://app?vid=c177dc0b-0ee7-445d-ba18-2fe07462a309","ios":"levelo://app?vid=c177dc0b-0ee7-445d-ba18-2fe07462a309"},"vehicle_type_id":"4","last_reported":1691737583,"current_range_meters":26800,"station_id":"ce4bgqh2rcd13ifvqc4g","pricing_plan_id":"free"},{"bike_id":"135c07a6-891e-4d0f-b544-cfed839ee4d9","system_id":"levelo_inurba_marseille","lat":43.311131,"lon":5.377651,"is_reserved":false,"is_disabled":false,"rental_uris":{"android":"levelo://app?vid=135c07a6-891e-4d0f-b544-cfed839ee4d9","ios":"levelo://app?vid=135c07a6-891e-4d0f-b544-cfed839ee4d9"},"vehicle_type_id":"4","last_reported":1691737583,"current_range_meters":31200,"station_id":"ce4bgt92rcd13ifvqcg0","pricing_plan_id":"free"},{"bike_id":"1cb2ddc0-aaaa-4e6a-ab6e-4561ccbb93c8","system_id":"levelo_inurba_marseille","lat":43.311131,"lon":5.377651,"is_reserved":false,"is_disabled":false,"rental_uris":{"android":"levelo://app?vid=1cb2ddc0-aaaa-4e6a-ab6e-4561ccbb93c8","ios":"levelo://app?vid=1cb2ddc0-aaaa-4e6a-ab6e-4561ccbb93c8"},"vehicle_type_id":"4","last_reported":1691737583,"current_range_meters":29600,"station_id":"ce4bgt92rcd13ifvqcg0","pricing_plan_id":"free"},{"bike_id":"2a3254a5-e596-469f-83f9-4fb1de7810d4","system_id":"levelo_inurba_marseille","lat":43.317075,"lon":5.377367,"is_reserved":false,"is_disabled":false,"rental_uris":{"android":"levelo://app?vid=2a3254a5-e596-469f-83f9-4fb1de7810d4","ios":"levelo://app?vid=2a3254a5-e596-469f-83f9-4fb1de7810d4"},"vehicle_type_id":"4","last_reported":1691737583,"current_range_meters":28800,"station_id":"ce4bgth2rcd13ifvqch0","pricing_plan_id":"free"},{"bike_id":"74733aaa-2255-4b66-8b2d-4284fec09878","system_id":"levelo_inurba_marseille","lat":43.317075,"lon":5.377367,"is_reserved":false,"is_disabled":false,"rental_uris":{"android":"levelo://app?vid=74733aaa-2255-4b66-8b2d-4284fec09878","ios":"levelo://app?vid=74733aaa-2255-4b66-8b2d-4284fec09878"},"vehicle_type_id":"4","last_reported":1691737583,"current_range_meters":25600,"station_id":"ce4bgth2rcd13ifvqch0","pricing_plan_id":"free"},{"bike_id":"4fe5c71d-e368-4b36-b862-e38555bf5e90","system_id":"levelo_inurba_marseille","lat":43.303046,"lon":5.368981,"is_reserved":false,"is_disabled":false,"rental_uris":{"android":"levelo://app?vid=4fe5c71d-e368-4b36-b862-e38555bf5e90","ios":"levelo://app?vid=4fe5c71d-e368-4b36-b862-e38555bf5e90"},"vehicle_type_id":"4","last_reported":1691737583,"current_range_meters":26800,"station_id":"ce4bgqh2rcd13ifvqc5g","pricing_plan_id":"free"},{"bike_id":"a7e8b279-13e1-4d5c-88e7-2e1a36407a81","system_id":"levelo_inurba_marseille","lat":43.30803,"lon":5.38147,"is_reserved":false,"is_disabled":false,"rental_uris":{"android":"levelo://app?vid=a7e8b279-13e1-4d5c-88e7-2e1a36407a81","ios":"levelo://app?vid=a7e8b279-13e1-4d5c-88e7-2e1a36407a81"},"vehicle_type_id":"4","last_reported":1691737583,"current_range_meters":31200,"station_id":"ce4bgt12rcd13ifvqce0","pricing_plan_id":"free"},{"bike_id":"067c8a1d-0563-40cf-969a-e411a87b3af5","system_id":"levelo_inurba_marseille","lat":43.305368,"lon":5.367343,"is_reserved":false,"is_disabled":false,"rental_uris":{"android":"levelo://app?vid=067c8a1d-0563-40cf-969a-e411a87b3af5","ios":"levelo://app?vid=067c8a1d-0563-40cf-969a-e411a87b3af5"},"vehicle_type_id":"4","last_reported":1691737583,"current_range_meters":22400,"station_id":"ce4bgrp2rcd13ifvqc9g","pricing_plan_id":"free"},{"bike_id":"71f81109-c34d-4a7d-9bf9-71a21a57446d","system_id":"levelo_inurba_marseille","lat":43.30474,"lon":5.37898,"is_reserved":false,"is_disabled":false,"rental_uris":{"android":"levelo://app?vid=71f81109-c34d-4a7d-9bf9-71a21a57446d","ios":"levelo://app?vid=71f81109-c34d-4a7d-9bf9-71a21a57446d"},"vehicle_type_id":"4","last_reported":1691737583,"current_range_meters":29600,"station_id":"ce4bgup2rcd13ifvqcn0","pricing_plan_id":"free"},{"bike_id":"03211d09-1620-41a7-9785-4697c9fac03c","system_id":"levelo_inurba_marseille","lat":43.304606,"lon":5.379026,"is_reserved":false,"is_disabled":false,"rental_uris":{"android":"levelo://app?vid=03211d09-1620-41a7-9785-4697c9fac03c","ios":"levelo://app?vid=03211d09-1620-41a7-9785-4697c9fac03c"},"vehicle_type_id":"4","last_reported":1691737583,"current_range_meters":31200,"station_id":"ce4bgup2rcd13ifvqcn0","pricing_plan_id":"free"},{"bike_id":"fed4530a-03c3-4cc0-8122-1d36dcc2b00d","system_id":"levelo_inurba_marseille","lat":43.304606,"lon":5.379026,"is_reserved":false,"is_disabled":false,"rental_uris":{"android":"levelo://app?vid=fed4530a-03c3-4cc0-8122-1d36dcc2b00d","ios":"levelo://app?vid=fed4530a-03c3-4cc0-8122-1d36dcc2b00d"},"vehicle_type_id":"4","last_reported":1691737583,"current_range_meters":26400,"station_id":"ce4bgup2rcd13ifvqcn0","pricing_plan_id":"free"},{"bike_id":"bde2f7a9-6d85-48b5-9163-e372cbd8a255","system_id":"levelo_inurba_marseille","lat":43.304606,"lon":5.379026,"is_reserved":false,"is_disabled":false,"rental_uris":{"android":"levelo://app?vid=bde2f7a9-6d85-48b5-9163-e372cbd8a255","ios":"levelo://app?vid=bde2f7a9-6d85-48b5-9163-e372cbd8a255"},"vehicle_type_id":"4","last_reported":1691737583,"current_range_meters":30400,"station_id":"ce4bgup2rcd13ifvqcn0","pricing_plan_id":"free"},{"bike_id":"dcf92ba3-06b0-484a-936d-fe9bd33d9ad4","system_id":"levelo_inurba_marseille","lat":43.304606,"lon":5.379026,"is_reserved":false,"is_disabled":false,"rental_uris":{"android":"levelo://app?vid=dcf92ba3-06b0-484a-936d-fe9bd33d9ad4","ios":"levelo://app?vid=dcf92ba3-06b0-484a-936d-fe9bd33d9ad4"},"vehicle_type_id":"4","last_reported":1691737583,"current_range_meters":31200,"station_id":"ce4bgup2rcd13ifvqcn0","pricing_plan_id":"free"},{"bike_id":"0f5d5854-c8ce-47a8-bb6f-268723f56831","system_id":"levelo_inurba_marseille","lat":43.304606,"lon":5.379026,"is_reserved":false,"is_disabled":false,"rental_uris":{"android":"levelo://app?vid=0f5d5854-c8ce-47a8-bb6f-268723f56831","ios":"levelo://app?vid=0f5d5854-c8ce-47a8-bb6f-268723f56831"},"vehicle_type_id":"4","last_reported":1691737583,"current_range_meters":27600,"station_id":"ce4bgup2rcd13ifvqcn0","pricing_plan_id":"free"},{"bike_id":"3241d8b1-cddb-44aa-a6f4-f4efa99f5951","system_id":"levelo_inurba_marseille","lat":43.30468,"lon":5.37898,"is_reserved":false,"is_disabled":false,"rental_uris":{"android":"levelo://app?vid=3241d8b1-cddb-44aa-a6f4-f4efa99f5951","ios":"levelo://app?vid=3241d8b1-cddb-44aa-a6f4-f4efa99f5951"},"vehicle_type_id":"4","last_reported":1691737583,"current_range_meters":28800,"station_id":"ce4bgup2rcd13ifvqcn0","pricing_plan_id":"free"},{"bike_id":"fc2371d4-04f4-40a4-bbcf-89408d59ea6a","system_id":"levelo_inurba_marseille","lat":43.304606,"lon":5.379026,"is_reserved":false,"is_disabled":false,"rental_uris":{"android":"levelo://app?vid=fc2371d4-04f4-40a4-bbcf-89408d59ea6a","ios":"levelo://app?vid=fc2371d4-04f4-40a4-bbcf-89408d59ea6a"},"vehicle_type_id":"4","last_reported":1691737583,"current_range_meters":28000,"station_id":"ce4bgup2rcd13ifvqcn0","pricing_plan_id":"free"},{"bike_id":"d952079d-74df-46e9-8d7d-a1fcc1af9f54","system_id":"levelo_inurba_marseille","lat":43.304606,"lon":5.379026,"is_reserved":false,"is_disabled":false,"rental_uris":{"android":"levelo://app?vid=d952079d-74df-46e9-8d7d-a1fcc1af9f54","ios":"levelo://app?vid=d952079d-74df-46e9-8d7d-a1fcc1af9f54"},"vehicle_type_id":"4","last_reported":1691737583,"current_range_meters":20400,"station_id":"ce4bgup2rcd13ifvqcn0","pricing_plan_id":"free"},{"bike_id":"d9a37e10-d0f8-42e5-9c3d-6f7de31897fa","system_id":"levelo_inurba_marseille","lat":43.304606,"lon":5.379026,"is_reserved":false,"is_disabled":false,"rental_uris":{"android":"levelo://app?vid=d9a37e10-d0f8-42e5-9c3d-6f7de31897fa","ios":"levelo://app?vid=d9a37e10-d0f8-42e5-9c3d-6f7de31897fa"},"vehicle_type_id":"4","last_reported":1691737583,"current_range_meters":31200,"station_id":"ce4bgup2rcd13ifvqcn0","pricing_plan_id":"free"},{"bike_id":"9966185a-6783-4e71-bdc5-e3eebf08f040","system_id":"levelo_inurba_marseille","lat":43.304606,"lon":5.379026,"is_reserved":false,"is_disabled":false,"rental_uris":{"android":"levelo://app?vid=9966185a-6783-4e71-bdc5-e3eebf08f040","ios":"levelo://app?vid=9966185a-6783-4e71-bdc5-e3eebf08f040"},"vehicle_type_id":"4","last_reported":1691737583,"current_range_meters":29600,"station_id":"ce4bgup2rcd13ifvqcn0","pricing_plan_id":"free"},{"bike_id":"69bfa33e-984a-4ee3-87a2-62c59c09489d","system_id":"levelo_inurba_marseille","lat":43.304606,"lon":5.379026,"is_reserved":false,"is_disabled":false,"rental_uris":{"android":"levelo://app?vid=69bfa33e-984a-4ee3-87a2-62c59c09489d","ios":"levelo://app?vid=69bfa33e-984a-4ee3-87a2-62c59c09489d"},"vehicle_type_id":"4","last_reported":1691737583,"current_range_meters":31200,"station_id":"ce4bgup2rcd13ifvqcn0","pricing_plan_id":"free"},{"bike_id":"01c1cc38-18d2-4305-81b9-b31ff05e6dcf","system_id":"levelo_inurba_marseille","lat":43.304606,"lon":5.379026,"is_reserved":false,"is_disabled":false,"rental_uris":{"android":"levelo://app?vid=01c1cc38-18d2-4305-81b9-b31ff05e6dcf","ios":"levelo://app?vid=01c1cc38-18d2-4305-81b9-b31ff05e6dcf"},"vehicle_type_id":"4","last_reported":1691737583,"current_range_meters":26400,"station_id":"ce4bgup2rcd13ifvqcn0","pricing_plan_id":"free"},{"bike_id":"b641a343-cd26-451e-9fe8-adc99305cc24","system_id":"levelo_inurba_marseille","lat":43.304606,"lon":5.379026,"is_reserved":false,"is_disabled":false,"rental_uris":{"android":"levelo://app?vid=b641a343-cd26-451e-9fe8-adc99305cc24","ios":"levelo://app?vid=b641a343-cd26-451e-9fe8-adc99305cc24"},"vehicle_type_id":"4","last_reported":1691737583,"current_range_meters":25600,"station_id":"ce4bgup2rcd13ifvqcn0","pricing_plan_id":"free"},{"bike_id":"6e808754-9763-417e-b0fd-ecd3d98fd050","system_id":"levelo_inurba_marseille","lat":43.304606,"lon":5.379026,"is_reserved":false,"is_disabled":false,"rental_uris":{"android":"levelo://app?vid=6e808754-9763-417e-b0fd-ecd3d98fd050","ios":"levelo://app?vid=6e808754-9763-417e-b0fd-ecd3d98fd050"},"vehicle_type_id":"4","last_reported":1691737583,"current_range_meters":24800,"station_id":"ce4bgup2rcd13ifvqcn0","pricing_plan_id":"free"},{"bike_id":"b79cb5ef-c7cb-469d-93f9-7661c19373de","system_id":"levelo_inurba_marseille","lat":43.304606,"lon":5.379026,"is_reserved":false,"is_disabled":false,"rental_uris":{"android":"levelo://app?vid=b79cb5ef-c7cb-469d-93f9-7661c19373de","ios":"levelo://app?vid=b79cb5ef-c7cb-469d-93f9-7661c19373de"},"vehicle_type_id":"4","last_reported":1691737583,"current_range_meters":29200,"station_id":"ce4bgup2rcd13ifvqcn0","pricing_plan_id":"free"},{"bike_id":"f1d718bc-0d18-4115-9bf4-adb01900928e","system_id":"levelo_inurba_marseille","lat":43.30473,"lon":5.37913,"is_reserved":false,"is_disabled":false,"rental_uris":{"android":"levelo://app?vid=f1d718bc-0d18-4115-9bf4-adb01900928e","ios":"levelo://app?vid=f1d718bc-0d18-4115-9bf4-adb01900928e"},"vehicle_type_id":"4","last_reported":1691737583,"current_range_meters":27600,"station_id":"ce4bgup2rcd13ifvqcn0","pricing_plan_id":"free"},{"bike_id":"d6fb9827-1163-42c7-b785-08ea3808c5a8","system_id":"levelo_inurba_marseille","lat":43.30476,"lon":5.37917,"is_reserved":false,"is_disabled":false,"rental_uris":{"android":"levelo://app?vid=d6fb9827-1163-42c7-b785-08ea3808c5a8","ios":"levelo://app?vid=d6fb9827-1163-42c7-b785-08ea3808c5a8"},"vehicle_type_id":"4","last_reported":1691737583,"current_range_meters":17600,"station_id":"ce4bgup2rcd13ifvqcn0","pricing_plan_id":"free"},{"bike_id":"3dd0a94f-6093-4f9b-b672-7b67f71d82c6","system_id":"levelo_inurba_marseille","lat":43.30467,"lon":5.37906,"is_reserved":false,"is_disabled":false,"rental_uris":{"android":"levelo://app?vid=3dd0a94f-6093-4f9b-b672-7b67f71d82c6","ios":"levelo://app?vid=3dd0a94f-6093-4f9b-b672-7b67f71d82c6"},"vehicle_type_id":"4","last_reported":1691737583,"current_range_meters":30400,"station_id":"ce4bgup2rcd13ifvqcn0","pricing_plan_id":"free"},{"bike_id":"b7d567a8-4b48-4de4-aebe-c05b357c8922","system_id":"levelo_inurba_marseille","lat":43.30473,"lon":5.37915,"is_reserved":false,"is_disabled":false,"rental_uris":{"android":"levelo://app?vid=b7d567a8-4b48-4de4-aebe-c05b357c8922","ios":"levelo://app?vid=b7d567a8-4b48-4de4-aebe-c05b357c8922"},"vehicle_type_id":"4","last_reported":1691737583,"current_range_meters":29200,"station_id":"ce4bgup2rcd13ifvqcn0","pricing_plan_id":"free"},{"bike_id":"6f559ad8-21d2-4a61-8864-06a63313b7b9","system_id":"levelo_inurba_marseille","lat":43.304606,"lon":5.379026,"is_reserved":false,"is_disabled":false,"rental_uris":{"android":"levelo://app?vid=6f559ad8-21d2-4a61-8864-06a63313b7b9","ios":"levelo://app?vid=6f559ad8-21d2-4a61-8864-06a63313b7b9"},"vehicle_type_id":"4","last_reported":1691737583,"current_range_meters":12400,"station_id":"ce4bgup2rcd13ifvqcn0","pricing_plan_id":"free"},{"bike_id":"5a9ac95d-c9d6-4252-ab7d-d407a3290f0e","system_id":"levelo_inurba_marseille","lat":43.30466,"lon":5.37915,"is_reserved":false,"is_disabled":false,"rental_uris":{"android":"levelo://app?vid=5a9ac95d-c9d6-4252-ab7d-d407a3290f0e","ios":"levelo://app?vid=5a9ac95d-c9d6-4252-ab7d-d407a3290f0e"},"vehicle_type_id":"4","last_reported":1691737583,"current_range_meters":16000,"station_id":"ce4bgup2rcd13ifvqcn0","pricing_plan_id":"free"},{"bike_id":"034951ec-3c05-4ba2-b65f-c51da08b94cf","system_id":"levelo_inurba_marseille","lat":43.304606,"lon":5.379026,"is_reserved":false,"is_disabled":false,"rental_uris":{"android":"levelo://app?vid=034951ec-3c05-4ba2-b65f-c51da08b94cf","ios":"levelo://app?vid=034951ec-3c05-4ba2-b65f-c51da08b94cf"},"vehicle_type_id":"4","last_reported":1691737583,"current_range_meters":31600,"station_id":"ce4bgup2rcd13ifvqcn0","pricing_plan_id":"free"},{"bike_id":"fee79054-429c-4b4b-95d6-1d813636b5f0","system_id":"levelo_inurba_marseille","lat":43.304606,"lon":5.379026,"is_reserved":false,"is_disabled":false,"rental_uris":{"android":"levelo://app?vid=fee79054-429c-4b4b-95d6-1d813636b5f0","ios":"levelo://app?vid=fee79054-429c-4b4b-95d6-1d813636b5f0"},"vehicle_type_id":"4","last_reported":1691737583,"current_range_meters":31600,"station_id":"ce4bgup2rcd13ifvqcn0","pricing_plan_id":"free"},{"bike_id":"02c18f47-2850-43cc-bcb9-02afec0b5590","system_id":"levelo_inurba_marseille","lat":43.30459,"lon":5.37916,"is_reserved":false,"is_disabled":false,"rental_uris":{"android":"levelo://app?vid=02c18f47-2850-43cc-bcb9-02afec0b5590","ios":"levelo://app?vid=02c18f47-2850-43cc-bcb9-02afec0b5590"},"vehicle_type_id":"4","last_reported":1691737583,"current_range_meters":30000,"station_id":"ce4bgup2rcd13ifvqcn0","pricing_plan_id":"free"},{"bike_id":"7039a1f6-0859-4030-b3e4-d86f037edeec","system_id":"levelo_inurba_marseille","lat":43.302784,"lon":5.377158,"is_reserved":false,"is_disabled":false,"rental_uris":{"android":"levelo://app?vid=7039a1f6-0859-4030-b3e4-d86f037edeec","ios":"levelo://app?vid=7039a1f6-0859-4030-b3e4-d86f037edeec"},"vehicle_type_id":"4","last_reported":1691737583,"current_range_meters":12400,"station_id":"ce4bguh2rcd13ifvqcj0","pricing_plan_id":"free"},{"bike_id":"e7fee84b-20d8-4475-a54b-74f01d3ca293","system_id":"levelo_inurba_marseille","lat":43.302784,"lon":5.377158,"is_reserved":false,"is_disabled":false,"rental_uris":{"android":"levelo://app?vid=e7fee84b-20d8-4475-a54b-74f01d3ca293","ios":"levelo://app?vid=e7fee84b-20d8-4475-a54b-74f01d3ca293"},"vehicle_type_id":"4","last_reported":1691737583,"current_range_meters":0,"station_id":"ce4bguh2rcd13ifvqcj0","pricing_plan_id":"free"},{"bike_id":"fa9f127d-2ae7-431b-8146-d93ce401562d","system_id":"levelo_inurba_marseille","lat":43.302784,"lon":5.377158,"is_reserved":false,"is_disabled":false,"rental_uris":{"android":"levelo://app?vid=fa9f127d-2ae7-431b-8146-d93ce401562d","ios":"levelo://app?vid=fa9f127d-2ae7-431b-8146-d93ce401562d"},"vehicle_type_id":"4","last_reported":1691737583,"current_range_meters":29200,"station_id":"ce4bguh2rcd13ifvqcj0","pricing_plan_id":"free"},{"bike_id":"746a2edb-51e9-407c-a376-40142523903c","system_id":"levelo_inurba_marseille","lat":43.302784,"lon":5.377158,"is_reserved":false,"is_disabled":false,"rental_uris":{"android":"levelo://app?vid=746a2edb-51e9-407c-a376-40142523903c","ios":"levelo://app?vid=746a2edb-51e9-407c-a376-40142523903c"},"vehicle_type_id":"4","last_reported":1691737583,"current_range_meters":22000,"station_id":"ce4bguh2rcd13ifvqcj0","pricing_plan_id":"free"},{"bike_id":"915189fd-79e5-497c-87ff-61379a4dda2a","system_id":"levelo_inurba_marseille","lat":43.302784,"lon":5.377158,"is_reserved":false,"is_disabled":false,"rental_uris":{"android":"levelo://app?vid=915189fd-79e5-497c-87ff-61379a4dda2a","ios":"levelo://app?vid=915189fd-79e5-497c-87ff-61379a4dda2a"},"vehicle_type_id":"4","last_reported":1691737583,"current_range_meters":31600,"station_id":"ce4bguh2rcd13ifvqcj0","pricing_plan_id":"free"},{"bike_id":"4f610c93-84ac-421f-a327-96b08d924d20","system_id":"levelo_inurba_marseille","lat":43.3014,"lon":5.37405,"is_reserved":false,"is_disabled":false,"rental_uris":{"android":"levelo://app?vid=4f610c93-84ac-421f-a327-96b08d924d20","ios":"levelo://app?vid=4f610c93-84ac-421f-a327-96b08d924d20"},"vehicle_type_id":"4","last_reported":1691737583,"current_range_meters":30400,"station_id":"ce4bgs92rcd13ifvqcc0","pricing_plan_id":"free"},{"bike_id":"3f40dac1-2c40-49da-a197-807b91d566a4","system_id":"levelo_inurba_marseille","lat":43.3014,"lon":5.37421,"is_reserved":false,"is_disabled":false,"rental_uris":{"android":"levelo://app?vid=3f40dac1-2c40-49da-a197-807b91d566a4","ios":"levelo://app?vid=3f40dac1-2c40-49da-a197-807b91d566a4"},"vehicle_type_id":"4","last_reported":1691737583,"current_range_meters":31200,"station_id":"ce4bgs92rcd13ifvqcc0","pricing_plan_id":"free"},{"bike_id":"cc36568b-2ea4-4816-a6a9-311f86dba246","system_id":"levelo_inurba_marseille","lat":43.30138,"lon":5.37421,"is_reserved":false,"is_disabled":false,"rental_uris":{"android":"levelo://app?vid=cc36568b-2ea4-4816-a6a9-311f86dba246","ios":"levelo://app?vid=cc36568b-2ea4-4816-a6a9-311f86dba246"},"vehicle_type_id":"4","last_reported":1691737583,"current_range_meters":30000,"station_id":"ce4bgs92rcd13ifvqcc0","pricing_plan_id":"free"},{"bike_id":"eae3e02f-f86d-4146-b018-e46667a37434","system_id":"levelo_inurba_marseille","lat":43.30133,"lon":5.37416,"is_reserved":false,"is_disabled":false,"rental_uris":{"android":"levelo://app?vid=eae3e02f-f86d-4146-b018-e46667a37434","ios":"levelo://app?vid=eae3e02f-f86d-4146-b018-e46667a37434"},"vehicle_type_id":"4","last_reported":1691737583,"current_range_meters":31200,"station_id":"ce4bgs92rcd13ifvqcc0","pricing_plan_id":"free"},{"bike_id":"912e430e-3985-4fca-9c96-3ec8314c5642","system_id":"levelo_inurba_marseille","lat":43.31991,"lon":5.38135,"is_reserved":false,"is_disabled":false,"rental_uris":{"android":"levelo://app?vid=912e430e-3985-4fca-9c96-3ec8314c5642","ios":"levelo://app?vid=912e430e-3985-4fca-9c96-3ec8314c5642"},"vehicle_type_id":"4","last_reported":1691737583,"current_range_meters":4000,"station_id":"ce4bhr12rcd13ifvqhpg","pricing_plan_id":"free"},{"bike_id":"e66763f8-e1aa-46da-a0ea-05a59f3da0be","system_id":"levelo_inurba_marseille","lat":43.319935,"lon":5.381699,"is_reserved":false,"is_disabled":false,"rental_uris":{"android":"levelo://app?vid=e66763f8-e1aa-46da-a0ea-05a59f3da0be","ios":"levelo://app?vid=e66763f8-e1aa-46da-a0ea-05a59f3da0be"},"vehicle_type_id":"4","last_reported":1691737583,"current_range_meters":25600,"station_id":"ce4bhr12rcd13ifvqhpg","pricing_plan_id":"free"},{"bike_id":"d98d12c6-f8fb-4eb3-b0f1-f87416c8fc0b","system_id":"levelo_inurba_marseille","lat":43.319935,"lon":5.381699,"is_reserved":false,"is_disabled":false,"rental_uris":{"android":"levelo://app?vid=d98d12c6-f8fb-4eb3-b0f1-f87416c8fc0b","ios":"levelo://app?vid=d98d12c6-f8fb-4eb3-b0f1-f87416c8fc0b"},"vehicle_type_id":"4","last_reported":1691737583,"current_range_meters":19600,"station_id":"ce4bhr12rcd13ifvqhpg","pricing_plan_id":"free"},{"bike_id":"485c0385-7ed5-4cc1-afbc-689019f8a289","system_id":"levelo_inurba_marseille","lat":43.31992,"lon":5.38149,"is_reserved":false,"is_disabled":false,"rental_uris":{"android":"levelo://app?vid=485c0385-7ed5-4cc1-afbc-689019f8a289","ios":"levelo://app?vid=485c0385-7ed5-4cc1-afbc-689019f8a289"},"vehicle_type_id":"4","last_reported":1691737583,"current_range_meters":9600,"station_id":"ce4bhr12rcd13ifvqhpg","pricing_plan_id":"free"},{"bike_id":"705814ff-61ae-4113-a7ec-8a961e76cb93","system_id":"levelo_inurba_marseille","lat":43.319935,"lon":5.381699,"is_reserved":false,"is_disabled":false,"rental_uris":{"android":"levelo://app?vid=705814ff-61ae-4113-a7ec-8a961e76cb93","ios":"levelo://app?vid=705814ff-61ae-4113-a7ec-8a961e76cb93"},"vehicle_type_id":"4","last_reported":1691737583,"current_range_meters":7600,"station_id":"ce4bhr12rcd13ifvqhpg","pricing_plan_id":"free"},{"bike_id":"41b597cb-653f-470d-b8c9-92dd4b573fd2","system_id":"levelo_inurba_marseille","lat":43.31359,"lon":5.38494,"is_reserved":false,"is_disabled":false,"rental_uris":{"android":"levelo://app?vid=41b597cb-653f-470d-b8c9-92dd4b573fd2","ios":"levelo://app?vid=41b597cb-653f-470d-b8c9-92dd4b573fd2"},"vehicle_type_id":"4","last_reported":1691737583,"current_range_meters":17600,"station_id":"ce4bgt92rcd13ifvqcf0","pricing_plan_id":"free"},{"bike_id":"db49d918-c33c-4032-8a7d-8d380c002887","system_id":"levelo_inurba_marseille","lat":43.31371,"lon":5.38517,"is_reserved":false,"is_disabled":false,"rental_uris":{"android":"levelo://app?vid=db49d918-c33c-4032-8a7d-8d380c002887","ios":"levelo://app?vid=db49d918-c33c-4032-8a7d-8d380c002887"},"vehicle_type_id":"4","last_reported":1691737583,"current_range_meters":10000,"station_id":"ce4bgt92rcd13ifvqcf0","pricing_plan_id":"free"},{"bike_id":"fdcf8930-f31a-4add-9166-9eb541c5df2c","system_id":"levelo_inurba_marseille","lat":43.31364,"lon":5.38524,"is_reserved":false,"is_disabled":false,"rental_uris":{"android":"levelo://app?vid=fdcf8930-f31a-4add-9166-9eb541c5df2c","ios":"levelo://app?vid=fdcf8930-f31a-4add-9166-9eb541c5df2c"},"vehicle_type_id":"4","last_reported":1691737583,"current_range_meters":16000,"station_id":"ce4bgt92rcd13ifvqcf0","pricing_plan_id":"free"},{"bike_id":"ee9ad6b9-a787-4d5e-9d88-0d0f3f6d9a9a","system_id":"levelo_inurba_marseille","lat":43.299209,"lon":5.365547,"is_reserved":false,"is_disabled":false,"rental_uris":{"android":"levelo://app?vid=ee9ad6b9-a787-4d5e-9d88-0d0f3f6d9a9a","ios":"levelo://app?vid=ee9ad6b9-a787-4d5e-9d88-0d0f3f6d9a9a"},"vehicle_type_id":"4","last_reported":1691737583,"current_range_meters":14000,"station_id":"ce4bgm92rcd13ifvqbr0","pricing_plan_id":"free"},{"bike_id":"a32ce4d7-2648-494b-a099-d8034f4bdffc","system_id":"levelo_inurba_marseille","lat":43.29932,"lon":5.36537,"is_reserved":false,"is_disabled":false,"rental_uris":{"android":"levelo://app?vid=a32ce4d7-2648-494b-a099-d8034f4bdffc","ios":"levelo://app?vid=a32ce4d7-2648-494b-a099-d8034f4bdffc"},"vehicle_type_id":"4","last_reported":1691737583,"current_range_meters":20800,"station_id":"ce4bgm92rcd13ifvqbr0","pricing_plan_id":"free"},{"bike_id":"8a3fe578-b8a9-4b47-b502-aa1d2e7901fc","system_id":"levelo_inurba_marseille","lat":43.299222,"lon":5.365554,"is_reserved":false,"is_disabled":false,"rental_uris":{"android":"levelo://app?vid=8a3fe578-b8a9-4b47-b502-aa1d2e7901fc","ios":"levelo://app?vid=8a3fe578-b8a9-4b47-b502-aa1d2e7901fc"},"vehicle_type_id":"4","last_reported":1691737583,"current_range_meters":26800,"station_id":"ce4bgm92rcd13ifvqbr0","pricing_plan_id":"free"},{"bike_id":"1dcceb79-e44f-46ec-b418-04ef687293ef","system_id":"levelo_inurba_marseille","lat":43.29848,"lon":5.36286,"is_reserved":false,"is_disabled":false,"rental_uris":{"android":"levelo://app?vid=1dcceb79-e44f-46ec-b418-04ef687293ef","ios":"levelo://app?vid=1dcceb79-e44f-46ec-b418-04ef687293ef"},"vehicle_type_id":"4","last_reported":1691737583,"current_range_meters":22400,"station_id":"ce4bgpp2rcd13ifvqc3g","pricing_plan_id":"free"},{"bike_id":"20e91bd8-d179-4edc-a28f-eb725bd9bff3","system_id":"levelo_inurba_marseille","lat":43.298433,"lon":5.362774,"is_reserved":false,"is_disabled":false,"rental_uris":{"android":"levelo://app?vid=20e91bd8-d179-4edc-a28f-eb725bd9bff3","ios":"levelo://app?vid=20e91bd8-d179-4edc-a28f-eb725bd9bff3"},"vehicle_type_id":"4","last_reported":1691737583,"current_range_meters":28400,"station_id":"ce4bgpp2rcd13ifvqc3g","pricing_plan_id":"free"},{"bike_id":"f82e8256-f874-4a27-8175-816248db2afd","system_id":"levelo_inurba_marseille","lat":43.2995,"lon":5.37544,"is_reserved":false,"is_disabled":false,"rental_uris":{"android":"levelo://app?vid=f82e8256-f874-4a27-8175-816248db2afd","ios":"levelo://app?vid=f82e8256-f874-4a27-8175-816248db2afd"},"vehicle_type_id":"4","last_reported":1691737583,"current_range_meters":9200,"station_id":"","pricing_plan_id":"free"},{"bike_id":"add40390-6637-48c5-acba-19bb9e39c556","system_id":"levelo_inurba_marseille","lat":43.299243,"lon":5.37481,"is_reserved":false,"is_disabled":false,"rental_uris":{"android":"levelo://app?vid=add40390-6637-48c5-acba-19bb9e39c556","ios":"levelo://app?vid=add40390-6637-48c5-acba-19bb9e39c556"},"vehicle_type_id":"4","last_reported":1691737583,"current_range_meters":28800,"station_id":"ce4bgjh2rcd13ifvqbg0","pricing_plan_id":"free"},{"bike_id":"6219b83a-2988-46da-84ff-f054d7e2d5f2","system_id":"levelo_inurba_marseille","lat":43.298433,"lon":5.362774,"is_reserved":false,"is_disabled":false,"rental_uris":{"android":"levelo://app?vid=6219b83a-2988-46da-84ff-f054d7e2d5f2","ios":"levelo://app?vid=6219b83a-2988-46da-84ff-f054d7e2d5f2"},"vehicle_type_id":"4","last_reported":1691737583,"current_range_meters":29600,"station_id":"ce4bgpp2rcd13ifvqc3g","pricing_plan_id":"free"},{"bike_id":"5c2ceef7-504b-47d0-8993-4dd70a377211","system_id":"levelo_inurba_marseille","lat":43.298433,"lon":5.362774,"is_reserved":false,"is_disabled":false,"rental_uris":{"android":"levelo://app?vid=5c2ceef7-504b-47d0-8993-4dd70a377211","ios":"levelo://app?vid=5c2ceef7-504b-47d0-8993-4dd70a377211"},"vehicle_type_id":"4","last_reported":1691737583,"current_range_meters":14000,"station_id":"ce4bgpp2rcd13ifvqc3g","pricing_plan_id":"free"},{"bike_id":"6d7dbe73-33de-43eb-9c14-039021c5d586","system_id":"levelo_inurba_marseille","lat":43.298433,"lon":5.362774,"is_reserved":false,"is_disabled":false,"rental_uris":{"android":"levelo://app?vid=6d7dbe73-33de-43eb-9c14-039021c5d586","ios":"levelo://app?vid=6d7dbe73-33de-43eb-9c14-039021c5d586"},"vehicle_type_id":"4","last_reported":1691737583,"current_range_meters":26800,"station_id":"ce4bgpp2rcd13ifvqc3g","pricing_plan_id":"free"},{"bike_id":"9b7624f2-a986-46f1-a2fd-61e59e95b7e8","system_id":"levelo_inurba_marseille","lat":43.298433,"lon":5.362774,"is_reserved":false,"is_disabled":false,"rental_uris":{"android":"levelo://app?vid=9b7624f2-a986-46f1-a2fd-61e59e95b7e8","ios":"levelo://app?vid=9b7624f2-a986-46f1-a2fd-61e59e95b7e8"},"vehicle_type_id":"4","last_reported":1691737583,"current_range_meters":30000,"station_id":"ce4bgpp2rcd13ifvqc3g","pricing_plan_id":"free"},{"bike_id":"18b9da63-96f0-42c7-807b-4d32c64db94c","system_id":"levelo_inurba_marseille","lat":43.30525,"lon":5.38432,"is_reserved":false,"is_disabled":false,"rental_uris":{"android":"levelo://app?vid=18b9da63-96f0-42c7-807b-4d32c64db94c","ios":"levelo://app?vid=18b9da63-96f0-42c7-807b-4d32c64db94c"},"vehicle_type_id":"4","last_reported":1691737583,"current_range_meters":9200,"station_id":"ce4bgg92rcd13ifvqb30","pricing_plan_id":"free"},{"bike_id":"af8c7431-e044-42f2-a412-99b374e31393","system_id":"levelo_inurba_marseille","lat":43.299243,"lon":5.374807,"is_reserved":false,"is_disabled":false,"rental_uris":{"android":"levelo://app?vid=af8c7431-e044-42f2-a412-99b374e31393","ios":"levelo://app?vid=af8c7431-e044-42f2-a412-99b374e31393"},"vehicle_type_id":"4","last_reported":1691737583,"current_range_meters":14000,"station_id":"ce4bgjh2rcd13ifvqbg0","pricing_plan_id":"free"},{"bike_id":"990ac12b-049d-4f25-bbdd-3c067df044c6","system_id":"levelo_inurba_marseille","lat":43.297774,"lon":5.370875,"is_reserved":false,"is_disabled":false,"rental_uris":{"android":"levelo://app?vid=990ac12b-049d-4f25-bbdd-3c067df044c6","ios":"levelo://app?vid=990ac12b-049d-4f25-bbdd-3c067df044c6"},"vehicle_type_id":"4","last_reported":1691737583,"current_range_meters":17600,"station_id":"ce4bgop2rcd13ifvqc1g","pricing_plan_id":"free"},{"bike_id":"e916617e-e72b-4b57-8a26-7b3196f06b82","system_id":"levelo_inurba_marseille","lat":43.297774,"lon":5.370875,"is_reserved":false,"is_disabled":false,"rental_uris":{"android":"levelo://app?vid=e916617e-e72b-4b57-8a26-7b3196f06b82","ios":"levelo://app?vid=e916617e-e72b-4b57-8a26-7b3196f06b82"},"vehicle_type_id":"4","last_reported":1691737583,"current_range_meters":27200,"station_id":"ce4bgop2rcd13ifvqc1g","pricing_plan_id":"free"},{"bike_id":"b3e18abd-2805-4586-a10d-72421e1e30d1","system_id":"levelo_inurba_marseille","lat":43.328371,"lon":5.366909,"is_reserved":false,"is_disabled":false,"rental_uris":{"android":"levelo://app?vid=b3e18abd-2805-4586-a10d-72421e1e30d1","ios":"levelo://app?vid=b3e18abd-2805-4586-a10d-72421e1e30d1"},"vehicle_type_id":"4","last_reported":1691737583,"current_range_meters":29600,"station_id":"ce4bhs92rcd13ifvqi0g","pricing_plan_id":"free"},{"bike_id":"6e2049d4-c28c-4978-a454-4edbdc0f7037","system_id":"levelo_inurba_marseille","lat":43.32822,"lon":5.36686,"is_reserved":false,"is_disabled":false,"rental_uris":{"android":"levelo://app?vid=6e2049d4-c28c-4978-a454-4edbdc0f7037","ios":"levelo://app?vid=6e2049d4-c28c-4978-a454-4edbdc0f7037"},"vehicle_type_id":"4","last_reported":1691737583,"current_range_meters":31200,"station_id":"ce4bhs92rcd13ifvqi0g","pricing_plan_id":"free"},{"bike_id":"613d0554-d51b-446d-8800-f486dd2e187e","system_id":"levelo_inurba_marseille","lat":43.328371,"lon":5.366909,"is_reserved":false,"is_disabled":false,"rental_uris":{"android":"levelo://app?vid=613d0554-d51b-446d-8800-f486dd2e187e","ios":"levelo://app?vid=613d0554-d51b-446d-8800-f486dd2e187e"},"vehicle_type_id":"4","last_reported":1691737583,"current_range_meters":17600,"station_id":"ce4bhs92rcd13ifvqi0g","pricing_plan_id":"free"},{"bike_id":"cf43544e-989a-4d21-9699-931a6368cb00","system_id":"levelo_inurba_marseille","lat":43.32824,"lon":5.3667,"is_reserved":false,"is_disabled":false,"rental_uris":{"android":"levelo://app?vid=cf43544e-989a-4d21-9699-931a6368cb00","ios":"levelo://app?vid=cf43544e-989a-4d21-9699-931a6368cb00"},"vehicle_type_id":"4","last_reported":1691737583,"current_range_meters":29200,"station_id":"ce4bhs92rcd13ifvqi0g","pricing_plan_id":"free"},{"bike_id":"4656a0a2-1ed7-49a9-99e1-00b2f7e77116","system_id":"levelo_inurba_marseille","lat":43.328371,"lon":5.366909,"is_reserved":false,"is_disabled":false,"rental_uris":{"android":"levelo://app?vid=4656a0a2-1ed7-49a9-99e1-00b2f7e77116","ios":"levelo://app?vid=4656a0a2-1ed7-49a9-99e1-00b2f7e77116"},"vehicle_type_id":"4","last_reported":1691737583,"current_range_meters":21600,"station_id":"ce4bhs92rcd13ifvqi0g","pricing_plan_id":"free"},{"bike_id":"5d76a089-57a6-41c3-9736-662fd5348cfc","system_id":"levelo_inurba_marseille","lat":43.328371,"lon":5.366909,"is_reserved":false,"is_disabled":false,"rental_uris":{"android":"levelo://app?vid=5d76a089-57a6-41c3-9736-662fd5348cfc","ios":"levelo://app?vid=5d76a089-57a6-41c3-9736-662fd5348cfc"},"vehicle_type_id":"4","last_reported":1691737583,"current_range_meters":22800,"station_id":"ce4bhs92rcd13ifvqi0g","pricing_plan_id":"free"},{"bike_id":"eecb9fc8-33ba-4387-aa9d-597578a2c8a2","system_id":"levelo_inurba_marseille","lat":43.32826,"lon":5.36674,"is_reserved":false,"is_disabled":false,"rental_uris":{"android":"levelo://app?vid=eecb9fc8-33ba-4387-aa9d-597578a2c8a2","ios":"levelo://app?vid=eecb9fc8-33ba-4387-aa9d-597578a2c8a2"},"vehicle_type_id":"4","last_reported":1691737583,"current_range_meters":30800,"station_id":"ce4bhs92rcd13ifvqi0g","pricing_plan_id":"free"},{"bike_id":"687a6071-b88b-4838-8e01-e745aa127e91","system_id":"levelo_inurba_marseille","lat":43.328371,"lon":5.366909,"is_reserved":false,"is_disabled":false,"rental_uris":{"android":"levelo://app?vid=687a6071-b88b-4838-8e01-e745aa127e91","ios":"levelo://app?vid=687a6071-b88b-4838-8e01-e745aa127e91"},"vehicle_type_id":"4","last_reported":1691737583,"current_range_meters":16800,"station_id":"ce4bhs92rcd13ifvqi0g","pricing_plan_id":"free"},{"bike_id":"6976c2e1-0f4f-4524-b2b5-66f74f709c58","system_id":"levelo_inurba_marseille","lat":43.32829,"lon":5.36666,"is_reserved":false,"is_disabled":false,"rental_uris":{"android":"levelo://app?vid=6976c2e1-0f4f-4524-b2b5-66f74f709c58","ios":"levelo://app?vid=6976c2e1-0f4f-4524-b2b5-66f74f709c58"},"vehicle_type_id":"4","last_reported":1691737583,"current_range_meters":31200,"station_id":"ce4bhs92rcd13ifvqi0g","pricing_plan_id":"free"},{"bike_id":"a112a680-d3e0-411d-8250-15bff243835d","system_id":"levelo_inurba_marseille","lat":43.3283,"lon":5.36679,"is_reserved":false,"is_disabled":false,"rental_uris":{"android":"levelo://app?vid=a112a680-d3e0-411d-8250-15bff243835d","ios":"levelo://app?vid=a112a680-d3e0-411d-8250-15bff243835d"},"vehicle_type_id":"4","last_reported":1691737583,"current_range_meters":28800,"station_id":"ce4bhs92rcd13ifvqi0g","pricing_plan_id":"free"},{"bike_id":"221aef20-96ad-4b8f-b3c4-e032c86f69c5","system_id":"levelo_inurba_marseille","lat":43.32833,"lon":5.36678,"is_reserved":false,"is_disabled":false,"rental_uris":{"android":"levelo://app?vid=221aef20-96ad-4b8f-b3c4-e032c86f69c5","ios":"levelo://app?vid=221aef20-96ad-4b8f-b3c4-e032c86f69c5"},"vehicle_type_id":"4","last_reported":1691737583,"current_range_meters":1600,"station_id":"ce4bhs92rcd13ifvqi0g","pricing_plan_id":"free"},{"bike_id":"f0d1ec11-8334-46ac-9321-38894fe78636","system_id":"levelo_inurba_marseille","lat":43.297163,"lon":5.365866,"is_reserved":false,"is_disabled":false,"rental_uris":{"android":"levelo://app?vid=f0d1ec11-8334-46ac-9321-38894fe78636","ios":"levelo://app?vid=f0d1ec11-8334-46ac-9321-38894fe78636"},"vehicle_type_id":"4","last_reported":1691737583,"current_range_meters":26000,"station_id":"ce4bgn12rcd13ifvqbt0","pricing_plan_id":"free"},{"bike_id":"44083f66-fac4-47f0-887c-1e5643752b55","system_id":"levelo_inurba_marseille","lat":43.32837,"lon":5.36685,"is_reserved":false,"is_disabled":false,"rental_uris":{"android":"levelo://app?vid=44083f66-fac4-47f0-887c-1e5643752b55","ios":"levelo://app?vid=44083f66-fac4-47f0-887c-1e5643752b55"},"vehicle_type_id":"4","last_reported":1691737583,"current_range_meters":31200,"station_id":"ce4bhs92rcd13ifvqi0g","pricing_plan_id":"free"},{"bike_id":"dd789220-e7b5-42c1-b9dc-dc4243148021","system_id":"levelo_inurba_marseille","lat":43.29709,"lon":5.36617,"is_reserved":false,"is_disabled":false,"rental_uris":{"android":"levelo://app?vid=dd789220-e7b5-42c1-b9dc-dc4243148021","ios":"levelo://app?vid=dd789220-e7b5-42c1-b9dc-dc4243148021"},"vehicle_type_id":"4","last_reported":1691737583,"current_range_meters":31200,"station_id":"ce4bgn12rcd13ifvqbt0","pricing_plan_id":"free"},{"bike_id":"caccb378-1eb9-4668-82b8-a7cd6855ec7f","system_id":"levelo_inurba_marseille","lat":43.29687,"lon":5.37292,"is_reserved":false,"is_disabled":false,"rental_uris":{"android":"levelo://app?vid=caccb378-1eb9-4668-82b8-a7cd6855ec7f","ios":"levelo://app?vid=caccb378-1eb9-4668-82b8-a7cd6855ec7f"},"vehicle_type_id":"4","last_reported":1691737583,"current_range_meters":30000,"station_id":"ce4bgk12rcd13ifvqbj0","pricing_plan_id":"free"},{"bike_id":"86b5470e-3a75-43a2-82e0-02bd7e24473d","system_id":"levelo_inurba_marseille","lat":43.29629,"lon":5.3718,"is_reserved":false,"is_disabled":false,"rental_uris":{"android":"levelo://app?vid=86b5470e-3a75-43a2-82e0-02bd7e24473d","ios":"levelo://app?vid=86b5470e-3a75-43a2-82e0-02bd7e24473d"},"vehicle_type_id":"4","last_reported":1691737583,"current_range_meters":22000,"station_id":"","pricing_plan_id":"free"},{"bike_id":"3f167fa8-5f1c-4c1a-b762-1a61ece621f1","system_id":"levelo_inurba_marseille","lat":43.29573,"lon":5.367355,"is_reserved":false,"is_disabled":false,"rental_uris":{"android":"levelo://app?vid=3f167fa8-5f1c-4c1a-b762-1a61ece621f1","ios":"levelo://app?vid=3f167fa8-5f1c-4c1a-b762-1a61ece621f1"},"vehicle_type_id":"4","last_reported":1691737583,"current_range_meters":28800,"station_id":"ce4bgph2rcd13ifvqc2g","pricing_plan_id":"free"},{"bike_id":"d42b5c24-f8bb-4f20-b295-6d6644929bc5","system_id":"levelo_inurba_marseille","lat":43.296921,"lon":5.376579,"is_reserved":false,"is_disabled":false,"rental_uris":{"android":"levelo://app?vid=d42b5c24-f8bb-4f20-b295-6d6644929bc5","ios":"levelo://app?vid=d42b5c24-f8bb-4f20-b295-6d6644929bc5"},"vehicle_type_id":"4","last_reported":1691737583,"current_range_meters":31200,"station_id":"ce4bgkh2rcd13ifvqbl0","pricing_plan_id":"free"},{"bike_id":"71f452a1-64e8-47ca-9250-be59d328a647","system_id":"levelo_inurba_marseille","lat":43.296935,"lon":5.376544,"is_reserved":false,"is_disabled":false,"rental_uris":{"android":"levelo://app?vid=71f452a1-64e8-47ca-9250-be59d328a647","ios":"levelo://app?vid=71f452a1-64e8-47ca-9250-be59d328a647"},"vehicle_type_id":"4","last_reported":1691737583,"current_range_meters":27200,"station_id":"ce4bgkh2rcd13ifvqbl0","pricing_plan_id":"free"},{"bike_id":"5d830ad0-7751-4171-9d5b-13c9316669eb","system_id":"levelo_inurba_marseille","lat":43.296921,"lon":5.376579,"is_reserved":false,"is_disabled":false,"rental_uris":{"android":"levelo://app?vid=5d830ad0-7751-4171-9d5b-13c9316669eb","ios":"levelo://app?vid=5d830ad0-7751-4171-9d5b-13c9316669eb"},"vehicle_type_id":"4","last_reported":1691737583,"current_range_meters":20800,"station_id":"ce4bgkh2rcd13ifvqbl0","pricing_plan_id":"free"},{"bike_id":"55842404-1a0e-44e1-b6c6-50915d22215a","system_id":"levelo_inurba_marseille","lat":43.29573,"lon":5.367355,"is_reserved":false,"is_disabled":false,"rental_uris":{"android":"levelo://app?vid=55842404-1a0e-44e1-b6c6-50915d22215a","ios":"levelo://app?vid=55842404-1a0e-44e1-b6c6-50915d22215a"},"vehicle_type_id":"4","last_reported":1691737583,"current_range_meters":27600,"station_id":"ce4bgph2rcd13ifvqc2g","pricing_plan_id":"free"},{"bike_id":"0296b700-aa0c-4546-b538-90cd97197ebf","system_id":"levelo_inurba_marseille","lat":43.296935,"lon":5.376544,"is_reserved":false,"is_disabled":false,"rental_uris":{"android":"levelo://app?vid=0296b700-aa0c-4546-b538-90cd97197ebf","ios":"levelo://app?vid=0296b700-aa0c-4546-b538-90cd97197ebf"},"vehicle_type_id":"4","last_reported":1691737583,"current_range_meters":31200,"station_id":"ce4bgkh2rcd13ifvqbl0","pricing_plan_id":"free"},{"bike_id":"af8738c6-9d80-4411-95a3-d188f12ca77c","system_id":"levelo_inurba_marseille","lat":43.296921,"lon":5.376579,"is_reserved":false,"is_disabled":false,"rental_uris":{"android":"levelo://app?vid=af8738c6-9d80-4411-95a3-d188f12ca77c","ios":"levelo://app?vid=af8738c6-9d80-4411-95a3-d188f12ca77c"},"vehicle_type_id":"4","last_reported":1691737583,"current_range_meters":31200,"station_id":"ce4bgkh2rcd13ifvqbl0","pricing_plan_id":"free"},{"bike_id":"90c78e91-e295-4ee4-bc49-6462f7cc6304","system_id":"levelo_inurba_marseille","lat":43.296935,"lon":5.376544,"is_reserved":false,"is_disabled":false,"rental_uris":{"android":"levelo://app?vid=90c78e91-e295-4ee4-bc49-6462f7cc6304","ios":"levelo://app?vid=90c78e91-e295-4ee4-bc49-6462f7cc6304"},"vehicle_type_id":"4","last_reported":1691737583,"current_range_meters":30000,"station_id":"ce4bgkh2rcd13ifvqbl0","pricing_plan_id":"free"},{"bike_id":"e4e48eb2-8d62-4c2f-af67-d47b14100ed4","system_id":"levelo_inurba_marseille","lat":43.2991,"lon":5.38145,"is_reserved":false,"is_disabled":false,"rental_uris":{"android":"levelo://app?vid=e4e48eb2-8d62-4c2f-af67-d47b14100ed4","ios":"levelo://app?vid=e4e48eb2-8d62-4c2f-af67-d47b14100ed4"},"vehicle_type_id":"4","last_reported":1691737583,"current_range_meters":18800,"station_id":"ce4bgj12rcd13ifvqbc0","pricing_plan_id":"free"},{"bike_id":"d2f5a234-8d91-4ea4-9ef5-de2319066cd0","system_id":"levelo_inurba_marseille","lat":43.309589,"lon":5.390258,"is_reserved":false,"is_disabled":false,"rental_uris":{"android":"levelo://app?vid=d2f5a234-8d91-4ea4-9ef5-de2319066cd0","ios":"levelo://app?vid=d2f5a234-8d91-4ea4-9ef5-de2319066cd0"},"vehicle_type_id":"4","last_reported":1691737583,"current_range_meters":30800,"station_id":"ce4bgup2rcd13ifvqco0","pricing_plan_id":"free"},{"bike_id":"ec6e770c-e990-4650-b8a4-2142c67df1b5","system_id":"levelo_inurba_marseille","lat":43.30945,"lon":5.39032,"is_reserved":false,"is_disabled":false,"rental_uris":{"android":"levelo://app?vid=ec6e770c-e990-4650-b8a4-2142c67df1b5","ios":"levelo://app?vid=ec6e770c-e990-4650-b8a4-2142c67df1b5"},"vehicle_type_id":"4","last_reported":1691737583,"current_range_meters":27200,"station_id":"ce4bgup2rcd13ifvqco0","pricing_plan_id":"free"},{"bike_id":"374f86e7-7935-4d02-92b3-7f7b70695e03","system_id":"levelo_inurba_marseille","lat":43.296921,"lon":5.376579,"is_reserved":false,"is_disabled":false,"rental_uris":{"android":"levelo://app?vid=374f86e7-7935-4d02-92b3-7f7b70695e03","ios":"levelo://app?vid=374f86e7-7935-4d02-92b3-7f7b70695e03"},"vehicle_type_id":"4","last_reported":1691737583,"current_range_meters":31200,"station_id":"ce4bgkh2rcd13ifvqbl0","pricing_plan_id":"free"},{"bike_id":"eda2d94f-cbd6-454d-ae89-2eb902aad7ad","system_id":"levelo_inurba_marseille","lat":43.317557,"lon":5.390173,"is_reserved":false,"is_disabled":false,"rental_uris":{"android":"levelo://app?vid=eda2d94f-cbd6-454d-ae89-2eb902aad7ad","ios":"levelo://app?vid=eda2d94f-cbd6-454d-ae89-2eb902aad7ad"},"vehicle_type_id":"4","last_reported":1691737583,"current_range_meters":31200,"station_id":"ce4bhqp2rcd13ifvqhng","pricing_plan_id":"free"},{"bike_id":"5d51ce61-2cef-4bcb-81ab-da3cb755b83a","system_id":"levelo_inurba_marseille","lat":43.317557,"lon":5.390173,"is_reserved":false,"is_disabled":false,"rental_uris":{"android":"levelo://app?vid=5d51ce61-2cef-4bcb-81ab-da3cb755b83a","ios":"levelo://app?vid=5d51ce61-2cef-4bcb-81ab-da3cb755b83a"},"vehicle_type_id":"4","last_reported":1691737583,"current_range_meters":30400,"station_id":"ce4bhqp2rcd13ifvqhng","pricing_plan_id":"free"},{"bike_id":"097df2b0-ccf4-4062-bd9b-6c4fa8581178","system_id":"levelo_inurba_marseille","lat":43.31759,"lon":5.39016,"is_reserved":false,"is_disabled":false,"rental_uris":{"android":"levelo://app?vid=097df2b0-ccf4-4062-bd9b-6c4fa8581178","ios":"levelo://app?vid=097df2b0-ccf4-4062-bd9b-6c4fa8581178"},"vehicle_type_id":"4","last_reported":1691737583,"current_range_meters":11200,"station_id":"ce4bhqp2rcd13ifvqhng","pricing_plan_id":"free"},{"bike_id":"70fc7882-a2fc-46eb-ae11-5694fa0d05f1","system_id":"levelo_inurba_marseille","lat":43.317557,"lon":5.390173,"is_reserved":false,"is_disabled":false,"rental_uris":{"android":"levelo://app?vid=70fc7882-a2fc-46eb-ae11-5694fa0d05f1","ios":"levelo://app?vid=70fc7882-a2fc-46eb-ae11-5694fa0d05f1"},"vehicle_type_id":"4","last_reported":1691737583,"current_range_meters":30000,"station_id":"ce4bhqp2rcd13ifvqhng","pricing_plan_id":"free"},{"bike_id":"9e288399-e594-4c1b-827a-c224681650a9","system_id":"levelo_inurba_marseille","lat":43.317557,"lon":5.390173,"is_reserved":false,"is_disabled":false,"rental_uris":{"android":"levelo://app?vid=9e288399-e594-4c1b-827a-c224681650a9","ios":"levelo://app?vid=9e288399-e594-4c1b-827a-c224681650a9"},"vehicle_type_id":"4","last_reported":1691737583,"current_range_meters":31200,"station_id":"ce4bhqp2rcd13ifvqhng","pricing_plan_id":"free"},{"bike_id":"a3bd4773-70c0-41b3-a66b-95abad89e8a7","system_id":"levelo_inurba_marseille","lat":43.298037,"lon":5.381066,"is_reserved":false,"is_disabled":false,"rental_uris":{"android":"levelo://app?vid=a3bd4773-70c0-41b3-a66b-95abad89e8a7","ios":"levelo://app?vid=a3bd4773-70c0-41b3-a66b-95abad89e8a7"},"vehicle_type_id":"4","last_reported":1691737583,"current_range_meters":30800,"station_id":"ce4bgip2rcd13ifvqbb0","pricing_plan_id":"free"},{"bike_id":"46556b06-c2b5-4251-b1bc-23509ba26b1e","system_id":"levelo_inurba_marseille","lat":43.298037,"lon":5.381066,"is_reserved":false,"is_disabled":false,"rental_uris":{"android":"levelo://app?vid=46556b06-c2b5-4251-b1bc-23509ba26b1e","ios":"levelo://app?vid=46556b06-c2b5-4251-b1bc-23509ba26b1e"},"vehicle_type_id":"4","last_reported":1691737583,"current_range_meters":28800,"station_id":"ce4bgip2rcd13ifvqbb0","pricing_plan_id":"free"},{"bike_id":"a4df99ce-0488-49dd-a888-94686f562e88","system_id":"levelo_inurba_marseille","lat":43.295748,"lon":5.37522,"is_reserved":false,"is_disabled":false,"rental_uris":{"android":"levelo://app?vid=a4df99ce-0488-49dd-a888-94686f562e88","ios":"levelo://app?vid=a4df99ce-0488-49dd-a888-94686f562e88"},"vehicle_type_id":"4","last_reported":1691737583,"current_range_meters":31600,"station_id":"ce4bgh92rcd13ifvqb50","pricing_plan_id":"free"},{"bike_id":"c15a7388-3ee4-4cd1-a969-c94e9fc8b5a6","system_id":"levelo_inurba_marseille","lat":43.295748,"lon":5.37522,"is_reserved":false,"is_disabled":false,"rental_uris":{"android":"levelo://app?vid=c15a7388-3ee4-4cd1-a969-c94e9fc8b5a6","ios":"levelo://app?vid=c15a7388-3ee4-4cd1-a969-c94e9fc8b5a6"},"vehicle_type_id":"4","last_reported":1691737583,"current_range_meters":30800,"station_id":"ce4bgh92rcd13ifvqb50","pricing_plan_id":"free"},{"bike_id":"ebb7563e-9021-4bfc-9ac5-82f7a78d0c65","system_id":"levelo_inurba_marseille","lat":43.295748,"lon":5.37522,"is_reserved":false,"is_disabled":false,"rental_uris":{"android":"levelo://app?vid=ebb7563e-9021-4bfc-9ac5-82f7a78d0c65","ios":"levelo://app?vid=ebb7563e-9021-4bfc-9ac5-82f7a78d0c65"},"vehicle_type_id":"4","last_reported":1691737583,"current_range_meters":23200,"station_id":"ce4bgh92rcd13ifvqb50","pricing_plan_id":"free"},{"bike_id":"1c59fbfd-bd8b-48f6-a39a-0ac54cf933e4","system_id":"levelo_inurba_marseille","lat":43.295748,"lon":5.37522,"is_reserved":false,"is_disabled":false,"rental_uris":{"android":"levelo://app?vid=1c59fbfd-bd8b-48f6-a39a-0ac54cf933e4","ios":"levelo://app?vid=1c59fbfd-bd8b-48f6-a39a-0ac54cf933e4"},"vehicle_type_id":"4","last_reported":1691737583,"current_range_meters":31200,"station_id":"ce4bgh92rcd13ifvqb50","pricing_plan_id":"free"},{"bike_id":"7c791f81-ece4-45d9-81ae-4ea185675d0f","system_id":"levelo_inurba_marseille","lat":43.30439,"lon":5.38884,"is_reserved":false,"is_disabled":false,"rental_uris":{"android":"levelo://app?vid=7c791f81-ece4-45d9-81ae-4ea185675d0f","ios":"levelo://app?vid=7c791f81-ece4-45d9-81ae-4ea185675d0f"},"vehicle_type_id":"4","last_reported":1691737583,"current_range_meters":20400,"station_id":"ce4bgk12rcd13ifvqbi0","pricing_plan_id":"free"},{"bike_id":"253f911c-2c15-461a-823e-d88d8a5ebd3a","system_id":"levelo_inurba_marseille","lat":43.295748,"lon":5.37522,"is_reserved":false,"is_disabled":false,"rental_uris":{"android":"levelo://app?vid=253f911c-2c15-461a-823e-d88d8a5ebd3a","ios":"levelo://app?vid=253f911c-2c15-461a-823e-d88d8a5ebd3a"},"vehicle_type_id":"4","last_reported":1691737583,"current_range_meters":8000,"station_id":"ce4bgh92rcd13ifvqb50","pricing_plan_id":"free"},{"bike_id":"855a5b47-ed3a-4fa5-8311-757237a63536","system_id":"levelo_inurba_marseille","lat":43.295748,"lon":5.37522,"is_reserved":false,"is_disabled":false,"rental_uris":{"android":"levelo://app?vid=855a5b47-ed3a-4fa5-8311-757237a63536","ios":"levelo://app?vid=855a5b47-ed3a-4fa5-8311-757237a63536"},"vehicle_type_id":"4","last_reported":1691737583,"current_range_meters":31200,"station_id":"ce4bgh92rcd13ifvqb50","pricing_plan_id":"free"},{"bike_id":"b8b064a2-2413-421d-bcab-f745e5e98afd","system_id":"levelo_inurba_marseille","lat":43.30439,"lon":5.38893,"is_reserved":false,"is_disabled":false,"rental_uris":{"android":"levelo://app?vid=b8b064a2-2413-421d-bcab-f745e5e98afd","ios":"levelo://app?vid=b8b064a2-2413-421d-bcab-f745e5e98afd"},"vehicle_type_id":"4","last_reported":1691737583,"current_range_meters":6800,"station_id":"ce4bgk12rcd13ifvqbi0","pricing_plan_id":"free"},{"bike_id":"ed794e5b-e632-4afa-8328-8597cdd879bc","system_id":"levelo_inurba_marseille","lat":43.295748,"lon":5.37522,"is_reserved":false,"is_disabled":false,"rental_uris":{"android":"levelo://app?vid=ed794e5b-e632-4afa-8328-8597cdd879bc","ios":"levelo://app?vid=ed794e5b-e632-4afa-8328-8597cdd879bc"},"vehicle_type_id":"4","last_reported":1691737583,"current_range_meters":18800,"station_id":"ce4bgh92rcd13ifvqb50","pricing_plan_id":"free"},{"bike_id":"16876e4c-e209-4da6-84bb-1abf365fe0cf","system_id":"levelo_inurba_marseille","lat":43.295748,"lon":5.37522,"is_reserved":false,"is_disabled":false,"rental_uris":{"android":"levelo://app?vid=16876e4c-e209-4da6-84bb-1abf365fe0cf","ios":"levelo://app?vid=16876e4c-e209-4da6-84bb-1abf365fe0cf"},"vehicle_type_id":"4","last_reported":1691737583,"current_range_meters":31200,"station_id":"ce4bgh92rcd13ifvqb50","pricing_plan_id":"free"},{"bike_id":"6104e6f9-3d23-476d-8720-adff63d75aa6","system_id":"levelo_inurba_marseille","lat":43.295748,"lon":5.37522,"is_reserved":false,"is_disabled":false,"rental_uris":{"android":"levelo://app?vid=6104e6f9-3d23-476d-8720-adff63d75aa6","ios":"levelo://app?vid=6104e6f9-3d23-476d-8720-adff63d75aa6"},"vehicle_type_id":"4","last_reported":1691737583,"current_range_meters":27200,"station_id":"ce4bgh92rcd13ifvqb50","pricing_plan_id":"free"},{"bike_id":"efdd35aa-1676-4683-a0a2-9d9ac52624b5","system_id":"levelo_inurba_marseille","lat":43.295748,"lon":5.37522,"is_reserved":false,"is_disabled":false,"rental_uris":{"android":"levelo://app?vid=efdd35aa-1676-4683-a0a2-9d9ac52624b5","ios":"levelo://app?vid=efdd35aa-1676-4683-a0a2-9d9ac52624b5"},"vehicle_type_id":"4","last_reported":1691737583,"current_range_meters":16800,"station_id":"ce4bgh92rcd13ifvqb50","pricing_plan_id":"free"},{"bike_id":"385e77e7-9408-4448-9cb1-5b809488172d","system_id":"levelo_inurba_marseille","lat":43.295748,"lon":5.37522,"is_reserved":false,"is_disabled":false,"rental_uris":{"android":"levelo://app?vid=385e77e7-9408-4448-9cb1-5b809488172d","ios":"levelo://app?vid=385e77e7-9408-4448-9cb1-5b809488172d"},"vehicle_type_id":"4","last_reported":1691737583,"current_range_meters":27200,"station_id":"ce4bgh92rcd13ifvqb50","pricing_plan_id":"free"},{"bike_id":"21ab106d-c79d-4b9c-a008-6ef7bb24ce46","system_id":"levelo_inurba_marseille","lat":43.295748,"lon":5.37522,"is_reserved":false,"is_disabled":false,"rental_uris":{"android":"levelo://app?vid=21ab106d-c79d-4b9c-a008-6ef7bb24ce46","ios":"levelo://app?vid=21ab106d-c79d-4b9c-a008-6ef7bb24ce46"},"vehicle_type_id":"4","last_reported":1691737583,"current_range_meters":24000,"station_id":"ce4bgh92rcd13ifvqb50","pricing_plan_id":"free"},{"bike_id":"ae062ac2-99c4-416f-8eea-978d85cf8497","system_id":"levelo_inurba_marseille","lat":43.30429,"lon":5.38893,"is_reserved":false,"is_disabled":false,"rental_uris":{"android":"levelo://app?vid=ae062ac2-99c4-416f-8eea-978d85cf8497","ios":"levelo://app?vid=ae062ac2-99c4-416f-8eea-978d85cf8497"},"vehicle_type_id":"4","last_reported":1691737583,"current_range_meters":28800,"station_id":"ce4bgk12rcd13ifvqbi0","pricing_plan_id":"free"},{"bike_id":"bd52498d-8118-4f8b-8af4-fb2589a21c1c","system_id":"levelo_inurba_marseille","lat":43.30425,"lon":5.38892,"is_reserved":false,"is_disabled":false,"rental_uris":{"android":"levelo://app?vid=bd52498d-8118-4f8b-8af4-fb2589a21c1c","ios":"levelo://app?vid=bd52498d-8118-4f8b-8af4-fb2589a21c1c"},"vehicle_type_id":"4","last_reported":1691737583,"current_range_meters":29600,"station_id":"ce4bgk12rcd13ifvqbi0","pricing_plan_id":"free"},{"bike_id":"42feecbb-65e3-494b-a1a6-43ce64daa154","system_id":"levelo_inurba_marseille","lat":43.295748,"lon":5.37522,"is_reserved":false,"is_disabled":false,"rental_uris":{"android":"levelo://app?vid=42feecbb-65e3-494b-a1a6-43ce64daa154","ios":"levelo://app?vid=42feecbb-65e3-494b-a1a6-43ce64daa154"},"vehicle_type_id":"4","last_reported":1691737583,"current_range_meters":9600,"station_id":"ce4bgh92rcd13ifvqb50","pricing_plan_id":"free"},{"bike_id":"91ec11a9-376f-4236-b511-cba6f1c9f673","system_id":"levelo_inurba_marseille","lat":43.295748,"lon":5.37522,"is_reserved":false,"is_disabled":false,"rental_uris":{"android":"levelo://app?vid=91ec11a9-376f-4236-b511-cba6f1c9f673","ios":"levelo://app?vid=91ec11a9-376f-4236-b511-cba6f1c9f673"},"vehicle_type_id":"4","last_reported":1691737583,"current_range_meters":31200,"station_id":"ce4bgh92rcd13ifvqb50","pricing_plan_id":"free"},{"bike_id":"0a420af0-130e-4ee8-9f7b-1770c14b11dd","system_id":"levelo_inurba_marseille","lat":43.29623,"lon":5.37736,"is_reserved":false,"is_disabled":false,"rental_uris":{"android":"levelo://app?vid=0a420af0-130e-4ee8-9f7b-1770c14b11dd","ios":"levelo://app?vid=0a420af0-130e-4ee8-9f7b-1770c14b11dd"},"vehicle_type_id":"4","last_reported":1691737583,"current_range_meters":29600,"station_id":"ce4bgi92rcd13ifvqb90","pricing_plan_id":"free"},{"bike_id":"7134d304-fb69-49bb-9f82-3c6daf2a034c","system_id":"levelo_inurba_marseille","lat":43.29615,"lon":5.37718,"is_reserved":false,"is_disabled":false,"rental_uris":{"android":"levelo://app?vid=7134d304-fb69-49bb-9f82-3c6daf2a034c","ios":"levelo://app?vid=7134d304-fb69-49bb-9f82-3c6daf2a034c"},"vehicle_type_id":"4","last_reported":1691737583,"current_range_meters":24400,"station_id":"ce4bgi92rcd13ifvqb90","pricing_plan_id":"free"},{"bike_id":"5be8ad5c-eb28-4b53-950d-a8ee6f6a4d9d","system_id":"levelo_inurba_marseille","lat":43.29615,"lon":5.37718,"is_reserved":false,"is_disabled":false,"rental_uris":{"android":"levelo://app?vid=5be8ad5c-eb28-4b53-950d-a8ee6f6a4d9d","ios":"levelo://app?vid=5be8ad5c-eb28-4b53-950d-a8ee6f6a4d9d"},"vehicle_type_id":"4","last_reported":1691737583,"current_range_meters":12400,"station_id":"ce4bgi92rcd13ifvqb90","pricing_plan_id":"free"},{"bike_id":"821fbb35-4030-4700-b568-46c449ecd7c1","system_id":"levelo_inurba_marseille","lat":43.29613,"lon":5.37713,"is_reserved":false,"is_disabled":false,"rental_uris":{"android":"levelo://app?vid=821fbb35-4030-4700-b568-46c449ecd7c1","ios":"levelo://app?vid=821fbb35-4030-4700-b568-46c449ecd7c1"},"vehicle_type_id":"4","last_reported":1691737583,"current_range_meters":25200,"station_id":"ce4bgi92rcd13ifvqb90","pricing_plan_id":"free"},{"bike_id":"e1a31989-7b43-4bc9-b017-3708f1350161","system_id":"levelo_inurba_marseille","lat":43.29594,"lon":5.37686,"is_reserved":false,"is_disabled":false,"rental_uris":{"android":"levelo://app?vid=e1a31989-7b43-4bc9-b017-3708f1350161","ios":"levelo://app?vid=e1a31989-7b43-4bc9-b017-3708f1350161"},"vehicle_type_id":"4","last_reported":1691737583,"current_range_meters":31200,"station_id":"ce4bgi92rcd13ifvqb90","pricing_plan_id":"free"},{"bike_id":"79ec63fb-b35f-4cce-83fb-01794e11b4e9","system_id":"levelo_inurba_marseille","lat":43.295279,"lon":5.375048,"is_reserved":false,"is_disabled":false,"rental_uris":{"android":"levelo://app?vid=79ec63fb-b35f-4cce-83fb-01794e11b4e9","ios":"levelo://app?vid=79ec63fb-b35f-4cce-83fb-01794e11b4e9"},"vehicle_type_id":"4","last_reported":1691737583,"current_range_meters":31200,"station_id":"ce4bgkp2rcd13ifvqbmg","pricing_plan_id":"free"},{"bike_id":"04b6045a-7371-44af-be9c-35e15db9074b","system_id":"levelo_inurba_marseille","lat":43.295279,"lon":5.375048,"is_reserved":false,"is_disabled":false,"rental_uris":{"android":"levelo://app?vid=04b6045a-7371-44af-be9c-35e15db9074b","ios":"levelo://app?vid=04b6045a-7371-44af-be9c-35e15db9074b"},"vehicle_type_id":"4","last_reported":1691737583,"current_range_meters":31200,"station_id":"ce4bgkp2rcd13ifvqbmg","pricing_plan_id":"free"},{"bike_id":"7348704e-8af1-4a19-83af-965a4386a543","system_id":"levelo_inurba_marseille","lat":43.2953,"lon":5.37503,"is_reserved":false,"is_disabled":false,"rental_uris":{"android":"levelo://app?vid=7348704e-8af1-4a19-83af-965a4386a543","ios":"levelo://app?vid=7348704e-8af1-4a19-83af-965a4386a543"},"vehicle_type_id":"4","last_reported":1691737583,"current_range_meters":31200,"station_id":"ce4bgkp2rcd13ifvqbmg","pricing_plan_id":"free"},{"bike_id":"eded9eff-3885-4ebb-9cf2-a80cbcdad537","system_id":"levelo_inurba_marseille","lat":43.295279,"lon":5.375048,"is_reserved":false,"is_disabled":false,"rental_uris":{"android":"levelo://app?vid=eded9eff-3885-4ebb-9cf2-a80cbcdad537","ios":"levelo://app?vid=eded9eff-3885-4ebb-9cf2-a80cbcdad537"},"vehicle_type_id":"4","last_reported":1691737583,"current_range_meters":30000,"station_id":"ce4bgkp2rcd13ifvqbmg","pricing_plan_id":"free"},{"bike_id":"f89301a6-9e95-4182-8b38-addee0325f99","system_id":"levelo_inurba_marseille","lat":43.295279,"lon":5.375048,"is_reserved":false,"is_disabled":false,"rental_uris":{"android":"levelo://app?vid=f89301a6-9e95-4182-8b38-addee0325f99","ios":"levelo://app?vid=f89301a6-9e95-4182-8b38-addee0325f99"},"vehicle_type_id":"4","last_reported":1691737583,"current_range_meters":31600,"station_id":"ce4bgkp2rcd13ifvqbmg","pricing_plan_id":"free"},{"bike_id":"fb84ad3f-152e-4a57-9846-261a218a3df6","system_id":"levelo_inurba_marseille","lat":43.29517,"lon":5.37499,"is_reserved":false,"is_disabled":false,"rental_uris":{"android":"levelo://app?vid=fb84ad3f-152e-4a57-9846-261a218a3df6","ios":"levelo://app?vid=fb84ad3f-152e-4a57-9846-261a218a3df6"},"vehicle_type_id":"4","last_reported":1691737583,"current_range_meters":31200,"station_id":"ce4bgkp2rcd13ifvqbmg","pricing_plan_id":"free"},{"bike_id":"da04558c-8e06-4cc4-98a1-a8c94fc52100","system_id":"levelo_inurba_marseille","lat":43.29515,"lon":5.37496,"is_reserved":false,"is_disabled":false,"rental_uris":{"android":"levelo://app?vid=da04558c-8e06-4cc4-98a1-a8c94fc52100","ios":"levelo://app?vid=da04558c-8e06-4cc4-98a1-a8c94fc52100"},"vehicle_type_id":"4","last_reported":1691737583,"current_range_meters":28000,"station_id":"ce4bgkp2rcd13ifvqbmg","pricing_plan_id":"free"},{"bike_id":"c6031c26-5e00-47eb-ad84-1a1cf1434456","system_id":"levelo_inurba_marseille","lat":43.29508,"lon":5.37512,"is_reserved":false,"is_disabled":false,"rental_uris":{"android":"levelo://app?vid=c6031c26-5e00-47eb-ad84-1a1cf1434456","ios":"levelo://app?vid=c6031c26-5e00-47eb-ad84-1a1cf1434456"},"vehicle_type_id":"4","last_reported":1691737583,"current_range_meters":31200,"station_id":"ce4bgkp2rcd13ifvqbmg","pricing_plan_id":"free"},{"bike_id":"dd2d0dee-efa9-4729-9063-401567218149","system_id":"levelo_inurba_marseille","lat":43.32367,"lon":5.388836,"is_reserved":false,"is_disabled":false,"rental_uris":{"android":"levelo://app?vid=dd2d0dee-efa9-4729-9063-401567218149","ios":"levelo://app?vid=dd2d0dee-efa9-4729-9063-401567218149"},"vehicle_type_id":"4","last_reported":1691737583,"current_range_meters":22800,"station_id":"ce4bhqp2rcd13ifvqhog","pricing_plan_id":"free"},{"bike_id":"0337c164-8b0b-4f0b-b7b3-6790b2e9f25d","system_id":"levelo_inurba_marseille","lat":43.32354,"lon":5.38883,"is_reserved":false,"is_disabled":false,"rental_uris":{"android":"levelo://app?vid=0337c164-8b0b-4f0b-b7b3-6790b2e9f25d","ios":"levelo://app?vid=0337c164-8b0b-4f0b-b7b3-6790b2e9f25d"},"vehicle_type_id":"4","last_reported":1691737583,"current_range_meters":28400,"station_id":"ce4bhqp2rcd13ifvqhog","pricing_plan_id":"free"},{"bike_id":"665f0e1b-b75e-4373-b06d-a7cc139210fc","system_id":"levelo_inurba_marseille","lat":43.32367,"lon":5.388836,"is_reserved":false,"is_disabled":false,"rental_uris":{"android":"levelo://app?vid=665f0e1b-b75e-4373-b06d-a7cc139210fc","ios":"levelo://app?vid=665f0e1b-b75e-4373-b06d-a7cc139210fc"},"vehicle_type_id":"4","last_reported":1691737583,"current_range_meters":26400,"station_id":"ce4bhqp2rcd13ifvqhog","pricing_plan_id":"free"},{"bike_id":"da868190-7741-4033-a648-e9551d1d9b93","system_id":"levelo_inurba_marseille","lat":43.32367,"lon":5.388836,"is_reserved":false,"is_disabled":false,"rental_uris":{"android":"levelo://app?vid=da868190-7741-4033-a648-e9551d1d9b93","ios":"levelo://app?vid=da868190-7741-4033-a648-e9551d1d9b93"},"vehicle_type_id":"4","last_reported":1691737583,"current_range_meters":6400,"station_id":"ce4bhqp2rcd13ifvqhog","pricing_plan_id":"free"},{"bike_id":"489d9e97-c672-467b-ae26-f5955be84e90","system_id":"levelo_inurba_marseille","lat":43.32367,"lon":5.388836,"is_reserved":false,"is_disabled":false,"rental_uris":{"android":"levelo://app?vid=489d9e97-c672-467b-ae26-f5955be84e90","ios":"levelo://app?vid=489d9e97-c672-467b-ae26-f5955be84e90"},"vehicle_type_id":"4","last_reported":1691737583,"current_range_meters":27200,"station_id":"ce4bhqp2rcd13ifvqhog","pricing_plan_id":"free"},{"bike_id":"8f5f2b1b-34ef-421b-98f9-1a6fe3f0e7a7","system_id":"levelo_inurba_marseille","lat":43.32367,"lon":5.388836,"is_reserved":false,"is_disabled":false,"rental_uris":{"android":"levelo://app?vid=8f5f2b1b-34ef-421b-98f9-1a6fe3f0e7a7","ios":"levelo://app?vid=8f5f2b1b-34ef-421b-98f9-1a6fe3f0e7a7"},"vehicle_type_id":"4","last_reported":1691737583,"current_range_meters":30000,"station_id":"ce4bhqp2rcd13ifvqhog","pricing_plan_id":"free"},{"bike_id":"a7758e93-92f2-4ba1-8882-417901e6037c","system_id":"levelo_inurba_marseille","lat":43.32367,"lon":5.388836,"is_reserved":false,"is_disabled":false,"rental_uris":{"android":"levelo://app?vid=a7758e93-92f2-4ba1-8882-417901e6037c","ios":"levelo://app?vid=a7758e93-92f2-4ba1-8882-417901e6037c"},"vehicle_type_id":"4","last_reported":1691737583,"current_range_meters":17600,"station_id":"ce4bhqp2rcd13ifvqhog","pricing_plan_id":"free"},{"bike_id":"89c6dd0c-39ff-45d3-85c8-0b6339b9a0b9","system_id":"levelo_inurba_marseille","lat":43.32367,"lon":5.388836,"is_reserved":false,"is_disabled":false,"rental_uris":{"android":"levelo://app?vid=89c6dd0c-39ff-45d3-85c8-0b6339b9a0b9","ios":"levelo://app?vid=89c6dd0c-39ff-45d3-85c8-0b6339b9a0b9"},"vehicle_type_id":"4","last_reported":1691737583,"current_range_meters":28400,"station_id":"ce4bhqp2rcd13ifvqhog","pricing_plan_id":"free"},{"bike_id":"73fb65c0-13f2-466b-a6dd-7651ee8d062b","system_id":"levelo_inurba_marseille","lat":43.32368,"lon":5.38888,"is_reserved":false,"is_disabled":false,"rental_uris":{"android":"levelo://app?vid=73fb65c0-13f2-466b-a6dd-7651ee8d062b","ios":"levelo://app?vid=73fb65c0-13f2-466b-a6dd-7651ee8d062b"},"vehicle_type_id":"4","last_reported":1691737583,"current_range_meters":4800,"station_id":"ce4bhqp2rcd13ifvqhog","pricing_plan_id":"free"},{"bike_id":"9d00e520-eb91-45a8-beeb-515982f057e8","system_id":"levelo_inurba_marseille","lat":43.29597,"lon":5.38098,"is_reserved":false,"is_disabled":false,"rental_uris":{"android":"levelo://app?vid=9d00e520-eb91-45a8-beeb-515982f057e8","ios":"levelo://app?vid=9d00e520-eb91-45a8-beeb-515982f057e8"},"vehicle_type_id":"4","last_reported":1691737583,"current_range_meters":22000,"station_id":"ce4bgl12rcd13ifvqbo0","pricing_plan_id":"free"},{"bike_id":"9e915be3-2d90-405b-b482-fc1d08cf7e32","system_id":"levelo_inurba_marseille","lat":43.29581,"lon":5.38092,"is_reserved":false,"is_disabled":false,"rental_uris":{"android":"levelo://app?vid=9e915be3-2d90-405b-b482-fc1d08cf7e32","ios":"levelo://app?vid=9e915be3-2d90-405b-b482-fc1d08cf7e32"},"vehicle_type_id":"4","last_reported":1691737583,"current_range_meters":3600,"station_id":"ce4bgl12rcd13ifvqbo0","pricing_plan_id":"free"},{"bike_id":"e73a3adc-a012-4ad2-be01-b64a3de83b8b","system_id":"levelo_inurba_marseille","lat":43.292749,"lon":5.368402,"is_reserved":false,"is_disabled":false,"rental_uris":{"android":"levelo://app?vid=e73a3adc-a012-4ad2-be01-b64a3de83b8b","ios":"levelo://app?vid=e73a3adc-a012-4ad2-be01-b64a3de83b8b"},"vehicle_type_id":"4","last_reported":1691737583,"current_range_meters":20400,"station_id":"ce4bhbp2rcd13ifvqesg","pricing_plan_id":"free"},{"bike_id":"f1202a22-9488-4f6b-8f1c-ffc50816eff0","system_id":"levelo_inurba_marseille","lat":43.292749,"lon":5.368398,"is_reserved":false,"is_disabled":false,"rental_uris":{"android":"levelo://app?vid=f1202a22-9488-4f6b-8f1c-ffc50816eff0","ios":"levelo://app?vid=f1202a22-9488-4f6b-8f1c-ffc50816eff0"},"vehicle_type_id":"4","last_reported":1691737583,"current_range_meters":30400,"station_id":"ce4bhbp2rcd13ifvqesg","pricing_plan_id":"free"},{"bike_id":"a2e6ab1c-61f6-44ce-ba84-fc1cc088d8e8","system_id":"levelo_inurba_marseille","lat":43.293249,"lon":5.371578,"is_reserved":false,"is_disabled":false,"rental_uris":{"android":"levelo://app?vid=a2e6ab1c-61f6-44ce-ba84-fc1cc088d8e8","ios":"levelo://app?vid=a2e6ab1c-61f6-44ce-ba84-fc1cc088d8e8"},"vehicle_type_id":"4","last_reported":1691737583,"current_range_meters":30400,"station_id":"ce4bgh92rcd13ifvqb40","pricing_plan_id":"free"},{"bike_id":"cb272ea6-831f-4c8a-a9c1-41b4787e996e","system_id":"levelo_inurba_marseille","lat":43.292749,"lon":5.368402,"is_reserved":false,"is_disabled":false,"rental_uris":{"android":"levelo://app?vid=cb272ea6-831f-4c8a-a9c1-41b4787e996e","ios":"levelo://app?vid=cb272ea6-831f-4c8a-a9c1-41b4787e996e"},"vehicle_type_id":"4","last_reported":1691737583,"current_range_meters":26400,"station_id":"ce4bhbp2rcd13ifvqesg","pricing_plan_id":"free"},{"bike_id":"dbe406a0-e31d-4174-932b-0d8d584d17c2","system_id":"levelo_inurba_marseille","lat":43.292749,"lon":5.368402,"is_reserved":false,"is_disabled":false,"rental_uris":{"android":"levelo://app?vid=dbe406a0-e31d-4174-932b-0d8d584d17c2","ios":"levelo://app?vid=dbe406a0-e31d-4174-932b-0d8d584d17c2"},"vehicle_type_id":"4","last_reported":1691737583,"current_range_meters":30800,"station_id":"ce4bhbp2rcd13ifvqesg","pricing_plan_id":"free"},{"bike_id":"afe0a519-9253-49c0-97c3-26d32846df8c","system_id":"levelo_inurba_marseille","lat":43.293249,"lon":5.371578,"is_reserved":false,"is_disabled":false,"rental_uris":{"android":"levelo://app?vid=afe0a519-9253-49c0-97c3-26d32846df8c","ios":"levelo://app?vid=afe0a519-9253-49c0-97c3-26d32846df8c"},"vehicle_type_id":"4","last_reported":1691737583,"current_range_meters":28400,"station_id":"ce4bgh92rcd13ifvqb40","pricing_plan_id":"free"},{"bike_id":"8161a1aa-5349-4068-9867-0bcdf04001ed","system_id":"levelo_inurba_marseille","lat":43.292749,"lon":5.368398,"is_reserved":false,"is_disabled":false,"rental_uris":{"android":"levelo://app?vid=8161a1aa-5349-4068-9867-0bcdf04001ed","ios":"levelo://app?vid=8161a1aa-5349-4068-9867-0bcdf04001ed"},"vehicle_type_id":"4","last_reported":1691737583,"current_range_meters":20800,"station_id":"ce4bhbp2rcd13ifvqesg","pricing_plan_id":"free"},{"bike_id":"6f951afb-22c6-454c-b714-4cec4373945d","system_id":"levelo_inurba_marseille","lat":43.29297,"lon":5.37456,"is_reserved":false,"is_disabled":false,"rental_uris":{"android":"levelo://app?vid=6f951afb-22c6-454c-b714-4cec4373945d","ios":"levelo://app?vid=6f951afb-22c6-454c-b714-4cec4373945d"},"vehicle_type_id":"4","last_reported":1691737583,"current_range_meters":20400,"station_id":"ce4bgi12rcd13ifvqb70","pricing_plan_id":"free"},{"bike_id":"c20d77ca-448d-4835-9697-dee5e9c1c37f","system_id":"levelo_inurba_marseille","lat":43.292951,"lon":5.374492,"is_reserved":false,"is_disabled":false,"rental_uris":{"android":"levelo://app?vid=c20d77ca-448d-4835-9697-dee5e9c1c37f","ios":"levelo://app?vid=c20d77ca-448d-4835-9697-dee5e9c1c37f"},"vehicle_type_id":"4","last_reported":1691737583,"current_range_meters":29600,"station_id":"ce4bgi12rcd13ifvqb70","pricing_plan_id":"free"},{"bike_id":"d9de324b-bd51-44ce-a7b7-1eaadc794eae","system_id":"levelo_inurba_marseille","lat":43.293009,"lon":5.374584,"is_reserved":false,"is_disabled":false,"rental_uris":{"android":"levelo://app?vid=d9de324b-bd51-44ce-a7b7-1eaadc794eae","ios":"levelo://app?vid=d9de324b-bd51-44ce-a7b7-1eaadc794eae"},"vehicle_type_id":"4","last_reported":1691737583,"current_range_meters":24800,"station_id":"ce4bgi12rcd13ifvqb70","pricing_plan_id":"free"},{"bike_id":"18cbbda3-a977-4866-9c1f-09559a7e8811","system_id":"levelo_inurba_marseille","lat":43.293009,"lon":5.374584,"is_reserved":false,"is_disabled":false,"rental_uris":{"android":"levelo://app?vid=18cbbda3-a977-4866-9c1f-09559a7e8811","ios":"levelo://app?vid=18cbbda3-a977-4866-9c1f-09559a7e8811"},"vehicle_type_id":"4","last_reported":1691737583,"current_range_meters":20000,"station_id":"ce4bgi12rcd13ifvqb70","pricing_plan_id":"free"},{"bike_id":"6d4a890e-5be4-4c97-b989-b442b8f7571a","system_id":"levelo_inurba_marseille","lat":43.293009,"lon":5.374584,"is_reserved":false,"is_disabled":false,"rental_uris":{"android":"levelo://app?vid=6d4a890e-5be4-4c97-b989-b442b8f7571a","ios":"levelo://app?vid=6d4a890e-5be4-4c97-b989-b442b8f7571a"},"vehicle_type_id":"4","last_reported":1691737583,"current_range_meters":16400,"station_id":"ce4bgi12rcd13ifvqb70","pricing_plan_id":"free"},{"bike_id":"ddaa4ae0-87f9-4791-8ed8-075fb487200d","system_id":"levelo_inurba_marseille","lat":43.293009,"lon":5.374584,"is_reserved":false,"is_disabled":false,"rental_uris":{"android":"levelo://app?vid=ddaa4ae0-87f9-4791-8ed8-075fb487200d","ios":"levelo://app?vid=ddaa4ae0-87f9-4791-8ed8-075fb487200d"},"vehicle_type_id":"4","last_reported":1691737583,"current_range_meters":20000,"station_id":"ce4bgi12rcd13ifvqb70","pricing_plan_id":"free"},{"bike_id":"478948b2-18d4-4c4a-9c39-738fa94a897f","system_id":"levelo_inurba_marseille","lat":43.29377,"lon":5.378386,"is_reserved":false,"is_disabled":false,"rental_uris":{"android":"levelo://app?vid=478948b2-18d4-4c4a-9c39-738fa94a897f","ios":"levelo://app?vid=478948b2-18d4-4c4a-9c39-738fa94a897f"},"vehicle_type_id":"4","last_reported":1691737583,"current_range_meters":12800,"station_id":"","pricing_plan_id":"free"},{"bike_id":"e0bb4914-fe0b-47eb-b2ab-def0e7842dd3","system_id":"levelo_inurba_marseille","lat":43.2936,"lon":5.37835,"is_reserved":false,"is_disabled":false,"rental_uris":{"android":"levelo://app?vid=e0bb4914-fe0b-47eb-b2ab-def0e7842dd3","ios":"levelo://app?vid=e0bb4914-fe0b-47eb-b2ab-def0e7842dd3"},"vehicle_type_id":"4","last_reported":1691737583,"current_range_meters":30400,"station_id":"ce4bgjh2rcd13ifvqbf0","pricing_plan_id":"free"},{"bike_id":"94838dc7-d5f3-4488-91bc-6205ecb8aebd","system_id":"levelo_inurba_marseille","lat":43.29371,"lon":5.37847,"is_reserved":false,"is_disabled":false,"rental_uris":{"android":"levelo://app?vid=94838dc7-d5f3-4488-91bc-6205ecb8aebd","ios":"levelo://app?vid=94838dc7-d5f3-4488-91bc-6205ecb8aebd"},"vehicle_type_id":"4","last_reported":1691737583,"current_range_meters":31200,"station_id":"ce4bgjh2rcd13ifvqbf0","pricing_plan_id":"free"},{"bike_id":"41ff7fce-f262-4c89-bfda-0077bbd8830c","system_id":"levelo_inurba_marseille","lat":43.29367,"lon":5.37855,"is_reserved":false,"is_disabled":false,"rental_uris":{"android":"levelo://app?vid=41ff7fce-f262-4c89-bfda-0077bbd8830c","ios":"levelo://app?vid=41ff7fce-f262-4c89-bfda-0077bbd8830c"},"vehicle_type_id":"4","last_reported":1691737583,"current_range_meters":16400,"station_id":"ce4bgjh2rcd13ifvqbf0","pricing_plan_id":"free"},{"bike_id":"a4a9c92f-a049-45e4-a46f-7ebe9f1cbfd3","system_id":"levelo_inurba_marseille","lat":43.29374,"lon":5.37894,"is_reserved":false,"is_disabled":false,"rental_uris":{"android":"levelo://app?vid=a4a9c92f-a049-45e4-a46f-7ebe9f1cbfd3","ios":"levelo://app?vid=a4a9c92f-a049-45e4-a46f-7ebe9f1cbfd3"},"vehicle_type_id":"4","last_reported":1691737583,"current_range_meters":29200,"station_id":"","pricing_plan_id":"free"},{"bike_id":"b4e9ee47-93e8-4986-9c51-9fa06774e821","system_id":"levelo_inurba_marseille","lat":43.292311,"lon":5.360731,"is_reserved":false,"is_disabled":false,"rental_uris":{"android":"levelo://app?vid=b4e9ee47-93e8-4986-9c51-9fa06774e821","ios":"levelo://app?vid=b4e9ee47-93e8-4986-9c51-9fa06774e821"},"vehicle_type_id":"4","last_reported":1691737583,"current_range_meters":20000,"station_id":"ce4bhbh2rcd13ifvqeqg","pricing_plan_id":"free"},{"bike_id":"41862354-6547-4cf8-b784-0b9ad457a48b","system_id":"levelo_inurba_marseille","lat":43.292311,"lon":5.360731,"is_reserved":false,"is_disabled":false,"rental_uris":{"android":"levelo://app?vid=41862354-6547-4cf8-b784-0b9ad457a48b","ios":"levelo://app?vid=41862354-6547-4cf8-b784-0b9ad457a48b"},"vehicle_type_id":"4","last_reported":1691737583,"current_range_meters":30800,"station_id":"ce4bhbh2rcd13ifvqeqg","pricing_plan_id":"free"},{"bike_id":"577140b0-e85e-460b-8fac-f58f7da4e103","system_id":"levelo_inurba_marseille","lat":43.292663,"lon":5.376389,"is_reserved":false,"is_disabled":false,"rental_uris":{"android":"levelo://app?vid=577140b0-e85e-460b-8fac-f58f7da4e103","ios":"levelo://app?vid=577140b0-e85e-460b-8fac-f58f7da4e103"},"vehicle_type_id":"4","last_reported":1691737583,"current_range_meters":30800,"station_id":"ce4bgi12rcd13ifvqb80","pricing_plan_id":"free"},{"bike_id":"966728a3-1b35-4395-8085-8f12736069b3","system_id":"levelo_inurba_marseille","lat":43.292663,"lon":5.376389,"is_reserved":false,"is_disabled":false,"rental_uris":{"android":"levelo://app?vid=966728a3-1b35-4395-8085-8f12736069b3","ios":"levelo://app?vid=966728a3-1b35-4395-8085-8f12736069b3"},"vehicle_type_id":"4","last_reported":1691737583,"current_range_meters":31200,"station_id":"ce4bgi12rcd13ifvqb80","pricing_plan_id":"free"},{"bike_id":"a475a1bc-de4b-40f0-be6e-af3b179f07fe","system_id":"levelo_inurba_marseille","lat":43.291675,"lon":5.371583,"is_reserved":false,"is_disabled":false,"rental_uris":{"android":"levelo://app?vid=a475a1bc-de4b-40f0-be6e-af3b179f07fe","ios":"levelo://app?vid=a475a1bc-de4b-40f0-be6e-af3b179f07fe"},"vehicle_type_id":"4","last_reported":1691737583,"current_range_meters":31200,"station_id":"ce4bha92rcd13ifvqeh0","pricing_plan_id":"free"},{"bike_id":"ffd315c0-42fe-4708-bf9f-88ff7dbc547d","system_id":"levelo_inurba_marseille","lat":43.292663,"lon":5.376389,"is_reserved":false,"is_disabled":false,"rental_uris":{"android":"levelo://app?vid=ffd315c0-42fe-4708-bf9f-88ff7dbc547d","ios":"levelo://app?vid=ffd315c0-42fe-4708-bf9f-88ff7dbc547d"},"vehicle_type_id":"4","last_reported":1691737583,"current_range_meters":14000,"station_id":"ce4bgi12rcd13ifvqb80","pricing_plan_id":"free"},{"bike_id":"f265783b-dab8-47b7-ae82-db6ac2e0ab72","system_id":"levelo_inurba_marseille","lat":43.291675,"lon":5.371583,"is_reserved":false,"is_disabled":false,"rental_uris":{"android":"levelo://app?vid=f265783b-dab8-47b7-ae82-db6ac2e0ab72","ios":"levelo://app?vid=f265783b-dab8-47b7-ae82-db6ac2e0ab72"},"vehicle_type_id":"4","last_reported":1691737583,"current_range_meters":28800,"station_id":"ce4bha92rcd13ifvqeh0","pricing_plan_id":"free"},{"bike_id":"0adb4f15-18f6-4295-a413-a5639423a566","system_id":"levelo_inurba_marseille","lat":43.291671,"lon":5.371575,"is_reserved":false,"is_disabled":false,"rental_uris":{"android":"levelo://app?vid=0adb4f15-18f6-4295-a413-a5639423a566","ios":"levelo://app?vid=0adb4f15-18f6-4295-a413-a5639423a566"},"vehicle_type_id":"4","last_reported":1691737583,"current_range_meters":20400,"station_id":"ce4bha92rcd13ifvqeh0","pricing_plan_id":"free"},{"bike_id":"775019f5-8c5f-47cc-b19f-756fdadae86c","system_id":"levelo_inurba_marseille","lat":43.291671,"lon":5.371575,"is_reserved":false,"is_disabled":false,"rental_uris":{"android":"levelo://app?vid=775019f5-8c5f-47cc-b19f-756fdadae86c","ios":"levelo://app?vid=775019f5-8c5f-47cc-b19f-756fdadae86c"},"vehicle_type_id":"4","last_reported":1691737583,"current_range_meters":20800,"station_id":"ce4bha92rcd13ifvqeh0","pricing_plan_id":"free"},{"bike_id":"fab86138-f88b-4731-95a7-b80e076482e6","system_id":"levelo_inurba_marseille","lat":43.29195,"lon":5.35799,"is_reserved":false,"is_disabled":false,"rental_uris":{"android":"levelo://app?vid=fab86138-f88b-4731-95a7-b80e076482e6","ios":"levelo://app?vid=fab86138-f88b-4731-95a7-b80e076482e6"},"vehicle_type_id":"4","last_reported":1691737583,"current_range_meters":22000,"station_id":"ce4bhb12rcd13ifvqel0","pricing_plan_id":"free"},{"bike_id":"340141d3-d378-43f2-a158-f20995193c21","system_id":"levelo_inurba_marseille","lat":43.29196,"lon":5.35794,"is_reserved":false,"is_disabled":false,"rental_uris":{"android":"levelo://app?vid=340141d3-d378-43f2-a158-f20995193c21","ios":"levelo://app?vid=340141d3-d378-43f2-a158-f20995193c21"},"vehicle_type_id":"4","last_reported":1691737583,"current_range_meters":30400,"station_id":"ce4bhb12rcd13ifvqel0","pricing_plan_id":"free"},