{"last_updated":1759180109,"ttl":60,"version":"2.2","data":{"bikes":[{"bike_id":"127733ab-91c8-4447-8cb0-3869c15b3ffb","system_id":"levelo_inurba_marseille","lat":43.24553,"lon":5.41003,"is_reserved":false,"is_disabled":false,"rental_uris":{"android":"levelo://app?vid=127733ab-91c8-4447-8cb0-3869c15b3ffb","ios":"levelo://app?vid=127733ab-91c8-4447-8cb0-3869c15b3ffb"},"vehicle_type_id":"4","last_reported":1759180109,"current_range_meters":2800,"station_id":"","pricing_plan_id":"cebpf4jnsgd1na2vs0mg"},{"bike_id":"e5c8585f-c52d-4c54-ab87-2d122db0fbd7","system_id":"levelo_inurba_marseille","lat":43.28719,"lon":5.36099,"is_reserved":false,"is_disabled":false,"rental_uris":{"android":"levelo://app?vid=e5c8585f-c52d-4c54-ab87-2d122db0fbd7","ios":"levelo://app?vid=e5c8585f-c52d-4c54-ab87-2d122db0fbd7"},"vehicle_type_id":"4","last_reported":1759180109,"current_range_meters":2800,"station_id":"cki0cbj6b192h4jlfktg","pricing_plan_id":"cebpf4jnsgd1na2vs0mg"},{"bike_id":"4fcf49da-ad50-414a-bda8-cbd36287dfda","system_id":"levelo_inurba_marseille","lat":43.2552,"lon":5.37617,"is_reserved":false,"is_disabled":true,"rental_uris":{"android":"levelo://app?vid=4fcf49da-ad50-414a-bda8-cbd36287dfda","ios":"levelo://app?vid=4fcf49da-ad50-414a-bda8-cbd36287dfda"},"vehicle_type_id":"4","last_reported":1759180109,"current_range_meters":3600,"station_id":"ce4bhh12rcd13ifvqff0","pricing_plan_id":"cebpf4jnsgd1na2vs0mg"},{"bike_id":"f4324fc5-2a1b-431d-9c30-8b3f35998fa8","system_id":"levelo_inurba_marseille","lat":43.30895,"lon":5.39645,"is_reserved":false,"is_disabled":true,"rental_uris":{"android":"levelo://app?vid=f4324fc5-2a1b-431d-9c30-8b3f35998fa8","ios":"levelo://app?vid=f4324fc5-2a1b-431d-9c30-8b3f35998fa8"},"vehicle_type_id":"4","last_reported":1759180109,"current_range_meters":3600,"station_id":"ce4bh012rcd13ifvqcv0","pricing_plan_id":"cebpf4jnsgd1na2vs0mg"},{"bike_id":"908e1318-dd18-47cf-a37d-3c6a0590e11e","system_id":"levelo_inurba_marseille","lat":43.30439,"lon":5.3974,"is_reserved":false,"is_disabled":false,"rental_uris":{"android":"levelo://app?vid=908e1318-dd18-47cf-a37d-3c6a0590e11e","ios":"levelo://app?vid=908e1318-dd18-47cf-a37d-3c6a0590e11e"},"vehicle_type_id":"4","last_reported":1759180109,"current_range_meters":5600,"station_id":"ce4bh092rcd13ifvqd20","pricing_plan_id":"cebpf4jnsgd1na2vs0mg"},{"bike_id":"17bbf4dd-fba9-4826-8c7d-9be0609a6e2f","system_id":"levelo_inurba_marseille","lat":43.30959,"lon":5.37642,"is_reserved":false,"is_disabled":false,"rental_uris":{"android":"levelo://app?vid=17bbf4dd-fba9-4826-8c7d-9be0609a6e2f","ios":"levelo://app?vid=17bbf4dd-fba9-4826-8c7d-9be0609a6e2f"},"vehicle_type_id":"4","last_reported":1759180109,"current_range_meters":5600,"station_id":"","pricing_plan_id":"cebpf4jnsgd1na2vs0mg"},{"bike_id":"6fe4c33e-3a18-4bf7-8357-dbc44d1d6f67","system_id":"levelo_inurba_marseille","lat":43.29632,"lon":5.40598,"is_reserved":false,"is_disabled":false,"rental_uris":{"android":"levelo://app?vid=6fe4c33e-3a18-4bf7-8357-dbc44d1d6f67","ios":"levelo://app?vid=6fe4c33e-3a18-4bf7-8357-dbc44d1d6f67"},"vehicle_type_id":"4","last_reported":1759180109,"current_range_meters":5600,"station_id":"ce4bh0h2rcd13ifvqd60","pricing_plan_id":"cebpf4jnsgd1na2vs0mg"},{"bike_id":"b1d171ee-309e-4622-8f4c-b13204167771","system_id":"levelo_inurba_marseille","lat":43.3199,"lon":5.38154,"is_reserved":false,"is_disabled":false,"rental_uris":{"android":"levelo://app?vid=b1d171ee-309e-4622-8f4c-b13204167771","ios":"levelo://app?vid=b1d171ee-309e-4622-8f4c-b13204167771"},"vehicle_type_id":"4","last_reported":1759180109,"current_range_meters":6000,"station_id":"ce4bhr12rcd13ifvqhpg","pricing_plan_id":"cebpf4jnsgd1na2vs0mg"},{"bike_id":"c9916796-5f07-4d22-aceb-87882fb08ac5","system_id":"levelo_inurba_marseille","lat":43.30586,"lon":5.36526,"is_reserved":false,"is_disabled":false,"rental_uris":{"android":"levelo://app?vid=c9916796-5f07-4d22-aceb-87882fb08ac5","ios":"levelo://app?vid=c9916796-5f07-4d22-aceb-87882fb08ac5"},"vehicle_type_id":"4","last_reported":1759180109,"current_range_meters":6400,"station_id":"ce4bgs12rcd13ifvqcag","pricing_plan_id":"cebpf4jnsgd1na2vs0mg"},{"bike_id":"8a4a8404-2223-404b-b9d6-fda388efd3eb","system_id":"levelo_inurba_marseille","lat":43.225399,"lon":5.348524,"is_reserved":false,"is_disabled":false,"rental_uris":{"android":"levelo://app?vid=8a4a8404-2223-404b-b9d6-fda388efd3eb","ios":"levelo://app?vid=8a4a8404-2223-404b-b9d6-fda388efd3eb"},"vehicle_type_id":"4","last_reported":1759180109,"current_range_meters":6400,"station_id":"","pricing_plan_id":"cebpf4jnsgd1na2vs0mg"},{"bike_id":"be7dae0d-94d7-4a0d-89d8-07c528e32b57","system_id":"levelo_inurba_marseille","lat":43.32591,"lon":5.390695,"is_reserved":false,"is_disabled":false,"rental_uris":{"android":"levelo://app?vid=be7dae0d-94d7-4a0d-89d8-07c528e32b57","ios":"levelo://app?vid=be7dae0d-94d7-4a0d-89d8-07c528e32b57"},"vehicle_type_id":"4","last_reported":1759180109,"current_range_meters":6400,"station_id":"","pricing_plan_id":"cebpf4jnsgd1na2vs0mg"},{"bike_id":"cacbb82b-99cc-4a6c-9057-b1092e9e1acf","system_id":"levelo_inurba_marseille","lat":43.30785,"lon":5.37642,"is_reserved":false,"is_disabled":false,"rental_uris":{"android":"levelo://app?vid=cacbb82b-99cc-4a6c-9057-b1092e9e1acf","ios":"levelo://app?vid=cacbb82b-99cc-4a6c-9057-b1092e9e1acf"},"vehicle_type_id":"4","last_reported":1759180109,"current_range_meters":6400,"station_id":"ce4bgv92rcd13ifvqcq0","pricing_plan_id":"cebpf4jnsgd1na2vs0mg"},{"bike_id":"258ab053-1083-4ca9-a32a-1e85f085fc22","system_id":"levelo_inurba_marseille","lat":43.337444,"lon":5.374475,"is_reserved":false,"is_disabled":false,"rental_uris":{"android":"levelo://app?vid=258ab053-1083-4ca9-a32a-1e85f085fc22","ios":"levelo://app?vid=258ab053-1083-4ca9-a32a-1e85f085fc22"},"vehicle_type_id":"4","last_reported":1759180109,"current_range_meters":6400,"station_id":"","pricing_plan_id":"cebpf4jnsgd1na2vs0mg"},{"bike_id":"8eba698c-1343-4776-a7ef-1194c9c853da","system_id":"levelo_inurba_marseille","lat":43.266,"lon":5.39346,"is_reserved":false,"is_disabled":false,"rental_uris":{"android":"levelo://app?vid=8eba698c-1343-4776-a7ef-1194c9c853da","ios":"levelo://app?vid=8eba698c-1343-4776-a7ef-1194c9c853da"},"vehicle_type_id":"4","last_reported":1759180109,"current_range_meters":6800,"station_id":"","pricing_plan_id":"cebpf4jnsgd1na2vs0mg"},{"bike_id":"cefe59df-2426-4a68-83cf-fcecbb3c8c98","system_id":"levelo_inurba_marseille","lat":43.30279,"lon":5.3965,"is_reserved":false,"is_disabled":true,"rental_uris":{"android":"levelo://app?vid=cefe59df-2426-4a68-83cf-fcecbb3c8c98","ios":"levelo://app?vid=cefe59df-2426-4a68-83cf-fcecbb3c8c98"},"vehicle_type_id":"4","last_reported":1759180109,"current_range_meters":6800,"station_id":"","pricing_plan_id":"cebpf4jnsgd1na2vs0mg"},{"bike_id":"a35a3b57-60cd-4039-b91c-827ce524ede5","system_id":"levelo_inurba_marseille","lat":43.29891,"lon":5.38894,"is_reserved":false,"is_disabled":false,"rental_uris":{"android":"levelo://app?vid=a35a3b57-60cd-4039-b91c-827ce524ede5","ios":"levelo://app?vid=a35a3b57-60cd-4039-b91c-827ce524ede5"},"vehicle_type_id":"4","last_reported":1759180109,"current_range_meters":6800,"station_id":"ce4bh392rcd13ifvqdl0","pricing_plan_id":"cebpf4jnsgd1na2vs0mg"},{"bike_id":"88702933-385e-493e-8cca-fab7fa0fcc27","system_id":"levelo_inurba_marseille","lat":43.24184,"lon":5.39726,"is_reserved":false,"is_disabled":false,"rental_uris":{"android":"levelo://app?vid=88702933-385e-493e-8cca-fab7fa0fcc27","ios":"levelo://app?vid=88702933-385e-493e-8cca-fab7fa0fcc27"},"vehicle_type_id":"4","last_reported":1759180109,"current_range_meters":6800,"station_id":"ce4bhn12rcd13ifvqgpg","pricing_plan_id":"cebpf4jnsgd1na2vs0mg"},{"bike_id":"2dff6920-cf38-44b7-a98d-fcf5af85634c","system_id":"levelo_inurba_marseille","lat":43.26229,"lon":5.40449,"is_reserved":false,"is_disabled":false,"rental_uris":{"android":"levelo://app?vid=2dff6920-cf38-44b7-a98d-fcf5af85634c","ios":"levelo://app?vid=2dff6920-cf38-44b7-a98d-fcf5af85634c"},"vehicle_type_id":"4","last_reported":1759180109,"current_range_meters":6800,"station_id":"ce4bhmh2rcd13ifvqgmg","pricing_plan_id":"cebpf4jnsgd1na2vs0mg"},{"bike_id":"8b353c9e-13c5-42ee-a76f-ccbd6269a3dc","system_id":"levelo_inurba_marseille","lat":43.30444,"lon":5.36689,"is_reserved":false,"is_disabled":false,"rental_uris":{"android":"levelo://app?vid=8b353c9e-13c5-42ee-a76f-ccbd6269a3dc","ios":"levelo://app?vid=8b353c9e-13c5-42ee-a76f-ccbd6269a3dc"},"vehicle_type_id":"4","last_reported":1759180109,"current_range_meters":7200,"station_id":"","pricing_plan_id":"cebpf4jnsgd1na2vs0mg"},{"bike_id":"2c6518be-b3f0-42d2-93c9-c1de9e54885f","system_id":"levelo_inurba_marseille","lat":43.29227,"lon":5.38219,"is_reserved":false,"is_disabled":false,"rental_uris":{"android":"levelo://app?vid=2c6518be-b3f0-42d2-93c9-c1de9e54885f","ios":"levelo://app?vid=2c6518be-b3f0-42d2-93c9-c1de9e54885f"},"vehicle_type_id":"4","last_reported":1759180109,"current_range_meters":7200,"station_id":"","pricing_plan_id":"cebpf4jnsgd1na2vs0mg"},{"bike_id":"ee96a502-9b76-492e-840a-498b02aefe72","system_id":"levelo_inurba_marseille","lat":43.32355,"lon":5.39217,"is_reserved":false,"is_disabled":false,"rental_uris":{"android":"levelo://app?vid=ee96a502-9b76-492e-840a-498b02aefe72","ios":"levelo://app?vid=ee96a502-9b76-492e-840a-498b02aefe72"},"vehicle_type_id":"4","last_reported":1759180109,"current_range_meters":7200,"station_id":"","pricing_plan_id":"cebpf4jnsgd1na2vs0mg"},{"bike_id":"c2ea9c6c-25a9-4891-ae25-2c0cbae3ee69","system_id":"levelo_inurba_marseille","lat":43.30213,"lon":5.39461,"is_reserved":false,"is_disabled":false,"rental_uris":{"android":"levelo://app?vid=c2ea9c6c-25a9-4891-ae25-2c0cbae3ee69","ios":"levelo://app?vid=c2ea9c6c-25a9-4891-ae25-2c0cbae3ee69"},"vehicle_type_id":"4","last_reported":1759180109,"current_range_meters":7200,"station_id":"ce4bh0p2rcd13ifvqd70","pricing_plan_id":"cebpf4jnsgd1na2vs0mg"},{"bike_id":"da0f26e9-0bdb-4063-b9f5-dcfb6728a88e","system_id":"levelo_inurba_marseille","lat":43.22972,"lon":5.35317,"is_reserved":false,"is_disabled":true,"rental_uris":{"android":"levelo://app?vid=da0f26e9-0bdb-4063-b9f5-dcfb6728a88e","ios":"levelo://app?vid=da0f26e9-0bdb-4063-b9f5-dcfb6728a88e"},"vehicle_type_id":"4","last_reported":1759180109,"current_range_meters":7200,"station_id":"","pricing_plan_id":"cebpf4jnsgd1na2vs0mg"},{"bike_id":"1dad2113-89e2-44fc-a0b6-ddd6a09baff1","system_id":"levelo_inurba_marseille","lat":43.337444,"lon":5.374475,"is_reserved":false,"is_disabled":false,"rental_uris":{"android":"levelo://app?vid=1dad2113-89e2-44fc-a0b6-ddd6a09baff1","ios":"levelo://app?vid=1dad2113-89e2-44fc-a0b6-ddd6a09baff1"},"vehicle_type_id":"4","last_reported":1759180109,"current_range_meters":7200,"station_id":"","pricing_plan_id":"cebpf4jnsgd1na2vs0mg"},{"bike_id":"c29764c0-1ed4-42eb-865a-0c49767897dc","system_id":"levelo_inurba_marseille","lat":43.25354,"lon":5.42149,"is_reserved":false,"is_disabled":true,"rental_uris":{"android":"levelo://app?vid=c29764c0-1ed4-42eb-865a-0c49767897dc","ios":"levelo://app?vid=c29764c0-1ed4-42eb-865a-0c49767897dc"},"vehicle_type_id":"4","last_reported":1759180109,"current_range_meters":8000,"station_id":"st_d2m65c5bi1j21697t3ng","pricing_plan_id":"cebpf4jnsgd1na2vs0mg"},{"bike_id":"40236316-2370-40d7-a39c-4b4605d39d6c","system_id":"levelo_inurba_marseille","lat":43.28457,"lon":5.3588,"is_reserved":false,"is_disabled":false,"rental_uris":{"android":"levelo://app?vid=40236316-2370-40d7-a39c-4b4605d39d6c","ios":"levelo://app?vid=40236316-2370-40d7-a39c-4b4605d39d6c"},"vehicle_type_id":"4","last_reported":1759180109,"current_range_meters":8400,"station_id":"ce4bhah2rcd13ifvqei0","pricing_plan_id":"cebpf4jnsgd1na2vs0mg"},{"bike_id":"511cc80f-04a6-4a9f-afdd-004129d93b1f","system_id":"levelo_inurba_marseille","lat":43.2663,"lon":5.3939,"is_reserved":false,"is_disabled":false,"rental_uris":{"android":"levelo://app?vid=511cc80f-04a6-4a9f-afdd-004129d93b1f","ios":"levelo://app?vid=511cc80f-04a6-4a9f-afdd-004129d93b1f"},"vehicle_type_id":"4","last_reported":1759180109,"current_range_meters":8400,"station_id":"","pricing_plan_id":"cebpf4jnsgd1na2vs0mg"},{"bike_id":"d86446ad-6e4e-43ef-943a-4d0b1c9bdca7","system_id":"levelo_inurba_marseille","lat":43.25145,"lon":5.3945,"is_reserved":false,"is_disabled":false,"rental_uris":{"android":"levelo://app?vid=d86446ad-6e4e-43ef-943a-4d0b1c9bdca7","ios":"levelo://app?vid=d86446ad-6e4e-43ef-943a-4d0b1c9bdca7"},"vehicle_type_id":"4","last_reported":1759180109,"current_range_meters":8400,"station_id":"","pricing_plan_id":"cebpf4jnsgd1na2vs0mg"},{"bike_id":"03350417-1098-4d6c-b8fe-9e64358744bf","system_id":"levelo_inurba_marseille","lat":43.31134,"lon":5.37592,"is_reserved":false,"is_disabled":false,"rental_uris":{"android":"levelo://app?vid=03350417-1098-4d6c-b8fe-9e64358744bf","ios":"levelo://app?vid=03350417-1098-4d6c-b8fe-9e64358744bf"},"vehicle_type_id":"4","last_reported":1759180109,"current_range_meters":8400,"station_id":"","pricing_plan_id":"cebpf4jnsgd1na2vs0mg"},{"bike_id":"ca660db5-13a2-4b17-89f6-c4a43f402701","system_id":"levelo_inurba_marseille","lat":43.30608,"lon":5.3723,"is_reserved":false,"is_disabled":false,"rental_uris":{"android":"levelo://app?vid=ca660db5-13a2-4b17-89f6-c4a43f402701","ios":"levelo://app?vid=ca660db5-13a2-4b17-89f6-c4a43f402701"},"vehicle_type_id":"4","last_reported":1759180109,"current_range_meters":6800,"station_id":"ce4bgqh2rcd13ifvqc4g","pricing_plan_id":"cebpf4jnsgd1na2vs0mg"},{"bike_id":"03e38958-02d9-431c-aa26-c4e1013a7cf3","system_id":"levelo_inurba_marseille","lat":43.28868,"lon":5.42509,"is_reserved":false,"is_disabled":false,"rental_uris":{"android":"levelo://app?vid=03e38958-02d9-431c-aa26-c4e1013a7cf3","ios":"levelo://app?vid=03e38958-02d9-431c-aa26-c4e1013a7cf3"},"vehicle_type_id":"4","last_reported":1759180109,"current_range_meters":8800,"station_id":"st_d3b462108ojc7389ooeg","pricing_plan_id":"cebpf4jnsgd1na2vs0mg"},{"bike_id":"b17feaf8-f1f6-4569-a6fc-fc60277ff4ff","system_id":"levelo_inurba_marseille","lat":43.32372,"lon":5.3679,"is_reserved":false,"is_disabled":false,"rental_uris":{"android":"levelo://app?vid=b17feaf8-f1f6-4569-a6fc-fc60277ff4ff","ios":"levelo://app?vid=b17feaf8-f1f6-4569-a6fc-fc60277ff4ff"},"vehicle_type_id":"4","last_reported":1759180109,"current_range_meters":8800,"station_id":"ce4bhsh2rcd13ifvqi2g","pricing_plan_id":"cebpf4jnsgd1na2vs0mg"},{"bike_id":"35e8f722-b82a-4247-beb8-7e2827829ce6","system_id":"levelo_inurba_marseille","lat":43.32405,"lon":5.3911,"is_reserved":false,"is_disabled":false,"rental_uris":{"android":"levelo://app?vid=35e8f722-b82a-4247-beb8-7e2827829ce6","ios":"levelo://app?vid=35e8f722-b82a-4247-beb8-7e2827829ce6"},"vehicle_type_id":"4","last_reported":1759180109,"current_range_meters":8800,"station_id":"","pricing_plan_id":"cebpf4jnsgd1na2vs0mg"},{"bike_id":"e5378695-fba9-432a-9cfb-3b5b05e40fec","system_id":"levelo_inurba_marseille","lat":43.337986,"lon":5.374304,"is_reserved":false,"is_disabled":false,"rental_uris":{"android":"levelo://app?vid=e5378695-fba9-432a-9cfb-3b5b05e40fec","ios":"levelo://app?vid=e5378695-fba9-432a-9cfb-3b5b05e40fec"},"vehicle_type_id":"4","last_reported":1759180109,"current_range_meters":8800,"station_id":"","pricing_plan_id":"cebpf4jnsgd1na2vs0mg"},{"bike_id":"c1e0129c-7fc2-4a2a-9c11-1a75b7c82b47","system_id":"levelo_inurba_marseille","lat":43.27917,"lon":5.39584,"is_reserved":false,"is_disabled":false,"rental_uris":{"android":"levelo://app?vid=c1e0129c-7fc2-4a2a-9c11-1a75b7c82b47","ios":"levelo://app?vid=c1e0129c-7fc2-4a2a-9c11-1a75b7c82b47"},"vehicle_type_id":"4","last_reported":1759180109,"current_range_meters":9200,"station_id":"ce4bhf92rcd13ifvqf40","pricing_plan_id":"cebpf4jnsgd1na2vs0mg"},{"bike_id":"d7d09523-34bb-44d2-9695-02f0abea9b47","system_id":"levelo_inurba_marseille","lat":43.29755,"lon":5.37905,"is_reserved":false,"is_disabled":false,"rental_uris":{"android":"levelo://app?vid=d7d09523-34bb-44d2-9695-02f0abea9b47","ios":"levelo://app?vid=d7d09523-34bb-44d2-9695-02f0abea9b47"},"vehicle_type_id":"4","last_reported":1759180109,"current_range_meters":9200,"station_id":"","pricing_plan_id":"cebpf4jnsgd1na2vs0mg"},{"bike_id":"45cd9e73-8786-4978-9923-6422323a7327","system_id":"levelo_inurba_marseille","lat":43.25596,"lon":5.38216,"is_reserved":false,"is_disabled":true,"rental_uris":{"android":"levelo://app?vid=45cd9e73-8786-4978-9923-6422323a7327","ios":"levelo://app?vid=45cd9e73-8786-4978-9923-6422323a7327"},"vehicle_type_id":"4","last_reported":1759180109,"current_range_meters":9200,"station_id":"ce4bhih2rcd13ifvqfs0","pricing_plan_id":"cebpf4jnsgd1na2vs0mg"},{"bike_id":"c47f5c3e-1ff3-43b7-b740-1c081ef57305","system_id":"levelo_inurba_marseille","lat":43.29647,"lon":5.376,"is_reserved":false,"is_disabled":false,"rental_uris":{"android":"levelo://app?vid=c47f5c3e-1ff3-43b7-b740-1c081ef57305","ios":"levelo://app?vid=c47f5c3e-1ff3-43b7-b740-1c081ef57305"},"vehicle_type_id":"4","last_reported":1759180109,"current_range_meters":10000,"station_id":"","pricing_plan_id":"cebpf4jnsgd1na2vs0mg"},{"bike_id":"44cc4359-e7b3-48af-83b4-65edd912ef63","system_id":"levelo_inurba_marseille","lat":43.28156,"lon":5.4264,"is_reserved":false,"is_disabled":true,"rental_uris":{"android":"levelo://app?vid=44cc4359-e7b3-48af-83b4-65edd912ef63","ios":"levelo://app?vid=44cc4359-e7b3-48af-83b4-65edd912ef63"},"vehicle_type_id":"4","last_reported":1759180109,"current_range_meters":10000,"station_id":"ce4bhnh2rcd13ifvqgug","pricing_plan_id":"cebpf4jnsgd1na2vs0mg"},{"bike_id":"d6c734f5-0e13-46a8-8e3e-fda40abe4b7d","system_id":"levelo_inurba_marseille","lat":43.302139,"lon":5.394708,"is_reserved":false,"is_disabled":true,"rental_uris":{"android":"levelo://app?vid=d6c734f5-0e13-46a8-8e3e-fda40abe4b7d","ios":"levelo://app?vid=d6c734f5-0e13-46a8-8e3e-fda40abe4b7d"},"vehicle_type_id":"4","last_reported":1759180109,"current_range_meters":10000,"station_id":"ce4bhgh2rcd13ifvqfa0","pricing_plan_id":"cebpf4jnsgd1na2vs0mg"},{"bike_id":"80b98ce0-3233-47ce-84db-722943723d1e","system_id":"levelo_inurba_marseille","lat":43.269329,"lon":5.38928,"is_reserved":false,"is_disabled":false,"rental_uris":{"android":"levelo://app?vid=80b98ce0-3233-47ce-84db-722943723d1e","ios":"levelo://app?vid=80b98ce0-3233-47ce-84db-722943723d1e"},"vehicle_type_id":"4","last_reported":1759180109,"current_range_meters":10000,"station_id":"","pricing_plan_id":"cebpf4jnsgd1na2vs0mg"},{"bike_id":"9c4235da-d3d0-4056-aa6b-c6aa6e8e7367","system_id":"levelo_inurba_marseille","lat":43.30709,"lon":5.37542,"is_reserved":false,"is_disabled":false,"rental_uris":{"android":"levelo://app?vid=9c4235da-d3d0-4056-aa6b-c6aa6e8e7367","ios":"levelo://app?vid=9c4235da-d3d0-4056-aa6b-c6aa6e8e7367"},"vehicle_type_id":"4","last_reported":1759180109,"current_range_meters":10000,"station_id":"","pricing_plan_id":"cebpf4jnsgd1na2vs0mg"},{"bike_id":"ee6406f7-9f33-4935-a835-0f3904e54bc4","system_id":"levelo_inurba_marseille","lat":43.31875,"lon":5.37317,"is_reserved":false,"is_disabled":true,"rental_uris":{"android":"levelo://app?vid=ee6406f7-9f33-4935-a835-0f3904e54bc4","ios":"levelo://app?vid=ee6406f7-9f33-4935-a835-0f3904e54bc4"},"vehicle_type_id":"4","last_reported":1759180109,"current_range_meters":10800,"station_id":"ce4bgt12rcd13ifvqcd0","pricing_plan_id":"cebpf4jnsgd1na2vs0mg"},{"bike_id":"831e6a54-bde0-4f77-80bc-8857d66d3744","system_id":"levelo_inurba_marseille","lat":43.27971,"lon":5.41041,"is_reserved":false,"is_disabled":true,"rental_uris":{"android":"levelo://app?vid=831e6a54-bde0-4f77-80bc-8857d66d3744","ios":"levelo://app?vid=831e6a54-bde0-4f77-80bc-8857d66d3744"},"vehicle_type_id":"4","last_reported":1759180109,"current_range_meters":10800,"station_id":"ce4bhnp2rcd13ifvqh0g","pricing_plan_id":"cebpf4jnsgd1na2vs0mg"},{"bike_id":"10176dad-e77f-4f18-8cea-556decfc72aa","system_id":"levelo_inurba_marseille","lat":43.21782,"lon":5.34572,"is_reserved":false,"is_disabled":false,"rental_uris":{"android":"levelo://app?vid=10176dad-e77f-4f18-8cea-556decfc72aa","ios":"levelo://app?vid=10176dad-e77f-4f18-8cea-556decfc72aa"},"vehicle_type_id":"4","last_reported":1759180109,"current_range_meters":10800,"station_id":"st_cvj6r9ubvosntc0bgbag","pricing_plan_id":"cebpf4jnsgd1na2vs0mg"},{"bike_id":"ea59b303-6900-42ad-9e79-5b0f95bedd6c","system_id":"levelo_inurba_marseille","lat":43.30442,"lon":5.36859,"is_reserved":false,"is_disabled":false,"rental_uris":{"android":"levelo://app?vid=ea59b303-6900-42ad-9e79-5b0f95bedd6c","ios":"levelo://app?vid=ea59b303-6900-42ad-9e79-5b0f95bedd6c"},"vehicle_type_id":"4","last_reported":1759180109,"current_range_meters":10800,"station_id":"","pricing_plan_id":"cebpf4jnsgd1na2vs0mg"},{"bike_id":"ce5e157e-4ef2-4c41-9b3b-54d3eecbfa45","system_id":"levelo_inurba_marseille","lat":43.22535,"lon":5.34846,"is_reserved":false,"is_disabled":false,"rental_uris":{"android":"levelo://app?vid=ce5e157e-4ef2-4c41-9b3b-54d3eecbfa45","ios":"levelo://app?vid=ce5e157e-4ef2-4c41-9b3b-54d3eecbfa45"},"vehicle_type_id":"4","last_reported":1759180109,"current_range_meters":10800,"station_id":"","pricing_plan_id":"cebpf4jnsgd1na2vs0mg"},{"bike_id":"5d3b0264-1d65-4545-8866-aa7c894c688f","system_id":"levelo_inurba_marseille","lat":43.240714,"lon":5.377632,"is_reserved":false,"is_disabled":false,"rental_uris":{"android":"levelo://app?vid=5d3b0264-1d65-4545-8866-aa7c894c688f","ios":"levelo://app?vid=5d3b0264-1d65-4545-8866-aa7c894c688f"},"vehicle_type_id":"4","last_reported":1759180109,"current_range_meters":11200,"station_id":"ce4bhnp2rcd13ifvqgvg","pricing_plan_id":"cebpf4jnsgd1na2vs0mg"},{"bike_id":"62a0f272-72a0-40fe-a337-adc582f714e0","system_id":"levelo_inurba_marseille","lat":43.26565,"lon":5.38995,"is_reserved":false,"is_disabled":false,"rental_uris":{"android":"levelo://app?vid=62a0f272-72a0-40fe-a337-adc582f714e0","ios":"levelo://app?vid=62a0f272-72a0-40fe-a337-adc582f714e0"},"vehicle_type_id":"4","last_reported":1759180109,"current_range_meters":11200,"station_id":"ce4bhe12rcd13ifvqf30","pricing_plan_id":"cebpf4jnsgd1na2vs0mg"},{"bike_id":"8ee6d722-eebe-4bb7-bf33-e59fa8915cab","system_id":"levelo_inurba_marseille","lat":43.26557,"lon":5.3728,"is_reserved":false,"is_disabled":false,"rental_uris":{"android":"levelo://app?vid=8ee6d722-eebe-4bb7-bf33-e59fa8915cab","ios":"levelo://app?vid=8ee6d722-eebe-4bb7-bf33-e59fa8915cab"},"vehicle_type_id":"4","last_reported":1759180109,"current_range_meters":11200,"station_id":"ce4bhg12rcd13ifvqf70","pricing_plan_id":"cebpf4jnsgd1na2vs0mg"},{"bike_id":"0eda2527-f3ce-4552-96df-04220f592c11","system_id":"levelo_inurba_marseille","lat":43.21192,"lon":5.35065,"is_reserved":false,"is_disabled":false,"rental_uris":{"android":"levelo://app?vid=0eda2527-f3ce-4552-96df-04220f592c11","ios":"levelo://app?vid=0eda2527-f3ce-4552-96df-04220f592c11"},"vehicle_type_id":"4","last_reported":1759180109,"current_range_meters":11200,"station_id":"st_cvj6sg6p6f1abm77japg","pricing_plan_id":"cebpf4jnsgd1na2vs0mg"},{"bike_id":"0030cf69-75f8-4719-a372-efc52bdb748a","system_id":"levelo_inurba_marseille","lat":43.32904,"lon":5.45419,"is_reserved":false,"is_disabled":false,"rental_uris":{"android":"levelo://app?vid=0030cf69-75f8-4719-a372-efc52bdb748a","ios":"levelo://app?vid=0030cf69-75f8-4719-a372-efc52bdb748a"},"vehicle_type_id":"4","last_reported":1759180109,"current_range_meters":11600,"station_id":"","pricing_plan_id":"cebpf4jnsgd1na2vs0mg"},{"bike_id":"e9b91269-4470-4656-8c66-56452870470a","system_id":"levelo_inurba_marseille","lat":43.24812,"lon":5.37458,"is_reserved":false,"is_disabled":false,"rental_uris":{"android":"levelo://app?vid=e9b91269-4470-4656-8c66-56452870470a","ios":"levelo://app?vid=e9b91269-4470-4656-8c66-56452870470a"},"vehicle_type_id":"4","last_reported":1759180109,"current_range_meters":11600,"station_id":"ce4bhgh2rcd13ifvqfb0","pricing_plan_id":"cebpf4jnsgd1na2vs0mg"},{"bike_id":"7dc10ae7-7366-4aef-afb3-946c513f88ef","system_id":"levelo_inurba_marseille","lat":43.28013,"lon":5.36386,"is_reserved":false,"is_disabled":false,"rental_uris":{"android":"levelo://app?vid=7dc10ae7-7366-4aef-afb3-946c513f88ef","ios":"levelo://app?vid=7dc10ae7-7366-4aef-afb3-946c513f88ef"},"vehicle_type_id":"4","last_reported":1759180109,"current_range_meters":11600,"station_id":"ce4bha12rcd13ifvqef0","pricing_plan_id":"cebpf4jnsgd1na2vs0mg"},{"bike_id":"f6e8cf02-4ec8-4f47-83dd-ddd84fe62208","system_id":"levelo_inurba_marseille","lat":43.23213,"lon":5.39928,"is_reserved":false,"is_disabled":false,"rental_uris":{"android":"levelo://app?vid=f6e8cf02-4ec8-4f47-83dd-ddd84fe62208","ios":"levelo://app?vid=f6e8cf02-4ec8-4f47-83dd-ddd84fe62208"},"vehicle_type_id":"4","last_reported":1759180109,"current_range_meters":11600,"station_id":"","pricing_plan_id":"cebpf4jnsgd1na2vs0mg"},{"bike_id":"7952d0c5-c3b4-4c29-bacd-f59ef155894d","system_id":"levelo_inurba_marseille","lat":43.309025,"lon":5.381673,"is_reserved":false,"is_disabled":false,"rental_uris":{"android":"levelo://app?vid=7952d0c5-c3b4-4c29-bacd-f59ef155894d","ios":"levelo://app?vid=7952d0c5-c3b4-4c29-bacd-f59ef155894d"},"vehicle_type_id":"4","last_reported":1759180109,"current_range_meters":11600,"station_id":"","pricing_plan_id":"cebpf4jnsgd1na2vs0mg"},{"bike_id":"16736934-dfee-4899-9572-c856d9cb8245","system_id":"levelo_inurba_marseille","lat":43.27831,"lon":5.40716,"is_reserved":false,"is_disabled":false,"rental_uris":{"android":"levelo://app?vid=16736934-dfee-4899-9572-c856d9cb8245","ios":"levelo://app?vid=16736934-dfee-4899-9572-c856d9cb8245"},"vehicle_type_id":"4","last_reported":1759180109,"current_range_meters":11600,"station_id":"ce4bhnh2rcd13ifvqgtg","pricing_plan_id":"cebpf4jnsgd1na2vs0mg"},{"bike_id":"c627b34a-8e81-4438-af3b-4fd0aab1c160","system_id":"levelo_inurba_marseille","lat":43.29662,"lon":5.36026,"is_reserved":false,"is_disabled":false,"rental_uris":{"android":"levelo://app?vid=c627b34a-8e81-4438-af3b-4fd0aab1c160","ios":"levelo://app?vid=c627b34a-8e81-4438-af3b-4fd0aab1c160"},"vehicle_type_id":"4","last_reported":1759180109,"current_range_meters":11600,"station_id":"","pricing_plan_id":"cebpf4jnsgd1na2vs0mg"},{"bike_id":"a07a513e-e5a9-4481-8592-d991379bc662","system_id":"levelo_inurba_marseille","lat":43.33735,"lon":5.37481,"is_reserved":false,"is_disabled":false,"rental_uris":{"android":"levelo://app?vid=a07a513e-e5a9-4481-8592-d991379bc662","ios":"levelo://app?vid=a07a513e-e5a9-4481-8592-d991379bc662"},"vehicle_type_id":"4","last_reported":1759180109,"current_range_meters":11600,"station_id":"","pricing_plan_id":"cebpf4jnsgd1na2vs0mg"},{"bike_id":"503988b7-a021-44c8-8c31-e0197da6141b","system_id":"levelo_inurba_marseille","lat":43.28851,"lon":5.39308,"is_reserved":false,"is_disabled":false,"rental_uris":{"android":"levelo://app?vid=503988b7-a021-44c8-8c31-e0197da6141b","ios":"levelo://app?vid=503988b7-a021-44c8-8c31-e0197da6141b"},"vehicle_type_id":"4","last_reported":1759180109,"current_range_meters":12000,"station_id":"ce4bh2p2rcd13ifvqdi0","pricing_plan_id":"cebpf4jnsgd1na2vs0mg"},{"bike_id":"08897f5d-483e-4ffa-b1bb-f13bc5f35002","system_id":"levelo_inurba_marseille","lat":43.28082,"lon":5.39616,"is_reserved":false,"is_disabled":false,"rental_uris":{"android":"levelo://app?vid=08897f5d-483e-4ffa-b1bb-f13bc5f35002","ios":"levelo://app?vid=08897f5d-483e-4ffa-b1bb-f13bc5f35002"},"vehicle_type_id":"4","last_reported":1759180109,"current_range_meters":12000,"station_id":"ce4bho12rcd13ifvqh2g","pricing_plan_id":"cebpf4jnsgd1na2vs0mg"},{"bike_id":"2a727ecf-da3d-4f61-b341-a5ed7e465a23","system_id":"levelo_inurba_marseille","lat":43.28005,"lon":5.40009,"is_reserved":false,"is_disabled":false,"rental_uris":{"android":"levelo://app?vid=2a727ecf-da3d-4f61-b341-a5ed7e465a23","ios":"levelo://app?vid=2a727ecf-da3d-4f61-b341-a5ed7e465a23"},"vehicle_type_id":"4","last_reported":1759180109,"current_range_meters":12000,"station_id":"ce4bho92rcd13ifvqh4g","pricing_plan_id":"cebpf4jnsgd1na2vs0mg"},{"bike_id":"fe7c339b-81a8-4a59-b339-9d30aae20d0f","system_id":"levelo_inurba_marseille","lat":43.25354,"lon":5.42152,"is_reserved":false,"is_disabled":false,"rental_uris":{"android":"levelo://app?vid=fe7c339b-81a8-4a59-b339-9d30aae20d0f","ios":"levelo://app?vid=fe7c339b-81a8-4a59-b339-9d30aae20d0f"},"vehicle_type_id":"4","last_reported":1759180109,"current_range_meters":12000,"station_id":"st_d2m65c5bi1j21697t3ng","pricing_plan_id":"cebpf4jnsgd1na2vs0mg"},{"bike_id":"bf58ee76-5d44-45bf-a050-4047b9fca130","system_id":"levelo_inurba_marseille","lat":43.28736,"lon":5.37371,"is_reserved":false,"is_disabled":false,"rental_uris":{"android":"levelo://app?vid=bf58ee76-5d44-45bf-a050-4047b9fca130","ios":"levelo://app?vid=bf58ee76-5d44-45bf-a050-4047b9fca130"},"vehicle_type_id":"4","last_reported":1759180109,"current_range_meters":12000,"station_id":"ce4bh3p2rcd13ifvqdq0","pricing_plan_id":"cebpf4jnsgd1na2vs0mg"},{"bike_id":"2698c3c3-4f41-480c-b3bd-bf477fd82bf2","system_id":"levelo_inurba_marseille","lat":43.2872,"lon":5.37389,"is_reserved":false,"is_disabled":false,"rental_uris":{"android":"levelo://app?vid=2698c3c3-4f41-480c-b3bd-bf477fd82bf2","ios":"levelo://app?vid=2698c3c3-4f41-480c-b3bd-bf477fd82bf2"},"vehicle_type_id":"4","last_reported":1759180109,"current_range_meters":12000,"station_id":"ce4bh3p2rcd13ifvqdq0","pricing_plan_id":"cebpf4jnsgd1na2vs0mg"},{"bike_id":"4e2b67a9-2363-4346-a116-df23989a8449","system_id":"levelo_inurba_marseille","lat":43.291754,"lon":5.388371,"is_reserved":false,"is_disabled":false,"rental_uris":{"android":"levelo://app?vid=4e2b67a9-2363-4346-a116-df23989a8449","ios":"levelo://app?vid=4e2b67a9-2363-4346-a116-df23989a8449"},"vehicle_type_id":"4","last_reported":1759180109,"current_range_meters":12000,"station_id":"","pricing_plan_id":"cebpf4jnsgd1na2vs0mg"},{"bike_id":"b7a31384-0f80-458b-a37b-5d574bd125d8","system_id":"levelo_inurba_marseille","lat":43.31324,"lon":5.39696,"is_reserved":false,"is_disabled":false,"rental_uris":{"android":"levelo://app?vid=b7a31384-0f80-458b-a37b-5d574bd125d8","ios":"levelo://app?vid=b7a31384-0f80-458b-a37b-5d574bd125d8"},"vehicle_type_id":"4","last_reported":1759180109,"current_range_meters":12400,"station_id":"ce4bgvp2rcd13ifvqcu0","pricing_plan_id":"cebpf4jnsgd1na2vs0mg"},{"bike_id":"385fa573-6758-43e7-a2f4-f27be30ea572","system_id":"levelo_inurba_marseille","lat":43.32107,"lon":5.36767,"is_reserved":false,"is_disabled":false,"rental_uris":{"android":"levelo://app?vid=385fa573-6758-43e7-a2f4-f27be30ea572","ios":"levelo://app?vid=385fa573-6758-43e7-a2f4-f27be30ea572"},"vehicle_type_id":"4","last_reported":1759180109,"current_range_meters":12400,"station_id":"ce4bhrh2rcd13ifvqhug","pricing_plan_id":"cebpf4jnsgd1na2vs0mg"},{"bike_id":"b6dd4604-e40c-41f3-8232-5238b72d1d40","system_id":"levelo_inurba_marseille","lat":43.3089,"lon":5.39638,"is_reserved":false,"is_disabled":false,"rental_uris":{"android":"levelo://app?vid=b6dd4604-e40c-41f3-8232-5238b72d1d40","ios":"levelo://app?vid=b6dd4604-e40c-41f3-8232-5238b72d1d40"},"vehicle_type_id":"4","last_reported":1759180109,"current_range_meters":12400,"station_id":"ce4bh012rcd13ifvqcv0","pricing_plan_id":"cebpf4jnsgd1na2vs0mg"},{"bike_id":"a6d5fea6-0b36-4308-aa47-0115b1c3b025","system_id":"levelo_inurba_marseille","lat":43.30747,"lon":5.42447,"is_reserved":false,"is_disabled":false,"rental_uris":{"android":"levelo://app?vid=a6d5fea6-0b36-4308-aa47-0115b1c3b025","ios":"levelo://app?vid=a6d5fea6-0b36-4308-aa47-0115b1c3b025"},"vehicle_type_id":"4","last_reported":1759180109,"current_range_meters":12400,"station_id":"st_cvj6ca6bvosntc0bfgr0","pricing_plan_id":"cebpf4jnsgd1na2vs0mg"},{"bike_id":"40d5dc39-6be0-4981-985c-7676be853716","system_id":"levelo_inurba_marseille","lat":43.25342,"lon":5.4218,"is_reserved":false,"is_disabled":false,"rental_uris":{"android":"levelo://app?vid=40d5dc39-6be0-4981-985c-7676be853716","ios":"levelo://app?vid=40d5dc39-6be0-4981-985c-7676be853716"},"vehicle_type_id":"4","last_reported":1759180109,"current_range_meters":12400,"station_id":"st_d2m65c5bi1j21697t3ng","pricing_plan_id":"cebpf4jnsgd1na2vs0mg"},{"bike_id":"498de633-1978-409b-aa35-b617d56ba506","system_id":"levelo_inurba_marseille","lat":43.289401,"lon":5.366452,"is_reserved":false,"is_disabled":false,"rental_uris":{"android":"levelo://app?vid=498de633-1978-409b-aa35-b617d56ba506","ios":"levelo://app?vid=498de633-1978-409b-aa35-b617d56ba506"},"vehicle_type_id":"4","last_reported":1759180109,"current_range_meters":12400,"station_id":"ce4bhap2rcd13ifvqek0","pricing_plan_id":"cebpf4jnsgd1na2vs0mg"},{"bike_id":"d60dc148-253b-4625-ae0c-8c88dcdb4260","system_id":"levelo_inurba_marseille","lat":43.272127,"lon":5.391798,"is_reserved":false,"is_disabled":false,"rental_uris":{"android":"levelo://app?vid=d60dc148-253b-4625-ae0c-8c88dcdb4260","ios":"levelo://app?vid=d60dc148-253b-4625-ae0c-8c88dcdb4260"},"vehicle_type_id":"4","last_reported":1759180109,"current_range_meters":12800,"station_id":"","pricing_plan_id":"cebpf4jnsgd1na2vs0mg"},{"bike_id":"91658db2-d6ae-4346-bb4d-02353c95c4ab","system_id":"levelo_inurba_marseille","lat":43.25337,"lon":5.42174,"is_reserved":false,"is_disabled":false,"rental_uris":{"android":"levelo://app?vid=91658db2-d6ae-4346-bb4d-02353c95c4ab","ios":"levelo://app?vid=91658db2-d6ae-4346-bb4d-02353c95c4ab"},"vehicle_type_id":"4","last_reported":1759180109,"current_range_meters":12800,"station_id":"st_d2m65c5bi1j21697t3ng","pricing_plan_id":"cebpf4jnsgd1na2vs0mg"},{"bike_id":"aa123961-c527-4db0-9350-7d548f67905a","system_id":"levelo_inurba_marseille","lat":43.27946,"lon":5.38753,"is_reserved":false,"is_disabled":false,"rental_uris":{"android":"levelo://app?vid=aa123961-c527-4db0-9350-7d548f67905a","ios":"levelo://app?vid=aa123961-c527-4db0-9350-7d548f67905a"},"vehicle_type_id":"4","last_reported":1759180109,"current_range_meters":12800,"station_id":"ce4bh492rcd13ifvqdvg","pricing_plan_id":"cebpf4jnsgd1na2vs0mg"},{"bike_id":"ba1cfbb3-555c-4e6c-85db-b50e9395062e","system_id":"levelo_inurba_marseille","lat":43.246877,"lon":5.381936,"is_reserved":false,"is_disabled":false,"rental_uris":{"android":"levelo://app?vid=ba1cfbb3-555c-4e6c-85db-b50e9395062e","ios":"levelo://app?vid=ba1cfbb3-555c-4e6c-85db-b50e9395062e"},"vehicle_type_id":"4","last_reported":1759180109,"current_range_meters":12800,"station_id":"","pricing_plan_id":"cebpf4jnsgd1na2vs0mg"},{"bike_id":"38584c47-9f91-48a6-8303-e75989aadd76","system_id":"levelo_inurba_marseille","lat":43.30947,"lon":5.372,"is_reserved":false,"is_disabled":false,"rental_uris":{"android":"levelo://app?vid=38584c47-9f91-48a6-8303-e75989aadd76","ios":"levelo://app?vid=38584c47-9f91-48a6-8303-e75989aadd76"},"vehicle_type_id":"4","last_reported":1759180109,"current_range_meters":12800,"station_id":"ce4bguh2rcd13ifvqckg","pricing_plan_id":"cebpf4jnsgd1na2vs0mg"},{"bike_id":"cb560dc5-3481-46ba-9bbe-3e3027c9ead9","system_id":"levelo_inurba_marseille","lat":43.28004,"lon":5.4165,"is_reserved":false,"is_disabled":false,"rental_uris":{"android":"levelo://app?vid=cb560dc5-3481-46ba-9bbe-3e3027c9ead9","ios":"levelo://app?vid=cb560dc5-3481-46ba-9bbe-3e3027c9ead9"},"vehicle_type_id":"4","last_reported":1759180109,"current_range_meters":12800,"station_id":"ce4bho12rcd13ifvqh1g","pricing_plan_id":"cebpf4jnsgd1na2vs0mg"},{"bike_id":"2e49e988-42fa-4abd-93ae-2866429a756f","system_id":"levelo_inurba_marseille","lat":43.31535,"lon":5.37265,"is_reserved":false,"is_disabled":false,"rental_uris":{"android":"levelo://app?vid=2e49e988-42fa-4abd-93ae-2866429a756f","ios":"levelo://app?vid=2e49e988-42fa-4abd-93ae-2866429a756f"},"vehicle_type_id":"4","last_reported":1759180109,"current_range_meters":12800,"station_id":"ce4bgt12rcd13ifvqcd0","pricing_plan_id":"cebpf4jnsgd1na2vs0mg"},{"bike_id":"aebf0e68-ba27-412a-9ce2-11cc42127dee","system_id":"levelo_inurba_marseille","lat":43.337444,"lon":5.374475,"is_reserved":false,"is_disabled":false,"rental_uris":{"android":"levelo://app?vid=aebf0e68-ba27-412a-9ce2-11cc42127dee","ios":"levelo://app?vid=aebf0e68-ba27-412a-9ce2-11cc42127dee"},"vehicle_type_id":"4","last_reported":1759180109,"current_range_meters":12800,"station_id":"","pricing_plan_id":"cebpf4jnsgd1na2vs0mg"},{"bike_id":"78edd212-3bd8-4a45-bced-089e3907902a","system_id":"levelo_inurba_marseille","lat":43.32759,"lon":5.42365,"is_reserved":false,"is_disabled":true,"rental_uris":{"android":"levelo://app?vid=78edd212-3bd8-4a45-bced-089e3907902a","ios":"levelo://app?vid=78edd212-3bd8-4a45-bced-089e3907902a"},"vehicle_type_id":"4","last_reported":1759180109,"current_range_meters":13600,"station_id":"","pricing_plan_id":"cebpf4jnsgd1na2vs0mg"},{"bike_id":"8cbcf5e7-b804-4925-bbed-5f57e8580ccf","system_id":"levelo_inurba_marseille","lat":43.31519,"lon":5.36803,"is_reserved":false,"is_disabled":false,"rental_uris":{"android":"levelo://app?vid=8cbcf5e7-b804-4925-bbed-5f57e8580ccf","ios":"levelo://app?vid=8cbcf5e7-b804-4925-bbed-5f57e8580ccf"},"vehicle_type_id":"4","last_reported":1759180109,"current_range_meters":14000,"station_id":"","pricing_plan_id":"cebpf4jnsgd1na2vs0mg"},{"bike_id":"56d6a008-a903-4bd5-8ee3-1cec5d05c634","system_id":"levelo_inurba_marseille","lat":43.31749,"lon":5.39024,"is_reserved":false,"is_disabled":false,"rental_uris":{"android":"levelo://app?vid=56d6a008-a903-4bd5-8ee3-1cec5d05c634","ios":"levelo://app?vid=56d6a008-a903-4bd5-8ee3-1cec5d05c634"},"vehicle_type_id":"4","last_reported":1759180109,"current_range_meters":13600,"station_id":"ce4bhqp2rcd13ifvqhng","pricing_plan_id":"cebpf4jnsgd1na2vs0mg"},{"bike_id":"42fe4fc1-aaad-41c5-9eee-de813f970dda","system_id":"levelo_inurba_marseille","lat":43.31065,"lon":5.38334,"is_reserved":false,"is_disabled":false,"rental_uris":{"android":"levelo://app?vid=42fe4fc1-aaad-41c5-9eee-de813f970dda","ios":"levelo://app?vid=42fe4fc1-aaad-41c5-9eee-de813f970dda"},"vehicle_type_id":"4","last_reported":1759180109,"current_range_meters":13600,"station_id":"ce4bgv92rcd13ifvqcr0","pricing_plan_id":"cebpf4jnsgd1na2vs0mg"},{"bike_id":"a2e45c06-7d2f-44e3-92a1-23bde99e0798","system_id":"levelo_inurba_marseille","lat":43.28867,"lon":5.42523,"is_reserved":false,"is_disabled":false,"rental_uris":{"android":"levelo://app?vid=a2e45c06-7d2f-44e3-92a1-23bde99e0798","ios":"levelo://app?vid=a2e45c06-7d2f-44e3-92a1-23bde99e0798"},"vehicle_type_id":"4","last_reported":1759180109,"current_range_meters":13600,"station_id":"st_d3b462108ojc7389ooeg","pricing_plan_id":"cebpf4jnsgd1na2vs0mg"},{"bike_id":"f8bf5e1b-e4ee-4e56-92a6-8b8101fa829a","system_id":"levelo_inurba_marseille","lat":43.31229,"lon":5.36869,"is_reserved":false,"is_disabled":false,"rental_uris":{"android":"levelo://app?vid=f8bf5e1b-e4ee-4e56-92a6-8b8101fa829a","ios":"levelo://app?vid=f8bf5e1b-e4ee-4e56-92a6-8b8101fa829a"},"vehicle_type_id":"4","last_reported":1759180109,"current_range_meters":13600,"station_id":"ce4bgl92rcd13ifvqbq0","pricing_plan_id":"cebpf4jnsgd1na2vs0mg"},{"bike_id":"f4e169e6-32e3-46ca-8c44-dd2d245fa722","system_id":"levelo_inurba_marseille","lat":43.29812,"lon":5.39345,"is_reserved":false,"is_disabled":false,"rental_uris":{"android":"levelo://app?vid=f4e169e6-32e3-46ca-8c44-dd2d245fa722","ios":"levelo://app?vid=f4e169e6-32e3-46ca-8c44-dd2d245fa722"},"vehicle_type_id":"4","last_reported":1759180109,"current_range_meters":13600,"station_id":"chh1huq6cuj3fo74tm60","pricing_plan_id":"cebpf4jnsgd1na2vs0mg"},{"bike_id":"b758b494-181d-4229-918f-9ce41e85b04d","system_id":"levelo_inurba_marseille","lat":43.33132,"lon":5.38065,"is_reserved":false,"is_disabled":false,"rental_uris":{"android":"levelo://app?vid=b758b494-181d-4229-918f-9ce41e85b04d","ios":"levelo://app?vid=b758b494-181d-4229-918f-9ce41e85b04d"},"vehicle_type_id":"4","last_reported":1759180109,"current_range_meters":14000,"station_id":"","pricing_plan_id":"cebpf4jnsgd1na2vs0mg"},{"bike_id":"0fdc0cb3-d25b-4c64-888d-33716d804c4c","system_id":"levelo_inurba_marseille","lat":43.25102,"lon":5.3952,"is_reserved":false,"is_disabled":false,"rental_uris":{"android":"levelo://app?vid=0fdc0cb3-d25b-4c64-888d-33716d804c4c","ios":"levelo://app?vid=0fdc0cb3-d25b-4c64-888d-33716d804c4c"},"vehicle_type_id":"4","last_reported":1759180109,"current_range_meters":14000,"station_id":"ce4bhm12rcd13ifvqgkg","pricing_plan_id":"cebpf4jnsgd1na2vs0mg"},{"bike_id":"90b4c2c6-74ed-4bc2-b762-05e29dca864f","system_id":"levelo_inurba_marseille","lat":43.2465,"lon":5.38893,"is_reserved":false,"is_disabled":false,"rental_uris":{"android":"levelo://app?vid=90b4c2c6-74ed-4bc2-b762-05e29dca864f","ios":"levelo://app?vid=90b4c2c6-74ed-4bc2-b762-05e29dca864f"},"vehicle_type_id":"4","last_reported":1759180109,"current_range_meters":14000,"station_id":"ce4bhg12rcd13ifvqf60","pricing_plan_id":"cebpf4jnsgd1na2vs0mg"},{"bike_id":"f83fb8d3-a923-4789-87d2-2d06da9c7fdf","system_id":"levelo_inurba_marseille","lat":43.29513,"lon":5.39398,"is_reserved":false,"is_disabled":false,"rental_uris":{"android":"levelo://app?vid=f83fb8d3-a923-4789-87d2-2d06da9c7fdf","ios":"levelo://app?vid=f83fb8d3-a923-4789-87d2-2d06da9c7fdf"},"vehicle_type_id":"4","last_reported":1759180109,"current_range_meters":14000,"station_id":"ce4bh292rcd13ifvqdf0","pricing_plan_id":"cebpf4jnsgd1na2vs0mg"},{"bike_id":"e6ad85b1-a3cb-4839-baf9-2eb5999fca22","system_id":"levelo_inurba_marseille","lat":43.29566,"lon":5.38548,"is_reserved":false,"is_disabled":false,"rental_uris":{"android":"levelo://app?vid=e6ad85b1-a3cb-4839-baf9-2eb5999fca22","ios":"levelo://app?vid=e6ad85b1-a3cb-4839-baf9-2eb5999fca22"},"vehicle_type_id":"4","last_reported":1759180109,"current_range_meters":14000,"station_id":"ce4bgih2rcd13ifvqba0","pricing_plan_id":"cebpf4jnsgd1na2vs0mg"},{"bike_id":"cb8737f5-9915-4005-98ee-fd2aa1c38d9f","system_id":"levelo_inurba_marseille","lat":43.23194,"lon":5.39997,"is_reserved":false,"is_disabled":false,"rental_uris":{"android":"levelo://app?vid=cb8737f5-9915-4005-98ee-fd2aa1c38d9f","ios":"levelo://app?vid=cb8737f5-9915-4005-98ee-fd2aa1c38d9f"},"vehicle_type_id":"4","last_reported":1759180109,"current_range_meters":14000,"station_id":"ce4bhn12rcd13ifvqgqg","pricing_plan_id":"cebpf4jnsgd1na2vs0mg"},{"bike_id":"99ce2063-5dfb-4ed3-a4a6-8fc3a54c4890","system_id":"levelo_inurba_marseille","lat":43.337444,"lon":5.374475,"is_reserved":false,"is_disabled":false,"rental_uris":{"android":"levelo://app?vid=99ce2063-5dfb-4ed3-a4a6-8fc3a54c4890","ios":"levelo://app?vid=99ce2063-5dfb-4ed3-a4a6-8fc3a54c4890"},"vehicle_type_id":"4","last_reported":1759180109,"current_range_meters":14000,"station_id":"","pricing_plan_id":"cebpf4jnsgd1na2vs0mg"},{"bike_id":"3d325c0a-452a-40b6-b976-7af3843b4d54","system_id":"levelo_inurba_marseille","lat":43.21761,"lon":5.34593,"is_reserved":false,"is_disabled":false,"rental_uris":{"android":"levelo://app?vid=3d325c0a-452a-40b6-b976-7af3843b4d54","ios":"levelo://app?vid=3d325c0a-452a-40b6-b976-7af3843b4d54"},"vehicle_type_id":"4","last_reported":1759180109,"current_range_meters":14400,"station_id":"","pricing_plan_id":"cebpf4jnsgd1na2vs0mg"},{"bike_id":"e9a5819c-2dbe-400b-a4a1-e8b022968069","system_id":"levelo_inurba_marseille","lat":43.2808,"lon":5.39639,"is_reserved":false,"is_disabled":false,"rental_uris":{"android":"levelo://app?vid=e9a5819c-2dbe-400b-a4a1-e8b022968069","ios":"levelo://app?vid=e9a5819c-2dbe-400b-a4a1-e8b022968069"},"vehicle_type_id":"4","last_reported":1759180109,"current_range_meters":14400,"station_id":"ce4bho12rcd13ifvqh2g","pricing_plan_id":"cebpf4jnsgd1na2vs0mg"},{"bike_id":"a80a991d-3fc6-4edb-a49b-f29db206e32e","system_id":"levelo_inurba_marseille","lat":43.29992,"lon":5.37171,"is_reserved":false,"is_disabled":false,"rental_uris":{"android":"levelo://app?vid=a80a991d-3fc6-4edb-a49b-f29db206e32e","ios":"levelo://app?vid=a80a991d-3fc6-4edb-a49b-f29db206e32e"},"vehicle_type_id":"4","last_reported":1759180109,"current_range_meters":14400,"station_id":"ce4bgr92rcd13ifvqc7g","pricing_plan_id":"cebpf4jnsgd1na2vs0mg"},{"bike_id":"37f92675-5c6d-4cea-8a60-2198fa390655","system_id":"levelo_inurba_marseille","lat":43.23964,"lon":5.36622,"is_reserved":false,"is_disabled":false,"rental_uris":{"android":"levelo://app?vid=37f92675-5c6d-4cea-8a60-2198fa390655","ios":"levelo://app?vid=37f92675-5c6d-4cea-8a60-2198fa390655"},"vehicle_type_id":"4","last_reported":1759180109,"current_range_meters":14400,"station_id":"","pricing_plan_id":"cebpf4jnsgd1na2vs0mg"},{"bike_id":"a9cd5665-4575-420b-bb7e-e441349a406a","system_id":"levelo_inurba_marseille","lat":43.28426,"lon":5.35001,"is_reserved":false,"is_disabled":false,"rental_uris":{"android":"levelo://app?vid=a9cd5665-4575-420b-bb7e-e441349a406a","ios":"levelo://app?vid=a9cd5665-4575-420b-bb7e-e441349a406a"},"vehicle_type_id":"4","last_reported":1759180109,"current_range_meters":14400,"station_id":"ce4bhbh2rcd13ifvqepg","pricing_plan_id":"cebpf4jnsgd1na2vs0mg"},{"bike_id":"180f9710-c4cf-40c2-9a95-b8c1ad89aeae","system_id":"levelo_inurba_marseille","lat":43.295694,"lon":5.375202,"is_reserved":false,"is_disabled":true,"rental_uris":{"android":"levelo://app?vid=180f9710-c4cf-40c2-9a95-b8c1ad89aeae","ios":"levelo://app?vid=180f9710-c4cf-40c2-9a95-b8c1ad89aeae"},"vehicle_type_id":"4","last_reported":1759180109,"current_range_meters":14400,"station_id":"ce4bgh92rcd13ifvqb50","pricing_plan_id":"cebpf4jnsgd1na2vs0mg"},{"bike_id":"00b3c5d5-9ad5-4872-b372-089fa3a04914","system_id":"levelo_inurba_marseille","lat":43.286376,"lon":5.354934,"is_reserved":false,"is_disabled":false,"rental_uris":{"android":"levelo://app?vid=00b3c5d5-9ad5-4872-b372-089fa3a04914","ios":"levelo://app?vid=00b3c5d5-9ad5-4872-b372-089fa3a04914"},"vehicle_type_id":"4","last_reported":1759180109,"current_range_meters":14400,"station_id":"","pricing_plan_id":"cebpf4jnsgd1na2vs0mg"},{"bike_id":"92662833-c6ac-4b02-b7df-1638b54b1972","system_id":"levelo_inurba_marseille","lat":43.33742,"lon":5.37449,"is_reserved":false,"is_disabled":false,"rental_uris":{"android":"levelo://app?vid=92662833-c6ac-4b02-b7df-1638b54b1972","ios":"levelo://app?vid=92662833-c6ac-4b02-b7df-1638b54b1972"},"vehicle_type_id":"4","last_reported":1759180109,"current_range_meters":14400,"station_id":"","pricing_plan_id":"cebpf4jnsgd1na2vs0mg"},{"bike_id":"f8d78e5f-60e1-4623-939f-49e76ff16505","system_id":"levelo_inurba_marseille","lat":43.33742,"lon":5.37448,"is_reserved":false,"is_disabled":false,"rental_uris":{"android":"levelo://app?vid=f8d78e5f-60e1-4623-939f-49e76ff16505","ios":"levelo://app?vid=f8d78e5f-60e1-4623-939f-49e76ff16505"},"vehicle_type_id":"4","last_reported":1759180109,"current_range_meters":14400,"station_id":"","pricing_plan_id":"cebpf4jnsgd1na2vs0mg"},{"bike_id":"5edb15d1-7a33-4959-b0c5-cee8a153f24d","system_id":"levelo_inurba_marseille","lat":43.28703,"lon":5.39984,"is_reserved":false,"is_disabled":false,"rental_uris":{"android":"levelo://app?vid=5edb15d1-7a33-4959-b0c5-cee8a153f24d","ios":"levelo://app?vid=5edb15d1-7a33-4959-b0c5-cee8a153f24d"},"vehicle_type_id":"4","last_reported":1759180109,"current_range_meters":14800,"station_id":"ce4bho92rcd13ifvqh3g","pricing_plan_id":"cebpf4jnsgd1na2vs0mg"},{"bike_id":"e17857ef-9057-4d30-b1e9-4ab6ead4c304","system_id":"levelo_inurba_marseille","lat":43.24663,"lon":5.38916,"is_reserved":false,"is_disabled":true,"rental_uris":{"android":"levelo://app?vid=e17857ef-9057-4d30-b1e9-4ab6ead4c304","ios":"levelo://app?vid=e17857ef-9057-4d30-b1e9-4ab6ead4c304"},"vehicle_type_id":"4","last_reported":1759180109,"current_range_meters":14800,"station_id":"ce4bhg12rcd13ifvqf60","pricing_plan_id":"cebpf4jnsgd1na2vs0mg"},{"bike_id":"5f2339f1-80e3-4991-80c5-0ad924df014a","system_id":"levelo_inurba_marseille","lat":43.31314,"lon":5.39689,"is_reserved":false,"is_disabled":false,"rental_uris":{"android":"levelo://app?vid=5f2339f1-80e3-4991-80c5-0ad924df014a","ios":"levelo://app?vid=5f2339f1-80e3-4991-80c5-0ad924df014a"},"vehicle_type_id":"4","last_reported":1759180109,"current_range_meters":15200,"station_id":"ce4bgvp2rcd13ifvqcu0","pricing_plan_id":"cebpf4jnsgd1na2vs0mg"},{"bike_id":"738a51a6-02d0-4def-8f3f-9c82f6a6dd05","system_id":"levelo_inurba_marseille","lat":43.32429,"lon":5.36693,"is_reserved":false,"is_disabled":false,"rental_uris":{"android":"levelo://app?vid=738a51a6-02d0-4def-8f3f-9c82f6a6dd05","ios":"levelo://app?vid=738a51a6-02d0-4def-8f3f-9c82f6a6dd05"},"vehicle_type_id":"4","last_reported":1759180109,"current_range_meters":14800,"station_id":"ce4bhsh2rcd13ifvqi2g","pricing_plan_id":"cebpf4jnsgd1na2vs0mg"},{"bike_id":"8e286296-5795-40aa-b7b0-3bcf4d08f714","system_id":"levelo_inurba_marseille","lat":43.32368,"lon":5.38892,"is_reserved":false,"is_disabled":false,"rental_uris":{"android":"levelo://app?vid=8e286296-5795-40aa-b7b0-3bcf4d08f714","ios":"levelo://app?vid=8e286296-5795-40aa-b7b0-3bcf4d08f714"},"vehicle_type_id":"4","last_reported":1759180109,"current_range_meters":14800,"station_id":"ce4bhqp2rcd13ifvqhog","pricing_plan_id":"cebpf4jnsgd1na2vs0mg"},{"bike_id":"7141d5c0-e60c-44f1-bfa8-47000c17aa41","system_id":"levelo_inurba_marseille","lat":43.32004,"lon":5.38096,"is_reserved":false,"is_disabled":false,"rental_uris":{"android":"levelo://app?vid=7141d5c0-e60c-44f1-bfa8-47000c17aa41","ios":"levelo://app?vid=7141d5c0-e60c-44f1-bfa8-47000c17aa41"},"vehicle_type_id":"4","last_reported":1759180109,"current_range_meters":14800,"station_id":"","pricing_plan_id":"cebpf4jnsgd1na2vs0mg"},{"bike_id":"deca1fa1-67bc-4208-81e8-8ff5162ccae3","system_id":"levelo_inurba_marseille","lat":43.32113,"lon":5.36768,"is_reserved":false,"is_disabled":false,"rental_uris":{"android":"levelo://app?vid=deca1fa1-67bc-4208-81e8-8ff5162ccae3","ios":"levelo://app?vid=deca1fa1-67bc-4208-81e8-8ff5162ccae3"},"vehicle_type_id":"4","last_reported":1759180109,"current_range_meters":14800,"station_id":"ce4bhrh2rcd13ifvqhug","pricing_plan_id":"cebpf4jnsgd1na2vs0mg"},{"bike_id":"56ca0258-bee9-4eb2-b3c5-63b5cd0b9e67","system_id":"levelo_inurba_marseille","lat":43.33737,"lon":5.37445,"is_reserved":false,"is_disabled":false,"rental_uris":{"android":"levelo://app?vid=56ca0258-bee9-4eb2-b3c5-63b5cd0b9e67","ios":"levelo://app?vid=56ca0258-bee9-4eb2-b3c5-63b5cd0b9e67"},"vehicle_type_id":"4","last_reported":1759180109,"current_range_meters":14800,"station_id":"","pricing_plan_id":"cebpf4jnsgd1na2vs0mg"},{"bike_id":"96520869-d013-4e0c-a355-f7bbd728ba84","system_id":"levelo_inurba_marseille","lat":43.32348,"lon":5.36727,"is_reserved":false,"is_disabled":false,"rental_uris":{"android":"levelo://app?vid=96520869-d013-4e0c-a355-f7bbd728ba84","ios":"levelo://app?vid=96520869-d013-4e0c-a355-f7bbd728ba84"},"vehicle_type_id":"4","last_reported":1759180109,"current_range_meters":15200,"station_id":"ce4bhsh2rcd13ifvqi2g","pricing_plan_id":"cebpf4jnsgd1na2vs0mg"},{"bike_id":"716ec372-1e32-4564-8f0e-da5da7c66c4a","system_id":"levelo_inurba_marseille","lat":43.25752,"lon":5.411,"is_reserved":false,"is_disabled":true,"rental_uris":{"android":"levelo://app?vid=716ec372-1e32-4564-8f0e-da5da7c66c4a","ios":"levelo://app?vid=716ec372-1e32-4564-8f0e-da5da7c66c4a"},"vehicle_type_id":"4","last_reported":1759180109,"current_range_meters":15200,"station_id":"ce4bhkp2rcd13ifvqgd0","pricing_plan_id":"cebpf4jnsgd1na2vs0mg"},{"bike_id":"1f05ab47-bda3-411a-921d-9f21cd784300","system_id":"levelo_inurba_marseille","lat":43.283503,"lon":5.381037,"is_reserved":false,"is_disabled":false,"rental_uris":{"android":"levelo://app?vid=1f05ab47-bda3-411a-921d-9f21cd784300","ios":"levelo://app?vid=1f05ab47-bda3-411a-921d-9f21cd784300"},"vehicle_type_id":"4","last_reported":1759180109,"current_range_meters":15200,"station_id":"ce4bh412rcd13ifvqdr0","pricing_plan_id":"cebpf4jnsgd1na2vs0mg"},{"bike_id":"0f60488f-754b-44f7-93a6-3d291d938c81","system_id":"levelo_inurba_marseille","lat":43.30888,"lon":5.39653,"is_reserved":false,"is_disabled":false,"rental_uris":{"android":"levelo://app?vid=0f60488f-754b-44f7-93a6-3d291d938c81","ios":"levelo://app?vid=0f60488f-754b-44f7-93a6-3d291d938c81"},"vehicle_type_id":"4","last_reported":1759180109,"current_range_meters":15200,"station_id":"ce4bh012rcd13ifvqcv0","pricing_plan_id":"cebpf4jnsgd1na2vs0mg"},{"bike_id":"86203e6a-44fb-4b68-bfde-80b28ea19ca9","system_id":"levelo_inurba_marseille","lat":43.28704,"lon":5.36358,"is_reserved":false,"is_disabled":false,"rental_uris":{"android":"levelo://app?vid=86203e6a-44fb-4b68-bfde-80b28ea19ca9","ios":"levelo://app?vid=86203e6a-44fb-4b68-bfde-80b28ea19ca9"},"vehicle_type_id":"4","last_reported":1759180109,"current_range_meters":15200,"station_id":"","pricing_plan_id":"cebpf4jnsgd1na2vs0mg"},{"bike_id":"961d9ac8-e04a-41ed-b46b-f19e8d2ebee0","system_id":"levelo_inurba_marseille","lat":43.30021,"lon":5.37187,"is_reserved":false,"is_disabled":false,"rental_uris":{"android":"levelo://app?vid=961d9ac8-e04a-41ed-b46b-f19e8d2ebee0","ios":"levelo://app?vid=961d9ac8-e04a-41ed-b46b-f19e8d2ebee0"},"vehicle_type_id":"4","last_reported":1759180109,"current_range_meters":15200,"station_id":"ce4bgr92rcd13ifvqc7g","pricing_plan_id":"cebpf4jnsgd1na2vs0mg"},{"bike_id":"b17fcf4a-d2df-4ab3-8ed1-cbfd1aa36b53","system_id":"levelo_inurba_marseille","lat":43.31332,"lon":5.39697,"is_reserved":false,"is_disabled":false,"rental_uris":{"android":"levelo://app?vid=b17fcf4a-d2df-4ab3-8ed1-cbfd1aa36b53","ios":"levelo://app?vid=b17fcf4a-d2df-4ab3-8ed1-cbfd1aa36b53"},"vehicle_type_id":"4","last_reported":1759180109,"current_range_meters":16000,"station_id":"ce4bgvp2rcd13ifvqcu0","pricing_plan_id":"cebpf4jnsgd1na2vs0mg"},{"bike_id":"0aba4fe3-5dca-4d79-8b9d-2fc77d6e7d70","system_id":"levelo_inurba_marseille","lat":43.28418,"lon":5.349815,"is_reserved":false,"is_disabled":false,"rental_uris":{"android":"levelo://app?vid=0aba4fe3-5dca-4d79-8b9d-2fc77d6e7d70","ios":"levelo://app?vid=0aba4fe3-5dca-4d79-8b9d-2fc77d6e7d70"},"vehicle_type_id":"4","last_reported":1759180109,"current_range_meters":16000,"station_id":"","pricing_plan_id":"cebpf4jnsgd1na2vs0mg"},{"bike_id":"9a5c45c2-e37b-4cf5-8f06-17180d91b232","system_id":"levelo_inurba_marseille","lat":43.29263,"lon":5.40902,"is_reserved":false,"is_disabled":false,"rental_uris":{"android":"levelo://app?vid=9a5c45c2-e37b-4cf5-8f06-17180d91b232","ios":"levelo://app?vid=9a5c45c2-e37b-4cf5-8f06-17180d91b232"},"vehicle_type_id":"4","last_reported":1759180109,"current_range_meters":16000,"station_id":"ce4bh192rcd13ifvqdc0","pricing_plan_id":"cebpf4jnsgd1na2vs0mg"},{"bike_id":"b3312ff7-8021-419b-9041-870e7f4dc3fa","system_id":"levelo_inurba_marseille","lat":43.29193,"lon":5.35783,"is_reserved":false,"is_disabled":false,"rental_uris":{"android":"levelo://app?vid=b3312ff7-8021-419b-9041-870e7f4dc3fa","ios":"levelo://app?vid=b3312ff7-8021-419b-9041-870e7f4dc3fa"},"vehicle_type_id":"4","last_reported":1759180109,"current_range_meters":16000,"station_id":"","pricing_plan_id":"cebpf4jnsgd1na2vs0mg"},{"bike_id":"98592af3-e379-4857-8f84-b2ed191e0918","system_id":"levelo_inurba_marseille","lat":43.23182,"lon":5.3999,"is_reserved":false,"is_disabled":false,"rental_uris":{"android":"levelo://app?vid=98592af3-e379-4857-8f84-b2ed191e0918","ios":"levelo://app?vid=98592af3-e379-4857-8f84-b2ed191e0918"},"vehicle_type_id":"4","last_reported":1759180109,"current_range_meters":16000,"station_id":"ce4bhn12rcd13ifvqgqg","pricing_plan_id":"cebpf4jnsgd1na2vs0mg"},{"bike_id":"f44df0c8-3c0a-4103-982e-900169d96e81","system_id":"levelo_inurba_marseille","lat":43.32113,"lon":5.36776,"is_reserved":false,"is_disabled":false,"rental_uris":{"android":"levelo://app?vid=f44df0c8-3c0a-4103-982e-900169d96e81","ios":"levelo://app?vid=f44df0c8-3c0a-4103-982e-900169d96e81"},"vehicle_type_id":"4","last_reported":1759180109,"current_range_meters":16000,"station_id":"ce4bhrh2rcd13ifvqhug","pricing_plan_id":"cebpf4jnsgd1na2vs0mg"},{"bike_id":"13604148-437a-4148-9ed9-019ca4e03ec3","system_id":"levelo_inurba_marseille","lat":43.24668,"lon":5.43133,"is_reserved":false,"is_disabled":false,"rental_uris":{"android":"levelo://app?vid=13604148-437a-4148-9ed9-019ca4e03ec3","ios":"levelo://app?vid=13604148-437a-4148-9ed9-019ca4e03ec3"},"vehicle_type_id":"4","last_reported":1759180109,"current_range_meters":16000,"station_id":"st_d2m6c4gdas8pm72e190g","pricing_plan_id":"cebpf4jnsgd1na2vs0mg"},{"bike_id":"05003c91-a305-4a33-a438-1d7ddd3d026b","system_id":"levelo_inurba_marseille","lat":43.25338,"lon":5.42174,"is_reserved":false,"is_disabled":false,"rental_uris":{"android":"levelo://app?vid=05003c91-a305-4a33-a438-1d7ddd3d026b","ios":"levelo://app?vid=05003c91-a305-4a33-a438-1d7ddd3d026b"},"vehicle_type_id":"4","last_reported":1759180109,"current_range_meters":16000,"station_id":"st_d2m65c5bi1j21697t3ng","pricing_plan_id":"cebpf4jnsgd1na2vs0mg"},{"bike_id":"211afd9f-58b0-436e-9b6b-1acbadc34392","system_id":"levelo_inurba_marseille","lat":43.32361,"lon":5.36743,"is_reserved":false,"is_disabled":false,"rental_uris":{"android":"levelo://app?vid=211afd9f-58b0-436e-9b6b-1acbadc34392","ios":"levelo://app?vid=211afd9f-58b0-436e-9b6b-1acbadc34392"},"vehicle_type_id":"4","last_reported":1759180109,"current_range_meters":16000,"station_id":"ce4bhsh2rcd13ifvqi2g","pricing_plan_id":"cebpf4jnsgd1na2vs0mg"},{"bike_id":"d57e9c8d-8526-4c22-b4b3-3313559e48fd","system_id":"levelo_inurba_marseille","lat":43.27616,"lon":5.36102,"is_reserved":false,"is_disabled":false,"rental_uris":{"android":"levelo://app?vid=d57e9c8d-8526-4c22-b4b3-3313559e48fd","ios":"levelo://app?vid=d57e9c8d-8526-4c22-b4b3-3313559e48fd"},"vehicle_type_id":"4","last_reported":1759180109,"current_range_meters":16000,"station_id":"ce4bgj92rcd13ifvqbe0","pricing_plan_id":"cebpf4jnsgd1na2vs0mg"},{"bike_id":"b2b4408b-3b91-42a0-b6c8-9320ca170994","system_id":"levelo_inurba_marseille","lat":43.270695,"lon":5.422702,"is_reserved":false,"is_disabled":false,"rental_uris":{"android":"levelo://app?vid=b2b4408b-3b91-42a0-b6c8-9320ca170994","ios":"levelo://app?vid=b2b4408b-3b91-42a0-b6c8-9320ca170994"},"vehicle_type_id":"4","last_reported":1759180109,"current_range_meters":16400,"station_id":"ce4bhk92rcd13ifvqgb0","pricing_plan_id":"cebpf4jnsgd1na2vs0mg"},{"bike_id":"f57edb74-dec0-49ea-9587-41ef945148e6","system_id":"levelo_inurba_marseille","lat":43.2953,"lon":5.3904,"is_reserved":false,"is_disabled":false,"rental_uris":{"android":"levelo://app?vid=f57edb74-dec0-49ea-9587-41ef945148e6","ios":"levelo://app?vid=f57edb74-dec0-49ea-9587-41ef945148e6"},"vehicle_type_id":"4","last_reported":1759180109,"current_range_meters":16400,"station_id":"ce4bh3p2rcd13ifvqdp0","pricing_plan_id":"cebpf4jnsgd1na2vs0mg"},{"bike_id":"ba2e7099-27db-4d2f-9036-ba69d60b773c","system_id":"levelo_inurba_marseille","lat":43.29744,"lon":5.3661,"is_reserved":false,"is_disabled":false,"rental_uris":{"android":"levelo://app?vid=ba2e7099-27db-4d2f-9036-ba69d60b773c","ios":"levelo://app?vid=ba2e7099-27db-4d2f-9036-ba69d60b773c"},"vehicle_type_id":"4","last_reported":1759180109,"current_range_meters":16400,"station_id":"ce4bgn12rcd13ifvqbt0","pricing_plan_id":"cebpf4jnsgd1na2vs0mg"},{"bike_id":"4f6c225c-2f41-4430-b894-aea1cc32d949","system_id":"levelo_inurba_marseille","lat":43.25376,"lon":5.42093,"is_reserved":false,"is_disabled":false,"rental_uris":{"android":"levelo://app?vid=4f6c225c-2f41-4430-b894-aea1cc32d949","ios":"levelo://app?vid=4f6c225c-2f41-4430-b894-aea1cc32d949"},"vehicle_type_id":"4","last_reported":1759180109,"current_range_meters":16400,"station_id":"","pricing_plan_id":"cebpf4jnsgd1na2vs0mg"},{"bike_id":"b85bed18-5eb7-4352-b750-1a96c0b4f5b6","system_id":"levelo_inurba_marseille","lat":43.25332,"lon":5.42168,"is_reserved":false,"is_disabled":false,"rental_uris":{"android":"levelo://app?vid=b85bed18-5eb7-4352-b750-1a96c0b4f5b6","ios":"levelo://app?vid=b85bed18-5eb7-4352-b750-1a96c0b4f5b6"},"vehicle_type_id":"4","last_reported":1759180109,"current_range_meters":16400,"station_id":"st_d2m65c5bi1j21697t3ng","pricing_plan_id":"cebpf4jnsgd1na2vs0mg"},{"bike_id":"5ac5ea43-3ef4-4d5c-9e38-afe5a8f77954","system_id":"levelo_inurba_marseille","lat":43.30135,"lon":5.39875,"is_reserved":false,"is_disabled":false,"rental_uris":{"android":"levelo://app?vid=5ac5ea43-3ef4-4d5c-9e38-afe5a8f77954","ios":"levelo://app?vid=5ac5ea43-3ef4-4d5c-9e38-afe5a8f77954"},"vehicle_type_id":"4","last_reported":1759180109,"current_range_meters":16400,"station_id":"ce4bh0h2rcd13ifvqd40","pricing_plan_id":"cebpf4jnsgd1na2vs0mg"},{"bike_id":"2ab20991-7e6e-4e16-a5ee-0e585332db77","system_id":"levelo_inurba_marseille","lat":43.31067,"lon":5.38347,"is_reserved":false,"is_disabled":false,"rental_uris":{"android":"levelo://app?vid=2ab20991-7e6e-4e16-a5ee-0e585332db77","ios":"levelo://app?vid=2ab20991-7e6e-4e16-a5ee-0e585332db77"},"vehicle_type_id":"4","last_reported":1759180109,"current_range_meters":16400,"station_id":"ce4bgv92rcd13ifvqcr0","pricing_plan_id":"cebpf4jnsgd1na2vs0mg"},{"bike_id":"f3b420a5-d38e-45d6-949f-3775d053452a","system_id":"levelo_inurba_marseille","lat":43.31179,"lon":5.38706,"is_reserved":false,"is_disabled":false,"rental_uris":{"android":"levelo://app?vid=f3b420a5-d38e-45d6-949f-3775d053452a","ios":"levelo://app?vid=f3b420a5-d38e-45d6-949f-3775d053452a"},"vehicle_type_id":"4","last_reported":1759180109,"current_range_meters":16400,"station_id":"ce4bgv12rcd13ifvqcp0","pricing_plan_id":"cebpf4jnsgd1na2vs0mg"},{"bike_id":"f75cecf1-fb3b-431a-898c-f424b8895ab2","system_id":"levelo_inurba_marseille","lat":43.28345,"lon":5.38097,"is_reserved":false,"is_disabled":false,"rental_uris":{"android":"levelo://app?vid=f75cecf1-fb3b-431a-898c-f424b8895ab2","ios":"levelo://app?vid=f75cecf1-fb3b-431a-898c-f424b8895ab2"},"vehicle_type_id":"4","last_reported":1759180109,"current_range_meters":16400,"station_id":"","pricing_plan_id":"cebpf4jnsgd1na2vs0mg"},{"bike_id":"d2f46c9e-a53c-42a7-ad54-fd7c896f4565","system_id":"levelo_inurba_marseille","lat":43.33797,"lon":5.37428,"is_reserved":false,"is_disabled":false,"rental_uris":{"android":"levelo://app?vid=d2f46c9e-a53c-42a7-ad54-fd7c896f4565","ios":"levelo://app?vid=d2f46c9e-a53c-42a7-ad54-fd7c896f4565"},"vehicle_type_id":"4","last_reported":1759180109,"current_range_meters":16400,"station_id":"","pricing_plan_id":"cebpf4jnsgd1na2vs0mg"},{"bike_id":"c9f8af9e-f631-4332-aa3b-2f355ca372ad","system_id":"levelo_inurba_marseille","lat":43.31345,"lon":5.39697,"is_reserved":false,"is_disabled":false,"rental_uris":{"android":"levelo://app?vid=c9f8af9e-f631-4332-aa3b-2f355ca372ad","ios":"levelo://app?vid=c9f8af9e-f631-4332-aa3b-2f355ca372ad"},"vehicle_type_id":"4","last_reported":1759180109,"current_range_meters":16800,"station_id":"ce4bgvp2rcd13ifvqcu0","pricing_plan_id":"cebpf4jnsgd1na2vs0mg"},{"bike_id":"aae27da7-ca3d-468d-a4eb-c87541bdc6b6","system_id":"levelo_inurba_marseille","lat":43.27944,"lon":5.41043,"is_reserved":false,"is_disabled":false,"rental_uris":{"android":"levelo://app?vid=aae27da7-ca3d-468d-a4eb-c87541bdc6b6","ios":"levelo://app?vid=aae27da7-ca3d-468d-a4eb-c87541bdc6b6"},"vehicle_type_id":"4","last_reported":1759180109,"current_range_meters":16800,"station_id":"ce4bhnp2rcd13ifvqh0g","pricing_plan_id":"cebpf4jnsgd1na2vs0mg"},{"bike_id":"ef1a07fb-6584-4029-a114-a87f83eb5a8b","system_id":"levelo_inurba_marseille","lat":43.29821,"lon":5.39342,"is_reserved":false,"is_disabled":false,"rental_uris":{"android":"levelo://app?vid=ef1a07fb-6584-4029-a114-a87f83eb5a8b","ios":"levelo://app?vid=ef1a07fb-6584-4029-a114-a87f83eb5a8b"},"vehicle_type_id":"4","last_reported":1759180109,"current_range_meters":16800,"station_id":"chh1huq6cuj3fo74tm60","pricing_plan_id":"cebpf4jnsgd1na2vs0mg"},{"bike_id":"383a6702-65e3-4925-822b-94274f595582","system_id":"levelo_inurba_marseille","lat":43.29261,"lon":5.40909,"is_reserved":false,"is_disabled":false,"rental_uris":{"android":"levelo://app?vid=383a6702-65e3-4925-822b-94274f595582","ios":"levelo://app?vid=383a6702-65e3-4925-822b-94274f595582"},"vehicle_type_id":"4","last_reported":1759180109,"current_range_meters":16800,"station_id":"ce4bh192rcd13ifvqdc0","pricing_plan_id":"cebpf4jnsgd1na2vs0mg"},{"bike_id":"06ea3866-470a-43e2-915d-239be5410259","system_id":"levelo_inurba_marseille","lat":43.30259,"lon":5.40045,"is_reserved":false,"is_disabled":false,"rental_uris":{"android":"levelo://app?vid=06ea3866-470a-43e2-915d-239be5410259","ios":"levelo://app?vid=06ea3866-470a-43e2-915d-239be5410259"},"vehicle_type_id":"4","last_reported":1759180109,"current_range_meters":16800,"station_id":"ce4bgvh2rcd13ifvqcs0","pricing_plan_id":"cebpf4jnsgd1na2vs0mg"},{"bike_id":"149cb654-9e06-44d3-bb84-e380626e80f6","system_id":"levelo_inurba_marseille","lat":43.302438,"lon":5.400683,"is_reserved":false,"is_disabled":false,"rental_uris":{"android":"levelo://app?vid=149cb654-9e06-44d3-bb84-e380626e80f6","ios":"levelo://app?vid=149cb654-9e06-44d3-bb84-e380626e80f6"},"vehicle_type_id":"4","last_reported":1759180109,"current_range_meters":16800,"station_id":"ce4bgvh2rcd13ifvqcs0","pricing_plan_id":"cebpf4jnsgd1na2vs0mg"},{"bike_id":"2ab535df-4c2c-40d8-af4f-189047a67c11","system_id":"levelo_inurba_marseille","lat":43.2463,"lon":5.43155,"is_reserved":false,"is_disabled":false,"rental_uris":{"android":"levelo://app?vid=2ab535df-4c2c-40d8-af4f-189047a67c11","ios":"levelo://app?vid=2ab535df-4c2c-40d8-af4f-189047a67c11"},"vehicle_type_id":"4","last_reported":1759180109,"current_range_meters":16800,"station_id":"st_d2m6c4gdas8pm72e190g","pricing_plan_id":"cebpf4jnsgd1na2vs0mg"},{"bike_id":"fc0bdf06-cca3-46a1-97b2-85bbcecc5215","system_id":"levelo_inurba_marseille","lat":43.27176,"lon":5.4099,"is_reserved":false,"is_disabled":false,"rental_uris":{"android":"levelo://app?vid=fc0bdf06-cca3-46a1-97b2-85bbcecc5215","ios":"levelo://app?vid=fc0bdf06-cca3-46a1-97b2-85bbcecc5215"},"vehicle_type_id":"4","last_reported":1759180109,"current_range_meters":16800,"station_id":"ce4bhl12rcd13ifvqgf0","pricing_plan_id":"cebpf4jnsgd1na2vs0mg"},{"bike_id":"119c099a-e3fb-4f4b-9fbf-151decbfa254","system_id":"levelo_inurba_marseille","lat":43.3173,"lon":5.39958,"is_reserved":false,"is_disabled":false,"rental_uris":{"android":"levelo://app?vid=119c099a-e3fb-4f4b-9fbf-151decbfa254","ios":"levelo://app?vid=119c099a-e3fb-4f4b-9fbf-151decbfa254"},"vehicle_type_id":"4","last_reported":1759180109,"current_range_meters":16800,"station_id":"","pricing_plan_id":"cebpf4jnsgd1na2vs0mg"},{"bike_id":"dcaf3233-ddff-4cd1-a0ec-8a4c4b26bf10","system_id":"levelo_inurba_marseille","lat":43.27854,"lon":5.40747,"is_reserved":false,"is_disabled":false,"rental_uris":{"android":"levelo://app?vid=dcaf3233-ddff-4cd1-a0ec-8a4c4b26bf10","ios":"levelo://app?vid=dcaf3233-ddff-4cd1-a0ec-8a4c4b26bf10"},"vehicle_type_id":"4","last_reported":1759180109,"current_range_meters":16800,"station_id":"ce4bhnh2rcd13ifvqgtg","pricing_plan_id":"cebpf4jnsgd1na2vs0mg"},{"bike_id":"adfbe18b-7ca7-424a-9090-23d85cce22c6","system_id":"levelo_inurba_marseille","lat":43.30063,"lon":5.40907,"is_reserved":false,"is_disabled":false,"rental_uris":{"android":"levelo://app?vid=adfbe18b-7ca7-424a-9090-23d85cce22c6","ios":"levelo://app?vid=adfbe18b-7ca7-424a-9090-23d85cce22c6"},"vehicle_type_id":"4","last_reported":1759180109,"current_range_meters":17200,"station_id":"","pricing_plan_id":"cebpf4jnsgd1na2vs0mg"},{"bike_id":"2fd0b334-faa6-47ca-bb36-568aac899923","system_id":"levelo_inurba_marseille","lat":43.240038,"lon":5.366511,"is_reserved":false,"is_disabled":false,"rental_uris":{"android":"levelo://app?vid=2fd0b334-faa6-47ca-bb36-568aac899923","ios":"levelo://app?vid=2fd0b334-faa6-47ca-bb36-568aac899923"},"vehicle_type_id":"4","last_reported":1759180109,"current_range_meters":17200,"station_id":"ce4bhi12rcd13ifvqfp0","pricing_plan_id":"cebpf4jnsgd1na2vs0mg"},{"bike_id":"a29bee59-ea4f-424e-b048-900473be4ae3","system_id":"levelo_inurba_marseille","lat":43.284546,"lon":5.358773,"is_reserved":false,"is_disabled":false,"rental_uris":{"android":"levelo://app?vid=a29bee59-ea4f-424e-b048-900473be4ae3","ios":"levelo://app?vid=a29bee59-ea4f-424e-b048-900473be4ae3"},"vehicle_type_id":"4","last_reported":1759180109,"current_range_meters":17200,"station_id":"","pricing_plan_id":"cebpf4jnsgd1na2vs0mg"},{"bike_id":"76c8ca32-94fb-4666-ac3c-b567aef2c353","system_id":"levelo_inurba_marseille","lat":43.31992,"lon":5.38168,"is_reserved":false,"is_disabled":false,"rental_uris":{"android":"levelo://app?vid=76c8ca32-94fb-4666-ac3c-b567aef2c353","ios":"levelo://app?vid=76c8ca32-94fb-4666-ac3c-b567aef2c353"},"vehicle_type_id":"4","last_reported":1759180109,"current_range_meters":17200,"station_id":"ce4bhr12rcd13ifvqhpg","pricing_plan_id":"cebpf4jnsgd1na2vs0mg"},{"bike_id":"c5ce1bbe-3f9d-4cf2-8ed9-3ea7af10f154","system_id":"levelo_inurba_marseille","lat":43.28945,"lon":5.39627,"is_reserved":false,"is_disabled":false,"rental_uris":{"android":"levelo://app?vid=c5ce1bbe-3f9d-4cf2-8ed9-3ea7af10f154","ios":"levelo://app?vid=c5ce1bbe-3f9d-4cf2-8ed9-3ea7af10f154"},"vehicle_type_id":"4","last_reported":1759180109,"current_range_meters":17200,"station_id":"ce4bh3h2rcd13ifvqdn0","pricing_plan_id":"cebpf4jnsgd1na2vs0mg"},{"bike_id":"507daf2b-9177-453d-9679-b82a2036325d","system_id":"levelo_inurba_marseille","lat":43.28093,"lon":5.39656,"is_reserved":false,"is_disabled":false,"rental_uris":{"android":"levelo://app?vid=507daf2b-9177-453d-9679-b82a2036325d","ios":"levelo://app?vid=507daf2b-9177-453d-9679-b82a2036325d"},"vehicle_type_id":"4","last_reported":1759180109,"current_range_meters":17200,"station_id":"ce4bho12rcd13ifvqh2g","pricing_plan_id":"cebpf4jnsgd1na2vs0mg"},{"bike_id":"0387479e-5b84-466d-bcc1-d540e31e7431","system_id":"levelo_inurba_marseille","lat":43.30578,"lon":5.38438,"is_reserved":false,"is_disabled":true,"rental_uris":{"android":"levelo://app?vid=0387479e-5b84-466d-bcc1-d540e31e7431","ios":"levelo://app?vid=0387479e-5b84-466d-bcc1-d540e31e7431"},"vehicle_type_id":"4","last_reported":1759180109,"current_range_meters":17200,"station_id":"ce4bgg92rcd13ifvqb30","pricing_plan_id":"cebpf4jnsgd1na2vs0mg"},{"bike_id":"f6e3da73-c632-453c-b9a7-d01c04f51177","system_id":"levelo_inurba_marseille","lat":43.31489,"lon":5.3729,"is_reserved":false,"is_disabled":false,"rental_uris":{"android":"levelo://app?vid=f6e3da73-c632-453c-b9a7-d01c04f51177","ios":"levelo://app?vid=f6e3da73-c632-453c-b9a7-d01c04f51177"},"vehicle_type_id":"4","last_reported":1759180109,"current_range_meters":17200,"station_id":"ce4bgt12rcd13ifvqcd0","pricing_plan_id":"cebpf4jnsgd1na2vs0mg"},{"bike_id":"d114139c-60d0-4459-ba3b-cac62be00268","system_id":"levelo_inurba_marseille","lat":43.30179,"lon":5.37363,"is_reserved":false,"is_disabled":true,"rental_uris":{"android":"levelo://app?vid=d114139c-60d0-4459-ba3b-cac62be00268","ios":"levelo://app?vid=d114139c-60d0-4459-ba3b-cac62be00268"},"vehicle_type_id":"4","last_reported":1759180109,"current_range_meters":17200,"station_id":"","pricing_plan_id":"cebpf4jnsgd1na2vs0mg"},{"bike_id":"44631c7d-87d1-44be-96c2-2a43e54fa7d0","system_id":"levelo_inurba_marseille","lat":43.26196,"lon":5.37451,"is_reserved":false,"is_disabled":false,"rental_uris":{"android":"levelo://app?vid=44631c7d-87d1-44be-96c2-2a43e54fa7d0","ios":"levelo://app?vid=44631c7d-87d1-44be-96c2-2a43e54fa7d0"},"vehicle_type_id":"4","last_reported":1759180109,"current_range_meters":17200,"station_id":"ce4bhgp2rcd13ifvqfc0","pricing_plan_id":"cebpf4jnsgd1na2vs0mg"},{"bike_id":"b44cb621-88ac-4867-af32-6571f417a3d0","system_id":"levelo_inurba_marseille","lat":43.2658,"lon":5.3901,"is_reserved":false,"is_disabled":false,"rental_uris":{"android":"levelo://app?vid=b44cb621-88ac-4867-af32-6571f417a3d0","ios":"levelo://app?vid=b44cb621-88ac-4867-af32-6571f417a3d0"},"vehicle_type_id":"4","last_reported":1759180109,"current_range_meters":17200,"station_id":"ce4bhe12rcd13ifvqf30","pricing_plan_id":"cebpf4jnsgd1na2vs0mg"},{"bike_id":"63aa2455-2da3-4e9c-9e4e-54ed059c09ac","system_id":"levelo_inurba_marseille","lat":43.316515,"lon":5.38981,"is_reserved":false,"is_disabled":false,"rental_uris":{"android":"levelo://app?vid=63aa2455-2da3-4e9c-9e4e-54ed059c09ac","ios":"levelo://app?vid=63aa2455-2da3-4e9c-9e4e-54ed059c09ac"},"vehicle_type_id":"4","last_reported":1759180109,"current_range_meters":17200,"station_id":"","pricing_plan_id":"cebpf4jnsgd1na2vs0mg"},{"bike_id":"4a9332a9-e97e-4152-b899-1dbcc929a701","system_id":"levelo_inurba_marseille","lat":43.24173,"lon":5.39729,"is_reserved":false,"is_disabled":false,"rental_uris":{"android":"levelo://app?vid=4a9332a9-e97e-4152-b899-1dbcc929a701","ios":"levelo://app?vid=4a9332a9-e97e-4152-b899-1dbcc929a701"},"vehicle_type_id":"4","last_reported":1759180109,"current_range_meters":17600,"station_id":"ce4bhn12rcd13ifvqgpg","pricing_plan_id":"cebpf4jnsgd1na2vs0mg"},{"bike_id":"d3626de2-8599-4d6e-9423-051de6f3e78a","system_id":"levelo_inurba_marseille","lat":43.29533,"lon":5.38544,"is_reserved":false,"is_disabled":true,"rental_uris":{"android":"levelo://app?vid=d3626de2-8599-4d6e-9423-051de6f3e78a","ios":"levelo://app?vid=d3626de2-8599-4d6e-9423-051de6f3e78a"},"vehicle_type_id":"4","last_reported":1759180109,"current_range_meters":17600,"station_id":"ce4bgih2rcd13ifvqba0","pricing_plan_id":"cebpf4jnsgd1na2vs0mg"},{"bike_id":"f752559e-e357-41d0-b0e1-06afd32411be","system_id":"levelo_inurba_marseille","lat":43.27471,"lon":5.40787,"is_reserved":false,"is_disabled":false,"rental_uris":{"android":"levelo://app?vid=f752559e-e357-41d0-b0e1-06afd32411be","ios":"levelo://app?vid=f752559e-e357-41d0-b0e1-06afd32411be"},"vehicle_type_id":"4","last_reported":1759180109,"current_range_meters":17600,"station_id":"","pricing_plan_id":"cebpf4jnsgd1na2vs0mg"},{"bike_id":"bbc53aa3-a304-45b5-85b8-7a9e027f1078","system_id":"levelo_inurba_marseille","lat":43.29805,"lon":5.39336,"is_reserved":false,"is_disabled":false,"rental_uris":{"android":"levelo://app?vid=bbc53aa3-a304-45b5-85b8-7a9e027f1078","ios":"levelo://app?vid=bbc53aa3-a304-45b5-85b8-7a9e027f1078"},"vehicle_type_id":"4","last_reported":1759180109,"current_range_meters":17600,"station_id":"chh1huq6cuj3fo74tm60","pricing_plan_id":"cebpf4jnsgd1na2vs0mg"},{"bike_id":"1d77b7d7-6c50-47ce-a252-2a4011bccda7","system_id":"levelo_inurba_marseille","lat":43.25982,"lon":5.41368,"is_reserved":false,"is_disabled":false,"rental_uris":{"android":"levelo://app?vid=1d77b7d7-6c50-47ce-a252-2a4011bccda7","ios":"levelo://app?vid=1d77b7d7-6c50-47ce-a252-2a4011bccda7"},"vehicle_type_id":"4","last_reported":1759180109,"current_range_meters":17600,"station_id":"","pricing_plan_id":"cebpf4jnsgd1na2vs0mg"},{"bike_id":"db3a202b-6514-4a53-892d-e953fc1e9d26","system_id":"levelo_inurba_marseille","lat":43.22767,"lon":5.34929,"is_reserved":false,"is_disabled":false,"rental_uris":{"android":"levelo://app?vid=db3a202b-6514-4a53-892d-e953fc1e9d26","ios":"levelo://app?vid=db3a202b-6514-4a53-892d-e953fc1e9d26"},"vehicle_type_id":"4","last_reported":1759180109,"current_range_meters":17600,"station_id":"","pricing_plan_id":"cebpf4jnsgd1na2vs0mg"},{"bike_id":"daa47724-0bc3-499e-971d-3ffa8820cb5d","system_id":"levelo_inurba_marseille","lat":43.30645,"lon":5.37246,"is_reserved":false,"is_disabled":true,"rental_uris":{"android":"levelo://app?vid=daa47724-0bc3-499e-971d-3ffa8820cb5d","ios":"levelo://app?vid=daa47724-0bc3-499e-971d-3ffa8820cb5d"},"vehicle_type_id":"4","last_reported":1759180109,"current_range_meters":17600,"station_id":"ce4bgqh2rcd13ifvqc4g","pricing_plan_id":"cebpf4jnsgd1na2vs0mg"},{"bike_id":"46254444-0ab9-4918-89a9-b33a0dbb336a","system_id":"levelo_inurba_marseille","lat":43.30589,"lon":5.39342,"is_reserved":false,"is_disabled":false,"rental_uris":{"android":"levelo://app?vid=46254444-0ab9-4918-89a9-b33a0dbb336a","ios":"levelo://app?vid=46254444-0ab9-4918-89a9-b33a0dbb336a"},"vehicle_type_id":"4","last_reported":1759180109,"current_range_meters":17600,"station_id":"ce4bh0p2rcd13ifvqd80","pricing_plan_id":"cebpf4jnsgd1na2vs0mg"},{"bike_id":"55ea6bfd-7b5f-4273-b06e-e129c9203b2f","system_id":"levelo_inurba_marseille","lat":43.25118,"lon":5.39486,"is_reserved":false,"is_disabled":false,"rental_uris":{"android":"levelo://app?vid=55ea6bfd-7b5f-4273-b06e-e129c9203b2f","ios":"levelo://app?vid=55ea6bfd-7b5f-4273-b06e-e129c9203b2f"},"vehicle_type_id":"4","last_reported":1759180109,"current_range_meters":17600,"station_id":"ce4bhm12rcd13ifvqgkg","pricing_plan_id":"cebpf4jnsgd1na2vs0mg"},{"bike_id":"8dacc61b-aeb1-4050-a4fa-13eec3d1e7bf","system_id":"levelo_inurba_marseille","lat":43.29049,"lon":5.39958,"is_reserved":false,"is_disabled":false,"rental_uris":{"android":"levelo://app?vid=8dacc61b-aeb1-4050-a4fa-13eec3d1e7bf","ios":"levelo://app?vid=8dacc61b-aeb1-4050-a4fa-13eec3d1e7bf"},"vehicle_type_id":"4","last_reported":1759180109,"current_range_meters":18000,"station_id":"ce4bh392rcd13ifvqdm0","pricing_plan_id":"cebpf4jnsgd1na2vs0mg"},{"bike_id":"9e172408-40d0-42b7-9541-cca7c0087957","system_id":"levelo_inurba_marseille","lat":43.29583,"lon":5.38082,"is_reserved":false,"is_disabled":false,"rental_uris":{"android":"levelo://app?vid=9e172408-40d0-42b7-9541-cca7c0087957","ios":"levelo://app?vid=9e172408-40d0-42b7-9541-cca7c0087957"},"vehicle_type_id":"4","last_reported":1759180109,"current_range_meters":18000,"station_id":"ce4bgl12rcd13ifvqbo0","pricing_plan_id":"cebpf4jnsgd1na2vs0mg"},{"bike_id":"61dd405e-f4e8-4eab-966a-a47ff6584e41","system_id":"levelo_inurba_marseille","lat":43.28745,"lon":5.36077,"is_reserved":false,"is_disabled":false,"rental_uris":{"android":"levelo://app?vid=61dd405e-f4e8-4eab-966a-a47ff6584e41","ios":"levelo://app?vid=61dd405e-f4e8-4eab-966a-a47ff6584e41"},"vehicle_type_id":"4","last_reported":1759180109,"current_range_meters":18000,"station_id":"cki0cbj6b192h4jlfktg","pricing_plan_id":"cebpf4jnsgd1na2vs0mg"},{"bike_id":"3df77af2-bb3d-4ec1-8e90-a979439f5d69","system_id":"levelo_inurba_marseille","lat":43.28481,"lon":5.38573,"is_reserved":false,"is_disabled":false,"rental_uris":{"android":"levelo://app?vid=3df77af2-bb3d-4ec1-8e90-a979439f5d69","ios":"levelo://app?vid=3df77af2-bb3d-4ec1-8e90-a979439f5d69"},"vehicle_type_id":"4","last_reported":1759180109,"current_range_meters":18000,"station_id":"ce4bh8p2rcd13ifvqeb0","pricing_plan_id":"cebpf4jnsgd1na2vs0mg"},{"bike_id":"033d752a-0dd3-4803-8f48-6d2823710baf","system_id":"levelo_inurba_marseille","lat":43.23205,"lon":5.39985,"is_reserved":false,"is_disabled":false,"rental_uris":{"android":"levelo://app?vid=033d752a-0dd3-4803-8f48-6d2823710baf","ios":"levelo://app?vid=033d752a-0dd3-4803-8f48-6d2823710baf"},"vehicle_type_id":"4","last_reported":1759180109,"current_range_meters":18000,"station_id":"ce4bhn12rcd13ifvqgqg","pricing_plan_id":"cebpf4jnsgd1na2vs0mg"},{"bike_id":"dec7bb0d-6f86-4fea-b44f-534df292f8a0","system_id":"levelo_inurba_marseille","lat":43.28874,"lon":5.35867,"is_reserved":false,"is_disabled":false,"rental_uris":{"android":"levelo://app?vid=dec7bb0d-6f86-4fea-b44f-534df292f8a0","ios":"levelo://app?vid=dec7bb0d-6f86-4fea-b44f-534df292f8a0"},"vehicle_type_id":"4","last_reported":1759180109,"current_range_meters":18000,"station_id":"ce4bhb12rcd13ifvqem0","pricing_plan_id":"cebpf4jnsgd1na2vs0mg"},{"bike_id":"72491a48-f54e-4885-b3ac-6a007ae0f275","system_id":"levelo_inurba_marseille","lat":43.29279,"lon":5.40917,"is_reserved":false,"is_disabled":false,"rental_uris":{"android":"levelo://app?vid=72491a48-f54e-4885-b3ac-6a007ae0f275","ios":"levelo://app?vid=72491a48-f54e-4885-b3ac-6a007ae0f275"},"vehicle_type_id":"4","last_reported":1759180109,"current_range_meters":18000,"station_id":"ce4bh192rcd13ifvqdc0","pricing_plan_id":"cebpf4jnsgd1na2vs0mg"},{"bike_id":"84f305ce-7cfe-45d4-9172-1384fd3180f3","system_id":"levelo_inurba_marseille","lat":43.22927,"lon":5.35328,"is_reserved":false,"is_disabled":false,"rental_uris":{"android":"levelo://app?vid=84f305ce-7cfe-45d4-9172-1384fd3180f3","ios":"levelo://app?vid=84f305ce-7cfe-45d4-9172-1384fd3180f3"},"vehicle_type_id":"4","last_reported":1759180109,"current_range_meters":18000,"station_id":"cpo3532slgdg3j2ikp40","pricing_plan_id":"cebpf4jnsgd1na2vs0mg"},{"bike_id":"5145d6e5-24cd-4d0a-ad32-2ad33d30c5df","system_id":"levelo_inurba_marseille","lat":43.31332,"lon":5.39702,"is_reserved":false,"is_disabled":false,"rental_uris":{"android":"levelo://app?vid=5145d6e5-24cd-4d0a-ad32-2ad33d30c5df","ios":"levelo://app?vid=5145d6e5-24cd-4d0a-ad32-2ad33d30c5df"},"vehicle_type_id":"4","last_reported":1759180109,"current_range_meters":18800,"station_id":"ce4bgvp2rcd13ifvqcu0","pricing_plan_id":"cebpf4jnsgd1na2vs0mg"},{"bike_id":"6c5ad9a1-56cf-491b-82ab-2c9e8e3c5daa","system_id":"levelo_inurba_marseille","lat":43.29471,"lon":5.38837,"is_reserved":false,"is_disabled":false,"rental_uris":{"android":"levelo://app?vid=6c5ad9a1-56cf-491b-82ab-2c9e8e3c5daa","ios":"levelo://app?vid=6c5ad9a1-56cf-491b-82ab-2c9e8e3c5daa"},"vehicle_type_id":"4","last_reported":1759180109,"current_range_meters":18800,"station_id":"","pricing_plan_id":"cebpf4jnsgd1na2vs0mg"},{"bike_id":"3d704f10-89f9-4db3-b354-3763cd1401be","system_id":"levelo_inurba_marseille","lat":43.24617,"lon":5.38885,"is_reserved":false,"is_disabled":false,"rental_uris":{"android":"levelo://app?vid=3d704f10-89f9-4db3-b354-3763cd1401be","ios":"levelo://app?vid=3d704f10-89f9-4db3-b354-3763cd1401be"},"vehicle_type_id":"4","last_reported":1759180109,"current_range_meters":18800,"station_id":"ce4bhg12rcd13ifvqf60","pricing_plan_id":"cebpf4jnsgd1na2vs0mg"},{"bike_id":"7e00b46e-cf3b-446b-96e6-bc4deb704915","system_id":"levelo_inurba_marseille","lat":43.29263,"lon":5.40906,"is_reserved":false,"is_disabled":false,"rental_uris":{"android":"levelo://app?vid=7e00b46e-cf3b-446b-96e6-bc4deb704915","ios":"levelo://app?vid=7e00b46e-cf3b-446b-96e6-bc4deb704915"},"vehicle_type_id":"4","last_reported":1759180109,"current_range_meters":18800,"station_id":"ce4bh192rcd13ifvqdc0","pricing_plan_id":"cebpf4jnsgd1na2vs0mg"},{"bike_id":"fc96277e-6453-4bb0-af0e-c53026f29778","system_id":"levelo_inurba_marseille","lat":43.28537,"lon":5.38417,"is_reserved":false,"is_disabled":false,"rental_uris":{"android":"levelo://app?vid=fc96277e-6453-4bb0-af0e-c53026f29778","ios":"levelo://app?vid=fc96277e-6453-4bb0-af0e-c53026f29778"},"vehicle_type_id":"4","last_reported":1759180109,"current_range_meters":18800,"station_id":"","pricing_plan_id":"cebpf4jnsgd1na2vs0mg"},{"bike_id":"7cd433e0-4dc5-4dcb-a5c6-f17936bd4cb6","system_id":"levelo_inurba_marseille","lat":43.31558,"lon":5.40314,"is_reserved":false,"is_disabled":false,"rental_uris":{"android":"levelo://app?vid=7cd433e0-4dc5-4dcb-a5c6-f17936bd4cb6","ios":"levelo://app?vid=7cd433e0-4dc5-4dcb-a5c6-f17936bd4cb6"},"vehicle_type_id":"4","last_reported":1759180109,"current_range_meters":18800,"station_id":"","pricing_plan_id":"cebpf4jnsgd1na2vs0mg"},{"bike_id":"617dca4b-4508-4d52-9e62-d583d919ac44","system_id":"levelo_inurba_marseille","lat":43.29761,"lon":5.37102,"is_reserved":false,"is_disabled":false,"rental_uris":{"android":"levelo://app?vid=617dca4b-4508-4d52-9e62-d583d919ac44","ios":"levelo://app?vid=617dca4b-4508-4d52-9e62-d583d919ac44"},"vehicle_type_id":"4","last_reported":1759180109,"current_range_meters":18800,"station_id":"ce4bgop2rcd13ifvqc1g","pricing_plan_id":"cebpf4jnsgd1na2vs0mg"},{"bike_id":"8105eeef-5a4b-46b9-a2ef-666a8dda2a26","system_id":"levelo_inurba_marseille","lat":43.33018,"lon":5.38137,"is_reserved":false,"is_disabled":false,"rental_uris":{"android":"levelo://app?vid=8105eeef-5a4b-46b9-a2ef-666a8dda2a26","ios":"levelo://app?vid=8105eeef-5a4b-46b9-a2ef-666a8dda2a26"},"vehicle_type_id":"4","last_reported":1759180109,"current_range_meters":18800,"station_id":"","pricing_plan_id":"cebpf4jnsgd1na2vs0mg"},{"bike_id":"5f0c8508-0f7e-47a7-9460-1b037e8ee701","system_id":"levelo_inurba_marseille","lat":43.29558,"lon":5.42288,"is_reserved":false,"is_disabled":false,"rental_uris":{"android":"levelo://app?vid=5f0c8508-0f7e-47a7-9460-1b037e8ee701","ios":"levelo://app?vid=5f0c8508-0f7e-47a7-9460-1b037e8ee701"},"vehicle_type_id":"4","last_reported":1759180109,"current_range_meters":18800,"station_id":"ce4bhph2rcd13ifvqhdg","pricing_plan_id":"cebpf4jnsgd1na2vs0mg"},{"bike_id":"d88e0d03-a71d-4d69-bfe0-f7906e10eef6","system_id":"levelo_inurba_marseille","lat":43.22938,"lon":5.35375,"is_reserved":false,"is_disabled":false,"rental_uris":{"android":"levelo://app?vid=d88e0d03-a71d-4d69-bfe0-f7906e10eef6","ios":"levelo://app?vid=d88e0d03-a71d-4d69-bfe0-f7906e10eef6"},"vehicle_type_id":"4","last_reported":1759180109,"current_range_meters":18800,"station_id":"cpo3532slgdg3j2ikp40","pricing_plan_id":"cebpf4jnsgd1na2vs0mg"},{"bike_id":"b3ce234e-8291-4f87-be4f-34a1eae6782d","system_id":"levelo_inurba_marseille","lat":43.31533,"lon":5.38033,"is_reserved":false,"is_disabled":false,"rental_uris":{"android":"levelo://app?vid=b3ce234e-8291-4f87-be4f-34a1eae6782d","ios":"levelo://app?vid=b3ce234e-8291-4f87-be4f-34a1eae6782d"},"vehicle_type_id":"4","last_reported":1759180109,"current_range_meters":18800,"station_id":"ce4bhsp2rcd13ifvqi50","pricing_plan_id":"cebpf4jnsgd1na2vs0mg"},{"bike_id":"627f0009-c086-4f8a-8406-c08f3975bb85","system_id":"levelo_inurba_marseille","lat":43.337914,"lon":5.374267,"is_reserved":false,"is_disabled":false,"rental_uris":{"android":"levelo://app?vid=627f0009-c086-4f8a-8406-c08f3975bb85","ios":"levelo://app?vid=627f0009-c086-4f8a-8406-c08f3975bb85"},"vehicle_type_id":"4","last_reported":1759180109,"current_range_meters":18800,"station_id":"","pricing_plan_id":"cebpf4jnsgd1na2vs0mg"},{"bike_id":"e3e1c749-9f9b-4770-99ff-1973aecd4e6d","system_id":"levelo_inurba_marseille","lat":43.28505,"lon":5.38429,"is_reserved":false,"is_disabled":true,"rental_uris":{"android":"levelo://app?vid=e3e1c749-9f9b-4770-99ff-1973aecd4e6d","ios":"levelo://app?vid=e3e1c749-9f9b-4770-99ff-1973aecd4e6d"},"vehicle_type_id":"4","last_reported":1759180109,"current_range_meters":19200,"station_id":"ce4bh512rcd13ifvqe3g","pricing_plan_id":"cebpf4jnsgd1na2vs0mg"},{"bike_id":"59c62fd2-af36-4676-9331-b440df67fa94","system_id":"levelo_inurba_marseille","lat":43.28037,"lon":5.36958,"is_reserved":false,"is_disabled":false,"rental_uris":{"android":"levelo://app?vid=59c62fd2-af36-4676-9331-b440df67fa94","ios":"levelo://app?vid=59c62fd2-af36-4676-9331-b440df67fa94"},"vehicle_type_id":"4","last_reported":1759180109,"current_range_meters":19200,"station_id":"ce4bha12rcd13ifvqef0","pricing_plan_id":"cebpf4jnsgd1na2vs0mg"},{"bike_id":"a2bf9d49-20f4-4a57-ae11-1191ce374755","system_id":"levelo_inurba_marseille","lat":43.28036,"lon":5.36947,"is_reserved":false,"is_disabled":false,"rental_uris":{"android":"levelo://app?vid=a2bf9d49-20f4-4a57-ae11-1191ce374755","ios":"levelo://app?vid=a2bf9d49-20f4-4a57-ae11-1191ce374755"},"vehicle_type_id":"4","last_reported":1759180109,"current_range_meters":19200,"station_id":"ce4bha12rcd13ifvqef0","pricing_plan_id":"cebpf4jnsgd1na2vs0mg"},{"bike_id":"9426c6dd-16f8-435f-81a5-daf37fc8bfe6","system_id":"levelo_inurba_marseille","lat":43.29538,"lon":5.38546,"is_reserved":false,"is_disabled":false,"rental_uris":{"android":"levelo://app?vid=9426c6dd-16f8-435f-81a5-daf37fc8bfe6","ios":"levelo://app?vid=9426c6dd-16f8-435f-81a5-daf37fc8bfe6"},"vehicle_type_id":"4","last_reported":1759180109,"current_range_meters":19200,"station_id":"ce4bgih2rcd13ifvqba0","pricing_plan_id":"cebpf4jnsgd1na2vs0mg"},{"bike_id":"cd226695-e354-45d8-9a5b-bb660f7610be","system_id":"levelo_inurba_marseille","lat":43.23191,"lon":5.35533,"is_reserved":false,"is_disabled":false,"rental_uris":{"android":"levelo://app?vid=cd226695-e354-45d8-9a5b-bb660f7610be","ios":"levelo://app?vid=cd226695-e354-45d8-9a5b-bb660f7610be"},"vehicle_type_id":"4","last_reported":1759180109,"current_range_meters":19200,"station_id":"ce4bhu92rcd13ifvqi70","pricing_plan_id":"cebpf4jnsgd1na2vs0mg"},{"bike_id":"b11a7752-0a16-4567-9790-8cbd17088add","system_id":"levelo_inurba_marseille","lat":43.29525,"lon":5.39041,"is_reserved":false,"is_disabled":false,"rental_uris":{"android":"levelo://app?vid=b11a7752-0a16-4567-9790-8cbd17088add","ios":"levelo://app?vid=b11a7752-0a16-4567-9790-8cbd17088add"},"vehicle_type_id":"4","last_reported":1759180109,"current_range_meters":19200,"station_id":"ce4bh3p2rcd13ifvqdp0","pricing_plan_id":"cebpf4jnsgd1na2vs0mg"},{"bike_id":"f0217a9b-ea51-455e-aae0-09f42fc2e589","system_id":"levelo_inurba_marseille","lat":43.30601,"lon":5.39314,"is_reserved":false,"is_disabled":false,"rental_uris":{"android":"levelo://app?vid=f0217a9b-ea51-455e-aae0-09f42fc2e589","ios":"levelo://app?vid=f0217a9b-ea51-455e-aae0-09f42fc2e589"},"vehicle_type_id":"4","last_reported":1759180109,"current_range_meters":19200,"station_id":"ce4bh0p2rcd13ifvqd80","pricing_plan_id":"cebpf4jnsgd1na2vs0mg"},{"bike_id":"ca0e078c-e7bf-4756-9ea8-84ca420243b3","system_id":"levelo_inurba_marseille","lat":43.29984,"lon":5.37177,"is_reserved":false,"is_disabled":false,"rental_uris":{"android":"levelo://app?vid=ca0e078c-e7bf-4756-9ea8-84ca420243b3","ios":"levelo://app?vid=ca0e078c-e7bf-4756-9ea8-84ca420243b3"},"vehicle_type_id":"4","last_reported":1759180109,"current_range_meters":19600,"station_id":"ce4bgr92rcd13ifvqc7g","pricing_plan_id":"cebpf4jnsgd1na2vs0mg"},{"bike_id":"a58a4c94-7754-46be-b35a-a0b84fc468a5","system_id":"levelo_inurba_marseille","lat":43.30001,"lon":5.37336,"is_reserved":false,"is_disabled":false,"rental_uris":{"android":"levelo://app?vid=a58a4c94-7754-46be-b35a-a0b84fc468a5","ios":"levelo://app?vid=a58a4c94-7754-46be-b35a-a0b84fc468a5"},"vehicle_type_id":"4","last_reported":1759180109,"current_range_meters":19600,"station_id":"","pricing_plan_id":"cebpf4jnsgd1na2vs0mg"},{"bike_id":"6c2e96f0-0d94-4ada-b75d-f16e4d9045a7","system_id":"levelo_inurba_marseille","lat":43.23968,"lon":5.36619,"is_reserved":false,"is_disabled":false,"rental_uris":{"android":"levelo://app?vid=6c2e96f0-0d94-4ada-b75d-f16e4d9045a7","ios":"levelo://app?vid=6c2e96f0-0d94-4ada-b75d-f16e4d9045a7"},"vehicle_type_id":"4","last_reported":1759180109,"current_range_meters":19600,"station_id":"ce4bhi12rcd13ifvqfp0","pricing_plan_id":"cebpf4jnsgd1na2vs0mg"},{"bike_id":"b69f459f-9325-4d3a-bdcc-5f63cb1c049b","system_id":"levelo_inurba_marseille","lat":43.25539,"lon":5.38269,"is_reserved":false,"is_disabled":false,"rental_uris":{"android":"levelo://app?vid=b69f459f-9325-4d3a-bdcc-5f63cb1c049b","ios":"levelo://app?vid=b69f459f-9325-4d3a-bdcc-5f63cb1c049b"},"vehicle_type_id":"4","last_reported":1759180109,"current_range_meters":19600,"station_id":"","pricing_plan_id":"cebpf4jnsgd1na2vs0mg"},{"bike_id":"0aa021b6-a24e-4440-ad91-1a7878959d3b","system_id":"levelo_inurba_marseille","lat":43.241645,"lon":5.364094,"is_reserved":false,"is_disabled":true,"rental_uris":{"android":"levelo://app?vid=0aa021b6-a24e-4440-ad91-1a7878959d3b","ios":"levelo://app?vid=0aa021b6-a24e-4440-ad91-1a7878959d3b"},"vehicle_type_id":"4","last_reported":1759180109,"current_range_meters":19600,"station_id":"","pricing_plan_id":"cebpf4jnsgd1na2vs0mg"},{"bike_id":"41896c35-2b8b-47df-af86-67e44bb04628","system_id":"levelo_inurba_marseille","lat":43.2917,"lon":5.37184,"is_reserved":false,"is_disabled":false,"rental_uris":{"android":"levelo://app?vid=41896c35-2b8b-47df-af86-67e44bb04628","ios":"levelo://app?vid=41896c35-2b8b-47df-af86-67e44bb04628"},"vehicle_type_id":"4","last_reported":1759180109,"current_range_meters":19600,"station_id":"ce4bha92rcd13ifvqeh0","pricing_plan_id":"cebpf4jnsgd1na2vs0mg"},{"bike_id":"de6dd54f-1dbb-43e2-b7d7-3b5b0b201385","system_id":"levelo_inurba_marseille","lat":43.2495,"lon":5.40525,"is_reserved":false,"is_disabled":false,"rental_uris":{"android":"levelo://app?vid=de6dd54f-1dbb-43e2-b7d7-3b5b0b201385","ios":"levelo://app?vid=de6dd54f-1dbb-43e2-b7d7-3b5b0b201385"},"vehicle_type_id":"4","last_reported":1759180109,"current_range_meters":19600,"station_id":"st_d2ngiaodas8pm72gd1h0","pricing_plan_id":"cebpf4jnsgd1na2vs0mg"},{"bike_id":"13367093-9427-4e70-a547-9c5f5ca64ad1","system_id":"levelo_inurba_marseille","lat":43.246515,"lon":5.38893,"is_reserved":false,"is_disabled":true,"rental_uris":{"android":"levelo://app?vid=13367093-9427-4e70-a547-9c5f5ca64ad1","ios":"levelo://app?vid=13367093-9427-4e70-a547-9c5f5ca64ad1"},"vehicle_type_id":"4","last_reported":1759180109,"current_range_meters":19600,"station_id":"ce4bhg12rcd13ifvqf60","pricing_plan_id":"cebpf4jnsgd1na2vs0mg"},{"bike_id":"50a6d9be-879d-4d99-9855-abb98fbce5b8","system_id":"levelo_inurba_marseille","lat":43.337851,"lon":5.374298,"is_reserved":false,"is_disabled":false,"rental_uris":{"android":"levelo://app?vid=50a6d9be-879d-4d99-9855-abb98fbce5b8","ios":"levelo://app?vid=50a6d9be-879d-4d99-9855-abb98fbce5b8"},"vehicle_type_id":"4","last_reported":1759180109,"current_range_meters":19600,"station_id":"","pricing_plan_id":"cebpf4jnsgd1na2vs0mg"},{"bike_id":"77617fa3-855a-4a58-b6f8-3f4f5f226365","system_id":"levelo_inurba_marseille","lat":43.30438,"lon":5.38884,"is_reserved":false,"is_disabled":false,"rental_uris":{"android":"levelo://app?vid=77617fa3-855a-4a58-b6f8-3f4f5f226365","ios":"levelo://app?vid=77617fa3-855a-4a58-b6f8-3f4f5f226365"},"vehicle_type_id":"4","last_reported":1759180109,"current_range_meters":20000,"station_id":"ce4bgk12rcd13ifvqbi0","pricing_plan_id":"cebpf4jnsgd1na2vs0mg"},{"bike_id":"e5db6ea7-283b-495a-aa8b-57f0519ff013","system_id":"levelo_inurba_marseille","lat":43.30608,"lon":5.39333,"is_reserved":false,"is_disabled":false,"rental_uris":{"android":"levelo://app?vid=e5db6ea7-283b-495a-aa8b-57f0519ff013","ios":"levelo://app?vid=e5db6ea7-283b-495a-aa8b-57f0519ff013"},"vehicle_type_id":"4","last_reported":1759180109,"current_range_meters":20000,"station_id":"ce4bh0p2rcd13ifvqd80","pricing_plan_id":"cebpf4jnsgd1na2vs0mg"},{"bike_id":"6e35eb3a-244d-446e-ba2c-c58465f51251","system_id":"levelo_inurba_marseille","lat":43.32098,"lon":5.3677,"is_reserved":false,"is_disabled":false,"rental_uris":{"android":"levelo://app?vid=6e35eb3a-244d-446e-ba2c-c58465f51251","ios":"levelo://app?vid=6e35eb3a-244d-446e-ba2c-c58465f51251"},"vehicle_type_id":"4","last_reported":1759180109,"current_range_meters":20000,"station_id":"ce4bhrh2rcd13ifvqhug","pricing_plan_id":"cebpf4jnsgd1na2vs0mg"},{"bike_id":"3a692a0f-d1c4-436d-b649-cff5850aa9ec","system_id":"levelo_inurba_marseille","lat":43.30595,"lon":5.39358,"is_reserved":false,"is_disabled":false,"rental_uris":{"android":"levelo://app?vid=3a692a0f-d1c4-436d-b649-cff5850aa9ec","ios":"levelo://app?vid=3a692a0f-d1c4-436d-b649-cff5850aa9ec"},"vehicle_type_id":"4","last_reported":1759180109,"current_range_meters":20000,"station_id":"ce4bh0p2rcd13ifvqd80","pricing_plan_id":"cebpf4jnsgd1na2vs0mg"},{"bike_id":"e258170c-afea-4504-8e2a-f78af79edb0a","system_id":"levelo_inurba_marseille","lat":43.29895,"lon":5.39761,"is_reserved":false,"is_disabled":true,"rental_uris":{"android":"levelo://app?vid=e258170c-afea-4504-8e2a-f78af79edb0a","ios":"levelo://app?vid=e258170c-afea-4504-8e2a-f78af79edb0a"},"vehicle_type_id":"4","last_reported":1759180109,"current_range_meters":20000,"station_id":"ce4bh0h2rcd13ifvqd50","pricing_plan_id":"cebpf4jnsgd1na2vs0mg"},{"bike_id":"2410b542-4dbb-4ba2-8de7-3b722fc9a69f","system_id":"levelo_inurba_marseille","lat":43.28539,"lon":5.35893,"is_reserved":false,"is_disabled":true,"rental_uris":{"android":"levelo://app?vid=2410b542-4dbb-4ba2-8de7-3b722fc9a69f","ios":"levelo://app?vid=2410b542-4dbb-4ba2-8de7-3b722fc9a69f"},"vehicle_type_id":"4","last_reported":1759180109,"current_range_meters":20400,"station_id":"ce4bhah2rcd13ifvqei0","pricing_plan_id":"cebpf4jnsgd1na2vs0mg"},{"bike_id":"7946ecd3-8e39-4c86-a94f-30cf913c7881","system_id":"levelo_inurba_marseille","lat":43.28267,"lon":5.35071,"is_reserved":false,"is_disabled":false,"rental_uris":{"android":"levelo://app?vid=7946ecd3-8e39-4c86-a94f-30cf913c7881","ios":"levelo://app?vid=7946ecd3-8e39-4c86-a94f-30cf913c7881"},"vehicle_type_id":"4","last_reported":1759180109,"current_range_meters":20000,"station_id":"ce4bhbp2rcd13ifvqerg","pricing_plan_id":"cebpf4jnsgd1na2vs0mg"},{"bike_id":"8fef51e7-1d70-454e-aeb6-dfea333ab1a5","system_id":"levelo_inurba_marseille","lat":43.31328,"lon":5.39688,"is_reserved":false,"is_disabled":false,"rental_uris":{"android":"levelo://app?vid=8fef51e7-1d70-454e-aeb6-dfea333ab1a5","ios":"levelo://app?vid=8fef51e7-1d70-454e-aeb6-dfea333ab1a5"},"vehicle_type_id":"4","last_reported":1759180109,"current_range_meters":20000,"station_id":"ce4bgvp2rcd13ifvqcu0","pricing_plan_id":"cebpf4jnsgd1na2vs0mg"},{"bike_id":"247ef431-538e-43aa-be7f-7ee2dc969c24","system_id":"levelo_inurba_marseille","lat":43.29263,"lon":5.409,"is_reserved":false,"is_disabled":false,"rental_uris":{"android":"levelo://app?vid=247ef431-538e-43aa-be7f-7ee2dc969c24","ios":"levelo://app?vid=247ef431-538e-43aa-be7f-7ee2dc969c24"},"vehicle_type_id":"4","last_reported":1759180109,"current_range_meters":20000,"station_id":"ce4bh192rcd13ifvqdc0","pricing_plan_id":"cebpf4jnsgd1na2vs0mg"},{"bike_id":"c3e24e7f-fd15-4bb0-a616-096e5fea85aa","system_id":"levelo_inurba_marseille","lat":43.25566,"lon":5.38234,"is_reserved":false,"is_disabled":false,"rental_uris":{"android":"levelo://app?vid=c3e24e7f-fd15-4bb0-a616-096e5fea85aa","ios":"levelo://app?vid=c3e24e7f-fd15-4bb0-a616-096e5fea85aa"},"vehicle_type_id":"4","last_reported":1759180109,"current_range_meters":20000,"station_id":"ce4bhih2rcd13ifvqfs0","pricing_plan_id":"cebpf4jnsgd1na2vs0mg"},{"bike_id":"e75a043a-077f-43a6-9b36-26a2c2059b68","system_id":"levelo_inurba_marseille","lat":43.29034,"lon":5.3864,"is_reserved":false,"is_disabled":false,"rental_uris":{"android":"levelo://app?vid=e75a043a-077f-43a6-9b36-26a2c2059b68","ios":"levelo://app?vid=e75a043a-077f-43a6-9b36-26a2c2059b68"},"vehicle_type_id":"4","last_reported":1759180109,"current_range_meters":20000,"station_id":"ce4bh4p2rcd13ifvqe0g","pricing_plan_id":"cebpf4jnsgd1na2vs0mg"},{"bike_id":"606f665f-1aed-4bfd-9b33-226cd955c1ba","system_id":"levelo_inurba_marseille","lat":43.25939,"lon":5.4091,"is_reserved":false,"is_disabled":false,"rental_uris":{"android":"levelo://app?vid=606f665f-1aed-4bfd-9b33-226cd955c1ba","ios":"levelo://app?vid=606f665f-1aed-4bfd-9b33-226cd955c1ba"},"vehicle_type_id":"4","last_reported":1759180109,"current_range_meters":20000,"station_id":"ce4bhm92rcd13ifvqglg","pricing_plan_id":"cebpf4jnsgd1na2vs0mg"},{"bike_id":"de50eee1-3c57-43f5-a457-4c455c423c0d","system_id":"levelo_inurba_marseille","lat":43.31335,"lon":5.39685,"is_reserved":false,"is_disabled":false,"rental_uris":{"android":"levelo://app?vid=de50eee1-3c57-43f5-a457-4c455c423c0d","ios":"levelo://app?vid=de50eee1-3c57-43f5-a457-4c455c423c0d"},"vehicle_type_id":"4","last_reported":1759180109,"current_range_meters":20000,"station_id":"ce4bgvp2rcd13ifvqcu0","pricing_plan_id":"cebpf4jnsgd1na2vs0mg"},{"bike_id":"5496f099-0666-4ba3-b607-abd4c390cf36","system_id":"levelo_inurba_marseille","lat":43.31991,"lon":5.38156,"is_reserved":false,"is_disabled":false,"rental_uris":{"android":"levelo://app?vid=5496f099-0666-4ba3-b607-abd4c390cf36","ios":"levelo://app?vid=5496f099-0666-4ba3-b607-abd4c390cf36"},"vehicle_type_id":"4","last_reported":1759180109,"current_range_meters":20000,"station_id":"ce4bhr12rcd13ifvqhpg","pricing_plan_id":"cebpf4jnsgd1na2vs0mg"},{"bike_id":"a4306bb6-6156-4685-b23b-1c3260233189","system_id":"levelo_inurba_marseille","lat":43.2658,"lon":5.39009,"is_reserved":false,"is_disabled":false,"rental_uris":{"android":"levelo://app?vid=a4306bb6-6156-4685-b23b-1c3260233189","ios":"levelo://app?vid=a4306bb6-6156-4685-b23b-1c3260233189"},"vehicle_type_id":"4","last_reported":1759180109,"current_range_meters":20000,"station_id":"ce4bhe12rcd13ifvqf30","pricing_plan_id":"cebpf4jnsgd1na2vs0mg"},{"bike_id":"6d392b4b-28dc-4471-bc7a-9685640dbd94","system_id":"levelo_inurba_marseille","lat":43.29249,"lon":5.40913,"is_reserved":false,"is_disabled":false,"rental_uris":{"android":"levelo://app?vid=6d392b4b-28dc-4471-bc7a-9685640dbd94","ios":"levelo://app?vid=6d392b4b-28dc-4471-bc7a-9685640dbd94"},"vehicle_type_id":"4","last_reported":1759180109,"current_range_meters":20000,"station_id":"ce4bh192rcd13ifvqdc0","pricing_plan_id":"cebpf4jnsgd1na2vs0mg"},{"bike_id":"3f8a7425-65dd-467a-bda8-36ede2e6a269","system_id":"levelo_inurba_marseille","lat":43.26937,"lon":5.41011,"is_reserved":false,"is_disabled":false,"rental_uris":{"android":"levelo://app?vid=3f8a7425-65dd-467a-bda8-36ede2e6a269","ios":"levelo://app?vid=3f8a7425-65dd-467a-bda8-36ede2e6a269"},"vehicle_type_id":"4","last_reported":1759180109,"current_range_meters":20400,"station_id":"","pricing_plan_id":"cebpf4jnsgd1na2vs0mg"},