{"last_updated":1702030055,"ttl":30,"version":"2.2","data":{"bikes":[{"bike_id":"4cc92d93-b1b6-4f86-84b9-5c43d6d332d5","system_id":"levelo_inurba_marseille","lat":43.31341,"lon":5.367098,"is_reserved":false,"is_disabled":false,"rental_uris":{"android":"levelo://app?vid=4cc92d93-b1b6-4f86-84b9-5c43d6d332d5","ios":"levelo://app?vid=4cc92d93-b1b6-4f86-84b9-5c43d6d332d5"},"vehicle_type_id":"4","last_reported":1702030055,"current_range_meters":27200,"station_id":"ce4bgr92rcd13ifvqc6g","pricing_plan_id":"free"},{"bike_id":"62fb5385-2c5d-4c9d-b743-187bb4fbb192","system_id":"levelo_inurba_marseille","lat":43.313391,"lon":5.36706,"is_reserved":false,"is_disabled":false,"rental_uris":{"android":"levelo://app?vid=62fb5385-2c5d-4c9d-b743-187bb4fbb192","ios":"levelo://app?vid=62fb5385-2c5d-4c9d-b743-187bb4fbb192"},"vehicle_type_id":"4","last_reported":1702030055,"current_range_meters":31200,"station_id":"ce4bgr92rcd13ifvqc6g","pricing_plan_id":"free"},{"bike_id":"cb1d61cc-7556-42fd-88f8-5c8c49d4d3db","system_id":"levelo_inurba_marseille","lat":43.31341,"lon":5.367098,"is_reserved":false,"is_disabled":false,"rental_uris":{"android":"levelo://app?vid=cb1d61cc-7556-42fd-88f8-5c8c49d4d3db","ios":"levelo://app?vid=cb1d61cc-7556-42fd-88f8-5c8c49d4d3db"},"vehicle_type_id":"4","last_reported":1702030055,"current_range_meters":30400,"station_id":"ce4bgr92rcd13ifvqc6g","pricing_plan_id":"free"},{"bike_id":"c18eeac4-26f3-4d7f-a37a-dbf41160ad67","system_id":"levelo_inurba_marseille","lat":43.312239,"lon":5.368562,"is_reserved":false,"is_disabled":false,"rental_uris":{"android":"levelo://app?vid=c18eeac4-26f3-4d7f-a37a-dbf41160ad67","ios":"levelo://app?vid=c18eeac4-26f3-4d7f-a37a-dbf41160ad67"},"vehicle_type_id":"4","last_reported":1702030055,"current_range_meters":25600,"station_id":"ce4bgl92rcd13ifvqbq0","pricing_plan_id":"free"},{"bike_id":"a0133268-ea4b-4736-a955-97353b0f2f55","system_id":"levelo_inurba_marseille","lat":43.305714,"lon":5.365633,"is_reserved":false,"is_disabled":false,"rental_uris":{"android":"levelo://app?vid=a0133268-ea4b-4736-a955-97353b0f2f55","ios":"levelo://app?vid=a0133268-ea4b-4736-a955-97353b0f2f55"},"vehicle_type_id":"4","last_reported":1702030055,"current_range_meters":6000,"station_id":"ce4bgs12rcd13ifvqcag","pricing_plan_id":"free"},{"bike_id":"09a9f57e-6ef6-4dfd-913f-be9d43135967","system_id":"levelo_inurba_marseille","lat":43.3053,"lon":5.367126,"is_reserved":false,"is_disabled":false,"rental_uris":{"android":"levelo://app?vid=09a9f57e-6ef6-4dfd-913f-be9d43135967","ios":"levelo://app?vid=09a9f57e-6ef6-4dfd-913f-be9d43135967"},"vehicle_type_id":"4","last_reported":1702030055,"current_range_meters":24800,"station_id":"ce4bgrp2rcd13ifvqc9g","pricing_plan_id":"free"},{"bike_id":"fedb3e29-bcf2-4166-90e4-d598ddafdc95","system_id":"levelo_inurba_marseille","lat":43.30527,"lon":5.36702,"is_reserved":false,"is_disabled":false,"rental_uris":{"android":"levelo://app?vid=fedb3e29-bcf2-4166-90e4-d598ddafdc95","ios":"levelo://app?vid=fedb3e29-bcf2-4166-90e4-d598ddafdc95"},"vehicle_type_id":"4","last_reported":1702030055,"current_range_meters":29600,"station_id":"ce4bgrp2rcd13ifvqc9g","pricing_plan_id":"free"},{"bike_id":"83fbf89c-062e-46be-ae77-900d06221fc3","system_id":"levelo_inurba_marseille","lat":43.30526,"lon":5.36703,"is_reserved":false,"is_disabled":false,"rental_uris":{"android":"levelo://app?vid=83fbf89c-062e-46be-ae77-900d06221fc3","ios":"levelo://app?vid=83fbf89c-062e-46be-ae77-900d06221fc3"},"vehicle_type_id":"4","last_reported":1702030055,"current_range_meters":23200,"station_id":"ce4bgrp2rcd13ifvqc9g","pricing_plan_id":"free"},{"bike_id":"c5d5dd7e-bae5-40c8-bd8e-b79f470b8c06","system_id":"levelo_inurba_marseille","lat":43.305706,"lon":5.365654,"is_reserved":false,"is_disabled":false,"rental_uris":{"android":"levelo://app?vid=c5d5dd7e-bae5-40c8-bd8e-b79f470b8c06","ios":"levelo://app?vid=c5d5dd7e-bae5-40c8-bd8e-b79f470b8c06"},"vehicle_type_id":"4","last_reported":1702030055,"current_range_meters":27600,"station_id":"ce4bgs12rcd13ifvqcag","pricing_plan_id":"free"},{"bike_id":"98925f62-e051-4b0d-bc39-186a05f07896","system_id":"levelo_inurba_marseille","lat":43.305989,"lon":5.37225,"is_reserved":false,"is_disabled":false,"rental_uris":{"android":"levelo://app?vid=98925f62-e051-4b0d-bc39-186a05f07896","ios":"levelo://app?vid=98925f62-e051-4b0d-bc39-186a05f07896"},"vehicle_type_id":"4","last_reported":1702030055,"current_range_meters":28800,"station_id":"ce4bgqh2rcd13ifvqc4g","pricing_plan_id":"free"},{"bike_id":"74149a2f-92ae-414d-95ba-87adec5b32b4","system_id":"levelo_inurba_marseille","lat":43.311131,"lon":5.377651,"is_reserved":false,"is_disabled":false,"rental_uris":{"android":"levelo://app?vid=74149a2f-92ae-414d-95ba-87adec5b32b4","ios":"levelo://app?vid=74149a2f-92ae-414d-95ba-87adec5b32b4"},"vehicle_type_id":"4","last_reported":1702030055,"current_range_meters":22800,"station_id":"ce4bgt92rcd13ifvqcg0","pricing_plan_id":"free"},{"bike_id":"dee3c77c-6b67-49ef-9346-2b65d53ffb97","system_id":"levelo_inurba_marseille","lat":43.307945,"lon":5.376487,"is_reserved":false,"is_disabled":false,"rental_uris":{"android":"levelo://app?vid=dee3c77c-6b67-49ef-9346-2b65d53ffb97","ios":"levelo://app?vid=dee3c77c-6b67-49ef-9346-2b65d53ffb97"},"vehicle_type_id":"4","last_reported":1702030055,"current_range_meters":26000,"station_id":"ce4bgv92rcd13ifvqcq0","pricing_plan_id":"free"},{"bike_id":"adf146c5-e4e1-4668-9a33-042940925130","system_id":"levelo_inurba_marseille","lat":43.31351,"lon":5.37909,"is_reserved":false,"is_disabled":false,"rental_uris":{"android":"levelo://app?vid=adf146c5-e4e1-4668-9a33-042940925130","ios":"levelo://app?vid=adf146c5-e4e1-4668-9a33-042940925130"},"vehicle_type_id":"4","last_reported":1702030055,"current_range_meters":0,"station_id":"","pricing_plan_id":"free"},{"bike_id":"1c5bd8ad-09cd-46a6-a17b-15bc893af4b2","system_id":"levelo_inurba_marseille","lat":43.30304,"lon":5.368987,"is_reserved":false,"is_disabled":false,"rental_uris":{"android":"levelo://app?vid=1c5bd8ad-09cd-46a6-a17b-15bc893af4b2","ios":"levelo://app?vid=1c5bd8ad-09cd-46a6-a17b-15bc893af4b2"},"vehicle_type_id":"4","last_reported":1702030055,"current_range_meters":31200,"station_id":"ce4bgqh2rcd13ifvqc5g","pricing_plan_id":"free"},{"bike_id":"796977cc-15a4-414a-aa19-2709631b7836","system_id":"levelo_inurba_marseille","lat":43.303046,"lon":5.368981,"is_reserved":false,"is_disabled":false,"rental_uris":{"android":"levelo://app?vid=796977cc-15a4-414a-aa19-2709631b7836","ios":"levelo://app?vid=796977cc-15a4-414a-aa19-2709631b7836"},"vehicle_type_id":"4","last_reported":1702030055,"current_range_meters":30400,"station_id":"ce4bgqh2rcd13ifvqc5g","pricing_plan_id":"free"},{"bike_id":"519dba1d-9172-4385-a098-f03c133c1416","system_id":"levelo_inurba_marseille","lat":43.303046,"lon":5.368981,"is_reserved":false,"is_disabled":false,"rental_uris":{"android":"levelo://app?vid=519dba1d-9172-4385-a098-f03c133c1416","ios":"levelo://app?vid=519dba1d-9172-4385-a098-f03c133c1416"},"vehicle_type_id":"4","last_reported":1702030055,"current_range_meters":30000,"station_id":"ce4bgqh2rcd13ifvqc5g","pricing_plan_id":"free"},{"bike_id":"1ea60f58-75f7-4484-b705-1156df4b02ad","system_id":"levelo_inurba_marseille","lat":43.30277,"lon":5.373324,"is_reserved":false,"is_disabled":false,"rental_uris":{"android":"levelo://app?vid=1ea60f58-75f7-4484-b705-1156df4b02ad","ios":"levelo://app?vid=1ea60f58-75f7-4484-b705-1156df4b02ad"},"vehicle_type_id":"4","last_reported":1702030055,"current_range_meters":1600,"station_id":"","pricing_plan_id":"free"},{"bike_id":"bf022f74-d0c7-447c-89c9-4fd892b4c671","system_id":"levelo_inurba_marseille","lat":43.308012,"lon":5.381511,"is_reserved":false,"is_disabled":false,"rental_uris":{"android":"levelo://app?vid=bf022f74-d0c7-447c-89c9-4fd892b4c671","ios":"levelo://app?vid=bf022f74-d0c7-447c-89c9-4fd892b4c671"},"vehicle_type_id":"4","last_reported":1702030055,"current_range_meters":11600,"station_id":"ce4bgt12rcd13ifvqce0","pricing_plan_id":"free"},{"bike_id":"bdf7f841-1ac7-4eed-b40b-4ff3167f9b14","system_id":"levelo_inurba_marseille","lat":43.304627,"lon":5.378937,"is_reserved":false,"is_disabled":false,"rental_uris":{"android":"levelo://app?vid=bdf7f841-1ac7-4eed-b40b-4ff3167f9b14","ios":"levelo://app?vid=bdf7f841-1ac7-4eed-b40b-4ff3167f9b14"},"vehicle_type_id":"4","last_reported":1702030055,"current_range_meters":27600,"station_id":"ce4bgup2rcd13ifvqcn0","pricing_plan_id":"free"},{"bike_id":"9b69c74a-23ea-4d9b-8619-a46925e142a0","system_id":"levelo_inurba_marseille","lat":43.304606,"lon":5.379026,"is_reserved":false,"is_disabled":false,"rental_uris":{"android":"levelo://app?vid=9b69c74a-23ea-4d9b-8619-a46925e142a0","ios":"levelo://app?vid=9b69c74a-23ea-4d9b-8619-a46925e142a0"},"vehicle_type_id":"4","last_reported":1702030055,"current_range_meters":13200,"station_id":"ce4bgup2rcd13ifvqcn0","pricing_plan_id":"free"},{"bike_id":"6c03bc07-7cbc-485c-ab35-1ef19857fea8","system_id":"levelo_inurba_marseille","lat":43.304606,"lon":5.379026,"is_reserved":false,"is_disabled":false,"rental_uris":{"android":"levelo://app?vid=6c03bc07-7cbc-485c-ab35-1ef19857fea8","ios":"levelo://app?vid=6c03bc07-7cbc-485c-ab35-1ef19857fea8"},"vehicle_type_id":"4","last_reported":1702030055,"current_range_meters":20000,"station_id":"ce4bgup2rcd13ifvqcn0","pricing_plan_id":"free"},{"bike_id":"c3b0dba2-651a-4c13-8863-238f71c84bd3","system_id":"levelo_inurba_marseille","lat":43.304606,"lon":5.379026,"is_reserved":false,"is_disabled":false,"rental_uris":{"android":"levelo://app?vid=c3b0dba2-651a-4c13-8863-238f71c84bd3","ios":"levelo://app?vid=c3b0dba2-651a-4c13-8863-238f71c84bd3"},"vehicle_type_id":"4","last_reported":1702030055,"current_range_meters":19200,"station_id":"ce4bgup2rcd13ifvqcn0","pricing_plan_id":"free"},{"bike_id":"eaf2dc92-496e-4783-8bae-fac32f50b87f","system_id":"levelo_inurba_marseille","lat":43.302784,"lon":5.377158,"is_reserved":false,"is_disabled":false,"rental_uris":{"android":"levelo://app?vid=eaf2dc92-496e-4783-8bae-fac32f50b87f","ios":"levelo://app?vid=eaf2dc92-496e-4783-8bae-fac32f50b87f"},"vehicle_type_id":"4","last_reported":1702030055,"current_range_meters":30000,"station_id":"ce4bguh2rcd13ifvqcj0","pricing_plan_id":"free"},{"bike_id":"8e6bcc22-26a3-4f21-b99e-ec3014f3e345","system_id":"levelo_inurba_marseille","lat":43.319972,"lon":5.381524,"is_reserved":false,"is_disabled":false,"rental_uris":{"android":"levelo://app?vid=8e6bcc22-26a3-4f21-b99e-ec3014f3e345","ios":"levelo://app?vid=8e6bcc22-26a3-4f21-b99e-ec3014f3e345"},"vehicle_type_id":"4","last_reported":1702030055,"current_range_meters":14000,"station_id":"ce4bhr12rcd13ifvqhpg","pricing_plan_id":"free"},{"bike_id":"9ee0ef7a-8d9c-4d78-8ae5-64e12b708d26","system_id":"levelo_inurba_marseille","lat":43.319997,"lon":5.381594,"is_reserved":false,"is_disabled":false,"rental_uris":{"android":"levelo://app?vid=9ee0ef7a-8d9c-4d78-8ae5-64e12b708d26","ios":"levelo://app?vid=9ee0ef7a-8d9c-4d78-8ae5-64e12b708d26"},"vehicle_type_id":"4","last_reported":1702030055,"current_range_meters":0,"station_id":"ce4bhr12rcd13ifvqhpg","pricing_plan_id":"free"},{"bike_id":"a49b99ee-38eb-49b5-978d-00cf198fff08","system_id":"levelo_inurba_marseille","lat":43.299628,"lon":5.366334,"is_reserved":false,"is_disabled":false,"rental_uris":{"android":"levelo://app?vid=a49b99ee-38eb-49b5-978d-00cf198fff08","ios":"levelo://app?vid=a49b99ee-38eb-49b5-978d-00cf198fff08"},"vehicle_type_id":"4","last_reported":1702030055,"current_range_meters":20400,"station_id":"","pricing_plan_id":"free"},{"bike_id":"b7e05232-6445-4335-9a14-a9c0bf0a5e9b","system_id":"levelo_inurba_marseille","lat":43.31362,"lon":5.38494,"is_reserved":false,"is_disabled":false,"rental_uris":{"android":"levelo://app?vid=b7e05232-6445-4335-9a14-a9c0bf0a5e9b","ios":"levelo://app?vid=b7e05232-6445-4335-9a14-a9c0bf0a5e9b"},"vehicle_type_id":"4","last_reported":1702030055,"current_range_meters":20800,"station_id":"ce4bgt92rcd13ifvqcf0","pricing_plan_id":"free"},{"bike_id":"8c18d9f5-4848-45e9-aea1-a98338b8221a","system_id":"levelo_inurba_marseille","lat":43.313571,"lon":5.384829,"is_reserved":false,"is_disabled":false,"rental_uris":{"android":"levelo://app?vid=8c18d9f5-4848-45e9-aea1-a98338b8221a","ios":"levelo://app?vid=8c18d9f5-4848-45e9-aea1-a98338b8221a"},"vehicle_type_id":"4","last_reported":1702030055,"current_range_meters":21600,"station_id":"ce4bgt92rcd13ifvqcf0","pricing_plan_id":"free"},{"bike_id":"cf7dbbe9-91dd-4d73-863a-8fcefd8bfeee","system_id":"levelo_inurba_marseille","lat":43.299724,"lon":5.371829,"is_reserved":false,"is_disabled":false,"rental_uris":{"android":"levelo://app?vid=cf7dbbe9-91dd-4d73-863a-8fcefd8bfeee","ios":"levelo://app?vid=cf7dbbe9-91dd-4d73-863a-8fcefd8bfeee"},"vehicle_type_id":"4","last_reported":1702030055,"current_range_meters":26000,"station_id":"ce4bgr92rcd13ifvqc7g","pricing_plan_id":"free"},{"bike_id":"d8f78279-7546-4d57-8768-0eb9e1ff66b7","system_id":"levelo_inurba_marseille","lat":43.299283,"lon":5.36542,"is_reserved":false,"is_disabled":false,"rental_uris":{"android":"levelo://app?vid=d8f78279-7546-4d57-8768-0eb9e1ff66b7","ios":"levelo://app?vid=d8f78279-7546-4d57-8768-0eb9e1ff66b7"},"vehicle_type_id":"4","last_reported":1702030055,"current_range_meters":23200,"station_id":"ce4bgm92rcd13ifvqbr0","pricing_plan_id":"free"},{"bike_id":"23d9cdc8-3d7c-43b5-8102-e0ecfae80b21","system_id":"levelo_inurba_marseille","lat":43.298433,"lon":5.362774,"is_reserved":false,"is_disabled":false,"rental_uris":{"android":"levelo://app?vid=23d9cdc8-3d7c-43b5-8102-e0ecfae80b21","ios":"levelo://app?vid=23d9cdc8-3d7c-43b5-8102-e0ecfae80b21"},"vehicle_type_id":"4","last_reported":1702030055,"current_range_meters":29200,"station_id":"ce4bgpp2rcd13ifvqc3g","pricing_plan_id":"free"},{"bike_id":"a46903fd-af06-4280-8ea7-09d652f880c3","system_id":"levelo_inurba_marseille","lat":43.305364,"lon":5.384119,"is_reserved":false,"is_disabled":false,"rental_uris":{"android":"levelo://app?vid=a46903fd-af06-4280-8ea7-09d652f880c3","ios":"levelo://app?vid=a46903fd-af06-4280-8ea7-09d652f880c3"},"vehicle_type_id":"4","last_reported":1702030055,"current_range_meters":26000,"station_id":"ce4bgg92rcd13ifvqb30","pricing_plan_id":"free"},{"bike_id":"ab9817ae-ab24-4dab-8e0b-05ae4b3f2e93","system_id":"levelo_inurba_marseille","lat":43.298433,"lon":5.362774,"is_reserved":false,"is_disabled":false,"rental_uris":{"android":"levelo://app?vid=ab9817ae-ab24-4dab-8e0b-05ae4b3f2e93","ios":"levelo://app?vid=ab9817ae-ab24-4dab-8e0b-05ae4b3f2e93"},"vehicle_type_id":"4","last_reported":1702030055,"current_range_meters":20000,"station_id":"ce4bgpp2rcd13ifvqc3g","pricing_plan_id":"free"},{"bike_id":"05c3a9b0-e2cd-486a-818c-6d72d94fe576","system_id":"levelo_inurba_marseille","lat":43.298433,"lon":5.362774,"is_reserved":false,"is_disabled":false,"rental_uris":{"android":"levelo://app?vid=05c3a9b0-e2cd-486a-818c-6d72d94fe576","ios":"levelo://app?vid=05c3a9b0-e2cd-486a-818c-6d72d94fe576"},"vehicle_type_id":"4","last_reported":1702030055,"current_range_meters":31200,"station_id":"ce4bgpp2rcd13ifvqc3g","pricing_plan_id":"free"},{"bike_id":"04c21bd4-1206-4553-9441-27bbf7a3d13f","system_id":"levelo_inurba_marseille","lat":43.311722,"lon":5.387247,"is_reserved":false,"is_disabled":false,"rental_uris":{"android":"levelo://app?vid=04c21bd4-1206-4553-9441-27bbf7a3d13f","ios":"levelo://app?vid=04c21bd4-1206-4553-9441-27bbf7a3d13f"},"vehicle_type_id":"4","last_reported":1702030055,"current_range_meters":6800,"station_id":"ce4bgv12rcd13ifvqcp0","pricing_plan_id":"free"},{"bike_id":"3dcd4a73-468d-493a-bf11-93ceddd109f8","system_id":"levelo_inurba_marseille","lat":43.322872,"lon":5.382756,"is_reserved":false,"is_disabled":false,"rental_uris":{"android":"levelo://app?vid=3dcd4a73-468d-493a-bf11-93ceddd109f8","ios":"levelo://app?vid=3dcd4a73-468d-493a-bf11-93ceddd109f8"},"vehicle_type_id":"4","last_reported":1702030055,"current_range_meters":30000,"station_id":"ce4bhr12rcd13ifvqhqg","pricing_plan_id":"free"},{"bike_id":"92dc65d6-6823-4de3-93d4-056f738f090c","system_id":"levelo_inurba_marseille","lat":43.316538,"lon":5.38954,"is_reserved":false,"is_disabled":false,"rental_uris":{"android":"levelo://app?vid=92dc65d6-6823-4de3-93d4-056f738f090c","ios":"levelo://app?vid=92dc65d6-6823-4de3-93d4-056f738f090c"},"vehicle_type_id":"4","last_reported":1702030055,"current_range_meters":2000,"station_id":"","pricing_plan_id":"free"},{"bike_id":"d1307e43-628c-409e-9c23-9d78c232078d","system_id":"levelo_inurba_marseille","lat":43.29573,"lon":5.367355,"is_reserved":false,"is_disabled":false,"rental_uris":{"android":"levelo://app?vid=d1307e43-628c-409e-9c23-9d78c232078d","ios":"levelo://app?vid=d1307e43-628c-409e-9c23-9d78c232078d"},"vehicle_type_id":"4","last_reported":1702030055,"current_range_meters":26400,"station_id":"ce4bgph2rcd13ifvqc2g","pricing_plan_id":"free"},{"bike_id":"d65514af-eeda-44c2-998d-2001d2085e76","system_id":"levelo_inurba_marseille","lat":43.299028,"lon":5.381509,"is_reserved":false,"is_disabled":false,"rental_uris":{"android":"levelo://app?vid=d65514af-eeda-44c2-998d-2001d2085e76","ios":"levelo://app?vid=d65514af-eeda-44c2-998d-2001d2085e76"},"vehicle_type_id":"4","last_reported":1702030055,"current_range_meters":26400,"station_id":"ce4bgj12rcd13ifvqbc0","pricing_plan_id":"free"},{"bike_id":"2eccf32c-af8c-4d38-b729-0d82a57f0acd","system_id":"levelo_inurba_marseille","lat":43.309589,"lon":5.390258,"is_reserved":false,"is_disabled":false,"rental_uris":{"android":"levelo://app?vid=2eccf32c-af8c-4d38-b729-0d82a57f0acd","ios":"levelo://app?vid=2eccf32c-af8c-4d38-b729-0d82a57f0acd"},"vehicle_type_id":"4","last_reported":1702030055,"current_range_meters":30000,"station_id":"ce4bgup2rcd13ifvqco0","pricing_plan_id":"free"},{"bike_id":"c4a72437-c625-49b8-9de9-c98b0bb498a0","system_id":"levelo_inurba_marseille","lat":43.309589,"lon":5.390258,"is_reserved":false,"is_disabled":false,"rental_uris":{"android":"levelo://app?vid=c4a72437-c625-49b8-9de9-c98b0bb498a0","ios":"levelo://app?vid=c4a72437-c625-49b8-9de9-c98b0bb498a0"},"vehicle_type_id":"4","last_reported":1702030055,"current_range_meters":28000,"station_id":"ce4bgup2rcd13ifvqco0","pricing_plan_id":"free"},{"bike_id":"6b6adce9-9e30-4a74-9037-3971be26396d","system_id":"levelo_inurba_marseille","lat":43.309589,"lon":5.390258,"is_reserved":false,"is_disabled":false,"rental_uris":{"android":"levelo://app?vid=6b6adce9-9e30-4a74-9037-3971be26396d","ios":"levelo://app?vid=6b6adce9-9e30-4a74-9037-3971be26396d"},"vehicle_type_id":"4","last_reported":1702030055,"current_range_meters":6800,"station_id":"ce4bgup2rcd13ifvqco0","pricing_plan_id":"free"},{"bike_id":"31050a3f-0f0a-4d59-9a71-b9c9c236eca0","system_id":"levelo_inurba_marseille","lat":43.309589,"lon":5.390258,"is_reserved":false,"is_disabled":false,"rental_uris":{"android":"levelo://app?vid=31050a3f-0f0a-4d59-9a71-b9c9c236eca0","ios":"levelo://app?vid=31050a3f-0f0a-4d59-9a71-b9c9c236eca0"},"vehicle_type_id":"4","last_reported":1702030055,"current_range_meters":14000,"station_id":"ce4bgup2rcd13ifvqco0","pricing_plan_id":"free"},{"bike_id":"1bd5d346-6e2d-467d-855a-cd1129a6fe72","system_id":"levelo_inurba_marseille","lat":43.317557,"lon":5.390173,"is_reserved":false,"is_disabled":false,"rental_uris":{"android":"levelo://app?vid=1bd5d346-6e2d-467d-855a-cd1129a6fe72","ios":"levelo://app?vid=1bd5d346-6e2d-467d-855a-cd1129a6fe72"},"vehicle_type_id":"4","last_reported":1702030055,"current_range_meters":28000,"station_id":"ce4bhqp2rcd13ifvqhng","pricing_plan_id":"free"},{"bike_id":"0eff80ae-56b3-415f-a55c-ffb7060807e9","system_id":"levelo_inurba_marseille","lat":43.317557,"lon":5.390173,"is_reserved":false,"is_disabled":false,"rental_uris":{"android":"levelo://app?vid=0eff80ae-56b3-415f-a55c-ffb7060807e9","ios":"levelo://app?vid=0eff80ae-56b3-415f-a55c-ffb7060807e9"},"vehicle_type_id":"4","last_reported":1702030055,"current_range_meters":10000,"station_id":"ce4bhqp2rcd13ifvqhng","pricing_plan_id":"free"},{"bike_id":"8ac03ab9-0689-4b1b-b5ed-4c450d657ee4","system_id":"levelo_inurba_marseille","lat":43.295748,"lon":5.37522,"is_reserved":false,"is_disabled":false,"rental_uris":{"android":"levelo://app?vid=8ac03ab9-0689-4b1b-b5ed-4c450d657ee4","ios":"levelo://app?vid=8ac03ab9-0689-4b1b-b5ed-4c450d657ee4"},"vehicle_type_id":"4","last_reported":1702030055,"current_range_meters":23200,"station_id":"ce4bgh92rcd13ifvqb50","pricing_plan_id":"free"},{"bike_id":"cb5e323e-208c-46fa-81e2-649f54b5e0f6","system_id":"levelo_inurba_marseille","lat":43.32367,"lon":5.388836,"is_reserved":false,"is_disabled":false,"rental_uris":{"android":"levelo://app?vid=cb5e323e-208c-46fa-81e2-649f54b5e0f6","ios":"levelo://app?vid=cb5e323e-208c-46fa-81e2-649f54b5e0f6"},"vehicle_type_id":"4","last_reported":1702030055,"current_range_meters":12400,"station_id":"ce4bhqp2rcd13ifvqhog","pricing_plan_id":"free"},{"bike_id":"e37ac621-b119-47db-a4a0-b01f262c7bd9","system_id":"levelo_inurba_marseille","lat":43.32367,"lon":5.388836,"is_reserved":false,"is_disabled":false,"rental_uris":{"android":"levelo://app?vid=e37ac621-b119-47db-a4a0-b01f262c7bd9","ios":"levelo://app?vid=e37ac621-b119-47db-a4a0-b01f262c7bd9"},"vehicle_type_id":"4","last_reported":1702030055,"current_range_meters":22400,"station_id":"ce4bhqp2rcd13ifvqhog","pricing_plan_id":"free"},{"bike_id":"edb65791-72fd-4efe-a1f5-46dfb8da63e8","system_id":"levelo_inurba_marseille","lat":43.32369,"lon":5.38879,"is_reserved":false,"is_disabled":false,"rental_uris":{"android":"levelo://app?vid=edb65791-72fd-4efe-a1f5-46dfb8da63e8","ios":"levelo://app?vid=edb65791-72fd-4efe-a1f5-46dfb8da63e8"},"vehicle_type_id":"4","last_reported":1702030055,"current_range_meters":30400,"station_id":"ce4bhqp2rcd13ifvqhog","pricing_plan_id":"free"},{"bike_id":"a42e2a9a-0ee1-4802-978a-aa87bf88bf5f","system_id":"levelo_inurba_marseille","lat":43.32367,"lon":5.388836,"is_reserved":false,"is_disabled":false,"rental_uris":{"android":"levelo://app?vid=a42e2a9a-0ee1-4802-978a-aa87bf88bf5f","ios":"levelo://app?vid=a42e2a9a-0ee1-4802-978a-aa87bf88bf5f"},"vehicle_type_id":"4","last_reported":1702030055,"current_range_meters":0,"station_id":"ce4bhqp2rcd13ifvqhog","pricing_plan_id":"free"},{"bike_id":"7579423d-f3b8-4e7f-be59-2ba9da91b549","system_id":"levelo_inurba_marseille","lat":43.31417,"lon":5.39384,"is_reserved":false,"is_disabled":false,"rental_uris":{"android":"levelo://app?vid=7579423d-f3b8-4e7f-be59-2ba9da91b549","ios":"levelo://app?vid=7579423d-f3b8-4e7f-be59-2ba9da91b549"},"vehicle_type_id":"4","last_reported":1702030055,"current_range_meters":5600,"station_id":"","pricing_plan_id":"free"},{"bike_id":"35167050-f909-4250-a110-df5bedfb0a40","system_id":"levelo_inurba_marseille","lat":43.29897,"lon":5.387265,"is_reserved":false,"is_disabled":false,"rental_uris":{"android":"levelo://app?vid=35167050-f909-4250-a110-df5bedfb0a40","ios":"levelo://app?vid=35167050-f909-4250-a110-df5bedfb0a40"},"vehicle_type_id":"4","last_reported":1702030055,"current_range_meters":2000,"station_id":"","pricing_plan_id":"free"},{"bike_id":"1cf8f4ad-7fe1-46df-8b66-2c711f1c952a","system_id":"levelo_inurba_marseille","lat":43.284462,"lon":5.392121,"is_reserved":false,"is_disabled":false,"rental_uris":{"android":"levelo://app?vid=1cf8f4ad-7fe1-46df-8b66-2c711f1c952a","ios":"levelo://app?vid=1cf8f4ad-7fe1-46df-8b66-2c711f1c952a"},"vehicle_type_id":"4","last_reported":1702030055,"current_range_meters":20000,"station_id":"ce4bhoh2rcd13ifvqh5g","pricing_plan_id":"free"},{"bike_id":"5f04380c-feec-46f7-a4ee-dccd628fcb27","system_id":"levelo_inurba_marseille","lat":43.293009,"lon":5.374584,"is_reserved":false,"is_disabled":false,"rental_uris":{"android":"levelo://app?vid=5f04380c-feec-46f7-a4ee-dccd628fcb27","ios":"levelo://app?vid=5f04380c-feec-46f7-a4ee-dccd628fcb27"},"vehicle_type_id":"4","last_reported":1702030055,"current_range_meters":8800,"station_id":"ce4bgi12rcd13ifvqb70","pricing_plan_id":"free"},{"bike_id":"84de0ba8-81e6-4e23-91da-ef5cea5e39a4","system_id":"levelo_inurba_marseille","lat":43.2936,"lon":5.37835,"is_reserved":false,"is_disabled":false,"rental_uris":{"android":"levelo://app?vid=84de0ba8-81e6-4e23-91da-ef5cea5e39a4","ios":"levelo://app?vid=84de0ba8-81e6-4e23-91da-ef5cea5e39a4"},"vehicle_type_id":"4","last_reported":1702030055,"current_range_meters":27600,"station_id":"ce4bgjh2rcd13ifvqbf0","pricing_plan_id":"free"},{"bike_id":"d23dcc0a-abfe-4795-b2df-643eabe8964a","system_id":"levelo_inurba_marseille","lat":43.33277,"lon":5.37527,"is_reserved":false,"is_disabled":false,"rental_uris":{"android":"levelo://app?vid=d23dcc0a-abfe-4795-b2df-643eabe8964a","ios":"levelo://app?vid=d23dcc0a-abfe-4795-b2df-643eabe8964a"},"vehicle_type_id":"4","last_reported":1702030055,"current_range_meters":0,"station_id":"","pricing_plan_id":"free"},{"bike_id":"5dd03541-956b-4597-b172-5afdd607ded4","system_id":"levelo_inurba_marseille","lat":43.292663,"lon":5.376394,"is_reserved":false,"is_disabled":false,"rental_uris":{"android":"levelo://app?vid=5dd03541-956b-4597-b172-5afdd607ded4","ios":"levelo://app?vid=5dd03541-956b-4597-b172-5afdd607ded4"},"vehicle_type_id":"4","last_reported":1702030055,"current_range_meters":27600,"station_id":"ce4bgi12rcd13ifvqb80","pricing_plan_id":"free"},{"bike_id":"bda41671-13d5-4b7d-bcfc-4a9716d0696e","system_id":"levelo_inurba_marseille","lat":43.292733,"lon":5.37632,"is_reserved":false,"is_disabled":false,"rental_uris":{"android":"levelo://app?vid=bda41671-13d5-4b7d-bcfc-4a9716d0696e","ios":"levelo://app?vid=bda41671-13d5-4b7d-bcfc-4a9716d0696e"},"vehicle_type_id":"4","last_reported":1702030055,"current_range_meters":4400,"station_id":"ce4bgi12rcd13ifvqb80","pricing_plan_id":"free"},{"bike_id":"0a36f0ba-aa86-410b-8e44-0a8738411f55","system_id":"levelo_inurba_marseille","lat":43.292663,"lon":5.376394,"is_reserved":false,"is_disabled":false,"rental_uris":{"android":"levelo://app?vid=0a36f0ba-aa86-410b-8e44-0a8738411f55","ios":"levelo://app?vid=0a36f0ba-aa86-410b-8e44-0a8738411f55"},"vehicle_type_id":"4","last_reported":1702030055,"current_range_meters":0,"station_id":"ce4bgi12rcd13ifvqb80","pricing_plan_id":"free"},{"bike_id":"a7eae1de-2fdc-4649-817b-a08bfea07e18","system_id":"levelo_inurba_marseille","lat":43.292663,"lon":5.376394,"is_reserved":false,"is_disabled":false,"rental_uris":{"android":"levelo://app?vid=a7eae1de-2fdc-4649-817b-a08bfea07e18","ios":"levelo://app?vid=a7eae1de-2fdc-4649-817b-a08bfea07e18"},"vehicle_type_id":"4","last_reported":1702030055,"current_range_meters":21600,"station_id":"ce4bgi12rcd13ifvqb80","pricing_plan_id":"free"},{"bike_id":"bb4af82b-29ef-44ca-baac-9099077e880f","system_id":"levelo_inurba_marseille","lat":43.290161,"lon":5.375651,"is_reserved":false,"is_disabled":false,"rental_uris":{"android":"levelo://app?vid=bb4af82b-29ef-44ca-baac-9099077e880f","ios":"levelo://app?vid=bb4af82b-29ef-44ca-baac-9099077e880f"},"vehicle_type_id":"4","last_reported":1702030055,"current_range_meters":17600,"station_id":"","pricing_plan_id":"free"},{"bike_id":"a02a1b20-1fb1-4951-988a-77389649024d","system_id":"levelo_inurba_marseille","lat":43.289259,"lon":5.366364,"is_reserved":false,"is_disabled":false,"rental_uris":{"android":"levelo://app?vid=a02a1b20-1fb1-4951-988a-77389649024d","ios":"levelo://app?vid=a02a1b20-1fb1-4951-988a-77389649024d"},"vehicle_type_id":"4","last_reported":1702030055,"current_range_meters":16400,"station_id":"","pricing_plan_id":"free"},{"bike_id":"0997f12e-6468-4789-837b-ed196a88d8d8","system_id":"levelo_inurba_marseille","lat":43.289741,"lon":5.378306,"is_reserved":false,"is_disabled":false,"rental_uris":{"android":"levelo://app?vid=0997f12e-6468-4789-837b-ed196a88d8d8","ios":"levelo://app?vid=0997f12e-6468-4789-837b-ed196a88d8d8"},"vehicle_type_id":"4","last_reported":1702030055,"current_range_meters":0,"station_id":"ce4bh9p2rcd13ifvqed0","pricing_plan_id":"free"},{"bike_id":"49d3769c-66a9-46cc-b5d1-36ec9ae8c614","system_id":"levelo_inurba_marseille","lat":43.2901,"lon":5.381269,"is_reserved":false,"is_disabled":false,"rental_uris":{"android":"levelo://app?vid=49d3769c-66a9-46cc-b5d1-36ec9ae8c614","ios":"levelo://app?vid=49d3769c-66a9-46cc-b5d1-36ec9ae8c614"},"vehicle_type_id":"4","last_reported":1702030055,"current_range_meters":26000,"station_id":"ce4bh4p2rcd13ifvqe1g","pricing_plan_id":"free"},{"bike_id":"a3ff2172-765a-41b6-b8b0-f136435ca898","system_id":"levelo_inurba_marseille","lat":43.28856,"lon":5.358371,"is_reserved":false,"is_disabled":false,"rental_uris":{"android":"levelo://app?vid=a3ff2172-765a-41b6-b8b0-f136435ca898","ios":"levelo://app?vid=a3ff2172-765a-41b6-b8b0-f136435ca898"},"vehicle_type_id":"4","last_reported":1702030055,"current_range_meters":19600,"station_id":"ce4bhb12rcd13ifvqem0","pricing_plan_id":"free"},{"bike_id":"3a35d166-30c9-49c7-8960-28b64c1cb130","system_id":"levelo_inurba_marseille","lat":43.306412,"lon":5.401035,"is_reserved":false,"is_disabled":false,"rental_uris":{"android":"levelo://app?vid=3a35d166-30c9-49c7-8960-28b64c1cb130","ios":"levelo://app?vid=3a35d166-30c9-49c7-8960-28b64c1cb130"},"vehicle_type_id":"4","last_reported":1702030055,"current_range_meters":26000,"station_id":"ce4bh112rcd13ifvqda0","pricing_plan_id":"free"},{"bike_id":"d5483522-fa89-484c-8bea-bd902799a138","system_id":"levelo_inurba_marseille","lat":43.301117,"lon":5.398795,"is_reserved":false,"is_disabled":false,"rental_uris":{"android":"levelo://app?vid=d5483522-fa89-484c-8bea-bd902799a138","ios":"levelo://app?vid=d5483522-fa89-484c-8bea-bd902799a138"},"vehicle_type_id":"4","last_reported":1702030055,"current_range_meters":17200,"station_id":"ce4bh0h2rcd13ifvqd40","pricing_plan_id":"free"},{"bike_id":"79cb8ea4-4271-4f4d-8004-5fcdcbc312a0","system_id":"levelo_inurba_marseille","lat":43.289307,"lon":5.38406,"is_reserved":false,"is_disabled":false,"rental_uris":{"android":"levelo://app?vid=79cb8ea4-4271-4f4d-8004-5fcdcbc312a0","ios":"levelo://app?vid=79cb8ea4-4271-4f4d-8004-5fcdcbc312a0"},"vehicle_type_id":"4","last_reported":1702030055,"current_range_meters":27600,"station_id":"ce4bh612rcd13ifvqe6g","pricing_plan_id":"free"},{"bike_id":"b6f43335-a23b-4afd-b11a-955153a7864e","system_id":"levelo_inurba_marseille","lat":43.289307,"lon":5.38406,"is_reserved":false,"is_disabled":false,"rental_uris":{"android":"levelo://app?vid=b6f43335-a23b-4afd-b11a-955153a7864e","ios":"levelo://app?vid=b6f43335-a23b-4afd-b11a-955153a7864e"},"vehicle_type_id":"4","last_reported":1702030055,"current_range_meters":26400,"station_id":"ce4bh612rcd13ifvqe6g","pricing_plan_id":"free"},{"bike_id":"9771dfd8-017b-477e-9f38-39c8dec9c905","system_id":"levelo_inurba_marseille","lat":43.286039,"lon":5.370679,"is_reserved":false,"is_disabled":false,"rental_uris":{"android":"levelo://app?vid=9771dfd8-017b-477e-9f38-39c8dec9c905","ios":"levelo://app?vid=9771dfd8-017b-477e-9f38-39c8dec9c905"},"vehicle_type_id":"4","last_reported":1702030055,"current_range_meters":31600,"station_id":"ce4bht12rcd13ifvqi60","pricing_plan_id":"free"},{"bike_id":"fb5da59c-858d-48db-997a-b28af2ef0dc0","system_id":"levelo_inurba_marseille","lat":43.28616,"lon":5.351,"is_reserved":false,"is_disabled":false,"rental_uris":{"android":"levelo://app?vid=fb5da59c-858d-48db-997a-b28af2ef0dc0","ios":"levelo://app?vid=fb5da59c-858d-48db-997a-b28af2ef0dc0"},"vehicle_type_id":"4","last_reported":1702030055,"current_range_meters":1200,"station_id":"ce4bhch2rcd13ifvqeug","pricing_plan_id":"free"},{"bike_id":"c760a55d-b626-4300-b182-559a229e22ed","system_id":"levelo_inurba_marseille","lat":43.285848,"lon":5.350787,"is_reserved":false,"is_disabled":false,"rental_uris":{"android":"levelo://app?vid=c760a55d-b626-4300-b182-559a229e22ed","ios":"levelo://app?vid=c760a55d-b626-4300-b182-559a229e22ed"},"vehicle_type_id":"4","last_reported":1702030055,"current_range_meters":20000,"station_id":"ce4bhch2rcd13ifvqeug","pricing_plan_id":"free"},{"bike_id":"4102ff7b-523b-40d6-ab91-859f46c14981","system_id":"levelo_inurba_marseille","lat":43.283998,"lon":5.375062,"is_reserved":false,"is_disabled":false,"rental_uris":{"android":"levelo://app?vid=4102ff7b-523b-40d6-ab91-859f46c14981","ios":"levelo://app?vid=4102ff7b-523b-40d6-ab91-859f46c14981"},"vehicle_type_id":"4","last_reported":1702030055,"current_range_meters":15600,"station_id":"ce4bh412rcd13ifvqds0","pricing_plan_id":"free"},{"bike_id":"a467677d-92df-4d97-9e52-e6780c760738","system_id":"levelo_inurba_marseille","lat":43.318907,"lon":5.407356,"is_reserved":false,"is_disabled":false,"rental_uris":{"android":"levelo://app?vid=a467677d-92df-4d97-9e52-e6780c760738","ios":"levelo://app?vid=a467677d-92df-4d97-9e52-e6780c760738"},"vehicle_type_id":"4","last_reported":1702030055,"current_range_meters":0,"station_id":"ce4bhq12rcd13ifvqhig","pricing_plan_id":"free"},{"bike_id":"06070a5a-4b04-4262-80e6-ef3153c54cac","system_id":"levelo_inurba_marseille","lat":43.319179,"lon":5.407725,"is_reserved":false,"is_disabled":false,"rental_uris":{"android":"levelo://app?vid=06070a5a-4b04-4262-80e6-ef3153c54cac","ios":"levelo://app?vid=06070a5a-4b04-4262-80e6-ef3153c54cac"},"vehicle_type_id":"4","last_reported":1702030055,"current_range_meters":26000,"station_id":"ce4bhq12rcd13ifvqhig","pricing_plan_id":"free"},{"bike_id":"35437a3b-546d-4804-a96b-f2464a7a3e3e","system_id":"levelo_inurba_marseille","lat":43.323464,"lon":5.406297,"is_reserved":false,"is_disabled":false,"rental_uris":{"android":"levelo://app?vid=35437a3b-546d-4804-a96b-f2464a7a3e3e","ios":"levelo://app?vid=35437a3b-546d-4804-a96b-f2464a7a3e3e"},"vehicle_type_id":"4","last_reported":1702030055,"current_range_meters":30000,"station_id":"ce4bhq92rcd13ifvqhjg","pricing_plan_id":"free"},{"bike_id":"54dab3e5-bbab-45e9-8a91-1fd94c6ba280","system_id":"levelo_inurba_marseille","lat":43.284793,"lon":5.384113,"is_reserved":false,"is_disabled":false,"rental_uris":{"android":"levelo://app?vid=54dab3e5-bbab-45e9-8a91-1fd94c6ba280","ios":"levelo://app?vid=54dab3e5-bbab-45e9-8a91-1fd94c6ba280"},"vehicle_type_id":"4","last_reported":1702030055,"current_range_meters":27600,"station_id":"ce4bh512rcd13ifvqe3g","pricing_plan_id":"free"},{"bike_id":"56ac9cc9-bb61-47d5-bb32-c23299a9fd93","system_id":"levelo_inurba_marseille","lat":43.32256,"lon":5.407,"is_reserved":false,"is_disabled":false,"rental_uris":{"android":"levelo://app?vid=56ac9cc9-bb61-47d5-bb32-c23299a9fd93","ios":"levelo://app?vid=56ac9cc9-bb61-47d5-bb32-c23299a9fd93"},"vehicle_type_id":"4","last_reported":1702030055,"current_range_meters":24400,"station_id":"","pricing_plan_id":"free"},{"bike_id":"b9587647-1ce4-4b86-a392-867d01986546","system_id":"levelo_inurba_marseille","lat":43.284219,"lon":5.3497,"is_reserved":false,"is_disabled":false,"rental_uris":{"android":"levelo://app?vid=b9587647-1ce4-4b86-a392-867d01986546","ios":"levelo://app?vid=b9587647-1ce4-4b86-a392-867d01986546"},"vehicle_type_id":"4","last_reported":1702030055,"current_range_meters":26800,"station_id":"ce4bhbh2rcd13ifvqepg","pricing_plan_id":"free"},{"bike_id":"89bd02e0-fe6f-41ca-aa55-6ba6436bf949","system_id":"levelo_inurba_marseille","lat":43.289363,"lon":5.396322,"is_reserved":false,"is_disabled":false,"rental_uris":{"android":"levelo://app?vid=89bd02e0-fe6f-41ca-aa55-6ba6436bf949","ios":"levelo://app?vid=89bd02e0-fe6f-41ca-aa55-6ba6436bf949"},"vehicle_type_id":"4","last_reported":1702030055,"current_range_meters":27200,"station_id":"ce4bh3h2rcd13ifvqdn0","pricing_plan_id":"free"},{"bike_id":"3efa1d21-cca1-43f2-919e-b6f1ed52a4da","system_id":"levelo_inurba_marseille","lat":43.281089,"lon":5.378426,"is_reserved":false,"is_disabled":false,"rental_uris":{"android":"levelo://app?vid=3efa1d21-cca1-43f2-919e-b6f1ed52a4da","ios":"levelo://app?vid=3efa1d21-cca1-43f2-919e-b6f1ed52a4da"},"vehicle_type_id":"4","last_reported":1702030055,"current_range_meters":11200,"station_id":"","pricing_plan_id":"free"},{"bike_id":"1bea89f7-2653-4113-93ee-1a52aa723f38","system_id":"levelo_inurba_marseille","lat":43.28104,"lon":5.37832,"is_reserved":false,"is_disabled":false,"rental_uris":{"android":"levelo://app?vid=1bea89f7-2653-4113-93ee-1a52aa723f38","ios":"levelo://app?vid=1bea89f7-2653-4113-93ee-1a52aa723f38"},"vehicle_type_id":"4","last_reported":1702030055,"current_range_meters":23200,"station_id":"ce4bha12rcd13ifvqee0","pricing_plan_id":"free"},{"bike_id":"89571568-82b7-4217-82ef-f353f84cbc51","system_id":"levelo_inurba_marseille","lat":43.281044,"lon":5.378308,"is_reserved":false,"is_disabled":false,"rental_uris":{"android":"levelo://app?vid=89571568-82b7-4217-82ef-f353f84cbc51","ios":"levelo://app?vid=89571568-82b7-4217-82ef-f353f84cbc51"},"vehicle_type_id":"4","last_reported":1702030055,"current_range_meters":2400,"station_id":"ce4bha12rcd13ifvqee0","pricing_plan_id":"free"},{"bike_id":"48ea568c-1a24-42e5-a172-c97af0518fcc","system_id":"levelo_inurba_marseille","lat":43.281044,"lon":5.378308,"is_reserved":false,"is_disabled":false,"rental_uris":{"android":"levelo://app?vid=48ea568c-1a24-42e5-a172-c97af0518fcc","ios":"levelo://app?vid=48ea568c-1a24-42e5-a172-c97af0518fcc"},"vehicle_type_id":"4","last_reported":1702030055,"current_range_meters":25600,"station_id":"ce4bha12rcd13ifvqee0","pricing_plan_id":"free"},{"bike_id":"1cf4d375-63c3-4dbf-8e0a-e106a95692ae","system_id":"levelo_inurba_marseille","lat":43.281044,"lon":5.378308,"is_reserved":false,"is_disabled":false,"rental_uris":{"android":"levelo://app?vid=1cf4d375-63c3-4dbf-8e0a-e106a95692ae","ios":"levelo://app?vid=1cf4d375-63c3-4dbf-8e0a-e106a95692ae"},"vehicle_type_id":"4","last_reported":1702030055,"current_range_meters":19600,"station_id":"ce4bha12rcd13ifvqee0","pricing_plan_id":"free"},{"bike_id":"18042a15-56ee-40e1-80a8-bf6eafedf451","system_id":"levelo_inurba_marseille","lat":43.281044,"lon":5.378308,"is_reserved":false,"is_disabled":false,"rental_uris":{"android":"levelo://app?vid=18042a15-56ee-40e1-80a8-bf6eafedf451","ios":"levelo://app?vid=18042a15-56ee-40e1-80a8-bf6eafedf451"},"vehicle_type_id":"4","last_reported":1702030055,"current_range_meters":2000,"station_id":"ce4bha12rcd13ifvqee0","pricing_plan_id":"free"},{"bike_id":"d85170ab-be15-4c50-b880-27a451fdb1a4","system_id":"levelo_inurba_marseille","lat":43.284462,"lon":5.392121,"is_reserved":false,"is_disabled":false,"rental_uris":{"android":"levelo://app?vid=d85170ab-be15-4c50-b880-27a451fdb1a4","ios":"levelo://app?vid=d85170ab-be15-4c50-b880-27a451fdb1a4"},"vehicle_type_id":"4","last_reported":1702030055,"current_range_meters":8400,"station_id":"ce4bhoh2rcd13ifvqh5g","pricing_plan_id":"free"},{"bike_id":"f14ead39-4f41-4599-9321-f960783c1e12","system_id":"levelo_inurba_marseille","lat":43.326605,"lon":5.409903,"is_reserved":false,"is_disabled":false,"rental_uris":{"android":"levelo://app?vid=f14ead39-4f41-4599-9321-f960783c1e12","ios":"levelo://app?vid=f14ead39-4f41-4599-9321-f960783c1e12"},"vehicle_type_id":"4","last_reported":1702030055,"current_range_meters":28400,"station_id":"ce4bhpp2rcd13ifvqhgg","pricing_plan_id":"free"},{"bike_id":"070a260d-ecc1-46d1-afab-6774750cd900","system_id":"levelo_inurba_marseille","lat":43.326605,"lon":5.409903,"is_reserved":false,"is_disabled":false,"rental_uris":{"android":"levelo://app?vid=070a260d-ecc1-46d1-afab-6774750cd900","ios":"levelo://app?vid=070a260d-ecc1-46d1-afab-6774750cd900"},"vehicle_type_id":"4","last_reported":1702030055,"current_range_meters":28800,"station_id":"ce4bhpp2rcd13ifvqhgg","pricing_plan_id":"free"},{"bike_id":"5fefe554-fe99-4e7c-bf4d-9b8cb69d1b6a","system_id":"levelo_inurba_marseille","lat":43.279087,"lon":5.380114,"is_reserved":false,"is_disabled":false,"rental_uris":{"android":"levelo://app?vid=5fefe554-fe99-4e7c-bf4d-9b8cb69d1b6a","ios":"levelo://app?vid=5fefe554-fe99-4e7c-bf4d-9b8cb69d1b6a"},"vehicle_type_id":"4","last_reported":1702030055,"current_range_meters":3600,"station_id":"ce4bhf92rcd13ifvqf50","pricing_plan_id":"free"},{"bike_id":"bf9c0286-54ca-458d-a58a-9d0d9c0353fb","system_id":"levelo_inurba_marseille","lat":43.279087,"lon":5.380114,"is_reserved":false,"is_disabled":false,"rental_uris":{"android":"levelo://app?vid=bf9c0286-54ca-458d-a58a-9d0d9c0353fb","ios":"levelo://app?vid=bf9c0286-54ca-458d-a58a-9d0d9c0353fb"},"vehicle_type_id":"4","last_reported":1702030055,"current_range_meters":31200,"station_id":"ce4bhf92rcd13ifvqf50","pricing_plan_id":"free"},{"bike_id":"5e24527f-a65d-486a-9829-12b9a16e1145","system_id":"levelo_inurba_marseille","lat":43.279742,"lon":5.38744,"is_reserved":false,"is_disabled":false,"rental_uris":{"android":"levelo://app?vid=5e24527f-a65d-486a-9829-12b9a16e1145","ios":"levelo://app?vid=5e24527f-a65d-486a-9829-12b9a16e1145"},"vehicle_type_id":"4","last_reported":1702030055,"current_range_meters":26400,"station_id":"ce4bhg12rcd13ifvqf80","pricing_plan_id":"free"},{"bike_id":"e6a102f5-3599-4e51-bb49-324a1d93a5cb","system_id":"levelo_inurba_marseille","lat":43.279742,"lon":5.38744,"is_reserved":false,"is_disabled":false,"rental_uris":{"android":"levelo://app?vid=e6a102f5-3599-4e51-bb49-324a1d93a5cb","ios":"levelo://app?vid=e6a102f5-3599-4e51-bb49-324a1d93a5cb"},"vehicle_type_id":"4","last_reported":1702030055,"current_range_meters":4400,"station_id":"ce4bhg12rcd13ifvqf80","pricing_plan_id":"free"},{"bike_id":"db59579b-50ee-4211-98d6-d639b1b49963","system_id":"levelo_inurba_marseille","lat":43.279742,"lon":5.38744,"is_reserved":false,"is_disabled":false,"rental_uris":{"android":"levelo://app?vid=db59579b-50ee-4211-98d6-d639b1b49963","ios":"levelo://app?vid=db59579b-50ee-4211-98d6-d639b1b49963"},"vehicle_type_id":"4","last_reported":1702030055,"current_range_meters":17600,"station_id":"ce4bhg12rcd13ifvqf80","pricing_plan_id":"free"},{"bike_id":"fffefd2b-afca-4fbd-a371-173aa7f0b470","system_id":"levelo_inurba_marseille","lat":43.325243,"lon":5.414326,"is_reserved":false,"is_disabled":false,"rental_uris":{"android":"levelo://app?vid=fffefd2b-afca-4fbd-a371-173aa7f0b470","ios":"levelo://app?vid=fffefd2b-afca-4fbd-a371-173aa7f0b470"},"vehicle_type_id":"4","last_reported":1702030055,"current_range_meters":11200,"station_id":"ce4bhq12rcd13ifvqhhg","pricing_plan_id":"free"},{"bike_id":"10fc081b-0f8a-4c77-bae3-90d09bccc687","system_id":"levelo_inurba_marseille","lat":43.27696,"lon":5.38311,"is_reserved":false,"is_disabled":false,"rental_uris":{"android":"levelo://app?vid=10fc081b-0f8a-4c77-bae3-90d09bccc687","ios":"levelo://app?vid=10fc081b-0f8a-4c77-bae3-90d09bccc687"},"vehicle_type_id":"4","last_reported":1702030055,"current_range_meters":30800,"station_id":"","pricing_plan_id":"free"},{"bike_id":"21353717-0ebc-4941-8111-34c7a0b5fb53","system_id":"levelo_inurba_marseille","lat":43.280751,"lon":5.396488,"is_reserved":false,"is_disabled":false,"rental_uris":{"android":"levelo://app?vid=21353717-0ebc-4941-8111-34c7a0b5fb53","ios":"levelo://app?vid=21353717-0ebc-4941-8111-34c7a0b5fb53"},"vehicle_type_id":"4","last_reported":1702030055,"current_range_meters":20000,"station_id":"ce4bho12rcd13ifvqh2g","pricing_plan_id":"free"},{"bike_id":"6c07e982-b7bd-44e0-8bfd-6eba9dde01aa","system_id":"levelo_inurba_marseille","lat":43.33612,"lon":5.410321,"is_reserved":false,"is_disabled":false,"rental_uris":{"android":"levelo://app?vid=6c07e982-b7bd-44e0-8bfd-6eba9dde01aa","ios":"levelo://app?vid=6c07e982-b7bd-44e0-8bfd-6eba9dde01aa"},"vehicle_type_id":"4","last_reported":1702030055,"current_range_meters":6400,"station_id":"ce4bhqh2rcd13ifvqhmg","pricing_plan_id":"free"},{"bike_id":"ab9154a3-eb38-42e5-a7db-4b8ae0fd3010","system_id":"levelo_inurba_marseille","lat":43.303837,"lon":5.418724,"is_reserved":false,"is_disabled":false,"rental_uris":{"android":"levelo://app?vid=ab9154a3-eb38-42e5-a7db-4b8ae0fd3010","ios":"levelo://app?vid=ab9154a3-eb38-42e5-a7db-4b8ae0fd3010"},"vehicle_type_id":"4","last_reported":1702030055,"current_range_meters":30000,"station_id":"ce4bhop2rcd13ifvqh7g","pricing_plan_id":"free"},{"bike_id":"92288d4e-db85-49a0-8d44-3c330313b612","system_id":"levelo_inurba_marseille","lat":43.278399,"lon":5.392139,"is_reserved":false,"is_disabled":false,"rental_uris":{"android":"levelo://app?vid=92288d4e-db85-49a0-8d44-3c330313b612","ios":"levelo://app?vid=92288d4e-db85-49a0-8d44-3c330313b612"},"vehicle_type_id":"4","last_reported":1702030055,"current_range_meters":26800,"station_id":"ce4bhjp2rcd13ifvqga0","pricing_plan_id":"free"},{"bike_id":"d164b1e5-d8e4-426c-8caf-66eac74e4c7c","system_id":"levelo_inurba_marseille","lat":43.336134,"lon":5.410341,"is_reserved":false,"is_disabled":false,"rental_uris":{"android":"levelo://app?vid=d164b1e5-d8e4-426c-8caf-66eac74e4c7c","ios":"levelo://app?vid=d164b1e5-d8e4-426c-8caf-66eac74e4c7c"},"vehicle_type_id":"4","last_reported":1702030055,"current_range_meters":16800,"station_id":"ce4bhqh2rcd13ifvqhmg","pricing_plan_id":"free"},{"bike_id":"57b61f4e-d2e5-4b68-9369-a72ab13e3f2a","system_id":"levelo_inurba_marseille","lat":43.336134,"lon":5.410341,"is_reserved":false,"is_disabled":false,"rental_uris":{"android":"levelo://app?vid=57b61f4e-d2e5-4b68-9369-a72ab13e3f2a","ios":"levelo://app?vid=57b61f4e-d2e5-4b68-9369-a72ab13e3f2a"},"vehicle_type_id":"4","last_reported":1702030055,"current_range_meters":10000,"station_id":"ce4bhqh2rcd13ifvqhmg","pricing_plan_id":"free"},{"bike_id":"5ce4e9ba-5b71-4487-8451-fb3e12deb51f","system_id":"levelo_inurba_marseille","lat":43.336148,"lon":5.410349,"is_reserved":false,"is_disabled":false,"rental_uris":{"android":"levelo://app?vid=5ce4e9ba-5b71-4487-8451-fb3e12deb51f","ios":"levelo://app?vid=5ce4e9ba-5b71-4487-8451-fb3e12deb51f"},"vehicle_type_id":"4","last_reported":1702030055,"current_range_meters":30000,"station_id":"ce4bhqh2rcd13ifvqhmg","pricing_plan_id":"free"},{"bike_id":"58715b71-05cb-47c5-9f7a-5fac0f4f4152","system_id":"levelo_inurba_marseille","lat":43.336134,"lon":5.410341,"is_reserved":false,"is_disabled":false,"rental_uris":{"android":"levelo://app?vid=58715b71-05cb-47c5-9f7a-5fac0f4f4152","ios":"levelo://app?vid=58715b71-05cb-47c5-9f7a-5fac0f4f4152"},"vehicle_type_id":"4","last_reported":1702030055,"current_range_meters":22400,"station_id":"ce4bhqh2rcd13ifvqhmg","pricing_plan_id":"free"},{"bike_id":"a565a549-6c1e-45e1-b035-0ce75c104a04","system_id":"levelo_inurba_marseille","lat":43.276771,"lon":5.388799,"is_reserved":false,"is_disabled":false,"rental_uris":{"android":"levelo://app?vid=a565a549-6c1e-45e1-b035-0ce75c104a04","ios":"levelo://app?vid=a565a549-6c1e-45e1-b035-0ce75c104a04"},"vehicle_type_id":"4","last_reported":1702030055,"current_range_meters":30000,"station_id":"ce4bhi12rcd13ifvqfo0","pricing_plan_id":"free"},{"bike_id":"8de17e94-df54-4522-a1b9-4adc7134a665","system_id":"levelo_inurba_marseille","lat":43.276771,"lon":5.388799,"is_reserved":false,"is_disabled":false,"rental_uris":{"android":"levelo://app?vid=8de17e94-df54-4522-a1b9-4adc7134a665","ios":"levelo://app?vid=8de17e94-df54-4522-a1b9-4adc7134a665"},"vehicle_type_id":"4","last_reported":1702030055,"current_range_meters":26800,"station_id":"ce4bhi12rcd13ifvqfo0","pricing_plan_id":"free"},{"bike_id":"5cc7b054-7f74-4799-ba27-acd88dcc15ab","system_id":"levelo_inurba_marseille","lat":43.276421,"lon":5.391879,"is_reserved":false,"is_disabled":false,"rental_uris":{"android":"levelo://app?vid=5cc7b054-7f74-4799-ba27-acd88dcc15ab","ios":"levelo://app?vid=5cc7b054-7f74-4799-ba27-acd88dcc15ab"},"vehicle_type_id":"4","last_reported":1702030055,"current_range_meters":20000,"station_id":"","pricing_plan_id":"free"},{"bike_id":"986e2640-07f1-4aaf-ae9d-a0bb0a20f26c","system_id":"levelo_inurba_marseille","lat":43.279975,"lon":5.40009,"is_reserved":false,"is_disabled":false,"rental_uris":{"android":"levelo://app?vid=986e2640-07f1-4aaf-ae9d-a0bb0a20f26c","ios":"levelo://app?vid=986e2640-07f1-4aaf-ae9d-a0bb0a20f26c"},"vehicle_type_id":"4","last_reported":1702030055,"current_range_meters":24400,"station_id":"ce4bho92rcd13ifvqh4g","pricing_plan_id":"free"},{"bike_id":"200eafbf-d9f3-4a6e-935c-b56619044876","system_id":"levelo_inurba_marseille","lat":43.28761,"lon":5.41208,"is_reserved":false,"is_disabled":false,"rental_uris":{"android":"levelo://app?vid=200eafbf-d9f3-4a6e-935c-b56619044876","ios":"levelo://app?vid=200eafbf-d9f3-4a6e-935c-b56619044876"},"vehicle_type_id":"4","last_reported":1702030055,"current_range_meters":24400,"station_id":"","pricing_plan_id":"free"},{"bike_id":"ac48d04c-c813-4dcb-8013-15216c7aa7de","system_id":"levelo_inurba_marseille","lat":43.340804,"lon":5.410219,"is_reserved":false,"is_disabled":false,"rental_uris":{"android":"levelo://app?vid=ac48d04c-c813-4dcb-8013-15216c7aa7de","ios":"levelo://app?vid=ac48d04c-c813-4dcb-8013-15216c7aa7de"},"vehicle_type_id":"4","last_reported":1702030055,"current_range_meters":16400,"station_id":"ce4bhqh2rcd13ifvqhlg","pricing_plan_id":"free"},{"bike_id":"7777002e-5813-436f-aaf3-5560b01b82cf","system_id":"levelo_inurba_marseille","lat":43.310785,"lon":5.424305,"is_reserved":false,"is_disabled":false,"rental_uris":{"android":"levelo://app?vid=7777002e-5813-436f-aaf3-5560b01b82cf","ios":"levelo://app?vid=7777002e-5813-436f-aaf3-5560b01b82cf"},"vehicle_type_id":"4","last_reported":1702030055,"current_range_meters":20000,"station_id":"ce4bhp92rcd13ifvqhag","pricing_plan_id":"free"},{"bike_id":"98fd8ac5-d7f0-4eec-935b-9888a8c99cac","system_id":"levelo_inurba_marseille","lat":43.310785,"lon":5.424305,"is_reserved":false,"is_disabled":false,"rental_uris":{"android":"levelo://app?vid=98fd8ac5-d7f0-4eec-935b-9888a8c99cac","ios":"levelo://app?vid=98fd8ac5-d7f0-4eec-935b-9888a8c99cac"},"vehicle_type_id":"4","last_reported":1702030055,"current_range_meters":15600,"station_id":"ce4bhp92rcd13ifvqhag","pricing_plan_id":"free"},{"bike_id":"6ebb6371-316d-471a-968f-60b71f1ca6c8","system_id":"levelo_inurba_marseille","lat":43.310785,"lon":5.424305,"is_reserved":false,"is_disabled":false,"rental_uris":{"android":"levelo://app?vid=6ebb6371-316d-471a-968f-60b71f1ca6c8","ios":"levelo://app?vid=6ebb6371-316d-471a-968f-60b71f1ca6c8"},"vehicle_type_id":"4","last_reported":1702030055,"current_range_meters":26000,"station_id":"ce4bhp92rcd13ifvqhag","pricing_plan_id":"free"},{"bike_id":"7f906411-9fb1-4869-badf-f4ee1b588984","system_id":"levelo_inurba_marseille","lat":43.340804,"lon":5.410219,"is_reserved":false,"is_disabled":false,"rental_uris":{"android":"levelo://app?vid=7f906411-9fb1-4869-badf-f4ee1b588984","ios":"levelo://app?vid=7f906411-9fb1-4869-badf-f4ee1b588984"},"vehicle_type_id":"4","last_reported":1702030055,"current_range_meters":30400,"station_id":"ce4bhqh2rcd13ifvqhlg","pricing_plan_id":"free"},{"bike_id":"63133364-316e-458e-b234-bbd4926c63fc","system_id":"levelo_inurba_marseille","lat":43.27583,"lon":5.39474,"is_reserved":false,"is_disabled":false,"rental_uris":{"android":"levelo://app?vid=63133364-316e-458e-b234-bbd4926c63fc","ios":"levelo://app?vid=63133364-316e-458e-b234-bbd4926c63fc"},"vehicle_type_id":"4","last_reported":1702030055,"current_range_meters":13600,"station_id":"","pricing_plan_id":"free"},{"bike_id":"f0c32c6a-c49a-468c-a9cb-3f725cbe11db","system_id":"levelo_inurba_marseille","lat":43.273129,"lon":5.390725,"is_reserved":false,"is_disabled":false,"rental_uris":{"android":"levelo://app?vid=f0c32c6a-c49a-468c-a9cb-3f725cbe11db","ios":"levelo://app?vid=f0c32c6a-c49a-468c-a9cb-3f725cbe11db"},"vehicle_type_id":"4","last_reported":1702030055,"current_range_meters":30000,"station_id":"ce4bhgp2rcd13ifvqfe0","pricing_plan_id":"free"},{"bike_id":"09f71d2f-81ea-4644-8e24-dfea3454a076","system_id":"levelo_inurba_marseille","lat":43.274099,"lon":5.394019,"is_reserved":false,"is_disabled":false,"rental_uris":{"android":"levelo://app?vid=09f71d2f-81ea-4644-8e24-dfea3454a076","ios":"levelo://app?vid=09f71d2f-81ea-4644-8e24-dfea3454a076"},"vehicle_type_id":"4","last_reported":1702030055,"current_range_meters":27600,"station_id":"ce4bhdp2rcd13ifvqf20","pricing_plan_id":"free"},{"bike_id":"eaef0c91-0006-4e1a-b509-eede8ef610eb","system_id":"levelo_inurba_marseille","lat":43.274099,"lon":5.394019,"is_reserved":false,"is_disabled":false,"rental_uris":{"android":"levelo://app?vid=eaef0c91-0006-4e1a-b509-eede8ef610eb","ios":"levelo://app?vid=eaef0c91-0006-4e1a-b509-eede8ef610eb"},"vehicle_type_id":"4","last_reported":1702030055,"current_range_meters":25200,"station_id":"ce4bhdp2rcd13ifvqf20","pricing_plan_id":"free"},{"bike_id":"4ee84928-30de-467c-8215-de7b5558b7ed","system_id":"levelo_inurba_marseille","lat":43.295511,"lon":5.422926,"is_reserved":false,"is_disabled":false,"rental_uris":{"android":"levelo://app?vid=4ee84928-30de-467c-8215-de7b5558b7ed","ios":"levelo://app?vid=4ee84928-30de-467c-8215-de7b5558b7ed"},"vehicle_type_id":"4","last_reported":1702030055,"current_range_meters":31200,"station_id":"ce4bhph2rcd13ifvqhdg","pricing_plan_id":"free"},{"bike_id":"c9a354e1-cd47-4a73-9444-d6227e3bfab5","system_id":"levelo_inurba_marseille","lat":43.295511,"lon":5.422926,"is_reserved":false,"is_disabled":false,"rental_uris":{"android":"levelo://app?vid=c9a354e1-cd47-4a73-9444-d6227e3bfab5","ios":"levelo://app?vid=c9a354e1-cd47-4a73-9444-d6227e3bfab5"},"vehicle_type_id":"4","last_reported":1702030055,"current_range_meters":29600,"station_id":"ce4bhph2rcd13ifvqhdg","pricing_plan_id":"free"},{"bike_id":"cc056b65-6a46-4a5b-ac34-957528500157","system_id":"levelo_inurba_marseille","lat":43.295511,"lon":5.422926,"is_reserved":false,"is_disabled":false,"rental_uris":{"android":"levelo://app?vid=cc056b65-6a46-4a5b-ac34-957528500157","ios":"levelo://app?vid=cc056b65-6a46-4a5b-ac34-957528500157"},"vehicle_type_id":"4","last_reported":1702030055,"current_range_meters":29200,"station_id":"ce4bhph2rcd13ifvqhdg","pricing_plan_id":"free"},{"bike_id":"38f88d3d-1eb2-47a8-b81c-b6d37f915570","system_id":"levelo_inurba_marseille","lat":43.272116,"lon":5.391747,"is_reserved":false,"is_disabled":false,"rental_uris":{"android":"levelo://app?vid=38f88d3d-1eb2-47a8-b81c-b6d37f915570","ios":"levelo://app?vid=38f88d3d-1eb2-47a8-b81c-b6d37f915570"},"vehicle_type_id":"4","last_reported":1702030055,"current_range_meters":2800,"station_id":"ce4bhhp2rcd13ifvqfm0","pricing_plan_id":"free"},{"bike_id":"77e2df1b-d75a-48fe-a6ad-744dfbe91f1d","system_id":"levelo_inurba_marseille","lat":43.27214,"lon":5.3925,"is_reserved":false,"is_disabled":false,"rental_uris":{"android":"levelo://app?vid=77e2df1b-d75a-48fe-a6ad-744dfbe91f1d","ios":"levelo://app?vid=77e2df1b-d75a-48fe-a6ad-744dfbe91f1d"},"vehicle_type_id":"4","last_reported":1702030055,"current_range_meters":6000,"station_id":"","pricing_plan_id":"free"},{"bike_id":"2eb7b164-467e-49b0-a554-29c177f95c2a","system_id":"levelo_inurba_marseille","lat":43.278128,"lon":5.407195,"is_reserved":false,"is_disabled":false,"rental_uris":{"android":"levelo://app?vid=2eb7b164-467e-49b0-a554-29c177f95c2a","ios":"levelo://app?vid=2eb7b164-467e-49b0-a554-29c177f95c2a"},"vehicle_type_id":"4","last_reported":1702030055,"current_range_meters":20400,"station_id":"ce4bhnh2rcd13ifvqgtg","pricing_plan_id":"free"},{"bike_id":"7b84562b-f023-458e-9f63-22f52b26a915","system_id":"levelo_inurba_marseille","lat":43.278128,"lon":5.407195,"is_reserved":false,"is_disabled":false,"rental_uris":{"android":"levelo://app?vid=7b84562b-f023-458e-9f63-22f52b26a915","ios":"levelo://app?vid=7b84562b-f023-458e-9f63-22f52b26a915"},"vehicle_type_id":"4","last_reported":1702030055,"current_range_meters":31200,"station_id":"ce4bhnh2rcd13ifvqgtg","pricing_plan_id":"free"},{"bike_id":"8e3ed466-32b5-40fb-9e63-efc51e8e36c0","system_id":"levelo_inurba_marseille","lat":43.278128,"lon":5.407195,"is_reserved":false,"is_disabled":false,"rental_uris":{"android":"levelo://app?vid=8e3ed466-32b5-40fb-9e63-efc51e8e36c0","ios":"levelo://app?vid=8e3ed466-32b5-40fb-9e63-efc51e8e36c0"},"vehicle_type_id":"4","last_reported":1702030055,"current_range_meters":29600,"station_id":"ce4bhnh2rcd13ifvqgtg","pricing_plan_id":"free"},{"bike_id":"2e85e846-8324-4813-8d3e-dfa625a93eaa","system_id":"levelo_inurba_marseille","lat":43.278128,"lon":5.407195,"is_reserved":false,"is_disabled":false,"rental_uris":{"android":"levelo://app?vid=2e85e846-8324-4813-8d3e-dfa625a93eaa","ios":"levelo://app?vid=2e85e846-8324-4813-8d3e-dfa625a93eaa"},"vehicle_type_id":"4","last_reported":1702030055,"current_range_meters":31200,"station_id":"ce4bhnh2rcd13ifvqgtg","pricing_plan_id":"free"},{"bike_id":"0919e87c-4337-45ca-a2e8-a7b2006ec699","system_id":"levelo_inurba_marseille","lat":43.278128,"lon":5.407195,"is_reserved":false,"is_disabled":false,"rental_uris":{"android":"levelo://app?vid=0919e87c-4337-45ca-a2e8-a7b2006ec699","ios":"levelo://app?vid=0919e87c-4337-45ca-a2e8-a7b2006ec699"},"vehicle_type_id":"4","last_reported":1702030055,"current_range_meters":24400,"station_id":"ce4bhnh2rcd13ifvqgtg","pricing_plan_id":"free"},{"bike_id":"54f18ff7-4784-4dbe-ac30-cd93f7ecd65c","system_id":"levelo_inurba_marseille","lat":43.278128,"lon":5.407195,"is_reserved":false,"is_disabled":false,"rental_uris":{"android":"levelo://app?vid=54f18ff7-4784-4dbe-ac30-cd93f7ecd65c","ios":"levelo://app?vid=54f18ff7-4784-4dbe-ac30-cd93f7ecd65c"},"vehicle_type_id":"4","last_reported":1702030055,"current_range_meters":27600,"station_id":"ce4bhnh2rcd13ifvqgtg","pricing_plan_id":"free"},{"bike_id":"b697429d-0119-4908-92fc-5d4d4451b858","system_id":"levelo_inurba_marseille","lat":43.278128,"lon":5.407195,"is_reserved":false,"is_disabled":false,"rental_uris":{"android":"levelo://app?vid=b697429d-0119-4908-92fc-5d4d4451b858","ios":"levelo://app?vid=b697429d-0119-4908-92fc-5d4d4451b858"},"vehicle_type_id":"4","last_reported":1702030055,"current_range_meters":26400,"station_id":"ce4bhnh2rcd13ifvqgtg","pricing_plan_id":"free"},{"bike_id":"4aa2af62-c119-4068-b2b2-9e7731906d0d","system_id":"levelo_inurba_marseille","lat":43.269467,"lon":5.386439,"is_reserved":false,"is_disabled":false,"rental_uris":{"android":"levelo://app?vid=4aa2af62-c119-4068-b2b2-9e7731906d0d","ios":"levelo://app?vid=4aa2af62-c119-4068-b2b2-9e7731906d0d"},"vehicle_type_id":"4","last_reported":1702030055,"current_range_meters":0,"station_id":"ce4bhh92rcd13ifvqfh0","pricing_plan_id":"free"},{"bike_id":"64da958b-7151-4488-a92f-824fc9d4dcc5","system_id":"levelo_inurba_marseille","lat":43.269467,"lon":5.386439,"is_reserved":false,"is_disabled":false,"rental_uris":{"android":"levelo://app?vid=64da958b-7151-4488-a92f-824fc9d4dcc5","ios":"levelo://app?vid=64da958b-7151-4488-a92f-824fc9d4dcc5"},"vehicle_type_id":"4","last_reported":1702030055,"current_range_meters":28400,"station_id":"ce4bhh92rcd13ifvqfh0","pricing_plan_id":"free"},{"bike_id":"239f7aac-3907-4306-a4e8-4994f14136cf","system_id":"levelo_inurba_marseille","lat":43.269467,"lon":5.386439,"is_reserved":false,"is_disabled":false,"rental_uris":{"android":"levelo://app?vid=239f7aac-3907-4306-a4e8-4994f14136cf","ios":"levelo://app?vid=239f7aac-3907-4306-a4e8-4994f14136cf"},"vehicle_type_id":"4","last_reported":1702030055,"current_range_meters":27200,"station_id":"ce4bhh92rcd13ifvqfh0","pricing_plan_id":"free"},{"bike_id":"d118077e-5c82-431d-8f17-f417e4d143b6","system_id":"levelo_inurba_marseille","lat":43.269467,"lon":5.386439,"is_reserved":false,"is_disabled":false,"rental_uris":{"android":"levelo://app?vid=d118077e-5c82-431d-8f17-f417e4d143b6","ios":"levelo://app?vid=d118077e-5c82-431d-8f17-f417e4d143b6"},"vehicle_type_id":"4","last_reported":1702030055,"current_range_meters":16000,"station_id":"ce4bhh92rcd13ifvqfh0","pricing_plan_id":"free"},{"bike_id":"51b98119-9e4c-442e-81ee-181f51a45633","system_id":"levelo_inurba_marseille","lat":43.269467,"lon":5.386439,"is_reserved":false,"is_disabled":false,"rental_uris":{"android":"levelo://app?vid=51b98119-9e4c-442e-81ee-181f51a45633","ios":"levelo://app?vid=51b98119-9e4c-442e-81ee-181f51a45633"},"vehicle_type_id":"4","last_reported":1702030055,"current_range_meters":25600,"station_id":"ce4bhh92rcd13ifvqfh0","pricing_plan_id":"free"},{"bike_id":"a752f5d5-4e68-470c-94fd-6bdaff601d0e","system_id":"levelo_inurba_marseille","lat":43.269467,"lon":5.386439,"is_reserved":false,"is_disabled":false,"rental_uris":{"android":"levelo://app?vid=a752f5d5-4e68-470c-94fd-6bdaff601d0e","ios":"levelo://app?vid=a752f5d5-4e68-470c-94fd-6bdaff601d0e"},"vehicle_type_id":"4","last_reported":1702030055,"current_range_meters":30400,"station_id":"ce4bhh92rcd13ifvqfh0","pricing_plan_id":"free"},{"bike_id":"dffd642e-6acf-43e9-84fd-33fa89f52c00","system_id":"levelo_inurba_marseille","lat":43.279097,"lon":5.412333,"is_reserved":false,"is_disabled":false,"rental_uris":{"android":"levelo://app?vid=dffd642e-6acf-43e9-84fd-33fa89f52c00","ios":"levelo://app?vid=dffd642e-6acf-43e9-84fd-33fa89f52c00"},"vehicle_type_id":"4","last_reported":1702030055,"current_range_meters":10800,"station_id":"","pricing_plan_id":"free"},{"bike_id":"278d3881-2a72-4b9f-b073-2914ce67f608","system_id":"levelo_inurba_marseille","lat":43.26681,"lon":5.382694,"is_reserved":false,"is_disabled":false,"rental_uris":{"android":"levelo://app?vid=278d3881-2a72-4b9f-b073-2914ce67f608","ios":"levelo://app?vid=278d3881-2a72-4b9f-b073-2914ce67f608"},"vehicle_type_id":"4","last_reported":1702030055,"current_range_meters":29200,"station_id":"ce4bhg92rcd13ifvqf90","pricing_plan_id":"free"},{"bike_id":"1fda5528-ce12-4baf-b7ef-72d32bd3f500","system_id":"levelo_inurba_marseille","lat":43.26681,"lon":5.382694,"is_reserved":false,"is_disabled":false,"rental_uris":{"android":"levelo://app?vid=1fda5528-ce12-4baf-b7ef-72d32bd3f500","ios":"levelo://app?vid=1fda5528-ce12-4baf-b7ef-72d32bd3f500"},"vehicle_type_id":"4","last_reported":1702030055,"current_range_meters":6400,"station_id":"ce4bhg92rcd13ifvqf90","pricing_plan_id":"free"},{"bike_id":"69cf0675-0b26-4e62-9580-22f1eaf1e028","system_id":"levelo_inurba_marseille","lat":43.26681,"lon":5.382694,"is_reserved":false,"is_disabled":false,"rental_uris":{"android":"levelo://app?vid=69cf0675-0b26-4e62-9580-22f1eaf1e028","ios":"levelo://app?vid=69cf0675-0b26-4e62-9580-22f1eaf1e028"},"vehicle_type_id":"4","last_reported":1702030055,"current_range_meters":31200,"station_id":"ce4bhg92rcd13ifvqf90","pricing_plan_id":"free"},{"bike_id":"5a87d66f-8536-4e23-9733-7cddf81d770e","system_id":"levelo_inurba_marseille","lat":43.26681,"lon":5.382694,"is_reserved":false,"is_disabled":false,"rental_uris":{"android":"levelo://app?vid=5a87d66f-8536-4e23-9733-7cddf81d770e","ios":"levelo://app?vid=5a87d66f-8536-4e23-9733-7cddf81d770e"},"vehicle_type_id":"4","last_reported":1702030055,"current_range_meters":12800,"station_id":"ce4bhg92rcd13ifvqf90","pricing_plan_id":"free"},{"bike_id":"64205017-117b-49da-8a8d-7d36ff1d6f75","system_id":"levelo_inurba_marseille","lat":43.26681,"lon":5.382694,"is_reserved":false,"is_disabled":false,"rental_uris":{"android":"levelo://app?vid=64205017-117b-49da-8a8d-7d36ff1d6f75","ios":"levelo://app?vid=64205017-117b-49da-8a8d-7d36ff1d6f75"},"vehicle_type_id":"4","last_reported":1702030055,"current_range_meters":30400,"station_id":"ce4bhg92rcd13ifvqf90","pricing_plan_id":"free"},{"bike_id":"d1229013-f4fa-4838-b99c-7170643c99ca","system_id":"levelo_inurba_marseille","lat":43.27996,"lon":5.416624,"is_reserved":false,"is_disabled":false,"rental_uris":{"android":"levelo://app?vid=d1229013-f4fa-4838-b99c-7170643c99ca","ios":"levelo://app?vid=d1229013-f4fa-4838-b99c-7170643c99ca"},"vehicle_type_id":"4","last_reported":1702030055,"current_range_meters":9200,"station_id":"ce4bho12rcd13ifvqh1g","pricing_plan_id":"free"},{"bike_id":"5c62f0fe-2a68-4f0e-8c5e-1c3be35b64ff","system_id":"levelo_inurba_marseille","lat":43.29173,"lon":5.42787,"is_reserved":false,"is_disabled":false,"rental_uris":{"android":"levelo://app?vid=5c62f0fe-2a68-4f0e-8c5e-1c3be35b64ff","ios":"levelo://app?vid=5c62f0fe-2a68-4f0e-8c5e-1c3be35b64ff"},"vehicle_type_id":"4","last_reported":1702030055,"current_range_meters":11600,"station_id":"","pricing_plan_id":"free"},{"bike_id":"7b22571e-885a-46c0-bb56-6c8376ca1f8f","system_id":"levelo_inurba_marseille","lat":43.267966,"lon":5.393976,"is_reserved":false,"is_disabled":false,"rental_uris":{"android":"levelo://app?vid=7b22571e-885a-46c0-bb56-6c8376ca1f8f","ios":"levelo://app?vid=7b22571e-885a-46c0-bb56-6c8376ca1f8f"},"vehicle_type_id":"4","last_reported":1702030055,"current_range_meters":6000,"station_id":"ce4bhh12rcd13ifvqfg0","pricing_plan_id":"free"},{"bike_id":"d651cbba-6706-4cc3-b22b-e37dcaf35aa9","system_id":"levelo_inurba_marseille","lat":43.265571,"lon":5.390032,"is_reserved":false,"is_disabled":false,"rental_uris":{"android":"levelo://app?vid=d651cbba-6706-4cc3-b22b-e37dcaf35aa9","ios":"levelo://app?vid=d651cbba-6706-4cc3-b22b-e37dcaf35aa9"},"vehicle_type_id":"4","last_reported":1702030055,"current_range_meters":8800,"station_id":"ce4bhe12rcd13ifvqf30","pricing_plan_id":"free"},{"bike_id":"f076cecd-d7cf-41d2-831d-4d046a72d397","system_id":"levelo_inurba_marseille","lat":43.265569,"lon":5.390047,"is_reserved":false,"is_disabled":false,"rental_uris":{"android":"levelo://app?vid=f076cecd-d7cf-41d2-831d-4d046a72d397","ios":"levelo://app?vid=f076cecd-d7cf-41d2-831d-4d046a72d397"},"vehicle_type_id":"4","last_reported":1702030055,"current_range_meters":30800,"station_id":"ce4bhe12rcd13ifvqf30","pricing_plan_id":"free"},{"bike_id":"b5b2a843-c8da-4227-8b0a-6e5474ffcca6","system_id":"levelo_inurba_marseille","lat":43.26563,"lon":5.39005,"is_reserved":false,"is_disabled":false,"rental_uris":{"android":"levelo://app?vid=b5b2a843-c8da-4227-8b0a-6e5474ffcca6","ios":"levelo://app?vid=b5b2a843-c8da-4227-8b0a-6e5474ffcca6"},"vehicle_type_id":"4","last_reported":1702030055,"current_range_meters":18400,"station_id":"ce4bhe12rcd13ifvqf30","pricing_plan_id":"free"},{"bike_id":"736d0151-31db-4cb0-a5cc-0fa8fd52a877","system_id":"levelo_inurba_marseille","lat":43.269412,"lon":5.402483,"is_reserved":false,"is_disabled":false,"rental_uris":{"android":"levelo://app?vid=736d0151-31db-4cb0-a5cc-0fa8fd52a877","ios":"levelo://app?vid=736d0151-31db-4cb0-a5cc-0fa8fd52a877"},"vehicle_type_id":"4","last_reported":1702030055,"current_range_meters":16400,"station_id":"cjm6bp8fraef2m0cb0m0","pricing_plan_id":"free"},{"bike_id":"ea381d9c-61ab-4e4c-9c8e-758dcf066ee3","system_id":"levelo_inurba_marseille","lat":43.26949,"lon":5.40262,"is_reserved":false,"is_disabled":false,"rental_uris":{"android":"levelo://app?vid=ea381d9c-61ab-4e4c-9c8e-758dcf066ee3","ios":"levelo://app?vid=ea381d9c-61ab-4e4c-9c8e-758dcf066ee3"},"vehicle_type_id":"4","last_reported":1702030055,"current_range_meters":27600,"station_id":"cjm6bp8fraef2m0cb0m0","pricing_plan_id":"free"},{"bike_id":"70d70328-d04d-4dae-8344-3a7666e0e942","system_id":"levelo_inurba_marseille","lat":43.269436,"lon":5.402914,"is_reserved":false,"is_disabled":false,"rental_uris":{"android":"levelo://app?vid=70d70328-d04d-4dae-8344-3a7666e0e942","ios":"levelo://app?vid=70d70328-d04d-4dae-8344-3a7666e0e942"},"vehicle_type_id":"4","last_reported":1702030055,"current_range_meters":24000,"station_id":"","pricing_plan_id":"free"},{"bike_id":"f2e5d013-6edb-494d-8e09-78d711cf04a7","system_id":"levelo_inurba_marseille","lat":43.317104,"lon":5.436818,"is_reserved":false,"is_disabled":false,"rental_uris":{"android":"levelo://app?vid=f2e5d013-6edb-494d-8e09-78d711cf04a7","ios":"levelo://app?vid=f2e5d013-6edb-494d-8e09-78d711cf04a7"},"vehicle_type_id":"4","last_reported":1702030055,"current_range_meters":27200,"station_id":"ce4bhp92rcd13ifvqhcg","pricing_plan_id":"free"},{"bike_id":"ed3d39e3-16d0-4193-b5f3-7d15fa62181e","system_id":"levelo_inurba_marseille","lat":43.262012,"lon":5.379307,"is_reserved":false,"is_disabled":false,"rental_uris":{"android":"levelo://app?vid=ed3d39e3-16d0-4193-b5f3-7d15fa62181e","ios":"levelo://app?vid=ed3d39e3-16d0-4193-b5f3-7d15fa62181e"},"vehicle_type_id":"4","last_reported":1702030055,"current_range_meters":31200,"station_id":"ce4bhjp2rcd13ifvqg90","pricing_plan_id":"free"},{"bike_id":"3304d659-2172-4c05-95b9-9ce22aa618b6","system_id":"levelo_inurba_marseille","lat":43.271388,"lon":5.409269,"is_reserved":false,"is_disabled":false,"rental_uris":{"android":"levelo://app?vid=3304d659-2172-4c05-95b9-9ce22aa618b6","ios":"levelo://app?vid=3304d659-2172-4c05-95b9-9ce22aa618b6"},"vehicle_type_id":"4","last_reported":1702030055,"current_range_meters":31200,"station_id":"ce4bhl12rcd13ifvqgf0","pricing_plan_id":"free"},{"bike_id":"c02629ae-02d4-4d04-930c-99d6c910f9de","system_id":"levelo_inurba_marseille","lat":43.271388,"lon":5.409269,"is_reserved":false,"is_disabled":false,"rental_uris":{"android":"levelo://app?vid=c02629ae-02d4-4d04-930c-99d6c910f9de","ios":"levelo://app?vid=c02629ae-02d4-4d04-930c-99d6c910f9de"},"vehicle_type_id":"4","last_reported":1702030055,"current_range_meters":23200,"station_id":"ce4bhl12rcd13ifvqgf0","pricing_plan_id":"free"},{"bike_id":"efa24303-85ca-4cb7-8ca4-9a01f478b899","system_id":"levelo_inurba_marseille","lat":43.267959,"lon":5.402687,"is_reserved":false,"is_disabled":false,"rental_uris":{"android":"levelo://app?vid=efa24303-85ca-4cb7-8ca4-9a01f478b899","ios":"levelo://app?vid=efa24303-85ca-4cb7-8ca4-9a01f478b899"},"vehicle_type_id":"4","last_reported":1702030055,"current_range_meters":22000,"station_id":"ce501612rcd8frsf0b60","pricing_plan_id":"free"},{"bike_id":"1ac7fe7d-9ff1-40ef-8942-6b0228701912","system_id":"levelo_inurba_marseille","lat":43.26806,"lon":5.40264,"is_reserved":false,"is_disabled":false,"rental_uris":{"android":"levelo://app?vid=1ac7fe7d-9ff1-40ef-8942-6b0228701912","ios":"levelo://app?vid=1ac7fe7d-9ff1-40ef-8942-6b0228701912"},"vehicle_type_id":"4","last_reported":1702030055,"current_range_meters":23200,"station_id":"","pricing_plan_id":"free"},{"bike_id":"ef422868-4c1b-4cdc-9e29-0527a7943ef3","system_id":"levelo_inurba_marseille","lat":43.267959,"lon":5.402687,"is_reserved":false,"is_disabled":false,"rental_uris":{"android":"levelo://app?vid=ef422868-4c1b-4cdc-9e29-0527a7943ef3","ios":"levelo://app?vid=ef422868-4c1b-4cdc-9e29-0527a7943ef3"},"vehicle_type_id":"4","last_reported":1702030055,"current_range_meters":16000,"station_id":"ce501612rcd8frsf0b60","pricing_plan_id":"free"},{"bike_id":"8a8bc4d6-0029-4fbf-9728-a692a0316877","system_id":"levelo_inurba_marseille","lat":43.27557,"lon":5.41681,"is_reserved":false,"is_disabled":false,"rental_uris":{"android":"levelo://app?vid=8a8bc4d6-0029-4fbf-9728-a692a0316877","ios":"levelo://app?vid=8a8bc4d6-0029-4fbf-9728-a692a0316877"},"vehicle_type_id":"4","last_reported":1702030055,"current_range_meters":2800,"station_id":"","pricing_plan_id":"free"},{"bike_id":"0a3af9fe-4495-4765-a364-07e789cdace4","system_id":"levelo_inurba_marseille","lat":43.298768,"lon":5.43643,"is_reserved":false,"is_disabled":false,"rental_uris":{"android":"levelo://app?vid=0a3af9fe-4495-4765-a364-07e789cdace4","ios":"levelo://app?vid=0a3af9fe-4495-4765-a364-07e789cdace4"},"vehicle_type_id":"4","last_reported":1702030055,"current_range_meters":27200,"station_id":"ce4bhpp2rcd13ifvqhfg","pricing_plan_id":"free"},{"bike_id":"ca4db8a8-5b98-4b78-bc3d-514f38028a3d","system_id":"levelo_inurba_marseille","lat":43.298768,"lon":5.43643,"is_reserved":false,"is_disabled":false,"rental_uris":{"android":"levelo://app?vid=ca4db8a8-5b98-4b78-bc3d-514f38028a3d","ios":"levelo://app?vid=ca4db8a8-5b98-4b78-bc3d-514f38028a3d"},"vehicle_type_id":"4","last_reported":1702030055,"current_range_meters":30000,"station_id":"ce4bhpp2rcd13ifvqhfg","pricing_plan_id":"free"},{"bike_id":"4f68f183-a711-4386-a731-e8ea8e2f115e","system_id":"levelo_inurba_marseille","lat":43.298768,"lon":5.43643,"is_reserved":false,"is_disabled":false,"rental_uris":{"android":"levelo://app?vid=4f68f183-a711-4386-a731-e8ea8e2f115e","ios":"levelo://app?vid=4f68f183-a711-4386-a731-e8ea8e2f115e"},"vehicle_type_id":"4","last_reported":1702030055,"current_range_meters":25200,"station_id":"ce4bhpp2rcd13ifvqhfg","pricing_plan_id":"free"},{"bike_id":"83e2018e-7127-4415-8bbf-2e347a9c6750","system_id":"levelo_inurba_marseille","lat":43.29897,"lon":5.43669,"is_reserved":false,"is_disabled":false,"rental_uris":{"android":"levelo://app?vid=83e2018e-7127-4415-8bbf-2e347a9c6750","ios":"levelo://app?vid=83e2018e-7127-4415-8bbf-2e347a9c6750"},"vehicle_type_id":"4","last_reported":1702030055,"current_range_meters":4000,"station_id":"ce4bhpp2rcd13ifvqhfg","pricing_plan_id":"free"},{"bike_id":"f8a9cb43-4709-4f60-ac29-2967da370fcc","system_id":"levelo_inurba_marseille","lat":43.281548,"lon":5.42643,"is_reserved":false,"is_disabled":false,"rental_uris":{"android":"levelo://app?vid=f8a9cb43-4709-4f60-ac29-2967da370fcc","ios":"levelo://app?vid=f8a9cb43-4709-4f60-ac29-2967da370fcc"},"vehicle_type_id":"4","last_reported":1702030055,"current_range_meters":25600,"station_id":"ce4bhnh2rcd13ifvqgug","pricing_plan_id":"free"},{"bike_id":"f952d5c9-3264-4e68-9944-a590552f9728","system_id":"levelo_inurba_marseille","lat":43.281548,"lon":5.42643,"is_reserved":false,"is_disabled":false,"rental_uris":{"android":"levelo://app?vid=f952d5c9-3264-4e68-9944-a590552f9728","ios":"levelo://app?vid=f952d5c9-3264-4e68-9944-a590552f9728"},"vehicle_type_id":"4","last_reported":1702030055,"current_range_meters":31200,"station_id":"ce4bhnh2rcd13ifvqgug","pricing_plan_id":"free"},{"bike_id":"fee59bde-6126-4a98-a3e0-c862515d1a23","system_id":"levelo_inurba_marseille","lat":43.281548,"lon":5.42643,"is_reserved":false,"is_disabled":false,"rental_uris":{"android":"levelo://app?vid=fee59bde-6126-4a98-a3e0-c862515d1a23","ios":"levelo://app?vid=fee59bde-6126-4a98-a3e0-c862515d1a23"},"vehicle_type_id":"4","last_reported":1702030055,"current_range_meters":31200,"station_id":"ce4bhnh2rcd13ifvqgug","pricing_plan_id":"free"},{"bike_id":"6c4a4127-c4de-4571-99d2-c4e93580765c","system_id":"levelo_inurba_marseille","lat":43.281548,"lon":5.42643,"is_reserved":false,"is_disabled":false,"rental_uris":{"android":"levelo://app?vid=6c4a4127-c4de-4571-99d2-c4e93580765c","ios":"levelo://app?vid=6c4a4127-c4de-4571-99d2-c4e93580765c"},"vehicle_type_id":"4","last_reported":1702030055,"current_range_meters":23600,"station_id":"ce4bhnh2rcd13ifvqgug","pricing_plan_id":"free"},{"bike_id":"ba7ddf79-ff50-4f5c-8fc6-82d165f47152","system_id":"levelo_inurba_marseille","lat":43.28153,"lon":5.42651,"is_reserved":false,"is_disabled":false,"rental_uris":{"android":"levelo://app?vid=ba7ddf79-ff50-4f5c-8fc6-82d165f47152","ios":"levelo://app?vid=ba7ddf79-ff50-4f5c-8fc6-82d165f47152"},"vehicle_type_id":"4","last_reported":1702030055,"current_range_meters":4800,"station_id":"ce4bhnh2rcd13ifvqgug","pricing_plan_id":"free"},{"bike_id":"aa000ddb-e1a1-44b1-9c45-a1da2129918f","system_id":"levelo_inurba_marseille","lat":43.2607,"lon":5.393983,"is_reserved":false,"is_disabled":false,"rental_uris":{"android":"levelo://app?vid=aa000ddb-e1a1-44b1-9c45-a1da2129918f","ios":"levelo://app?vid=aa000ddb-e1a1-44b1-9c45-a1da2129918f"},"vehicle_type_id":"4","last_reported":1702030055,"current_range_meters":22000,"station_id":"ce4bhh92rcd13ifvqfj0","pricing_plan_id":"free"},{"bike_id":"a31da206-9ccc-41ba-b9e0-95fc13a79ad5","system_id":"levelo_inurba_marseille","lat":43.2607,"lon":5.393983,"is_reserved":false,"is_disabled":false,"rental_uris":{"android":"levelo://app?vid=a31da206-9ccc-41ba-b9e0-95fc13a79ad5","ios":"levelo://app?vid=a31da206-9ccc-41ba-b9e0-95fc13a79ad5"},"vehicle_type_id":"4","last_reported":1702030055,"current_range_meters":30400,"station_id":"ce4bhh92rcd13ifvqfj0","pricing_plan_id":"free"},{"bike_id":"c90d4f1f-c031-4bfa-9513-341cda3df957","system_id":"levelo_inurba_marseille","lat":43.2607,"lon":5.393983,"is_reserved":false,"is_disabled":false,"rental_uris":{"android":"levelo://app?vid=c90d4f1f-c031-4bfa-9513-341cda3df957","ios":"levelo://app?vid=c90d4f1f-c031-4bfa-9513-341cda3df957"},"vehicle_type_id":"4","last_reported":1702030055,"current_range_meters":29200,"station_id":"ce4bhh92rcd13ifvqfj0","pricing_plan_id":"free"},{"bike_id":"6c375ee1-709c-47a6-b877-b3e435d63266","system_id":"levelo_inurba_marseille","lat":43.255756,"lon":5.382303,"is_reserved":false,"is_disabled":false,"rental_uris":{"android":"levelo://app?vid=6c375ee1-709c-47a6-b877-b3e435d63266","ios":"levelo://app?vid=6c375ee1-709c-47a6-b877-b3e435d63266"},"vehicle_type_id":"4","last_reported":1702030055,"current_range_meters":23200,"station_id":"ce4bhih2rcd13ifvqfs0","pricing_plan_id":"free"},{"bike_id":"8ed0ddca-11cc-4b43-b35d-ac1d76bafade","system_id":"levelo_inurba_marseille","lat":43.258224,"lon":5.394369,"is_reserved":false,"is_disabled":false,"rental_uris":{"android":"levelo://app?vid=8ed0ddca-11cc-4b43-b35d-ac1d76bafade","ios":"levelo://app?vid=8ed0ddca-11cc-4b43-b35d-ac1d76bafade"},"vehicle_type_id":"4","last_reported":1702030055,"current_range_meters":30000,"station_id":"ce4bhip2rcd13ifvqft0","pricing_plan_id":"free"},{"bike_id":"3ad59db9-ba6e-4237-879d-9ad671817685","system_id":"levelo_inurba_marseille","lat":43.258224,"lon":5.394369,"is_reserved":false,"is_disabled":false,"rental_uris":{"android":"levelo://app?vid=3ad59db9-ba6e-4237-879d-9ad671817685","ios":"levelo://app?vid=3ad59db9-ba6e-4237-879d-9ad671817685"},"vehicle_type_id":"4","last_reported":1702030055,"current_range_meters":26400,"station_id":"ce4bhip2rcd13ifvqft0","pricing_plan_id":"free"},{"bike_id":"a031c3ff-6dea-4029-b24a-3333710bb2e1","system_id":"levelo_inurba_marseille","lat":43.25576,"lon":5.38236,"is_reserved":false,"is_disabled":false,"rental_uris":{"android":"levelo://app?vid=a031c3ff-6dea-4029-b24a-3333710bb2e1","ios":"levelo://app?vid=a031c3ff-6dea-4029-b24a-3333710bb2e1"},"vehicle_type_id":"4","last_reported":1702030055,"current_range_meters":20800,"station_id":"ce4bhih2rcd13ifvqfs0","pricing_plan_id":"free"},{"bike_id":"d3f8d42e-7148-47c9-80b9-54e0739fd8b2","system_id":"levelo_inurba_marseille","lat":43.254947,"lon":5.376454,"is_reserved":false,"is_disabled":false,"rental_uris":{"android":"levelo://app?vid=d3f8d42e-7148-47c9-80b9-54e0739fd8b2","ios":"levelo://app?vid=d3f8d42e-7148-47c9-80b9-54e0739fd8b2"},"vehicle_type_id":"4","last_reported":1702030055,"current_range_meters":24400,"station_id":"ce4bhh12rcd13ifvqff0","pricing_plan_id":"free"},{"bike_id":"7b3c5568-a81d-4b3e-a545-3e6cf8403cc7","system_id":"levelo_inurba_marseille","lat":43.270721,"lon":5.422764,"is_reserved":false,"is_disabled":false,"rental_uris":{"android":"levelo://app?vid=7b3c5568-a81d-4b3e-a545-3e6cf8403cc7","ios":"levelo://app?vid=7b3c5568-a81d-4b3e-a545-3e6cf8403cc7"},"vehicle_type_id":"4","last_reported":1702030055,"current_range_meters":29600,"station_id":"ce4bhk92rcd13ifvqgb0","pricing_plan_id":"free"},{"bike_id":"86c273ec-8ba5-46e9-8021-4aa98debfb6d","system_id":"levelo_inurba_marseille","lat":43.258658,"lon":5.398935,"is_reserved":false,"is_disabled":false,"rental_uris":{"android":"levelo://app?vid=86c273ec-8ba5-46e9-8021-4aa98debfb6d","ios":"levelo://app?vid=86c273ec-8ba5-46e9-8021-4aa98debfb6d"},"vehicle_type_id":"4","last_reported":1702030055,"current_range_meters":28400,"station_id":"ce4bhl92rcd13ifvqghg","pricing_plan_id":"free"},{"bike_id":"292c952d-e4e1-4c4c-a37e-be6cd513fd85","system_id":"levelo_inurba_marseille","lat":43.259009,"lon":5.40929,"is_reserved":false,"is_disabled":false,"rental_uris":{"android":"levelo://app?vid=292c952d-e4e1-4c4c-a37e-be6cd513fd85","ios":"levelo://app?vid=292c952d-e4e1-4c4c-a37e-be6cd513fd85"},"vehicle_type_id":"4","last_reported":1702030055,"current_range_meters":22000,"station_id":"ce4bhm92rcd13ifvqglg","pricing_plan_id":"free"},{"bike_id":"edb444dc-2efe-4df9-b284-a7027743e237","system_id":"levelo_inurba_marseille","lat":43.250023,"lon":5.38919,"is_reserved":false,"is_disabled":false,"rental_uris":{"android":"levelo://app?vid=edb444dc-2efe-4df9-b284-a7027743e237","ios":"levelo://app?vid=edb444dc-2efe-4df9-b284-a7027743e237"},"vehicle_type_id":"4","last_reported":1702030055,"current_range_meters":26000,"station_id":"ce4bhgp2rcd13ifvqfd0","pricing_plan_id":"free"},{"bike_id":"5df955c1-69ce-44bd-b0a5-f2dfd66c5dee","system_id":"levelo_inurba_marseille","lat":43.250009,"lon":5.389195,"is_reserved":false,"is_disabled":false,"rental_uris":{"android":"levelo://app?vid=5df955c1-69ce-44bd-b0a5-f2dfd66c5dee","ios":"levelo://app?vid=5df955c1-69ce-44bd-b0a5-f2dfd66c5dee"},"vehicle_type_id":"4","last_reported":1702030055,"current_range_meters":12800,"station_id":"ce4bhgp2rcd13ifvqfd0","pricing_plan_id":"free"},{"bike_id":"1488eaec-fe8d-4d77-90f5-7666b3965684","system_id":"levelo_inurba_marseille","lat":43.250009,"lon":5.389195,"is_reserved":false,"is_disabled":false,"rental_uris":{"android":"levelo://app?vid=1488eaec-fe8d-4d77-90f5-7666b3965684","ios":"levelo://app?vid=1488eaec-fe8d-4d77-90f5-7666b3965684"},"vehicle_type_id":"4","last_reported":1702030055,"current_range_meters":0,"station_id":"ce4bhgp2rcd13ifvqfd0","pricing_plan_id":"free"},{"bike_id":"ddf2951b-2b04-424f-9ef1-6d8217c9e48c","system_id":"levelo_inurba_marseille","lat":43.250009,"lon":5.389195,"is_reserved":false,"is_disabled":false,"rental_uris":{"android":"levelo://app?vid=ddf2951b-2b04-424f-9ef1-6d8217c9e48c","ios":"levelo://app?vid=ddf2951b-2b04-424f-9ef1-6d8217c9e48c"},"vehicle_type_id":"4","last_reported":1702030055,"current_range_meters":31200,"station_id":"ce4bhgp2rcd13ifvqfd0","pricing_plan_id":"free"},{"bike_id":"0b4d00e8-4368-45fa-a64c-57ed80dcd7f5","system_id":"levelo_inurba_marseille","lat":43.2479,"lon":5.374457,"is_reserved":false,"is_disabled":false,"rental_uris":{"android":"levelo://app?vid=0b4d00e8-4368-45fa-a64c-57ed80dcd7f5","ios":"levelo://app?vid=0b4d00e8-4368-45fa-a64c-57ed80dcd7f5"},"vehicle_type_id":"4","last_reported":1702030055,"current_range_meters":21200,"station_id":"ce4bhgh2rcd13ifvqfb0","pricing_plan_id":"free"},{"bike_id":"4c3aa7d5-6439-4de8-8f31-a41d81fc5fda","system_id":"levelo_inurba_marseille","lat":43.2479,"lon":5.374457,"is_reserved":false,"is_disabled":false,"rental_uris":{"android":"levelo://app?vid=4c3aa7d5-6439-4de8-8f31-a41d81fc5fda","ios":"levelo://app?vid=4c3aa7d5-6439-4de8-8f31-a41d81fc5fda"},"vehicle_type_id":"4","last_reported":1702030055,"current_range_meters":30000,"station_id":"ce4bhgh2rcd13ifvqfb0","pricing_plan_id":"free"},{"bike_id":"34e76c97-6499-41f8-ae0e-eff27a8f6241","system_id":"levelo_inurba_marseille","lat":43.2479,"lon":5.374457,"is_reserved":false,"is_disabled":false,"rental_uris":{"android":"levelo://app?vid=34e76c97-6499-41f8-ae0e-eff27a8f6241","ios":"levelo://app?vid=34e76c97-6499-41f8-ae0e-eff27a8f6241"},"vehicle_type_id":"4","last_reported":1702030055,"current_range_meters":23600,"station_id":"ce4bhgh2rcd13ifvqfb0","pricing_plan_id":"free"},{"bike_id":"d90af72d-6f7d-43fd-99c1-9b02f3055a51","system_id":"levelo_inurba_marseille","lat":43.25102,"lon":5.403214,"is_reserved":false,"is_disabled":false,"rental_uris":{"android":"levelo://app?vid=d90af72d-6f7d-43fd-99c1-9b02f3055a51","ios":"levelo://app?vid=d90af72d-6f7d-43fd-99c1-9b02f3055a51"},"vehicle_type_id":"4","last_reported":1702030055,"current_range_meters":1200,"station_id":"ce4bhlh2rcd13ifvqgig","pricing_plan_id":"free"},{"bike_id":"55d4cda2-7880-44c8-8815-1b2f87dd305f","system_id":"levelo_inurba_marseille","lat":43.251087,"lon":5.403287,"is_reserved":false,"is_disabled":false,"rental_uris":{"android":"levelo://app?vid=55d4cda2-7880-44c8-8815-1b2f87dd305f","ios":"levelo://app?vid=55d4cda2-7880-44c8-8815-1b2f87dd305f"},"vehicle_type_id":"4","last_reported":1702030055,"current_range_meters":21600,"station_id":"ce4bhlh2rcd13ifvqgig","pricing_plan_id":"free"},{"bike_id":"9721f0e7-0120-440d-9db1-67014846166a","system_id":"levelo_inurba_marseille","lat":43.243884,"lon":5.370737,"is_reserved":false,"is_disabled":false,"rental_uris":{"android":"levelo://app?vid=9721f0e7-0120-440d-9db1-67014846166a","ios":"levelo://app?vid=9721f0e7-0120-440d-9db1-67014846166a"},"vehicle_type_id":"4","last_reported":1702030055,"current_range_meters":26400,"station_id":"ce4bhhh2rcd13ifvqfk0","pricing_plan_id":"free"},{"bike_id":"a7359d42-ae96-4fbc-9d7e-58e1b4f3ca8c","system_id":"levelo_inurba_marseille","lat":43.243884,"lon":5.370737,"is_reserved":false,"is_disabled":false,"rental_uris":{"android":"levelo://app?vid=a7359d42-ae96-4fbc-9d7e-58e1b4f3ca8c","ios":"levelo://app?vid=a7359d42-ae96-4fbc-9d7e-58e1b4f3ca8c"},"vehicle_type_id":"4","last_reported":1702030055,"current_range_meters":30400,"station_id":"ce4bhhh2rcd13ifvqfk0","pricing_plan_id":"free"},{"bike_id":"ba1ffccb-f4bc-4b3d-b74e-1c497c8a3cb0","system_id":"levelo_inurba_marseille","lat":43.243884,"lon":5.370737,"is_reserved":false,"is_disabled":false,"rental_uris":{"android":"levelo://app?vid=ba1ffccb-f4bc-4b3d-b74e-1c497c8a3cb0","ios":"levelo://app?vid=ba1ffccb-f4bc-4b3d-b74e-1c497c8a3cb0"},"vehicle_type_id":"4","last_reported":1702030055,"current_range_meters":20400,"station_id":"ce4bhhh2rcd13ifvqfk0","pricing_plan_id":"free"},{"bike_id":"2ee3d9c4-4972-4e95-9aee-470fd68e876e","system_id":"levelo_inurba_marseille","lat":43.245581,"lon":5.395069,"is_reserved":false,"is_disabled":false,"rental_uris":{"android":"levelo://app?vid=2ee3d9c4-4972-4e95-9aee-470fd68e876e","ios":"levelo://app?vid=2ee3d9c4-4972-4e95-9aee-470fd68e876e"},"vehicle_type_id":"4","last_reported":1702030055,"current_range_meters":30400,"station_id":"ce4bhlp2rcd13ifvqgjg","pricing_plan_id":"free"},{"bike_id":"20847862-acfb-40ed-bdfe-ca56ae9ec7d6","system_id":"levelo_inurba_marseille","lat":43.245581,"lon":5.395069,"is_reserved":false,"is_disabled":false,"rental_uris":{"android":"levelo://app?vid=20847862-acfb-40ed-bdfe-ca56ae9ec7d6","ios":"levelo://app?vid=20847862-acfb-40ed-bdfe-ca56ae9ec7d6"},"vehicle_type_id":"4","last_reported":1702030055,"current_range_meters":25600,"station_id":"ce4bhlp2rcd13ifvqgjg","pricing_plan_id":"free"},{"bike_id":"d3f11772-4714-412b-8bd4-43d49e060b1a","system_id":"levelo_inurba_marseille","lat":43.240623,"lon":5.377642,"is_reserved":false,"is_disabled":false,"rental_uris":{"android":"levelo://app?vid=d3f11772-4714-412b-8bd4-43d49e060b1a","ios":"levelo://app?vid=d3f11772-4714-412b-8bd4-43d49e060b1a"},"vehicle_type_id":"4","last_reported":1702030055,"current_range_meters":31200,"station_id":"ce4bhnp2rcd13ifvqgvg","pricing_plan_id":"free"},{"bike_id":"2dafbae8-0bbc-4e71-af1a-94cb2906751e","system_id":"levelo_inurba_marseille","lat":43.240623,"lon":5.377642,"is_reserved":false,"is_disabled":false,"rental_uris":{"android":"levelo://app?vid=2dafbae8-0bbc-4e71-af1a-94cb2906751e","ios":"levelo://app?vid=2dafbae8-0bbc-4e71-af1a-94cb2906751e"},"vehicle_type_id":"4","last_reported":1702030055,"current_range_meters":26800,"station_id":"ce4bhnp2rcd13ifvqgvg","pricing_plan_id":"free"},{"bike_id":"1736197e-d189-44ae-962b-c17bbaad9b62","system_id":"levelo_inurba_marseille","lat":43.240623,"lon":5.377642,"is_reserved":false,"is_disabled":false,"rental_uris":{"android":"levelo://app?vid=1736197e-d189-44ae-962b-c17bbaad9b62","ios":"levelo://app?vid=1736197e-d189-44ae-962b-c17bbaad9b62"},"vehicle_type_id":"4","last_reported":1702030055,"current_range_meters":14400,"station_id":"ce4bhnp2rcd13ifvqgvg","pricing_plan_id":"free"},{"bike_id":"133d3a41-7ecd-44e9-a633-5c47e502f0e0","system_id":"levelo_inurba_marseille","lat":43.239588,"lon":5.366238,"is_reserved":false,"is_disabled":false,"rental_uris":{"android":"levelo://app?vid=133d3a41-7ecd-44e9-a633-5c47e502f0e0","ios":"levelo://app?vid=133d3a41-7ecd-44e9-a633-5c47e502f0e0"},"vehicle_type_id":"4","last_reported":1702030055,"current_range_meters":31200,"station_id":"ce4bhi12rcd13ifvqfp0","pricing_plan_id":"free"},{"bike_id":"98743d10-584a-420f-9829-23af2cf097e7","system_id":"levelo_inurba_marseille","lat":43.239588,"lon":5.366238,"is_reserved":false,"is_disabled":false,"rental_uris":{"android":"levelo://app?vid=98743d10-584a-420f-9829-23af2cf097e7","ios":"levelo://app?vid=98743d10-584a-420f-9829-23af2cf097e7"},"vehicle_type_id":"4","last_reported":1702030055,"current_range_meters":28400,"station_id":"ce4bhi12rcd13ifvqfp0","pricing_plan_id":"free"},{"bike_id":"b3aedcf8-a68f-4aa7-a7d4-9df74f5be85b","system_id":"levelo_inurba_marseille","lat":43.239588,"lon":5.366238,"is_reserved":false,"is_disabled":false,"rental_uris":{"android":"levelo://app?vid=b3aedcf8-a68f-4aa7-a7d4-9df74f5be85b","ios":"levelo://app?vid=b3aedcf8-a68f-4aa7-a7d4-9df74f5be85b"},"vehicle_type_id":"4","last_reported":1702030055,"current_range_meters":22400,"station_id":"ce4bhi12rcd13ifvqfp0","pricing_plan_id":"free"},{"bike_id":"19de1d90-0ef7-4697-bd3a-3e98bd2bf2e7","system_id":"levelo_inurba_marseille","lat":43.239588,"lon":5.366238,"is_reserved":false,"is_disabled":false,"rental_uris":{"android":"levelo://app?vid=19de1d90-0ef7-4697-bd3a-3e98bd2bf2e7","ios":"levelo://app?vid=19de1d90-0ef7-4697-bd3a-3e98bd2bf2e7"},"vehicle_type_id":"4","last_reported":1702030055,"current_range_meters":27200,"station_id":"ce4bhi12rcd13ifvqfp0","pricing_plan_id":"free"},{"bike_id":"6084096c-589b-4ba6-bd9d-6d547fd35b59","system_id":"levelo_inurba_marseille","lat":43.239588,"lon":5.366238,"is_reserved":false,"is_disabled":false,"rental_uris":{"android":"levelo://app?vid=6084096c-589b-4ba6-bd9d-6d547fd35b59","ios":"levelo://app?vid=6084096c-589b-4ba6-bd9d-6d547fd35b59"},"vehicle_type_id":"4","last_reported":1702030055,"current_range_meters":27600,"station_id":"ce4bhi12rcd13ifvqfp0","pricing_plan_id":"free"},{"bike_id":"6756da97-db2c-4337-aa21-556950095f65","system_id":"levelo_inurba_marseille","lat":43.241782,"lon":5.397261,"is_reserved":false,"is_disabled":false,"rental_uris":{"android":"levelo://app?vid=6756da97-db2c-4337-aa21-556950095f65","ios":"levelo://app?vid=6756da97-db2c-4337-aa21-556950095f65"},"vehicle_type_id":"4","last_reported":1702030055,"current_range_meters":4800,"station_id":"ce4bhn12rcd13ifvqgpg","pricing_plan_id":"free"},{"bike_id":"6c4620c0-0d4d-493f-9950-4fd3c4457696","system_id":"levelo_inurba_marseille","lat":43.231794,"lon":5.400052,"is_reserved":false,"is_disabled":false,"rental_uris":{"android":"levelo://app?vid=6c4620c0-0d4d-493f-9950-4fd3c4457696","ios":"levelo://app?vid=6c4620c0-0d4d-493f-9950-4fd3c4457696"},"vehicle_type_id":"4","last_reported":1702030055,"current_range_meters":31200,"station_id":"ce4bhn12rcd13ifvqgqg","pricing_plan_id":"free"},{"bike_id":"be845917-f52e-4a9f-83ff-909546a09332","system_id":"levelo_inurba_marseille","lat":43.231794,"lon":5.400052,"is_reserved":false,"is_disabled":false,"rental_uris":{"android":"levelo://app?vid=be845917-f52e-4a9f-83ff-909546a09332","ios":"levelo://app?vid=be845917-f52e-4a9f-83ff-909546a09332"},"vehicle_type_id":"4","last_reported":1702030055,"current_range_meters":31200,"station_id":"ce4bhn12rcd13ifvqgqg","pricing_plan_id":"free"},{"bike_id":"566dbade-345c-40ac-9e5b-62446262d23e","system_id":"levelo_inurba_marseille","lat":43.231562,"lon":5.436933,"is_reserved":false,"is_disabled":false,"rental_uris":{"android":"levelo://app?vid=566dbade-345c-40ac-9e5b-62446262d23e","ios":"levelo://app?vid=566dbade-345c-40ac-9e5b-62446262d23e"},"vehicle_type_id":"4","last_reported":1702030055,"current_range_meters":26400,"station_id":"ce4bhmp2rcd13ifvqgog","pricing_plan_id":"free"},{"bike_id":"7f60bfa5-372f-4145-80ce-761d45a3c320","system_id":"levelo_inurba_marseille","lat":43.231562,"lon":5.436933,"is_reserved":false,"is_disabled":false,"rental_uris":{"android":"levelo://app?vid=7f60bfa5-372f-4145-80ce-761d45a3c320","ios":"levelo://app?vid=7f60bfa5-372f-4145-80ce-761d45a3c320"},"vehicle_type_id":"4","last_reported":1702030055,"current_range_meters":22800,"station_id":"ce4bhmp2rcd13ifvqgog","pricing_plan_id":"free"},{"bike_id":"a9021cea-b2c9-4c65-bc44-cb70799e0467","system_id":"levelo_inurba_marseille","lat":43.231562,"lon":5.436933,"is_reserved":false,"is_disabled":false,"rental_uris":{"android":"levelo://app?vid=a9021cea-b2c9-4c65-bc44-cb70799e0467","ios":"levelo://app?vid=a9021cea-b2c9-4c65-bc44-cb70799e0467"},"vehicle_type_id":"4","last_reported":1702030055,"current_range_meters":5200,"station_id":"ce4bhmp2rcd13ifvqgog","pricing_plan_id":"free"},{"bike_id":"6c3e3c9e-4b18-4000-ba39-0358b7d7d901","system_id":"levelo_inurba_marseille","lat":43.231562,"lon":5.436933,"is_reserved":false,"is_disabled":false,"rental_uris":{"android":"levelo://app?vid=6c3e3c9e-4b18-4000-ba39-0358b7d7d901","ios":"levelo://app?vid=6c3e3c9e-4b18-4000-ba39-0358b7d7d901"},"vehicle_type_id":"4","last_reported":1702030055,"current_range_meters":27200,"station_id":"ce4bhmp2rcd13ifvqgog","pricing_plan_id":"free"},{"bike_id":"52185dc8-f8c9-4df9-8092-bb2437fd062c","system_id":"levelo_inurba_marseille","lat":43.231562,"lon":5.436933,"is_reserved":false,"is_disabled":false,"rental_uris":{"android":"levelo://app?vid=52185dc8-f8c9-4df9-8092-bb2437fd062c","ios":"levelo://app?vid=52185dc8-f8c9-4df9-8092-bb2437fd062c"},"vehicle_type_id":"4","last_reported":1702030055,"current_range_meters":29200,"station_id":"ce4bhmp2rcd13ifvqgog","pricing_plan_id":"free"},{"bike_id":"ff8b630f-28ea-4dbc-bd83-69f80e79cc61","system_id":"levelo_inurba_marseille","lat":43.231562,"lon":5.436933,"is_reserved":false,"is_disabled":false,"rental_uris":{"android":"levelo://app?vid=ff8b630f-28ea-4dbc-bd83-69f80e79cc61","ios":"levelo://app?vid=ff8b630f-28ea-4dbc-bd83-69f80e79cc61"},"vehicle_type_id":"4","last_reported":1702030055,"current_range_meters":2000,"station_id":"ce4bhmp2rcd13ifvqgog","pricing_plan_id":"free"},{"bike_id":"b541fc35-af29-477f-a39a-2a5090fd4d28","system_id":"levelo_inurba_marseille","lat":43.231562,"lon":5.436933,"is_reserved":false,"is_disabled":false,"rental_uris":{"android":"levelo://app?vid=b541fc35-af29-477f-a39a-2a5090fd4d28","ios":"levelo://app?vid=b541fc35-af29-477f-a39a-2a5090fd4d28"},"vehicle_type_id":"4","last_reported":1702030055,"current_range_meters":30000,"station_id":"ce4bhmp2rcd13ifvqgog","pricing_plan_id":"free"}]}}