{"last_updated":1730052629,"ttl":60,"version":"2.2","data":{"bikes":[{"bike_id":"46ca7a5a-b63f-4a23-af18-d368d3c3861e","system_id":"levelo_inurba_marseille","lat":43.27319,"lon":5.39082,"is_reserved":false,"is_disabled":false,"rental_uris":{"android":"levelo://app?vid=46ca7a5a-b63f-4a23-af18-d368d3c3861e","ios":"levelo://app?vid=46ca7a5a-b63f-4a23-af18-d368d3c3861e"},"vehicle_type_id":"4","last_reported":1730052630,"current_range_meters":31200,"station_id":"ce4bhgp2rcd13ifvqfe0","pricing_plan_id":"cebpf4jnsgd1na2vs0mg"},{"bike_id":"9b700124-30cb-49da-a48f-dba6d337e7c6","system_id":"levelo_inurba_marseille","lat":43.24677,"lon":5.38164,"is_reserved":false,"is_disabled":false,"rental_uris":{"android":"levelo://app?vid=9b700124-30cb-49da-a48f-dba6d337e7c6","ios":"levelo://app?vid=9b700124-30cb-49da-a48f-dba6d337e7c6"},"vehicle_type_id":"4","last_reported":1730052630,"current_range_meters":25600,"station_id":"ce4bhih2rcd13ifvqfr0","pricing_plan_id":"cebpf4jnsgd1na2vs0mg"},{"bike_id":"69f4165a-13a2-4bd8-b4d6-abfa25614867","system_id":"levelo_inurba_marseille","lat":43.26805,"lon":5.40265,"is_reserved":false,"is_disabled":false,"rental_uris":{"android":"levelo://app?vid=69f4165a-13a2-4bd8-b4d6-abfa25614867","ios":"levelo://app?vid=69f4165a-13a2-4bd8-b4d6-abfa25614867"},"vehicle_type_id":"4","last_reported":1730052630,"current_range_meters":38800,"station_id":"ce501612rcd8frsf0b60","pricing_plan_id":"cebpf4jnsgd1na2vs0mg"},{"bike_id":"74dedab2-c075-40a0-9409-7e30a29235b1","system_id":"levelo_inurba_marseille","lat":43.28469,"lon":5.35897,"is_reserved":false,"is_disabled":false,"rental_uris":{"android":"levelo://app?vid=74dedab2-c075-40a0-9409-7e30a29235b1","ios":"levelo://app?vid=74dedab2-c075-40a0-9409-7e30a29235b1"},"vehicle_type_id":"4","last_reported":1730052630,"current_range_meters":11200,"station_id":"ce4bhah2rcd13ifvqei0","pricing_plan_id":"cebpf4jnsgd1na2vs0mg"},{"bike_id":"48660d12-eacc-4f93-a06c-04c2aa9e37e4","system_id":"levelo_inurba_marseille","lat":43.268,"lon":5.40276,"is_reserved":false,"is_disabled":false,"rental_uris":{"android":"levelo://app?vid=48660d12-eacc-4f93-a06c-04c2aa9e37e4","ios":"levelo://app?vid=48660d12-eacc-4f93-a06c-04c2aa9e37e4"},"vehicle_type_id":"4","last_reported":1730052630,"current_range_meters":17200,"station_id":"ce501612rcd8frsf0b60","pricing_plan_id":"cebpf4jnsgd1na2vs0mg"},{"bike_id":"f3d5c86c-ab11-4ca3-aa72-c97ea732ed17","system_id":"levelo_inurba_marseille","lat":43.27315,"lon":5.39082,"is_reserved":false,"is_disabled":false,"rental_uris":{"android":"levelo://app?vid=f3d5c86c-ab11-4ca3-aa72-c97ea732ed17","ios":"levelo://app?vid=f3d5c86c-ab11-4ca3-aa72-c97ea732ed17"},"vehicle_type_id":"4","last_reported":1730052630,"current_range_meters":28400,"station_id":"ce4bhgp2rcd13ifvqfe0","pricing_plan_id":"cebpf4jnsgd1na2vs0mg"},{"bike_id":"9fb636e5-62cf-4512-aed6-0c2da0e74711","system_id":"levelo_inurba_marseille","lat":43.29419,"lon":5.38614,"is_reserved":false,"is_disabled":false,"rental_uris":{"android":"levelo://app?vid=9fb636e5-62cf-4512-aed6-0c2da0e74711","ios":"levelo://app?vid=9fb636e5-62cf-4512-aed6-0c2da0e74711"},"vehicle_type_id":"4","last_reported":1730052630,"current_range_meters":2800,"station_id":"ce4bh2h2rcd13ifvqdh0","pricing_plan_id":"cebpf4jnsgd1na2vs0mg"},{"bike_id":"63d6faba-18d4-4be5-a87d-3104dd3acdd0","system_id":"levelo_inurba_marseille","lat":43.296997,"lon":5.366139,"is_reserved":false,"is_disabled":false,"rental_uris":{"android":"levelo://app?vid=63d6faba-18d4-4be5-a87d-3104dd3acdd0","ios":"levelo://app?vid=63d6faba-18d4-4be5-a87d-3104dd3acdd0"},"vehicle_type_id":"4","last_reported":1730052630,"current_range_meters":6800,"station_id":"ce4bgn12rcd13ifvqbt0","pricing_plan_id":"cebpf4jnsgd1na2vs0mg"},{"bike_id":"20f92aeb-c52c-4d5a-bc3f-684369c288eb","system_id":"levelo_inurba_marseille","lat":43.322906,"lon":5.382754,"is_reserved":false,"is_disabled":false,"rental_uris":{"android":"levelo://app?vid=20f92aeb-c52c-4d5a-bc3f-684369c288eb","ios":"levelo://app?vid=20f92aeb-c52c-4d5a-bc3f-684369c288eb"},"vehicle_type_id":"4","last_reported":1730052630,"current_range_meters":12400,"station_id":"ce4bhr12rcd13ifvqhqg","pricing_plan_id":"cebpf4jnsgd1na2vs0mg"},{"bike_id":"ba573695-adf9-4bfb-a30e-ece78ea247d5","system_id":"levelo_inurba_marseille","lat":43.25001,"lon":5.3893,"is_reserved":false,"is_disabled":false,"rental_uris":{"android":"levelo://app?vid=ba573695-adf9-4bfb-a30e-ece78ea247d5","ios":"levelo://app?vid=ba573695-adf9-4bfb-a30e-ece78ea247d5"},"vehicle_type_id":"4","last_reported":1730052630,"current_range_meters":8400,"station_id":"ce4bhgp2rcd13ifvqfd0","pricing_plan_id":"cebpf4jnsgd1na2vs0mg"},{"bike_id":"9324e967-d75f-4e93-817b-8399be6b1221","system_id":"levelo_inurba_marseille","lat":43.26783,"lon":5.39388,"is_reserved":false,"is_disabled":false,"rental_uris":{"android":"levelo://app?vid=9324e967-d75f-4e93-817b-8399be6b1221","ios":"levelo://app?vid=9324e967-d75f-4e93-817b-8399be6b1221"},"vehicle_type_id":"4","last_reported":1730052630,"current_range_meters":27600,"station_id":"ce4bhi12rcd13ifvqfq0","pricing_plan_id":"cebpf4jnsgd1na2vs0mg"},{"bike_id":"9e741da4-eaf8-4d70-b13c-135888920965","system_id":"levelo_inurba_marseille","lat":43.26777,"lon":5.39417,"is_reserved":false,"is_disabled":false,"rental_uris":{"android":"levelo://app?vid=9e741da4-eaf8-4d70-b13c-135888920965","ios":"levelo://app?vid=9e741da4-eaf8-4d70-b13c-135888920965"},"vehicle_type_id":"4","last_reported":1730052630,"current_range_meters":9600,"station_id":"ce4bhh12rcd13ifvqfg0","pricing_plan_id":"cebpf4jnsgd1na2vs0mg"},{"bike_id":"eeafb930-d703-4299-9a96-bcc8ddc6baa4","system_id":"levelo_inurba_marseille","lat":43.292806,"lon":5.401148,"is_reserved":false,"is_disabled":false,"rental_uris":{"android":"levelo://app?vid=eeafb930-d703-4299-9a96-bcc8ddc6baa4","ios":"levelo://app?vid=eeafb930-d703-4299-9a96-bcc8ddc6baa4"},"vehicle_type_id":"4","last_reported":1730052630,"current_range_meters":14000,"station_id":"ce4bhm12rcd13ifvqgkg","pricing_plan_id":"cebpf4jnsgd1na2vs0mg"},{"bike_id":"40ed7cff-2fc3-4947-b7da-c7ef2822b4e3","system_id":"levelo_inurba_marseille","lat":43.2742,"lon":5.39416,"is_reserved":false,"is_disabled":false,"rental_uris":{"android":"levelo://app?vid=40ed7cff-2fc3-4947-b7da-c7ef2822b4e3","ios":"levelo://app?vid=40ed7cff-2fc3-4947-b7da-c7ef2822b4e3"},"vehicle_type_id":"4","last_reported":1730052630,"current_range_meters":35200,"station_id":"ce4bhdp2rcd13ifvqf20","pricing_plan_id":"cebpf4jnsgd1na2vs0mg"},{"bike_id":"3898cd5e-4e9e-4074-bb3b-0cfa58842e64","system_id":"levelo_inurba_marseille","lat":43.30635,"lon":5.40097,"is_reserved":false,"is_disabled":false,"rental_uris":{"android":"levelo://app?vid=3898cd5e-4e9e-4074-bb3b-0cfa58842e64","ios":"levelo://app?vid=3898cd5e-4e9e-4074-bb3b-0cfa58842e64"},"vehicle_type_id":"4","last_reported":1730052630,"current_range_meters":26800,"station_id":"ce4bh112rcd13ifvqda0","pricing_plan_id":"cebpf4jnsgd1na2vs0mg"},{"bike_id":"eb74aa32-c49d-4202-bac3-91a96c4d4783","system_id":"levelo_inurba_marseille","lat":43.30808,"lon":5.3699,"is_reserved":false,"is_disabled":false,"rental_uris":{"android":"levelo://app?vid=eb74aa32-c49d-4202-bac3-91a96c4d4783","ios":"levelo://app?vid=eb74aa32-c49d-4202-bac3-91a96c4d4783"},"vehicle_type_id":"4","last_reported":1730052630,"current_range_meters":21600,"station_id":"ce4bguh2rcd13ifvqckg","pricing_plan_id":"cebpf4jnsgd1na2vs0mg"},{"bike_id":"435532ec-c4fc-4034-a071-150fdb578c39","system_id":"levelo_inurba_marseille","lat":43.29963,"lon":5.38498,"is_reserved":false,"is_disabled":false,"rental_uris":{"android":"levelo://app?vid=435532ec-c4fc-4034-a071-150fdb578c39","ios":"levelo://app?vid=435532ec-c4fc-4034-a071-150fdb578c39"},"vehicle_type_id":"4","last_reported":1730052630,"current_range_meters":29600,"station_id":"ce4bgj92rcd13ifvqbd0","pricing_plan_id":"cebpf4jnsgd1na2vs0mg"},{"bike_id":"169bcacb-f5e0-4906-a7c9-ccebcdb6cf89","system_id":"levelo_inurba_marseille","lat":43.31683,"lon":5.40479,"is_reserved":false,"is_disabled":false,"rental_uris":{"android":"levelo://app?vid=169bcacb-f5e0-4906-a7c9-ccebcdb6cf89","ios":"levelo://app?vid=169bcacb-f5e0-4906-a7c9-ccebcdb6cf89"},"vehicle_type_id":"4","last_reported":1730052630,"current_range_meters":30800,"station_id":"ce4bh012rcd13ifvqd00","pricing_plan_id":"cebpf4jnsgd1na2vs0mg"},{"bike_id":"2360f9e2-15c9-47ec-82f2-4639d2c4a833","system_id":"levelo_inurba_marseille","lat":43.28697,"lon":5.39982,"is_reserved":false,"is_disabled":false,"rental_uris":{"android":"levelo://app?vid=2360f9e2-15c9-47ec-82f2-4639d2c4a833","ios":"levelo://app?vid=2360f9e2-15c9-47ec-82f2-4639d2c4a833"},"vehicle_type_id":"4","last_reported":1730052630,"current_range_meters":6800,"station_id":"ce4bho92rcd13ifvqh3g","pricing_plan_id":"cebpf4jnsgd1na2vs0mg"},{"bike_id":"ff081f0c-ea21-431a-8d61-ad48db65fd3a","system_id":"levelo_inurba_marseille","lat":43.30361,"lon":5.41891,"is_reserved":false,"is_disabled":false,"rental_uris":{"android":"levelo://app?vid=ff081f0c-ea21-431a-8d61-ad48db65fd3a","ios":"levelo://app?vid=ff081f0c-ea21-431a-8d61-ad48db65fd3a"},"vehicle_type_id":"4","last_reported":1730052630,"current_range_meters":28400,"station_id":"ce4bhop2rcd13ifvqh7g","pricing_plan_id":"cebpf4jnsgd1na2vs0mg"},{"bike_id":"d33edc61-a00f-44a3-964a-9049ce5e90bb","system_id":"levelo_inurba_marseille","lat":43.29097,"lon":5.3813,"is_reserved":false,"is_disabled":false,"rental_uris":{"android":"levelo://app?vid=d33edc61-a00f-44a3-964a-9049ce5e90bb","ios":"levelo://app?vid=d33edc61-a00f-44a3-964a-9049ce5e90bb"},"vehicle_type_id":"4","last_reported":1730052630,"current_range_meters":7200,"station_id":"ce4bh512rcd13ifvqe2g","pricing_plan_id":"cebpf4jnsgd1na2vs0mg"},{"bike_id":"8ed0e600-52f7-4841-aa09-f2be0f0fd557","system_id":"levelo_inurba_marseille","lat":43.26799,"lon":5.40261,"is_reserved":false,"is_disabled":false,"rental_uris":{"android":"levelo://app?vid=8ed0e600-52f7-4841-aa09-f2be0f0fd557","ios":"levelo://app?vid=8ed0e600-52f7-4841-aa09-f2be0f0fd557"},"vehicle_type_id":"4","last_reported":1730052630,"current_range_meters":38800,"station_id":"ce501612rcd8frsf0b60","pricing_plan_id":"cebpf4jnsgd1na2vs0mg"},{"bike_id":"e7a39374-01bb-46ae-a0b2-6cf5091f2094","system_id":"levelo_inurba_marseille","lat":43.24163,"lon":5.36394,"is_reserved":false,"is_disabled":false,"rental_uris":{"android":"levelo://app?vid=e7a39374-01bb-46ae-a0b2-6cf5091f2094","ios":"levelo://app?vid=e7a39374-01bb-46ae-a0b2-6cf5091f2094"},"vehicle_type_id":"4","last_reported":1730052630,"current_range_meters":32400,"station_id":"cpo36qri1sfpv3e86is0","pricing_plan_id":"cebpf4jnsgd1na2vs0mg"},{"bike_id":"1f4d93ba-c0f6-4f10-8ed7-ffd573942afb","system_id":"levelo_inurba_marseille","lat":43.29783,"lon":5.38115,"is_reserved":false,"is_disabled":false,"rental_uris":{"android":"levelo://app?vid=1f4d93ba-c0f6-4f10-8ed7-ffd573942afb","ios":"levelo://app?vid=1f4d93ba-c0f6-4f10-8ed7-ffd573942afb"},"vehicle_type_id":"4","last_reported":1730052630,"current_range_meters":38400,"station_id":"ce4bgip2rcd13ifvqbb0","pricing_plan_id":"cebpf4jnsgd1na2vs0mg"},{"bike_id":"26e460d4-9af4-48ae-bbbf-5369c37c0acf","system_id":"levelo_inurba_marseille","lat":43.29422,"lon":5.3863,"is_reserved":false,"is_disabled":false,"rental_uris":{"android":"levelo://app?vid=26e460d4-9af4-48ae-bbbf-5369c37c0acf","ios":"levelo://app?vid=26e460d4-9af4-48ae-bbbf-5369c37c0acf"},"vehicle_type_id":"4","last_reported":1730052630,"current_range_meters":4800,"station_id":"ce4bh2h2rcd13ifvqdh0","pricing_plan_id":"cebpf4jnsgd1na2vs0mg"},{"bike_id":"5b844605-7340-459a-b9a5-322a50a6d07d","system_id":"levelo_inurba_marseille","lat":43.23961,"lon":5.3664,"is_reserved":false,"is_disabled":false,"rental_uris":{"android":"levelo://app?vid=5b844605-7340-459a-b9a5-322a50a6d07d","ios":"levelo://app?vid=5b844605-7340-459a-b9a5-322a50a6d07d"},"vehicle_type_id":"4","last_reported":1730052630,"current_range_meters":19200,"station_id":"ce4bhi12rcd13ifvqfp0","pricing_plan_id":"cebpf4jnsgd1na2vs0mg"},{"bike_id":"27f39214-437b-402f-ba70-e8fd46f4e41b","system_id":"levelo_inurba_marseille","lat":43.28494,"lon":5.3694,"is_reserved":false,"is_disabled":false,"rental_uris":{"android":"levelo://app?vid=27f39214-437b-402f-ba70-e8fd46f4e41b","ios":"levelo://app?vid=27f39214-437b-402f-ba70-e8fd46f4e41b"},"vehicle_type_id":"4","last_reported":1730052630,"current_range_meters":18000,"station_id":"","pricing_plan_id":"cebpf4jnsgd1na2vs0mg"},{"bike_id":"5ed72901-e44e-460e-9669-5f1f8a6d2f53","system_id":"levelo_inurba_marseille","lat":43.28655,"lon":5.44475,"is_reserved":false,"is_disabled":false,"rental_uris":{"android":"levelo://app?vid=5ed72901-e44e-460e-9669-5f1f8a6d2f53","ios":"levelo://app?vid=5ed72901-e44e-460e-9669-5f1f8a6d2f53"},"vehicle_type_id":"4","last_reported":1730052630,"current_range_meters":8400,"station_id":"","pricing_plan_id":"cebpf4jnsgd1na2vs0mg"},{"bike_id":"5a8f1663-f056-4f45-9757-512c3710d03d","system_id":"levelo_inurba_marseille","lat":43.30249,"lon":5.40072,"is_reserved":false,"is_disabled":false,"rental_uris":{"android":"levelo://app?vid=5a8f1663-f056-4f45-9757-512c3710d03d","ios":"levelo://app?vid=5a8f1663-f056-4f45-9757-512c3710d03d"},"vehicle_type_id":"4","last_reported":1730052630,"current_range_meters":38800,"station_id":"ce4bgvh2rcd13ifvqcs0","pricing_plan_id":"cebpf4jnsgd1na2vs0mg"},{"bike_id":"d1dacee6-8f47-4ca5-823b-a2ea6c3413e8","system_id":"levelo_inurba_marseille","lat":43.23193,"lon":5.35555,"is_reserved":false,"is_disabled":false,"rental_uris":{"android":"levelo://app?vid=d1dacee6-8f47-4ca5-823b-a2ea6c3413e8","ios":"levelo://app?vid=d1dacee6-8f47-4ca5-823b-a2ea6c3413e8"},"vehicle_type_id":"4","last_reported":1730052630,"current_range_meters":29600,"station_id":"ce4bhu92rcd13ifvqi70","pricing_plan_id":"cebpf4jnsgd1na2vs0mg"},{"bike_id":"540b1268-662b-483a-a88b-c79092eddc85","system_id":"levelo_inurba_marseille","lat":43.26806,"lon":5.40268,"is_reserved":false,"is_disabled":false,"rental_uris":{"android":"levelo://app?vid=540b1268-662b-483a-a88b-c79092eddc85","ios":"levelo://app?vid=540b1268-662b-483a-a88b-c79092eddc85"},"vehicle_type_id":"4","last_reported":1730052630,"current_range_meters":32000,"station_id":"ce501612rcd8frsf0b60","pricing_plan_id":"cebpf4jnsgd1na2vs0mg"},{"bike_id":"1420596e-9006-4b1e-abb8-89eb7361d32b","system_id":"levelo_inurba_marseille","lat":43.29423,"lon":5.38628,"is_reserved":false,"is_disabled":false,"rental_uris":{"android":"levelo://app?vid=1420596e-9006-4b1e-abb8-89eb7361d32b","ios":"levelo://app?vid=1420596e-9006-4b1e-abb8-89eb7361d32b"},"vehicle_type_id":"4","last_reported":1730052630,"current_range_meters":38800,"station_id":"ce4bh2h2rcd13ifvqdh0","pricing_plan_id":"cebpf4jnsgd1na2vs0mg"},{"bike_id":"7d6d18e6-9f7a-43d6-8832-f1f26fc3c985","system_id":"levelo_inurba_marseille","lat":43.26952,"lon":5.38631,"is_reserved":false,"is_disabled":false,"rental_uris":{"android":"levelo://app?vid=7d6d18e6-9f7a-43d6-8832-f1f26fc3c985","ios":"levelo://app?vid=7d6d18e6-9f7a-43d6-8832-f1f26fc3c985"},"vehicle_type_id":"4","last_reported":1730052630,"current_range_meters":13600,"station_id":"ce4bhh92rcd13ifvqfh0","pricing_plan_id":"cebpf4jnsgd1na2vs0mg"},{"bike_id":"71eb9bb8-b4ae-411f-99a5-8b5f2754b66c","system_id":"levelo_inurba_marseille","lat":43.25493,"lon":5.3765,"is_reserved":false,"is_disabled":false,"rental_uris":{"android":"levelo://app?vid=71eb9bb8-b4ae-411f-99a5-8b5f2754b66c","ios":"levelo://app?vid=71eb9bb8-b4ae-411f-99a5-8b5f2754b66c"},"vehicle_type_id":"4","last_reported":1730052630,"current_range_meters":38800,"station_id":"ce4bhh12rcd13ifvqff0","pricing_plan_id":"cebpf4jnsgd1na2vs0mg"},{"bike_id":"0a3dc7e9-6bad-48d8-b30e-153901a855fe","system_id":"levelo_inurba_marseille","lat":43.29426,"lon":5.38632,"is_reserved":false,"is_disabled":false,"rental_uris":{"android":"levelo://app?vid=0a3dc7e9-6bad-48d8-b30e-153901a855fe","ios":"levelo://app?vid=0a3dc7e9-6bad-48d8-b30e-153901a855fe"},"vehicle_type_id":"4","last_reported":1730052630,"current_range_meters":28800,"station_id":"ce4bh2h2rcd13ifvqdh0","pricing_plan_id":"cebpf4jnsgd1na2vs0mg"},{"bike_id":"afb2bf35-8b5e-4247-805a-fe0c1b6fb966","system_id":"levelo_inurba_marseille","lat":43.26946,"lon":5.40255,"is_reserved":false,"is_disabled":false,"rental_uris":{"android":"levelo://app?vid=afb2bf35-8b5e-4247-805a-fe0c1b6fb966","ios":"levelo://app?vid=afb2bf35-8b5e-4247-805a-fe0c1b6fb966"},"vehicle_type_id":"4","last_reported":1730052630,"current_range_meters":8400,"station_id":"cjm6bp8fraef2m0cb0m0","pricing_plan_id":"cebpf4jnsgd1na2vs0mg"},{"bike_id":"c4cdd2c2-bb5d-4330-a93d-7b3ad2c255a4","system_id":"levelo_inurba_marseille","lat":43.28033,"lon":5.36947,"is_reserved":false,"is_disabled":false,"rental_uris":{"android":"levelo://app?vid=c4cdd2c2-bb5d-4330-a93d-7b3ad2c255a4","ios":"levelo://app?vid=c4cdd2c2-bb5d-4330-a93d-7b3ad2c255a4"},"vehicle_type_id":"4","last_reported":1730052630,"current_range_meters":19600,"station_id":"ce4bha12rcd13ifvqef0","pricing_plan_id":"cebpf4jnsgd1na2vs0mg"},{"bike_id":"3781d575-a7a0-4bf1-abe4-b6b1e77210eb","system_id":"levelo_inurba_marseille","lat":43.30134,"lon":5.38817,"is_reserved":false,"is_disabled":false,"rental_uris":{"android":"levelo://app?vid=3781d575-a7a0-4bf1-abe4-b6b1e77210eb","ios":"levelo://app?vid=3781d575-a7a0-4bf1-abe4-b6b1e77210eb"},"vehicle_type_id":"4","last_reported":1730052630,"current_range_meters":37600,"station_id":"ce4bgn92rcd13ifvqbvg","pricing_plan_id":"cebpf4jnsgd1na2vs0mg"},{"bike_id":"e16ba0fb-c8f9-4074-a1c8-ad626ad5602f","system_id":"levelo_inurba_marseille","lat":43.26937,"lon":5.40247,"is_reserved":false,"is_disabled":false,"rental_uris":{"android":"levelo://app?vid=e16ba0fb-c8f9-4074-a1c8-ad626ad5602f","ios":"levelo://app?vid=e16ba0fb-c8f9-4074-a1c8-ad626ad5602f"},"vehicle_type_id":"4","last_reported":1730052630,"current_range_meters":38400,"station_id":"cjm6bp8fraef2m0cb0m0","pricing_plan_id":"cebpf4jnsgd1na2vs0mg"},{"bike_id":"264c1087-1d04-4c2a-98b4-dc183443c485","system_id":"levelo_inurba_marseille","lat":43.292786,"lon":5.401151,"is_reserved":false,"is_disabled":false,"rental_uris":{"android":"levelo://app?vid=264c1087-1d04-4c2a-98b4-dc183443c485","ios":"levelo://app?vid=264c1087-1d04-4c2a-98b4-dc183443c485"},"vehicle_type_id":"4","last_reported":1730052630,"current_range_meters":14000,"station_id":"ce4bh312rcd13ifvqdj0","pricing_plan_id":"cebpf4jnsgd1na2vs0mg"},{"bike_id":"024b96dc-d6d8-4f3d-b1c5-99f581fd1df2","system_id":"levelo_inurba_marseille","lat":43.24804,"lon":5.37456,"is_reserved":false,"is_disabled":false,"rental_uris":{"android":"levelo://app?vid=024b96dc-d6d8-4f3d-b1c5-99f581fd1df2","ios":"levelo://app?vid=024b96dc-d6d8-4f3d-b1c5-99f581fd1df2"},"vehicle_type_id":"4","last_reported":1730052630,"current_range_meters":27200,"station_id":"ce4bhgh2rcd13ifvqfb0","pricing_plan_id":"cebpf4jnsgd1na2vs0mg"},{"bike_id":"6875a1a6-32b9-4783-93f5-84a3a0c85f67","system_id":"levelo_inurba_marseille","lat":43.23069,"lon":5.35489,"is_reserved":false,"is_disabled":false,"rental_uris":{"android":"levelo://app?vid=6875a1a6-32b9-4783-93f5-84a3a0c85f67","ios":"levelo://app?vid=6875a1a6-32b9-4783-93f5-84a3a0c85f67"},"vehicle_type_id":"4","last_reported":1730052630,"current_range_meters":24800,"station_id":"cpo3342slgdg3j2ifvpg","pricing_plan_id":"cebpf4jnsgd1na2vs0mg"},{"bike_id":"701bf903-567b-484f-b089-587de25a0c22","system_id":"levelo_inurba_marseille","lat":43.30806,"lon":5.43528,"is_reserved":false,"is_disabled":false,"rental_uris":{"android":"levelo://app?vid=701bf903-567b-484f-b089-587de25a0c22","ios":"levelo://app?vid=701bf903-567b-484f-b089-587de25a0c22"},"vehicle_type_id":"4","last_reported":1730052630,"current_range_meters":6800,"station_id":"ce4bhph2rcd13ifvqheg","pricing_plan_id":"cebpf4jnsgd1na2vs0mg"},{"bike_id":"6fe237a0-9c28-498b-8c87-19b03dddf250","system_id":"levelo_inurba_marseille","lat":43.295319,"lon":5.393747,"is_reserved":false,"is_disabled":false,"rental_uris":{"android":"levelo://app?vid=6fe237a0-9c28-498b-8c87-19b03dddf250","ios":"levelo://app?vid=6fe237a0-9c28-498b-8c87-19b03dddf250"},"vehicle_type_id":"4","last_reported":1730052630,"current_range_meters":7200,"station_id":"ce4bh292rcd13ifvqdf0","pricing_plan_id":"cebpf4jnsgd1na2vs0mg"},{"bike_id":"5c9e656f-0f24-44fc-a70e-7a186ed4d33d","system_id":"levelo_inurba_marseille","lat":43.25579,"lon":5.38232,"is_reserved":false,"is_disabled":false,"rental_uris":{"android":"levelo://app?vid=5c9e656f-0f24-44fc-a70e-7a186ed4d33d","ios":"levelo://app?vid=5c9e656f-0f24-44fc-a70e-7a186ed4d33d"},"vehicle_type_id":"4","last_reported":1730052630,"current_range_meters":9200,"station_id":"ce4bhih2rcd13ifvqfs0","pricing_plan_id":"cebpf4jnsgd1na2vs0mg"},{"bike_id":"66fb00a7-295c-492a-b5c9-538d3dea086f","system_id":"levelo_inurba_marseille","lat":43.23184,"lon":5.4372,"is_reserved":false,"is_disabled":false,"rental_uris":{"android":"levelo://app?vid=66fb00a7-295c-492a-b5c9-538d3dea086f","ios":"levelo://app?vid=66fb00a7-295c-492a-b5c9-538d3dea086f"},"vehicle_type_id":"4","last_reported":1730052630,"current_range_meters":24800,"station_id":"","pricing_plan_id":"cebpf4jnsgd1na2vs0mg"},{"bike_id":"37e1f818-39bd-426d-996c-7e8dc6637cba","system_id":"levelo_inurba_marseille","lat":43.29535,"lon":5.38538,"is_reserved":false,"is_disabled":false,"rental_uris":{"android":"levelo://app?vid=37e1f818-39bd-426d-996c-7e8dc6637cba","ios":"levelo://app?vid=37e1f818-39bd-426d-996c-7e8dc6637cba"},"vehicle_type_id":"4","last_reported":1730052630,"current_range_meters":33200,"station_id":"ce4bgih2rcd13ifvqba0","pricing_plan_id":"cebpf4jnsgd1na2vs0mg"},{"bike_id":"09795b07-ae5f-44da-9ee1-02f238f6684c","system_id":"levelo_inurba_marseille","lat":43.30921,"lon":5.40144,"is_reserved":false,"is_disabled":false,"rental_uris":{"android":"levelo://app?vid=09795b07-ae5f-44da-9ee1-02f238f6684c","ios":"levelo://app?vid=09795b07-ae5f-44da-9ee1-02f238f6684c"},"vehicle_type_id":"4","last_reported":1730052630,"current_range_meters":2800,"station_id":"ce4bgvp2rcd13ifvqct0","pricing_plan_id":"cebpf4jnsgd1na2vs0mg"},{"bike_id":"d464c49d-bc40-4fe1-bdbe-eb5c2433c7e8","system_id":"levelo_inurba_marseille","lat":43.2732,"lon":5.39081,"is_reserved":false,"is_disabled":false,"rental_uris":{"android":"levelo://app?vid=d464c49d-bc40-4fe1-bdbe-eb5c2433c7e8","ios":"levelo://app?vid=d464c49d-bc40-4fe1-bdbe-eb5c2433c7e8"},"vehicle_type_id":"4","last_reported":1730052630,"current_range_meters":39200,"station_id":"ce4bhgp2rcd13ifvqfe0","pricing_plan_id":"cebpf4jnsgd1na2vs0mg"},{"bike_id":"272108ab-c66d-4277-b942-346fbf20d819","system_id":"levelo_inurba_marseille","lat":43.30347,"lon":5.41883,"is_reserved":false,"is_disabled":false,"rental_uris":{"android":"levelo://app?vid=272108ab-c66d-4277-b942-346fbf20d819","ios":"levelo://app?vid=272108ab-c66d-4277-b942-346fbf20d819"},"vehicle_type_id":"4","last_reported":1730052630,"current_range_meters":7200,"station_id":"ce4bhop2rcd13ifvqh7g","pricing_plan_id":"cebpf4jnsgd1na2vs0mg"},{"bike_id":"f2ffc18b-a42a-45b7-9a31-3bcae7a7bf58","system_id":"levelo_inurba_marseille","lat":43.306,"lon":5.37231,"is_reserved":false,"is_disabled":false,"rental_uris":{"android":"levelo://app?vid=f2ffc18b-a42a-45b7-9a31-3bcae7a7bf58","ios":"levelo://app?vid=f2ffc18b-a42a-45b7-9a31-3bcae7a7bf58"},"vehicle_type_id":"4","last_reported":1730052630,"current_range_meters":12800,"station_id":"ce4bgqh2rcd13ifvqc4g","pricing_plan_id":"cebpf4jnsgd1na2vs0mg"},{"bike_id":"8fbb3d87-cdca-4c4a-859f-e70dea3485a5","system_id":"levelo_inurba_marseille","lat":43.27493,"lon":5.42457,"is_reserved":false,"is_disabled":false,"rental_uris":{"android":"levelo://app?vid=8fbb3d87-cdca-4c4a-859f-e70dea3485a5","ios":"levelo://app?vid=8fbb3d87-cdca-4c4a-859f-e70dea3485a5"},"vehicle_type_id":"4","last_reported":1730052630,"current_range_meters":32000,"station_id":"ce4bhn92rcd13ifvqgrg","pricing_plan_id":"cebpf4jnsgd1na2vs0mg"},{"bike_id":"9834455c-3d1d-44ae-ad32-0de77a398dd4","system_id":"levelo_inurba_marseille","lat":43.30901,"lon":5.37188,"is_reserved":false,"is_disabled":false,"rental_uris":{"android":"levelo://app?vid=9834455c-3d1d-44ae-ad32-0de77a398dd4","ios":"levelo://app?vid=9834455c-3d1d-44ae-ad32-0de77a398dd4"},"vehicle_type_id":"4","last_reported":1730052630,"current_range_meters":10800,"station_id":"ce4bguh2rcd13ifvqckg","pricing_plan_id":"cebpf4jnsgd1na2vs0mg"},{"bike_id":"f913656d-a9fb-442f-87e4-56a558f517ee","system_id":"levelo_inurba_marseille","lat":43.31036,"lon":5.38047,"is_reserved":false,"is_disabled":false,"rental_uris":{"android":"levelo://app?vid=f913656d-a9fb-442f-87e4-56a558f517ee","ios":"levelo://app?vid=f913656d-a9fb-442f-87e4-56a558f517ee"},"vehicle_type_id":"4","last_reported":1730052630,"current_range_meters":4400,"station_id":"","pricing_plan_id":"cebpf4jnsgd1na2vs0mg"},{"bike_id":"aff15b89-3d55-4512-ac59-79b8390e5060","system_id":"levelo_inurba_marseille","lat":43.26945,"lon":5.40249,"is_reserved":false,"is_disabled":false,"rental_uris":{"android":"levelo://app?vid=aff15b89-3d55-4512-ac59-79b8390e5060","ios":"levelo://app?vid=aff15b89-3d55-4512-ac59-79b8390e5060"},"vehicle_type_id":"4","last_reported":1730052630,"current_range_meters":26000,"station_id":"cjm6bp8fraef2m0cb0m0","pricing_plan_id":"cebpf4jnsgd1na2vs0mg"},{"bike_id":"46ca8589-74b9-4f49-9cb7-095e9fa98b31","system_id":"levelo_inurba_marseille","lat":43.29242,"lon":5.38438,"is_reserved":false,"is_disabled":false,"rental_uris":{"android":"levelo://app?vid=46ca8589-74b9-4f49-9cb7-095e9fa98b31","ios":"levelo://app?vid=46ca8589-74b9-4f49-9cb7-095e9fa98b31"},"vehicle_type_id":"4","last_reported":1730052630,"current_range_meters":2800,"station_id":"ce4bh692rcd13ifvqea0","pricing_plan_id":"cebpf4jnsgd1na2vs0mg"},{"bike_id":"d8f8d62c-901d-484e-b1ed-6e9f86fc3aaa","system_id":"levelo_inurba_marseille","lat":43.26939,"lon":5.40243,"is_reserved":false,"is_disabled":false,"rental_uris":{"android":"levelo://app?vid=d8f8d62c-901d-484e-b1ed-6e9f86fc3aaa","ios":"levelo://app?vid=d8f8d62c-901d-484e-b1ed-6e9f86fc3aaa"},"vehicle_type_id":"4","last_reported":1730052630,"current_range_meters":16000,"station_id":"cjm6bp8fraef2m0cb0m0","pricing_plan_id":"cebpf4jnsgd1na2vs0mg"},{"bike_id":"cd8988cf-34e0-4cd8-92c1-67d3cd8c964e","system_id":"levelo_inurba_marseille","lat":43.23959,"lon":5.3663,"is_reserved":false,"is_disabled":false,"rental_uris":{"android":"levelo://app?vid=cd8988cf-34e0-4cd8-92c1-67d3cd8c964e","ios":"levelo://app?vid=cd8988cf-34e0-4cd8-92c1-67d3cd8c964e"},"vehicle_type_id":"4","last_reported":1730052630,"current_range_meters":15200,"station_id":"ce4bhi12rcd13ifvqfp0","pricing_plan_id":"cebpf4jnsgd1na2vs0mg"},{"bike_id":"3990bf75-a959-4b0c-9cad-1fa0b6fbbdbb","system_id":"levelo_inurba_marseille","lat":43.31713,"lon":5.43711,"is_reserved":false,"is_disabled":false,"rental_uris":{"android":"levelo://app?vid=3990bf75-a959-4b0c-9cad-1fa0b6fbbdbb","ios":"levelo://app?vid=3990bf75-a959-4b0c-9cad-1fa0b6fbbdbb"},"vehicle_type_id":"4","last_reported":1730052630,"current_range_meters":11600,"station_id":"ce4bhp92rcd13ifvqhcg","pricing_plan_id":"cebpf4jnsgd1na2vs0mg"},{"bike_id":"b4c2d5e8-2988-46b1-944b-184869df5f99","system_id":"levelo_inurba_marseille","lat":43.26561,"lon":5.39002,"is_reserved":false,"is_disabled":false,"rental_uris":{"android":"levelo://app?vid=b4c2d5e8-2988-46b1-944b-184869df5f99","ios":"levelo://app?vid=b4c2d5e8-2988-46b1-944b-184869df5f99"},"vehicle_type_id":"4","last_reported":1730052630,"current_range_meters":24400,"station_id":"ce4bhe12rcd13ifvqf30","pricing_plan_id":"cebpf4jnsgd1na2vs0mg"},{"bike_id":"91e5a41c-fa6d-4854-8ce0-8ebe8d9b5796","system_id":"levelo_inurba_marseille","lat":43.24662,"lon":5.38167,"is_reserved":false,"is_disabled":false,"rental_uris":{"android":"levelo://app?vid=91e5a41c-fa6d-4854-8ce0-8ebe8d9b5796","ios":"levelo://app?vid=91e5a41c-fa6d-4854-8ce0-8ebe8d9b5796"},"vehicle_type_id":"4","last_reported":1730052630,"current_range_meters":31200,"station_id":"ce4bhih2rcd13ifvqfr0","pricing_plan_id":"cebpf4jnsgd1na2vs0mg"},{"bike_id":"86ebe0bd-2a9f-42c5-bcdb-31622749cce3","system_id":"levelo_inurba_marseille","lat":43.27059,"lon":5.39971,"is_reserved":false,"is_disabled":false,"rental_uris":{"android":"levelo://app?vid=86ebe0bd-2a9f-42c5-bcdb-31622749cce3","ios":"levelo://app?vid=86ebe0bd-2a9f-42c5-bcdb-31622749cce3"},"vehicle_type_id":"4","last_reported":1730052630,"current_range_meters":38000,"station_id":"","pricing_plan_id":"cebpf4jnsgd1na2vs0mg"},{"bike_id":"2588a2dd-1e5c-4f46-b699-5d9860ea718f","system_id":"levelo_inurba_marseille","lat":43.33021,"lon":5.39049,"is_reserved":false,"is_disabled":false,"rental_uris":{"android":"levelo://app?vid=2588a2dd-1e5c-4f46-b699-5d9860ea718f","ios":"levelo://app?vid=2588a2dd-1e5c-4f46-b699-5d9860ea718f"},"vehicle_type_id":"4","last_reported":1730052630,"current_range_meters":28400,"station_id":"ce4bhr92rcd13ifvqhrg","pricing_plan_id":"cebpf4jnsgd1na2vs0mg"},{"bike_id":"e67ffe34-0c99-46ea-89a6-fb6954c29c4e","system_id":"levelo_inurba_marseille","lat":43.24548,"lon":5.39525,"is_reserved":false,"is_disabled":false,"rental_uris":{"android":"levelo://app?vid=e67ffe34-0c99-46ea-89a6-fb6954c29c4e","ios":"levelo://app?vid=e67ffe34-0c99-46ea-89a6-fb6954c29c4e"},"vehicle_type_id":"4","last_reported":1730052630,"current_range_meters":10000,"station_id":"ce4bhlp2rcd13ifvqgjg","pricing_plan_id":"cebpf4jnsgd1na2vs0mg"},{"bike_id":"3f8f3d50-15b0-44c3-a152-e86f7b67aaa2","system_id":"levelo_inurba_marseille","lat":43.29759,"lon":5.39129,"is_reserved":false,"is_disabled":false,"rental_uris":{"android":"levelo://app?vid=3f8f3d50-15b0-44c3-a152-e86f7b67aaa2","ios":"levelo://app?vid=3f8f3d50-15b0-44c3-a152-e86f7b67aaa2"},"vehicle_type_id":"4","last_reported":1730052630,"current_range_meters":28000,"station_id":"","pricing_plan_id":"cebpf4jnsgd1na2vs0mg"},{"bike_id":"c1f81709-afac-4717-a9ff-a2223c601c1b","system_id":"levelo_inurba_marseille","lat":43.29925,"lon":5.36552,"is_reserved":false,"is_disabled":false,"rental_uris":{"android":"levelo://app?vid=c1f81709-afac-4717-a9ff-a2223c601c1b","ios":"levelo://app?vid=c1f81709-afac-4717-a9ff-a2223c601c1b"},"vehicle_type_id":"4","last_reported":1730052630,"current_range_meters":8000,"station_id":"ce4bgm92rcd13ifvqbr0","pricing_plan_id":"cebpf4jnsgd1na2vs0mg"},{"bike_id":"1fafbe93-2ba4-4077-bfcf-7b3992b30a25","system_id":"levelo_inurba_marseille","lat":43.29552,"lon":5.42283,"is_reserved":false,"is_disabled":false,"rental_uris":{"android":"levelo://app?vid=1fafbe93-2ba4-4077-bfcf-7b3992b30a25","ios":"levelo://app?vid=1fafbe93-2ba4-4077-bfcf-7b3992b30a25"},"vehicle_type_id":"4","last_reported":1730052630,"current_range_meters":39200,"station_id":"ce4bhph2rcd13ifvqhdg","pricing_plan_id":"cebpf4jnsgd1na2vs0mg"},{"bike_id":"c7de08c4-b72c-4727-a69c-bf8602809b21","system_id":"levelo_inurba_marseille","lat":43.24073,"lon":5.37762,"is_reserved":false,"is_disabled":false,"rental_uris":{"android":"levelo://app?vid=c7de08c4-b72c-4727-a69c-bf8602809b21","ios":"levelo://app?vid=c7de08c4-b72c-4727-a69c-bf8602809b21"},"vehicle_type_id":"4","last_reported":1730052630,"current_range_meters":16400,"station_id":"ce4bhnp2rcd13ifvqgvg","pricing_plan_id":"cebpf4jnsgd1na2vs0mg"},{"bike_id":"e113f747-4daa-44f7-a218-9e030daa2565","system_id":"levelo_inurba_marseille","lat":43.32105,"lon":5.36773,"is_reserved":false,"is_disabled":false,"rental_uris":{"android":"levelo://app?vid=e113f747-4daa-44f7-a218-9e030daa2565","ios":"levelo://app?vid=e113f747-4daa-44f7-a218-9e030daa2565"},"vehicle_type_id":"4","last_reported":1730052630,"current_range_meters":25200,"station_id":"ce4bhrh2rcd13ifvqhug","pricing_plan_id":"cebpf4jnsgd1na2vs0mg"},{"bike_id":"9fd56fad-5f3d-42b4-b491-7b57b76bc0cf","system_id":"levelo_inurba_marseille","lat":43.27814,"lon":5.40719,"is_reserved":false,"is_disabled":false,"rental_uris":{"android":"levelo://app?vid=9fd56fad-5f3d-42b4-b491-7b57b76bc0cf","ios":"levelo://app?vid=9fd56fad-5f3d-42b4-b491-7b57b76bc0cf"},"vehicle_type_id":"4","last_reported":1730052630,"current_range_meters":22000,"station_id":"ce4bhnh2rcd13ifvqgtg","pricing_plan_id":"cebpf4jnsgd1na2vs0mg"},{"bike_id":"67239e3e-59b1-45ae-ba43-a51f048c9c05","system_id":"levelo_inurba_marseille","lat":43.29201,"lon":5.39314,"is_reserved":false,"is_disabled":false,"rental_uris":{"android":"levelo://app?vid=67239e3e-59b1-45ae-ba43-a51f048c9c05","ios":"levelo://app?vid=67239e3e-59b1-45ae-ba43-a51f048c9c05"},"vehicle_type_id":"4","last_reported":1730052630,"current_range_meters":14000,"station_id":"ce4bh192rcd13ifvqdd0","pricing_plan_id":"cebpf4jnsgd1na2vs0mg"},{"bike_id":"bc9acf66-f950-49f3-a43c-4a2a52fbae26","system_id":"levelo_inurba_marseille","lat":43.31754,"lon":5.39019,"is_reserved":false,"is_disabled":false,"rental_uris":{"android":"levelo://app?vid=bc9acf66-f950-49f3-a43c-4a2a52fbae26","ios":"levelo://app?vid=bc9acf66-f950-49f3-a43c-4a2a52fbae26"},"vehicle_type_id":"4","last_reported":1730052630,"current_range_meters":20800,"station_id":"ce4bhqp2rcd13ifvqhng","pricing_plan_id":"cebpf4jnsgd1na2vs0mg"},{"bike_id":"b779d3ec-2246-4148-b549-9d0053c94e7b","system_id":"levelo_inurba_marseille","lat":43.29964,"lon":5.41327,"is_reserved":false,"is_disabled":false,"rental_uris":{"android":"levelo://app?vid=b779d3ec-2246-4148-b549-9d0053c94e7b","ios":"levelo://app?vid=b779d3ec-2246-4148-b549-9d0053c94e7b"},"vehicle_type_id":"4","last_reported":1730052630,"current_range_meters":37600,"station_id":"ce4bhp12rcd13ifvqh9g","pricing_plan_id":"cebpf4jnsgd1na2vs0mg"},{"bike_id":"8915ea8a-535c-40ab-b1cc-423818978796","system_id":"levelo_inurba_marseille","lat":43.27437,"lon":5.39422,"is_reserved":false,"is_disabled":false,"rental_uris":{"android":"levelo://app?vid=8915ea8a-535c-40ab-b1cc-423818978796","ios":"levelo://app?vid=8915ea8a-535c-40ab-b1cc-423818978796"},"vehicle_type_id":"4","last_reported":1730052630,"current_range_meters":11600,"station_id":"ce4bhdp2rcd13ifvqf20","pricing_plan_id":"cebpf4jnsgd1na2vs0mg"},{"bike_id":"00440842-39f8-42e4-8940-1e4bc4e2dffc","system_id":"levelo_inurba_marseille","lat":43.26201,"lon":5.37933,"is_reserved":false,"is_disabled":false,"rental_uris":{"android":"levelo://app?vid=00440842-39f8-42e4-8940-1e4bc4e2dffc","ios":"levelo://app?vid=00440842-39f8-42e4-8940-1e4bc4e2dffc"},"vehicle_type_id":"4","last_reported":1730052630,"current_range_meters":38400,"station_id":"ce4bhjp2rcd13ifvqg90","pricing_plan_id":"cebpf4jnsgd1na2vs0mg"},{"bike_id":"98925083-7177-494d-a500-5e1ce11bc51a","system_id":"levelo_inurba_marseille","lat":43.2407,"lon":5.37768,"is_reserved":false,"is_disabled":false,"rental_uris":{"android":"levelo://app?vid=98925083-7177-494d-a500-5e1ce11bc51a","ios":"levelo://app?vid=98925083-7177-494d-a500-5e1ce11bc51a"},"vehicle_type_id":"4","last_reported":1730052630,"current_range_meters":34000,"station_id":"ce4bhnp2rcd13ifvqgvg","pricing_plan_id":"cebpf4jnsgd1na2vs0mg"},{"bike_id":"5e413cd4-7553-430d-8cb9-64f6b17fa265","system_id":"levelo_inurba_marseille","lat":43.28947,"lon":5.36404,"is_reserved":false,"is_disabled":false,"rental_uris":{"android":"levelo://app?vid=5e413cd4-7553-430d-8cb9-64f6b17fa265","ios":"levelo://app?vid=5e413cd4-7553-430d-8cb9-64f6b17fa265"},"vehicle_type_id":"4","last_reported":1730052630,"current_range_meters":38800,"station_id":"ce4bhc92rcd13ifvqetg","pricing_plan_id":"cebpf4jnsgd1na2vs0mg"},{"bike_id":"04879188-c7a9-4b24-aebf-ff03b39252b2","system_id":"levelo_inurba_marseille","lat":43.24389,"lon":5.37057,"is_reserved":false,"is_disabled":false,"rental_uris":{"android":"levelo://app?vid=04879188-c7a9-4b24-aebf-ff03b39252b2","ios":"levelo://app?vid=04879188-c7a9-4b24-aebf-ff03b39252b2"},"vehicle_type_id":"4","last_reported":1730052630,"current_range_meters":34000,"station_id":"ce4bhhh2rcd13ifvqfk0","pricing_plan_id":"cebpf4jnsgd1na2vs0mg"},{"bike_id":"02efff61-5b53-42f0-8deb-59befd730dce","system_id":"levelo_inurba_marseille","lat":43.29894,"lon":5.43665,"is_reserved":false,"is_disabled":false,"rental_uris":{"android":"levelo://app?vid=02efff61-5b53-42f0-8deb-59befd730dce","ios":"levelo://app?vid=02efff61-5b53-42f0-8deb-59befd730dce"},"vehicle_type_id":"4","last_reported":1730052630,"current_range_meters":29600,"station_id":"ce4bhpp2rcd13ifvqhfg","pricing_plan_id":"cebpf4jnsgd1na2vs0mg"},{"bike_id":"b8199a3a-a79b-449e-9a5f-c4f97c829179","system_id":"levelo_inurba_marseille","lat":43.29255,"lon":5.38447,"is_reserved":false,"is_disabled":false,"rental_uris":{"android":"levelo://app?vid=b8199a3a-a79b-449e-9a5f-c4f97c829179","ios":"levelo://app?vid=b8199a3a-a79b-449e-9a5f-c4f97c829179"},"vehicle_type_id":"4","last_reported":1730052630,"current_range_meters":28000,"station_id":"ce4bh692rcd13ifvqea0","pricing_plan_id":"cebpf4jnsgd1na2vs0mg"},{"bike_id":"04bea5fa-6c54-46bc-b7fd-75068383b614","system_id":"levelo_inurba_marseille","lat":43.27434,"lon":5.39418,"is_reserved":false,"is_disabled":false,"rental_uris":{"android":"levelo://app?vid=04bea5fa-6c54-46bc-b7fd-75068383b614","ios":"levelo://app?vid=04bea5fa-6c54-46bc-b7fd-75068383b614"},"vehicle_type_id":"4","last_reported":1730052630,"current_range_meters":30400,"station_id":"ce4bhdp2rcd13ifvqf20","pricing_plan_id":"cebpf4jnsgd1na2vs0mg"},{"bike_id":"ba7ff12b-4fb3-47ea-b304-85ab8fca1364","system_id":"levelo_inurba_marseille","lat":43.322911,"lon":5.382745,"is_reserved":false,"is_disabled":false,"rental_uris":{"android":"levelo://app?vid=ba7ff12b-4fb3-47ea-b304-85ab8fca1364","ios":"levelo://app?vid=ba7ff12b-4fb3-47ea-b304-85ab8fca1364"},"vehicle_type_id":"4","last_reported":1730052630,"current_range_meters":31200,"station_id":"ce4bhr12rcd13ifvqhqg","pricing_plan_id":"cebpf4jnsgd1na2vs0mg"},{"bike_id":"7a5afbf7-d63f-4e3b-bf50-1a8cc5f1048f","system_id":"levelo_inurba_marseille","lat":43.28484,"lon":5.38422,"is_reserved":false,"is_disabled":false,"rental_uris":{"android":"levelo://app?vid=7a5afbf7-d63f-4e3b-bf50-1a8cc5f1048f","ios":"levelo://app?vid=7a5afbf7-d63f-4e3b-bf50-1a8cc5f1048f"},"vehicle_type_id":"4","last_reported":1730052630,"current_range_meters":29600,"station_id":"ce4bh512rcd13ifvqe3g","pricing_plan_id":"cebpf4jnsgd1na2vs0mg"},{"bike_id":"f7a50275-88a4-4be4-ac33-5cce1242cfaa","system_id":"levelo_inurba_marseille","lat":43.317108,"lon":5.377576,"is_reserved":false,"is_disabled":false,"rental_uris":{"android":"levelo://app?vid=f7a50275-88a4-4be4-ac33-5cce1242cfaa","ios":"levelo://app?vid=f7a50275-88a4-4be4-ac33-5cce1242cfaa"},"vehicle_type_id":"4","last_reported":1730052630,"current_range_meters":23200,"station_id":"ce4bgth2rcd13ifvqch0","pricing_plan_id":"cebpf4jnsgd1na2vs0mg"},{"bike_id":"4c5fc7e2-6b21-495f-b37c-d418b80f3549","system_id":"levelo_inurba_marseille","lat":43.2942,"lon":5.38625,"is_reserved":false,"is_disabled":false,"rental_uris":{"android":"levelo://app?vid=4c5fc7e2-6b21-495f-b37c-d418b80f3549","ios":"levelo://app?vid=4c5fc7e2-6b21-495f-b37c-d418b80f3549"},"vehicle_type_id":"4","last_reported":1730052630,"current_range_meters":6800,"station_id":"ce4bh2h2rcd13ifvqdh0","pricing_plan_id":"cebpf4jnsgd1na2vs0mg"},{"bike_id":"59e82a4e-1841-4082-84ae-50a5176e85f8","system_id":"levelo_inurba_marseille","lat":43.296785,"lon":5.372851,"is_reserved":false,"is_disabled":false,"rental_uris":{"android":"levelo://app?vid=59e82a4e-1841-4082-84ae-50a5176e85f8","ios":"levelo://app?vid=59e82a4e-1841-4082-84ae-50a5176e85f8"},"vehicle_type_id":"4","last_reported":1730052630,"current_range_meters":38800,"station_id":"ce4bgk12rcd13ifvqbj0","pricing_plan_id":"cebpf4jnsgd1na2vs0mg"},{"bike_id":"186eb52f-399d-4f46-9854-51f3abac7c2c","system_id":"levelo_inurba_marseille","lat":43.30416,"lon":5.39738,"is_reserved":false,"is_disabled":false,"rental_uris":{"android":"levelo://app?vid=186eb52f-399d-4f46-9854-51f3abac7c2c","ios":"levelo://app?vid=186eb52f-399d-4f46-9854-51f3abac7c2c"},"vehicle_type_id":"4","last_reported":1730052630,"current_range_meters":24400,"station_id":"ce4bh092rcd13ifvqd20","pricing_plan_id":"cebpf4jnsgd1na2vs0mg"},{"bike_id":"cc1a2cad-771e-4438-b83d-15f7ccf66f2c","system_id":"levelo_inurba_marseille","lat":43.30254,"lon":5.40086,"is_reserved":false,"is_disabled":false,"rental_uris":{"android":"levelo://app?vid=cc1a2cad-771e-4438-b83d-15f7ccf66f2c","ios":"levelo://app?vid=cc1a2cad-771e-4438-b83d-15f7ccf66f2c"},"vehicle_type_id":"4","last_reported":1730052630,"current_range_meters":38800,"station_id":"ce4bgvh2rcd13ifvqcs0","pricing_plan_id":"cebpf4jnsgd1na2vs0mg"},{"bike_id":"2af0357b-0b54-4de4-84ca-424bad4ad85a","system_id":"levelo_inurba_marseille","lat":43.29259,"lon":5.38446,"is_reserved":false,"is_disabled":false,"rental_uris":{"android":"levelo://app?vid=2af0357b-0b54-4de4-84ca-424bad4ad85a","ios":"levelo://app?vid=2af0357b-0b54-4de4-84ca-424bad4ad85a"},"vehicle_type_id":"4","last_reported":1730052630,"current_range_meters":38800,"station_id":"ce4bh692rcd13ifvqea0","pricing_plan_id":"cebpf4jnsgd1na2vs0mg"},{"bike_id":"a3c8ab7c-e3b8-41fe-a6e3-513c36624808","system_id":"levelo_inurba_marseille","lat":43.26553,"lon":5.37286,"is_reserved":false,"is_disabled":false,"rental_uris":{"android":"levelo://app?vid=a3c8ab7c-e3b8-41fe-a6e3-513c36624808","ios":"levelo://app?vid=a3c8ab7c-e3b8-41fe-a6e3-513c36624808"},"vehicle_type_id":"4","last_reported":1730052630,"current_range_meters":25600,"station_id":"ce4bhg12rcd13ifvqf70","pricing_plan_id":"cebpf4jnsgd1na2vs0mg"},{"bike_id":"b7593b9f-bec6-480e-834f-c0321bab379e","system_id":"levelo_inurba_marseille","lat":43.27313,"lon":5.39092,"is_reserved":false,"is_disabled":false,"rental_uris":{"android":"levelo://app?vid=b7593b9f-bec6-480e-834f-c0321bab379e","ios":"levelo://app?vid=b7593b9f-bec6-480e-834f-c0321bab379e"},"vehicle_type_id":"4","last_reported":1730052630,"current_range_meters":22000,"station_id":"ce4bhgp2rcd13ifvqfe0","pricing_plan_id":"cebpf4jnsgd1na2vs0mg"},{"bike_id":"282b1214-851d-4385-8086-3c1dc5b77cc8","system_id":"levelo_inurba_marseille","lat":43.299255,"lon":5.381456,"is_reserved":false,"is_disabled":false,"rental_uris":{"android":"levelo://app?vid=282b1214-851d-4385-8086-3c1dc5b77cc8","ios":"levelo://app?vid=282b1214-851d-4385-8086-3c1dc5b77cc8"},"vehicle_type_id":"4","last_reported":1730052630,"current_range_meters":36800,"station_id":"ce4bhbp2rcd13ifvqerg","pricing_plan_id":"cebpf4jnsgd1na2vs0mg"},{"bike_id":"1901d3a4-fa53-452c-8e27-99cc6dcb963f","system_id":"levelo_inurba_marseille","lat":43.313331,"lon":5.397002,"is_reserved":false,"is_disabled":false,"rental_uris":{"android":"levelo://app?vid=1901d3a4-fa53-452c-8e27-99cc6dcb963f","ios":"levelo://app?vid=1901d3a4-fa53-452c-8e27-99cc6dcb963f"},"vehicle_type_id":"4","last_reported":1730052630,"current_range_meters":38800,"station_id":"ce4bgvp2rcd13ifvqcu0","pricing_plan_id":"cebpf4jnsgd1na2vs0mg"},{"bike_id":"8d1224ea-8c67-414f-8e8e-8dff85dd0343","system_id":"levelo_inurba_marseille","lat":43.25002,"lon":5.38925,"is_reserved":false,"is_disabled":false,"rental_uris":{"android":"levelo://app?vid=8d1224ea-8c67-414f-8e8e-8dff85dd0343","ios":"levelo://app?vid=8d1224ea-8c67-414f-8e8e-8dff85dd0343"},"vehicle_type_id":"4","last_reported":1730052630,"current_range_meters":36000,"station_id":"ce4bhgp2rcd13ifvqfd0","pricing_plan_id":"cebpf4jnsgd1na2vs0mg"},{"bike_id":"9befed88-9f8c-464c-b07b-093bd97066bb","system_id":"levelo_inurba_marseille","lat":43.29805,"lon":5.37136,"is_reserved":false,"is_disabled":false,"rental_uris":{"android":"levelo://app?vid=9befed88-9f8c-464c-b07b-093bd97066bb","ios":"levelo://app?vid=9befed88-9f8c-464c-b07b-093bd97066bb"},"vehicle_type_id":"4","last_reported":1730052630,"current_range_meters":18800,"station_id":"","pricing_plan_id":"cebpf4jnsgd1na2vs0mg"},{"bike_id":"f37e3b02-a49c-4c4e-b112-f9c8c24edf90","system_id":"levelo_inurba_marseille","lat":43.2319,"lon":5.35552,"is_reserved":false,"is_disabled":false,"rental_uris":{"android":"levelo://app?vid=f37e3b02-a49c-4c4e-b112-f9c8c24edf90","ios":"levelo://app?vid=f37e3b02-a49c-4c4e-b112-f9c8c24edf90"},"vehicle_type_id":"4","last_reported":1730052630,"current_range_meters":16000,"station_id":"ce4bhu92rcd13ifvqi70","pricing_plan_id":"cebpf4jnsgd1na2vs0mg"},{"bike_id":"4652e07f-6120-439c-b1de-6fdd8652dbf2","system_id":"levelo_inurba_marseille","lat":43.29269,"lon":5.38436,"is_reserved":false,"is_disabled":false,"rental_uris":{"android":"levelo://app?vid=4652e07f-6120-439c-b1de-6fdd8652dbf2","ios":"levelo://app?vid=4652e07f-6120-439c-b1de-6fdd8652dbf2"},"vehicle_type_id":"4","last_reported":1730052630,"current_range_meters":37600,"station_id":"ce4bh692rcd13ifvqea0","pricing_plan_id":"cebpf4jnsgd1na2vs0mg"},{"bike_id":"1e71ecc4-9f18-418c-9015-472619c62f5e","system_id":"levelo_inurba_marseille","lat":43.298933,"lon":5.380997,"is_reserved":false,"is_disabled":false,"rental_uris":{"android":"levelo://app?vid=1e71ecc4-9f18-418c-9015-472619c62f5e","ios":"levelo://app?vid=1e71ecc4-9f18-418c-9015-472619c62f5e"},"vehicle_type_id":"4","last_reported":1730052630,"current_range_meters":37600,"station_id":"ce4bgj12rcd13ifvqbc0","pricing_plan_id":"cebpf4jnsgd1na2vs0mg"},{"bike_id":"e018faff-2791-4cfa-a83e-940b73285b37","system_id":"levelo_inurba_marseille","lat":43.28846,"lon":5.3586,"is_reserved":false,"is_disabled":false,"rental_uris":{"android":"levelo://app?vid=e018faff-2791-4cfa-a83e-940b73285b37","ios":"levelo://app?vid=e018faff-2791-4cfa-a83e-940b73285b37"},"vehicle_type_id":"4","last_reported":1730052630,"current_range_meters":30000,"station_id":"ce4bhb12rcd13ifvqem0","pricing_plan_id":"cebpf4jnsgd1na2vs0mg"},{"bike_id":"4e88e79f-84cd-47cd-9610-b9528475f8c7","system_id":"levelo_inurba_marseille","lat":43.30809,"lon":5.43525,"is_reserved":false,"is_disabled":false,"rental_uris":{"android":"levelo://app?vid=4e88e79f-84cd-47cd-9610-b9528475f8c7","ios":"levelo://app?vid=4e88e79f-84cd-47cd-9610-b9528475f8c7"},"vehicle_type_id":"4","last_reported":1730052630,"current_range_meters":30800,"station_id":"ce4bhph2rcd13ifvqheg","pricing_plan_id":"cebpf4jnsgd1na2vs0mg"},{"bike_id":"ed6316e0-9b5a-4480-aa80-1af8d281f6ba","system_id":"levelo_inurba_marseille","lat":43.28071,"lon":5.39655,"is_reserved":false,"is_disabled":false,"rental_uris":{"android":"levelo://app?vid=ed6316e0-9b5a-4480-aa80-1af8d281f6ba","ios":"levelo://app?vid=ed6316e0-9b5a-4480-aa80-1af8d281f6ba"},"vehicle_type_id":"4","last_reported":1730052630,"current_range_meters":24800,"station_id":"ce4bho12rcd13ifvqh2g","pricing_plan_id":"cebpf4jnsgd1na2vs0mg"},{"bike_id":"cf56b3cb-bec7-4b1d-a186-ef4c4c63199d","system_id":"levelo_inurba_marseille","lat":43.2797,"lon":5.38736,"is_reserved":false,"is_disabled":false,"rental_uris":{"android":"levelo://app?vid=cf56b3cb-bec7-4b1d-a186-ef4c4c63199d","ios":"levelo://app?vid=cf56b3cb-bec7-4b1d-a186-ef4c4c63199d"},"vehicle_type_id":"4","last_reported":1730052630,"current_range_meters":8000,"station_id":"ce4bhg12rcd13ifvqf80","pricing_plan_id":"cebpf4jnsgd1na2vs0mg"},{"bike_id":"6c6aef24-8c48-4806-ae15-5b71f80b4322","system_id":"levelo_inurba_marseille","lat":43.293243,"lon":5.370687,"is_reserved":false,"is_disabled":false,"rental_uris":{"android":"levelo://app?vid=6c6aef24-8c48-4806-ae15-5b71f80b4322","ios":"levelo://app?vid=6c6aef24-8c48-4806-ae15-5b71f80b4322"},"vehicle_type_id":"4","last_reported":1730052630,"current_range_meters":31200,"station_id":"cki0cbj6b192h4jlfktg","pricing_plan_id":"cebpf4jnsgd1na2vs0mg"},{"bike_id":"19804416-aaac-4caf-b6be-6a92b17ca2e1","system_id":"levelo_inurba_marseille","lat":43.27205,"lon":5.39188,"is_reserved":false,"is_disabled":false,"rental_uris":{"android":"levelo://app?vid=19804416-aaac-4caf-b6be-6a92b17ca2e1","ios":"levelo://app?vid=19804416-aaac-4caf-b6be-6a92b17ca2e1"},"vehicle_type_id":"4","last_reported":1730052630,"current_range_meters":38000,"station_id":"ce4bhhp2rcd13ifvqfm0","pricing_plan_id":"cebpf4jnsgd1na2vs0mg"},{"bike_id":"e39645c5-87ac-4e87-90ca-e4c6f3ff67ce","system_id":"levelo_inurba_marseille","lat":43.29938,"lon":5.36561,"is_reserved":false,"is_disabled":false,"rental_uris":{"android":"levelo://app?vid=e39645c5-87ac-4e87-90ca-e4c6f3ff67ce","ios":"levelo://app?vid=e39645c5-87ac-4e87-90ca-e4c6f3ff67ce"},"vehicle_type_id":"4","last_reported":1730052630,"current_range_meters":34800,"station_id":"ce4bgm92rcd13ifvqbr0","pricing_plan_id":"cebpf4jnsgd1na2vs0mg"},{"bike_id":"76062caa-077f-43f3-99bb-d065d1b403a8","system_id":"levelo_inurba_marseille","lat":43.24805,"lon":5.37458,"is_reserved":false,"is_disabled":false,"rental_uris":{"android":"levelo://app?vid=76062caa-077f-43f3-99bb-d065d1b403a8","ios":"levelo://app?vid=76062caa-077f-43f3-99bb-d065d1b403a8"},"vehicle_type_id":"4","last_reported":1730052630,"current_range_meters":17600,"station_id":"ce4bhgh2rcd13ifvqfb0","pricing_plan_id":"cebpf4jnsgd1na2vs0mg"},{"bike_id":"6f85b73d-f401-4611-a45c-024bc4701b09","system_id":"levelo_inurba_marseille","lat":43.2902,"lon":5.38141,"is_reserved":false,"is_disabled":false,"rental_uris":{"android":"levelo://app?vid=6f85b73d-f401-4611-a45c-024bc4701b09","ios":"levelo://app?vid=6f85b73d-f401-4611-a45c-024bc4701b09"},"vehicle_type_id":"4","last_reported":1730052630,"current_range_meters":37600,"station_id":"ce4bh4p2rcd13ifvqe1g","pricing_plan_id":"cebpf4jnsgd1na2vs0mg"},{"bike_id":"70ef1d30-3989-47f1-a56f-dfe0f32825ab","system_id":"levelo_inurba_marseille","lat":43.26957,"lon":5.38639,"is_reserved":false,"is_disabled":false,"rental_uris":{"android":"levelo://app?vid=70ef1d30-3989-47f1-a56f-dfe0f32825ab","ios":"levelo://app?vid=70ef1d30-3989-47f1-a56f-dfe0f32825ab"},"vehicle_type_id":"4","last_reported":1730052630,"current_range_meters":30400,"station_id":"ce4bhh92rcd13ifvqfh0","pricing_plan_id":"cebpf4jnsgd1na2vs0mg"},{"bike_id":"3d729504-3198-4bd2-a0c7-ff4fc02f56e0","system_id":"levelo_inurba_marseille","lat":43.31707,"lon":5.37672,"is_reserved":false,"is_disabled":false,"rental_uris":{"android":"levelo://app?vid=3d729504-3198-4bd2-a0c7-ff4fc02f56e0","ios":"levelo://app?vid=3d729504-3198-4bd2-a0c7-ff4fc02f56e0"},"vehicle_type_id":"4","last_reported":1730052630,"current_range_meters":16400,"station_id":"ce4bgt12rcd13ifvqcd0","pricing_plan_id":"cebpf4jnsgd1na2vs0mg"},{"bike_id":"4b53140f-4e16-4a6c-8434-d2341cbea115","system_id":"levelo_inurba_marseille","lat":43.26789,"lon":5.39421,"is_reserved":false,"is_disabled":false,"rental_uris":{"android":"levelo://app?vid=4b53140f-4e16-4a6c-8434-d2341cbea115","ios":"levelo://app?vid=4b53140f-4e16-4a6c-8434-d2341cbea115"},"vehicle_type_id":"4","last_reported":1730052630,"current_range_meters":13600,"station_id":"ce4bhh12rcd13ifvqfg0","pricing_plan_id":"cebpf4jnsgd1na2vs0mg"},{"bike_id":"805c6a48-ccac-4ed0-a2f6-bfe69dc949e4","system_id":"levelo_inurba_marseille","lat":43.29976,"lon":5.3849,"is_reserved":false,"is_disabled":false,"rental_uris":{"android":"levelo://app?vid=805c6a48-ccac-4ed0-a2f6-bfe69dc949e4","ios":"levelo://app?vid=805c6a48-ccac-4ed0-a2f6-bfe69dc949e4"},"vehicle_type_id":"4","last_reported":1730052630,"current_range_meters":26800,"station_id":"ce4bgj92rcd13ifvqbd0","pricing_plan_id":"cebpf4jnsgd1na2vs0mg"},{"bike_id":"477cd90a-8a9d-4f2c-8ef4-702382168c43","system_id":"levelo_inurba_marseille","lat":43.276,"lon":5.41255,"is_reserved":false,"is_disabled":false,"rental_uris":{"android":"levelo://app?vid=477cd90a-8a9d-4f2c-8ef4-702382168c43","ios":"levelo://app?vid=477cd90a-8a9d-4f2c-8ef4-702382168c43"},"vehicle_type_id":"4","last_reported":1730052630,"current_range_meters":16800,"station_id":"","pricing_plan_id":"cebpf4jnsgd1na2vs0mg"},{"bike_id":"10adca58-6056-44f6-8d2b-7ad95d7d70f8","system_id":"levelo_inurba_marseille","lat":43.27205,"lon":5.39194,"is_reserved":false,"is_disabled":false,"rental_uris":{"android":"levelo://app?vid=10adca58-6056-44f6-8d2b-7ad95d7d70f8","ios":"levelo://app?vid=10adca58-6056-44f6-8d2b-7ad95d7d70f8"},"vehicle_type_id":"4","last_reported":1730052630,"current_range_meters":36800,"station_id":"ce4bhhp2rcd13ifvqfm0","pricing_plan_id":"cebpf4jnsgd1na2vs0mg"},{"bike_id":"fc54002c-c5a8-498b-8033-305979afe3a2","system_id":"levelo_inurba_marseille","lat":43.26944,"lon":5.40251,"is_reserved":false,"is_disabled":false,"rental_uris":{"android":"levelo://app?vid=fc54002c-c5a8-498b-8033-305979afe3a2","ios":"levelo://app?vid=fc54002c-c5a8-498b-8033-305979afe3a2"},"vehicle_type_id":"4","last_reported":1730052630,"current_range_meters":7200,"station_id":"cjm6bp8fraef2m0cb0m0","pricing_plan_id":"cebpf4jnsgd1na2vs0mg"},{"bike_id":"902b0d7a-9092-4674-9227-8f6493f0bdac","system_id":"levelo_inurba_marseille","lat":43.29551,"lon":5.42295,"is_reserved":false,"is_disabled":false,"rental_uris":{"android":"levelo://app?vid=902b0d7a-9092-4674-9227-8f6493f0bdac","ios":"levelo://app?vid=902b0d7a-9092-4674-9227-8f6493f0bdac"},"vehicle_type_id":"4","last_reported":1730052630,"current_range_meters":22400,"station_id":"ce4bhph2rcd13ifvqhdg","pricing_plan_id":"cebpf4jnsgd1na2vs0mg"},{"bike_id":"b201b8c1-b0e9-499d-984f-3c39ebec1b9d","system_id":"levelo_inurba_marseille","lat":43.2396,"lon":5.36628,"is_reserved":false,"is_disabled":false,"rental_uris":{"android":"levelo://app?vid=b201b8c1-b0e9-499d-984f-3c39ebec1b9d","ios":"levelo://app?vid=b201b8c1-b0e9-499d-984f-3c39ebec1b9d"},"vehicle_type_id":"4","last_reported":1730052630,"current_range_meters":5600,"station_id":"ce4bhi12rcd13ifvqfp0","pricing_plan_id":"cebpf4jnsgd1na2vs0mg"},{"bike_id":"76588601-f0de-444c-8708-6d6ae74a37db","system_id":"levelo_inurba_marseille","lat":43.23969,"lon":5.36637,"is_reserved":false,"is_disabled":false,"rental_uris":{"android":"levelo://app?vid=76588601-f0de-444c-8708-6d6ae74a37db","ios":"levelo://app?vid=76588601-f0de-444c-8708-6d6ae74a37db"},"vehicle_type_id":"4","last_reported":1730052630,"current_range_meters":38800,"station_id":"ce4bhi12rcd13ifvqfp0","pricing_plan_id":"cebpf4jnsgd1na2vs0mg"},{"bike_id":"7cdd88d2-5824-40fa-8faf-90ef733261c2","system_id":"levelo_inurba_marseille","lat":43.239631,"lon":5.366364,"is_reserved":false,"is_disabled":false,"rental_uris":{"android":"levelo://app?vid=7cdd88d2-5824-40fa-8faf-90ef733261c2","ios":"levelo://app?vid=7cdd88d2-5824-40fa-8faf-90ef733261c2"},"vehicle_type_id":"4","last_reported":1730052630,"current_range_meters":15200,"station_id":"ce4bhi12rcd13ifvqfp0","pricing_plan_id":"cebpf4jnsgd1na2vs0mg"},{"bike_id":"2f3d8819-9640-4ecc-aa46-af01341bfd08","system_id":"levelo_inurba_marseille","lat":43.28075,"lon":5.39668,"is_reserved":false,"is_disabled":false,"rental_uris":{"android":"levelo://app?vid=2f3d8819-9640-4ecc-aa46-af01341bfd08","ios":"levelo://app?vid=2f3d8819-9640-4ecc-aa46-af01341bfd08"},"vehicle_type_id":"4","last_reported":1730052630,"current_range_meters":3200,"station_id":"ce4bho12rcd13ifvqh2g","pricing_plan_id":"cebpf4jnsgd1na2vs0mg"},{"bike_id":"df56e642-a5b5-493d-afbb-ea31c12455f2","system_id":"levelo_inurba_marseille","lat":43.28267,"lon":5.35059,"is_reserved":false,"is_disabled":false,"rental_uris":{"android":"levelo://app?vid=df56e642-a5b5-493d-afbb-ea31c12455f2","ios":"levelo://app?vid=df56e642-a5b5-493d-afbb-ea31c12455f2"},"vehicle_type_id":"4","last_reported":1730052630,"current_range_meters":14000,"station_id":"ce4bhbp2rcd13ifvqerg","pricing_plan_id":"cebpf4jnsgd1na2vs0mg"},{"bike_id":"4d5d1a61-2d95-46a5-90d7-17d152732de7","system_id":"levelo_inurba_marseille","lat":43.23955,"lon":5.36633,"is_reserved":false,"is_disabled":false,"rental_uris":{"android":"levelo://app?vid=4d5d1a61-2d95-46a5-90d7-17d152732de7","ios":"levelo://app?vid=4d5d1a61-2d95-46a5-90d7-17d152732de7"},"vehicle_type_id":"4","last_reported":1730052630,"current_range_meters":6800,"station_id":"ce4bhi12rcd13ifvqfp0","pricing_plan_id":"cebpf4jnsgd1na2vs0mg"},{"bike_id":"bd998f17-00bd-495a-b9fb-e99a3793875c","system_id":"levelo_inurba_marseille","lat":43.29417,"lon":5.3863,"is_reserved":false,"is_disabled":false,"rental_uris":{"android":"levelo://app?vid=bd998f17-00bd-495a-b9fb-e99a3793875c","ios":"levelo://app?vid=bd998f17-00bd-495a-b9fb-e99a3793875c"},"vehicle_type_id":"4","last_reported":1730052630,"current_range_meters":35200,"station_id":"ce4bh2h2rcd13ifvqdh0","pricing_plan_id":"cebpf4jnsgd1na2vs0mg"},{"bike_id":"e1eef372-ef0e-427b-8457-0783d10f8ab7","system_id":"levelo_inurba_marseille","lat":43.2678,"lon":5.39417,"is_reserved":false,"is_disabled":false,"rental_uris":{"android":"levelo://app?vid=e1eef372-ef0e-427b-8457-0783d10f8ab7","ios":"levelo://app?vid=e1eef372-ef0e-427b-8457-0783d10f8ab7"},"vehicle_type_id":"4","last_reported":1730052630,"current_range_meters":27600,"station_id":"ce4bhh12rcd13ifvqfg0","pricing_plan_id":"cebpf4jnsgd1na2vs0mg"},{"bike_id":"90326538-3425-40ee-b0fb-cf6c32f15af4","system_id":"levelo_inurba_marseille","lat":43.27307,"lon":5.39074,"is_reserved":false,"is_disabled":false,"rental_uris":{"android":"levelo://app?vid=90326538-3425-40ee-b0fb-cf6c32f15af4","ios":"levelo://app?vid=90326538-3425-40ee-b0fb-cf6c32f15af4"},"vehicle_type_id":"4","last_reported":1730052630,"current_range_meters":27600,"station_id":"ce4bhgp2rcd13ifvqfe0","pricing_plan_id":"cebpf4jnsgd1na2vs0mg"},{"bike_id":"0b0ab204-4e48-4913-a10f-8524ff5115c5","system_id":"levelo_inurba_marseille","lat":43.26856,"lon":5.3936,"is_reserved":false,"is_disabled":false,"rental_uris":{"android":"levelo://app?vid=0b0ab204-4e48-4913-a10f-8524ff5115c5","ios":"levelo://app?vid=0b0ab204-4e48-4913-a10f-8524ff5115c5"},"vehicle_type_id":"4","last_reported":1730052630,"current_range_meters":22400,"station_id":"","pricing_plan_id":"cebpf4jnsgd1na2vs0mg"},{"bike_id":"690eb02e-f323-4ad4-abb0-3c2731323c97","system_id":"levelo_inurba_marseille","lat":43.24546,"lon":5.39526,"is_reserved":false,"is_disabled":false,"rental_uris":{"android":"levelo://app?vid=690eb02e-f323-4ad4-abb0-3c2731323c97","ios":"levelo://app?vid=690eb02e-f323-4ad4-abb0-3c2731323c97"},"vehicle_type_id":"4","last_reported":1730052630,"current_range_meters":8800,"station_id":"ce4bhlp2rcd13ifvqgjg","pricing_plan_id":"cebpf4jnsgd1na2vs0mg"},{"bike_id":"4a9a4c82-1cff-4384-bfc5-2b50d6587cfb","system_id":"levelo_inurba_marseille","lat":43.27809,"lon":5.40717,"is_reserved":false,"is_disabled":false,"rental_uris":{"android":"levelo://app?vid=4a9a4c82-1cff-4384-bfc5-2b50d6587cfb","ios":"levelo://app?vid=4a9a4c82-1cff-4384-bfc5-2b50d6587cfb"},"vehicle_type_id":"4","last_reported":1730052630,"current_range_meters":25200,"station_id":"ce4bhnh2rcd13ifvqgtg","pricing_plan_id":"cebpf4jnsgd1na2vs0mg"},{"bike_id":"6e45bd55-8d3d-47a0-ae26-852c24ebcb13","system_id":"levelo_inurba_marseille","lat":43.27813,"lon":5.40716,"is_reserved":false,"is_disabled":false,"rental_uris":{"android":"levelo://app?vid=6e45bd55-8d3d-47a0-ae26-852c24ebcb13","ios":"levelo://app?vid=6e45bd55-8d3d-47a0-ae26-852c24ebcb13"},"vehicle_type_id":"4","last_reported":1730052630,"current_range_meters":39200,"station_id":"ce4bhnh2rcd13ifvqgtg","pricing_plan_id":"cebpf4jnsgd1na2vs0mg"},{"bike_id":"e89316dc-a19a-469f-a9cd-dc00b495757e","system_id":"levelo_inurba_marseille","lat":43.27433,"lon":5.40643,"is_reserved":false,"is_disabled":false,"rental_uris":{"android":"levelo://app?vid=e89316dc-a19a-469f-a9cd-dc00b495757e","ios":"levelo://app?vid=e89316dc-a19a-469f-a9cd-dc00b495757e"},"vehicle_type_id":"4","last_reported":1730052630,"current_range_meters":8800,"station_id":"","pricing_plan_id":"cebpf4jnsgd1na2vs0mg"},{"bike_id":"44ecac53-e2d5-4730-96e0-ba76290d5a54","system_id":"levelo_inurba_marseille","lat":43.26937,"lon":5.40249,"is_reserved":false,"is_disabled":false,"rental_uris":{"android":"levelo://app?vid=44ecac53-e2d5-4730-96e0-ba76290d5a54","ios":"levelo://app?vid=44ecac53-e2d5-4730-96e0-ba76290d5a54"},"vehicle_type_id":"4","last_reported":1730052630,"current_range_meters":26000,"station_id":"cjm6bp8fraef2m0cb0m0","pricing_plan_id":"cebpf4jnsgd1na2vs0mg"},{"bike_id":"af6dd805-bbf6-41bf-957c-2761ce8b51d2","system_id":"levelo_inurba_marseille","lat":43.31189,"lon":5.38715,"is_reserved":false,"is_disabled":false,"rental_uris":{"android":"levelo://app?vid=af6dd805-bbf6-41bf-957c-2761ce8b51d2","ios":"levelo://app?vid=af6dd805-bbf6-41bf-957c-2761ce8b51d2"},"vehicle_type_id":"4","last_reported":1730052630,"current_range_meters":19600,"station_id":"ce4bgv12rcd13ifvqcp0","pricing_plan_id":"cebpf4jnsgd1na2vs0mg"},{"bike_id":"81e500be-3ff6-45b1-af40-237783c8efb0","system_id":"levelo_inurba_marseille","lat":43.27815,"lon":5.40714,"is_reserved":false,"is_disabled":false,"rental_uris":{"android":"levelo://app?vid=81e500be-3ff6-45b1-af40-237783c8efb0","ios":"levelo://app?vid=81e500be-3ff6-45b1-af40-237783c8efb0"},"vehicle_type_id":"4","last_reported":1730052630,"current_range_meters":12800,"station_id":"ce4bhnh2rcd13ifvqgtg","pricing_plan_id":"cebpf4jnsgd1na2vs0mg"},{"bike_id":"d6fb5908-d1fc-4884-8bb8-5626f4d473ea","system_id":"levelo_inurba_marseille","lat":43.28415,"lon":5.37517,"is_reserved":false,"is_disabled":false,"rental_uris":{"android":"levelo://app?vid=d6fb5908-d1fc-4884-8bb8-5626f4d473ea","ios":"levelo://app?vid=d6fb5908-d1fc-4884-8bb8-5626f4d473ea"},"vehicle_type_id":"4","last_reported":1730052630,"current_range_meters":38800,"station_id":"ce4bh412rcd13ifvqds0","pricing_plan_id":"cebpf4jnsgd1na2vs0mg"},{"bike_id":"6d2bf913-bb07-4ede-bb43-4a8037eaa3ad","system_id":"levelo_inurba_marseille","lat":43.312267,"lon":5.36851,"is_reserved":false,"is_disabled":false,"rental_uris":{"android":"levelo://app?vid=6d2bf913-bb07-4ede-bb43-4a8037eaa3ad","ios":"levelo://app?vid=6d2bf913-bb07-4ede-bb43-4a8037eaa3ad"},"vehicle_type_id":"4","last_reported":1730052630,"current_range_meters":25600,"station_id":"ce4bgv92rcd13ifvqcq0","pricing_plan_id":"cebpf4jnsgd1na2vs0mg"},{"bike_id":"4cba82ce-bc9d-4359-b822-9e34e380e289","system_id":"levelo_inurba_marseille","lat":43.2798,"lon":5.38736,"is_reserved":false,"is_disabled":false,"rental_uris":{"android":"levelo://app?vid=4cba82ce-bc9d-4359-b822-9e34e380e289","ios":"levelo://app?vid=4cba82ce-bc9d-4359-b822-9e34e380e289"},"vehicle_type_id":"4","last_reported":1730052630,"current_range_meters":6800,"station_id":"ce4bhg12rcd13ifvqf80","pricing_plan_id":"cebpf4jnsgd1na2vs0mg"},{"bike_id":"6bf76440-2fea-4027-8249-55821876aebe","system_id":"levelo_inurba_marseille","lat":43.30902,"lon":5.36851,"is_reserved":false,"is_disabled":false,"rental_uris":{"android":"levelo://app?vid=6bf76440-2fea-4027-8249-55821876aebe","ios":"levelo://app?vid=6bf76440-2fea-4027-8249-55821876aebe"},"vehicle_type_id":"4","last_reported":1730052630,"current_range_meters":34800,"station_id":"ce4bgn92rcd13ifvqbvg","pricing_plan_id":"cebpf4jnsgd1na2vs0mg"},{"bike_id":"1e688e5b-8816-4f4c-9865-f7d670302519","system_id":"levelo_inurba_marseille","lat":43.27204,"lon":5.39194,"is_reserved":false,"is_disabled":false,"rental_uris":{"android":"levelo://app?vid=1e688e5b-8816-4f4c-9865-f7d670302519","ios":"levelo://app?vid=1e688e5b-8816-4f4c-9865-f7d670302519"},"vehicle_type_id":"4","last_reported":1730052630,"current_range_meters":10800,"station_id":"ce4bhhp2rcd13ifvqfm0","pricing_plan_id":"cebpf4jnsgd1na2vs0mg"},{"bike_id":"37260c40-28c0-4a0c-b6ff-6b467ba216bb","system_id":"levelo_inurba_marseille","lat":43.29276,"lon":5.38441,"is_reserved":false,"is_disabled":false,"rental_uris":{"android":"levelo://app?vid=37260c40-28c0-4a0c-b6ff-6b467ba216bb","ios":"levelo://app?vid=37260c40-28c0-4a0c-b6ff-6b467ba216bb"},"vehicle_type_id":"4","last_reported":1730052630,"current_range_meters":29600,"station_id":"ce4bh692rcd13ifvqea0","pricing_plan_id":"cebpf4jnsgd1na2vs0mg"},{"bike_id":"d6a3a88c-b04d-4cc1-94d2-159d7b43df64","system_id":"levelo_inurba_marseille","lat":43.262014,"lon":5.379307,"is_reserved":false,"is_disabled":false,"rental_uris":{"android":"levelo://app?vid=d6a3a88c-b04d-4cc1-94d2-159d7b43df64","ios":"levelo://app?vid=d6a3a88c-b04d-4cc1-94d2-159d7b43df64"},"vehicle_type_id":"4","last_reported":1730052630,"current_range_meters":38800,"station_id":"ce4bhjp2rcd13ifvqg90","pricing_plan_id":"cebpf4jnsgd1na2vs0mg"},{"bike_id":"4f40e012-ea5b-4575-9527-1f943967bef1","system_id":"levelo_inurba_marseille","lat":43.23961,"lon":5.36638,"is_reserved":false,"is_disabled":false,"rental_uris":{"android":"levelo://app?vid=4f40e012-ea5b-4575-9527-1f943967bef1","ios":"levelo://app?vid=4f40e012-ea5b-4575-9527-1f943967bef1"},"vehicle_type_id":"4","last_reported":1730052630,"current_range_meters":9200,"station_id":"ce4bhi12rcd13ifvqfp0","pricing_plan_id":"cebpf4jnsgd1na2vs0mg"},{"bike_id":"e7d10e46-db22-405f-aa54-83379ef50215","system_id":"levelo_inurba_marseille","lat":43.32486,"lon":5.36562,"is_reserved":false,"is_disabled":false,"rental_uris":{"android":"levelo://app?vid=e7d10e46-db22-405f-aa54-83379ef50215","ios":"levelo://app?vid=e7d10e46-db22-405f-aa54-83379ef50215"},"vehicle_type_id":"4","last_reported":1730052630,"current_range_meters":20400,"station_id":"ce4bhs12rcd13ifvqhvg","pricing_plan_id":"cebpf4jnsgd1na2vs0mg"},{"bike_id":"d478fb9a-499f-4736-8de4-a8f59da315ab","system_id":"levelo_inurba_marseille","lat":43.29798,"lon":5.38089,"is_reserved":false,"is_disabled":false,"rental_uris":{"android":"levelo://app?vid=d478fb9a-499f-4736-8de4-a8f59da315ab","ios":"levelo://app?vid=d478fb9a-499f-4736-8de4-a8f59da315ab"},"vehicle_type_id":"4","last_reported":1730052630,"current_range_meters":32800,"station_id":"ce4bgip2rcd13ifvqbb0","pricing_plan_id":"cebpf4jnsgd1na2vs0mg"},{"bike_id":"fa964e5e-a14d-480a-b24d-2f7c95aa3b26","system_id":"levelo_inurba_marseille","lat":43.28615,"lon":5.35102,"is_reserved":false,"is_disabled":false,"rental_uris":{"android":"levelo://app?vid=fa964e5e-a14d-480a-b24d-2f7c95aa3b26","ios":"levelo://app?vid=fa964e5e-a14d-480a-b24d-2f7c95aa3b26"},"vehicle_type_id":"4","last_reported":1730052630,"current_range_meters":8800,"station_id":"ce4bhch2rcd13ifvqeug","pricing_plan_id":"cebpf4jnsgd1na2vs0mg"},{"bike_id":"db49d887-04b4-448e-8edb-f0026302200b","system_id":"levelo_inurba_marseille","lat":43.30545,"lon":5.38427,"is_reserved":false,"is_disabled":false,"rental_uris":{"android":"levelo://app?vid=db49d887-04b4-448e-8edb-f0026302200b","ios":"levelo://app?vid=db49d887-04b4-448e-8edb-f0026302200b"},"vehicle_type_id":"4","last_reported":1730052630,"current_range_meters":5600,"station_id":"ce4bgg92rcd13ifvqb30","pricing_plan_id":"cebpf4jnsgd1na2vs0mg"},{"bike_id":"a64c9bae-96b6-4749-b19c-ac41d1700858","system_id":"levelo_inurba_marseille","lat":43.27495,"lon":5.42462,"is_reserved":false,"is_disabled":false,"rental_uris":{"android":"levelo://app?vid=a64c9bae-96b6-4749-b19c-ac41d1700858","ios":"levelo://app?vid=a64c9bae-96b6-4749-b19c-ac41d1700858"},"vehicle_type_id":"4","last_reported":1730052630,"current_range_meters":28400,"station_id":"ce4bhn92rcd13ifvqgrg","pricing_plan_id":"cebpf4jnsgd1na2vs0mg"},{"bike_id":"426706cd-74d4-4e72-89f0-56c9a8594b27","system_id":"levelo_inurba_marseille","lat":43.280731,"lon":5.396334,"is_reserved":false,"is_disabled":false,"rental_uris":{"android":"levelo://app?vid=426706cd-74d4-4e72-89f0-56c9a8594b27","ios":"levelo://app?vid=426706cd-74d4-4e72-89f0-56c9a8594b27"},"vehicle_type_id":"4","last_reported":1730052630,"current_range_meters":6400,"station_id":"ce4bho12rcd13ifvqh2g","pricing_plan_id":"cebpf4jnsgd1na2vs0mg"},{"bike_id":"c896475f-3b5b-4c16-a411-abd709298dc2","system_id":"levelo_inurba_marseille","lat":43.28178,"lon":5.378856,"is_reserved":false,"is_disabled":false,"rental_uris":{"android":"levelo://app?vid=c896475f-3b5b-4c16-a411-abd709298dc2","ios":"levelo://app?vid=c896475f-3b5b-4c16-a411-abd709298dc2"},"vehicle_type_id":"4","last_reported":1730052630,"current_range_meters":3600,"station_id":"ce4bha12rcd13ifvqee0","pricing_plan_id":"cebpf4jnsgd1na2vs0mg"},{"bike_id":"972a4e70-6e48-4020-a433-365c78e826ca","system_id":"levelo_inurba_marseille","lat":43.24813,"lon":5.37462,"is_reserved":false,"is_disabled":false,"rental_uris":{"android":"levelo://app?vid=972a4e70-6e48-4020-a433-365c78e826ca","ios":"levelo://app?vid=972a4e70-6e48-4020-a433-365c78e826ca"},"vehicle_type_id":"4","last_reported":1730052630,"current_range_meters":12800,"station_id":"ce4bhgh2rcd13ifvqfb0","pricing_plan_id":"cebpf4jnsgd1na2vs0mg"},{"bike_id":"a597067e-5a02-4cd3-a49e-9ab7663d0b2a","system_id":"levelo_inurba_marseille","lat":43.30398,"lon":5.3785,"is_reserved":false,"is_disabled":false,"rental_uris":{"android":"levelo://app?vid=a597067e-5a02-4cd3-a49e-9ab7663d0b2a","ios":"levelo://app?vid=a597067e-5a02-4cd3-a49e-9ab7663d0b2a"},"vehicle_type_id":"4","last_reported":1730052630,"current_range_meters":5600,"station_id":"","pricing_plan_id":"cebpf4jnsgd1na2vs0mg"},{"bike_id":"9367f4b5-d402-46a2-bc2b-146adf908793","system_id":"levelo_inurba_marseille","lat":43.29593,"lon":5.381,"is_reserved":false,"is_disabled":false,"rental_uris":{"android":"levelo://app?vid=9367f4b5-d402-46a2-bc2b-146adf908793","ios":"levelo://app?vid=9367f4b5-d402-46a2-bc2b-146adf908793"},"vehicle_type_id":"4","last_reported":1730052630,"current_range_meters":14000,"station_id":"ce4bgl12rcd13ifvqbo0","pricing_plan_id":"cebpf4jnsgd1na2vs0mg"},{"bike_id":"eb0cc4b2-4f7b-4eb1-9e37-2fafc9a93cfa","system_id":"levelo_inurba_marseille","lat":43.29905,"lon":5.38136,"is_reserved":false,"is_disabled":false,"rental_uris":{"android":"levelo://app?vid=eb0cc4b2-4f7b-4eb1-9e37-2fafc9a93cfa","ios":"levelo://app?vid=eb0cc4b2-4f7b-4eb1-9e37-2fafc9a93cfa"},"vehicle_type_id":"4","last_reported":1730052630,"current_range_meters":33200,"station_id":"ce4bgj12rcd13ifvqbc0","pricing_plan_id":"cebpf4jnsgd1na2vs0mg"},{"bike_id":"55bb0672-87e1-4e21-b8d6-3703fdb46e36","system_id":"levelo_inurba_marseille","lat":43.28463,"lon":5.35888,"is_reserved":false,"is_disabled":false,"rental_uris":{"android":"levelo://app?vid=55bb0672-87e1-4e21-b8d6-3703fdb46e36","ios":"levelo://app?vid=55bb0672-87e1-4e21-b8d6-3703fdb46e36"},"vehicle_type_id":"4","last_reported":1730052630,"current_range_meters":26000,"station_id":"ce4bhah2rcd13ifvqei0","pricing_plan_id":"cebpf4jnsgd1na2vs0mg"},{"bike_id":"e2732363-8e1b-45e7-a618-8dda5d1a4482","system_id":"levelo_inurba_marseille","lat":43.23965,"lon":5.36629,"is_reserved":false,"is_disabled":false,"rental_uris":{"android":"levelo://app?vid=e2732363-8e1b-45e7-a618-8dda5d1a4482","ios":"levelo://app?vid=e2732363-8e1b-45e7-a618-8dda5d1a4482"},"vehicle_type_id":"4","last_reported":1730052630,"current_range_meters":9600,"station_id":"ce4bhi12rcd13ifvqfp0","pricing_plan_id":"cebpf4jnsgd1na2vs0mg"},{"bike_id":"0c0bdbd4-962a-4608-a595-94e7794fe001","system_id":"levelo_inurba_marseille","lat":43.295513,"lon":5.374585,"is_reserved":false,"is_disabled":false,"rental_uris":{"android":"levelo://app?vid=0c0bdbd4-962a-4608-a595-94e7794fe001","ios":"levelo://app?vid=0c0bdbd4-962a-4608-a595-94e7794fe001"},"vehicle_type_id":"4","last_reported":1730052630,"current_range_meters":28000,"station_id":"ce4bgkp2rcd13ifvqbmg","pricing_plan_id":"cebpf4jnsgd1na2vs0mg"},{"bike_id":"4bd55ce5-dbcc-4590-88f2-cc22411c2e9d","system_id":"levelo_inurba_marseille","lat":43.287,"lon":5.3739,"is_reserved":false,"is_disabled":false,"rental_uris":{"android":"levelo://app?vid=4bd55ce5-dbcc-4590-88f2-cc22411c2e9d","ios":"levelo://app?vid=4bd55ce5-dbcc-4590-88f2-cc22411c2e9d"},"vehicle_type_id":"4","last_reported":1730052630,"current_range_meters":36800,"station_id":"ce4bh3p2rcd13ifvqdq0","pricing_plan_id":"cebpf4jnsgd1na2vs0mg"},{"bike_id":"31097900-bf5c-4911-bc90-6b746fd74e40","system_id":"levelo_inurba_marseille","lat":43.29418,"lon":5.38619,"is_reserved":false,"is_disabled":false,"rental_uris":{"android":"levelo://app?vid=31097900-bf5c-4911-bc90-6b746fd74e40","ios":"levelo://app?vid=31097900-bf5c-4911-bc90-6b746fd74e40"},"vehicle_type_id":"4","last_reported":1730052630,"current_range_meters":6400,"station_id":"ce4bh2h2rcd13ifvqdh0","pricing_plan_id":"cebpf4jnsgd1na2vs0mg"},{"bike_id":"773f4e80-11eb-4c44-9f7f-4ca9ff1ff766","system_id":"levelo_inurba_marseille","lat":43.28857,"lon":5.39302,"is_reserved":false,"is_disabled":false,"rental_uris":{"android":"levelo://app?vid=773f4e80-11eb-4c44-9f7f-4ca9ff1ff766","ios":"levelo://app?vid=773f4e80-11eb-4c44-9f7f-4ca9ff1ff766"},"vehicle_type_id":"4","last_reported":1730052630,"current_range_meters":3600,"station_id":"ce4bh2p2rcd13ifvqdi0","pricing_plan_id":"cebpf4jnsgd1na2vs0mg"},{"bike_id":"26be0b3f-01be-4b09-b2eb-10da1d419afa","system_id":"levelo_inurba_marseille","lat":43.27322,"lon":5.39096,"is_reserved":false,"is_disabled":false,"rental_uris":{"android":"levelo://app?vid=26be0b3f-01be-4b09-b2eb-10da1d419afa","ios":"levelo://app?vid=26be0b3f-01be-4b09-b2eb-10da1d419afa"},"vehicle_type_id":"4","last_reported":1730052630,"current_range_meters":8800,"station_id":"ce4bhgp2rcd13ifvqfe0","pricing_plan_id":"cebpf4jnsgd1na2vs0mg"},{"bike_id":"24f91a7f-dbe8-42c4-827a-a46fd3f3363c","system_id":"levelo_inurba_marseille","lat":43.27319,"lon":5.39076,"is_reserved":false,"is_disabled":false,"rental_uris":{"android":"levelo://app?vid=24f91a7f-dbe8-42c4-827a-a46fd3f3363c","ios":"levelo://app?vid=24f91a7f-dbe8-42c4-827a-a46fd3f3363c"},"vehicle_type_id":"4","last_reported":1730052630,"current_range_meters":34000,"station_id":"ce4bhgp2rcd13ifvqfe0","pricing_plan_id":"cebpf4jnsgd1na2vs0mg"},{"bike_id":"943ac5db-b8bd-4d10-8ccf-d7063e0b79a3","system_id":"levelo_inurba_marseille","lat":43.281563,"lon":5.426429,"is_reserved":false,"is_disabled":false,"rental_uris":{"android":"levelo://app?vid=943ac5db-b8bd-4d10-8ccf-d7063e0b79a3","ios":"levelo://app?vid=943ac5db-b8bd-4d10-8ccf-d7063e0b79a3"},"vehicle_type_id":"4","last_reported":1730052630,"current_range_meters":28000,"station_id":"ce4bhnh2rcd13ifvqgug","pricing_plan_id":"cebpf4jnsgd1na2vs0mg"},{"bike_id":"3fc8e740-6054-4060-8d82-25cffeee7ffc","system_id":"levelo_inurba_marseille","lat":43.29857,"lon":5.39747,"is_reserved":false,"is_disabled":false,"rental_uris":{"android":"levelo://app?vid=3fc8e740-6054-4060-8d82-25cffeee7ffc","ios":"levelo://app?vid=3fc8e740-6054-4060-8d82-25cffeee7ffc"},"vehicle_type_id":"4","last_reported":1730052630,"current_range_meters":26000,"station_id":"ce4bh0h2rcd13ifvqd50","pricing_plan_id":"cebpf4jnsgd1na2vs0mg"},{"bike_id":"4c387455-2cb2-4987-b1d0-7de15d95e5ef","system_id":"levelo_inurba_marseille","lat":43.2721,"lon":5.39184,"is_reserved":false,"is_disabled":false,"rental_uris":{"android":"levelo://app?vid=4c387455-2cb2-4987-b1d0-7de15d95e5ef","ios":"levelo://app?vid=4c387455-2cb2-4987-b1d0-7de15d95e5ef"},"vehicle_type_id":"4","last_reported":1730052630,"current_range_meters":6000,"station_id":"ce4bhhp2rcd13ifvqfm0","pricing_plan_id":"cebpf4jnsgd1na2vs0mg"},{"bike_id":"948409b1-2e13-44d2-9c41-58388bffb9ba","system_id":"levelo_inurba_marseille","lat":43.28468,"lon":5.38419,"is_reserved":false,"is_disabled":false,"rental_uris":{"android":"levelo://app?vid=948409b1-2e13-44d2-9c41-58388bffb9ba","ios":"levelo://app?vid=948409b1-2e13-44d2-9c41-58388bffb9ba"},"vehicle_type_id":"4","last_reported":1730052630,"current_range_meters":6400,"station_id":"ce4bh512rcd13ifvqe3g","pricing_plan_id":"cebpf4jnsgd1na2vs0mg"},{"bike_id":"046902ab-4f6c-4d04-8a2c-1c911dd6a13f","system_id":"levelo_inurba_marseille","lat":43.26781,"lon":5.39413,"is_reserved":false,"is_disabled":false,"rental_uris":{"android":"levelo://app?vid=046902ab-4f6c-4d04-8a2c-1c911dd6a13f","ios":"levelo://app?vid=046902ab-4f6c-4d04-8a2c-1c911dd6a13f"},"vehicle_type_id":"4","last_reported":1730052630,"current_range_meters":5600,"station_id":"ce4bhh12rcd13ifvqfg0","pricing_plan_id":"cebpf4jnsgd1na2vs0mg"},{"bike_id":"e49103e6-4dc1-498f-8c5c-9341215d0efa","system_id":"levelo_inurba_marseille","lat":43.26936,"lon":5.38922,"is_reserved":false,"is_disabled":false,"rental_uris":{"android":"levelo://app?vid=e49103e6-4dc1-498f-8c5c-9341215d0efa","ios":"levelo://app?vid=e49103e6-4dc1-498f-8c5c-9341215d0efa"},"vehicle_type_id":"4","last_reported":1730052630,"current_range_meters":18800,"station_id":"ce4bhhh2rcd13ifvqfl0","pricing_plan_id":"cebpf4jnsgd1na2vs0mg"},{"bike_id":"c9eb749b-627f-4321-b6c5-4885d0ce6d28","system_id":"levelo_inurba_marseille","lat":43.27319,"lon":5.3908,"is_reserved":false,"is_disabled":false,"rental_uris":{"android":"levelo://app?vid=c9eb749b-627f-4321-b6c5-4885d0ce6d28","ios":"levelo://app?vid=c9eb749b-627f-4321-b6c5-4885d0ce6d28"},"vehicle_type_id":"4","last_reported":1730052630,"current_range_meters":7200,"station_id":"ce4bhgp2rcd13ifvqfe0","pricing_plan_id":"cebpf4jnsgd1na2vs0mg"},{"bike_id":"aea18959-def8-4c0c-bca6-5d2d92845fa4","system_id":"levelo_inurba_marseille","lat":43.26947,"lon":5.40253,"is_reserved":false,"is_disabled":false,"rental_uris":{"android":"levelo://app?vid=aea18959-def8-4c0c-bca6-5d2d92845fa4","ios":"levelo://app?vid=aea18959-def8-4c0c-bca6-5d2d92845fa4"},"vehicle_type_id":"4","last_reported":1730052630,"current_range_meters":8400,"station_id":"cjm6bp8fraef2m0cb0m0","pricing_plan_id":"cebpf4jnsgd1na2vs0mg"},{"bike_id":"a10c3ce2-5522-4ae1-ba9e-4725d3f64a4b","system_id":"levelo_inurba_marseille","lat":43.29266,"lon":5.38448,"is_reserved":false,"is_disabled":false,"rental_uris":{"android":"levelo://app?vid=a10c3ce2-5522-4ae1-ba9e-4725d3f64a4b","ios":"levelo://app?vid=a10c3ce2-5522-4ae1-ba9e-4725d3f64a4b"},"vehicle_type_id":"4","last_reported":1730052630,"current_range_meters":27200,"station_id":"ce4bh692rcd13ifvqea0","pricing_plan_id":"cebpf4jnsgd1na2vs0mg"},{"bike_id":"fb982107-1b0c-4648-9af1-fd20a992fa3f","system_id":"levelo_inurba_marseille","lat":43.33012,"lon":5.39038,"is_reserved":false,"is_disabled":false,"rental_uris":{"android":"levelo://app?vid=fb982107-1b0c-4648-9af1-fd20a992fa3f","ios":"levelo://app?vid=fb982107-1b0c-4648-9af1-fd20a992fa3f"},"vehicle_type_id":"4","last_reported":1730052630,"current_range_meters":27600,"station_id":"ce4bhr92rcd13ifvqhrg","pricing_plan_id":"cebpf4jnsgd1na2vs0mg"},{"bike_id":"e9161169-bf96-4d0e-aa7b-58a20bb22718","system_id":"levelo_inurba_marseille","lat":43.2942,"lon":5.38615,"is_reserved":false,"is_disabled":false,"rental_uris":{"android":"levelo://app?vid=e9161169-bf96-4d0e-aa7b-58a20bb22718","ios":"levelo://app?vid=e9161169-bf96-4d0e-aa7b-58a20bb22718"},"vehicle_type_id":"4","last_reported":1730052630,"current_range_meters":38800,"station_id":"ce4bh2h2rcd13ifvqdh0","pricing_plan_id":"cebpf4jnsgd1na2vs0mg"},{"bike_id":"1038e9a3-c91c-4116-bb97-2e59525110fc","system_id":"levelo_inurba_marseille","lat":43.24802,"lon":5.37456,"is_reserved":false,"is_disabled":false,"rental_uris":{"android":"levelo://app?vid=1038e9a3-c91c-4116-bb97-2e59525110fc","ios":"levelo://app?vid=1038e9a3-c91c-4116-bb97-2e59525110fc"},"vehicle_type_id":"4","last_reported":1730052630,"current_range_meters":38800,"station_id":"ce4bhgh2rcd13ifvqfb0","pricing_plan_id":"cebpf4jnsgd1na2vs0mg"},{"bike_id":"0d77502e-cd6c-4fc1-a328-2e2b107ceb1b","system_id":"levelo_inurba_marseille","lat":43.25927,"lon":5.40917,"is_reserved":false,"is_disabled":false,"rental_uris":{"android":"levelo://app?vid=0d77502e-cd6c-4fc1-a328-2e2b107ceb1b","ios":"levelo://app?vid=0d77502e-cd6c-4fc1-a328-2e2b107ceb1b"},"vehicle_type_id":"4","last_reported":1730052630,"current_range_meters":38800,"station_id":"ce4bhm92rcd13ifvqglg","pricing_plan_id":"cebpf4jnsgd1na2vs0mg"},{"bike_id":"e9fdb513-f417-42c5-953a-a44140c0ab7a","system_id":"levelo_inurba_marseille","lat":43.27814,"lon":5.40713,"is_reserved":false,"is_disabled":false,"rental_uris":{"android":"levelo://app?vid=e9fdb513-f417-42c5-953a-a44140c0ab7a","ios":"levelo://app?vid=e9fdb513-f417-42c5-953a-a44140c0ab7a"},"vehicle_type_id":"4","last_reported":1730052630,"current_range_meters":36800,"station_id":"ce4bhnh2rcd13ifvqgtg","pricing_plan_id":"cebpf4jnsgd1na2vs0mg"},{"bike_id":"391fbc62-97c7-4342-bcf0-bb90669595ba","system_id":"levelo_inurba_marseille","lat":43.24081,"lon":5.37751,"is_reserved":false,"is_disabled":false,"rental_uris":{"android":"levelo://app?vid=391fbc62-97c7-4342-bcf0-bb90669595ba","ios":"levelo://app?vid=391fbc62-97c7-4342-bcf0-bb90669595ba"},"vehicle_type_id":"4","last_reported":1730052630,"current_range_meters":36000,"station_id":"ce4bhnp2rcd13ifvqgvg","pricing_plan_id":"cebpf4jnsgd1na2vs0mg"},{"bike_id":"4077784f-372a-49fa-b8bd-b7d23d11cffd","system_id":"levelo_inurba_marseille","lat":43.31357,"lon":5.3672,"is_reserved":false,"is_disabled":false,"rental_uris":{"android":"levelo://app?vid=4077784f-372a-49fa-b8bd-b7d23d11cffd","ios":"levelo://app?vid=4077784f-372a-49fa-b8bd-b7d23d11cffd"},"vehicle_type_id":"4","last_reported":1730052630,"current_range_meters":38400,"station_id":"ce4bgr92rcd13ifvqc6g","pricing_plan_id":"cebpf4jnsgd1na2vs0mg"},{"bike_id":"8f45e056-5d5e-49d0-b203-075732211fe4","system_id":"levelo_inurba_marseille","lat":43.24542,"lon":5.39517,"is_reserved":false,"is_disabled":false,"rental_uris":{"android":"levelo://app?vid=8f45e056-5d5e-49d0-b203-075732211fe4","ios":"levelo://app?vid=8f45e056-5d5e-49d0-b203-075732211fe4"},"vehicle_type_id":"4","last_reported":1730052630,"current_range_meters":38800,"station_id":"ce4bhlp2rcd13ifvqgjg","pricing_plan_id":"cebpf4jnsgd1na2vs0mg"},{"bike_id":"3c447e9e-f665-4c94-b4f7-b1a1adbf746d","system_id":"levelo_inurba_marseille","lat":43.24748,"lon":5.38012,"is_reserved":false,"is_disabled":false,"rental_uris":{"android":"levelo://app?vid=3c447e9e-f665-4c94-b4f7-b1a1adbf746d","ios":"levelo://app?vid=3c447e9e-f665-4c94-b4f7-b1a1adbf746d"},"vehicle_type_id":"4","last_reported":1730052630,"current_range_meters":6800,"station_id":"","pricing_plan_id":"cebpf4jnsgd1na2vs0mg"},{"bike_id":"9ea70cd8-36ff-4eda-afe7-a81ff4919c5d","system_id":"levelo_inurba_marseille","lat":43.2926,"lon":5.38445,"is_reserved":false,"is_disabled":false,"rental_uris":{"android":"levelo://app?vid=9ea70cd8-36ff-4eda-afe7-a81ff4919c5d","ios":"levelo://app?vid=9ea70cd8-36ff-4eda-afe7-a81ff4919c5d"},"vehicle_type_id":"4","last_reported":1730052630,"current_range_meters":37600,"station_id":"ce4bh692rcd13ifvqea0","pricing_plan_id":"cebpf4jnsgd1na2vs0mg"},{"bike_id":"5d71c00b-2bc4-484e-80f1-7111bf1fdcfa","system_id":"levelo_inurba_marseille","lat":43.29726,"lon":5.3769,"is_reserved":false,"is_disabled":false,"rental_uris":{"android":"levelo://app?vid=5d71c00b-2bc4-484e-80f1-7111bf1fdcfa","ios":"levelo://app?vid=5d71c00b-2bc4-484e-80f1-7111bf1fdcfa"},"vehicle_type_id":"4","last_reported":1730052630,"current_range_meters":6800,"station_id":"ce4bgkh2rcd13ifvqbl0","pricing_plan_id":"cebpf4jnsgd1na2vs0mg"},{"bike_id":"4b0f9ffc-effd-41e4-aea9-9d6cd4732824","system_id":"levelo_inurba_marseille","lat":43.27428,"lon":5.39423,"is_reserved":false,"is_disabled":false,"rental_uris":{"android":"levelo://app?vid=4b0f9ffc-effd-41e4-aea9-9d6cd4732824","ios":"levelo://app?vid=4b0f9ffc-effd-41e4-aea9-9d6cd4732824"},"vehicle_type_id":"4","last_reported":1730052630,"current_range_meters":38800,"station_id":"ce4bhdp2rcd13ifvqf20","pricing_plan_id":"cebpf4jnsgd1na2vs0mg"},{"bike_id":"84a4e669-70af-4308-bcdf-aee8700e0b5f","system_id":"levelo_inurba_marseille","lat":43.24801,"lon":5.37456,"is_reserved":false,"is_disabled":false,"rental_uris":{"android":"levelo://app?vid=84a4e669-70af-4308-bcdf-aee8700e0b5f","ios":"levelo://app?vid=84a4e669-70af-4308-bcdf-aee8700e0b5f"},"vehicle_type_id":"4","last_reported":1730052630,"current_range_meters":25200,"station_id":"ce4bhgh2rcd13ifvqfb0","pricing_plan_id":"cebpf4jnsgd1na2vs0mg"},{"bike_id":"1223fa32-0ba9-41ab-b9f6-808ea3395c61","system_id":"levelo_inurba_marseille","lat":43.29259,"lon":5.38441,"is_reserved":false,"is_disabled":false,"rental_uris":{"android":"levelo://app?vid=1223fa32-0ba9-41ab-b9f6-808ea3395c61","ios":"levelo://app?vid=1223fa32-0ba9-41ab-b9f6-808ea3395c61"},"vehicle_type_id":"4","last_reported":1730052630,"current_range_meters":37600,"station_id":"ce4bh692rcd13ifvqea0","pricing_plan_id":"cebpf4jnsgd1na2vs0mg"},{"bike_id":"bffe628d-d270-46c6-a070-1cc4d249c393","system_id":"levelo_inurba_marseille","lat":43.30597,"lon":5.37234,"is_reserved":false,"is_disabled":false,"rental_uris":{"android":"levelo://app?vid=bffe628d-d270-46c6-a070-1cc4d249c393","ios":"levelo://app?vid=bffe628d-d270-46c6-a070-1cc4d249c393"},"vehicle_type_id":"4","last_reported":1730052630,"current_range_meters":30000,"station_id":"ce4bgqh2rcd13ifvqc4g","pricing_plan_id":"cebpf4jnsgd1na2vs0mg"},{"bike_id":"9110a3bb-1a3f-4209-bbaf-b5471f246ae2","system_id":"levelo_inurba_marseille","lat":43.24715,"lon":5.39654,"is_reserved":false,"is_disabled":false,"rental_uris":{"android":"levelo://app?vid=9110a3bb-1a3f-4209-bbaf-b5471f246ae2","ios":"levelo://app?vid=9110a3bb-1a3f-4209-bbaf-b5471f246ae2"},"vehicle_type_id":"4","last_reported":1730052630,"current_range_meters":16400,"station_id":"","pricing_plan_id":"cebpf4jnsgd1na2vs0mg"},{"bike_id":"94b2ebfd-cd8f-4020-b98f-dc441e8b26a0","system_id":"levelo_inurba_marseille","lat":43.29782,"lon":5.39339,"is_reserved":false,"is_disabled":false,"rental_uris":{"android":"levelo://app?vid=94b2ebfd-cd8f-4020-b98f-dc441e8b26a0","ios":"levelo://app?vid=94b2ebfd-cd8f-4020-b98f-dc441e8b26a0"},"vehicle_type_id":"4","last_reported":1730052630,"current_range_meters":32800,"station_id":"chh1huq6cuj3fo74tm60","pricing_plan_id":"cebpf4jnsgd1na2vs0mg"},{"bike_id":"ddc73c40-5fda-4166-9894-2c12bc47834c","system_id":"levelo_inurba_marseille","lat":43.32357,"lon":5.38971,"is_reserved":false,"is_disabled":false,"rental_uris":{"android":"levelo://app?vid=ddc73c40-5fda-4166-9894-2c12bc47834c","ios":"levelo://app?vid=ddc73c40-5fda-4166-9894-2c12bc47834c"},"vehicle_type_id":"4","last_reported":1730052630,"current_range_meters":25600,"station_id":"","pricing_plan_id":"cebpf4jnsgd1na2vs0mg"},{"bike_id":"84b35a89-e7ad-45f0-b359-559aefc708d0","system_id":"levelo_inurba_marseille","lat":43.32,"lon":5.38158,"is_reserved":false,"is_disabled":false,"rental_uris":{"android":"levelo://app?vid=84b35a89-e7ad-45f0-b359-559aefc708d0","ios":"levelo://app?vid=84b35a89-e7ad-45f0-b359-559aefc708d0"},"vehicle_type_id":"4","last_reported":1730052630,"current_range_meters":22400,"station_id":"ce4bhr12rcd13ifvqhpg","pricing_plan_id":"cebpf4jnsgd1na2vs0mg"},{"bike_id":"f1a7e4f7-1bb2-473c-9228-bdd139fd1cae","system_id":"levelo_inurba_marseille","lat":43.31713,"lon":5.37749,"is_reserved":false,"is_disabled":false,"rental_uris":{"android":"levelo://app?vid=f1a7e4f7-1bb2-473c-9228-bdd139fd1cae","ios":"levelo://app?vid=f1a7e4f7-1bb2-473c-9228-bdd139fd1cae"},"vehicle_type_id":"4","last_reported":1730052630,"current_range_meters":38800,"station_id":"ce4bgth2rcd13ifvqch0","pricing_plan_id":"cebpf4jnsgd1na2vs0mg"},{"bike_id":"f50a249f-7595-4010-a21a-a218c3559aca","system_id":"levelo_inurba_marseille","lat":43.29594,"lon":5.38102,"is_reserved":false,"is_disabled":false,"rental_uris":{"android":"levelo://app?vid=f50a249f-7595-4010-a21a-a218c3559aca","ios":"levelo://app?vid=f50a249f-7595-4010-a21a-a218c3559aca"},"vehicle_type_id":"4","last_reported":1730052630,"current_range_meters":16400,"station_id":"ce4bgl12rcd13ifvqbo0","pricing_plan_id":"cebpf4jnsgd1na2vs0mg"},{"bike_id":"fd0f7cc6-0b22-4640-8013-42d5234a6b87","system_id":"levelo_inurba_marseille","lat":43.29411,"lon":5.43059,"is_reserved":false,"is_disabled":false,"rental_uris":{"android":"levelo://app?vid=fd0f7cc6-0b22-4640-8013-42d5234a6b87","ios":"levelo://app?vid=fd0f7cc6-0b22-4640-8013-42d5234a6b87"},"vehicle_type_id":"4","last_reported":1730052630,"current_range_meters":23200,"station_id":"ce4bh192rcd13ifvqdc0","pricing_plan_id":"cebpf4jnsgd1na2vs0mg"},{"bike_id":"f9e77992-807e-49b0-8273-b164e77c8d9c","system_id":"levelo_inurba_marseille","lat":43.31991,"lon":5.38158,"is_reserved":false,"is_disabled":false,"rental_uris":{"android":"levelo://app?vid=f9e77992-807e-49b0-8273-b164e77c8d9c","ios":"levelo://app?vid=f9e77992-807e-49b0-8273-b164e77c8d9c"},"vehicle_type_id":"4","last_reported":1730052630,"current_range_meters":36800,"station_id":"ce4bhr12rcd13ifvqhpg","pricing_plan_id":"cebpf4jnsgd1na2vs0mg"},{"bike_id":"4031797c-de58-4816-b066-da61832761a4","system_id":"levelo_inurba_marseille","lat":43.29304,"lon":5.37174,"is_reserved":false,"is_disabled":false,"rental_uris":{"android":"levelo://app?vid=4031797c-de58-4816-b066-da61832761a4","ios":"levelo://app?vid=4031797c-de58-4816-b066-da61832761a4"},"vehicle_type_id":"4","last_reported":1730052630,"current_range_meters":21600,"station_id":"ce4bgh92rcd13ifvqb40","pricing_plan_id":"cebpf4jnsgd1na2vs0mg"},{"bike_id":"75392f16-babc-43c9-bdf6-3ffebf882f15","system_id":"levelo_inurba_marseille","lat":43.248,"lon":5.37453,"is_reserved":false,"is_disabled":false,"rental_uris":{"android":"levelo://app?vid=75392f16-babc-43c9-bdf6-3ffebf882f15","ios":"levelo://app?vid=75392f16-babc-43c9-bdf6-3ffebf882f15"},"vehicle_type_id":"4","last_reported":1730052630,"current_range_meters":32000,"station_id":"ce4bhgh2rcd13ifvqfb0","pricing_plan_id":"cebpf4jnsgd1na2vs0mg"},{"bike_id":"210b7785-fe61-4bec-bd2e-3f8e47f47e5a","system_id":"levelo_inurba_marseille","lat":43.29247,"lon":5.40914,"is_reserved":false,"is_disabled":false,"rental_uris":{"android":"levelo://app?vid=210b7785-fe61-4bec-bd2e-3f8e47f47e5a","ios":"levelo://app?vid=210b7785-fe61-4bec-bd2e-3f8e47f47e5a"},"vehicle_type_id":"4","last_reported":1730052630,"current_range_meters":38800,"station_id":"ce4bh192rcd13ifvqdc0","pricing_plan_id":"cebpf4jnsgd1na2vs0mg"},{"bike_id":"4c9d0b50-b4cf-4991-8c81-3e10eae1c2a3","system_id":"levelo_inurba_marseille","lat":43.31087,"lon":5.42433,"is_reserved":false,"is_disabled":false,"rental_uris":{"android":"levelo://app?vid=4c9d0b50-b4cf-4991-8c81-3e10eae1c2a3","ios":"levelo://app?vid=4c9d0b50-b4cf-4991-8c81-3e10eae1c2a3"},"vehicle_type_id":"4","last_reported":1730052630,"current_range_meters":39200,"station_id":"ce4bhp92rcd13ifvqhag","pricing_plan_id":"cebpf4jnsgd1na2vs0mg"},{"bike_id":"da3e38ca-ea18-4642-b0bf-686ae3123dd7","system_id":"levelo_inurba_marseille","lat":43.27553,"lon":5.38428,"is_reserved":false,"is_disabled":false,"rental_uris":{"android":"levelo://app?vid=da3e38ca-ea18-4642-b0bf-686ae3123dd7","ios":"levelo://app?vid=da3e38ca-ea18-4642-b0bf-686ae3123dd7"},"vehicle_type_id":"4","last_reported":1730052630,"current_range_meters":36400,"station_id":"ce4bhh92rcd13ifvqfi0","pricing_plan_id":"cebpf4jnsgd1na2vs0mg"},{"bike_id":"aace9f84-e0d1-4cca-a773-b33c8e89d5ff","system_id":"levelo_inurba_marseille","lat":43.27318,"lon":5.39092,"is_reserved":false,"is_disabled":false,"rental_uris":{"android":"levelo://app?vid=aace9f84-e0d1-4cca-a773-b33c8e89d5ff","ios":"levelo://app?vid=aace9f84-e0d1-4cca-a773-b33c8e89d5ff"},"vehicle_type_id":"4","last_reported":1730052630,"current_range_meters":38000,"station_id":"ce4bhgp2rcd13ifvqfe0","pricing_plan_id":"cebpf4jnsgd1na2vs0mg"},{"bike_id":"9f43f0f7-16ee-48c9-b419-a7dc3969b944","system_id":"levelo_inurba_marseille","lat":43.29731,"lon":5.37681,"is_reserved":false,"is_disabled":false,"rental_uris":{"android":"levelo://app?vid=9f43f0f7-16ee-48c9-b419-a7dc3969b944","ios":"levelo://app?vid=9f43f0f7-16ee-48c9-b419-a7dc3969b944"},"vehicle_type_id":"4","last_reported":1730052630,"current_range_meters":36800,"station_id":"ce4bgkh2rcd13ifvqbl0","pricing_plan_id":"cebpf4jnsgd1na2vs0mg"},{"bike_id":"266575d8-09f9-4cd7-833a-204d10e502df","system_id":"levelo_inurba_marseille","lat":43.32104,"lon":5.3677,"is_reserved":false,"is_disabled":false,"rental_uris":{"android":"levelo://app?vid=266575d8-09f9-4cd7-833a-204d10e502df","ios":"levelo://app?vid=266575d8-09f9-4cd7-833a-204d10e502df"},"vehicle_type_id":"4","last_reported":1730052630,"current_range_meters":34000,"station_id":"ce4bhrh2rcd13ifvqhug","pricing_plan_id":"cebpf4jnsgd1na2vs0mg"},{"bike_id":"3f025246-4560-44e4-ae02-ea0f254b1cee","system_id":"levelo_inurba_marseille","lat":43.292044,"lon":5.35798,"is_reserved":false,"is_disabled":false,"rental_uris":{"android":"levelo://app?vid=3f025246-4560-44e4-ae02-ea0f254b1cee","ios":"levelo://app?vid=3f025246-4560-44e4-ae02-ea0f254b1cee"},"vehicle_type_id":"4","last_reported":1730052630,"current_range_meters":38800,"station_id":"ce4bhb12rcd13ifvqel0","pricing_plan_id":"cebpf4jnsgd1na2vs0mg"},{"bike_id":"217f06de-35a0-4998-8f8f-58d1811b874d","system_id":"levelo_inurba_marseille","lat":43.24389,"lon":5.3706,"is_reserved":false,"is_disabled":false,"rental_uris":{"android":"levelo://app?vid=217f06de-35a0-4998-8f8f-58d1811b874d","ios":"levelo://app?vid=217f06de-35a0-4998-8f8f-58d1811b874d"},"vehicle_type_id":"4","last_reported":1730052630,"current_range_meters":20000,"station_id":"ce4bhhh2rcd13ifvqfk0","pricing_plan_id":"cebpf4jnsgd1na2vs0mg"},{"bike_id":"8f449abf-12f1-42a4-b3ce-f19a35f91d47","system_id":"levelo_inurba_marseille","lat":43.27424,"lon":5.39434,"is_reserved":false,"is_disabled":false,"rental_uris":{"android":"levelo://app?vid=8f449abf-12f1-42a4-b3ce-f19a35f91d47","ios":"levelo://app?vid=8f449abf-12f1-42a4-b3ce-f19a35f91d47"},"vehicle_type_id":"4","last_reported":1730052630,"current_range_meters":23200,"station_id":"ce4bhdp2rcd13ifvqf20","pricing_plan_id":"cebpf4jnsgd1na2vs0mg"},{"bike_id":"7881addd-6b01-48d7-b3c3-c71b65dfa55e","system_id":"levelo_inurba_marseille","lat":43.305396,"lon":5.384238,"is_reserved":false,"is_disabled":false,"rental_uris":{"android":"levelo://app?vid=7881addd-6b01-48d7-b3c3-c71b65dfa55e","ios":"levelo://app?vid=7881addd-6b01-48d7-b3c3-c71b65dfa55e"},"vehicle_type_id":"4","last_reported":1730052630,"current_range_meters":7200,"station_id":"ce4bgg92rcd13ifvqb30","pricing_plan_id":"cebpf4jnsgd1na2vs0mg"},{"bike_id":"4b0d4ecf-5f74-4723-b7df-9f87888a779f","system_id":"levelo_inurba_marseille","lat":43.26783,"lon":5.39418,"is_reserved":false,"is_disabled":false,"rental_uris":{"android":"levelo://app?vid=4b0d4ecf-5f74-4723-b7df-9f87888a779f","ios":"levelo://app?vid=4b0d4ecf-5f74-4723-b7df-9f87888a779f"},"vehicle_type_id":"4","last_reported":1730052630,"current_range_meters":16800,"station_id":"ce4bhh12rcd13ifvqfg0","pricing_plan_id":"cebpf4jnsgd1na2vs0mg"},{"bike_id":"4f62fe7a-0923-4ea1-b3d5-e7c2a20211ef","system_id":"levelo_inurba_marseille","lat":43.30321,"lon":5.36895,"is_reserved":false,"is_disabled":false,"rental_uris":{"android":"levelo://app?vid=4f62fe7a-0923-4ea1-b3d5-e7c2a20211ef","ios":"levelo://app?vid=4f62fe7a-0923-4ea1-b3d5-e7c2a20211ef"},"vehicle_type_id":"4","last_reported":1730052630,"current_range_meters":38800,"station_id":"ce4bgqh2rcd13ifvqc5g","pricing_plan_id":"cebpf4jnsgd1na2vs0mg"},{"bike_id":"06ba2485-31ab-427e-9b7e-6732acabebe7","system_id":"levelo_inurba_marseille","lat":43.29322,"lon":5.41157,"is_reserved":false,"is_disabled":false,"rental_uris":{"android":"levelo://app?vid=06ba2485-31ab-427e-9b7e-6732acabebe7","ios":"levelo://app?vid=06ba2485-31ab-427e-9b7e-6732acabebe7"},"vehicle_type_id":"4","last_reported":1730052630,"current_range_meters":4800,"station_id":"","pricing_plan_id":"cebpf4jnsgd1na2vs0mg"},{"bike_id":"2dd48a49-5839-4d2d-9ec5-ebe20e0c64d7","system_id":"levelo_inurba_marseille","lat":43.26193,"lon":5.37448,"is_reserved":false,"is_disabled":false,"rental_uris":{"android":"levelo://app?vid=2dd48a49-5839-4d2d-9ec5-ebe20e0c64d7","ios":"levelo://app?vid=2dd48a49-5839-4d2d-9ec5-ebe20e0c64d7"},"vehicle_type_id":"4","last_reported":1730052630,"current_range_meters":33200,"station_id":"ce4bhgp2rcd13ifvqfc0","pricing_plan_id":"cebpf4jnsgd1na2vs0mg"},{"bike_id":"69c84c23-bf44-49cc-aa21-b474f911c917","system_id":"levelo_inurba_marseille","lat":43.29774,"lon":5.38102,"is_reserved":false,"is_disabled":false,"rental_uris":{"android":"levelo://app?vid=69c84c23-bf44-49cc-aa21-b474f911c917","ios":"levelo://app?vid=69c84c23-bf44-49cc-aa21-b474f911c917"},"vehicle_type_id":"4","last_reported":1730052630,"current_range_meters":8800,"station_id":"ce4bgip2rcd13ifvqbb0","pricing_plan_id":"cebpf4jnsgd1na2vs0mg"},{"bike_id":"5177ea33-965f-40ed-ad84-2ed1286d9820","system_id":"levelo_inurba_marseille","lat":43.27673,"lon":5.38882,"is_reserved":false,"is_disabled":false,"rental_uris":{"android":"levelo://app?vid=5177ea33-965f-40ed-ad84-2ed1286d9820","ios":"levelo://app?vid=5177ea33-965f-40ed-ad84-2ed1286d9820"},"vehicle_type_id":"4","last_reported":1730052630,"current_range_meters":22400,"station_id":"ce4bhi12rcd13ifvqfo0","pricing_plan_id":"cebpf4jnsgd1na2vs0mg"},{"bike_id":"1e08e6bb-13aa-43f7-a3dd-50e3d91dd943","system_id":"levelo_inurba_marseille","lat":43.26885,"lon":5.36914,"is_reserved":false,"is_disabled":false,"rental_uris":{"android":"levelo://app?vid=1e08e6bb-13aa-43f7-a3dd-50e3d91dd943","ios":"levelo://app?vid=1e08e6bb-13aa-43f7-a3dd-50e3d91dd943"},"vehicle_type_id":"4","last_reported":1730052630,"current_range_meters":26000,"station_id":"ce4bh512rcd13ifvqe2g","pricing_plan_id":"cebpf4jnsgd1na2vs0mg"},{"bike_id":"f84b486c-e3ba-4ab1-b945-3c310df7d6a4","system_id":"levelo_inurba_marseille","lat":43.27321,"lon":5.39081,"is_reserved":false,"is_disabled":false,"rental_uris":{"android":"levelo://app?vid=f84b486c-e3ba-4ab1-b945-3c310df7d6a4","ios":"levelo://app?vid=f84b486c-e3ba-4ab1-b945-3c310df7d6a4"},"vehicle_type_id":"4","last_reported":1730052630,"current_range_meters":5600,"station_id":"ce4bhgp2rcd13ifvqfe0","pricing_plan_id":"cebpf4jnsgd1na2vs0mg"},{"bike_id":"bfcad535-ef54-447e-85f7-14f022c7fbfa","system_id":"levelo_inurba_marseille","lat":43.31463,"lon":5.3922,"is_reserved":false,"is_disabled":false,"rental_uris":{"android":"levelo://app?vid=bfcad535-ef54-447e-85f7-14f022c7fbfa","ios":"levelo://app?vid=bfcad535-ef54-447e-85f7-14f022c7fbfa"},"vehicle_type_id":"4","last_reported":1730052630,"current_range_meters":10000,"station_id":"ce4bgvp2rcd13ifvqcu0","pricing_plan_id":"cebpf4jnsgd1na2vs0mg"},{"bike_id":"f0ff66a7-113b-4f28-9637-9a309329252d","system_id":"levelo_inurba_marseille","lat":43.24165,"lon":5.36408,"is_reserved":false,"is_disabled":false,"rental_uris":{"android":"levelo://app?vid=f0ff66a7-113b-4f28-9637-9a309329252d","ios":"levelo://app?vid=f0ff66a7-113b-4f28-9637-9a309329252d"},"vehicle_type_id":"4","last_reported":1730052630,"current_range_meters":30400,"station_id":"cpo36qri1sfpv3e86is0","pricing_plan_id":"cebpf4jnsgd1na2vs0mg"},{"bike_id":"0323c92c-e590-4af4-a34f-7351b5d0eb3d","system_id":"levelo_inurba_marseille","lat":43.30881,"lon":5.39644,"is_reserved":false,"is_disabled":false,"rental_uris":{"android":"levelo://app?vid=0323c92c-e590-4af4-a34f-7351b5d0eb3d","ios":"levelo://app?vid=0323c92c-e590-4af4-a34f-7351b5d0eb3d"},"vehicle_type_id":"4","last_reported":1730052630,"current_range_meters":16000,"station_id":"ce4bh012rcd13ifvqcv0","pricing_plan_id":"cebpf4jnsgd1na2vs0mg"},{"bike_id":"dc60dfd5-952c-42aa-9364-4c2cb1ebe0f8","system_id":"levelo_inurba_marseille","lat":43.23152,"lon":5.43711,"is_reserved":false,"is_disabled":false,"rental_uris":{"android":"levelo://app?vid=dc60dfd5-952c-42aa-9364-4c2cb1ebe0f8","ios":"levelo://app?vid=dc60dfd5-952c-42aa-9364-4c2cb1ebe0f8"},"vehicle_type_id":"4","last_reported":1730052630,"current_range_meters":38800,"station_id":"ce4bhmp2rcd13ifvqgog","pricing_plan_id":"cebpf4jnsgd1na2vs0mg"},{"bike_id":"c282ac55-b4b2-4f9e-9b4b-42ee7ca7c6f5","system_id":"levelo_inurba_marseille","lat":43.23054,"lon":5.35496,"is_reserved":false,"is_disabled":false,"rental_uris":{"android":"levelo://app?vid=c282ac55-b4b2-4f9e-9b4b-42ee7ca7c6f5","ios":"levelo://app?vid=c282ac55-b4b2-4f9e-9b4b-42ee7ca7c6f5"},"vehicle_type_id":"4","last_reported":1730052630,"current_range_meters":28400,"station_id":"cpo3342slgdg3j2ifvpg","pricing_plan_id":"cebpf4jnsgd1na2vs0mg"},{"bike_id":"d0c4453a-a9c1-44d2-95f5-2e20ca53963e","system_id":"levelo_inurba_marseille","lat":43.31174,"lon":5.3871,"is_reserved":false,"is_disabled":false,"rental_uris":{"android":"levelo://app?vid=d0c4453a-a9c1-44d2-95f5-2e20ca53963e","ios":"levelo://app?vid=d0c4453a-a9c1-44d2-95f5-2e20ca53963e"},"vehicle_type_id":"4","last_reported":1730052630,"current_range_meters":39200,"station_id":"ce4bgv12rcd13ifvqcp0","pricing_plan_id":"cebpf4jnsgd1na2vs0mg"},{"bike_id":"5873abec-bbec-4ec4-965f-dfbe798e5484","system_id":"levelo_inurba_marseille","lat":43.26574,"lon":5.39009,"is_reserved":false,"is_disabled":false,"rental_uris":{"android":"levelo://app?vid=5873abec-bbec-4ec4-965f-dfbe798e5484","ios":"levelo://app?vid=5873abec-bbec-4ec4-965f-dfbe798e5484"},"vehicle_type_id":"4","last_reported":1730052630,"current_range_meters":26000,"station_id":"ce4bhe12rcd13ifvqf30","pricing_plan_id":"cebpf4jnsgd1na2vs0mg"},{"bike_id":"9c574781-a6c3-496f-b8de-728fbffe50c2","system_id":"levelo_inurba_marseille","lat":43.26775,"lon":5.39424,"is_reserved":false,"is_disabled":false,"rental_uris":{"android":"levelo://app?vid=9c574781-a6c3-496f-b8de-728fbffe50c2","ios":"levelo://app?vid=9c574781-a6c3-496f-b8de-728fbffe50c2"},"vehicle_type_id":"4","last_reported":1730052630,"current_range_meters":36400,"station_id":"ce4bhh12rcd13ifvqfg0","pricing_plan_id":"cebpf4jnsgd1na2vs0mg"},