{"last_updated":1730239756,"ttl":60,"version":"2.2","data":{"bikes":[{"bike_id":"e0594c9b-1912-4f09-958a-91f8a4561c29","system_id":"levelo_inurba_marseille","lat":43.24389,"lon":5.37049,"is_reserved":false,"is_disabled":false,"rental_uris":{"android":"levelo://app?vid=e0594c9b-1912-4f09-958a-91f8a4561c29","ios":"levelo://app?vid=e0594c9b-1912-4f09-958a-91f8a4561c29"},"vehicle_type_id":"4","last_reported":1730239757,"current_range_meters":37600,"station_id":"ce4bhhh2rcd13ifvqfk0","pricing_plan_id":"cebpf4jnsgd1na2vs0mg"},{"bike_id":"6523fb91-c5ac-49f8-b7fa-5c815f2eea77","system_id":"levelo_inurba_marseille","lat":43.27306,"lon":5.43807,"is_reserved":false,"is_disabled":false,"rental_uris":{"android":"levelo://app?vid=6523fb91-c5ac-49f8-b7fa-5c815f2eea77","ios":"levelo://app?vid=6523fb91-c5ac-49f8-b7fa-5c815f2eea77"},"vehicle_type_id":"4","last_reported":1730239757,"current_range_meters":27200,"station_id":"","pricing_plan_id":"cebpf4jnsgd1na2vs0mg"},{"bike_id":"6daefb7d-890b-4927-bca4-1e9b57c2727d","system_id":"levelo_inurba_marseille","lat":43.27186,"lon":5.40993,"is_reserved":false,"is_disabled":false,"rental_uris":{"android":"levelo://app?vid=6daefb7d-890b-4927-bca4-1e9b57c2727d","ios":"levelo://app?vid=6daefb7d-890b-4927-bca4-1e9b57c2727d"},"vehicle_type_id":"4","last_reported":1730239757,"current_range_meters":5600,"station_id":"ce4bhl12rcd13ifvqgf0","pricing_plan_id":"cebpf4jnsgd1na2vs0mg"},{"bike_id":"e1d18b81-986d-4e87-b61a-22535be9c7fe","system_id":"levelo_inurba_marseille","lat":43.27068,"lon":5.42274,"is_reserved":false,"is_disabled":false,"rental_uris":{"android":"levelo://app?vid=e1d18b81-986d-4e87-b61a-22535be9c7fe","ios":"levelo://app?vid=e1d18b81-986d-4e87-b61a-22535be9c7fe"},"vehicle_type_id":"4","last_reported":1730239757,"current_range_meters":24800,"station_id":"ce4bhk92rcd13ifvqgb0","pricing_plan_id":"cebpf4jnsgd1na2vs0mg"},{"bike_id":"389a0521-41ae-44e7-b647-f0e587e1b12f","system_id":"levelo_inurba_marseille","lat":43.24177,"lon":5.39732,"is_reserved":false,"is_disabled":false,"rental_uris":{"android":"levelo://app?vid=389a0521-41ae-44e7-b647-f0e587e1b12f","ios":"levelo://app?vid=389a0521-41ae-44e7-b647-f0e587e1b12f"},"vehicle_type_id":"4","last_reported":1730239757,"current_range_meters":12000,"station_id":"ce4bhn12rcd13ifvqgpg","pricing_plan_id":"cebpf4jnsgd1na2vs0mg"},{"bike_id":"1a5154eb-f122-438b-b30e-b16adba008c7","system_id":"levelo_inurba_marseille","lat":43.31489,"lon":5.37296,"is_reserved":false,"is_disabled":false,"rental_uris":{"android":"levelo://app?vid=1a5154eb-f122-438b-b30e-b16adba008c7","ios":"levelo://app?vid=1a5154eb-f122-438b-b30e-b16adba008c7"},"vehicle_type_id":"4","last_reported":1730239757,"current_range_meters":16400,"station_id":"ce4bgt12rcd13ifvqcd0","pricing_plan_id":"cebpf4jnsgd1na2vs0mg"},{"bike_id":"e69003c5-61d9-410c-8600-03d60dc443c9","system_id":"levelo_inurba_marseille","lat":43.32492,"lon":5.36569,"is_reserved":false,"is_disabled":false,"rental_uris":{"android":"levelo://app?vid=e69003c5-61d9-410c-8600-03d60dc443c9","ios":"levelo://app?vid=e69003c5-61d9-410c-8600-03d60dc443c9"},"vehicle_type_id":"4","last_reported":1730239757,"current_range_meters":33200,"station_id":"ce4bhs12rcd13ifvqhvg","pricing_plan_id":"cebpf4jnsgd1na2vs0mg"},{"bike_id":"9cd28ed1-51d4-469f-80b1-db1aa7224fd9","system_id":"levelo_inurba_marseille","lat":43.31892,"lon":5.4074,"is_reserved":false,"is_disabled":false,"rental_uris":{"android":"levelo://app?vid=9cd28ed1-51d4-469f-80b1-db1aa7224fd9","ios":"levelo://app?vid=9cd28ed1-51d4-469f-80b1-db1aa7224fd9"},"vehicle_type_id":"4","last_reported":1730239757,"current_range_meters":32800,"station_id":"ce4bhq12rcd13ifvqhig","pricing_plan_id":"cebpf4jnsgd1na2vs0mg"},{"bike_id":"00408809-526a-4e3b-bd4d-a27fc6e05da8","system_id":"levelo_inurba_marseille","lat":43.24807,"lon":5.37462,"is_reserved":false,"is_disabled":false,"rental_uris":{"android":"levelo://app?vid=00408809-526a-4e3b-bd4d-a27fc6e05da8","ios":"levelo://app?vid=00408809-526a-4e3b-bd4d-a27fc6e05da8"},"vehicle_type_id":"4","last_reported":1730239757,"current_range_meters":38800,"station_id":"ce4bhgh2rcd13ifvqfb0","pricing_plan_id":"cebpf4jnsgd1na2vs0mg"},{"bike_id":"515e3cda-ebf4-4224-a67b-bc5f9d833f60","system_id":"levelo_inurba_marseille","lat":43.24544,"lon":5.39519,"is_reserved":false,"is_disabled":false,"rental_uris":{"android":"levelo://app?vid=515e3cda-ebf4-4224-a67b-bc5f9d833f60","ios":"levelo://app?vid=515e3cda-ebf4-4224-a67b-bc5f9d833f60"},"vehicle_type_id":"4","last_reported":1730239757,"current_range_meters":24400,"station_id":"ce4bhlp2rcd13ifvqgjg","pricing_plan_id":"cebpf4jnsgd1na2vs0mg"},{"bike_id":"a0f5d9ec-bdca-49ed-9410-eea9bb121fec","system_id":"levelo_inurba_marseille","lat":43.32661,"lon":5.40989,"is_reserved":false,"is_disabled":false,"rental_uris":{"android":"levelo://app?vid=a0f5d9ec-bdca-49ed-9410-eea9bb121fec","ios":"levelo://app?vid=a0f5d9ec-bdca-49ed-9410-eea9bb121fec"},"vehicle_type_id":"4","last_reported":1730239757,"current_range_meters":6800,"station_id":"ce4bhpp2rcd13ifvqhgg","pricing_plan_id":"cebpf4jnsgd1na2vs0mg"},{"bike_id":"5883aa21-4ff3-4ec2-8357-b925af10ae1c","system_id":"levelo_inurba_marseille","lat":43.28566,"lon":5.39502,"is_reserved":false,"is_disabled":false,"rental_uris":{"android":"levelo://app?vid=5883aa21-4ff3-4ec2-8357-b925af10ae1c","ios":"levelo://app?vid=5883aa21-4ff3-4ec2-8357-b925af10ae1c"},"vehicle_type_id":"4","last_reported":1730239757,"current_range_meters":13600,"station_id":"ce4bh292rcd13ifvqdg0","pricing_plan_id":"cebpf4jnsgd1na2vs0mg"},{"bike_id":"66a04495-273a-47df-ac95-d7c1740f1ef3","system_id":"levelo_inurba_marseille","lat":43.278245,"lon":5.406905,"is_reserved":false,"is_disabled":false,"rental_uris":{"android":"levelo://app?vid=66a04495-273a-47df-ac95-d7c1740f1ef3","ios":"levelo://app?vid=66a04495-273a-47df-ac95-d7c1740f1ef3"},"vehicle_type_id":"4","last_reported":1730239757,"current_range_meters":25600,"station_id":"ce4bhnh2rcd13ifvqgtg","pricing_plan_id":"cebpf4jnsgd1na2vs0mg"},{"bike_id":"15933160-4316-4941-9faf-5c83148d9fb7","system_id":"levelo_inurba_marseille","lat":43.265551,"lon":5.372822,"is_reserved":false,"is_disabled":false,"rental_uris":{"android":"levelo://app?vid=15933160-4316-4941-9faf-5c83148d9fb7","ios":"levelo://app?vid=15933160-4316-4941-9faf-5c83148d9fb7"},"vehicle_type_id":"4","last_reported":1730239757,"current_range_meters":36000,"station_id":"ce4bhg12rcd13ifvqf70","pricing_plan_id":"cebpf4jnsgd1na2vs0mg"},{"bike_id":"c35448b9-cc2f-40e5-b9a8-99e3d90dc779","system_id":"levelo_inurba_marseille","lat":43.28702,"lon":5.37386,"is_reserved":false,"is_disabled":false,"rental_uris":{"android":"levelo://app?vid=c35448b9-cc2f-40e5-b9a8-99e3d90dc779","ios":"levelo://app?vid=c35448b9-cc2f-40e5-b9a8-99e3d90dc779"},"vehicle_type_id":"4","last_reported":1730239757,"current_range_meters":24400,"station_id":"ce4bh3p2rcd13ifvqdq0","pricing_plan_id":"cebpf4jnsgd1na2vs0mg"},{"bike_id":"76ea27d3-8d3c-4f97-a1d8-37bf21c583fb","system_id":"levelo_inurba_marseille","lat":43.306,"lon":5.3722,"is_reserved":false,"is_disabled":false,"rental_uris":{"android":"levelo://app?vid=76ea27d3-8d3c-4f97-a1d8-37bf21c583fb","ios":"levelo://app?vid=76ea27d3-8d3c-4f97-a1d8-37bf21c583fb"},"vehicle_type_id":"4","last_reported":1730239757,"current_range_meters":38800,"station_id":"ce4bgqh2rcd13ifvqc4g","pricing_plan_id":"cebpf4jnsgd1na2vs0mg"},{"bike_id":"98af7aaf-680f-4013-9acb-3127feae2bb0","system_id":"levelo_inurba_marseille","lat":43.33027,"lon":5.39031,"is_reserved":false,"is_disabled":false,"rental_uris":{"android":"levelo://app?vid=98af7aaf-680f-4013-9acb-3127feae2bb0","ios":"levelo://app?vid=98af7aaf-680f-4013-9acb-3127feae2bb0"},"vehicle_type_id":"4","last_reported":1730239757,"current_range_meters":24000,"station_id":"ce4bhr92rcd13ifvqhrg","pricing_plan_id":"cebpf4jnsgd1na2vs0mg"},{"bike_id":"9f536bbb-1184-45c8-b6cd-9f3efa3b0c88","system_id":"levelo_inurba_marseille","lat":43.32368,"lon":5.3888,"is_reserved":false,"is_disabled":false,"rental_uris":{"android":"levelo://app?vid=9f536bbb-1184-45c8-b6cd-9f3efa3b0c88","ios":"levelo://app?vid=9f536bbb-1184-45c8-b6cd-9f3efa3b0c88"},"vehicle_type_id":"4","last_reported":1730239757,"current_range_meters":37600,"station_id":"ce4bhqp2rcd13ifvqhog","pricing_plan_id":"cebpf4jnsgd1na2vs0mg"},{"bike_id":"0c074560-8ac3-46f4-bbf6-3d47e9833728","system_id":"levelo_inurba_marseille","lat":43.25008,"lon":5.38918,"is_reserved":false,"is_disabled":false,"rental_uris":{"android":"levelo://app?vid=0c074560-8ac3-46f4-bbf6-3d47e9833728","ios":"levelo://app?vid=0c074560-8ac3-46f4-bbf6-3d47e9833728"},"vehicle_type_id":"4","last_reported":1730239757,"current_range_meters":38800,"station_id":"ce4bhgp2rcd13ifvqfd0","pricing_plan_id":"cebpf4jnsgd1na2vs0mg"},{"bike_id":"6b17b8c2-e4c3-4a48-b5ea-96c0e708e870","system_id":"levelo_inurba_marseille","lat":43.31324,"lon":5.39688,"is_reserved":false,"is_disabled":false,"rental_uris":{"android":"levelo://app?vid=6b17b8c2-e4c3-4a48-b5ea-96c0e708e870","ios":"levelo://app?vid=6b17b8c2-e4c3-4a48-b5ea-96c0e708e870"},"vehicle_type_id":"4","last_reported":1730239757,"current_range_meters":16800,"station_id":"ce4bgvp2rcd13ifvqcu0","pricing_plan_id":"cebpf4jnsgd1na2vs0mg"},{"bike_id":"3713ca50-eced-45b1-bf48-4c2e0879cc91","system_id":"levelo_inurba_marseille","lat":43.24542,"lon":5.39523,"is_reserved":false,"is_disabled":false,"rental_uris":{"android":"levelo://app?vid=3713ca50-eced-45b1-bf48-4c2e0879cc91","ios":"levelo://app?vid=3713ca50-eced-45b1-bf48-4c2e0879cc91"},"vehicle_type_id":"4","last_reported":1730239757,"current_range_meters":16800,"station_id":"ce4bhlp2rcd13ifvqgjg","pricing_plan_id":"cebpf4jnsgd1na2vs0mg"},{"bike_id":"7e1dac73-d14a-4cac-9a8f-3d04b3161b4c","system_id":"levelo_inurba_marseille","lat":43.26535,"lon":5.37293,"is_reserved":false,"is_disabled":false,"rental_uris":{"android":"levelo://app?vid=7e1dac73-d14a-4cac-9a8f-3d04b3161b4c","ios":"levelo://app?vid=7e1dac73-d14a-4cac-9a8f-3d04b3161b4c"},"vehicle_type_id":"4","last_reported":1730239757,"current_range_meters":38800,"station_id":"ce4bhg12rcd13ifvqf70","pricing_plan_id":"cebpf4jnsgd1na2vs0mg"},{"bike_id":"44452cab-0ed3-46c5-ae89-8653a35bc3ed","system_id":"levelo_inurba_marseille","lat":43.29261,"lon":5.40909,"is_reserved":false,"is_disabled":false,"rental_uris":{"android":"levelo://app?vid=44452cab-0ed3-46c5-ae89-8653a35bc3ed","ios":"levelo://app?vid=44452cab-0ed3-46c5-ae89-8653a35bc3ed"},"vehicle_type_id":"4","last_reported":1730239757,"current_range_meters":20800,"station_id":"ce4bh192rcd13ifvqdc0","pricing_plan_id":"cebpf4jnsgd1na2vs0mg"},{"bike_id":"caf349c8-ed3b-4304-909b-160d602b00a5","system_id":"levelo_inurba_marseille","lat":43.317078,"lon":5.3775,"is_reserved":false,"is_disabled":false,"rental_uris":{"android":"levelo://app?vid=caf349c8-ed3b-4304-909b-160d602b00a5","ios":"levelo://app?vid=caf349c8-ed3b-4304-909b-160d602b00a5"},"vehicle_type_id":"4","last_reported":1730239757,"current_range_meters":8000,"station_id":"ce4bgth2rcd13ifvqch0","pricing_plan_id":"cebpf4jnsgd1na2vs0mg"},{"bike_id":"3cc74485-2795-4d4f-aa5a-b06c312e894e","system_id":"levelo_inurba_marseille","lat":43.22932,"lon":5.35376,"is_reserved":false,"is_disabled":false,"rental_uris":{"android":"levelo://app?vid=3cc74485-2795-4d4f-aa5a-b06c312e894e","ios":"levelo://app?vid=3cc74485-2795-4d4f-aa5a-b06c312e894e"},"vehicle_type_id":"4","last_reported":1730239757,"current_range_meters":38800,"station_id":"cpo3532slgdg3j2ikp40","pricing_plan_id":"cebpf4jnsgd1na2vs0mg"},{"bike_id":"f806c707-4ddf-44ce-9465-396ac5def657","system_id":"levelo_inurba_marseille","lat":43.24802,"lon":5.37453,"is_reserved":false,"is_disabled":false,"rental_uris":{"android":"levelo://app?vid=f806c707-4ddf-44ce-9465-396ac5def657","ios":"levelo://app?vid=f806c707-4ddf-44ce-9465-396ac5def657"},"vehicle_type_id":"4","last_reported":1730239757,"current_range_meters":24000,"station_id":"ce4bhgh2rcd13ifvqfb0","pricing_plan_id":"cebpf4jnsgd1na2vs0mg"},{"bike_id":"b9b4828d-0123-48c1-afec-56ec62c16223","system_id":"levelo_inurba_marseille","lat":43.313596,"lon":5.384872,"is_reserved":false,"is_disabled":false,"rental_uris":{"android":"levelo://app?vid=b9b4828d-0123-48c1-afec-56ec62c16223","ios":"levelo://app?vid=b9b4828d-0123-48c1-afec-56ec62c16223"},"vehicle_type_id":"4","last_reported":1730239757,"current_range_meters":38800,"station_id":"ce4bgt92rcd13ifvqcf0","pricing_plan_id":"cebpf4jnsgd1na2vs0mg"},{"bike_id":"5350987e-6b1e-48a4-9d22-80eb92ebd932","system_id":"levelo_inurba_marseille","lat":43.31707,"lon":5.43702,"is_reserved":false,"is_disabled":false,"rental_uris":{"android":"levelo://app?vid=5350987e-6b1e-48a4-9d22-80eb92ebd932","ios":"levelo://app?vid=5350987e-6b1e-48a4-9d22-80eb92ebd932"},"vehicle_type_id":"4","last_reported":1730239757,"current_range_meters":16000,"station_id":"ce4bhp92rcd13ifvqhcg","pricing_plan_id":"cebpf4jnsgd1na2vs0mg"},{"bike_id":"0bbbc0a7-7c14-4dc0-a2ad-fec60bc9eede","system_id":"levelo_inurba_marseille","lat":43.292628,"lon":5.38436,"is_reserved":false,"is_disabled":false,"rental_uris":{"android":"levelo://app?vid=0bbbc0a7-7c14-4dc0-a2ad-fec60bc9eede","ios":"levelo://app?vid=0bbbc0a7-7c14-4dc0-a2ad-fec60bc9eede"},"vehicle_type_id":"4","last_reported":1730239757,"current_range_meters":19200,"station_id":"ce4bh692rcd13ifvqea0","pricing_plan_id":"cebpf4jnsgd1na2vs0mg"},{"bike_id":"1ffd1fdb-3811-4d93-af1a-b621933bd317","system_id":"levelo_inurba_marseille","lat":43.29451,"lon":5.3975,"is_reserved":false,"is_disabled":false,"rental_uris":{"android":"levelo://app?vid=1ffd1fdb-3811-4d93-af1a-b621933bd317","ios":"levelo://app?vid=1ffd1fdb-3811-4d93-af1a-b621933bd317"},"vehicle_type_id":"4","last_reported":1730239757,"current_range_meters":22800,"station_id":"ce4bh3h2rcd13ifvqdo0","pricing_plan_id":"cebpf4jnsgd1na2vs0mg"},{"bike_id":"79753c44-2696-48d8-8503-a28f55e7f2ea","system_id":"levelo_inurba_marseille","lat":43.31332,"lon":5.39697,"is_reserved":false,"is_disabled":false,"rental_uris":{"android":"levelo://app?vid=79753c44-2696-48d8-8503-a28f55e7f2ea","ios":"levelo://app?vid=79753c44-2696-48d8-8503-a28f55e7f2ea"},"vehicle_type_id":"4","last_reported":1730239757,"current_range_meters":30800,"station_id":"ce4bgvp2rcd13ifvqcu0","pricing_plan_id":"cebpf4jnsgd1na2vs0mg"},{"bike_id":"323b14c8-d0c0-4d87-8455-760ba32def1b","system_id":"levelo_inurba_marseille","lat":43.29696,"lon":5.39438,"is_reserved":false,"is_disabled":false,"rental_uris":{"android":"levelo://app?vid=323b14c8-d0c0-4d87-8455-760ba32def1b","ios":"levelo://app?vid=323b14c8-d0c0-4d87-8455-760ba32def1b"},"vehicle_type_id":"4","last_reported":1730239757,"current_range_meters":25600,"station_id":"chh1huq6cuj3fo74tm60","pricing_plan_id":"cebpf4jnsgd1na2vs0mg"},{"bike_id":"77ef2a38-e3ef-4510-81b3-93939981e4f1","system_id":"levelo_inurba_marseille","lat":43.30589,"lon":5.39345,"is_reserved":false,"is_disabled":false,"rental_uris":{"android":"levelo://app?vid=77ef2a38-e3ef-4510-81b3-93939981e4f1","ios":"levelo://app?vid=77ef2a38-e3ef-4510-81b3-93939981e4f1"},"vehicle_type_id":"4","last_reported":1730239757,"current_range_meters":16400,"station_id":"ce4bh0p2rcd13ifvqd80","pricing_plan_id":"cebpf4jnsgd1na2vs0mg"},{"bike_id":"04074040-bacb-4d8e-9554-b6d48202d7e9","system_id":"levelo_inurba_marseille","lat":43.27921,"lon":5.39577,"is_reserved":false,"is_disabled":false,"rental_uris":{"android":"levelo://app?vid=04074040-bacb-4d8e-9554-b6d48202d7e9","ios":"levelo://app?vid=04074040-bacb-4d8e-9554-b6d48202d7e9"},"vehicle_type_id":"4","last_reported":1730239757,"current_range_meters":38000,"station_id":"ce4bhf92rcd13ifvqf40","pricing_plan_id":"cebpf4jnsgd1na2vs0mg"},{"bike_id":"34630d18-75dd-4aec-9bb1-0ce7aab0afdf","system_id":"levelo_inurba_marseille","lat":43.24663,"lon":5.38165,"is_reserved":false,"is_disabled":false,"rental_uris":{"android":"levelo://app?vid=34630d18-75dd-4aec-9bb1-0ce7aab0afdf","ios":"levelo://app?vid=34630d18-75dd-4aec-9bb1-0ce7aab0afdf"},"vehicle_type_id":"4","last_reported":1730239757,"current_range_meters":28000,"station_id":"ce4bhih2rcd13ifvqfr0","pricing_plan_id":"cebpf4jnsgd1na2vs0mg"},{"bike_id":"54a53d11-030a-4b11-8d45-fbe0e84e2814","system_id":"levelo_inurba_marseille","lat":43.29525,"lon":5.38529,"is_reserved":false,"is_disabled":false,"rental_uris":{"android":"levelo://app?vid=54a53d11-030a-4b11-8d45-fbe0e84e2814","ios":"levelo://app?vid=54a53d11-030a-4b11-8d45-fbe0e84e2814"},"vehicle_type_id":"4","last_reported":1730239757,"current_range_meters":33200,"station_id":"ce4bgih2rcd13ifvqba0","pricing_plan_id":"cebpf4jnsgd1na2vs0mg"},{"bike_id":"c5ab8f86-3c93-447c-b767-f885bdebd2ff","system_id":"levelo_inurba_marseille","lat":43.27073,"lon":5.42272,"is_reserved":false,"is_disabled":false,"rental_uris":{"android":"levelo://app?vid=c5ab8f86-3c93-447c-b767-f885bdebd2ff","ios":"levelo://app?vid=c5ab8f86-3c93-447c-b767-f885bdebd2ff"},"vehicle_type_id":"4","last_reported":1730239757,"current_range_meters":39200,"station_id":"ce4bhk92rcd13ifvqgb0","pricing_plan_id":"cebpf4jnsgd1na2vs0mg"},{"bike_id":"6bfb62a6-63c3-4bd5-8676-7b2f3dd6580d","system_id":"levelo_inurba_marseille","lat":43.28155,"lon":5.42637,"is_reserved":false,"is_disabled":false,"rental_uris":{"android":"levelo://app?vid=6bfb62a6-63c3-4bd5-8676-7b2f3dd6580d","ios":"levelo://app?vid=6bfb62a6-63c3-4bd5-8676-7b2f3dd6580d"},"vehicle_type_id":"4","last_reported":1730239757,"current_range_meters":16800,"station_id":"ce4bhnh2rcd13ifvqgug","pricing_plan_id":"cebpf4jnsgd1na2vs0mg"},{"bike_id":"70bb78fe-4bef-4d56-a833-affc0bdfc9f3","system_id":"levelo_inurba_marseille","lat":43.23193,"lon":5.35558,"is_reserved":false,"is_disabled":false,"rental_uris":{"android":"levelo://app?vid=70bb78fe-4bef-4d56-a833-affc0bdfc9f3","ios":"levelo://app?vid=70bb78fe-4bef-4d56-a833-affc0bdfc9f3"},"vehicle_type_id":"4","last_reported":1730239757,"current_range_meters":38800,"station_id":"ce4bhu92rcd13ifvqi70","pricing_plan_id":"cebpf4jnsgd1na2vs0mg"},{"bike_id":"296d1ed8-f229-48e4-ac59-fe25b08d7434","system_id":"levelo_inurba_marseille","lat":43.29573,"lon":5.39974,"is_reserved":false,"is_disabled":false,"rental_uris":{"android":"levelo://app?vid=296d1ed8-f229-48e4-ac59-fe25b08d7434","ios":"levelo://app?vid=296d1ed8-f229-48e4-ac59-fe25b08d7434"},"vehicle_type_id":"4","last_reported":1730239757,"current_range_meters":38800,"station_id":"ce4bh312rcd13ifvqdj0","pricing_plan_id":"cebpf4jnsgd1na2vs0mg"},{"bike_id":"1a23e5a8-eaa2-49bf-921e-448b5e886ed3","system_id":"levelo_inurba_marseille","lat":43.28104,"lon":5.37828,"is_reserved":false,"is_disabled":false,"rental_uris":{"android":"levelo://app?vid=1a23e5a8-eaa2-49bf-921e-448b5e886ed3","ios":"levelo://app?vid=1a23e5a8-eaa2-49bf-921e-448b5e886ed3"},"vehicle_type_id":"4","last_reported":1730239757,"current_range_meters":38800,"station_id":"ce4bha12rcd13ifvqee0","pricing_plan_id":"cebpf4jnsgd1na2vs0mg"},{"bike_id":"0790b19d-aa7b-4cc8-b334-e3c9e4892b72","system_id":"levelo_inurba_marseille","lat":43.28562,"lon":5.39497,"is_reserved":false,"is_disabled":false,"rental_uris":{"android":"levelo://app?vid=0790b19d-aa7b-4cc8-b334-e3c9e4892b72","ios":"levelo://app?vid=0790b19d-aa7b-4cc8-b334-e3c9e4892b72"},"vehicle_type_id":"4","last_reported":1730239757,"current_range_meters":26000,"station_id":"ce4bh292rcd13ifvqdg0","pricing_plan_id":"cebpf4jnsgd1na2vs0mg"},{"bike_id":"5c244c3d-8fd7-4c95-b825-2f7fe2f15994","system_id":"levelo_inurba_marseille","lat":43.23196,"lon":5.35546,"is_reserved":false,"is_disabled":false,"rental_uris":{"android":"levelo://app?vid=5c244c3d-8fd7-4c95-b825-2f7fe2f15994","ios":"levelo://app?vid=5c244c3d-8fd7-4c95-b825-2f7fe2f15994"},"vehicle_type_id":"4","last_reported":1730239757,"current_range_meters":38800,"station_id":"ce4bhu92rcd13ifvqi70","pricing_plan_id":"cebpf4jnsgd1na2vs0mg"},{"bike_id":"a55cec75-7211-434d-8bb2-95f2a4066741","system_id":"levelo_inurba_marseille","lat":43.24805,"lon":5.37458,"is_reserved":false,"is_disabled":false,"rental_uris":{"android":"levelo://app?vid=a55cec75-7211-434d-8bb2-95f2a4066741","ios":"levelo://app?vid=a55cec75-7211-434d-8bb2-95f2a4066741"},"vehicle_type_id":"4","last_reported":1730239757,"current_range_meters":6400,"station_id":"ce4bhgh2rcd13ifvqfb0","pricing_plan_id":"cebpf4jnsgd1na2vs0mg"},{"bike_id":"66c1985b-3e77-430f-b7dd-7ce32bfba436","system_id":"levelo_inurba_marseille","lat":43.29971,"lon":5.38492,"is_reserved":false,"is_disabled":false,"rental_uris":{"android":"levelo://app?vid=66c1985b-3e77-430f-b7dd-7ce32bfba436","ios":"levelo://app?vid=66c1985b-3e77-430f-b7dd-7ce32bfba436"},"vehicle_type_id":"4","last_reported":1730239757,"current_range_meters":30800,"station_id":"ce4bgj92rcd13ifvqbd0","pricing_plan_id":"cebpf4jnsgd1na2vs0mg"},{"bike_id":"d1438f67-e0c7-4079-8b03-735e5ece0a47","system_id":"levelo_inurba_marseille","lat":43.30914,"lon":5.36854,"is_reserved":false,"is_disabled":false,"rental_uris":{"android":"levelo://app?vid=d1438f67-e0c7-4079-8b03-735e5ece0a47","ios":"levelo://app?vid=d1438f67-e0c7-4079-8b03-735e5ece0a47"},"vehicle_type_id":"4","last_reported":1730239757,"current_range_meters":38800,"station_id":"ce4bgn92rcd13ifvqbvg","pricing_plan_id":"cebpf4jnsgd1na2vs0mg"},{"bike_id":"8fe952c7-d1f5-486e-a32b-0e7b70cce917","system_id":"levelo_inurba_marseille","lat":43.3237,"lon":5.38878,"is_reserved":false,"is_disabled":false,"rental_uris":{"android":"levelo://app?vid=8fe952c7-d1f5-486e-a32b-0e7b70cce917","ios":"levelo://app?vid=8fe952c7-d1f5-486e-a32b-0e7b70cce917"},"vehicle_type_id":"4","last_reported":1730239757,"current_range_meters":33200,"station_id":"ce4bhqp2rcd13ifvqhog","pricing_plan_id":"cebpf4jnsgd1na2vs0mg"},{"bike_id":"859394d4-5d80-4dc7-a946-9f9df7dcae5c","system_id":"levelo_inurba_marseille","lat":43.31327,"lon":5.40226,"is_reserved":false,"is_disabled":false,"rental_uris":{"android":"levelo://app?vid=859394d4-5d80-4dc7-a946-9f9df7dcae5c","ios":"levelo://app?vid=859394d4-5d80-4dc7-a946-9f9df7dcae5c"},"vehicle_type_id":"4","last_reported":1730239757,"current_range_meters":12000,"station_id":"","pricing_plan_id":"cebpf4jnsgd1na2vs0mg"},{"bike_id":"c6472a4b-15fb-475c-a800-9db188055ce2","system_id":"levelo_inurba_marseille","lat":43.25826,"lon":5.39423,"is_reserved":false,"is_disabled":false,"rental_uris":{"android":"levelo://app?vid=c6472a4b-15fb-475c-a800-9db188055ce2","ios":"levelo://app?vid=c6472a4b-15fb-475c-a800-9db188055ce2"},"vehicle_type_id":"4","last_reported":1730239757,"current_range_meters":16800,"station_id":"ce4bhip2rcd13ifvqft0","pricing_plan_id":"cebpf4jnsgd1na2vs0mg"},{"bike_id":"05820b40-ea3b-42d5-af67-185e038c3659","system_id":"levelo_inurba_marseille","lat":43.27906,"lon":5.38005,"is_reserved":false,"is_disabled":false,"rental_uris":{"android":"levelo://app?vid=05820b40-ea3b-42d5-af67-185e038c3659","ios":"levelo://app?vid=05820b40-ea3b-42d5-af67-185e038c3659"},"vehicle_type_id":"4","last_reported":1730239757,"current_range_meters":7200,"station_id":"ce4bhf92rcd13ifvqf50","pricing_plan_id":"cebpf4jnsgd1na2vs0mg"},{"bike_id":"5605e7e8-7b5f-4b34-8547-b7b667c952c4","system_id":"levelo_inurba_marseille","lat":43.246655,"lon":5.381615,"is_reserved":false,"is_disabled":false,"rental_uris":{"android":"levelo://app?vid=5605e7e8-7b5f-4b34-8547-b7b667c952c4","ios":"levelo://app?vid=5605e7e8-7b5f-4b34-8547-b7b667c952c4"},"vehicle_type_id":"4","last_reported":1730239757,"current_range_meters":28400,"station_id":"ce4bhih2rcd13ifvqfr0","pricing_plan_id":"cebpf4jnsgd1na2vs0mg"},{"bike_id":"56dc04b7-06b7-4e88-ac29-730a7abdd49b","system_id":"levelo_inurba_marseille","lat":43.31364,"lon":5.38494,"is_reserved":false,"is_disabled":false,"rental_uris":{"android":"levelo://app?vid=56dc04b7-06b7-4e88-ac29-730a7abdd49b","ios":"levelo://app?vid=56dc04b7-06b7-4e88-ac29-730a7abdd49b"},"vehicle_type_id":"4","last_reported":1730239757,"current_range_meters":38800,"station_id":"ce4bgt92rcd13ifvqcf0","pricing_plan_id":"cebpf4jnsgd1na2vs0mg"},{"bike_id":"92adf987-4779-4b78-ad9c-8e29ab9175f3","system_id":"levelo_inurba_marseille","lat":43.23197,"lon":5.35554,"is_reserved":false,"is_disabled":false,"rental_uris":{"android":"levelo://app?vid=92adf987-4779-4b78-ad9c-8e29ab9175f3","ios":"levelo://app?vid=92adf987-4779-4b78-ad9c-8e29ab9175f3"},"vehicle_type_id":"4","last_reported":1730239757,"current_range_meters":16800,"station_id":"ce4bhu92rcd13ifvqi70","pricing_plan_id":"cebpf4jnsgd1na2vs0mg"},{"bike_id":"6ccddc45-787b-4e0a-8482-1abb83f99cfc","system_id":"levelo_inurba_marseille","lat":43.28466,"lon":5.35893,"is_reserved":false,"is_disabled":false,"rental_uris":{"android":"levelo://app?vid=6ccddc45-787b-4e0a-8482-1abb83f99cfc","ios":"levelo://app?vid=6ccddc45-787b-4e0a-8482-1abb83f99cfc"},"vehicle_type_id":"4","last_reported":1730239757,"current_range_meters":19200,"station_id":"ce4bhah2rcd13ifvqei0","pricing_plan_id":"cebpf4jnsgd1na2vs0mg"},{"bike_id":"ecc7f7d1-1b49-45f0-87d4-8ceea089e77f","system_id":"levelo_inurba_marseille","lat":43.28151,"lon":5.42641,"is_reserved":false,"is_disabled":false,"rental_uris":{"android":"levelo://app?vid=ecc7f7d1-1b49-45f0-87d4-8ceea089e77f","ios":"levelo://app?vid=ecc7f7d1-1b49-45f0-87d4-8ceea089e77f"},"vehicle_type_id":"4","last_reported":1730239757,"current_range_meters":4400,"station_id":"ce4bhnh2rcd13ifvqgug","pricing_plan_id":"cebpf4jnsgd1na2vs0mg"},{"bike_id":"c03f3456-93bb-418a-8ce0-ca351e254b4e","system_id":"levelo_inurba_marseille","lat":43.31757,"lon":5.39014,"is_reserved":false,"is_disabled":false,"rental_uris":{"android":"levelo://app?vid=c03f3456-93bb-418a-8ce0-ca351e254b4e","ios":"levelo://app?vid=c03f3456-93bb-418a-8ce0-ca351e254b4e"},"vehicle_type_id":"4","last_reported":1730239757,"current_range_meters":38800,"station_id":"ce4bhqp2rcd13ifvqhng","pricing_plan_id":"cebpf4jnsgd1na2vs0mg"},{"bike_id":"37cb0773-ba21-47be-9d4f-f925cfb4f6e7","system_id":"levelo_inurba_marseille","lat":43.290537,"lon":5.377207,"is_reserved":false,"is_disabled":false,"rental_uris":{"android":"levelo://app?vid=37cb0773-ba21-47be-9d4f-f925cfb4f6e7","ios":"levelo://app?vid=37cb0773-ba21-47be-9d4f-f925cfb4f6e7"},"vehicle_type_id":"4","last_reported":1730239757,"current_range_meters":31200,"station_id":"","pricing_plan_id":"cebpf4jnsgd1na2vs0mg"},{"bike_id":"f9f1fac0-f85f-464b-8d90-12df2d11e889","system_id":"levelo_inurba_marseille","lat":43.26201,"lon":5.37924,"is_reserved":false,"is_disabled":false,"rental_uris":{"android":"levelo://app?vid=f9f1fac0-f85f-464b-8d90-12df2d11e889","ios":"levelo://app?vid=f9f1fac0-f85f-464b-8d90-12df2d11e889"},"vehicle_type_id":"4","last_reported":1730239757,"current_range_meters":38800,"station_id":"ce4bhjp2rcd13ifvqg90","pricing_plan_id":"cebpf4jnsgd1na2vs0mg"},{"bike_id":"3b95239d-7ba0-48d2-b5b0-0f26d502652b","system_id":"levelo_inurba_marseille","lat":43.28097,"lon":5.37836,"is_reserved":false,"is_disabled":false,"rental_uris":{"android":"levelo://app?vid=3b95239d-7ba0-48d2-b5b0-0f26d502652b","ios":"levelo://app?vid=3b95239d-7ba0-48d2-b5b0-0f26d502652b"},"vehicle_type_id":"4","last_reported":1730239757,"current_range_meters":26800,"station_id":"ce4bha12rcd13ifvqee0","pricing_plan_id":"cebpf4jnsgd1na2vs0mg"},{"bike_id":"f05c9e2e-0b4f-41ba-9d75-2d2a5fa93533","system_id":"levelo_inurba_marseille","lat":43.28716,"lon":5.37927,"is_reserved":false,"is_disabled":false,"rental_uris":{"android":"levelo://app?vid=f05c9e2e-0b4f-41ba-9d75-2d2a5fa93533","ios":"levelo://app?vid=f05c9e2e-0b4f-41ba-9d75-2d2a5fa93533"},"vehicle_type_id":"4","last_reported":1730239757,"current_range_meters":38800,"station_id":"ce4bh9p2rcd13ifvqec0","pricing_plan_id":"cebpf4jnsgd1na2vs0mg"},{"bike_id":"d38bdf2c-6a14-4045-9038-a6af17d4b552","system_id":"levelo_inurba_marseille","lat":43.25004,"lon":5.38918,"is_reserved":false,"is_disabled":false,"rental_uris":{"android":"levelo://app?vid=d38bdf2c-6a14-4045-9038-a6af17d4b552","ios":"levelo://app?vid=d38bdf2c-6a14-4045-9038-a6af17d4b552"},"vehicle_type_id":"4","last_reported":1730239757,"current_range_meters":24400,"station_id":"ce4bhgp2rcd13ifvqfd0","pricing_plan_id":"cebpf4jnsgd1na2vs0mg"},{"bike_id":"3eacef56-e200-4054-9b0c-156c6ef1c7f9","system_id":"levelo_inurba_marseille","lat":43.32405,"lon":5.36993,"is_reserved":false,"is_disabled":false,"rental_uris":{"android":"levelo://app?vid=3eacef56-e200-4054-9b0c-156c6ef1c7f9","ios":"levelo://app?vid=3eacef56-e200-4054-9b0c-156c6ef1c7f9"},"vehicle_type_id":"4","last_reported":1730239757,"current_range_meters":34800,"station_id":"","pricing_plan_id":"cebpf4jnsgd1na2vs0mg"},{"bike_id":"3928d2b2-5322-4bfc-935c-f02931565366","system_id":"levelo_inurba_marseille","lat":43.27993,"lon":5.41657,"is_reserved":false,"is_disabled":false,"rental_uris":{"android":"levelo://app?vid=3928d2b2-5322-4bfc-935c-f02931565366","ios":"levelo://app?vid=3928d2b2-5322-4bfc-935c-f02931565366"},"vehicle_type_id":"4","last_reported":1730239757,"current_range_meters":14400,"station_id":"ce4bho12rcd13ifvqh1g","pricing_plan_id":"cebpf4jnsgd1na2vs0mg"},{"bike_id":"669541bb-ec23-44c5-bb83-c3650de83fee","system_id":"levelo_inurba_marseille","lat":43.2799,"lon":5.41651,"is_reserved":false,"is_disabled":false,"rental_uris":{"android":"levelo://app?vid=669541bb-ec23-44c5-bb83-c3650de83fee","ios":"levelo://app?vid=669541bb-ec23-44c5-bb83-c3650de83fee"},"vehicle_type_id":"4","last_reported":1730239757,"current_range_meters":3600,"station_id":"ce4bho12rcd13ifvqh1g","pricing_plan_id":"cebpf4jnsgd1na2vs0mg"},{"bike_id":"2180ef1e-49d1-4b58-8315-75afd87557ad","system_id":"levelo_inurba_marseille","lat":43.26208,"lon":5.37443,"is_reserved":false,"is_disabled":false,"rental_uris":{"android":"levelo://app?vid=2180ef1e-49d1-4b58-8315-75afd87557ad","ios":"levelo://app?vid=2180ef1e-49d1-4b58-8315-75afd87557ad"},"vehicle_type_id":"4","last_reported":1730239757,"current_range_meters":28400,"station_id":"ce4bhgp2rcd13ifvqfc0","pricing_plan_id":"cebpf4jnsgd1na2vs0mg"},{"bike_id":"d42f4a6b-23fc-4c16-b6cf-e48fe37c5c2e","system_id":"levelo_inurba_marseille","lat":43.28456,"lon":5.35894,"is_reserved":false,"is_disabled":false,"rental_uris":{"android":"levelo://app?vid=d42f4a6b-23fc-4c16-b6cf-e48fe37c5c2e","ios":"levelo://app?vid=d42f4a6b-23fc-4c16-b6cf-e48fe37c5c2e"},"vehicle_type_id":"4","last_reported":1730239757,"current_range_meters":38800,"station_id":"ce4bhah2rcd13ifvqei0","pricing_plan_id":"cebpf4jnsgd1na2vs0mg"},{"bike_id":"e3bfaa78-9ac6-44ac-939d-83a965291944","system_id":"levelo_inurba_marseille","lat":43.29023,"lon":5.3864,"is_reserved":false,"is_disabled":false,"rental_uris":{"android":"levelo://app?vid=e3bfaa78-9ac6-44ac-939d-83a965291944","ios":"levelo://app?vid=e3bfaa78-9ac6-44ac-939d-83a965291944"},"vehicle_type_id":"4","last_reported":1730239757,"current_range_meters":24800,"station_id":"ce4bh4p2rcd13ifvqe0g","pricing_plan_id":"cebpf4jnsgd1na2vs0mg"},{"bike_id":"c99ff333-d4ed-4459-be44-9baffe10ada9","system_id":"levelo_inurba_marseille","lat":43.30599,"lon":5.3722,"is_reserved":false,"is_disabled":false,"rental_uris":{"android":"levelo://app?vid=c99ff333-d4ed-4459-be44-9baffe10ada9","ios":"levelo://app?vid=c99ff333-d4ed-4459-be44-9baffe10ada9"},"vehicle_type_id":"4","last_reported":1730239757,"current_range_meters":38800,"station_id":"ce4bgqh2rcd13ifvqc4g","pricing_plan_id":"cebpf4jnsgd1na2vs0mg"},{"bike_id":"4a50fcf4-6fc1-4feb-ab52-61196d7bc2bc","system_id":"levelo_inurba_marseille","lat":43.28359,"lon":5.38102,"is_reserved":false,"is_disabled":false,"rental_uris":{"android":"levelo://app?vid=4a50fcf4-6fc1-4feb-ab52-61196d7bc2bc","ios":"levelo://app?vid=4a50fcf4-6fc1-4feb-ab52-61196d7bc2bc"},"vehicle_type_id":"4","last_reported":1730239757,"current_range_meters":29600,"station_id":"ce4bh412rcd13ifvqdr0","pricing_plan_id":"cebpf4jnsgd1na2vs0mg"},{"bike_id":"be385b1a-911f-4cf0-ad3e-0a3fb993053e","system_id":"levelo_inurba_marseille","lat":43.30254,"lon":5.4008,"is_reserved":false,"is_disabled":false,"rental_uris":{"android":"levelo://app?vid=be385b1a-911f-4cf0-ad3e-0a3fb993053e","ios":"levelo://app?vid=be385b1a-911f-4cf0-ad3e-0a3fb993053e"},"vehicle_type_id":"4","last_reported":1730239757,"current_range_meters":33200,"station_id":"ce4bgvh2rcd13ifvqcs0","pricing_plan_id":"cebpf4jnsgd1na2vs0mg"},{"bike_id":"491171d5-0527-410a-ada1-acc25421f1b3","system_id":"levelo_inurba_marseille","lat":43.30793,"lon":5.37651,"is_reserved":false,"is_disabled":false,"rental_uris":{"android":"levelo://app?vid=491171d5-0527-410a-ada1-acc25421f1b3","ios":"levelo://app?vid=491171d5-0527-410a-ada1-acc25421f1b3"},"vehicle_type_id":"4","last_reported":1730239757,"current_range_meters":12800,"station_id":"ce4bgv92rcd13ifvqcq0","pricing_plan_id":"cebpf4jnsgd1na2vs0mg"},{"bike_id":"98068fff-0ea9-402a-83fe-c96429d47f95","system_id":"levelo_inurba_marseille","lat":43.30435,"lon":5.38891,"is_reserved":false,"is_disabled":false,"rental_uris":{"android":"levelo://app?vid=98068fff-0ea9-402a-83fe-c96429d47f95","ios":"levelo://app?vid=98068fff-0ea9-402a-83fe-c96429d47f95"},"vehicle_type_id":"4","last_reported":1730239757,"current_range_meters":12800,"station_id":"ce4bgk12rcd13ifvqbi0","pricing_plan_id":"cebpf4jnsgd1na2vs0mg"},{"bike_id":"99a3f4d5-9ad7-4614-a88f-03f2ed75ead3","system_id":"levelo_inurba_marseille","lat":43.31713,"lon":5.37747,"is_reserved":false,"is_disabled":false,"rental_uris":{"android":"levelo://app?vid=99a3f4d5-9ad7-4614-a88f-03f2ed75ead3","ios":"levelo://app?vid=99a3f4d5-9ad7-4614-a88f-03f2ed75ead3"},"vehicle_type_id":"4","last_reported":1730239757,"current_range_meters":6400,"station_id":"ce4bgth2rcd13ifvqch0","pricing_plan_id":"cebpf4jnsgd1na2vs0mg"},{"bike_id":"5867dd38-1697-41f0-976b-2886f1b58d27","system_id":"levelo_inurba_marseille","lat":43.28433,"lon":5.39186,"is_reserved":false,"is_disabled":false,"rental_uris":{"android":"levelo://app?vid=5867dd38-1697-41f0-976b-2886f1b58d27","ios":"levelo://app?vid=5867dd38-1697-41f0-976b-2886f1b58d27"},"vehicle_type_id":"4","last_reported":1730239757,"current_range_meters":38800,"station_id":"ce4bhoh2rcd13ifvqh5g","pricing_plan_id":"cebpf4jnsgd1na2vs0mg"},{"bike_id":"6dbdcdcc-9c01-4c50-8214-3f9f684c7931","system_id":"levelo_inurba_marseille","lat":43.2959,"lon":5.38096,"is_reserved":false,"is_disabled":false,"rental_uris":{"android":"levelo://app?vid=6dbdcdcc-9c01-4c50-8214-3f9f684c7931","ios":"levelo://app?vid=6dbdcdcc-9c01-4c50-8214-3f9f684c7931"},"vehicle_type_id":"4","last_reported":1730239757,"current_range_meters":28800,"station_id":"ce4bgl12rcd13ifvqbo0","pricing_plan_id":"cebpf4jnsgd1na2vs0mg"},{"bike_id":"a499e673-4f57-4342-9063-be4db69af0ba","system_id":"levelo_inurba_marseille","lat":43.31493,"lon":5.37304,"is_reserved":false,"is_disabled":false,"rental_uris":{"android":"levelo://app?vid=a499e673-4f57-4342-9063-be4db69af0ba","ios":"levelo://app?vid=a499e673-4f57-4342-9063-be4db69af0ba"},"vehicle_type_id":"4","last_reported":1730239757,"current_range_meters":38800,"station_id":"ce4bgt12rcd13ifvqcd0","pricing_plan_id":"cebpf4jnsgd1na2vs0mg"},{"bike_id":"54454bef-56f4-4fd7-9cf7-c57a75a8c623","system_id":"levelo_inurba_marseille","lat":43.31714,"lon":5.37756,"is_reserved":false,"is_disabled":false,"rental_uris":{"android":"levelo://app?vid=54454bef-56f4-4fd7-9cf7-c57a75a8c623","ios":"levelo://app?vid=54454bef-56f4-4fd7-9cf7-c57a75a8c623"},"vehicle_type_id":"4","last_reported":1730239757,"current_range_meters":39200,"station_id":"ce4bgth2rcd13ifvqch0","pricing_plan_id":"cebpf4jnsgd1na2vs0mg"},{"bike_id":"5373ffcc-0b02-41dc-81cc-6ed5b3d356c1","system_id":"levelo_inurba_marseille","lat":43.28467,"lon":5.35881,"is_reserved":false,"is_disabled":false,"rental_uris":{"android":"levelo://app?vid=5373ffcc-0b02-41dc-81cc-6ed5b3d356c1","ios":"levelo://app?vid=5373ffcc-0b02-41dc-81cc-6ed5b3d356c1"},"vehicle_type_id":"4","last_reported":1730239757,"current_range_meters":24400,"station_id":"ce4bhah2rcd13ifvqei0","pricing_plan_id":"cebpf4jnsgd1na2vs0mg"},{"bike_id":"e70f779b-c932-42d1-9268-69385f57e336","system_id":"levelo_inurba_marseille","lat":43.293018,"lon":5.374497,"is_reserved":false,"is_disabled":false,"rental_uris":{"android":"levelo://app?vid=e70f779b-c932-42d1-9268-69385f57e336","ios":"levelo://app?vid=e70f779b-c932-42d1-9268-69385f57e336"},"vehicle_type_id":"4","last_reported":1730239757,"current_range_meters":16400,"station_id":"ce4bgi12rcd13ifvqb70","pricing_plan_id":"cebpf4jnsgd1na2vs0mg"},{"bike_id":"d4f897cd-5722-42fb-bbae-84fadb33bd3a","system_id":"levelo_inurba_marseille","lat":43.288635,"lon":5.358596,"is_reserved":false,"is_disabled":false,"rental_uris":{"android":"levelo://app?vid=d4f897cd-5722-42fb-bbae-84fadb33bd3a","ios":"levelo://app?vid=d4f897cd-5722-42fb-bbae-84fadb33bd3a"},"vehicle_type_id":"4","last_reported":1730239757,"current_range_meters":37600,"station_id":"ce4bhb12rcd13ifvqem0","pricing_plan_id":"cebpf4jnsgd1na2vs0mg"},{"bike_id":"538c6c97-8738-4e40-afde-1ced2fc6b778","system_id":"levelo_inurba_marseille","lat":43.33719,"lon":5.39183,"is_reserved":false,"is_disabled":false,"rental_uris":{"android":"levelo://app?vid=538c6c97-8738-4e40-afde-1ced2fc6b778","ios":"levelo://app?vid=538c6c97-8738-4e40-afde-1ced2fc6b778"},"vehicle_type_id":"4","last_reported":1730239757,"current_range_meters":38400,"station_id":"ce4bhr92rcd13ifvqhsg","pricing_plan_id":"cebpf4jnsgd1na2vs0mg"},{"bike_id":"b17d831e-9fa3-4c76-993c-3485bc5641c6","system_id":"levelo_inurba_marseille","lat":43.30799,"lon":5.4352,"is_reserved":false,"is_disabled":false,"rental_uris":{"android":"levelo://app?vid=b17d831e-9fa3-4c76-993c-3485bc5641c6","ios":"levelo://app?vid=b17d831e-9fa3-4c76-993c-3485bc5641c6"},"vehicle_type_id":"4","last_reported":1730239757,"current_range_meters":2800,"station_id":"ce4bhph2rcd13ifvqheg","pricing_plan_id":"cebpf4jnsgd1na2vs0mg"},{"bike_id":"1d54f9a9-581d-4e82-b989-fb7dda0e194b","system_id":"levelo_inurba_marseille","lat":43.26566,"lon":5.38999,"is_reserved":false,"is_disabled":false,"rental_uris":{"android":"levelo://app?vid=1d54f9a9-581d-4e82-b989-fb7dda0e194b","ios":"levelo://app?vid=1d54f9a9-581d-4e82-b989-fb7dda0e194b"},"vehicle_type_id":"4","last_reported":1730239757,"current_range_meters":12800,"station_id":"ce4bhe12rcd13ifvqf30","pricing_plan_id":"cebpf4jnsgd1na2vs0mg"},{"bike_id":"03e26363-1adc-494c-8098-91070571fba5","system_id":"levelo_inurba_marseille","lat":43.23193,"lon":5.35547,"is_reserved":false,"is_disabled":false,"rental_uris":{"android":"levelo://app?vid=03e26363-1adc-494c-8098-91070571fba5","ios":"levelo://app?vid=03e26363-1adc-494c-8098-91070571fba5"},"vehicle_type_id":"4","last_reported":1730239757,"current_range_meters":34800,"station_id":"ce4bhu92rcd13ifvqi70","pricing_plan_id":"cebpf4jnsgd1na2vs0mg"},{"bike_id":"c497513d-9d1d-4320-a1e3-875a8b21d4c5","system_id":"levelo_inurba_marseille","lat":43.2718,"lon":5.40994,"is_reserved":false,"is_disabled":false,"rental_uris":{"android":"levelo://app?vid=c497513d-9d1d-4320-a1e3-875a8b21d4c5","ios":"levelo://app?vid=c497513d-9d1d-4320-a1e3-875a8b21d4c5"},"vehicle_type_id":"4","last_reported":1730239757,"current_range_meters":36000,"station_id":"ce4bhl12rcd13ifvqgf0","pricing_plan_id":"cebpf4jnsgd1na2vs0mg"},{"bike_id":"3f296890-19ce-46b6-884b-d2e34dba8783","system_id":"levelo_inurba_marseille","lat":43.24811,"lon":5.3746,"is_reserved":false,"is_disabled":false,"rental_uris":{"android":"levelo://app?vid=3f296890-19ce-46b6-884b-d2e34dba8783","ios":"levelo://app?vid=3f296890-19ce-46b6-884b-d2e34dba8783"},"vehicle_type_id":"4","last_reported":1730239757,"current_range_meters":38800,"station_id":"ce4bhgh2rcd13ifvqfb0","pricing_plan_id":"cebpf4jnsgd1na2vs0mg"},{"bike_id":"e0fe10b0-ce38-4f4b-aa95-0e43ac241740","system_id":"levelo_inurba_marseille","lat":43.32366,"lon":5.38886,"is_reserved":false,"is_disabled":false,"rental_uris":{"android":"levelo://app?vid=e0fe10b0-ce38-4f4b-aa95-0e43ac241740","ios":"levelo://app?vid=e0fe10b0-ce38-4f4b-aa95-0e43ac241740"},"vehicle_type_id":"4","last_reported":1730239757,"current_range_meters":32000,"station_id":"ce4bhqp2rcd13ifvqhog","pricing_plan_id":"cebpf4jnsgd1na2vs0mg"},{"bike_id":"b888f11d-4cca-4019-9c0c-d6d69a667f3e","system_id":"levelo_inurba_marseille","lat":43.27551,"lon":5.38421,"is_reserved":false,"is_disabled":false,"rental_uris":{"android":"levelo://app?vid=b888f11d-4cca-4019-9c0c-d6d69a667f3e","ios":"levelo://app?vid=b888f11d-4cca-4019-9c0c-d6d69a667f3e"},"vehicle_type_id":"4","last_reported":1730239757,"current_range_meters":38800,"station_id":"ce4bhh92rcd13ifvqfi0","pricing_plan_id":"cebpf4jnsgd1na2vs0mg"},{"bike_id":"75313b0b-fea0-43a4-930b-001fbd31ad06","system_id":"levelo_inurba_marseille","lat":43.33604,"lon":5.41013,"is_reserved":false,"is_disabled":false,"rental_uris":{"android":"levelo://app?vid=75313b0b-fea0-43a4-930b-001fbd31ad06","ios":"levelo://app?vid=75313b0b-fea0-43a4-930b-001fbd31ad06"},"vehicle_type_id":"4","last_reported":1730239757,"current_range_meters":18000,"station_id":"ce4bhqh2rcd13ifvqhmg","pricing_plan_id":"cebpf4jnsgd1na2vs0mg"},{"bike_id":"8fc8f69f-228e-4754-8013-e3713d197b92","system_id":"levelo_inurba_marseille","lat":43.24665,"lon":5.38152,"is_reserved":false,"is_disabled":false,"rental_uris":{"android":"levelo://app?vid=8fc8f69f-228e-4754-8013-e3713d197b92","ios":"levelo://app?vid=8fc8f69f-228e-4754-8013-e3713d197b92"},"vehicle_type_id":"4","last_reported":1730239757,"current_range_meters":10000,"station_id":"ce4bhih2rcd13ifvqfr0","pricing_plan_id":"cebpf4jnsgd1na2vs0mg"},{"bike_id":"6b778970-7ca1-4912-8b3b-f071e3ca997e","system_id":"levelo_inurba_marseille","lat":43.31271,"lon":5.40169,"is_reserved":false,"is_disabled":false,"rental_uris":{"android":"levelo://app?vid=6b778970-7ca1-4912-8b3b-f071e3ca997e","ios":"levelo://app?vid=6b778970-7ca1-4912-8b3b-f071e3ca997e"},"vehicle_type_id":"4","last_reported":1730239757,"current_range_meters":37600,"station_id":"ce4bh092rcd13ifvqd30","pricing_plan_id":"cebpf4jnsgd1na2vs0mg"},{"bike_id":"a306c469-7544-4489-af82-e9fb1e9b4215","system_id":"levelo_inurba_marseille","lat":43.23179,"lon":5.39981,"is_reserved":false,"is_disabled":false,"rental_uris":{"android":"levelo://app?vid=a306c469-7544-4489-af82-e9fb1e9b4215","ios":"levelo://app?vid=a306c469-7544-4489-af82-e9fb1e9b4215"},"vehicle_type_id":"4","last_reported":1730239757,"current_range_meters":25200,"station_id":"ce4bhn12rcd13ifvqgqg","pricing_plan_id":"cebpf4jnsgd1na2vs0mg"},{"bike_id":"670dd631-18b7-4713-a903-23b5a1df838c","system_id":"levelo_inurba_marseille","lat":43.28575,"lon":5.39483,"is_reserved":false,"is_disabled":false,"rental_uris":{"android":"levelo://app?vid=670dd631-18b7-4713-a903-23b5a1df838c","ios":"levelo://app?vid=670dd631-18b7-4713-a903-23b5a1df838c"},"vehicle_type_id":"4","last_reported":1730239757,"current_range_meters":39200,"station_id":"ce4bh292rcd13ifvqdg0","pricing_plan_id":"cebpf4jnsgd1na2vs0mg"},{"bike_id":"c8b0ddcb-9c74-47bf-bfe0-29fe3f9c6036","system_id":"levelo_inurba_marseille","lat":43.30589,"lon":5.39349,"is_reserved":false,"is_disabled":false,"rental_uris":{"android":"levelo://app?vid=c8b0ddcb-9c74-47bf-bfe0-29fe3f9c6036","ios":"levelo://app?vid=c8b0ddcb-9c74-47bf-bfe0-29fe3f9c6036"},"vehicle_type_id":"4","last_reported":1730239757,"current_range_meters":39200,"station_id":"ce4bh0p2rcd13ifvqd80","pricing_plan_id":"cebpf4jnsgd1na2vs0mg"},{"bike_id":"99065775-2749-4c2e-9bd2-f85a9cdcaa7e","system_id":"levelo_inurba_marseille","lat":43.28615,"lon":5.35101,"is_reserved":false,"is_disabled":false,"rental_uris":{"android":"levelo://app?vid=99065775-2749-4c2e-9bd2-f85a9cdcaa7e","ios":"levelo://app?vid=99065775-2749-4c2e-9bd2-f85a9cdcaa7e"},"vehicle_type_id":"4","last_reported":1730239757,"current_range_meters":9200,"station_id":"ce4bhch2rcd13ifvqeug","pricing_plan_id":"cebpf4jnsgd1na2vs0mg"},{"bike_id":"95ce8da4-47fe-462b-a370-38ca4912fb9f","system_id":"levelo_inurba_marseille","lat":43.3009,"lon":5.39079,"is_reserved":false,"is_disabled":false,"rental_uris":{"android":"levelo://app?vid=95ce8da4-47fe-462b-a370-38ca4912fb9f","ios":"levelo://app?vid=95ce8da4-47fe-462b-a370-38ca4912fb9f"},"vehicle_type_id":"4","last_reported":1730239757,"current_range_meters":38800,"station_id":"ce4bh192rcd13ifvqdb0","pricing_plan_id":"cebpf4jnsgd1na2vs0mg"},{"bike_id":"ad8fd308-ff6f-45fc-9b50-3e03cbf09dc0","system_id":"levelo_inurba_marseille","lat":43.31133,"lon":5.37747,"is_reserved":false,"is_disabled":false,"rental_uris":{"android":"levelo://app?vid=ad8fd308-ff6f-45fc-9b50-3e03cbf09dc0","ios":"levelo://app?vid=ad8fd308-ff6f-45fc-9b50-3e03cbf09dc0"},"vehicle_type_id":"4","last_reported":1730239757,"current_range_meters":23200,"station_id":"ce4bgt92rcd13ifvqcg0","pricing_plan_id":"cebpf4jnsgd1na2vs0mg"},{"bike_id":"65ebd49a-94e0-4731-b170-9f1ac0fc0675","system_id":"levelo_inurba_marseille","lat":43.3153,"lon":5.38027,"is_reserved":false,"is_disabled":false,"rental_uris":{"android":"levelo://app?vid=65ebd49a-94e0-4731-b170-9f1ac0fc0675","ios":"levelo://app?vid=65ebd49a-94e0-4731-b170-9f1ac0fc0675"},"vehicle_type_id":"4","last_reported":1730239757,"current_range_meters":26800,"station_id":"ce4bhsp2rcd13ifvqi50","pricing_plan_id":"cebpf4jnsgd1na2vs0mg"},{"bike_id":"b87636ba-074b-49ec-8abf-f6529ae02217","system_id":"levelo_inurba_marseille","lat":43.27902,"lon":5.37996,"is_reserved":false,"is_disabled":false,"rental_uris":{"android":"levelo://app?vid=b87636ba-074b-49ec-8abf-f6529ae02217","ios":"levelo://app?vid=b87636ba-074b-49ec-8abf-f6529ae02217"},"vehicle_type_id":"4","last_reported":1730239757,"current_range_meters":14000,"station_id":"ce4bhf92rcd13ifvqf50","pricing_plan_id":"cebpf4jnsgd1na2vs0mg"},{"bike_id":"ec06eb51-e6dd-407e-90ef-bd6841b0a5f2","system_id":"levelo_inurba_marseille","lat":43.29275,"lon":5.4012,"is_reserved":false,"is_disabled":false,"rental_uris":{"android":"levelo://app?vid=ec06eb51-e6dd-407e-90ef-bd6841b0a5f2","ios":"levelo://app?vid=ec06eb51-e6dd-407e-90ef-bd6841b0a5f2"},"vehicle_type_id":"4","last_reported":1730239757,"current_range_meters":38800,"station_id":"ce4bh312rcd13ifvqdk0","pricing_plan_id":"cebpf4jnsgd1na2vs0mg"},{"bike_id":"89e38b75-715d-45d9-8d20-ab76754c4bb3","system_id":"levelo_inurba_marseille","lat":43.27957,"lon":5.38698,"is_reserved":false,"is_disabled":false,"rental_uris":{"android":"levelo://app?vid=89e38b75-715d-45d9-8d20-ab76754c4bb3","ios":"levelo://app?vid=89e38b75-715d-45d9-8d20-ab76754c4bb3"},"vehicle_type_id":"4","last_reported":1730239757,"current_range_meters":38800,"station_id":"ce4bhg12rcd13ifvqf80","pricing_plan_id":"cebpf4jnsgd1na2vs0mg"},{"bike_id":"60d8ea4c-a707-440f-9b73-c70e3a871214","system_id":"levelo_inurba_marseille","lat":43.28858,"lon":5.39328,"is_reserved":false,"is_disabled":false,"rental_uris":{"android":"levelo://app?vid=60d8ea4c-a707-440f-9b73-c70e3a871214","ios":"levelo://app?vid=60d8ea4c-a707-440f-9b73-c70e3a871214"},"vehicle_type_id":"4","last_reported":1730239757,"current_range_meters":38400,"station_id":"ce4bh2p2rcd13ifvqdi0","pricing_plan_id":"cebpf4jnsgd1na2vs0mg"},{"bike_id":"f1307045-8336-4a78-aa5d-7b1378f3299d","system_id":"levelo_inurba_marseille","lat":43.29274,"lon":5.40118,"is_reserved":false,"is_disabled":false,"rental_uris":{"android":"levelo://app?vid=f1307045-8336-4a78-aa5d-7b1378f3299d","ios":"levelo://app?vid=f1307045-8336-4a78-aa5d-7b1378f3299d"},"vehicle_type_id":"4","last_reported":1730239757,"current_range_meters":9600,"station_id":"ce4bh312rcd13ifvqdk0","pricing_plan_id":"cebpf4jnsgd1na2vs0mg"},{"bike_id":"20dfae4b-0d18-410b-9f7f-08675354fd6a","system_id":"levelo_inurba_marseille","lat":43.30431,"lon":5.38886,"is_reserved":false,"is_disabled":false,"rental_uris":{"android":"levelo://app?vid=20dfae4b-0d18-410b-9f7f-08675354fd6a","ios":"levelo://app?vid=20dfae4b-0d18-410b-9f7f-08675354fd6a"},"vehicle_type_id":"4","last_reported":1730239757,"current_range_meters":20000,"station_id":"ce4bgk12rcd13ifvqbi0","pricing_plan_id":"cebpf4jnsgd1na2vs0mg"},{"bike_id":"71386a70-93fb-4328-bcf4-ce864fb65d75","system_id":"levelo_inurba_marseille","lat":43.2842,"lon":5.34991,"is_reserved":false,"is_disabled":false,"rental_uris":{"android":"levelo://app?vid=71386a70-93fb-4328-bcf4-ce864fb65d75","ios":"levelo://app?vid=71386a70-93fb-4328-bcf4-ce864fb65d75"},"vehicle_type_id":"4","last_reported":1730239757,"current_range_meters":16000,"station_id":"ce4bhbh2rcd13ifvqepg","pricing_plan_id":"cebpf4jnsgd1na2vs0mg"},{"bike_id":"9472f6e1-aa8e-4f91-9087-00b18bd85179","system_id":"levelo_inurba_marseille","lat":43.28614,"lon":5.35103,"is_reserved":false,"is_disabled":false,"rental_uris":{"android":"levelo://app?vid=9472f6e1-aa8e-4f91-9087-00b18bd85179","ios":"levelo://app?vid=9472f6e1-aa8e-4f91-9087-00b18bd85179"},"vehicle_type_id":"4","last_reported":1730239757,"current_range_meters":26000,"station_id":"ce4bhch2rcd13ifvqeug","pricing_plan_id":"cebpf4jnsgd1na2vs0mg"},{"bike_id":"fe2904da-4ac6-42de-b232-dbec16338c49","system_id":"levelo_inurba_marseille","lat":43.33676,"lon":5.35754,"is_reserved":false,"is_disabled":false,"rental_uris":{"android":"levelo://app?vid=fe2904da-4ac6-42de-b232-dbec16338c49","ios":"levelo://app?vid=fe2904da-4ac6-42de-b232-dbec16338c49"},"vehicle_type_id":"4","last_reported":1730239757,"current_range_meters":27200,"station_id":"","pricing_plan_id":"cebpf4jnsgd1na2vs0mg"},{"bike_id":"6a140148-e6e2-4a9b-a2b4-dffff918468e","system_id":"levelo_inurba_marseille","lat":43.30207,"lon":5.39463,"is_reserved":false,"is_disabled":false,"rental_uris":{"android":"levelo://app?vid=6a140148-e6e2-4a9b-a2b4-dffff918468e","ios":"levelo://app?vid=6a140148-e6e2-4a9b-a2b4-dffff918468e"},"vehicle_type_id":"4","last_reported":1730239757,"current_range_meters":39200,"station_id":"ce4bh0p2rcd13ifvqd70","pricing_plan_id":"cebpf4jnsgd1na2vs0mg"},{"bike_id":"d93e944a-1052-4a26-8348-6ce7ff5a64f1","system_id":"levelo_inurba_marseille","lat":43.3234,"lon":5.40619,"is_reserved":false,"is_disabled":false,"rental_uris":{"android":"levelo://app?vid=d93e944a-1052-4a26-8348-6ce7ff5a64f1","ios":"levelo://app?vid=d93e944a-1052-4a26-8348-6ce7ff5a64f1"},"vehicle_type_id":"4","last_reported":1730239757,"current_range_meters":9200,"station_id":"ce4bhq92rcd13ifvqhjg","pricing_plan_id":"cebpf4jnsgd1na2vs0mg"},{"bike_id":"e552ae5f-c2b2-4507-98bc-02dd271bcc79","system_id":"levelo_inurba_marseille","lat":43.29364,"lon":5.37851,"is_reserved":false,"is_disabled":false,"rental_uris":{"android":"levelo://app?vid=e552ae5f-c2b2-4507-98bc-02dd271bcc79","ios":"levelo://app?vid=e552ae5f-c2b2-4507-98bc-02dd271bcc79"},"vehicle_type_id":"4","last_reported":1730239757,"current_range_meters":28800,"station_id":"ce4bgjh2rcd13ifvqbf0","pricing_plan_id":"cebpf4jnsgd1na2vs0mg"},{"bike_id":"9d0cbebc-a605-484f-ac0e-4f55e1c6fa1f","system_id":"levelo_inurba_marseille","lat":43.29575,"lon":5.39971,"is_reserved":false,"is_disabled":false,"rental_uris":{"android":"levelo://app?vid=9d0cbebc-a605-484f-ac0e-4f55e1c6fa1f","ios":"levelo://app?vid=9d0cbebc-a605-484f-ac0e-4f55e1c6fa1f"},"vehicle_type_id":"4","last_reported":1730239757,"current_range_meters":32000,"station_id":"ce4bh312rcd13ifvqdj0","pricing_plan_id":"cebpf4jnsgd1na2vs0mg"},{"bike_id":"9fb02925-e4c3-48e2-94e9-d105ec3f767a","system_id":"levelo_inurba_marseille","lat":43.30802,"lon":5.37651,"is_reserved":false,"is_disabled":false,"rental_uris":{"android":"levelo://app?vid=9fb02925-e4c3-48e2-94e9-d105ec3f767a","ios":"levelo://app?vid=9fb02925-e4c3-48e2-94e9-d105ec3f767a"},"vehicle_type_id":"4","last_reported":1730239757,"current_range_meters":38800,"station_id":"ce4bgv92rcd13ifvqcq0","pricing_plan_id":"cebpf4jnsgd1na2vs0mg"},{"bike_id":"56e7cf53-9329-4857-afd0-bf9c5007df45","system_id":"levelo_inurba_marseille","lat":43.25824,"lon":5.39419,"is_reserved":false,"is_disabled":false,"rental_uris":{"android":"levelo://app?vid=56e7cf53-9329-4857-afd0-bf9c5007df45","ios":"levelo://app?vid=56e7cf53-9329-4857-afd0-bf9c5007df45"},"vehicle_type_id":"4","last_reported":1730239757,"current_range_meters":28800,"station_id":"ce4bhip2rcd13ifvqft0","pricing_plan_id":"cebpf4jnsgd1na2vs0mg"},{"bike_id":"929fd36a-b9f6-4c7f-b391-f23b6a1f32b4","system_id":"levelo_inurba_marseille","lat":43.31256,"lon":5.37087,"is_reserved":false,"is_disabled":false,"rental_uris":{"android":"levelo://app?vid=929fd36a-b9f6-4c7f-b391-f23b6a1f32b4","ios":"levelo://app?vid=929fd36a-b9f6-4c7f-b391-f23b6a1f32b4"},"vehicle_type_id":"4","last_reported":1730239757,"current_range_meters":32000,"station_id":"","pricing_plan_id":"cebpf4jnsgd1na2vs0mg"},{"bike_id":"679dca57-da96-4bee-8ea5-7e5fca4614c3","system_id":"levelo_inurba_marseille","lat":43.28106,"lon":5.37842,"is_reserved":false,"is_disabled":false,"rental_uris":{"android":"levelo://app?vid=679dca57-da96-4bee-8ea5-7e5fca4614c3","ios":"levelo://app?vid=679dca57-da96-4bee-8ea5-7e5fca4614c3"},"vehicle_type_id":"4","last_reported":1730239757,"current_range_meters":16000,"station_id":"ce4bha12rcd13ifvqee0","pricing_plan_id":"cebpf4jnsgd1na2vs0mg"},{"bike_id":"bf105057-4c6c-4f15-966a-e6bd9ab64fa1","system_id":"levelo_inurba_marseille","lat":43.28402,"lon":5.37523,"is_reserved":false,"is_disabled":false,"rental_uris":{"android":"levelo://app?vid=bf105057-4c6c-4f15-966a-e6bd9ab64fa1","ios":"levelo://app?vid=bf105057-4c6c-4f15-966a-e6bd9ab64fa1"},"vehicle_type_id":"4","last_reported":1730239757,"current_range_meters":38800,"station_id":"ce4bh412rcd13ifvqds0","pricing_plan_id":"cebpf4jnsgd1na2vs0mg"},{"bike_id":"25e90825-819c-494a-9a04-12bbb0c56b6b","system_id":"levelo_inurba_marseille","lat":43.31536,"lon":5.3803,"is_reserved":false,"is_disabled":false,"rental_uris":{"android":"levelo://app?vid=25e90825-819c-494a-9a04-12bbb0c56b6b","ios":"levelo://app?vid=25e90825-819c-494a-9a04-12bbb0c56b6b"},"vehicle_type_id":"4","last_reported":1730239757,"current_range_meters":31200,"station_id":"ce4bhsp2rcd13ifvqi50","pricing_plan_id":"cebpf4jnsgd1na2vs0mg"},{"bike_id":"2dc2e7aa-c9cc-457e-aadf-e56119f0ec59","system_id":"levelo_inurba_marseille","lat":43.27952,"lon":5.38854,"is_reserved":false,"is_disabled":false,"rental_uris":{"android":"levelo://app?vid=2dc2e7aa-c9cc-457e-aadf-e56119f0ec59","ios":"levelo://app?vid=2dc2e7aa-c9cc-457e-aadf-e56119f0ec59"},"vehicle_type_id":"4","last_reported":1730239757,"current_range_meters":33200,"station_id":"","pricing_plan_id":"cebpf4jnsgd1na2vs0mg"},{"bike_id":"277563c0-f996-45df-b660-f125f9f24472","system_id":"levelo_inurba_marseille","lat":43.30542,"lon":5.36541,"is_reserved":false,"is_disabled":false,"rental_uris":{"android":"levelo://app?vid=277563c0-f996-45df-b660-f125f9f24472","ios":"levelo://app?vid=277563c0-f996-45df-b660-f125f9f24472"},"vehicle_type_id":"4","last_reported":1730239757,"current_range_meters":33200,"station_id":"ce4bgs12rcd13ifvqcag","pricing_plan_id":"cebpf4jnsgd1na2vs0mg"},{"bike_id":"c4f705f9-cb6e-4d01-b200-9f8930e5dd6b","system_id":"levelo_inurba_marseille","lat":43.241796,"lon":5.39736,"is_reserved":false,"is_disabled":false,"rental_uris":{"android":"levelo://app?vid=c4f705f9-cb6e-4d01-b200-9f8930e5dd6b","ios":"levelo://app?vid=c4f705f9-cb6e-4d01-b200-9f8930e5dd6b"},"vehicle_type_id":"4","last_reported":1730239757,"current_range_meters":38800,"station_id":"ce4bhn12rcd13ifvqgpg","pricing_plan_id":"cebpf4jnsgd1na2vs0mg"},{"bike_id":"32724ce4-79b3-4766-bd7f-1b32301ca45e","system_id":"levelo_inurba_marseille","lat":43.25583,"lon":5.38225,"is_reserved":false,"is_disabled":false,"rental_uris":{"android":"levelo://app?vid=32724ce4-79b3-4766-bd7f-1b32301ca45e","ios":"levelo://app?vid=32724ce4-79b3-4766-bd7f-1b32301ca45e"},"vehicle_type_id":"4","last_reported":1730239757,"current_range_meters":18800,"station_id":"ce4bhih2rcd13ifvqfs0","pricing_plan_id":"cebpf4jnsgd1na2vs0mg"},{"bike_id":"28cbcf23-5ad0-4746-be8b-7a028cbebf33","system_id":"levelo_inurba_marseille","lat":43.3265,"lon":5.38866,"is_reserved":false,"is_disabled":false,"rental_uris":{"android":"levelo://app?vid=28cbcf23-5ad0-4746-be8b-7a028cbebf33","ios":"levelo://app?vid=28cbcf23-5ad0-4746-be8b-7a028cbebf33"},"vehicle_type_id":"4","last_reported":1730239757,"current_range_meters":35200,"station_id":"","pricing_plan_id":"cebpf4jnsgd1na2vs0mg"},{"bike_id":"f1b39d68-8ebd-4024-a59f-097526725f93","system_id":"levelo_inurba_marseille","lat":43.29285,"lon":5.40118,"is_reserved":false,"is_disabled":false,"rental_uris":{"android":"levelo://app?vid=f1b39d68-8ebd-4024-a59f-097526725f93","ios":"levelo://app?vid=f1b39d68-8ebd-4024-a59f-097526725f93"},"vehicle_type_id":"4","last_reported":1730239757,"current_range_meters":10000,"station_id":"ce4bh312rcd13ifvqdk0","pricing_plan_id":"cebpf4jnsgd1na2vs0mg"},{"bike_id":"dc4557c4-96f9-42fb-96c7-988bd174ee55","system_id":"levelo_inurba_marseille","lat":43.29416,"lon":5.38625,"is_reserved":false,"is_disabled":false,"rental_uris":{"android":"levelo://app?vid=dc4557c4-96f9-42fb-96c7-988bd174ee55","ios":"levelo://app?vid=dc4557c4-96f9-42fb-96c7-988bd174ee55"},"vehicle_type_id":"4","last_reported":1730239757,"current_range_meters":30400,"station_id":"ce4bh2h2rcd13ifvqdh0","pricing_plan_id":"cebpf4jnsgd1na2vs0mg"},{"bike_id":"a37d3a5d-d5f1-4765-a473-29fdd132fa14","system_id":"levelo_inurba_marseille","lat":43.27816,"lon":5.40716,"is_reserved":false,"is_disabled":false,"rental_uris":{"android":"levelo://app?vid=a37d3a5d-d5f1-4765-a473-29fdd132fa14","ios":"levelo://app?vid=a37d3a5d-d5f1-4765-a473-29fdd132fa14"},"vehicle_type_id":"4","last_reported":1730239757,"current_range_meters":25600,"station_id":"ce4bhnh2rcd13ifvqgtg","pricing_plan_id":"cebpf4jnsgd1na2vs0mg"},{"bike_id":"ba7854d0-62b6-449e-8088-30fc62e53806","system_id":"levelo_inurba_marseille","lat":43.29871,"lon":5.39726,"is_reserved":false,"is_disabled":false,"rental_uris":{"android":"levelo://app?vid=ba7854d0-62b6-449e-8088-30fc62e53806","ios":"levelo://app?vid=ba7854d0-62b6-449e-8088-30fc62e53806"},"vehicle_type_id":"4","last_reported":1730239757,"current_range_meters":38800,"station_id":"ce4bh0h2rcd13ifvqd50","pricing_plan_id":"cebpf4jnsgd1na2vs0mg"},{"bike_id":"de26d2e3-435f-4444-a71a-85f92f4cf820","system_id":"levelo_inurba_marseille","lat":43.29519,"lon":5.39037,"is_reserved":false,"is_disabled":false,"rental_uris":{"android":"levelo://app?vid=de26d2e3-435f-4444-a71a-85f92f4cf820","ios":"levelo://app?vid=de26d2e3-435f-4444-a71a-85f92f4cf820"},"vehicle_type_id":"4","last_reported":1730239757,"current_range_meters":25600,"station_id":"ce4bh3p2rcd13ifvqdp0","pricing_plan_id":"cebpf4jnsgd1na2vs0mg"},{"bike_id":"e9d5f856-d46f-47de-8318-6124ee5e67ab","system_id":"levelo_inurba_marseille","lat":43.30799,"lon":5.38141,"is_reserved":false,"is_disabled":false,"rental_uris":{"android":"levelo://app?vid=e9d5f856-d46f-47de-8318-6124ee5e67ab","ios":"levelo://app?vid=e9d5f856-d46f-47de-8318-6124ee5e67ab"},"vehicle_type_id":"4","last_reported":1730239757,"current_range_meters":8800,"station_id":"ce4bgt12rcd13ifvqce0","pricing_plan_id":"cebpf4jnsgd1na2vs0mg"},{"bike_id":"03486306-1054-4a4e-94ec-39bd77e6ae84","system_id":"levelo_inurba_marseille","lat":43.29415,"lon":5.38626,"is_reserved":false,"is_disabled":false,"rental_uris":{"android":"levelo://app?vid=03486306-1054-4a4e-94ec-39bd77e6ae84","ios":"levelo://app?vid=03486306-1054-4a4e-94ec-39bd77e6ae84"},"vehicle_type_id":"4","last_reported":1730239757,"current_range_meters":36000,"station_id":"ce4bh2h2rcd13ifvqdh0","pricing_plan_id":"cebpf4jnsgd1na2vs0mg"},{"bike_id":"2d198377-2c19-4e5f-b7b9-5acc4795c543","system_id":"levelo_inurba_marseille","lat":43.31757,"lon":5.39015,"is_reserved":false,"is_disabled":false,"rental_uris":{"android":"levelo://app?vid=2d198377-2c19-4e5f-b7b9-5acc4795c543","ios":"levelo://app?vid=2d198377-2c19-4e5f-b7b9-5acc4795c543"},"vehicle_type_id":"4","last_reported":1730239757,"current_range_meters":11600,"station_id":"ce4bhqp2rcd13ifvqhng","pricing_plan_id":"cebpf4jnsgd1na2vs0mg"},{"bike_id":"f293b1fc-db1c-4812-b49c-4f059b752252","system_id":"levelo_inurba_marseille","lat":43.29375,"lon":5.37849,"is_reserved":false,"is_disabled":false,"rental_uris":{"android":"levelo://app?vid=f293b1fc-db1c-4812-b49c-4f059b752252","ios":"levelo://app?vid=f293b1fc-db1c-4812-b49c-4f059b752252"},"vehicle_type_id":"4","last_reported":1730239757,"current_range_meters":6800,"station_id":"ce4bgjh2rcd13ifvqbf0","pricing_plan_id":"cebpf4jnsgd1na2vs0mg"},{"bike_id":"5da84c8a-0785-4f55-b177-f17040c2e314","system_id":"levelo_inurba_marseille","lat":43.31883,"lon":5.40733,"is_reserved":false,"is_disabled":false,"rental_uris":{"android":"levelo://app?vid=5da84c8a-0785-4f55-b177-f17040c2e314","ios":"levelo://app?vid=5da84c8a-0785-4f55-b177-f17040c2e314"},"vehicle_type_id":"4","last_reported":1730239757,"current_range_meters":11200,"station_id":"ce4bhq12rcd13ifvqhig","pricing_plan_id":"cebpf4jnsgd1na2vs0mg"},{"bike_id":"22f0600a-2691-4760-befa-2ce1f8b909d0","system_id":"levelo_inurba_marseille","lat":43.29072,"lon":5.35908,"is_reserved":false,"is_disabled":false,"rental_uris":{"android":"levelo://app?vid=22f0600a-2691-4760-befa-2ce1f8b909d0","ios":"levelo://app?vid=22f0600a-2691-4760-befa-2ce1f8b909d0"},"vehicle_type_id":"4","last_reported":1730239757,"current_range_meters":20800,"station_id":"ce4bha92rcd13ifvqeg0","pricing_plan_id":"cebpf4jnsgd1na2vs0mg"},{"bike_id":"69bf09a2-99dc-4587-8eac-59af97194ad2","system_id":"levelo_inurba_marseille","lat":43.29714,"lon":5.37687,"is_reserved":false,"is_disabled":false,"rental_uris":{"android":"levelo://app?vid=69bf09a2-99dc-4587-8eac-59af97194ad2","ios":"levelo://app?vid=69bf09a2-99dc-4587-8eac-59af97194ad2"},"vehicle_type_id":"4","last_reported":1730239757,"current_range_meters":38800,"station_id":"ce4bgkh2rcd13ifvqbl0","pricing_plan_id":"cebpf4jnsgd1na2vs0mg"},{"bike_id":"c8f78a81-e5a5-436b-bf09-290bef323097","system_id":"levelo_inurba_marseille","lat":43.26931,"lon":5.38921,"is_reserved":false,"is_disabled":false,"rental_uris":{"android":"levelo://app?vid=c8f78a81-e5a5-436b-bf09-290bef323097","ios":"levelo://app?vid=c8f78a81-e5a5-436b-bf09-290bef323097"},"vehicle_type_id":"4","last_reported":1730239757,"current_range_meters":37600,"station_id":"ce4bhhh2rcd13ifvqfl0","pricing_plan_id":"cebpf4jnsgd1na2vs0mg"},{"bike_id":"a1f83bf3-eed6-45ed-a98a-d29a1a4fe512","system_id":"levelo_inurba_marseille","lat":43.29933,"lon":5.41303,"is_reserved":false,"is_disabled":false,"rental_uris":{"android":"levelo://app?vid=a1f83bf3-eed6-45ed-a98a-d29a1a4fe512","ios":"levelo://app?vid=a1f83bf3-eed6-45ed-a98a-d29a1a4fe512"},"vehicle_type_id":"4","last_reported":1730239757,"current_range_meters":26800,"station_id":"ce4bhp12rcd13ifvqh9g","pricing_plan_id":"cebpf4jnsgd1na2vs0mg"},{"bike_id":"8c663904-263f-4f11-a08c-ef85e2b66331","system_id":"levelo_inurba_marseille","lat":43.30544,"lon":5.3843,"is_reserved":false,"is_disabled":false,"rental_uris":{"android":"levelo://app?vid=8c663904-263f-4f11-a08c-ef85e2b66331","ios":"levelo://app?vid=8c663904-263f-4f11-a08c-ef85e2b66331"},"vehicle_type_id":"4","last_reported":1730239757,"current_range_meters":17200,"station_id":"ce4bgg92rcd13ifvqb30","pricing_plan_id":"cebpf4jnsgd1na2vs0mg"},{"bike_id":"4aea2264-7c38-4c9d-b643-fddc90b2caa0","system_id":"levelo_inurba_marseille","lat":43.274592,"lon":5.424339,"is_reserved":false,"is_disabled":false,"rental_uris":{"android":"levelo://app?vid=4aea2264-7c38-4c9d-b643-fddc90b2caa0","ios":"levelo://app?vid=4aea2264-7c38-4c9d-b643-fddc90b2caa0"},"vehicle_type_id":"4","last_reported":1730239757,"current_range_meters":20400,"station_id":"ce4bhn92rcd13ifvqgrg","pricing_plan_id":"cebpf4jnsgd1na2vs0mg"},{"bike_id":"84ab4192-78ed-432b-9976-1559aadfc733","system_id":"levelo_inurba_marseille","lat":43.28103,"lon":5.37836,"is_reserved":false,"is_disabled":false,"rental_uris":{"android":"levelo://app?vid=84ab4192-78ed-432b-9976-1559aadfc733","ios":"levelo://app?vid=84ab4192-78ed-432b-9976-1559aadfc733"},"vehicle_type_id":"4","last_reported":1730239757,"current_range_meters":6800,"station_id":"ce4bha12rcd13ifvqee0","pricing_plan_id":"cebpf4jnsgd1na2vs0mg"},{"bike_id":"074dde76-011d-4814-a0ca-ea37cd171c68","system_id":"levelo_inurba_marseille","lat":43.28473,"lon":5.38573,"is_reserved":false,"is_disabled":false,"rental_uris":{"android":"levelo://app?vid=074dde76-011d-4814-a0ca-ea37cd171c68","ios":"levelo://app?vid=074dde76-011d-4814-a0ca-ea37cd171c68"},"vehicle_type_id":"4","last_reported":1730239757,"current_range_meters":23200,"station_id":"ce4bh8p2rcd13ifvqeb0","pricing_plan_id":"cebpf4jnsgd1na2vs0mg"},{"bike_id":"766801a5-7dbd-464a-bc56-398e14b9cf78","system_id":"levelo_inurba_marseille","lat":43.29805,"lon":5.37136,"is_reserved":false,"is_disabled":false,"rental_uris":{"android":"levelo://app?vid=766801a5-7dbd-464a-bc56-398e14b9cf78","ios":"levelo://app?vid=766801a5-7dbd-464a-bc56-398e14b9cf78"},"vehicle_type_id":"4","last_reported":1730239757,"current_range_meters":8800,"station_id":"","pricing_plan_id":"cebpf4jnsgd1na2vs0mg"},{"bike_id":"afc8a59e-718c-432c-b226-d6be0903e5fb","system_id":"levelo_inurba_marseille","lat":43.24386,"lon":5.3706,"is_reserved":false,"is_disabled":false,"rental_uris":{"android":"levelo://app?vid=afc8a59e-718c-432c-b226-d6be0903e5fb","ios":"levelo://app?vid=afc8a59e-718c-432c-b226-d6be0903e5fb"},"vehicle_type_id":"4","last_reported":1730239757,"current_range_meters":36400,"station_id":"ce4bhhh2rcd13ifvqfk0","pricing_plan_id":"cebpf4jnsgd1na2vs0mg"},{"bike_id":"82b84855-c758-4a47-9f5e-92c4c940506e","system_id":"levelo_inurba_marseille","lat":43.31078,"lon":5.38356,"is_reserved":false,"is_disabled":false,"rental_uris":{"android":"levelo://app?vid=82b84855-c758-4a47-9f5e-92c4c940506e","ios":"levelo://app?vid=82b84855-c758-4a47-9f5e-92c4c940506e"},"vehicle_type_id":"4","last_reported":1730239757,"current_range_meters":36000,"station_id":"ce4bgv92rcd13ifvqcr0","pricing_plan_id":"cebpf4jnsgd1na2vs0mg"},{"bike_id":"ab94952e-a9f7-44fc-9c24-2d96dd56368e","system_id":"levelo_inurba_marseille","lat":43.29037,"lon":5.38654,"is_reserved":false,"is_disabled":false,"rental_uris":{"android":"levelo://app?vid=ab94952e-a9f7-44fc-9c24-2d96dd56368e","ios":"levelo://app?vid=ab94952e-a9f7-44fc-9c24-2d96dd56368e"},"vehicle_type_id":"4","last_reported":1730239757,"current_range_meters":33600,"station_id":"ce4bh4p2rcd13ifvqe0g","pricing_plan_id":"cebpf4jnsgd1na2vs0mg"},{"bike_id":"f70c948d-188a-4845-9596-725c49994275","system_id":"levelo_inurba_marseille","lat":43.2985,"lon":5.36282,"is_reserved":false,"is_disabled":false,"rental_uris":{"android":"levelo://app?vid=f70c948d-188a-4845-9596-725c49994275","ios":"levelo://app?vid=f70c948d-188a-4845-9596-725c49994275"},"vehicle_type_id":"4","last_reported":1730239757,"current_range_meters":25200,"station_id":"ce4bgpp2rcd13ifvqc3g","pricing_plan_id":"cebpf4jnsgd1na2vs0mg"},{"bike_id":"13f2c6b1-9e4c-449b-bc68-4fe1d899dec0","system_id":"levelo_inurba_marseille","lat":43.29979,"lon":5.37172,"is_reserved":false,"is_disabled":false,"rental_uris":{"android":"levelo://app?vid=13f2c6b1-9e4c-449b-bc68-4fe1d899dec0","ios":"levelo://app?vid=13f2c6b1-9e4c-449b-bc68-4fe1d899dec0"},"vehicle_type_id":"4","last_reported":1730239757,"current_range_meters":36800,"station_id":"ce4bgr92rcd13ifvqc7g","pricing_plan_id":"cebpf4jnsgd1na2vs0mg"},{"bike_id":"aa4a3c93-e938-42a5-9da4-db5bdd028699","system_id":"levelo_inurba_marseille","lat":43.297791,"lon":5.371538,"is_reserved":false,"is_disabled":false,"rental_uris":{"android":"levelo://app?vid=aa4a3c93-e938-42a5-9da4-db5bdd028699","ios":"levelo://app?vid=aa4a3c93-e938-42a5-9da4-db5bdd028699"},"vehicle_type_id":"4","last_reported":1730239757,"current_range_meters":37600,"station_id":"ce4bgop2rcd13ifvqc1g","pricing_plan_id":"cebpf4jnsgd1na2vs0mg"},{"bike_id":"77dc0b08-ea4e-4b2d-b82f-fcf9cdff2fbe","system_id":"levelo_inurba_marseille","lat":43.28661,"lon":5.36349,"is_reserved":false,"is_disabled":false,"rental_uris":{"android":"levelo://app?vid=77dc0b08-ea4e-4b2d-b82f-fcf9cdff2fbe","ios":"levelo://app?vid=77dc0b08-ea4e-4b2d-b82f-fcf9cdff2fbe"},"vehicle_type_id":"4","last_reported":1730239757,"current_range_meters":38800,"station_id":"ce4bhah2rcd13ifvqej0","pricing_plan_id":"cebpf4jnsgd1na2vs0mg"},{"bike_id":"84a34f64-d710-4f7b-8f16-f367a9f930e0","system_id":"levelo_inurba_marseille","lat":43.26063,"lon":5.3939,"is_reserved":false,"is_disabled":false,"rental_uris":{"android":"levelo://app?vid=84a34f64-d710-4f7b-8f16-f367a9f930e0","ios":"levelo://app?vid=84a34f64-d710-4f7b-8f16-f367a9f930e0"},"vehicle_type_id":"4","last_reported":1730239757,"current_range_meters":28400,"station_id":"ce4bhh92rcd13ifvqfj0","pricing_plan_id":"cebpf4jnsgd1na2vs0mg"},{"bike_id":"a1a6c8b4-85d6-4f26-805f-292d516d4f6e","system_id":"levelo_inurba_marseille","lat":43.30426,"lon":5.41282,"is_reserved":false,"is_disabled":false,"rental_uris":{"android":"levelo://app?vid=a1a6c8b4-85d6-4f26-805f-292d516d4f6e","ios":"levelo://app?vid=a1a6c8b4-85d6-4f26-805f-292d516d4f6e"},"vehicle_type_id":"4","last_reported":1730239757,"current_range_meters":14400,"station_id":"ce4bhop2rcd13ifvqh8g","pricing_plan_id":"cebpf4jnsgd1na2vs0mg"},{"bike_id":"8145dba1-a31c-418d-9c1e-861257654ead","system_id":"levelo_inurba_marseille","lat":43.29067,"lon":5.37156,"is_reserved":false,"is_disabled":false,"rental_uris":{"android":"levelo://app?vid=8145dba1-a31c-418d-9c1e-861257654ead","ios":"levelo://app?vid=8145dba1-a31c-418d-9c1e-861257654ead"},"vehicle_type_id":"4","last_reported":1730239757,"current_range_meters":36800,"station_id":"ce4bh5p2rcd13ifvqe4g","pricing_plan_id":"cebpf4jnsgd1na2vs0mg"},{"bike_id":"439c9ffc-998e-4a3d-b5fc-149ce1a4abe3","system_id":"levelo_inurba_marseille","lat":43.28866,"lon":5.35834,"is_reserved":false,"is_disabled":false,"rental_uris":{"android":"levelo://app?vid=439c9ffc-998e-4a3d-b5fc-149ce1a4abe3","ios":"levelo://app?vid=439c9ffc-998e-4a3d-b5fc-149ce1a4abe3"},"vehicle_type_id":"4","last_reported":1730239757,"current_range_meters":8000,"station_id":"ce4bhb12rcd13ifvqem0","pricing_plan_id":"cebpf4jnsgd1na2vs0mg"},{"bike_id":"479de25b-98ee-4b25-b0bc-977cf6911f76","system_id":"levelo_inurba_marseille","lat":43.30093,"lon":5.39088,"is_reserved":false,"is_disabled":false,"rental_uris":{"android":"levelo://app?vid=479de25b-98ee-4b25-b0bc-977cf6911f76","ios":"levelo://app?vid=479de25b-98ee-4b25-b0bc-977cf6911f76"},"vehicle_type_id":"4","last_reported":1730239757,"current_range_meters":38400,"station_id":"ce4bh192rcd13ifvqdb0","pricing_plan_id":"cebpf4jnsgd1na2vs0mg"},{"bike_id":"b6548595-0140-4e44-a88a-0c6255596315","system_id":"levelo_inurba_marseille","lat":43.29629,"lon":5.40592,"is_reserved":false,"is_disabled":false,"rental_uris":{"android":"levelo://app?vid=b6548595-0140-4e44-a88a-0c6255596315","ios":"levelo://app?vid=b6548595-0140-4e44-a88a-0c6255596315"},"vehicle_type_id":"4","last_reported":1730239757,"current_range_meters":36000,"station_id":"ce4bh0h2rcd13ifvqd60","pricing_plan_id":"cebpf4jnsgd1na2vs0mg"},{"bike_id":"49b34d6a-4e76-47a8-9689-e9d8edd613f0","system_id":"levelo_inurba_marseille","lat":43.28718,"lon":5.37938,"is_reserved":false,"is_disabled":false,"rental_uris":{"android":"levelo://app?vid=49b34d6a-4e76-47a8-9689-e9d8edd613f0","ios":"levelo://app?vid=49b34d6a-4e76-47a8-9689-e9d8edd613f0"},"vehicle_type_id":"4","last_reported":1730239757,"current_range_meters":38800,"station_id":"ce4bh9p2rcd13ifvqec0","pricing_plan_id":"cebpf4jnsgd1na2vs0mg"},{"bike_id":"2372c5d2-97af-446e-b56b-a226889e1485","system_id":"levelo_inurba_marseille","lat":43.32486,"lon":5.36552,"is_reserved":false,"is_disabled":false,"rental_uris":{"android":"levelo://app?vid=2372c5d2-97af-446e-b56b-a226889e1485","ios":"levelo://app?vid=2372c5d2-97af-446e-b56b-a226889e1485"},"vehicle_type_id":"4","last_reported":1730239757,"current_range_meters":39200,"station_id":"ce4bhs12rcd13ifvqhvg","pricing_plan_id":"cebpf4jnsgd1na2vs0mg"},{"bike_id":"63eeab84-de0e-4e4e-8979-ad0b23453e88","system_id":"levelo_inurba_marseille","lat":43.31531,"lon":5.38034,"is_reserved":false,"is_disabled":false,"rental_uris":{"android":"levelo://app?vid=63eeab84-de0e-4e4e-8979-ad0b23453e88","ios":"levelo://app?vid=63eeab84-de0e-4e4e-8979-ad0b23453e88"},"vehicle_type_id":"4","last_reported":1730239757,"current_range_meters":34000,"station_id":"ce4bhsp2rcd13ifvqi50","pricing_plan_id":"cebpf4jnsgd1na2vs0mg"},{"bike_id":"f0b90e8d-5a51-4c94-9d64-b125714c6e82","system_id":"levelo_inurba_marseille","lat":43.28932,"lon":5.36634,"is_reserved":false,"is_disabled":false,"rental_uris":{"android":"levelo://app?vid=f0b90e8d-5a51-4c94-9d64-b125714c6e82","ios":"levelo://app?vid=f0b90e8d-5a51-4c94-9d64-b125714c6e82"},"vehicle_type_id":"4","last_reported":1730239757,"current_range_meters":25600,"station_id":"ce4bhap2rcd13ifvqek0","pricing_plan_id":"cebpf4jnsgd1na2vs0mg"},{"bike_id":"a06aaa3a-469c-4c08-9a71-0d7e5c362262","system_id":"levelo_inurba_marseille","lat":43.33717,"lon":5.39175,"is_reserved":false,"is_disabled":false,"rental_uris":{"android":"levelo://app?vid=a06aaa3a-469c-4c08-9a71-0d7e5c362262","ios":"levelo://app?vid=a06aaa3a-469c-4c08-9a71-0d7e5c362262"},"vehicle_type_id":"4","last_reported":1730239757,"current_range_meters":30000,"station_id":"ce4bhr92rcd13ifvqhsg","pricing_plan_id":"cebpf4jnsgd1na2vs0mg"},{"bike_id":"ef6384a4-5414-49dc-a524-b373e1856b8f","system_id":"levelo_inurba_marseille","lat":43.28712,"lon":5.37923,"is_reserved":false,"is_disabled":false,"rental_uris":{"android":"levelo://app?vid=ef6384a4-5414-49dc-a524-b373e1856b8f","ios":"levelo://app?vid=ef6384a4-5414-49dc-a524-b373e1856b8f"},"vehicle_type_id":"4","last_reported":1730239757,"current_range_meters":24400,"station_id":"ce4bh9p2rcd13ifvqec0","pricing_plan_id":"cebpf4jnsgd1na2vs0mg"},{"bike_id":"9db6af96-1243-48a7-88ae-d2f63cb9cb8a","system_id":"levelo_inurba_marseille","lat":43.32335,"lon":5.40609,"is_reserved":false,"is_disabled":false,"rental_uris":{"android":"levelo://app?vid=9db6af96-1243-48a7-88ae-d2f63cb9cb8a","ios":"levelo://app?vid=9db6af96-1243-48a7-88ae-d2f63cb9cb8a"},"vehicle_type_id":"4","last_reported":1730239757,"current_range_meters":26800,"station_id":"ce4bhq92rcd13ifvqhjg","pricing_plan_id":"cebpf4jnsgd1na2vs0mg"},{"bike_id":"0785b622-7b6b-4ebb-80a9-e82bb70d958c","system_id":"levelo_inurba_marseille","lat":43.27563,"lon":5.38418,"is_reserved":false,"is_disabled":false,"rental_uris":{"android":"levelo://app?vid=0785b622-7b6b-4ebb-80a9-e82bb70d958c","ios":"levelo://app?vid=0785b622-7b6b-4ebb-80a9-e82bb70d958c"},"vehicle_type_id":"4","last_reported":1730239757,"current_range_meters":36800,"station_id":"ce4bhh92rcd13ifvqfi0","pricing_plan_id":"cebpf4jnsgd1na2vs0mg"},{"bike_id":"1af85e26-afed-47d9-abe0-b9bfe9c2a3a0","system_id":"levelo_inurba_marseille","lat":43.32366,"lon":5.38879,"is_reserved":false,"is_disabled":false,"rental_uris":{"android":"levelo://app?vid=1af85e26-afed-47d9-abe0-b9bfe9c2a3a0","ios":"levelo://app?vid=1af85e26-afed-47d9-abe0-b9bfe9c2a3a0"},"vehicle_type_id":"4","last_reported":1730239757,"current_range_meters":38800,"station_id":"ce4bhqp2rcd13ifvqhog","pricing_plan_id":"cebpf4jnsgd1na2vs0mg"},{"bike_id":"e6011b99-38ff-409a-9dfc-e5eaed959b39","system_id":"levelo_inurba_marseille","lat":43.29022,"lon":5.38639,"is_reserved":false,"is_disabled":false,"rental_uris":{"android":"levelo://app?vid=e6011b99-38ff-409a-9dfc-e5eaed959b39","ios":"levelo://app?vid=e6011b99-38ff-409a-9dfc-e5eaed959b39"},"vehicle_type_id":"4","last_reported":1730239757,"current_range_meters":22000,"station_id":"ce4bh4p2rcd13ifvqe0g","pricing_plan_id":"cebpf4jnsgd1na2vs0mg"},{"bike_id":"bb694544-6e5a-4a55-b4c3-c7081da98d7a","system_id":"levelo_inurba_marseille","lat":43.29768,"lon":5.37099,"is_reserved":false,"is_disabled":false,"rental_uris":{"android":"levelo://app?vid=bb694544-6e5a-4a55-b4c3-c7081da98d7a","ios":"levelo://app?vid=bb694544-6e5a-4a55-b4c3-c7081da98d7a"},"vehicle_type_id":"4","last_reported":1730239757,"current_range_meters":36800,"station_id":"ce4bgop2rcd13ifvqc1g","pricing_plan_id":"cebpf4jnsgd1na2vs0mg"},{"bike_id":"c2d36fcd-c05b-4564-962d-c24decfa43a1","system_id":"levelo_inurba_marseille","lat":43.27563,"lon":5.38426,"is_reserved":false,"is_disabled":false,"rental_uris":{"android":"levelo://app?vid=c2d36fcd-c05b-4564-962d-c24decfa43a1","ios":"levelo://app?vid=c2d36fcd-c05b-4564-962d-c24decfa43a1"},"vehicle_type_id":"4","last_reported":1730239757,"current_range_meters":9200,"station_id":"ce4bhh92rcd13ifvqfi0","pricing_plan_id":"cebpf4jnsgd1na2vs0mg"},{"bike_id":"a3b0ed98-333a-46d2-bd00-919bf632b942","system_id":"levelo_inurba_marseille","lat":43.299762,"lon":5.384784,"is_reserved":false,"is_disabled":false,"rental_uris":{"android":"levelo://app?vid=a3b0ed98-333a-46d2-bd00-919bf632b942","ios":"levelo://app?vid=a3b0ed98-333a-46d2-bd00-919bf632b942"},"vehicle_type_id":"4","last_reported":1730239757,"current_range_meters":38000,"station_id":"ce4bgj92rcd13ifvqbd0","pricing_plan_id":"cebpf4jnsgd1na2vs0mg"},{"bike_id":"96cd2a77-e3b6-47fc-955f-5080a2bfaf42","system_id":"levelo_inurba_marseille","lat":43.231768,"lon":5.399681,"is_reserved":false,"is_disabled":false,"rental_uris":{"android":"levelo://app?vid=96cd2a77-e3b6-47fc-955f-5080a2bfaf42","ios":"levelo://app?vid=96cd2a77-e3b6-47fc-955f-5080a2bfaf42"},"vehicle_type_id":"4","last_reported":1730239757,"current_range_meters":38800,"station_id":"ce4bhn12rcd13ifvqgqg","pricing_plan_id":"cebpf4jnsgd1na2vs0mg"},{"bike_id":"523b76f0-5eed-4e69-8448-8b9a3894a9a5","system_id":"levelo_inurba_marseille","lat":43.30903,"lon":5.3684,"is_reserved":false,"is_disabled":false,"rental_uris":{"android":"levelo://app?vid=523b76f0-5eed-4e69-8448-8b9a3894a9a5","ios":"levelo://app?vid=523b76f0-5eed-4e69-8448-8b9a3894a9a5"},"vehicle_type_id":"4","last_reported":1730239757,"current_range_meters":5600,"station_id":"ce4bgn92rcd13ifvqbvg","pricing_plan_id":"cebpf4jnsgd1na2vs0mg"},{"bike_id":"13c85d59-c7cb-409d-b7e2-9aa757f7035f","system_id":"levelo_inurba_marseille","lat":43.32658,"lon":5.40995,"is_reserved":false,"is_disabled":false,"rental_uris":{"android":"levelo://app?vid=13c85d59-c7cb-409d-b7e2-9aa757f7035f","ios":"levelo://app?vid=13c85d59-c7cb-409d-b7e2-9aa757f7035f"},"vehicle_type_id":"4","last_reported":1730239757,"current_range_meters":9200,"station_id":"ce4bhpp2rcd13ifvqhgg","pricing_plan_id":"cebpf4jnsgd1na2vs0mg"},{"bike_id":"99d2b6c3-4379-4a9a-933b-2d5a9480f4f1","system_id":"levelo_inurba_marseille","lat":43.31539,"lon":5.38036,"is_reserved":false,"is_disabled":false,"rental_uris":{"android":"levelo://app?vid=99d2b6c3-4379-4a9a-933b-2d5a9480f4f1","ios":"levelo://app?vid=99d2b6c3-4379-4a9a-933b-2d5a9480f4f1"},"vehicle_type_id":"4","last_reported":1730239757,"current_range_meters":38800,"station_id":"ce4bhsp2rcd13ifvqi50","pricing_plan_id":"cebpf4jnsgd1na2vs0mg"},{"bike_id":"b48eacfa-a4c4-4e90-acf3-6e3bbaaa5f6e","system_id":"levelo_inurba_marseille","lat":43.309204,"lon":5.401372,"is_reserved":false,"is_disabled":false,"rental_uris":{"android":"levelo://app?vid=b48eacfa-a4c4-4e90-acf3-6e3bbaaa5f6e","ios":"levelo://app?vid=b48eacfa-a4c4-4e90-acf3-6e3bbaaa5f6e"},"vehicle_type_id":"4","last_reported":1730239757,"current_range_meters":38000,"station_id":"ce4bgvp2rcd13ifvqct0","pricing_plan_id":"cebpf4jnsgd1na2vs0mg"},{"bike_id":"178829a6-3513-4378-82e9-610d5d5943c5","system_id":"levelo_inurba_marseille","lat":43.31702,"lon":5.37748,"is_reserved":false,"is_disabled":false,"rental_uris":{"android":"levelo://app?vid=178829a6-3513-4378-82e9-610d5d5943c5","ios":"levelo://app?vid=178829a6-3513-4378-82e9-610d5d5943c5"},"vehicle_type_id":"4","last_reported":1730239757,"current_range_meters":24000,"station_id":"ce4bh092rcd13ifvqd30","pricing_plan_id":"cebpf4jnsgd1na2vs0mg"},{"bike_id":"5ea475d8-fbf3-460f-872c-01c8b0273f69","system_id":"levelo_inurba_marseille","lat":43.23047,"lon":5.35491,"is_reserved":false,"is_disabled":false,"rental_uris":{"android":"levelo://app?vid=5ea475d8-fbf3-460f-872c-01c8b0273f69","ios":"levelo://app?vid=5ea475d8-fbf3-460f-872c-01c8b0273f69"},"vehicle_type_id":"4","last_reported":1730239757,"current_range_meters":11200,"station_id":"cpo3342slgdg3j2ifvpg","pricing_plan_id":"cebpf4jnsgd1na2vs0mg"},{"bike_id":"2be9bc22-5c5c-4737-9da1-744ca95ac8b4","system_id":"levelo_inurba_marseille","lat":43.32656,"lon":5.40985,"is_reserved":false,"is_disabled":false,"rental_uris":{"android":"levelo://app?vid=2be9bc22-5c5c-4737-9da1-744ca95ac8b4","ios":"levelo://app?vid=2be9bc22-5c5c-4737-9da1-744ca95ac8b4"},"vehicle_type_id":"4","last_reported":1730239757,"current_range_meters":8000,"station_id":"ce4bhpp2rcd13ifvqhgg","pricing_plan_id":"cebpf4jnsgd1na2vs0mg"},{"bike_id":"59c7403a-36af-4ab9-a8fb-4e8f180bdcbe","system_id":"levelo_inurba_marseille","lat":43.24079,"lon":5.37751,"is_reserved":false,"is_disabled":false,"rental_uris":{"android":"levelo://app?vid=59c7403a-36af-4ab9-a8fb-4e8f180bdcbe","ios":"levelo://app?vid=59c7403a-36af-4ab9-a8fb-4e8f180bdcbe"},"vehicle_type_id":"4","last_reported":1730239757,"current_range_meters":9600,"station_id":"ce4bhnp2rcd13ifvqgvg","pricing_plan_id":"cebpf4jnsgd1na2vs0mg"},{"bike_id":"319628af-6ed0-4c6b-85da-8e8cbc64e217","system_id":"levelo_inurba_marseille","lat":43.24393,"lon":5.37058,"is_reserved":false,"is_disabled":false,"rental_uris":{"android":"levelo://app?vid=319628af-6ed0-4c6b-85da-8e8cbc64e217","ios":"levelo://app?vid=319628af-6ed0-4c6b-85da-8e8cbc64e217"},"vehicle_type_id":"4","last_reported":1730239757,"current_range_meters":38400,"station_id":"ce4bhhh2rcd13ifvqfk0","pricing_plan_id":"cebpf4jnsgd1na2vs0mg"},{"bike_id":"5c77d39d-11aa-429c-98b6-75adc29345da","system_id":"levelo_inurba_marseille","lat":43.28416,"lon":5.37514,"is_reserved":false,"is_disabled":false,"rental_uris":{"android":"levelo://app?vid=5c77d39d-11aa-429c-98b6-75adc29345da","ios":"levelo://app?vid=5c77d39d-11aa-429c-98b6-75adc29345da"},"vehicle_type_id":"4","last_reported":1730239757,"current_range_meters":38800,"station_id":"ce4bh412rcd13ifvqds0","pricing_plan_id":"cebpf4jnsgd1na2vs0mg"},{"bike_id":"d479bc53-426a-449a-98ce-42b252d81806","system_id":"levelo_inurba_marseille","lat":43.30247,"lon":5.40072,"is_reserved":false,"is_disabled":false,"rental_uris":{"android":"levelo://app?vid=d479bc53-426a-449a-98ce-42b252d81806","ios":"levelo://app?vid=d479bc53-426a-449a-98ce-42b252d81806"},"vehicle_type_id":"4","last_reported":1730239757,"current_range_meters":39200,"station_id":"ce4bgvh2rcd13ifvqcs0","pricing_plan_id":"cebpf4jnsgd1na2vs0mg"},{"bike_id":"5aecf52a-143c-4328-8118-c219e78a16dc","system_id":"levelo_inurba_marseille","lat":43.24804,"lon":5.37454,"is_reserved":false,"is_disabled":false,"rental_uris":{"android":"levelo://app?vid=5aecf52a-143c-4328-8118-c219e78a16dc","ios":"levelo://app?vid=5aecf52a-143c-4328-8118-c219e78a16dc"},"vehicle_type_id":"4","last_reported":1730239757,"current_range_meters":34800,"station_id":"ce4bhgh2rcd13ifvqfb0","pricing_plan_id":"cebpf4jnsgd1na2vs0mg"},{"bike_id":"77f9416c-2752-4d2f-ba7e-9dd2db802b3e","system_id":"levelo_inurba_marseille","lat":43.31278,"lon":5.40167,"is_reserved":false,"is_disabled":false,"rental_uris":{"android":"levelo://app?vid=77f9416c-2752-4d2f-ba7e-9dd2db802b3e","ios":"levelo://app?vid=77f9416c-2752-4d2f-ba7e-9dd2db802b3e"},"vehicle_type_id":"4","last_reported":1730239757,"current_range_meters":11600,"station_id":"ce4bh092rcd13ifvqd30","pricing_plan_id":"cebpf4jnsgd1na2vs0mg"},{"bike_id":"843bf457-956f-4404-85fa-ddcfd83ca154","system_id":"levelo_inurba_marseille","lat":43.29525,"lon":5.39026,"is_reserved":false,"is_disabled":false,"rental_uris":{"android":"levelo://app?vid=843bf457-956f-4404-85fa-ddcfd83ca154","ios":"levelo://app?vid=843bf457-956f-4404-85fa-ddcfd83ca154"},"vehicle_type_id":"4","last_reported":1730239757,"current_range_meters":26000,"station_id":"ce4bh3p2rcd13ifvqdp0","pricing_plan_id":"cebpf4jnsgd1na2vs0mg"},{"bike_id":"b032dfcf-4e26-4322-bd52-698311f945e5","system_id":"levelo_inurba_marseille","lat":43.31165,"lon":5.38712,"is_reserved":false,"is_disabled":false,"rental_uris":{"android":"levelo://app?vid=b032dfcf-4e26-4322-bd52-698311f945e5","ios":"levelo://app?vid=b032dfcf-4e26-4322-bd52-698311f945e5"},"vehicle_type_id":"4","last_reported":1730239757,"current_range_meters":38800,"station_id":"ce4bgv12rcd13ifvqcp0","pricing_plan_id":"cebpf4jnsgd1na2vs0mg"},{"bike_id":"5a0a6089-a30b-4bc3-acd2-1a625f83eeb8","system_id":"levelo_inurba_marseille","lat":43.31884,"lon":5.40732,"is_reserved":false,"is_disabled":false,"rental_uris":{"android":"levelo://app?vid=5a0a6089-a30b-4bc3-acd2-1a625f83eeb8","ios":"levelo://app?vid=5a0a6089-a30b-4bc3-acd2-1a625f83eeb8"},"vehicle_type_id":"4","last_reported":1730239757,"current_range_meters":38800,"station_id":"ce4bhq12rcd13ifvqhig","pricing_plan_id":"cebpf4jnsgd1na2vs0mg"},{"bike_id":"804a3165-8f3c-4486-82de-90909af6e07a","system_id":"levelo_inurba_marseille","lat":43.29979,"lon":5.3717,"is_reserved":false,"is_disabled":false,"rental_uris":{"android":"levelo://app?vid=804a3165-8f3c-4486-82de-90909af6e07a","ios":"levelo://app?vid=804a3165-8f3c-4486-82de-90909af6e07a"},"vehicle_type_id":"4","last_reported":1730239757,"current_range_meters":38800,"station_id":"ce4bgr92rcd13ifvqc7g","pricing_plan_id":"cebpf4jnsgd1na2vs0mg"},{"bike_id":"6edc52bf-3f06-415c-b114-36878e78f378","system_id":"levelo_inurba_marseille","lat":43.32365,"lon":5.38879,"is_reserved":false,"is_disabled":false,"rental_uris":{"android":"levelo://app?vid=6edc52bf-3f06-415c-b114-36878e78f378","ios":"levelo://app?vid=6edc52bf-3f06-415c-b114-36878e78f378"},"vehicle_type_id":"4","last_reported":1730239757,"current_range_meters":36000,"station_id":"ce4bhqp2rcd13ifvqhog","pricing_plan_id":"cebpf4jnsgd1na2vs0mg"},{"bike_id":"471514d6-3d3e-4891-92be-b32f12a79c5c","system_id":"levelo_inurba_marseille","lat":43.30313,"lon":5.36895,"is_reserved":false,"is_disabled":false,"rental_uris":{"android":"levelo://app?vid=471514d6-3d3e-4891-92be-b32f12a79c5c","ios":"levelo://app?vid=471514d6-3d3e-4891-92be-b32f12a79c5c"},"vehicle_type_id":"4","last_reported":1730239757,"current_range_meters":37600,"station_id":"ce4bgqh2rcd13ifvqc5g","pricing_plan_id":"cebpf4jnsgd1na2vs0mg"},{"bike_id":"4a595e2d-8edf-4bb0-9aa0-66a379b7bc81","system_id":"levelo_inurba_marseille","lat":43.31122,"lon":5.37756,"is_reserved":false,"is_disabled":false,"rental_uris":{"android":"levelo://app?vid=4a595e2d-8edf-4bb0-9aa0-66a379b7bc81","ios":"levelo://app?vid=4a595e2d-8edf-4bb0-9aa0-66a379b7bc81"},"vehicle_type_id":"4","last_reported":1730239757,"current_range_meters":38800,"station_id":"ce4bgt92rcd13ifvqcg0","pricing_plan_id":"cebpf4jnsgd1na2vs0mg"},{"bike_id":"80333497-1bc3-4cba-adbc-20f8b45cb3a1","system_id":"levelo_inurba_marseille","lat":43.25088,"lon":5.39515,"is_reserved":false,"is_disabled":false,"rental_uris":{"android":"levelo://app?vid=80333497-1bc3-4cba-adbc-20f8b45cb3a1","ios":"levelo://app?vid=80333497-1bc3-4cba-adbc-20f8b45cb3a1"},"vehicle_type_id":"4","last_reported":1730239757,"current_range_meters":38000,"station_id":"ce4bhm12rcd13ifvqgkg","pricing_plan_id":"cebpf4jnsgd1na2vs0mg"},{"bike_id":"74a24eac-91b3-47f2-8f8d-1db517d144bf","system_id":"levelo_inurba_marseille","lat":43.29252,"lon":5.38446,"is_reserved":false,"is_disabled":false,"rental_uris":{"android":"levelo://app?vid=74a24eac-91b3-47f2-8f8d-1db517d144bf","ios":"levelo://app?vid=74a24eac-91b3-47f2-8f8d-1db517d144bf"},"vehicle_type_id":"4","last_reported":1730239757,"current_range_meters":10000,"station_id":"ce4bh692rcd13ifvqea0","pricing_plan_id":"cebpf4jnsgd1na2vs0mg"},{"bike_id":"737b9b94-40bd-40f8-9f9c-c32719e42593","system_id":"levelo_inurba_marseille","lat":43.28934,"lon":5.3664,"is_reserved":false,"is_disabled":false,"rental_uris":{"android":"levelo://app?vid=737b9b94-40bd-40f8-9f9c-c32719e42593","ios":"levelo://app?vid=737b9b94-40bd-40f8-9f9c-c32719e42593"},"vehicle_type_id":"4","last_reported":1730239757,"current_range_meters":24000,"station_id":"ce4bhap2rcd13ifvqek0","pricing_plan_id":"cebpf4jnsgd1na2vs0mg"},{"bike_id":"c8ef3d06-424b-4084-a839-d037aab9cd63","system_id":"levelo_inurba_marseille","lat":43.31364,"lon":5.38492,"is_reserved":false,"is_disabled":false,"rental_uris":{"android":"levelo://app?vid=c8ef3d06-424b-4084-a839-d037aab9cd63","ios":"levelo://app?vid=c8ef3d06-424b-4084-a839-d037aab9cd63"},"vehicle_type_id":"4","last_reported":1730239757,"current_range_meters":18800,"station_id":"ce4bgt92rcd13ifvqcf0","pricing_plan_id":"cebpf4jnsgd1na2vs0mg"},{"bike_id":"8d6ee0a5-a130-4d51-9d86-482e1de1a708","system_id":"levelo_inurba_marseille","lat":43.29515,"lon":5.39037,"is_reserved":false,"is_disabled":false,"rental_uris":{"android":"levelo://app?vid=8d6ee0a5-a130-4d51-9d86-482e1de1a708","ios":"levelo://app?vid=8d6ee0a5-a130-4d51-9d86-482e1de1a708"},"vehicle_type_id":"4","last_reported":1730239757,"current_range_meters":38800,"station_id":"ce4bh3p2rcd13ifvqdp0","pricing_plan_id":"cebpf4jnsgd1na2vs0mg"},{"bike_id":"d4c87a5e-8e0d-4458-bf88-20b8bfaca958","system_id":"levelo_inurba_marseille","lat":43.29773,"lon":5.37098,"is_reserved":false,"is_disabled":false,"rental_uris":{"android":"levelo://app?vid=d4c87a5e-8e0d-4458-bf88-20b8bfaca958","ios":"levelo://app?vid=d4c87a5e-8e0d-4458-bf88-20b8bfaca958"},"vehicle_type_id":"4","last_reported":1730239757,"current_range_meters":38800,"station_id":"ce4bgop2rcd13ifvqc1g","pricing_plan_id":"cebpf4jnsgd1na2vs0mg"},{"bike_id":"d330032c-578a-40e3-99e4-e077b38f5f89","system_id":"levelo_inurba_marseille","lat":43.30881,"lon":5.39637,"is_reserved":false,"is_disabled":false,"rental_uris":{"android":"levelo://app?vid=d330032c-578a-40e3-99e4-e077b38f5f89","ios":"levelo://app?vid=d330032c-578a-40e3-99e4-e077b38f5f89"},"vehicle_type_id":"4","last_reported":1730239757,"current_range_meters":38800,"station_id":"ce4bh012rcd13ifvqcv0","pricing_plan_id":"cebpf4jnsgd1na2vs0mg"},{"bike_id":"acf8bf78-e96b-4e70-be1e-e1cddf062e95","system_id":"levelo_inurba_marseille","lat":43.28429,"lon":5.36078,"is_reserved":false,"is_disabled":false,"rental_uris":{"android":"levelo://app?vid=acf8bf78-e96b-4e70-be1e-e1cddf062e95","ios":"levelo://app?vid=acf8bf78-e96b-4e70-be1e-e1cddf062e95"},"vehicle_type_id":"4","last_reported":1730239757,"current_range_meters":21600,"station_id":"","pricing_plan_id":"cebpf4jnsgd1na2vs0mg"},{"bike_id":"47758897-4c4e-4b74-b8ec-020585699be3","system_id":"levelo_inurba_marseille","lat":43.284285,"lon":5.350032,"is_reserved":false,"is_disabled":false,"rental_uris":{"android":"levelo://app?vid=47758897-4c4e-4b74-b8ec-020585699be3","ios":"levelo://app?vid=47758897-4c4e-4b74-b8ec-020585699be3"},"vehicle_type_id":"4","last_reported":1730239757,"current_range_meters":36800,"station_id":"ce4bhbh2rcd13ifvqepg","pricing_plan_id":"cebpf4jnsgd1na2vs0mg"},{"bike_id":"d9d37fee-d572-4131-914e-98690801d460","system_id":"levelo_inurba_marseille","lat":43.27809,"lon":5.40709,"is_reserved":false,"is_disabled":false,"rental_uris":{"android":"levelo://app?vid=d9d37fee-d572-4131-914e-98690801d460","ios":"levelo://app?vid=d9d37fee-d572-4131-914e-98690801d460"},"vehicle_type_id":"4","last_reported":1730239757,"current_range_meters":22800,"station_id":"ce4bhnh2rcd13ifvqgtg","pricing_plan_id":"cebpf4jnsgd1na2vs0mg"},{"bike_id":"7ab796da-3d04-4fdd-8eb8-3d45a9efca7f","system_id":"levelo_inurba_marseille","lat":43.30947,"lon":5.39044,"is_reserved":false,"is_disabled":false,"rental_uris":{"android":"levelo://app?vid=7ab796da-3d04-4fdd-8eb8-3d45a9efca7f","ios":"levelo://app?vid=7ab796da-3d04-4fdd-8eb8-3d45a9efca7f"},"vehicle_type_id":"4","last_reported":1730239757,"current_range_meters":24400,"station_id":"ce4bgup2rcd13ifvqco0","pricing_plan_id":"cebpf4jnsgd1na2vs0mg"},{"bike_id":"160c3125-d109-49e3-a687-ede78b99dea2","system_id":"levelo_inurba_marseille","lat":43.23196,"lon":5.35547,"is_reserved":false,"is_disabled":false,"rental_uris":{"android":"levelo://app?vid=160c3125-d109-49e3-a687-ede78b99dea2","ios":"levelo://app?vid=160c3125-d109-49e3-a687-ede78b99dea2"},"vehicle_type_id":"4","last_reported":1730239757,"current_range_meters":14000,"station_id":"ce4bhu92rcd13ifvqi70","pricing_plan_id":"cebpf4jnsgd1na2vs0mg"},{"bike_id":"5dabbc13-411e-42f2-b6b7-494430433cbb","system_id":"levelo_inurba_marseille","lat":43.28461,"lon":5.35883,"is_reserved":false,"is_disabled":false,"rental_uris":{"android":"levelo://app?vid=5dabbc13-411e-42f2-b6b7-494430433cbb","ios":"levelo://app?vid=5dabbc13-411e-42f2-b6b7-494430433cbb"},"vehicle_type_id":"4","last_reported":1730239757,"current_range_meters":30800,"station_id":"ce4bhah2rcd13ifvqei0","pricing_plan_id":"cebpf4jnsgd1na2vs0mg"},{"bike_id":"7a3f60d6-5589-44b2-bea7-8a929e9b6b4e","system_id":"levelo_inurba_marseille","lat":43.29899,"lon":5.43667,"is_reserved":false,"is_disabled":false,"rental_uris":{"android":"levelo://app?vid=7a3f60d6-5589-44b2-bea7-8a929e9b6b4e","ios":"levelo://app?vid=7a3f60d6-5589-44b2-bea7-8a929e9b6b4e"},"vehicle_type_id":"4","last_reported":1730239757,"current_range_meters":16000,"station_id":"ce4bhpp2rcd13ifvqhfg","pricing_plan_id":"cebpf4jnsgd1na2vs0mg"},{"bike_id":"79bf9c97-a5ea-4f15-9e63-9d99560507ff","system_id":"levelo_inurba_marseille","lat":43.29785,"lon":5.39341,"is_reserved":false,"is_disabled":false,"rental_uris":{"android":"levelo://app?vid=79bf9c97-a5ea-4f15-9e63-9d99560507ff","ios":"levelo://app?vid=79bf9c97-a5ea-4f15-9e63-9d99560507ff"},"vehicle_type_id":"4","last_reported":1730239757,"current_range_meters":24400,"station_id":"chh1huq6cuj3fo74tm60","pricing_plan_id":"cebpf4jnsgd1na2vs0mg"},{"bike_id":"5008d040-1e38-4eef-89ce-b806ce74d233","system_id":"levelo_inurba_marseille","lat":43.29258,"lon":5.409,"is_reserved":false,"is_disabled":false,"rental_uris":{"android":"levelo://app?vid=5008d040-1e38-4eef-89ce-b806ce74d233","ios":"levelo://app?vid=5008d040-1e38-4eef-89ce-b806ce74d233"},"vehicle_type_id":"4","last_reported":1730239757,"current_range_meters":18000,"station_id":"ce4bh192rcd13ifvqdc0","pricing_plan_id":"cebpf4jnsgd1na2vs0mg"},{"bike_id":"c97a0cb6-65e4-4d04-aa15-7a7a715355ed","system_id":"levelo_inurba_marseille","lat":43.29529,"lon":5.38536,"is_reserved":false,"is_disabled":false,"rental_uris":{"android":"levelo://app?vid=c97a0cb6-65e4-4d04-aa15-7a7a715355ed","ios":"levelo://app?vid=c97a0cb6-65e4-4d04-aa15-7a7a715355ed"},"vehicle_type_id":"4","last_reported":1730239757,"current_range_meters":20000,"station_id":"ce4bgih2rcd13ifvqba0","pricing_plan_id":"cebpf4jnsgd1na2vs0mg"},{"bike_id":"182fb0b7-dba1-41ba-a358-c87eff55f06a","system_id":"levelo_inurba_marseille","lat":43.28456,"lon":5.35883,"is_reserved":false,"is_disabled":false,"rental_uris":{"android":"levelo://app?vid=182fb0b7-dba1-41ba-a358-c87eff55f06a","ios":"levelo://app?vid=182fb0b7-dba1-41ba-a358-c87eff55f06a"},"vehicle_type_id":"4","last_reported":1730239757,"current_range_meters":20400,"station_id":"ce4bhah2rcd13ifvqei0","pricing_plan_id":"cebpf4jnsgd1na2vs0mg"},{"bike_id":"436067c3-32c1-46bc-894e-d7be2d545a26","system_id":"levelo_inurba_marseille","lat":43.3266,"lon":5.40992,"is_reserved":false,"is_disabled":false,"rental_uris":{"android":"levelo://app?vid=436067c3-32c1-46bc-894e-d7be2d545a26","ios":"levelo://app?vid=436067c3-32c1-46bc-894e-d7be2d545a26"},"vehicle_type_id":"4","last_reported":1730239757,"current_range_meters":22000,"station_id":"ce4bhpp2rcd13ifvqhgg","pricing_plan_id":"cebpf4jnsgd1na2vs0mg"},{"bike_id":"0fe14beb-5168-49aa-a3f9-ee00e6d1612f","system_id":"levelo_inurba_marseille","lat":43.24667,"lon":5.38167,"is_reserved":false,"is_disabled":false,"rental_uris":{"android":"levelo://app?vid=0fe14beb-5168-49aa-a3f9-ee00e6d1612f","ios":"levelo://app?vid=0fe14beb-5168-49aa-a3f9-ee00e6d1612f"},"vehicle_type_id":"4","last_reported":1730239757,"current_range_meters":2800,"station_id":"ce4bhih2rcd13ifvqfr0","pricing_plan_id":"cebpf4jnsgd1na2vs0mg"},{"bike_id":"f2c1121c-5c92-4221-a002-33aa3e39f748","system_id":"levelo_inurba_marseille","lat":43.33607,"lon":5.41025,"is_reserved":false,"is_disabled":false,"rental_uris":{"android":"levelo://app?vid=f2c1121c-5c92-4221-a002-33aa3e39f748","ios":"levelo://app?vid=f2c1121c-5c92-4221-a002-33aa3e39f748"},"vehicle_type_id":"4","last_reported":1730239757,"current_range_meters":15200,"station_id":"ce4bhqh2rcd13ifvqhmg","pricing_plan_id":"cebpf4jnsgd1na2vs0mg"},{"bike_id":"8ccfcf84-c06e-46e0-a717-34a9401aa17c","system_id":"levelo_inurba_marseille","lat":43.27944,"lon":5.41048,"is_reserved":false,"is_disabled":false,"rental_uris":{"android":"levelo://app?vid=8ccfcf84-c06e-46e0-a717-34a9401aa17c","ios":"levelo://app?vid=8ccfcf84-c06e-46e0-a717-34a9401aa17c"},"vehicle_type_id":"4","last_reported":1730239757,"current_range_meters":28800,"station_id":"ce4bhnp2rcd13ifvqh0g","pricing_plan_id":"cebpf4jnsgd1na2vs0mg"},{"bike_id":"b6c378b9-d97c-41ba-b622-0cfe46f97c08","system_id":"levelo_inurba_marseille","lat":43.30951,"lon":5.39032,"is_reserved":false,"is_disabled":false,"rental_uris":{"android":"levelo://app?vid=b6c378b9-d97c-41ba-b622-0cfe46f97c08","ios":"levelo://app?vid=b6c378b9-d97c-41ba-b622-0cfe46f97c08"},"vehicle_type_id":"4","last_reported":1730239757,"current_range_meters":35200,"station_id":"ce4bgup2rcd13ifvqco0","pricing_plan_id":"cebpf4jnsgd1na2vs0mg"},{"bike_id":"dca48d36-6abc-429f-9a3e-728755736572","system_id":"levelo_inurba_marseille","lat":43.26942,"lon":5.40248,"is_reserved":false,"is_disabled":false,"rental_uris":{"android":"levelo://app?vid=dca48d36-6abc-429f-9a3e-728755736572","ios":"levelo://app?vid=dca48d36-6abc-429f-9a3e-728755736572"},"vehicle_type_id":"4","last_reported":1730239757,"current_range_meters":18800,"station_id":"cjm6bp8fraef2m0cb0m0","pricing_plan_id":"cebpf4jnsgd1na2vs0mg"},{"bike_id":"f793c0ab-64cd-4f7d-816d-e95d724f8dcb","system_id":"levelo_inurba_marseille","lat":43.31331,"lon":5.39699,"is_reserved":false,"is_disabled":false,"rental_uris":{"android":"levelo://app?vid=f793c0ab-64cd-4f7d-816d-e95d724f8dcb","ios":"levelo://app?vid=f793c0ab-64cd-4f7d-816d-e95d724f8dcb"},"vehicle_type_id":"4","last_reported":1730239757,"current_range_meters":27200,"station_id":"ce4bgvp2rcd13ifvqcu0","pricing_plan_id":"cebpf4jnsgd1na2vs0mg"},{"bike_id":"2bc253a6-b529-475e-b719-77af0dc4716f","system_id":"levelo_inurba_marseille","lat":43.27917,"lon":5.39583,"is_reserved":false,"is_disabled":false,"rental_uris":{"android":"levelo://app?vid=2bc253a6-b529-475e-b719-77af0dc4716f","ios":"levelo://app?vid=2bc253a6-b529-475e-b719-77af0dc4716f"},"vehicle_type_id":"4","last_reported":1730239757,"current_range_meters":30400,"station_id":"ce4bhf92rcd13ifvqf40","pricing_plan_id":"cebpf4jnsgd1na2vs0mg"},{"bike_id":"7fe808d7-7107-4052-8697-164dcac0d476","system_id":"levelo_inurba_marseille","lat":43.29417,"lon":5.38609,"is_reserved":false,"is_disabled":false,"rental_uris":{"android":"levelo://app?vid=7fe808d7-7107-4052-8697-164dcac0d476","ios":"levelo://app?vid=7fe808d7-7107-4052-8697-164dcac0d476"},"vehicle_type_id":"4","last_reported":1730239757,"current_range_meters":38000,"station_id":"ce4bh2h2rcd13ifvqdh0","pricing_plan_id":"cebpf4jnsgd1na2vs0mg"},{"bike_id":"9aefdc0d-e160-49ef-9457-b633d158fbe4","system_id":"levelo_inurba_marseille","lat":43.31754,"lon":5.3901,"is_reserved":false,"is_disabled":false,"rental_uris":{"android":"levelo://app?vid=9aefdc0d-e160-49ef-9457-b633d158fbe4","ios":"levelo://app?vid=9aefdc0d-e160-49ef-9457-b633d158fbe4"},"vehicle_type_id":"4","last_reported":1730239757,"current_range_meters":38800,"station_id":"ce4bhqp2rcd13ifvqhng","pricing_plan_id":"cebpf4jnsgd1na2vs0mg"},{"bike_id":"09075d4e-05f1-455b-8162-7c14b400dac4","system_id":"levelo_inurba_marseille","lat":43.31191,"lon":5.38518,"is_reserved":false,"is_disabled":false,"rental_uris":{"android":"levelo://app?vid=09075d4e-05f1-455b-8162-7c14b400dac4","ios":"levelo://app?vid=09075d4e-05f1-455b-8162-7c14b400dac4"},"vehicle_type_id":"4","last_reported":1730239757,"current_range_meters":27600,"station_id":"","pricing_plan_id":"cebpf4jnsgd1na2vs0mg"},{"bike_id":"6a326d23-b37b-453c-ac9b-262d8ff6bdbf","system_id":"levelo_inurba_marseille","lat":43.29523,"lon":5.39046,"is_reserved":false,"is_disabled":false,"rental_uris":{"android":"levelo://app?vid=6a326d23-b37b-453c-ac9b-262d8ff6bdbf","ios":"levelo://app?vid=6a326d23-b37b-453c-ac9b-262d8ff6bdbf"},"vehicle_type_id":"4","last_reported":1730239757,"current_range_meters":6800,"station_id":"ce4bh3p2rcd13ifvqdp0","pricing_plan_id":"cebpf4jnsgd1na2vs0mg"},{"bike_id":"7b2eb177-c758-4d7b-9c02-4b8390ada1a8","system_id":"levelo_inurba_marseille","lat":43.29569,"lon":5.39956,"is_reserved":false,"is_disabled":false,"rental_uris":{"android":"levelo://app?vid=7b2eb177-c758-4d7b-9c02-4b8390ada1a8","ios":"levelo://app?vid=7b2eb177-c758-4d7b-9c02-4b8390ada1a8"},"vehicle_type_id":"4","last_reported":1730239757,"current_range_meters":38800,"station_id":"ce4bh312rcd13ifvqdj0","pricing_plan_id":"cebpf4jnsgd1na2vs0mg"},