{"last_updated":1751638195,"ttl":60,"version":"2.2","data":{"bikes":[{"bike_id":"3da29fb8-fc97-44c6-b9ac-31dd456b2fd4","system_id":"levelo_inurba_marseille","lat":43.33771,"lon":5.37424,"is_reserved":false,"is_disabled":true,"rental_uris":{"android":"levelo://app?vid=3da29fb8-fc97-44c6-b9ac-31dd456b2fd4","ios":"levelo://app?vid=3da29fb8-fc97-44c6-b9ac-31dd456b2fd4"},"vehicle_type_id":"4","last_reported":1751638195,"current_range_meters":0,"station_id":"","pricing_plan_id":"cebpf4jnsgd1na2vs0mg"},{"bike_id":"01861ad8-a8d7-4be6-816e-651927c87584","system_id":"levelo_inurba_marseille","lat":43.33751,"lon":5.37456,"is_reserved":false,"is_disabled":true,"rental_uris":{"android":"levelo://app?vid=01861ad8-a8d7-4be6-816e-651927c87584","ios":"levelo://app?vid=01861ad8-a8d7-4be6-816e-651927c87584"},"vehicle_type_id":"4","last_reported":1751638195,"current_range_meters":0,"station_id":"","pricing_plan_id":"cebpf4jnsgd1na2vs0mg"},{"bike_id":"bf258842-98b1-4a26-8d22-bfd632384292","system_id":"levelo_inurba_marseille","lat":43.27056,"lon":5.40264,"is_reserved":false,"is_disabled":true,"rental_uris":{"android":"levelo://app?vid=bf258842-98b1-4a26-8d22-bfd632384292","ios":"levelo://app?vid=bf258842-98b1-4a26-8d22-bfd632384292"},"vehicle_type_id":"4","last_reported":1751638195,"current_range_meters":0,"station_id":"","pricing_plan_id":"cebpf4jnsgd1na2vs0mg"},{"bike_id":"43788b39-b99f-4ee5-9fce-1a76a9912824","system_id":"levelo_inurba_marseille","lat":43.29262,"lon":5.37629,"is_reserved":false,"is_disabled":true,"rental_uris":{"android":"levelo://app?vid=43788b39-b99f-4ee5-9fce-1a76a9912824","ios":"levelo://app?vid=43788b39-b99f-4ee5-9fce-1a76a9912824"},"vehicle_type_id":"4","last_reported":1751638195,"current_range_meters":0,"station_id":"ce4bgi12rcd13ifvqb80","pricing_plan_id":"cebpf4jnsgd1na2vs0mg"},{"bike_id":"93c5af57-dffb-4f8f-9b10-07b98d1bf6a2","system_id":"levelo_inurba_marseille","lat":43.29797,"lon":5.381053,"is_reserved":false,"is_disabled":true,"rental_uris":{"android":"levelo://app?vid=93c5af57-dffb-4f8f-9b10-07b98d1bf6a2","ios":"levelo://app?vid=93c5af57-dffb-4f8f-9b10-07b98d1bf6a2"},"vehicle_type_id":"4","last_reported":1751638195,"current_range_meters":0,"station_id":"ce4bgip2rcd13ifvqbb0","pricing_plan_id":"cebpf4jnsgd1na2vs0mg"},{"bike_id":"40ff7a5b-4bff-4ca3-a711-6c222d0592e3","system_id":"levelo_inurba_marseille","lat":43.29709,"lon":5.36608,"is_reserved":false,"is_disabled":true,"rental_uris":{"android":"levelo://app?vid=40ff7a5b-4bff-4ca3-a711-6c222d0592e3","ios":"levelo://app?vid=40ff7a5b-4bff-4ca3-a711-6c222d0592e3"},"vehicle_type_id":"4","last_reported":1751638195,"current_range_meters":0,"station_id":"ce4bgn12rcd13ifvqbt0","pricing_plan_id":"cebpf4jnsgd1na2vs0mg"},{"bike_id":"d20b2eac-7e0d-471a-9e7c-0cdef7c514f9","system_id":"levelo_inurba_marseille","lat":43.29227,"lon":5.3606,"is_reserved":false,"is_disabled":false,"rental_uris":{"android":"levelo://app?vid=d20b2eac-7e0d-471a-9e7c-0cdef7c514f9","ios":"levelo://app?vid=d20b2eac-7e0d-471a-9e7c-0cdef7c514f9"},"vehicle_type_id":"4","last_reported":1751638195,"current_range_meters":0,"station_id":"ce4bhbh2rcd13ifvqeqg","pricing_plan_id":"cebpf4jnsgd1na2vs0mg"},{"bike_id":"f9b7cf18-dab2-4095-9677-2bd9f8242fc3","system_id":"levelo_inurba_marseille","lat":43.262961,"lon":5.388496,"is_reserved":false,"is_disabled":true,"rental_uris":{"android":"levelo://app?vid=f9b7cf18-dab2-4095-9677-2bd9f8242fc3","ios":"levelo://app?vid=f9b7cf18-dab2-4095-9677-2bd9f8242fc3"},"vehicle_type_id":"4","last_reported":1751638195,"current_range_meters":0,"station_id":"ce4bhe12rcd13ifvqf30","pricing_plan_id":"cebpf4jnsgd1na2vs0mg"},{"bike_id":"fc060f82-74bd-4b5c-945d-c716b76a0386","system_id":"levelo_inurba_marseille","lat":43.26554,"lon":5.37293,"is_reserved":false,"is_disabled":true,"rental_uris":{"android":"levelo://app?vid=fc060f82-74bd-4b5c-945d-c716b76a0386","ios":"levelo://app?vid=fc060f82-74bd-4b5c-945d-c716b76a0386"},"vehicle_type_id":"4","last_reported":1751638195,"current_range_meters":0,"station_id":"ce4bhg12rcd13ifvqf70","pricing_plan_id":"cebpf4jnsgd1na2vs0mg"},{"bike_id":"c5ed77c3-cd0e-4421-b60c-163d14fd9c71","system_id":"levelo_inurba_marseille","lat":43.239686,"lon":5.366281,"is_reserved":false,"is_disabled":true,"rental_uris":{"android":"levelo://app?vid=c5ed77c3-cd0e-4421-b60c-163d14fd9c71","ios":"levelo://app?vid=c5ed77c3-cd0e-4421-b60c-163d14fd9c71"},"vehicle_type_id":"4","last_reported":1751638195,"current_range_meters":0,"station_id":"ce4bhi12rcd13ifvqfp0","pricing_plan_id":"cebpf4jnsgd1na2vs0mg"},{"bike_id":"a5d1fa5f-9ebe-4cfb-b45c-3e29919bec59","system_id":"levelo_inurba_marseille","lat":43.30423,"lon":5.41277,"is_reserved":false,"is_disabled":true,"rental_uris":{"android":"levelo://app?vid=a5d1fa5f-9ebe-4cfb-b45c-3e29919bec59","ios":"levelo://app?vid=a5d1fa5f-9ebe-4cfb-b45c-3e29919bec59"},"vehicle_type_id":"4","last_reported":1751638195,"current_range_meters":0,"station_id":"ce4bhop2rcd13ifvqh8g","pricing_plan_id":"cebpf4jnsgd1na2vs0mg"},{"bike_id":"891065b2-d2c4-420b-94bb-e620b7de28d3","system_id":"levelo_inurba_marseille","lat":43.23191,"lon":5.355519,"is_reserved":false,"is_disabled":true,"rental_uris":{"android":"levelo://app?vid=891065b2-d2c4-420b-94bb-e620b7de28d3","ios":"levelo://app?vid=891065b2-d2c4-420b-94bb-e620b7de28d3"},"vehicle_type_id":"4","last_reported":1751638195,"current_range_meters":0,"station_id":"ce4bhu92rcd13ifvqi70","pricing_plan_id":"cebpf4jnsgd1na2vs0mg"},{"bike_id":"eb3e93c8-5e45-4d8f-bd4f-1e5c5302f2a4","system_id":"levelo_inurba_marseille","lat":43.23192,"lon":5.355549,"is_reserved":false,"is_disabled":true,"rental_uris":{"android":"levelo://app?vid=eb3e93c8-5e45-4d8f-bd4f-1e5c5302f2a4","ios":"levelo://app?vid=eb3e93c8-5e45-4d8f-bd4f-1e5c5302f2a4"},"vehicle_type_id":"4","last_reported":1751638195,"current_range_meters":0,"station_id":"ce4bhu92rcd13ifvqi70","pricing_plan_id":"cebpf4jnsgd1na2vs0mg"},{"bike_id":"2db7de25-6c57-447b-bff5-ea01c3753780","system_id":"levelo_inurba_marseille","lat":43.21745,"lon":5.34611,"is_reserved":false,"is_disabled":true,"rental_uris":{"android":"levelo://app?vid=2db7de25-6c57-447b-bff5-ea01c3753780","ios":"levelo://app?vid=2db7de25-6c57-447b-bff5-ea01c3753780"},"vehicle_type_id":"4","last_reported":1751638195,"current_range_meters":0,"station_id":"st_cvj6r9ubvosntc0bgbag","pricing_plan_id":"cebpf4jnsgd1na2vs0mg"},{"bike_id":"5e8830ec-34e5-4f0f-b607-434b2954d153","system_id":"levelo_inurba_marseille","lat":43.21198,"lon":5.35081,"is_reserved":false,"is_disabled":true,"rental_uris":{"android":"levelo://app?vid=5e8830ec-34e5-4f0f-b607-434b2954d153","ios":"levelo://app?vid=5e8830ec-34e5-4f0f-b607-434b2954d153"},"vehicle_type_id":"4","last_reported":1751638195,"current_range_meters":0,"station_id":"st_cvj6sg6p6f1abm77japg","pricing_plan_id":"cebpf4jnsgd1na2vs0mg"},{"bike_id":"cd2a3af2-854b-4519-92e5-1eaf70ba8a37","system_id":"levelo_inurba_marseille","lat":43.21208,"lon":5.35073,"is_reserved":false,"is_disabled":true,"rental_uris":{"android":"levelo://app?vid=cd2a3af2-854b-4519-92e5-1eaf70ba8a37","ios":"levelo://app?vid=cd2a3af2-854b-4519-92e5-1eaf70ba8a37"},"vehicle_type_id":"4","last_reported":1751638195,"current_range_meters":0,"station_id":"st_cvj6sg6p6f1abm77japg","pricing_plan_id":"cebpf4jnsgd1na2vs0mg"},{"bike_id":"8773aee8-3946-43b8-8b2f-07c3a5103e03","system_id":"levelo_inurba_marseille","lat":43.29571,"lon":5.37516,"is_reserved":false,"is_disabled":true,"rental_uris":{"android":"levelo://app?vid=8773aee8-3946-43b8-8b2f-07c3a5103e03","ios":"levelo://app?vid=8773aee8-3946-43b8-8b2f-07c3a5103e03"},"vehicle_type_id":"4","last_reported":1751638195,"current_range_meters":400,"station_id":"ce4bgh92rcd13ifvqb50","pricing_plan_id":"cebpf4jnsgd1na2vs0mg"},{"bike_id":"db1e3d17-32d6-43d7-ba0c-148f07bec6d0","system_id":"levelo_inurba_marseille","lat":43.28081,"lon":5.37867,"is_reserved":false,"is_disabled":true,"rental_uris":{"android":"levelo://app?vid=db1e3d17-32d6-43d7-ba0c-148f07bec6d0","ios":"levelo://app?vid=db1e3d17-32d6-43d7-ba0c-148f07bec6d0"},"vehicle_type_id":"4","last_reported":1751638195,"current_range_meters":400,"station_id":"ce4bha12rcd13ifvqee0","pricing_plan_id":"cebpf4jnsgd1na2vs0mg"},{"bike_id":"598c6faf-ee90-4a1b-8a76-f6435c2eeaaf","system_id":"levelo_inurba_marseille","lat":43.29001,"lon":5.35607,"is_reserved":false,"is_disabled":true,"rental_uris":{"android":"levelo://app?vid=598c6faf-ee90-4a1b-8a76-f6435c2eeaaf","ios":"levelo://app?vid=598c6faf-ee90-4a1b-8a76-f6435c2eeaaf"},"vehicle_type_id":"4","last_reported":1751638195,"current_range_meters":800,"station_id":"ce4bhb92rcd13ifvqen0","pricing_plan_id":"cebpf4jnsgd1na2vs0mg"},{"bike_id":"4a949e59-ab1c-4f5c-84e9-6f3f3250000c","system_id":"levelo_inurba_marseille","lat":43.27207,"lon":5.3918,"is_reserved":false,"is_disabled":true,"rental_uris":{"android":"levelo://app?vid=4a949e59-ab1c-4f5c-84e9-6f3f3250000c","ios":"levelo://app?vid=4a949e59-ab1c-4f5c-84e9-6f3f3250000c"},"vehicle_type_id":"4","last_reported":1751638195,"current_range_meters":800,"station_id":"ce4bhhp2rcd13ifvqfm0","pricing_plan_id":"cebpf4jnsgd1na2vs0mg"},{"bike_id":"e9f68c41-edae-4909-b163-65ae31d0e08c","system_id":"levelo_inurba_marseille","lat":43.2593,"lon":5.40908,"is_reserved":false,"is_disabled":true,"rental_uris":{"android":"levelo://app?vid=e9f68c41-edae-4909-b163-65ae31d0e08c","ios":"levelo://app?vid=e9f68c41-edae-4909-b163-65ae31d0e08c"},"vehicle_type_id":"4","last_reported":1751638195,"current_range_meters":800,"station_id":"ce4bhm92rcd13ifvqglg","pricing_plan_id":"cebpf4jnsgd1na2vs0mg"},{"bike_id":"42ac727a-6595-40c2-a251-d0a8a8d7e9e0","system_id":"levelo_inurba_marseille","lat":43.29257,"lon":5.38441,"is_reserved":false,"is_disabled":true,"rental_uris":{"android":"levelo://app?vid=42ac727a-6595-40c2-a251-d0a8a8d7e9e0","ios":"levelo://app?vid=42ac727a-6595-40c2-a251-d0a8a8d7e9e0"},"vehicle_type_id":"4","last_reported":1751638195,"current_range_meters":1200,"station_id":"ce4bh692rcd13ifvqea0","pricing_plan_id":"cebpf4jnsgd1na2vs0mg"},{"bike_id":"b0a1ec7f-b4db-4a43-b5c6-0ef11475d331","system_id":"levelo_inurba_marseille","lat":43.25494,"lon":5.37658,"is_reserved":false,"is_disabled":true,"rental_uris":{"android":"levelo://app?vid=b0a1ec7f-b4db-4a43-b5c6-0ef11475d331","ios":"levelo://app?vid=b0a1ec7f-b4db-4a43-b5c6-0ef11475d331"},"vehicle_type_id":"4","last_reported":1751638195,"current_range_meters":1200,"station_id":"ce4bhh12rcd13ifvqff0","pricing_plan_id":"cebpf4jnsgd1na2vs0mg"},{"bike_id":"6f67a9a5-a3a1-4fae-84c2-9115d491e67e","system_id":"levelo_inurba_marseille","lat":43.29909,"lon":5.38139,"is_reserved":false,"is_disabled":true,"rental_uris":{"android":"levelo://app?vid=6f67a9a5-a3a1-4fae-84c2-9115d491e67e","ios":"levelo://app?vid=6f67a9a5-a3a1-4fae-84c2-9115d491e67e"},"vehicle_type_id":"4","last_reported":1751638195,"current_range_meters":1600,"station_id":"ce4bgj12rcd13ifvqbc0","pricing_plan_id":"cebpf4jnsgd1na2vs0mg"},{"bike_id":"0b24f7cb-1203-4f2a-b9aa-6585830749dc","system_id":"levelo_inurba_marseille","lat":43.3095,"lon":5.39024,"is_reserved":false,"is_disabled":true,"rental_uris":{"android":"levelo://app?vid=0b24f7cb-1203-4f2a-b9aa-6585830749dc","ios":"levelo://app?vid=0b24f7cb-1203-4f2a-b9aa-6585830749dc"},"vehicle_type_id":"4","last_reported":1751638195,"current_range_meters":1600,"station_id":"ce4bgup2rcd13ifvqco0","pricing_plan_id":"cebpf4jnsgd1na2vs0mg"},{"bike_id":"4b5ac767-c0c3-413d-a747-5e6db9306822","system_id":"levelo_inurba_marseille","lat":43.28479,"lon":5.38422,"is_reserved":false,"is_disabled":true,"rental_uris":{"android":"levelo://app?vid=4b5ac767-c0c3-413d-a747-5e6db9306822","ios":"levelo://app?vid=4b5ac767-c0c3-413d-a747-5e6db9306822"},"vehicle_type_id":"4","last_reported":1751638195,"current_range_meters":1600,"station_id":"ce4bh512rcd13ifvqe3g","pricing_plan_id":"cebpf4jnsgd1na2vs0mg"},{"bike_id":"c04583bd-6d94-4678-9744-a432acb21622","system_id":"levelo_inurba_marseille","lat":43.28662,"lon":5.3636,"is_reserved":false,"is_disabled":true,"rental_uris":{"android":"levelo://app?vid=c04583bd-6d94-4678-9744-a432acb21622","ios":"levelo://app?vid=c04583bd-6d94-4678-9744-a432acb21622"},"vehicle_type_id":"4","last_reported":1751638195,"current_range_meters":1600,"station_id":"ce4bhah2rcd13ifvqej0","pricing_plan_id":"cebpf4jnsgd1na2vs0mg"},{"bike_id":"9755a03c-8ab9-4a58-bd2c-40e869d64e05","system_id":"levelo_inurba_marseille","lat":43.27372,"lon":5.36261,"is_reserved":false,"is_disabled":true,"rental_uris":{"android":"levelo://app?vid=9755a03c-8ab9-4a58-bd2c-40e869d64e05","ios":"levelo://app?vid=9755a03c-8ab9-4a58-bd2c-40e869d64e05"},"vehicle_type_id":"4","last_reported":1751638195,"current_range_meters":1600,"station_id":"ce4bhbh2rcd13ifvqeo0","pricing_plan_id":"cebpf4jnsgd1na2vs0mg"},{"bike_id":"4b254930-7261-4853-8f13-2799f1ada4bf","system_id":"levelo_inurba_marseille","lat":43.24689,"lon":5.3815,"is_reserved":false,"is_disabled":true,"rental_uris":{"android":"levelo://app?vid=4b254930-7261-4853-8f13-2799f1ada4bf","ios":"levelo://app?vid=4b254930-7261-4853-8f13-2799f1ada4bf"},"vehicle_type_id":"4","last_reported":1751638195,"current_range_meters":1600,"station_id":"ce4bhih2rcd13ifvqfr0","pricing_plan_id":"cebpf4jnsgd1na2vs0mg"},{"bike_id":"52ae43c3-2d5a-4a66-8de6-e2c59de6a6c0","system_id":"levelo_inurba_marseille","lat":43.305611,"lon":5.36546,"is_reserved":false,"is_disabled":false,"rental_uris":{"android":"levelo://app?vid=52ae43c3-2d5a-4a66-8de6-e2c59de6a6c0","ios":"levelo://app?vid=52ae43c3-2d5a-4a66-8de6-e2c59de6a6c0"},"vehicle_type_id":"4","last_reported":1751638195,"current_range_meters":2000,"station_id":"ce4bgs12rcd13ifvqcag","pricing_plan_id":"cebpf4jnsgd1na2vs0mg"},{"bike_id":"fb015b47-ff38-4ba5-af5f-4a9d5c5e6f60","system_id":"levelo_inurba_marseille","lat":43.28668,"lon":5.38657,"is_reserved":false,"is_disabled":true,"rental_uris":{"android":"levelo://app?vid=fb015b47-ff38-4ba5-af5f-4a9d5c5e6f60","ios":"levelo://app?vid=fb015b47-ff38-4ba5-af5f-4a9d5c5e6f60"},"vehicle_type_id":"4","last_reported":1751638195,"current_range_meters":2000,"station_id":"ce4bh492rcd13ifvqdug","pricing_plan_id":"cebpf4jnsgd1na2vs0mg"},{"bike_id":"cee0b5b6-9b90-457a-85f4-540287a23b84","system_id":"levelo_inurba_marseille","lat":43.21185,"lon":5.35064,"is_reserved":false,"is_disabled":true,"rental_uris":{"android":"levelo://app?vid=cee0b5b6-9b90-457a-85f4-540287a23b84","ios":"levelo://app?vid=cee0b5b6-9b90-457a-85f4-540287a23b84"},"vehicle_type_id":"4","last_reported":1751638195,"current_range_meters":2000,"station_id":"st_cvj6sg6p6f1abm77japg","pricing_plan_id":"cebpf4jnsgd1na2vs0mg"},{"bike_id":"34c6e3d0-b005-424f-a0a7-52f9f8bd654f","system_id":"levelo_inurba_marseille","lat":43.23622,"lon":5.36207,"is_reserved":false,"is_disabled":false,"rental_uris":{"android":"levelo://app?vid=34c6e3d0-b005-424f-a0a7-52f9f8bd654f","ios":"levelo://app?vid=34c6e3d0-b005-424f-a0a7-52f9f8bd654f"},"vehicle_type_id":"4","last_reported":1751638195,"current_range_meters":2800,"station_id":"","pricing_plan_id":"cebpf4jnsgd1na2vs0mg"},{"bike_id":"21d923fa-49b4-4f44-94a0-380fedd3b71a","system_id":"levelo_inurba_marseille","lat":43.29025,"lon":5.38138,"is_reserved":false,"is_disabled":false,"rental_uris":{"android":"levelo://app?vid=21d923fa-49b4-4f44-94a0-380fedd3b71a","ios":"levelo://app?vid=21d923fa-49b4-4f44-94a0-380fedd3b71a"},"vehicle_type_id":"4","last_reported":1751638195,"current_range_meters":2800,"station_id":"ce4bh4p2rcd13ifvqe1g","pricing_plan_id":"cebpf4jnsgd1na2vs0mg"},{"bike_id":"b7730369-34f0-46be-abf6-76b74d5e2114","system_id":"levelo_inurba_marseille","lat":43.27903,"lon":5.38005,"is_reserved":false,"is_disabled":false,"rental_uris":{"android":"levelo://app?vid=b7730369-34f0-46be-abf6-76b74d5e2114","ios":"levelo://app?vid=b7730369-34f0-46be-abf6-76b74d5e2114"},"vehicle_type_id":"4","last_reported":1751638195,"current_range_meters":2800,"station_id":"ce4bhf92rcd13ifvqf50","pricing_plan_id":"cebpf4jnsgd1na2vs0mg"},{"bike_id":"b923ceff-7e3d-44d2-9a9b-d43affd6e6fc","system_id":"levelo_inurba_marseille","lat":43.29262,"lon":5.40898,"is_reserved":false,"is_disabled":false,"rental_uris":{"android":"levelo://app?vid=b923ceff-7e3d-44d2-9a9b-d43affd6e6fc","ios":"levelo://app?vid=b923ceff-7e3d-44d2-9a9b-d43affd6e6fc"},"vehicle_type_id":"4","last_reported":1751638195,"current_range_meters":3200,"station_id":"ce4bh192rcd13ifvqdc0","pricing_plan_id":"cebpf4jnsgd1na2vs0mg"},{"bike_id":"f253795a-427b-4080-aa56-10834ef74df9","system_id":"levelo_inurba_marseille","lat":43.28263,"lon":5.35064,"is_reserved":false,"is_disabled":false,"rental_uris":{"android":"levelo://app?vid=f253795a-427b-4080-aa56-10834ef74df9","ios":"levelo://app?vid=f253795a-427b-4080-aa56-10834ef74df9"},"vehicle_type_id":"4","last_reported":1751638195,"current_range_meters":3200,"station_id":"ce4bhbp2rcd13ifvqerg","pricing_plan_id":"cebpf4jnsgd1na2vs0mg"},{"bike_id":"8ed33aea-2bdb-4075-9aca-f7e4a44803df","system_id":"levelo_inurba_marseille","lat":43.3413,"lon":5.40907,"is_reserved":false,"is_disabled":false,"rental_uris":{"android":"levelo://app?vid=8ed33aea-2bdb-4075-9aca-f7e4a44803df","ios":"levelo://app?vid=8ed33aea-2bdb-4075-9aca-f7e4a44803df"},"vehicle_type_id":"4","last_reported":1751638195,"current_range_meters":3200,"station_id":"ce4bhqh2rcd13ifvqhlg","pricing_plan_id":"cebpf4jnsgd1na2vs0mg"},{"bike_id":"0e023f9d-cc39-4dcf-934f-ba4bbd3d4593","system_id":"levelo_inurba_marseille","lat":43.30446,"lon":5.38881,"is_reserved":false,"is_disabled":false,"rental_uris":{"android":"levelo://app?vid=0e023f9d-cc39-4dcf-934f-ba4bbd3d4593","ios":"levelo://app?vid=0e023f9d-cc39-4dcf-934f-ba4bbd3d4593"},"vehicle_type_id":"4","last_reported":1751638195,"current_range_meters":3600,"station_id":"ce4bgk12rcd13ifvqbi0","pricing_plan_id":"cebpf4jnsgd1na2vs0mg"},{"bike_id":"86891162-6936-4db8-8dfc-b535a8c71354","system_id":"levelo_inurba_marseille","lat":43.29034,"lon":5.38644,"is_reserved":false,"is_disabled":false,"rental_uris":{"android":"levelo://app?vid=86891162-6936-4db8-8dfc-b535a8c71354","ios":"levelo://app?vid=86891162-6936-4db8-8dfc-b535a8c71354"},"vehicle_type_id":"4","last_reported":1751638195,"current_range_meters":3600,"station_id":"ce4bh4p2rcd13ifvqe0g","pricing_plan_id":"cebpf4jnsgd1na2vs0mg"},{"bike_id":"0c304774-bbe1-4da4-b282-8c8ceb3975b0","system_id":"levelo_inurba_marseille","lat":43.27374,"lon":5.36253,"is_reserved":false,"is_disabled":false,"rental_uris":{"android":"levelo://app?vid=0c304774-bbe1-4da4-b282-8c8ceb3975b0","ios":"levelo://app?vid=0c304774-bbe1-4da4-b282-8c8ceb3975b0"},"vehicle_type_id":"4","last_reported":1751638195,"current_range_meters":3600,"station_id":"ce4bhbh2rcd13ifvqeo0","pricing_plan_id":"cebpf4jnsgd1na2vs0mg"},{"bike_id":"bf4482a1-9c76-48c4-965b-a8d9139517ea","system_id":"levelo_inurba_marseille","lat":43.26953,"lon":5.38632,"is_reserved":false,"is_disabled":false,"rental_uris":{"android":"levelo://app?vid=bf4482a1-9c76-48c4-965b-a8d9139517ea","ios":"levelo://app?vid=bf4482a1-9c76-48c4-965b-a8d9139517ea"},"vehicle_type_id":"4","last_reported":1751638195,"current_range_meters":3600,"station_id":"ce4bhh92rcd13ifvqfh0","pricing_plan_id":"cebpf4jnsgd1na2vs0mg"},{"bike_id":"b14f3012-740b-47fb-a8b0-08aee6fc96f0","system_id":"levelo_inurba_marseille","lat":43.2707,"lon":5.42277,"is_reserved":false,"is_disabled":false,"rental_uris":{"android":"levelo://app?vid=b14f3012-740b-47fb-a8b0-08aee6fc96f0","ios":"levelo://app?vid=b14f3012-740b-47fb-a8b0-08aee6fc96f0"},"vehicle_type_id":"4","last_reported":1751638195,"current_range_meters":3600,"station_id":"ce4bhk92rcd13ifvqgb0","pricing_plan_id":"cebpf4jnsgd1na2vs0mg"},{"bike_id":"8d9eb601-4708-43a4-841e-a3f45992da0c","system_id":"levelo_inurba_marseille","lat":43.28438,"lon":5.39184,"is_reserved":false,"is_disabled":false,"rental_uris":{"android":"levelo://app?vid=8d9eb601-4708-43a4-841e-a3f45992da0c","ios":"levelo://app?vid=8d9eb601-4708-43a4-841e-a3f45992da0c"},"vehicle_type_id":"4","last_reported":1751638195,"current_range_meters":3600,"station_id":"ce4bhoh2rcd13ifvqh5g","pricing_plan_id":"cebpf4jnsgd1na2vs0mg"},{"bike_id":"dfb6000d-b72d-44ac-b081-bd464f7d9596","system_id":"levelo_inurba_marseille","lat":43.29741,"lon":5.37676,"is_reserved":false,"is_disabled":false,"rental_uris":{"android":"levelo://app?vid=dfb6000d-b72d-44ac-b081-bd464f7d9596","ios":"levelo://app?vid=dfb6000d-b72d-44ac-b081-bd464f7d9596"},"vehicle_type_id":"4","last_reported":1751638195,"current_range_meters":4000,"station_id":"ce4bgkh2rcd13ifvqbl0","pricing_plan_id":"cebpf4jnsgd1na2vs0mg"},{"bike_id":"0f8a6753-0e18-4272-9541-f2165646efd8","system_id":"levelo_inurba_marseille","lat":43.28462,"lon":5.35877,"is_reserved":false,"is_disabled":false,"rental_uris":{"android":"levelo://app?vid=0f8a6753-0e18-4272-9541-f2165646efd8","ios":"levelo://app?vid=0f8a6753-0e18-4272-9541-f2165646efd8"},"vehicle_type_id":"4","last_reported":1751638195,"current_range_meters":4000,"station_id":"ce4bhah2rcd13ifvqei0","pricing_plan_id":"cebpf4jnsgd1na2vs0mg"},{"bike_id":"495cf59f-942c-45af-84c3-f53d94ea2ec4","system_id":"levelo_inurba_marseille","lat":43.2826,"lon":5.35062,"is_reserved":false,"is_disabled":false,"rental_uris":{"android":"levelo://app?vid=495cf59f-942c-45af-84c3-f53d94ea2ec4","ios":"levelo://app?vid=495cf59f-942c-45af-84c3-f53d94ea2ec4"},"vehicle_type_id":"4","last_reported":1751638195,"current_range_meters":4000,"station_id":"ce4bhbp2rcd13ifvqerg","pricing_plan_id":"cebpf4jnsgd1na2vs0mg"},{"bike_id":"1c376b25-aaa2-4359-a423-6ec47f447409","system_id":"levelo_inurba_marseille","lat":43.27377,"lon":5.36259,"is_reserved":false,"is_disabled":false,"rental_uris":{"android":"levelo://app?vid=1c376b25-aaa2-4359-a423-6ec47f447409","ios":"levelo://app?vid=1c376b25-aaa2-4359-a423-6ec47f447409"},"vehicle_type_id":"4","last_reported":1751638195,"current_range_meters":4400,"station_id":"ce4bhbh2rcd13ifvqeo0","pricing_plan_id":"cebpf4jnsgd1na2vs0mg"},{"bike_id":"61087253-ad6e-4c1f-ab3e-7a21fee02900","system_id":"levelo_inurba_marseille","lat":43.31885,"lon":5.40737,"is_reserved":false,"is_disabled":false,"rental_uris":{"android":"levelo://app?vid=61087253-ad6e-4c1f-ab3e-7a21fee02900","ios":"levelo://app?vid=61087253-ad6e-4c1f-ab3e-7a21fee02900"},"vehicle_type_id":"4","last_reported":1751638195,"current_range_meters":4400,"station_id":"ce4bhq12rcd13ifvqhig","pricing_plan_id":"cebpf4jnsgd1na2vs0mg"},{"bike_id":"022d1f15-7385-4917-861d-c7ec3d47371f","system_id":"levelo_inurba_marseille","lat":43.23195,"lon":5.35561,"is_reserved":false,"is_disabled":false,"rental_uris":{"android":"levelo://app?vid=022d1f15-7385-4917-861d-c7ec3d47371f","ios":"levelo://app?vid=022d1f15-7385-4917-861d-c7ec3d47371f"},"vehicle_type_id":"4","last_reported":1751638195,"current_range_meters":4400,"station_id":"ce4bhu92rcd13ifvqi70","pricing_plan_id":"cebpf4jnsgd1na2vs0mg"},{"bike_id":"96c024f9-40ed-46f4-b723-4bcc83279ccb","system_id":"levelo_inurba_marseille","lat":43.3014,"lon":5.37418,"is_reserved":false,"is_disabled":false,"rental_uris":{"android":"levelo://app?vid=96c024f9-40ed-46f4-b723-4bcc83279ccb","ios":"levelo://app?vid=96c024f9-40ed-46f4-b723-4bcc83279ccb"},"vehicle_type_id":"4","last_reported":1751638195,"current_range_meters":4800,"station_id":"ce4bgs92rcd13ifvqcc0","pricing_plan_id":"cebpf4jnsgd1na2vs0mg"},{"bike_id":"c420f18f-4772-4450-8747-d03ceb567c02","system_id":"levelo_inurba_marseille","lat":43.27317,"lon":5.39072,"is_reserved":false,"is_disabled":false,"rental_uris":{"android":"levelo://app?vid=c420f18f-4772-4450-8747-d03ceb567c02","ios":"levelo://app?vid=c420f18f-4772-4450-8747-d03ceb567c02"},"vehicle_type_id":"4","last_reported":1751638195,"current_range_meters":4800,"station_id":"ce4bhgp2rcd13ifvqfe0","pricing_plan_id":"cebpf4jnsgd1na2vs0mg"},{"bike_id":"11e7b8be-6254-46c8-a705-c6941c346d56","system_id":"levelo_inurba_marseille","lat":43.3015,"lon":5.37733,"is_reserved":false,"is_disabled":false,"rental_uris":{"android":"levelo://app?vid=11e7b8be-6254-46c8-a705-c6941c346d56","ios":"levelo://app?vid=11e7b8be-6254-46c8-a705-c6941c346d56"},"vehicle_type_id":"4","last_reported":1751638195,"current_range_meters":5600,"station_id":"","pricing_plan_id":"cebpf4jnsgd1na2vs0mg"},{"bike_id":"bfd25ec9-41cf-4453-a8e2-405020867827","system_id":"levelo_inurba_marseille","lat":43.28408,"lon":5.34983,"is_reserved":false,"is_disabled":false,"rental_uris":{"android":"levelo://app?vid=bfd25ec9-41cf-4453-a8e2-405020867827","ios":"levelo://app?vid=bfd25ec9-41cf-4453-a8e2-405020867827"},"vehicle_type_id":"4","last_reported":1751638195,"current_range_meters":5600,"station_id":"ce4bhbh2rcd13ifvqepg","pricing_plan_id":"cebpf4jnsgd1na2vs0mg"},{"bike_id":"30e9eba2-66ab-4f2e-b71f-5403359e02f8","system_id":"levelo_inurba_marseille","lat":43.32357,"lon":5.36755,"is_reserved":false,"is_disabled":false,"rental_uris":{"android":"levelo://app?vid=30e9eba2-66ab-4f2e-b71f-5403359e02f8","ios":"levelo://app?vid=30e9eba2-66ab-4f2e-b71f-5403359e02f8"},"vehicle_type_id":"4","last_reported":1751638195,"current_range_meters":5600,"station_id":"ce4bhsh2rcd13ifvqi2g","pricing_plan_id":"cebpf4jnsgd1na2vs0mg"},{"bike_id":"54ded728-be18-4121-867c-00ca8b8e13b9","system_id":"levelo_inurba_marseille","lat":43.29261,"lon":5.38433,"is_reserved":false,"is_disabled":false,"rental_uris":{"android":"levelo://app?vid=54ded728-be18-4121-867c-00ca8b8e13b9","ios":"levelo://app?vid=54ded728-be18-4121-867c-00ca8b8e13b9"},"vehicle_type_id":"4","last_reported":1751638195,"current_range_meters":6000,"station_id":"ce4bh692rcd13ifvqea0","pricing_plan_id":"cebpf4jnsgd1na2vs0mg"},{"bike_id":"d69624c6-aa23-4d5b-b77f-385513d55ceb","system_id":"levelo_inurba_marseille","lat":43.2893,"lon":5.36633,"is_reserved":false,"is_disabled":false,"rental_uris":{"android":"levelo://app?vid=d69624c6-aa23-4d5b-b77f-385513d55ceb","ios":"levelo://app?vid=d69624c6-aa23-4d5b-b77f-385513d55ceb"},"vehicle_type_id":"4","last_reported":1751638195,"current_range_meters":6000,"station_id":"ce4bhap2rcd13ifvqek0","pricing_plan_id":"cebpf4jnsgd1na2vs0mg"},{"bike_id":"2ce0c140-192a-4cde-9f18-aa89177ee2b1","system_id":"levelo_inurba_marseille","lat":43.27374,"lon":5.36255,"is_reserved":false,"is_disabled":false,"rental_uris":{"android":"levelo://app?vid=2ce0c140-192a-4cde-9f18-aa89177ee2b1","ios":"levelo://app?vid=2ce0c140-192a-4cde-9f18-aa89177ee2b1"},"vehicle_type_id":"4","last_reported":1751638195,"current_range_meters":6000,"station_id":"ce4bhbh2rcd13ifvqeo0","pricing_plan_id":"cebpf4jnsgd1na2vs0mg"},{"bike_id":"fe469632-47ac-4d5c-8cb6-6b27618ae6db","system_id":"levelo_inurba_marseille","lat":43.28265,"lon":5.35062,"is_reserved":false,"is_disabled":false,"rental_uris":{"android":"levelo://app?vid=fe469632-47ac-4d5c-8cb6-6b27618ae6db","ios":"levelo://app?vid=fe469632-47ac-4d5c-8cb6-6b27618ae6db"},"vehicle_type_id":"4","last_reported":1751638195,"current_range_meters":6000,"station_id":"ce4bhbp2rcd13ifvqerg","pricing_plan_id":"cebpf4jnsgd1na2vs0mg"},{"bike_id":"8afa7640-ebe8-4025-983a-c83f3912a2dd","system_id":"levelo_inurba_marseille","lat":43.21191,"lon":5.35072,"is_reserved":false,"is_disabled":false,"rental_uris":{"android":"levelo://app?vid=8afa7640-ebe8-4025-983a-c83f3912a2dd","ios":"levelo://app?vid=8afa7640-ebe8-4025-983a-c83f3912a2dd"},"vehicle_type_id":"4","last_reported":1751638195,"current_range_meters":6000,"station_id":"st_cvj6sg6p6f1abm77japg","pricing_plan_id":"cebpf4jnsgd1na2vs0mg"},{"bike_id":"e26ba497-efc7-4420-b8c5-9fa5e27f2ce4","system_id":"levelo_inurba_marseille","lat":43.31359,"lon":5.37071,"is_reserved":false,"is_disabled":false,"rental_uris":{"android":"levelo://app?vid=e26ba497-efc7-4420-b8c5-9fa5e27f2ce4","ios":"levelo://app?vid=e26ba497-efc7-4420-b8c5-9fa5e27f2ce4"},"vehicle_type_id":"4","last_reported":1751638195,"current_range_meters":6400,"station_id":"","pricing_plan_id":"cebpf4jnsgd1na2vs0mg"},{"bike_id":"6d99a4dc-4457-418e-b0db-4b040f3b90a0","system_id":"levelo_inurba_marseille","lat":43.283487,"lon":5.38104,"is_reserved":false,"is_disabled":false,"rental_uris":{"android":"levelo://app?vid=6d99a4dc-4457-418e-b0db-4b040f3b90a0","ios":"levelo://app?vid=6d99a4dc-4457-418e-b0db-4b040f3b90a0"},"vehicle_type_id":"4","last_reported":1751638195,"current_range_meters":6400,"station_id":"","pricing_plan_id":"cebpf4jnsgd1na2vs0mg"},{"bike_id":"0b740bd2-d543-4232-b6f7-c7413b573987","system_id":"levelo_inurba_marseille","lat":43.3128,"lon":5.40162,"is_reserved":false,"is_disabled":false,"rental_uris":{"android":"levelo://app?vid=0b740bd2-d543-4232-b6f7-c7413b573987","ios":"levelo://app?vid=0b740bd2-d543-4232-b6f7-c7413b573987"},"vehicle_type_id":"4","last_reported":1751638195,"current_range_meters":6400,"station_id":"ce4bh092rcd13ifvqd30","pricing_plan_id":"cebpf4jnsgd1na2vs0mg"},{"bike_id":"2f3c7a5a-7dbe-4d64-bd35-0f50f77c591d","system_id":"levelo_inurba_marseille","lat":43.2396,"lon":5.36624,"is_reserved":false,"is_disabled":false,"rental_uris":{"android":"levelo://app?vid=2f3c7a5a-7dbe-4d64-bd35-0f50f77c591d","ios":"levelo://app?vid=2f3c7a5a-7dbe-4d64-bd35-0f50f77c591d"},"vehicle_type_id":"4","last_reported":1751638195,"current_range_meters":6400,"station_id":"ce4bhi12rcd13ifvqfp0","pricing_plan_id":"cebpf4jnsgd1na2vs0mg"},{"bike_id":"e9f93152-c103-42e7-8290-70a0dd64d0c1","system_id":"levelo_inurba_marseille","lat":43.24811,"lon":5.37457,"is_reserved":false,"is_disabled":false,"rental_uris":{"android":"levelo://app?vid=e9f93152-c103-42e7-8290-70a0dd64d0c1","ios":"levelo://app?vid=e9f93152-c103-42e7-8290-70a0dd64d0c1"},"vehicle_type_id":"4","last_reported":1751638195,"current_range_meters":7200,"station_id":"","pricing_plan_id":"cebpf4jnsgd1na2vs0mg"},{"bike_id":"0b7bf5fb-2142-4ffa-b64a-36264c994ef4","system_id":"levelo_inurba_marseille","lat":43.28028,"lon":5.36952,"is_reserved":false,"is_disabled":false,"rental_uris":{"android":"levelo://app?vid=0b7bf5fb-2142-4ffa-b64a-36264c994ef4","ios":"levelo://app?vid=0b7bf5fb-2142-4ffa-b64a-36264c994ef4"},"vehicle_type_id":"4","last_reported":1751638195,"current_range_meters":7200,"station_id":"ce4bha12rcd13ifvqef0","pricing_plan_id":"cebpf4jnsgd1na2vs0mg"},{"bike_id":"d567a98a-7952-4227-875f-9176613e0a81","system_id":"levelo_inurba_marseille","lat":43.30376,"lon":5.42493,"is_reserved":false,"is_disabled":false,"rental_uris":{"android":"levelo://app?vid=d567a98a-7952-4227-875f-9176613e0a81","ios":"levelo://app?vid=d567a98a-7952-4227-875f-9176613e0a81"},"vehicle_type_id":"4","last_reported":1751638195,"current_range_meters":7200,"station_id":"ce4bhoh2rcd13ifvqh6g","pricing_plan_id":"cebpf4jnsgd1na2vs0mg"},{"bike_id":"09454f46-e55e-4559-820c-cbc05b531847","system_id":"levelo_inurba_marseille","lat":43.32294,"lon":5.389902,"is_reserved":false,"is_disabled":false,"rental_uris":{"android":"levelo://app?vid=09454f46-e55e-4559-820c-cbc05b531847","ios":"levelo://app?vid=09454f46-e55e-4559-820c-cbc05b531847"},"vehicle_type_id":"4","last_reported":1751638195,"current_range_meters":8000,"station_id":"","pricing_plan_id":"cebpf4jnsgd1na2vs0mg"},{"bike_id":"c2e977f7-3259-4989-8586-639eb439c3c7","system_id":"levelo_inurba_marseille","lat":43.2705,"lon":5.4026,"is_reserved":false,"is_disabled":false,"rental_uris":{"android":"levelo://app?vid=c2e977f7-3259-4989-8586-639eb439c3c7","ios":"levelo://app?vid=c2e977f7-3259-4989-8586-639eb439c3c7"},"vehicle_type_id":"4","last_reported":1751638195,"current_range_meters":8000,"station_id":"ce4bhk92rcd13ifvqgc0","pricing_plan_id":"cebpf4jnsgd1na2vs0mg"},{"bike_id":"b3b25056-a9b9-407d-82df-22b31acde4a1","system_id":"levelo_inurba_marseille","lat":43.271677,"lon":5.409938,"is_reserved":false,"is_disabled":false,"rental_uris":{"android":"levelo://app?vid=b3b25056-a9b9-407d-82df-22b31acde4a1","ios":"levelo://app?vid=b3b25056-a9b9-407d-82df-22b31acde4a1"},"vehicle_type_id":"4","last_reported":1751638195,"current_range_meters":8000,"station_id":"ce4bhl12rcd13ifvqgf0","pricing_plan_id":"cebpf4jnsgd1na2vs0mg"},{"bike_id":"67d944a5-274a-4d09-91e2-144c178b3760","system_id":"levelo_inurba_marseille","lat":43.30758,"lon":5.39578,"is_reserved":false,"is_disabled":false,"rental_uris":{"android":"levelo://app?vid=67d944a5-274a-4d09-91e2-144c178b3760","ios":"levelo://app?vid=67d944a5-274a-4d09-91e2-144c178b3760"},"vehicle_type_id":"4","last_reported":1751638195,"current_range_meters":8400,"station_id":"","pricing_plan_id":"cebpf4jnsgd1na2vs0mg"},{"bike_id":"ef6ed85f-76b2-4ae6-ba07-f2b8aaa1607c","system_id":"levelo_inurba_marseille","lat":43.262055,"lon":5.374468,"is_reserved":false,"is_disabled":false,"rental_uris":{"android":"levelo://app?vid=ef6ed85f-76b2-4ae6-ba07-f2b8aaa1607c","ios":"levelo://app?vid=ef6ed85f-76b2-4ae6-ba07-f2b8aaa1607c"},"vehicle_type_id":"4","last_reported":1751638195,"current_range_meters":8400,"station_id":"ce4bhgp2rcd13ifvqfc0","pricing_plan_id":"cebpf4jnsgd1na2vs0mg"},{"bike_id":"9bfc7d3d-4e60-4f8a-9c32-ef3d0e77ec5b","system_id":"levelo_inurba_marseille","lat":43.21186,"lon":5.350747,"is_reserved":false,"is_disabled":false,"rental_uris":{"android":"levelo://app?vid=9bfc7d3d-4e60-4f8a-9c32-ef3d0e77ec5b","ios":"levelo://app?vid=9bfc7d3d-4e60-4f8a-9c32-ef3d0e77ec5b"},"vehicle_type_id":"4","last_reported":1751638195,"current_range_meters":8400,"station_id":"st_cvj6sg6p6f1abm77japg","pricing_plan_id":"cebpf4jnsgd1na2vs0mg"},{"bike_id":"7f7c6fbd-f11a-4fe7-a84c-37f4de7a28a3","system_id":"levelo_inurba_marseille","lat":43.30122,"lon":5.39867,"is_reserved":false,"is_disabled":false,"rental_uris":{"android":"levelo://app?vid=7f7c6fbd-f11a-4fe7-a84c-37f4de7a28a3","ios":"levelo://app?vid=7f7c6fbd-f11a-4fe7-a84c-37f4de7a28a3"},"vehicle_type_id":"4","last_reported":1751638195,"current_range_meters":8800,"station_id":"ce4bh0h2rcd13ifvqd40","pricing_plan_id":"cebpf4jnsgd1na2vs0mg"},{"bike_id":"2dfefc75-ee6a-4525-ab73-850b46d8f26c","system_id":"levelo_inurba_marseille","lat":43.26032,"lon":5.37543,"is_reserved":false,"is_disabled":false,"rental_uris":{"android":"levelo://app?vid=2dfefc75-ee6a-4525-ab73-850b46d8f26c","ios":"levelo://app?vid=2dfefc75-ee6a-4525-ab73-850b46d8f26c"},"vehicle_type_id":"4","last_reported":1751638195,"current_range_meters":8800,"station_id":"ce4bhgh2rcd13ifvqfa0","pricing_plan_id":"cebpf4jnsgd1na2vs0mg"},{"bike_id":"c7fd6eb3-f849-4989-89fe-a964a0a41ceb","system_id":"levelo_inurba_marseille","lat":43.26209,"lon":5.37441,"is_reserved":false,"is_disabled":false,"rental_uris":{"android":"levelo://app?vid=c7fd6eb3-f849-4989-89fe-a964a0a41ceb","ios":"levelo://app?vid=c7fd6eb3-f849-4989-89fe-a964a0a41ceb"},"vehicle_type_id":"4","last_reported":1751638195,"current_range_meters":8800,"station_id":"ce4bhgp2rcd13ifvqfc0","pricing_plan_id":"cebpf4jnsgd1na2vs0mg"},{"bike_id":"bcfd0eda-b9ab-4bec-9ca3-3f2b86617415","system_id":"levelo_inurba_marseille","lat":43.211869,"lon":5.350703,"is_reserved":false,"is_disabled":false,"rental_uris":{"android":"levelo://app?vid=bcfd0eda-b9ab-4bec-9ca3-3f2b86617415","ios":"levelo://app?vid=bcfd0eda-b9ab-4bec-9ca3-3f2b86617415"},"vehicle_type_id":"4","last_reported":1751638195,"current_range_meters":8800,"station_id":"st_cvj6sg6p6f1abm77japg","pricing_plan_id":"cebpf4jnsgd1na2vs0mg"},{"bike_id":"be4e2ba2-f83c-4be6-923a-932d435bb5ce","system_id":"levelo_inurba_marseille","lat":43.28223,"lon":5.40452,"is_reserved":false,"is_disabled":false,"rental_uris":{"android":"levelo://app?vid=be4e2ba2-f83c-4be6-923a-932d435bb5ce","ios":"levelo://app?vid=be4e2ba2-f83c-4be6-923a-932d435bb5ce"},"vehicle_type_id":"4","last_reported":1751638195,"current_range_meters":9200,"station_id":"","pricing_plan_id":"cebpf4jnsgd1na2vs0mg"},{"bike_id":"d799b321-3a7d-4201-b46e-ffe2ad124f19","system_id":"levelo_inurba_marseille","lat":43.329076,"lon":5.383826,"is_reserved":false,"is_disabled":false,"rental_uris":{"android":"levelo://app?vid=d799b321-3a7d-4201-b46e-ffe2ad124f19","ios":"levelo://app?vid=d799b321-3a7d-4201-b46e-ffe2ad124f19"},"vehicle_type_id":"4","last_reported":1751638195,"current_range_meters":9200,"station_id":"","pricing_plan_id":"cebpf4jnsgd1na2vs0mg"},{"bike_id":"aaa40a2f-5137-4631-ac61-aba8086bdeb7","system_id":"levelo_inurba_marseille","lat":43.26578,"lon":5.37275,"is_reserved":false,"is_disabled":false,"rental_uris":{"android":"levelo://app?vid=aaa40a2f-5137-4631-ac61-aba8086bdeb7","ios":"levelo://app?vid=aaa40a2f-5137-4631-ac61-aba8086bdeb7"},"vehicle_type_id":"4","last_reported":1751638195,"current_range_meters":9200,"station_id":"ce4bhg12rcd13ifvqf70","pricing_plan_id":"cebpf4jnsgd1na2vs0mg"},{"bike_id":"35e444f3-facb-4699-b30e-a5c66859e54d","system_id":"levelo_inurba_marseille","lat":43.29267,"lon":5.38437,"is_reserved":false,"is_disabled":false,"rental_uris":{"android":"levelo://app?vid=35e444f3-facb-4699-b30e-a5c66859e54d","ios":"levelo://app?vid=35e444f3-facb-4699-b30e-a5c66859e54d"},"vehicle_type_id":"4","last_reported":1751638195,"current_range_meters":9600,"station_id":"ce4bh692rcd13ifvqea0","pricing_plan_id":"cebpf4jnsgd1na2vs0mg"},{"bike_id":"398d61bc-426c-4abd-b98f-e872ce835a3b","system_id":"levelo_inurba_marseille","lat":43.28266,"lon":5.35063,"is_reserved":false,"is_disabled":false,"rental_uris":{"android":"levelo://app?vid=398d61bc-426c-4abd-b98f-e872ce835a3b","ios":"levelo://app?vid=398d61bc-426c-4abd-b98f-e872ce835a3b"},"vehicle_type_id":"4","last_reported":1751638195,"current_range_meters":9600,"station_id":"ce4bhbp2rcd13ifvqerg","pricing_plan_id":"cebpf4jnsgd1na2vs0mg"},{"bike_id":"56b50fc6-bb3d-47d9-b7ea-eca6e93fa49c","system_id":"levelo_inurba_marseille","lat":43.27212,"lon":5.39176,"is_reserved":false,"is_disabled":false,"rental_uris":{"android":"levelo://app?vid=56b50fc6-bb3d-47d9-b7ea-eca6e93fa49c","ios":"levelo://app?vid=56b50fc6-bb3d-47d9-b7ea-eca6e93fa49c"},"vehicle_type_id":"4","last_reported":1751638195,"current_range_meters":9600,"station_id":"ce4bhhp2rcd13ifvqfm0","pricing_plan_id":"cebpf4jnsgd1na2vs0mg"},{"bike_id":"7e46842f-53bd-4ae6-a997-6983b26c9c45","system_id":"levelo_inurba_marseille","lat":43.27074,"lon":5.42276,"is_reserved":false,"is_disabled":false,"rental_uris":{"android":"levelo://app?vid=7e46842f-53bd-4ae6-a997-6983b26c9c45","ios":"levelo://app?vid=7e46842f-53bd-4ae6-a997-6983b26c9c45"},"vehicle_type_id":"4","last_reported":1751638195,"current_range_meters":9600,"station_id":"ce4bhk92rcd13ifvqgb0","pricing_plan_id":"cebpf4jnsgd1na2vs0mg"},{"bike_id":"b3e4a20d-fe38-49ae-804e-721eb9d9f59b","system_id":"levelo_inurba_marseille","lat":43.31752,"lon":5.3901,"is_reserved":false,"is_disabled":false,"rental_uris":{"android":"levelo://app?vid=b3e4a20d-fe38-49ae-804e-721eb9d9f59b","ios":"levelo://app?vid=b3e4a20d-fe38-49ae-804e-721eb9d9f59b"},"vehicle_type_id":"4","last_reported":1751638195,"current_range_meters":9600,"station_id":"ce4bhqp2rcd13ifvqhng","pricing_plan_id":"cebpf4jnsgd1na2vs0mg"},{"bike_id":"2346f85f-9246-45b8-beb6-066a494293f3","system_id":"levelo_inurba_marseille","lat":43.32098,"lon":5.36779,"is_reserved":false,"is_disabled":false,"rental_uris":{"android":"levelo://app?vid=2346f85f-9246-45b8-beb6-066a494293f3","ios":"levelo://app?vid=2346f85f-9246-45b8-beb6-066a494293f3"},"vehicle_type_id":"4","last_reported":1751638195,"current_range_meters":9600,"station_id":"ce4bhrh2rcd13ifvqhug","pricing_plan_id":"cebpf4jnsgd1na2vs0mg"},{"bike_id":"76cf2511-f4b7-4ac2-8990-73d983be0539","system_id":"levelo_inurba_marseille","lat":43.21747,"lon":5.34601,"is_reserved":false,"is_disabled":false,"rental_uris":{"android":"levelo://app?vid=76cf2511-f4b7-4ac2-8990-73d983be0539","ios":"levelo://app?vid=76cf2511-f4b7-4ac2-8990-73d983be0539"},"vehicle_type_id":"4","last_reported":1751638195,"current_range_meters":9600,"station_id":"st_cvj6r9ubvosntc0bgbag","pricing_plan_id":"cebpf4jnsgd1na2vs0mg"},{"bike_id":"3538737c-6b97-4470-b09a-59d5491ab6e7","system_id":"levelo_inurba_marseille","lat":43.25494,"lon":5.37652,"is_reserved":false,"is_disabled":false,"rental_uris":{"android":"levelo://app?vid=3538737c-6b97-4470-b09a-59d5491ab6e7","ios":"levelo://app?vid=3538737c-6b97-4470-b09a-59d5491ab6e7"},"vehicle_type_id":"4","last_reported":1751638195,"current_range_meters":10000,"station_id":"","pricing_plan_id":"cebpf4jnsgd1na2vs0mg"},{"bike_id":"c76381fd-b6b9-4d02-a8a4-fd4e6891e706","system_id":"levelo_inurba_marseille","lat":43.30288,"lon":5.39047,"is_reserved":false,"is_disabled":false,"rental_uris":{"android":"levelo://app?vid=c76381fd-b6b9-4d02-a8a4-fd4e6891e706","ios":"levelo://app?vid=c76381fd-b6b9-4d02-a8a4-fd4e6891e706"},"vehicle_type_id":"4","last_reported":1751638195,"current_range_meters":10000,"station_id":"","pricing_plan_id":"cebpf4jnsgd1na2vs0mg"},{"bike_id":"9fb41512-39a1-4f48-b5a7-c7fe6b89633e","system_id":"levelo_inurba_marseille","lat":43.30279,"lon":5.40457,"is_reserved":false,"is_disabled":false,"rental_uris":{"android":"levelo://app?vid=9fb41512-39a1-4f48-b5a7-c7fe6b89633e","ios":"levelo://app?vid=9fb41512-39a1-4f48-b5a7-c7fe6b89633e"},"vehicle_type_id":"4","last_reported":1751638195,"current_range_meters":10000,"station_id":"ce4bh012rcd13ifvqd10","pricing_plan_id":"cebpf4jnsgd1na2vs0mg"},{"bike_id":"8125a640-45ed-4c8d-a455-59a2b8189c50","system_id":"levelo_inurba_marseille","lat":43.28362,"lon":5.38634,"is_reserved":false,"is_disabled":false,"rental_uris":{"android":"levelo://app?vid=8125a640-45ed-4c8d-a455-59a2b8189c50","ios":"levelo://app?vid=8125a640-45ed-4c8d-a455-59a2b8189c50"},"vehicle_type_id":"4","last_reported":1751638195,"current_range_meters":10000,"station_id":"ce4bh492rcd13ifvqdvg","pricing_plan_id":"cebpf4jnsgd1na2vs0mg"},{"bike_id":"ba154a12-11bd-42a5-958a-5992f5d043d1","system_id":"levelo_inurba_marseille","lat":43.30497,"lon":5.3708,"is_reserved":false,"is_disabled":false,"rental_uris":{"android":"levelo://app?vid=ba154a12-11bd-42a5-958a-5992f5d043d1","ios":"levelo://app?vid=ba154a12-11bd-42a5-958a-5992f5d043d1"},"vehicle_type_id":"4","last_reported":1751638195,"current_range_meters":10800,"station_id":"","pricing_plan_id":"cebpf4jnsgd1na2vs0mg"},{"bike_id":"086ec20a-71bf-4983-b90d-fa23d4686999","system_id":"levelo_inurba_marseille","lat":43.30932,"lon":5.40146,"is_reserved":false,"is_disabled":false,"rental_uris":{"android":"levelo://app?vid=086ec20a-71bf-4983-b90d-fa23d4686999","ios":"levelo://app?vid=086ec20a-71bf-4983-b90d-fa23d4686999"},"vehicle_type_id":"4","last_reported":1751638195,"current_range_meters":10800,"station_id":"ce4bgvp2rcd13ifvqct0","pricing_plan_id":"cebpf4jnsgd1na2vs0mg"},{"bike_id":"f1afcb17-fcf9-41a7-8e12-acd70032868b","system_id":"levelo_inurba_marseille","lat":43.28405,"lon":5.37475,"is_reserved":false,"is_disabled":false,"rental_uris":{"android":"levelo://app?vid=f1afcb17-fcf9-41a7-8e12-acd70032868b","ios":"levelo://app?vid=f1afcb17-fcf9-41a7-8e12-acd70032868b"},"vehicle_type_id":"4","last_reported":1751638195,"current_range_meters":10800,"station_id":"ce4bh412rcd13ifvqds0","pricing_plan_id":"cebpf4jnsgd1na2vs0mg"},{"bike_id":"946ebcf6-5ab2-44a9-9806-7b412cc3413c","system_id":"levelo_inurba_marseille","lat":43.28357,"lon":5.38627,"is_reserved":false,"is_disabled":false,"rental_uris":{"android":"levelo://app?vid=946ebcf6-5ab2-44a9-9806-7b412cc3413c","ios":"levelo://app?vid=946ebcf6-5ab2-44a9-9806-7b412cc3413c"},"vehicle_type_id":"4","last_reported":1751638195,"current_range_meters":10800,"station_id":"ce4bh492rcd13ifvqdvg","pricing_plan_id":"cebpf4jnsgd1na2vs0mg"},{"bike_id":"5fc20e4d-2839-44cc-b1f6-c2cff7aefdc0","system_id":"levelo_inurba_marseille","lat":43.25925,"lon":5.40903,"is_reserved":false,"is_disabled":false,"rental_uris":{"android":"levelo://app?vid=5fc20e4d-2839-44cc-b1f6-c2cff7aefdc0","ios":"levelo://app?vid=5fc20e4d-2839-44cc-b1f6-c2cff7aefdc0"},"vehicle_type_id":"4","last_reported":1751638195,"current_range_meters":10800,"station_id":"ce4bhm92rcd13ifvqglg","pricing_plan_id":"cebpf4jnsgd1na2vs0mg"},{"bike_id":"9f1f6042-7e07-4b00-9dc1-8f0343d9174e","system_id":"levelo_inurba_marseille","lat":43.21182,"lon":5.35079,"is_reserved":false,"is_disabled":false,"rental_uris":{"android":"levelo://app?vid=9f1f6042-7e07-4b00-9dc1-8f0343d9174e","ios":"levelo://app?vid=9f1f6042-7e07-4b00-9dc1-8f0343d9174e"},"vehicle_type_id":"4","last_reported":1751638195,"current_range_meters":10800,"station_id":"st_cvj6sg6p6f1abm77japg","pricing_plan_id":"cebpf4jnsgd1na2vs0mg"},{"bike_id":"a52d99d4-90d8-4840-bc4c-cf9f2c41afbb","system_id":"levelo_inurba_marseille","lat":43.298416,"lon":5.362671,"is_reserved":false,"is_disabled":false,"rental_uris":{"android":"levelo://app?vid=a52d99d4-90d8-4840-bc4c-cf9f2c41afbb","ios":"levelo://app?vid=a52d99d4-90d8-4840-bc4c-cf9f2c41afbb"},"vehicle_type_id":"4","last_reported":1751638195,"current_range_meters":11200,"station_id":"ce4bgpp2rcd13ifvqc3g","pricing_plan_id":"cebpf4jnsgd1na2vs0mg"},{"bike_id":"2e273d02-eb66-42c7-a2b2-ec539c25da83","system_id":"levelo_inurba_marseille","lat":43.2737,"lon":5.36254,"is_reserved":false,"is_disabled":false,"rental_uris":{"android":"levelo://app?vid=2e273d02-eb66-42c7-a2b2-ec539c25da83","ios":"levelo://app?vid=2e273d02-eb66-42c7-a2b2-ec539c25da83"},"vehicle_type_id":"4","last_reported":1751638195,"current_range_meters":11200,"station_id":"ce4bhbh2rcd13ifvqeo0","pricing_plan_id":"cebpf4jnsgd1na2vs0mg"},{"bike_id":"22888734-05db-4b2c-9ebf-e2f83575acc2","system_id":"levelo_inurba_marseille","lat":43.28413,"lon":5.34983,"is_reserved":false,"is_disabled":false,"rental_uris":{"android":"levelo://app?vid=22888734-05db-4b2c-9ebf-e2f83575acc2","ios":"levelo://app?vid=22888734-05db-4b2c-9ebf-e2f83575acc2"},"vehicle_type_id":"4","last_reported":1751638195,"current_range_meters":11200,"station_id":"ce4bhbh2rcd13ifvqepg","pricing_plan_id":"cebpf4jnsgd1na2vs0mg"},{"bike_id":"f7fe4fb2-83b4-4de0-a5e6-77430f39e0d4","system_id":"levelo_inurba_marseille","lat":43.269495,"lon":5.386263,"is_reserved":false,"is_disabled":false,"rental_uris":{"android":"levelo://app?vid=f7fe4fb2-83b4-4de0-a5e6-77430f39e0d4","ios":"levelo://app?vid=f7fe4fb2-83b4-4de0-a5e6-77430f39e0d4"},"vehicle_type_id":"4","last_reported":1751638195,"current_range_meters":11200,"station_id":"ce4bhh92rcd13ifvqfh0","pricing_plan_id":"cebpf4jnsgd1na2vs0mg"},{"bike_id":"ce91fdec-53d6-49af-b164-e4ddfa1bbb6d","system_id":"levelo_inurba_marseille","lat":43.2572,"lon":5.41116,"is_reserved":false,"is_disabled":false,"rental_uris":{"android":"levelo://app?vid=ce91fdec-53d6-49af-b164-e4ddfa1bbb6d","ios":"levelo://app?vid=ce91fdec-53d6-49af-b164-e4ddfa1bbb6d"},"vehicle_type_id":"4","last_reported":1751638195,"current_range_meters":11200,"station_id":"ce4bhkp2rcd13ifvqgd0","pricing_plan_id":"cebpf4jnsgd1na2vs0mg"},{"bike_id":"0c4b7fdb-b39e-49b3-a2b0-ae3d0f43e89d","system_id":"levelo_inurba_marseille","lat":43.32908,"lon":5.40534,"is_reserved":false,"is_disabled":false,"rental_uris":{"android":"levelo://app?vid=0c4b7fdb-b39e-49b3-a2b0-ae3d0f43e89d","ios":"levelo://app?vid=0c4b7fdb-b39e-49b3-a2b0-ae3d0f43e89d"},"vehicle_type_id":"4","last_reported":1751638195,"current_range_meters":11600,"station_id":"","pricing_plan_id":"cebpf4jnsgd1na2vs0mg"},{"bike_id":"175513bb-dce2-48e2-83c8-1e9f1cb23cd0","system_id":"levelo_inurba_marseille","lat":43.286255,"lon":5.412651,"is_reserved":false,"is_disabled":false,"rental_uris":{"android":"levelo://app?vid=175513bb-dce2-48e2-83c8-1e9f1cb23cd0","ios":"levelo://app?vid=175513bb-dce2-48e2-83c8-1e9f1cb23cd0"},"vehicle_type_id":"4","last_reported":1751638195,"current_range_meters":12000,"station_id":"","pricing_plan_id":"cebpf4jnsgd1na2vs0mg"},{"bike_id":"ae5719fc-772c-4300-81f7-4dd20fe6522a","system_id":"levelo_inurba_marseille","lat":43.29532,"lon":5.37497,"is_reserved":false,"is_disabled":false,"rental_uris":{"android":"levelo://app?vid=ae5719fc-772c-4300-81f7-4dd20fe6522a","ios":"levelo://app?vid=ae5719fc-772c-4300-81f7-4dd20fe6522a"},"vehicle_type_id":"4","last_reported":1751638195,"current_range_meters":12000,"station_id":"ce4bgkp2rcd13ifvqbmg","pricing_plan_id":"cebpf4jnsgd1na2vs0mg"},{"bike_id":"63e0d04e-9706-47f1-8d6d-f935d1b6f756","system_id":"levelo_inurba_marseille","lat":43.27906,"lon":5.38013,"is_reserved":false,"is_disabled":false,"rental_uris":{"android":"levelo://app?vid=63e0d04e-9706-47f1-8d6d-f935d1b6f756","ios":"levelo://app?vid=63e0d04e-9706-47f1-8d6d-f935d1b6f756"},"vehicle_type_id":"4","last_reported":1751638195,"current_range_meters":12000,"station_id":"ce4bhf92rcd13ifvqf50","pricing_plan_id":"cebpf4jnsgd1na2vs0mg"},{"bike_id":"18e03d2b-69ba-4af2-bdb8-60416e0aab62","system_id":"levelo_inurba_marseille","lat":43.29899,"lon":5.43663,"is_reserved":false,"is_disabled":false,"rental_uris":{"android":"levelo://app?vid=18e03d2b-69ba-4af2-bdb8-60416e0aab62","ios":"levelo://app?vid=18e03d2b-69ba-4af2-bdb8-60416e0aab62"},"vehicle_type_id":"4","last_reported":1751638195,"current_range_meters":12000,"station_id":"ce4bhpp2rcd13ifvqhfg","pricing_plan_id":"cebpf4jnsgd1na2vs0mg"},{"bike_id":"1b19ee50-f242-4a40-b59c-631477d87288","system_id":"levelo_inurba_marseille","lat":43.337444,"lon":5.374475,"is_reserved":false,"is_disabled":false,"rental_uris":{"android":"levelo://app?vid=1b19ee50-f242-4a40-b59c-631477d87288","ios":"levelo://app?vid=1b19ee50-f242-4a40-b59c-631477d87288"},"vehicle_type_id":"4","last_reported":1751638195,"current_range_meters":12400,"station_id":"","pricing_plan_id":"cebpf4jnsgd1na2vs0mg"},{"bike_id":"0ed0a95f-c82d-4355-9e24-5a7623b195e1","system_id":"levelo_inurba_marseille","lat":43.296186,"lon":5.377186,"is_reserved":false,"is_disabled":false,"rental_uris":{"android":"levelo://app?vid=0ed0a95f-c82d-4355-9e24-5a7623b195e1","ios":"levelo://app?vid=0ed0a95f-c82d-4355-9e24-5a7623b195e1"},"vehicle_type_id":"4","last_reported":1751638195,"current_range_meters":12400,"station_id":"ce4bgi92rcd13ifvqb90","pricing_plan_id":"cebpf4jnsgd1na2vs0mg"},{"bike_id":"a2c9b6ee-779f-47cf-b3eb-5fed2b65726b","system_id":"levelo_inurba_marseille","lat":43.21751,"lon":5.34598,"is_reserved":false,"is_disabled":false,"rental_uris":{"android":"levelo://app?vid=a2c9b6ee-779f-47cf-b3eb-5fed2b65726b","ios":"levelo://app?vid=a2c9b6ee-779f-47cf-b3eb-5fed2b65726b"},"vehicle_type_id":"4","last_reported":1751638195,"current_range_meters":12400,"station_id":"st_cvj6r9ubvosntc0bgbag","pricing_plan_id":"cebpf4jnsgd1na2vs0mg"},{"bike_id":"5e197122-e8ec-4f01-b370-6bbfc10c6950","system_id":"levelo_inurba_marseille","lat":43.21194,"lon":5.35084,"is_reserved":false,"is_disabled":false,"rental_uris":{"android":"levelo://app?vid=5e197122-e8ec-4f01-b370-6bbfc10c6950","ios":"levelo://app?vid=5e197122-e8ec-4f01-b370-6bbfc10c6950"},"vehicle_type_id":"4","last_reported":1751638195,"current_range_meters":12400,"station_id":"st_cvj6sg6p6f1abm77japg","pricing_plan_id":"cebpf4jnsgd1na2vs0mg"},{"bike_id":"43b8b648-960e-46ea-bfad-839bb09cb576","system_id":"levelo_inurba_marseille","lat":43.26214,"lon":5.37041,"is_reserved":false,"is_disabled":false,"rental_uris":{"android":"levelo://app?vid=43b8b648-960e-46ea-bfad-839bb09cb576","ios":"levelo://app?vid=43b8b648-960e-46ea-bfad-839bb09cb576"},"vehicle_type_id":"4","last_reported":1751638195,"current_range_meters":12800,"station_id":"","pricing_plan_id":"cebpf4jnsgd1na2vs0mg"},{"bike_id":"e4e38e17-d162-473e-8d8d-73b26e25c74b","system_id":"levelo_inurba_marseille","lat":43.28096,"lon":5.3784,"is_reserved":false,"is_disabled":false,"rental_uris":{"android":"levelo://app?vid=e4e38e17-d162-473e-8d8d-73b26e25c74b","ios":"levelo://app?vid=e4e38e17-d162-473e-8d8d-73b26e25c74b"},"vehicle_type_id":"4","last_reported":1751638195,"current_range_meters":12800,"station_id":"ce4bha12rcd13ifvqee0","pricing_plan_id":"cebpf4jnsgd1na2vs0mg"},{"bike_id":"ec922269-e64e-42e0-9ad2-dc5d41780d56","system_id":"levelo_inurba_marseille","lat":43.29007,"lon":5.35619,"is_reserved":false,"is_disabled":false,"rental_uris":{"android":"levelo://app?vid=ec922269-e64e-42e0-9ad2-dc5d41780d56","ios":"levelo://app?vid=ec922269-e64e-42e0-9ad2-dc5d41780d56"},"vehicle_type_id":"4","last_reported":1751638195,"current_range_meters":12800,"station_id":"ce4bhb92rcd13ifvqen0","pricing_plan_id":"cebpf4jnsgd1na2vs0mg"},{"bike_id":"6e703efe-d004-492b-a4e1-8f9a45caf618","system_id":"levelo_inurba_marseille","lat":43.30351,"lon":5.4251,"is_reserved":false,"is_disabled":false,"rental_uris":{"android":"levelo://app?vid=6e703efe-d004-492b-a4e1-8f9a45caf618","ios":"levelo://app?vid=6e703efe-d004-492b-a4e1-8f9a45caf618"},"vehicle_type_id":"4","last_reported":1751638195,"current_range_meters":12800,"station_id":"ce4bhoh2rcd13ifvqh6g","pricing_plan_id":"cebpf4jnsgd1na2vs0mg"},{"bike_id":"54b552a1-5265-4afa-b81f-bb3e3720b1ac","system_id":"levelo_inurba_marseille","lat":43.23192,"lon":5.3555,"is_reserved":false,"is_disabled":false,"rental_uris":{"android":"levelo://app?vid=54b552a1-5265-4afa-b81f-bb3e3720b1ac","ios":"levelo://app?vid=54b552a1-5265-4afa-b81f-bb3e3720b1ac"},"vehicle_type_id":"4","last_reported":1751638195,"current_range_meters":12800,"station_id":"ce4bhu92rcd13ifvqi70","pricing_plan_id":"cebpf4jnsgd1na2vs0mg"},{"bike_id":"4342ab3a-ee01-4333-a349-f47e948573dd","system_id":"levelo_inurba_marseille","lat":43.31106,"lon":5.37776,"is_reserved":false,"is_disabled":false,"rental_uris":{"android":"levelo://app?vid=4342ab3a-ee01-4333-a349-f47e948573dd","ios":"levelo://app?vid=4342ab3a-ee01-4333-a349-f47e948573dd"},"vehicle_type_id":"4","last_reported":1751638195,"current_range_meters":13600,"station_id":"ce4bgt92rcd13ifvqcg0","pricing_plan_id":"cebpf4jnsgd1na2vs0mg"},{"bike_id":"c6432eb0-2f01-4f57-9719-db08e8a388f1","system_id":"levelo_inurba_marseille","lat":43.30889,"lon":5.39658,"is_reserved":false,"is_disabled":false,"rental_uris":{"android":"levelo://app?vid=c6432eb0-2f01-4f57-9719-db08e8a388f1","ios":"levelo://app?vid=c6432eb0-2f01-4f57-9719-db08e8a388f1"},"vehicle_type_id":"4","last_reported":1751638195,"current_range_meters":13600,"station_id":"ce4bh012rcd13ifvqcv0","pricing_plan_id":"cebpf4jnsgd1na2vs0mg"},{"bike_id":"4df0855c-a74b-4342-8c1b-ee116beab5d0","system_id":"levelo_inurba_marseille","lat":43.26218,"lon":5.37435,"is_reserved":false,"is_disabled":false,"rental_uris":{"android":"levelo://app?vid=4df0855c-a74b-4342-8c1b-ee116beab5d0","ios":"levelo://app?vid=4df0855c-a74b-4342-8c1b-ee116beab5d0"},"vehicle_type_id":"4","last_reported":1751638195,"current_range_meters":13600,"station_id":"ce4bhgp2rcd13ifvqfc0","pricing_plan_id":"cebpf4jnsgd1na2vs0mg"},{"bike_id":"e1aa5983-6325-42e2-8323-42350f78e1b6","system_id":"levelo_inurba_marseille","lat":43.25513,"lon":5.37628,"is_reserved":false,"is_disabled":false,"rental_uris":{"android":"levelo://app?vid=e1aa5983-6325-42e2-8323-42350f78e1b6","ios":"levelo://app?vid=e1aa5983-6325-42e2-8323-42350f78e1b6"},"vehicle_type_id":"4","last_reported":1751638195,"current_range_meters":13600,"station_id":"ce4bhh12rcd13ifvqff0","pricing_plan_id":"cebpf4jnsgd1na2vs0mg"},{"bike_id":"eeb15f24-dc77-43f3-8b51-59bd01a5b52d","system_id":"levelo_inurba_marseille","lat":43.31884,"lon":5.40726,"is_reserved":false,"is_disabled":false,"rental_uris":{"android":"levelo://app?vid=eeb15f24-dc77-43f3-8b51-59bd01a5b52d","ios":"levelo://app?vid=eeb15f24-dc77-43f3-8b51-59bd01a5b52d"},"vehicle_type_id":"4","last_reported":1751638195,"current_range_meters":13600,"station_id":"ce4bhq12rcd13ifvqhig","pricing_plan_id":"cebpf4jnsgd1na2vs0mg"},{"bike_id":"6eebadd3-99fa-48af-8556-1f64731f83a2","system_id":"levelo_inurba_marseille","lat":43.23064,"lon":5.35493,"is_reserved":false,"is_disabled":false,"rental_uris":{"android":"levelo://app?vid=6eebadd3-99fa-48af-8556-1f64731f83a2","ios":"levelo://app?vid=6eebadd3-99fa-48af-8556-1f64731f83a2"},"vehicle_type_id":"4","last_reported":1751638195,"current_range_meters":13600,"station_id":"cpo3342slgdg3j2ifvpg","pricing_plan_id":"cebpf4jnsgd1na2vs0mg"},{"bike_id":"d7d5b776-bcc7-423d-8a89-6abd09a6c07c","system_id":"levelo_inurba_marseille","lat":43.24154,"lon":5.36402,"is_reserved":false,"is_disabled":false,"rental_uris":{"android":"levelo://app?vid=d7d5b776-bcc7-423d-8a89-6abd09a6c07c","ios":"levelo://app?vid=d7d5b776-bcc7-423d-8a89-6abd09a6c07c"},"vehicle_type_id":"4","last_reported":1751638195,"current_range_meters":13600,"station_id":"cpo36qri1sfpv3e86is0","pricing_plan_id":"cebpf4jnsgd1na2vs0mg"},{"bike_id":"4e54cf7d-f7f0-4b11-bf78-9a5a353fae02","system_id":"levelo_inurba_marseille","lat":43.30142,"lon":5.39869,"is_reserved":false,"is_disabled":false,"rental_uris":{"android":"levelo://app?vid=4e54cf7d-f7f0-4b11-bf78-9a5a353fae02","ios":"levelo://app?vid=4e54cf7d-f7f0-4b11-bf78-9a5a353fae02"},"vehicle_type_id":"4","last_reported":1751638195,"current_range_meters":14000,"station_id":"ce4bh0h2rcd13ifvqd40","pricing_plan_id":"cebpf4jnsgd1na2vs0mg"},{"bike_id":"f39dae8b-b00e-4f13-98e8-43133e552aa7","system_id":"levelo_inurba_marseille","lat":43.30645,"lon":5.40095,"is_reserved":false,"is_disabled":false,"rental_uris":{"android":"levelo://app?vid=f39dae8b-b00e-4f13-98e8-43133e552aa7","ios":"levelo://app?vid=f39dae8b-b00e-4f13-98e8-43133e552aa7"},"vehicle_type_id":"4","last_reported":1751638195,"current_range_meters":14000,"station_id":"ce4bh112rcd13ifvqda0","pricing_plan_id":"cebpf4jnsgd1na2vs0mg"},{"bike_id":"e5c2c2f9-7ba9-440d-96d2-c01515007859","system_id":"levelo_inurba_marseille","lat":43.28266,"lon":5.3508,"is_reserved":false,"is_disabled":false,"rental_uris":{"android":"levelo://app?vid=e5c2c2f9-7ba9-440d-96d2-c01515007859","ios":"levelo://app?vid=e5c2c2f9-7ba9-440d-96d2-c01515007859"},"vehicle_type_id":"4","last_reported":1751638195,"current_range_meters":14000,"station_id":"ce4bhbp2rcd13ifvqerg","pricing_plan_id":"cebpf4jnsgd1na2vs0mg"},{"bike_id":"d5a7b043-e210-4dd7-a0f0-35fb21054c8c","system_id":"levelo_inurba_marseille","lat":43.23124,"lon":5.43724,"is_reserved":false,"is_disabled":false,"rental_uris":{"android":"levelo://app?vid=d5a7b043-e210-4dd7-a0f0-35fb21054c8c","ios":"levelo://app?vid=d5a7b043-e210-4dd7-a0f0-35fb21054c8c"},"vehicle_type_id":"4","last_reported":1751638195,"current_range_meters":14000,"station_id":"ce4bhmp2rcd13ifvqgog","pricing_plan_id":"cebpf4jnsgd1na2vs0mg"},{"bike_id":"62e288d8-e99a-4ebc-a826-066ab28ebb35","system_id":"levelo_inurba_marseille","lat":43.30844,"lon":5.43516,"is_reserved":false,"is_disabled":false,"rental_uris":{"android":"levelo://app?vid=62e288d8-e99a-4ebc-a826-066ab28ebb35","ios":"levelo://app?vid=62e288d8-e99a-4ebc-a826-066ab28ebb35"},"vehicle_type_id":"4","last_reported":1751638195,"current_range_meters":14000,"station_id":"ce4bhph2rcd13ifvqheg","pricing_plan_id":"cebpf4jnsgd1na2vs0mg"},{"bike_id":"1c8ab180-05fd-405f-9922-b2b2c2d5142f","system_id":"levelo_inurba_marseille","lat":43.33777,"lon":5.38131,"is_reserved":false,"is_disabled":false,"rental_uris":{"android":"levelo://app?vid=1c8ab180-05fd-405f-9922-b2b2c2d5142f","ios":"levelo://app?vid=1c8ab180-05fd-405f-9922-b2b2c2d5142f"},"vehicle_type_id":"4","last_reported":1751638195,"current_range_meters":14400,"station_id":"","pricing_plan_id":"cebpf4jnsgd1na2vs0mg"},{"bike_id":"3bbe555a-5ff3-44eb-81b8-72bc38e141b3","system_id":"levelo_inurba_marseille","lat":43.3095,"lon":5.39036,"is_reserved":false,"is_disabled":false,"rental_uris":{"android":"levelo://app?vid=3bbe555a-5ff3-44eb-81b8-72bc38e141b3","ios":"levelo://app?vid=3bbe555a-5ff3-44eb-81b8-72bc38e141b3"},"vehicle_type_id":"4","last_reported":1751638195,"current_range_meters":14400,"station_id":"ce4bgup2rcd13ifvqco0","pricing_plan_id":"cebpf4jnsgd1na2vs0mg"},{"bike_id":"47aa4993-07f5-44a8-a359-fc3fe1880568","system_id":"levelo_inurba_marseille","lat":43.23962,"lon":5.36627,"is_reserved":false,"is_disabled":false,"rental_uris":{"android":"levelo://app?vid=47aa4993-07f5-44a8-a359-fc3fe1880568","ios":"levelo://app?vid=47aa4993-07f5-44a8-a359-fc3fe1880568"},"vehicle_type_id":"4","last_reported":1751638195,"current_range_meters":14400,"station_id":"ce4bhi12rcd13ifvqfp0","pricing_plan_id":"cebpf4jnsgd1na2vs0mg"},{"bike_id":"fe2fa8ec-8dae-412a-a387-87d100e2aae9","system_id":"levelo_inurba_marseille","lat":43.23193,"lon":5.35552,"is_reserved":false,"is_disabled":false,"rental_uris":{"android":"levelo://app?vid=fe2fa8ec-8dae-412a-a387-87d100e2aae9","ios":"levelo://app?vid=fe2fa8ec-8dae-412a-a387-87d100e2aae9"},"vehicle_type_id":"4","last_reported":1751638195,"current_range_meters":14400,"station_id":"ce4bhu92rcd13ifvqi70","pricing_plan_id":"cebpf4jnsgd1na2vs0mg"},{"bike_id":"0762b542-a9ec-4122-9228-01d41231d491","system_id":"levelo_inurba_marseille","lat":43.27367,"lon":5.36248,"is_reserved":false,"is_disabled":false,"rental_uris":{"android":"levelo://app?vid=0762b542-a9ec-4122-9228-01d41231d491","ios":"levelo://app?vid=0762b542-a9ec-4122-9228-01d41231d491"},"vehicle_type_id":"4","last_reported":1751638195,"current_range_meters":14800,"station_id":"ce4bhbh2rcd13ifvqeo0","pricing_plan_id":"cebpf4jnsgd1na2vs0mg"},{"bike_id":"6cfbb839-4f13-4141-be5b-c7bdca673a54","system_id":"levelo_inurba_marseille","lat":43.27354,"lon":5.3626,"is_reserved":false,"is_disabled":false,"rental_uris":{"android":"levelo://app?vid=6cfbb839-4f13-4141-be5b-c7bdca673a54","ios":"levelo://app?vid=6cfbb839-4f13-4141-be5b-c7bdca673a54"},"vehicle_type_id":"4","last_reported":1751638195,"current_range_meters":14800,"station_id":"ce4bhbh2rcd13ifvqeo0","pricing_plan_id":"cebpf4jnsgd1na2vs0mg"},{"bike_id":"db518c37-eab2-4a74-84af-f383704f22fa","system_id":"levelo_inurba_marseille","lat":43.28615,"lon":5.35106,"is_reserved":false,"is_disabled":false,"rental_uris":{"android":"levelo://app?vid=db518c37-eab2-4a74-84af-f383704f22fa","ios":"levelo://app?vid=db518c37-eab2-4a74-84af-f383704f22fa"},"vehicle_type_id":"4","last_reported":1751638195,"current_range_meters":14800,"station_id":"ce4bhch2rcd13ifvqeug","pricing_plan_id":"cebpf4jnsgd1na2vs0mg"},{"bike_id":"e8b199ed-744c-47f9-ad68-7c59de5be47d","system_id":"levelo_inurba_marseille","lat":43.28614,"lon":5.35106,"is_reserved":false,"is_disabled":false,"rental_uris":{"android":"levelo://app?vid=e8b199ed-744c-47f9-ad68-7c59de5be47d","ios":"levelo://app?vid=e8b199ed-744c-47f9-ad68-7c59de5be47d"},"vehicle_type_id":"4","last_reported":1751638195,"current_range_meters":14800,"station_id":"ce4bhch2rcd13ifvqeug","pricing_plan_id":"cebpf4jnsgd1na2vs0mg"},{"bike_id":"7757fa2b-7960-49f3-bf7a-28b7d2cd6b06","system_id":"levelo_inurba_marseille","lat":43.23969,"lon":5.36631,"is_reserved":false,"is_disabled":false,"rental_uris":{"android":"levelo://app?vid=7757fa2b-7960-49f3-bf7a-28b7d2cd6b06","ios":"levelo://app?vid=7757fa2b-7960-49f3-bf7a-28b7d2cd6b06"},"vehicle_type_id":"4","last_reported":1751638195,"current_range_meters":14800,"station_id":"ce4bhi12rcd13ifvqfp0","pricing_plan_id":"cebpf4jnsgd1na2vs0mg"},{"bike_id":"e06456fc-9fdb-428d-aff3-83bee7c965ef","system_id":"levelo_inurba_marseille","lat":43.22936,"lon":5.35368,"is_reserved":false,"is_disabled":false,"rental_uris":{"android":"levelo://app?vid=e06456fc-9fdb-428d-aff3-83bee7c965ef","ios":"levelo://app?vid=e06456fc-9fdb-428d-aff3-83bee7c965ef"},"vehicle_type_id":"4","last_reported":1751638195,"current_range_meters":14800,"station_id":"cpo3532slgdg3j2ikp40","pricing_plan_id":"cebpf4jnsgd1na2vs0mg"},{"bike_id":"ae056d08-494c-4bff-a148-41c4c49b8785","system_id":"levelo_inurba_marseille","lat":43.30894,"lon":5.39655,"is_reserved":false,"is_disabled":false,"rental_uris":{"android":"levelo://app?vid=ae056d08-494c-4bff-a148-41c4c49b8785","ios":"levelo://app?vid=ae056d08-494c-4bff-a148-41c4c49b8785"},"vehicle_type_id":"4","last_reported":1751638195,"current_range_meters":15200,"station_id":"ce4bh012rcd13ifvqcv0","pricing_plan_id":"cebpf4jnsgd1na2vs0mg"},{"bike_id":"26435fe1-2b8d-4590-bbdf-606bb5d329e3","system_id":"levelo_inurba_marseille","lat":43.27371,"lon":5.36253,"is_reserved":false,"is_disabled":false,"rental_uris":{"android":"levelo://app?vid=26435fe1-2b8d-4590-bbdf-606bb5d329e3","ios":"levelo://app?vid=26435fe1-2b8d-4590-bbdf-606bb5d329e3"},"vehicle_type_id":"4","last_reported":1751638195,"current_range_meters":15200,"station_id":"ce4bhbh2rcd13ifvqeo0","pricing_plan_id":"cebpf4jnsgd1na2vs0mg"},{"bike_id":"317e8fac-7c07-43e9-afe0-a3ea352f5b06","system_id":"levelo_inurba_marseille","lat":43.27573,"lon":5.38432,"is_reserved":false,"is_disabled":false,"rental_uris":{"android":"levelo://app?vid=317e8fac-7c07-43e9-afe0-a3ea352f5b06","ios":"levelo://app?vid=317e8fac-7c07-43e9-afe0-a3ea352f5b06"},"vehicle_type_id":"4","last_reported":1751638195,"current_range_meters":15200,"station_id":"ce4bhh92rcd13ifvqfi0","pricing_plan_id":"cebpf4jnsgd1na2vs0mg"},{"bike_id":"ec5471a7-9074-44dc-942a-ee46388be4d2","system_id":"levelo_inurba_marseille","lat":43.2396,"lon":5.36635,"is_reserved":false,"is_disabled":false,"rental_uris":{"android":"levelo://app?vid=ec5471a7-9074-44dc-942a-ee46388be4d2","ios":"levelo://app?vid=ec5471a7-9074-44dc-942a-ee46388be4d2"},"vehicle_type_id":"4","last_reported":1751638195,"current_range_meters":15200,"station_id":"ce4bhi12rcd13ifvqfp0","pricing_plan_id":"cebpf4jnsgd1na2vs0mg"},{"bike_id":"54ac18f4-fc73-44be-95b0-e3ff65cf19a0","system_id":"levelo_inurba_marseille","lat":43.23966,"lon":5.36626,"is_reserved":false,"is_disabled":false,"rental_uris":{"android":"levelo://app?vid=54ac18f4-fc73-44be-95b0-e3ff65cf19a0","ios":"levelo://app?vid=54ac18f4-fc73-44be-95b0-e3ff65cf19a0"},"vehicle_type_id":"4","last_reported":1751638195,"current_range_meters":15200,"station_id":"ce4bhi12rcd13ifvqfp0","pricing_plan_id":"cebpf4jnsgd1na2vs0mg"},{"bike_id":"e6645133-5b2c-4159-9eb9-e536db5cc1c7","system_id":"levelo_inurba_marseille","lat":43.23126,"lon":5.43739,"is_reserved":false,"is_disabled":false,"rental_uris":{"android":"levelo://app?vid=e6645133-5b2c-4159-9eb9-e536db5cc1c7","ios":"levelo://app?vid=e6645133-5b2c-4159-9eb9-e536db5cc1c7"},"vehicle_type_id":"4","last_reported":1751638195,"current_range_meters":15200,"station_id":"ce4bhmp2rcd13ifvqgog","pricing_plan_id":"cebpf4jnsgd1na2vs0mg"},{"bike_id":"a42402a5-acfb-48d9-b763-232c1b0137c8","system_id":"levelo_inurba_marseille","lat":43.33024,"lon":5.39027,"is_reserved":false,"is_disabled":false,"rental_uris":{"android":"levelo://app?vid=a42402a5-acfb-48d9-b763-232c1b0137c8","ios":"levelo://app?vid=a42402a5-acfb-48d9-b763-232c1b0137c8"},"vehicle_type_id":"4","last_reported":1751638195,"current_range_meters":15200,"station_id":"ce4bhr92rcd13ifvqhrg","pricing_plan_id":"cebpf4jnsgd1na2vs0mg"},{"bike_id":"4d0df183-6e40-474b-9cad-efb525cf7327","system_id":"levelo_inurba_marseille","lat":43.30432,"lon":5.38894,"is_reserved":false,"is_disabled":false,"rental_uris":{"android":"levelo://app?vid=4d0df183-6e40-474b-9cad-efb525cf7327","ios":"levelo://app?vid=4d0df183-6e40-474b-9cad-efb525cf7327"},"vehicle_type_id":"4","last_reported":1751638195,"current_range_meters":16000,"station_id":"ce4bgk12rcd13ifvqbi0","pricing_plan_id":"cebpf4jnsgd1na2vs0mg"},{"bike_id":"6d6489e9-c4dc-4dca-acd1-870cc23810f4","system_id":"levelo_inurba_marseille","lat":43.30884,"lon":5.3964,"is_reserved":false,"is_disabled":false,"rental_uris":{"android":"levelo://app?vid=6d6489e9-c4dc-4dca-acd1-870cc23810f4","ios":"levelo://app?vid=6d6489e9-c4dc-4dca-acd1-870cc23810f4"},"vehicle_type_id":"4","last_reported":1751638195,"current_range_meters":16000,"station_id":"ce4bh012rcd13ifvqcv0","pricing_plan_id":"cebpf4jnsgd1na2vs0mg"},{"bike_id":"e4e80cfe-7933-4a9d-8ba5-5aaf92642983","system_id":"levelo_inurba_marseille","lat":43.265623,"lon":5.390087,"is_reserved":false,"is_disabled":false,"rental_uris":{"android":"levelo://app?vid=e4e80cfe-7933-4a9d-8ba5-5aaf92642983","ios":"levelo://app?vid=e4e80cfe-7933-4a9d-8ba5-5aaf92642983"},"vehicle_type_id":"4","last_reported":1751638195,"current_range_meters":16000,"station_id":"ce4bhe12rcd13ifvqf30","pricing_plan_id":"cebpf4jnsgd1na2vs0mg"},{"bike_id":"11069914-c649-4cdd-b0cf-b4577e6037a4","system_id":"levelo_inurba_marseille","lat":43.26684,"lon":5.38272,"is_reserved":false,"is_disabled":false,"rental_uris":{"android":"levelo://app?vid=11069914-c649-4cdd-b0cf-b4577e6037a4","ios":"levelo://app?vid=11069914-c649-4cdd-b0cf-b4577e6037a4"},"vehicle_type_id":"4","last_reported":1751638195,"current_range_meters":16000,"station_id":"ce4bhg92rcd13ifvqf90","pricing_plan_id":"cebpf4jnsgd1na2vs0mg"},{"bike_id":"094015c2-44e4-40f7-a843-9cd2d9cb1f82","system_id":"levelo_inurba_marseille","lat":43.21737,"lon":5.34604,"is_reserved":false,"is_disabled":false,"rental_uris":{"android":"levelo://app?vid=094015c2-44e4-40f7-a843-9cd2d9cb1f82","ios":"levelo://app?vid=094015c2-44e4-40f7-a843-9cd2d9cb1f82"},"vehicle_type_id":"4","last_reported":1751638195,"current_range_meters":16000,"station_id":"st_cvj6r9ubvosntc0bgbag","pricing_plan_id":"cebpf4jnsgd1na2vs0mg"},{"bike_id":"4b8da722-ee9e-48a4-a5e5-3a8a10364708","system_id":"levelo_inurba_marseille","lat":43.31227,"lon":5.37808,"is_reserved":false,"is_disabled":false,"rental_uris":{"android":"levelo://app?vid=4b8da722-ee9e-48a4-a5e5-3a8a10364708","ios":"levelo://app?vid=4b8da722-ee9e-48a4-a5e5-3a8a10364708"},"vehicle_type_id":"4","last_reported":1751638195,"current_range_meters":16400,"station_id":"","pricing_plan_id":"cebpf4jnsgd1na2vs0mg"},{"bike_id":"2c8d6737-b89d-408d-8770-af93b507a41f","system_id":"levelo_inurba_marseille","lat":43.30142,"lon":5.40101,"is_reserved":false,"is_disabled":false,"rental_uris":{"android":"levelo://app?vid=2c8d6737-b89d-408d-8770-af93b507a41f","ios":"levelo://app?vid=2c8d6737-b89d-408d-8770-af93b507a41f"},"vehicle_type_id":"4","last_reported":1751638195,"current_range_meters":16400,"station_id":"","pricing_plan_id":"cebpf4jnsgd1na2vs0mg"},{"bike_id":"9a470b5f-1748-44eb-8832-5d0f0fbb499d","system_id":"levelo_inurba_marseille","lat":43.29513,"lon":5.3752,"is_reserved":false,"is_disabled":false,"rental_uris":{"android":"levelo://app?vid=9a470b5f-1748-44eb-8832-5d0f0fbb499d","ios":"levelo://app?vid=9a470b5f-1748-44eb-8832-5d0f0fbb499d"},"vehicle_type_id":"4","last_reported":1751638195,"current_range_meters":16400,"station_id":"ce4bgkp2rcd13ifvqbmg","pricing_plan_id":"cebpf4jnsgd1na2vs0mg"},{"bike_id":"dce77c40-63cf-4369-8aff-655bb37a0b57","system_id":"levelo_inurba_marseille","lat":43.28105,"lon":5.37837,"is_reserved":false,"is_disabled":false,"rental_uris":{"android":"levelo://app?vid=dce77c40-63cf-4369-8aff-655bb37a0b57","ios":"levelo://app?vid=dce77c40-63cf-4369-8aff-655bb37a0b57"},"vehicle_type_id":"4","last_reported":1751638195,"current_range_meters":16400,"station_id":"ce4bha12rcd13ifvqee0","pricing_plan_id":"cebpf4jnsgd1na2vs0mg"},{"bike_id":"08361ca6-b02b-42e2-aba3-a888e7f52b91","system_id":"levelo_inurba_marseille","lat":43.28661,"lon":5.36354,"is_reserved":false,"is_disabled":false,"rental_uris":{"android":"levelo://app?vid=08361ca6-b02b-42e2-aba3-a888e7f52b91","ios":"levelo://app?vid=08361ca6-b02b-42e2-aba3-a888e7f52b91"},"vehicle_type_id":"4","last_reported":1751638195,"current_range_meters":16400,"station_id":"ce4bhah2rcd13ifvqej0","pricing_plan_id":"cebpf4jnsgd1na2vs0mg"},{"bike_id":"4dd556e9-3510-4743-a418-06546773db8e","system_id":"levelo_inurba_marseille","lat":43.284381,"lon":5.349739,"is_reserved":false,"is_disabled":false,"rental_uris":{"android":"levelo://app?vid=4dd556e9-3510-4743-a418-06546773db8e","ios":"levelo://app?vid=4dd556e9-3510-4743-a418-06546773db8e"},"vehicle_type_id":"4","last_reported":1751638195,"current_range_meters":16400,"station_id":"ce4bhbh2rcd13ifvqepg","pricing_plan_id":"cebpf4jnsgd1na2vs0mg"},{"bike_id":"38438f4d-3588-459a-b3a8-c82d6a98e6d9","system_id":"levelo_inurba_marseille","lat":43.28937,"lon":5.36641,"is_reserved":false,"is_disabled":false,"rental_uris":{"android":"levelo://app?vid=38438f4d-3588-459a-b3a8-c82d6a98e6d9","ios":"levelo://app?vid=38438f4d-3588-459a-b3a8-c82d6a98e6d9"},"vehicle_type_id":"4","last_reported":1751638195,"current_range_meters":16800,"station_id":"ce4bhap2rcd13ifvqek0","pricing_plan_id":"cebpf4jnsgd1na2vs0mg"},{"bike_id":"1bbe87fa-7751-4499-9c9f-02df3ce5b80c","system_id":"levelo_inurba_marseille","lat":43.2501,"lon":5.38916,"is_reserved":false,"is_disabled":false,"rental_uris":{"android":"levelo://app?vid=1bbe87fa-7751-4499-9c9f-02df3ce5b80c","ios":"levelo://app?vid=1bbe87fa-7751-4499-9c9f-02df3ce5b80c"},"vehicle_type_id":"4","last_reported":1751638195,"current_range_meters":16800,"station_id":"ce4bhgp2rcd13ifvqfd0","pricing_plan_id":"cebpf4jnsgd1na2vs0mg"},{"bike_id":"79852b18-8bff-40ad-b533-3d54f5073846","system_id":"levelo_inurba_marseille","lat":43.2606,"lon":5.39396,"is_reserved":false,"is_disabled":false,"rental_uris":{"android":"levelo://app?vid=79852b18-8bff-40ad-b533-3d54f5073846","ios":"levelo://app?vid=79852b18-8bff-40ad-b533-3d54f5073846"},"vehicle_type_id":"4","last_reported":1751638195,"current_range_meters":16800,"station_id":"ce4bhh92rcd13ifvqfj0","pricing_plan_id":"cebpf4jnsgd1na2vs0mg"},{"bike_id":"04a9fd60-80aa-411a-80de-a695cc64bccb","system_id":"levelo_inurba_marseille","lat":43.31997,"lon":5.38157,"is_reserved":false,"is_disabled":false,"rental_uris":{"android":"levelo://app?vid=04a9fd60-80aa-411a-80de-a695cc64bccb","ios":"levelo://app?vid=04a9fd60-80aa-411a-80de-a695cc64bccb"},"vehicle_type_id":"4","last_reported":1751638195,"current_range_meters":16800,"station_id":"ce4bhr12rcd13ifvqhpg","pricing_plan_id":"cebpf4jnsgd1na2vs0mg"},{"bike_id":"3847022a-5187-4521-af78-80f88fe96595","system_id":"levelo_inurba_marseille","lat":43.21193,"lon":5.35067,"is_reserved":false,"is_disabled":false,"rental_uris":{"android":"levelo://app?vid=3847022a-5187-4521-af78-80f88fe96595","ios":"levelo://app?vid=3847022a-5187-4521-af78-80f88fe96595"},"vehicle_type_id":"4","last_reported":1751638195,"current_range_meters":16800,"station_id":"st_cvj6sg6p6f1abm77japg","pricing_plan_id":"cebpf4jnsgd1na2vs0mg"},{"bike_id":"f388dc1d-272b-4994-a47a-bc587e4f6989","system_id":"levelo_inurba_marseille","lat":43.29604,"lon":5.37702,"is_reserved":false,"is_disabled":false,"rental_uris":{"android":"levelo://app?vid=f388dc1d-272b-4994-a47a-bc587e4f6989","ios":"levelo://app?vid=f388dc1d-272b-4994-a47a-bc587e4f6989"},"vehicle_type_id":"4","last_reported":1751638195,"current_range_meters":17200,"station_id":"ce4bgi92rcd13ifvqb90","pricing_plan_id":"cebpf4jnsgd1na2vs0mg"},{"bike_id":"744d7a57-b4ee-4f0f-89fd-85984971deda","system_id":"levelo_inurba_marseille","lat":43.31489,"lon":5.37313,"is_reserved":false,"is_disabled":false,"rental_uris":{"android":"levelo://app?vid=744d7a57-b4ee-4f0f-89fd-85984971deda","ios":"levelo://app?vid=744d7a57-b4ee-4f0f-89fd-85984971deda"},"vehicle_type_id":"4","last_reported":1751638195,"current_range_meters":17200,"station_id":"ce4bgt12rcd13ifvqcd0","pricing_plan_id":"cebpf4jnsgd1na2vs0mg"},{"bike_id":"b0d27917-bd55-46b1-989e-0629c6d1ea78","system_id":"levelo_inurba_marseille","lat":43.28096,"lon":5.37847,"is_reserved":false,"is_disabled":false,"rental_uris":{"android":"levelo://app?vid=b0d27917-bd55-46b1-989e-0629c6d1ea78","ios":"levelo://app?vid=b0d27917-bd55-46b1-989e-0629c6d1ea78"},"vehicle_type_id":"4","last_reported":1751638195,"current_range_meters":17200,"station_id":"ce4bha12rcd13ifvqee0","pricing_plan_id":"cebpf4jnsgd1na2vs0mg"},{"bike_id":"4ab8dded-e431-4605-ae30-e955774dc97c","system_id":"levelo_inurba_marseille","lat":43.28261,"lon":5.35064,"is_reserved":false,"is_disabled":false,"rental_uris":{"android":"levelo://app?vid=4ab8dded-e431-4605-ae30-e955774dc97c","ios":"levelo://app?vid=4ab8dded-e431-4605-ae30-e955774dc97c"},"vehicle_type_id":"4","last_reported":1751638195,"current_range_meters":17200,"station_id":"ce4bhbp2rcd13ifvqerg","pricing_plan_id":"cebpf4jnsgd1na2vs0mg"},{"bike_id":"847f3704-21e8-4f12-8124-ba74ef579675","system_id":"levelo_inurba_marseille","lat":43.28445,"lon":5.39209,"is_reserved":false,"is_disabled":false,"rental_uris":{"android":"levelo://app?vid=847f3704-21e8-4f12-8124-ba74ef579675","ios":"levelo://app?vid=847f3704-21e8-4f12-8124-ba74ef579675"},"vehicle_type_id":"4","last_reported":1751638195,"current_range_meters":17200,"station_id":"ce4bhoh2rcd13ifvqh5g","pricing_plan_id":"cebpf4jnsgd1na2vs0mg"},{"bike_id":"fc201511-424b-42a4-84b1-69d7f93edbf2","system_id":"levelo_inurba_marseille","lat":43.30545,"lon":5.36557,"is_reserved":false,"is_disabled":false,"rental_uris":{"android":"levelo://app?vid=fc201511-424b-42a4-84b1-69d7f93edbf2","ios":"levelo://app?vid=fc201511-424b-42a4-84b1-69d7f93edbf2"},"vehicle_type_id":"4","last_reported":1751638195,"current_range_meters":17600,"station_id":"ce4bgs12rcd13ifvqcag","pricing_plan_id":"cebpf4jnsgd1na2vs0mg"},{"bike_id":"cf31c991-d38d-4765-a967-bc7399feaac9","system_id":"levelo_inurba_marseille","lat":43.28854,"lon":5.393,"is_reserved":false,"is_disabled":false,"rental_uris":{"android":"levelo://app?vid=cf31c991-d38d-4765-a967-bc7399feaac9","ios":"levelo://app?vid=cf31c991-d38d-4765-a967-bc7399feaac9"},"vehicle_type_id":"4","last_reported":1751638195,"current_range_meters":17600,"station_id":"ce4bh2p2rcd13ifvqdi0","pricing_plan_id":"cebpf4jnsgd1na2vs0mg"},{"bike_id":"a70e5335-fb5d-4e50-af2f-e7fb4ef6c838","system_id":"levelo_inurba_marseille","lat":43.28417,"lon":5.34994,"is_reserved":false,"is_disabled":false,"rental_uris":{"android":"levelo://app?vid=a70e5335-fb5d-4e50-af2f-e7fb4ef6c838","ios":"levelo://app?vid=a70e5335-fb5d-4e50-af2f-e7fb4ef6c838"},"vehicle_type_id":"4","last_reported":1751638195,"current_range_meters":17600,"station_id":"ce4bhbh2rcd13ifvqepg","pricing_plan_id":"cebpf4jnsgd1na2vs0mg"},{"bike_id":"5f470112-8139-4343-b082-08a74e0b7074","system_id":"levelo_inurba_marseille","lat":43.21181,"lon":5.35068,"is_reserved":false,"is_disabled":false,"rental_uris":{"android":"levelo://app?vid=5f470112-8139-4343-b082-08a74e0b7074","ios":"levelo://app?vid=5f470112-8139-4343-b082-08a74e0b7074"},"vehicle_type_id":"4","last_reported":1751638195,"current_range_meters":17600,"station_id":"st_cvj6sg6p6f1abm77japg","pricing_plan_id":"cebpf4jnsgd1na2vs0mg"},{"bike_id":"ab6eccfa-0938-4207-a49b-51244dc92534","system_id":"levelo_inurba_marseille","lat":43.29372,"lon":5.37834,"is_reserved":false,"is_disabled":false,"rental_uris":{"android":"levelo://app?vid=ab6eccfa-0938-4207-a49b-51244dc92534","ios":"levelo://app?vid=ab6eccfa-0938-4207-a49b-51244dc92534"},"vehicle_type_id":"4","last_reported":1751638195,"current_range_meters":18000,"station_id":"ce4bgjh2rcd13ifvqbf0","pricing_plan_id":"cebpf4jnsgd1na2vs0mg"},{"bike_id":"cbf61496-08d3-4b25-94f7-723f85e68514","system_id":"levelo_inurba_marseille","lat":43.30555,"lon":5.36702,"is_reserved":false,"is_disabled":false,"rental_uris":{"android":"levelo://app?vid=cbf61496-08d3-4b25-94f7-723f85e68514","ios":"levelo://app?vid=cbf61496-08d3-4b25-94f7-723f85e68514"},"vehicle_type_id":"4","last_reported":1751638195,"current_range_meters":18000,"station_id":"ce4bgrp2rcd13ifvqc9g","pricing_plan_id":"cebpf4jnsgd1na2vs0mg"},{"bike_id":"2a913270-0fe4-4974-bcd6-0e53a53558ba","system_id":"levelo_inurba_marseille","lat":43.3025,"lon":5.40071,"is_reserved":false,"is_disabled":false,"rental_uris":{"android":"levelo://app?vid=2a913270-0fe4-4974-bcd6-0e53a53558ba","ios":"levelo://app?vid=2a913270-0fe4-4974-bcd6-0e53a53558ba"},"vehicle_type_id":"4","last_reported":1751638195,"current_range_meters":18000,"station_id":"ce4bgvh2rcd13ifvqcs0","pricing_plan_id":"cebpf4jnsgd1na2vs0mg"},{"bike_id":"4ca45c1b-dfb0-4bd2-b066-4d46a2818657","system_id":"levelo_inurba_marseille","lat":43.30641,"lon":5.40097,"is_reserved":false,"is_disabled":false,"rental_uris":{"android":"levelo://app?vid=4ca45c1b-dfb0-4bd2-b066-4d46a2818657","ios":"levelo://app?vid=4ca45c1b-dfb0-4bd2-b066-4d46a2818657"},"vehicle_type_id":"4","last_reported":1751638195,"current_range_meters":18000,"station_id":"ce4bh112rcd13ifvqda0","pricing_plan_id":"cebpf4jnsgd1na2vs0mg"},{"bike_id":"c9881b8e-e6ec-4dae-b7d8-bfb94e16b7d1","system_id":"levelo_inurba_marseille","lat":43.28951,"lon":5.36652,"is_reserved":false,"is_disabled":false,"rental_uris":{"android":"levelo://app?vid=c9881b8e-e6ec-4dae-b7d8-bfb94e16b7d1","ios":"levelo://app?vid=c9881b8e-e6ec-4dae-b7d8-bfb94e16b7d1"},"vehicle_type_id":"4","last_reported":1751638195,"current_range_meters":18000,"station_id":"ce4bhap2rcd13ifvqek0","pricing_plan_id":"cebpf4jnsgd1na2vs0mg"},{"bike_id":"869360d5-c25f-4e3d-a406-7c1cf59653d0","system_id":"levelo_inurba_marseille","lat":43.27376,"lon":5.36254,"is_reserved":false,"is_disabled":false,"rental_uris":{"android":"levelo://app?vid=869360d5-c25f-4e3d-a406-7c1cf59653d0","ios":"levelo://app?vid=869360d5-c25f-4e3d-a406-7c1cf59653d0"},"vehicle_type_id":"4","last_reported":1751638195,"current_range_meters":18000,"station_id":"ce4bhbh2rcd13ifvqeo0","pricing_plan_id":"cebpf4jnsgd1na2vs0mg"},{"bike_id":"6f482fdc-5592-422e-aa8e-7c66cf9e3791","system_id":"levelo_inurba_marseille","lat":43.23191,"lon":5.35553,"is_reserved":false,"is_disabled":false,"rental_uris":{"android":"levelo://app?vid=6f482fdc-5592-422e-aa8e-7c66cf9e3791","ios":"levelo://app?vid=6f482fdc-5592-422e-aa8e-7c66cf9e3791"},"vehicle_type_id":"4","last_reported":1751638195,"current_range_meters":18000,"station_id":"ce4bhu92rcd13ifvqi70","pricing_plan_id":"cebpf4jnsgd1na2vs0mg"},{"bike_id":"1036f3b5-5954-48a3-93e5-d291f1ca0c73","system_id":"levelo_inurba_marseille","lat":43.29519,"lon":5.37547,"is_reserved":false,"is_disabled":false,"rental_uris":{"android":"levelo://app?vid=1036f3b5-5954-48a3-93e5-d291f1ca0c73","ios":"levelo://app?vid=1036f3b5-5954-48a3-93e5-d291f1ca0c73"},"vehicle_type_id":"4","last_reported":1751638195,"current_range_meters":18800,"station_id":"ce4bgkp2rcd13ifvqbmg","pricing_plan_id":"cebpf4jnsgd1na2vs0mg"},{"bike_id":"4e3bf832-b284-4944-9508-4d7bf36d07b0","system_id":"levelo_inurba_marseille","lat":43.31364,"lon":5.38498,"is_reserved":false,"is_disabled":false,"rental_uris":{"android":"levelo://app?vid=4e3bf832-b284-4944-9508-4d7bf36d07b0","ios":"levelo://app?vid=4e3bf832-b284-4944-9508-4d7bf36d07b0"},"vehicle_type_id":"4","last_reported":1751638195,"current_range_meters":18800,"station_id":"ce4bgt92rcd13ifvqcf0","pricing_plan_id":"cebpf4jnsgd1na2vs0mg"},{"bike_id":"70ed0d3c-62f6-42b1-909e-da6703006ef8","system_id":"levelo_inurba_marseille","lat":43.311273,"lon":5.377813,"is_reserved":false,"is_disabled":false,"rental_uris":{"android":"levelo://app?vid=70ed0d3c-62f6-42b1-909e-da6703006ef8","ios":"levelo://app?vid=70ed0d3c-62f6-42b1-909e-da6703006ef8"},"vehicle_type_id":"4","last_reported":1751638195,"current_range_meters":18800,"station_id":"ce4bgt92rcd13ifvqcg0","pricing_plan_id":"cebpf4jnsgd1na2vs0mg"},{"bike_id":"8e7ceb6b-7213-4768-9293-1e8b83a8e956","system_id":"levelo_inurba_marseille","lat":43.29192,"lon":5.35797,"is_reserved":false,"is_disabled":false,"rental_uris":{"android":"levelo://app?vid=8e7ceb6b-7213-4768-9293-1e8b83a8e956","ios":"levelo://app?vid=8e7ceb6b-7213-4768-9293-1e8b83a8e956"},"vehicle_type_id":"4","last_reported":1751638195,"current_range_meters":18800,"station_id":"ce4bhb12rcd13ifvqel0","pricing_plan_id":"cebpf4jnsgd1na2vs0mg"},{"bike_id":"552bcf28-72f1-4f10-b8f6-f0512fe0cc4b","system_id":"levelo_inurba_marseille","lat":43.27378,"lon":5.36255,"is_reserved":false,"is_disabled":false,"rental_uris":{"android":"levelo://app?vid=552bcf28-72f1-4f10-b8f6-f0512fe0cc4b","ios":"levelo://app?vid=552bcf28-72f1-4f10-b8f6-f0512fe0cc4b"},"vehicle_type_id":"4","last_reported":1751638195,"current_range_meters":18800,"station_id":"ce4bhbh2rcd13ifvqeo0","pricing_plan_id":"cebpf4jnsgd1na2vs0mg"},{"bike_id":"b49c01e0-8ee3-4fdf-9036-50fac903dae3","system_id":"levelo_inurba_marseille","lat":43.26564,"lon":5.37279,"is_reserved":false,"is_disabled":false,"rental_uris":{"android":"levelo://app?vid=b49c01e0-8ee3-4fdf-9036-50fac903dae3","ios":"levelo://app?vid=b49c01e0-8ee3-4fdf-9036-50fac903dae3"},"vehicle_type_id":"4","last_reported":1751638195,"current_range_meters":18800,"station_id":"ce4bhg12rcd13ifvqf70","pricing_plan_id":"cebpf4jnsgd1na2vs0mg"},{"bike_id":"4fc690c8-41ff-46d3-ad6b-f61599f22e68","system_id":"levelo_inurba_marseille","lat":43.27173,"lon":5.40992,"is_reserved":false,"is_disabled":false,"rental_uris":{"android":"levelo://app?vid=4fc690c8-41ff-46d3-ad6b-f61599f22e68","ios":"levelo://app?vid=4fc690c8-41ff-46d3-ad6b-f61599f22e68"},"vehicle_type_id":"4","last_reported":1751638195,"current_range_meters":18800,"station_id":"ce4bhl12rcd13ifvqgf0","pricing_plan_id":"cebpf4jnsgd1na2vs0mg"},{"bike_id":"8501c7f1-4540-433a-9226-9677bd87b71a","system_id":"levelo_inurba_marseille","lat":43.21182,"lon":5.35081,"is_reserved":false,"is_disabled":false,"rental_uris":{"android":"levelo://app?vid=8501c7f1-4540-433a-9226-9677bd87b71a","ios":"levelo://app?vid=8501c7f1-4540-433a-9226-9677bd87b71a"},"vehicle_type_id":"4","last_reported":1751638195,"current_range_meters":18800,"station_id":"st_cvj6sg6p6f1abm77japg","pricing_plan_id":"cebpf4jnsgd1na2vs0mg"},{"bike_id":"25d65b54-2483-49ad-9e8c-b4102ded682f","system_id":"levelo_inurba_marseille","lat":43.21204,"lon":5.35097,"is_reserved":false,"is_disabled":false,"rental_uris":{"android":"levelo://app?vid=25d65b54-2483-49ad-9e8c-b4102ded682f","ios":"levelo://app?vid=25d65b54-2483-49ad-9e8c-b4102ded682f"},"vehicle_type_id":"4","last_reported":1751638195,"current_range_meters":18800,"station_id":"st_cvj6sg6p6f1abm77japg","pricing_plan_id":"cebpf4jnsgd1na2vs0mg"},{"bike_id":"adf1d38d-1f03-40cf-9b57-0a8f15f62b2d","system_id":"levelo_inurba_marseille","lat":43.32981,"lon":5.36438,"is_reserved":false,"is_disabled":false,"rental_uris":{"android":"levelo://app?vid=adf1d38d-1f03-40cf-9b57-0a8f15f62b2d","ios":"levelo://app?vid=adf1d38d-1f03-40cf-9b57-0a8f15f62b2d"},"vehicle_type_id":"4","last_reported":1751638195,"current_range_meters":19200,"station_id":"","pricing_plan_id":"cebpf4jnsgd1na2vs0mg"},{"bike_id":"84ba8979-49d8-41a3-99bf-a74bf1ed4102","system_id":"levelo_inurba_marseille","lat":43.3016,"lon":5.38073,"is_reserved":false,"is_disabled":false,"rental_uris":{"android":"levelo://app?vid=84ba8979-49d8-41a3-99bf-a74bf1ed4102","ios":"levelo://app?vid=84ba8979-49d8-41a3-99bf-a74bf1ed4102"},"vehicle_type_id":"4","last_reported":1751638195,"current_range_meters":19200,"station_id":"ce4bgjp2rcd13ifvqbh0","pricing_plan_id":"cebpf4jnsgd1na2vs0mg"},{"bike_id":"e9a55282-ace0-4206-b787-2b7e3e8d52ce","system_id":"levelo_inurba_marseille","lat":43.305404,"lon":5.365647,"is_reserved":false,"is_disabled":false,"rental_uris":{"android":"levelo://app?vid=e9a55282-ace0-4206-b787-2b7e3e8d52ce","ios":"levelo://app?vid=e9a55282-ace0-4206-b787-2b7e3e8d52ce"},"vehicle_type_id":"4","last_reported":1751638195,"current_range_meters":19200,"station_id":"ce4bgs12rcd13ifvqcag","pricing_plan_id":"cebpf4jnsgd1na2vs0mg"},{"bike_id":"748a0666-d207-40cd-8863-ca1d021a96eb","system_id":"levelo_inurba_marseille","lat":43.3013,"lon":5.37419,"is_reserved":false,"is_disabled":false,"rental_uris":{"android":"levelo://app?vid=748a0666-d207-40cd-8863-ca1d021a96eb","ios":"levelo://app?vid=748a0666-d207-40cd-8863-ca1d021a96eb"},"vehicle_type_id":"4","last_reported":1751638195,"current_range_meters":19200,"station_id":"ce4bgs92rcd13ifvqcc0","pricing_plan_id":"cebpf4jnsgd1na2vs0mg"},{"bike_id":"0701c668-3ebd-4c74-a25c-05794971e1da","system_id":"levelo_inurba_marseille","lat":43.284745,"lon":5.35937,"is_reserved":false,"is_disabled":false,"rental_uris":{"android":"levelo://app?vid=0701c668-3ebd-4c74-a25c-05794971e1da","ios":"levelo://app?vid=0701c668-3ebd-4c74-a25c-05794971e1da"},"vehicle_type_id":"4","last_reported":1751638195,"current_range_meters":19200,"station_id":"ce4bhah2rcd13ifvqei0","pricing_plan_id":"cebpf4jnsgd1na2vs0mg"},{"bike_id":"04a08561-1a23-4ff5-8d84-a9747ef54458","system_id":"levelo_inurba_marseille","lat":43.24645,"lon":5.38887,"is_reserved":false,"is_disabled":false,"rental_uris":{"android":"levelo://app?vid=04a08561-1a23-4ff5-8d84-a9747ef54458","ios":"levelo://app?vid=04a08561-1a23-4ff5-8d84-a9747ef54458"},"vehicle_type_id":"4","last_reported":1751638195,"current_range_meters":19200,"station_id":"ce4bhg12rcd13ifvqf60","pricing_plan_id":"cebpf4jnsgd1na2vs0mg"},{"bike_id":"e6f5b10a-f2b7-44bc-88d3-8d846dc2bc1e","system_id":"levelo_inurba_marseille","lat":43.25019,"lon":5.38906,"is_reserved":false,"is_disabled":false,"rental_uris":{"android":"levelo://app?vid=e6f5b10a-f2b7-44bc-88d3-8d846dc2bc1e","ios":"levelo://app?vid=e6f5b10a-f2b7-44bc-88d3-8d846dc2bc1e"},"vehicle_type_id":"4","last_reported":1751638195,"current_range_meters":19200,"station_id":"ce4bhgp2rcd13ifvqfd0","pricing_plan_id":"cebpf4jnsgd1na2vs0mg"},{"bike_id":"134a6fd1-cb8b-4ade-a0c2-0b22bf7dca76","system_id":"levelo_inurba_marseille","lat":43.211878,"lon":5.350737,"is_reserved":false,"is_disabled":false,"rental_uris":{"android":"levelo://app?vid=134a6fd1-cb8b-4ade-a0c2-0b22bf7dca76","ios":"levelo://app?vid=134a6fd1-cb8b-4ade-a0c2-0b22bf7dca76"},"vehicle_type_id":"4","last_reported":1751638195,"current_range_meters":19200,"station_id":"st_cvj6sg6p6f1abm77japg","pricing_plan_id":"cebpf4jnsgd1na2vs0mg"},{"bike_id":"22831798-ff7c-4bc3-a37f-765fbdef7409","system_id":"levelo_inurba_marseille","lat":43.28413,"lon":5.34989,"is_reserved":false,"is_disabled":false,"rental_uris":{"android":"levelo://app?vid=22831798-ff7c-4bc3-a37f-765fbdef7409","ios":"levelo://app?vid=22831798-ff7c-4bc3-a37f-765fbdef7409"},"vehicle_type_id":"4","last_reported":1751638195,"current_range_meters":19600,"station_id":"ce4bhbh2rcd13ifvqepg","pricing_plan_id":"cebpf4jnsgd1na2vs0mg"},{"bike_id":"98c4b789-a229-4025-9366-4427da98a122","system_id":"levelo_inurba_marseille","lat":43.29277,"lon":5.36843,"is_reserved":false,"is_disabled":false,"rental_uris":{"android":"levelo://app?vid=98c4b789-a229-4025-9366-4427da98a122","ios":"levelo://app?vid=98c4b789-a229-4025-9366-4427da98a122"},"vehicle_type_id":"4","last_reported":1751638195,"current_range_meters":19600,"station_id":"ce4bhbp2rcd13ifvqesg","pricing_plan_id":"cebpf4jnsgd1na2vs0mg"},{"bike_id":"bfa0d5f3-c573-41d0-a844-f93e02cdabe5","system_id":"levelo_inurba_marseille","lat":43.270752,"lon":5.422801,"is_reserved":false,"is_disabled":false,"rental_uris":{"android":"levelo://app?vid=bfa0d5f3-c573-41d0-a844-f93e02cdabe5","ios":"levelo://app?vid=bfa0d5f3-c573-41d0-a844-f93e02cdabe5"},"vehicle_type_id":"4","last_reported":1751638195,"current_range_meters":19600,"station_id":"ce4bhk92rcd13ifvqgb0","pricing_plan_id":"cebpf4jnsgd1na2vs0mg"},{"bike_id":"6e26f4e1-af6b-4e02-81c4-dc9cceafebd5","system_id":"levelo_inurba_marseille","lat":43.30368,"lon":5.42495,"is_reserved":false,"is_disabled":false,"rental_uris":{"android":"levelo://app?vid=6e26f4e1-af6b-4e02-81c4-dc9cceafebd5","ios":"levelo://app?vid=6e26f4e1-af6b-4e02-81c4-dc9cceafebd5"},"vehicle_type_id":"4","last_reported":1751638195,"current_range_meters":19600,"station_id":"ce4bhoh2rcd13ifvqh6g","pricing_plan_id":"cebpf4jnsgd1na2vs0mg"},{"bike_id":"94b8253a-c816-47be-9f9e-876cf02f4a4f","system_id":"levelo_inurba_marseille","lat":43.21191,"lon":5.35071,"is_reserved":false,"is_disabled":false,"rental_uris":{"android":"levelo://app?vid=94b8253a-c816-47be-9f9e-876cf02f4a4f","ios":"levelo://app?vid=94b8253a-c816-47be-9f9e-876cf02f4a4f"},"vehicle_type_id":"4","last_reported":1751638195,"current_range_meters":19600,"station_id":"st_cvj6sg6p6f1abm77japg","pricing_plan_id":"cebpf4jnsgd1na2vs0mg"},{"bike_id":"fe8ee84c-fdfc-40aa-a1c2-6e36409c0740","system_id":"levelo_inurba_marseille","lat":43.26805,"lon":5.39061,"is_reserved":false,"is_disabled":false,"rental_uris":{"android":"levelo://app?vid=fe8ee84c-fdfc-40aa-a1c2-6e36409c0740","ios":"levelo://app?vid=fe8ee84c-fdfc-40aa-a1c2-6e36409c0740"},"vehicle_type_id":"4","last_reported":1751638195,"current_range_meters":20000,"station_id":"","pricing_plan_id":"cebpf4jnsgd1na2vs0mg"},{"bike_id":"3fc62123-78f7-4bfd-9645-67a7412e0768","system_id":"levelo_inurba_marseille","lat":43.2573,"lon":5.41107,"is_reserved":false,"is_disabled":false,"rental_uris":{"android":"levelo://app?vid=3fc62123-78f7-4bfd-9645-67a7412e0768","ios":"levelo://app?vid=3fc62123-78f7-4bfd-9645-67a7412e0768"},"vehicle_type_id":"4","last_reported":1751638195,"current_range_meters":20000,"station_id":"","pricing_plan_id":"cebpf4jnsgd1na2vs0mg"},{"bike_id":"03e9eecd-8900-4d4c-95ea-3d4c54b48c17","system_id":"levelo_inurba_marseille","lat":43.31694,"lon":5.40465,"is_reserved":false,"is_disabled":false,"rental_uris":{"android":"levelo://app?vid=03e9eecd-8900-4d4c-95ea-3d4c54b48c17","ios":"levelo://app?vid=03e9eecd-8900-4d4c-95ea-3d4c54b48c17"},"vehicle_type_id":"4","last_reported":1751638195,"current_range_meters":20000,"station_id":"ce4bh012rcd13ifvqd00","pricing_plan_id":"cebpf4jnsgd1na2vs0mg"},{"bike_id":"77b09567-0e3e-4d4c-8b17-ab14af73d077","system_id":"levelo_inurba_marseille","lat":43.30329,"lon":5.40437,"is_reserved":false,"is_disabled":false,"rental_uris":{"android":"levelo://app?vid=77b09567-0e3e-4d4c-8b17-ab14af73d077","ios":"levelo://app?vid=77b09567-0e3e-4d4c-8b17-ab14af73d077"},"vehicle_type_id":"4","last_reported":1751638195,"current_range_meters":20000,"station_id":"ce4bh012rcd13ifvqd10","pricing_plan_id":"cebpf4jnsgd1na2vs0mg"},{"bike_id":"65f9e993-1445-421d-9b7b-9ca514093a3a","system_id":"levelo_inurba_marseille","lat":43.29267,"lon":5.38427,"is_reserved":false,"is_disabled":false,"rental_uris":{"android":"levelo://app?vid=65f9e993-1445-421d-9b7b-9ca514093a3a","ios":"levelo://app?vid=65f9e993-1445-421d-9b7b-9ca514093a3a"},"vehicle_type_id":"4","last_reported":1751638195,"current_range_meters":20000,"station_id":"ce4bh692rcd13ifvqea0","pricing_plan_id":"cebpf4jnsgd1na2vs0mg"},{"bike_id":"b5974b9b-d052-486b-bcc2-d5893ec0c8f6","system_id":"levelo_inurba_marseille","lat":43.284392,"lon":5.358898,"is_reserved":false,"is_disabled":false,"rental_uris":{"android":"levelo://app?vid=b5974b9b-d052-486b-bcc2-d5893ec0c8f6","ios":"levelo://app?vid=b5974b9b-d052-486b-bcc2-d5893ec0c8f6"},"vehicle_type_id":"4","last_reported":1751638195,"current_range_meters":20000,"station_id":"ce4bhah2rcd13ifvqei0","pricing_plan_id":"cebpf4jnsgd1na2vs0mg"},{"bike_id":"db41792f-81e6-4396-955a-7c06aefea4f1","system_id":"levelo_inurba_marseille","lat":43.23967,"lon":5.36631,"is_reserved":false,"is_disabled":false,"rental_uris":{"android":"levelo://app?vid=db41792f-81e6-4396-955a-7c06aefea4f1","ios":"levelo://app?vid=db41792f-81e6-4396-955a-7c06aefea4f1"},"vehicle_type_id":"4","last_reported":1751638195,"current_range_meters":20000,"station_id":"ce4bhi12rcd13ifvqfp0","pricing_plan_id":"cebpf4jnsgd1na2vs0mg"},{"bike_id":"c642cc8d-de5f-4408-b464-3a365aae4318","system_id":"levelo_inurba_marseille","lat":43.31759,"lon":5.39011,"is_reserved":false,"is_disabled":false,"rental_uris":{"android":"levelo://app?vid=c642cc8d-de5f-4408-b464-3a365aae4318","ios":"levelo://app?vid=c642cc8d-de5f-4408-b464-3a365aae4318"},"vehicle_type_id":"4","last_reported":1751638195,"current_range_meters":20000,"station_id":"ce4bhqp2rcd13ifvqhng","pricing_plan_id":"cebpf4jnsgd1na2vs0mg"},{"bike_id":"d5ef770d-9759-47e3-b3a5-7d2785ef76db","system_id":"levelo_inurba_marseille","lat":43.32994,"lon":5.39018,"is_reserved":false,"is_disabled":false,"rental_uris":{"android":"levelo://app?vid=d5ef770d-9759-47e3-b3a5-7d2785ef76db","ios":"levelo://app?vid=d5ef770d-9759-47e3-b3a5-7d2785ef76db"},"vehicle_type_id":"4","last_reported":1751638195,"current_range_meters":20000,"station_id":"ce4bhr92rcd13ifvqhrg","pricing_plan_id":"cebpf4jnsgd1na2vs0mg"},{"bike_id":"a0586597-f5b6-45c8-b965-bbf4ce65d752","system_id":"levelo_inurba_marseille","lat":43.302,"lon":5.3662,"is_reserved":false,"is_disabled":false,"rental_uris":{"android":"levelo://app?vid=a0586597-f5b6-45c8-b965-bbf4ce65d752","ios":"levelo://app?vid=a0586597-f5b6-45c8-b965-bbf4ce65d752"},"vehicle_type_id":"4","last_reported":1751638195,"current_range_meters":20400,"station_id":"ce4bgrh2rcd13ifvqc8g","pricing_plan_id":"cebpf4jnsgd1na2vs0mg"},{"bike_id":"cd6972f9-eba2-4ac7-ae75-b1bba36cd25d","system_id":"levelo_inurba_marseille","lat":43.30537,"lon":5.36558,"is_reserved":false,"is_disabled":false,"rental_uris":{"android":"levelo://app?vid=cd6972f9-eba2-4ac7-ae75-b1bba36cd25d","ios":"levelo://app?vid=cd6972f9-eba2-4ac7-ae75-b1bba36cd25d"},"vehicle_type_id":"4","last_reported":1751638195,"current_range_meters":20400,"station_id":"ce4bgs12rcd13ifvqcag","pricing_plan_id":"cebpf4jnsgd1na2vs0mg"},{"bike_id":"5b5ca915-19f5-4c5c-ba88-71fe4a9869eb","system_id":"levelo_inurba_marseille","lat":43.31712,"lon":5.3776,"is_reserved":false,"is_disabled":false,"rental_uris":{"android":"levelo://app?vid=5b5ca915-19f5-4c5c-ba88-71fe4a9869eb","ios":"levelo://app?vid=5b5ca915-19f5-4c5c-ba88-71fe4a9869eb"},"vehicle_type_id":"4","last_reported":1751638195,"current_range_meters":20400,"station_id":"ce4bgth2rcd13ifvqch0","pricing_plan_id":"cebpf4jnsgd1na2vs0mg"},{"bike_id":"bf24b26e-7f51-4120-9a48-54c87edaa2f7","system_id":"levelo_inurba_marseille","lat":43.2119,"lon":5.350724,"is_reserved":false,"is_disabled":false,"rental_uris":{"android":"levelo://app?vid=bf24b26e-7f51-4120-9a48-54c87edaa2f7","ios":"levelo://app?vid=bf24b26e-7f51-4120-9a48-54c87edaa2f7"},"vehicle_type_id":"4","last_reported":1751638195,"current_range_meters":20400,"station_id":"st_cvj6sg6p6f1abm77japg","pricing_plan_id":"cebpf4jnsgd1na2vs0mg"},{"bike_id":"67d8f339-63ff-4897-afe4-9c3cff5677c0","system_id":"levelo_inurba_marseille","lat":43.31698,"lon":5.37399,"is_reserved":false,"is_disabled":false,"rental_uris":{"android":"levelo://app?vid=67d8f339-63ff-4897-afe4-9c3cff5677c0","ios":"levelo://app?vid=67d8f339-63ff-4897-afe4-9c3cff5677c0"},"vehicle_type_id":"4","last_reported":1751638195,"current_range_meters":20800,"station_id":"","pricing_plan_id":"cebpf4jnsgd1na2vs0mg"},{"bike_id":"d4d03f22-831d-4477-8c6c-86414c44e7e4","system_id":"levelo_inurba_marseille","lat":43.29573,"lon":5.3752,"is_reserved":false,"is_disabled":false,"rental_uris":{"android":"levelo://app?vid=d4d03f22-831d-4477-8c6c-86414c44e7e4","ios":"levelo://app?vid=d4d03f22-831d-4477-8c6c-86414c44e7e4"},"vehicle_type_id":"4","last_reported":1751638195,"current_range_meters":20800,"station_id":"ce4bgh92rcd13ifvqb50","pricing_plan_id":"cebpf4jnsgd1na2vs0mg"},{"bike_id":"5a25b50b-b039-4033-a765-6e607ad0264e","system_id":"levelo_inurba_marseille","lat":43.30154,"lon":5.38093,"is_reserved":false,"is_disabled":false,"rental_uris":{"android":"levelo://app?vid=5a25b50b-b039-4033-a765-6e607ad0264e","ios":"levelo://app?vid=5a25b50b-b039-4033-a765-6e607ad0264e"},"vehicle_type_id":"4","last_reported":1751638195,"current_range_meters":20800,"station_id":"ce4bgjp2rcd13ifvqbh0","pricing_plan_id":"cebpf4jnsgd1na2vs0mg"},{"bike_id":"acc647b1-0183-4e17-a29a-7dca1220627e","system_id":"levelo_inurba_marseille","lat":43.29853,"lon":5.36283,"is_reserved":false,"is_disabled":false,"rental_uris":{"android":"levelo://app?vid=acc647b1-0183-4e17-a29a-7dca1220627e","ios":"levelo://app?vid=acc647b1-0183-4e17-a29a-7dca1220627e"},"vehicle_type_id":"4","last_reported":1751638195,"current_range_meters":20800,"station_id":"ce4bgpp2rcd13ifvqc3g","pricing_plan_id":"cebpf4jnsgd1na2vs0mg"},{"bike_id":"0c7d70b8-876c-4438-bd39-9a4288c76f88","system_id":"levelo_inurba_marseille","lat":43.30144,"lon":5.3742,"is_reserved":false,"is_disabled":false,"rental_uris":{"android":"levelo://app?vid=0c7d70b8-876c-4438-bd39-9a4288c76f88","ios":"levelo://app?vid=0c7d70b8-876c-4438-bd39-9a4288c76f88"},"vehicle_type_id":"4","last_reported":1751638195,"current_range_meters":20800,"station_id":"ce4bgs92rcd13ifvqcc0","pricing_plan_id":"cebpf4jnsgd1na2vs0mg"},{"bike_id":"3b2e1de2-e08a-4478-85a0-653e89c941c9","system_id":"levelo_inurba_marseille","lat":43.313317,"lon":5.39741,"is_reserved":false,"is_disabled":false,"rental_uris":{"android":"levelo://app?vid=3b2e1de2-e08a-4478-85a0-653e89c941c9","ios":"levelo://app?vid=3b2e1de2-e08a-4478-85a0-653e89c941c9"},"vehicle_type_id":"4","last_reported":1751638195,"current_range_meters":20800,"station_id":"ce4bgvp2rcd13ifvqcu0","pricing_plan_id":"cebpf4jnsgd1na2vs0mg"},{"bike_id":"e7429c79-1897-43a6-be67-4327771c3ccc","system_id":"levelo_inurba_marseille","lat":43.29523,"lon":5.39403,"is_reserved":false,"is_disabled":false,"rental_uris":{"android":"levelo://app?vid=e7429c79-1897-43a6-be67-4327771c3ccc","ios":"levelo://app?vid=e7429c79-1897-43a6-be67-4327771c3ccc"},"vehicle_type_id":"4","last_reported":1751638195,"current_range_meters":20800,"station_id":"ce4bh292rcd13ifvqdf0","pricing_plan_id":"cebpf4jnsgd1na2vs0mg"},{"bike_id":"8325f27d-7f43-4407-80a7-ab5bdc364e81","system_id":"levelo_inurba_marseille","lat":43.29572,"lon":5.39981,"is_reserved":false,"is_disabled":false,"rental_uris":{"android":"levelo://app?vid=8325f27d-7f43-4407-80a7-ab5bdc364e81","ios":"levelo://app?vid=8325f27d-7f43-4407-80a7-ab5bdc364e81"},"vehicle_type_id":"4","last_reported":1751638195,"current_range_meters":20800,"station_id":"ce4bh312rcd13ifvqdj0","pricing_plan_id":"cebpf4jnsgd1na2vs0mg"},