{"last_updated":1739466377,"ttl":60,"version":"2.2","data":{"bikes":[{"bike_id":"792409bb-5fc7-4bfd-944e-f7ff9f9e4600","system_id":"levelo_inurba_marseille","lat":43.286062,"lon":5.370515,"is_reserved":false,"is_disabled":false,"rental_uris":{"android":"levelo://app?vid=792409bb-5fc7-4bfd-944e-f7ff9f9e4600","ios":"levelo://app?vid=792409bb-5fc7-4bfd-944e-f7ff9f9e4600"},"vehicle_type_id":"4","last_reported":1739466377,"current_range_meters":28000,"station_id":"ce4bht12rcd13ifvqi60","pricing_plan_id":"cebpf4jnsgd1na2vs0mg"},{"bike_id":"0656e2f1-f894-4c7b-85d3-bc6cb2359ba4","system_id":"levelo_inurba_marseille","lat":43.29529,"lon":5.39034,"is_reserved":false,"is_disabled":false,"rental_uris":{"android":"levelo://app?vid=0656e2f1-f894-4c7b-85d3-bc6cb2359ba4","ios":"levelo://app?vid=0656e2f1-f894-4c7b-85d3-bc6cb2359ba4"},"vehicle_type_id":"4","last_reported":1739466377,"current_range_meters":36000,"station_id":"ce4bh3p2rcd13ifvqdp0","pricing_plan_id":"cebpf4jnsgd1na2vs0mg"},{"bike_id":"fabe0dc0-e9b8-4510-811e-856b5cccb082","system_id":"levelo_inurba_marseille","lat":43.25508,"lon":5.37642,"is_reserved":false,"is_disabled":true,"rental_uris":{"android":"levelo://app?vid=fabe0dc0-e9b8-4510-811e-856b5cccb082","ios":"levelo://app?vid=fabe0dc0-e9b8-4510-811e-856b5cccb082"},"vehicle_type_id":"4","last_reported":1739466377,"current_range_meters":12000,"station_id":"ce4bhh12rcd13ifvqff0","pricing_plan_id":"cebpf4jnsgd1na2vs0mg"},{"bike_id":"9b4398fa-3f62-413a-aaad-cf603add37f9","system_id":"levelo_inurba_marseille","lat":43.27376,"lon":5.36217,"is_reserved":false,"is_disabled":false,"rental_uris":{"android":"levelo://app?vid=9b4398fa-3f62-413a-aaad-cf603add37f9","ios":"levelo://app?vid=9b4398fa-3f62-413a-aaad-cf603add37f9"},"vehicle_type_id":"4","last_reported":1739466377,"current_range_meters":38800,"station_id":"ce4bhbh2rcd13ifvqeo0","pricing_plan_id":"cebpf4jnsgd1na2vs0mg"},{"bike_id":"35c96b0b-eb3c-4787-a379-c8c27196e8bc","system_id":"levelo_inurba_marseille","lat":43.32492,"lon":5.3662,"is_reserved":false,"is_disabled":false,"rental_uris":{"android":"levelo://app?vid=35c96b0b-eb3c-4787-a379-c8c27196e8bc","ios":"levelo://app?vid=35c96b0b-eb3c-4787-a379-c8c27196e8bc"},"vehicle_type_id":"4","last_reported":1739466377,"current_range_meters":38800,"station_id":"ce4bhs12rcd13ifvqhvg","pricing_plan_id":"cebpf4jnsgd1na2vs0mg"},{"bike_id":"1d4165b9-e8af-42e7-8e88-54a0f84b4f26","system_id":"levelo_inurba_marseille","lat":43.23204,"lon":5.39982,"is_reserved":false,"is_disabled":false,"rental_uris":{"android":"levelo://app?vid=1d4165b9-e8af-42e7-8e88-54a0f84b4f26","ios":"levelo://app?vid=1d4165b9-e8af-42e7-8e88-54a0f84b4f26"},"vehicle_type_id":"4","last_reported":1739466377,"current_range_meters":34000,"station_id":"ce4bhn12rcd13ifvqgqg","pricing_plan_id":"cebpf4jnsgd1na2vs0mg"},{"bike_id":"f6ef4f9a-c914-4d4b-a06e-00485b64285e","system_id":"levelo_inurba_marseille","lat":43.32475,"lon":5.36612,"is_reserved":false,"is_disabled":false,"rental_uris":{"android":"levelo://app?vid=f6ef4f9a-c914-4d4b-a06e-00485b64285e","ios":"levelo://app?vid=f6ef4f9a-c914-4d4b-a06e-00485b64285e"},"vehicle_type_id":"4","last_reported":1739466377,"current_range_meters":38800,"station_id":"ce4bhs12rcd13ifvqhvg","pricing_plan_id":"cebpf4jnsgd1na2vs0mg"},{"bike_id":"e238aec4-306f-4def-b044-a0dc1f67d10d","system_id":"levelo_inurba_marseille","lat":43.30094,"lon":5.39098,"is_reserved":false,"is_disabled":false,"rental_uris":{"android":"levelo://app?vid=e238aec4-306f-4def-b044-a0dc1f67d10d","ios":"levelo://app?vid=e238aec4-306f-4def-b044-a0dc1f67d10d"},"vehicle_type_id":"4","last_reported":1739466377,"current_range_meters":39200,"station_id":"ce4bh192rcd13ifvqdb0","pricing_plan_id":"cebpf4jnsgd1na2vs0mg"},{"bike_id":"a3742777-63be-4bee-bcc7-7cb801a00ab2","system_id":"levelo_inurba_marseille","lat":43.29418,"lon":5.38618,"is_reserved":false,"is_disabled":false,"rental_uris":{"android":"levelo://app?vid=a3742777-63be-4bee-bcc7-7cb801a00ab2","ios":"levelo://app?vid=a3742777-63be-4bee-bcc7-7cb801a00ab2"},"vehicle_type_id":"4","last_reported":1739466377,"current_range_meters":21600,"station_id":"ce4bh2h2rcd13ifvqdh0","pricing_plan_id":"cebpf4jnsgd1na2vs0mg"},{"bike_id":"bbb2097f-1c15-4581-beb5-ee0c580691bf","system_id":"levelo_inurba_marseille","lat":43.27365,"lon":5.36254,"is_reserved":false,"is_disabled":false,"rental_uris":{"android":"levelo://app?vid=bbb2097f-1c15-4581-beb5-ee0c580691bf","ios":"levelo://app?vid=bbb2097f-1c15-4581-beb5-ee0c580691bf"},"vehicle_type_id":"4","last_reported":1739466377,"current_range_meters":8000,"station_id":"ce4bhbh2rcd13ifvqeo0","pricing_plan_id":"cebpf4jnsgd1na2vs0mg"},{"bike_id":"8390feee-0735-4b8f-90c8-f81c741ca7d5","system_id":"levelo_inurba_marseille","lat":43.24811,"lon":5.37459,"is_reserved":false,"is_disabled":false,"rental_uris":{"android":"levelo://app?vid=8390feee-0735-4b8f-90c8-f81c741ca7d5","ios":"levelo://app?vid=8390feee-0735-4b8f-90c8-f81c741ca7d5"},"vehicle_type_id":"4","last_reported":1739466377,"current_range_meters":37600,"station_id":"ce4bhgh2rcd13ifvqfb0","pricing_plan_id":"cebpf4jnsgd1na2vs0mg"},{"bike_id":"a3e78f7a-9878-4f36-8667-c46d063c3718","system_id":"levelo_inurba_marseille","lat":43.29569,"lon":5.39967,"is_reserved":false,"is_disabled":false,"rental_uris":{"android":"levelo://app?vid=a3e78f7a-9878-4f36-8667-c46d063c3718","ios":"levelo://app?vid=a3e78f7a-9878-4f36-8667-c46d063c3718"},"vehicle_type_id":"4","last_reported":1739466377,"current_range_meters":27600,"station_id":"ce4bh312rcd13ifvqdj0","pricing_plan_id":"cebpf4jnsgd1na2vs0mg"},{"bike_id":"3978400e-dc40-48da-93af-d286b1eaeaf6","system_id":"levelo_inurba_marseille","lat":43.25501,"lon":5.37652,"is_reserved":false,"is_disabled":false,"rental_uris":{"android":"levelo://app?vid=3978400e-dc40-48da-93af-d286b1eaeaf6","ios":"levelo://app?vid=3978400e-dc40-48da-93af-d286b1eaeaf6"},"vehicle_type_id":"4","last_reported":1739466377,"current_range_meters":24800,"station_id":"ce4bhh12rcd13ifvqff0","pricing_plan_id":"cebpf4jnsgd1na2vs0mg"},{"bike_id":"c5d83290-7e41-4747-be49-5a88384d605e","system_id":"levelo_inurba_marseille","lat":43.28488,"lon":5.38523,"is_reserved":false,"is_disabled":true,"rental_uris":{"android":"levelo://app?vid=c5d83290-7e41-4747-be49-5a88384d605e","ios":"levelo://app?vid=c5d83290-7e41-4747-be49-5a88384d605e"},"vehicle_type_id":"4","last_reported":1739466377,"current_range_meters":22800,"station_id":"ce4bh8p2rcd13ifvqeb0","pricing_plan_id":"cebpf4jnsgd1na2vs0mg"},{"bike_id":"1facaff9-cd9d-44f8-8411-f7de3bfc2a18","system_id":"levelo_inurba_marseille","lat":43.31719,"lon":5.42404,"is_reserved":false,"is_disabled":false,"rental_uris":{"android":"levelo://app?vid=1facaff9-cd9d-44f8-8411-f7de3bfc2a18","ios":"levelo://app?vid=1facaff9-cd9d-44f8-8411-f7de3bfc2a18"},"vehicle_type_id":"4","last_reported":1739466377,"current_range_meters":38800,"station_id":"ce4bhp92rcd13ifvqhbg","pricing_plan_id":"cebpf4jnsgd1na2vs0mg"},{"bike_id":"ac2f5c21-615f-4f60-8b2b-9954adc8ad1d","system_id":"levelo_inurba_marseille","lat":43.29866,"lon":5.36299,"is_reserved":false,"is_disabled":false,"rental_uris":{"android":"levelo://app?vid=ac2f5c21-615f-4f60-8b2b-9954adc8ad1d","ios":"levelo://app?vid=ac2f5c21-615f-4f60-8b2b-9954adc8ad1d"},"vehicle_type_id":"4","last_reported":1739466377,"current_range_meters":38800,"station_id":"ce4bgpp2rcd13ifvqc3g","pricing_plan_id":"cebpf4jnsgd1na2vs0mg"},{"bike_id":"b34c6303-752a-46a1-93ad-ddbc991e20b6","system_id":"levelo_inurba_marseille","lat":43.23061,"lon":5.35496,"is_reserved":false,"is_disabled":false,"rental_uris":{"android":"levelo://app?vid=b34c6303-752a-46a1-93ad-ddbc991e20b6","ios":"levelo://app?vid=b34c6303-752a-46a1-93ad-ddbc991e20b6"},"vehicle_type_id":"4","last_reported":1739466377,"current_range_meters":8400,"station_id":"cpo3342slgdg3j2ifvpg","pricing_plan_id":"cebpf4jnsgd1na2vs0mg"},{"bike_id":"f4297ec3-a745-470f-8379-4a2b1e421801","system_id":"levelo_inurba_marseille","lat":43.29036,"lon":5.35916,"is_reserved":false,"is_disabled":true,"rental_uris":{"android":"levelo://app?vid=f4297ec3-a745-470f-8379-4a2b1e421801","ios":"levelo://app?vid=f4297ec3-a745-470f-8379-4a2b1e421801"},"vehicle_type_id":"4","last_reported":1739466377,"current_range_meters":39200,"station_id":"ce4bha92rcd13ifvqeg0","pricing_plan_id":"cebpf4jnsgd1na2vs0mg"},{"bike_id":"99811143-a1f2-4e55-bdd8-cb475da138ae","system_id":"levelo_inurba_marseille","lat":43.29632,"lon":5.37159,"is_reserved":false,"is_disabled":false,"rental_uris":{"android":"levelo://app?vid=99811143-a1f2-4e55-bdd8-cb475da138ae","ios":"levelo://app?vid=99811143-a1f2-4e55-bdd8-cb475da138ae"},"vehicle_type_id":"4","last_reported":1739466377,"current_range_meters":27600,"station_id":"ce4bgnh2rcd13ifvqc0g","pricing_plan_id":"cebpf4jnsgd1na2vs0mg"},{"bike_id":"1c4e2f59-1159-4a12-b83e-d5b2deeaa32f","system_id":"levelo_inurba_marseille","lat":43.33719,"lon":5.39193,"is_reserved":false,"is_disabled":false,"rental_uris":{"android":"levelo://app?vid=1c4e2f59-1159-4a12-b83e-d5b2deeaa32f","ios":"levelo://app?vid=1c4e2f59-1159-4a12-b83e-d5b2deeaa32f"},"vehicle_type_id":"4","last_reported":1739466377,"current_range_meters":38400,"station_id":"ce4bhr92rcd13ifvqhsg","pricing_plan_id":"cebpf4jnsgd1na2vs0mg"},{"bike_id":"51990b29-3bb4-4fa1-b182-c20b57a35fbd","system_id":"levelo_inurba_marseille","lat":43.27494,"lon":5.42446,"is_reserved":false,"is_disabled":false,"rental_uris":{"android":"levelo://app?vid=51990b29-3bb4-4fa1-b182-c20b57a35fbd","ios":"levelo://app?vid=51990b29-3bb4-4fa1-b182-c20b57a35fbd"},"vehicle_type_id":"4","last_reported":1739466377,"current_range_meters":38000,"station_id":"ce4bhn92rcd13ifvqgrg","pricing_plan_id":"cebpf4jnsgd1na2vs0mg"},{"bike_id":"7b830c89-3a1c-4014-a605-109efca81479","system_id":"levelo_inurba_marseille","lat":43.27662,"lon":5.38877,"is_reserved":false,"is_disabled":false,"rental_uris":{"android":"levelo://app?vid=7b830c89-3a1c-4014-a605-109efca81479","ios":"levelo://app?vid=7b830c89-3a1c-4014-a605-109efca81479"},"vehicle_type_id":"4","last_reported":1739466377,"current_range_meters":38800,"station_id":"ce4bhi12rcd13ifvqfo0","pricing_plan_id":"cebpf4jnsgd1na2vs0mg"},{"bike_id":"74eed58f-1fd9-4ea4-a6c5-9ec97791fe06","system_id":"levelo_inurba_marseille","lat":43.28103,"lon":5.37835,"is_reserved":false,"is_disabled":false,"rental_uris":{"android":"levelo://app?vid=74eed58f-1fd9-4ea4-a6c5-9ec97791fe06","ios":"levelo://app?vid=74eed58f-1fd9-4ea4-a6c5-9ec97791fe06"},"vehicle_type_id":"4","last_reported":1739466377,"current_range_meters":39200,"station_id":"ce4bha12rcd13ifvqee0","pricing_plan_id":"cebpf4jnsgd1na2vs0mg"},{"bike_id":"4771bdc5-5a9a-4126-baef-ad23555935fc","system_id":"levelo_inurba_marseille","lat":43.29522,"lon":5.39415,"is_reserved":false,"is_disabled":false,"rental_uris":{"android":"levelo://app?vid=4771bdc5-5a9a-4126-baef-ad23555935fc","ios":"levelo://app?vid=4771bdc5-5a9a-4126-baef-ad23555935fc"},"vehicle_type_id":"4","last_reported":1739466377,"current_range_meters":28800,"station_id":"ce4bh292rcd13ifvqdf0","pricing_plan_id":"cebpf4jnsgd1na2vs0mg"},{"bike_id":"ae9ac42c-c442-4a42-a6d9-83f1be830871","system_id":"levelo_inurba_marseille","lat":43.29934,"lon":5.36561,"is_reserved":false,"is_disabled":false,"rental_uris":{"android":"levelo://app?vid=ae9ac42c-c442-4a42-a6d9-83f1be830871","ios":"levelo://app?vid=ae9ac42c-c442-4a42-a6d9-83f1be830871"},"vehicle_type_id":"4","last_reported":1739466377,"current_range_meters":10000,"station_id":"ce4bgm92rcd13ifvqbr0","pricing_plan_id":"cebpf4jnsgd1na2vs0mg"},{"bike_id":"efd9687b-3c78-4cda-ac17-7e603b3cfefe","system_id":"levelo_inurba_marseille","lat":43.308376,"lon":5.396225,"is_reserved":false,"is_disabled":true,"rental_uris":{"android":"levelo://app?vid=efd9687b-3c78-4cda-ac17-7e603b3cfefe","ios":"levelo://app?vid=efd9687b-3c78-4cda-ac17-7e603b3cfefe"},"vehicle_type_id":"4","last_reported":1739466377,"current_range_meters":400,"station_id":"ce4bh012rcd13ifvqcv0","pricing_plan_id":"cebpf4jnsgd1na2vs0mg"},{"bike_id":"8054137f-c573-408f-9225-3700b33ee09c","system_id":"levelo_inurba_marseille","lat":43.30318,"lon":5.36896,"is_reserved":false,"is_disabled":false,"rental_uris":{"android":"levelo://app?vid=8054137f-c573-408f-9225-3700b33ee09c","ios":"levelo://app?vid=8054137f-c573-408f-9225-3700b33ee09c"},"vehicle_type_id":"4","last_reported":1739466377,"current_range_meters":14400,"station_id":"ce4bgqh2rcd13ifvqc5g","pricing_plan_id":"cebpf4jnsgd1na2vs0mg"},{"bike_id":"b027a2c1-d832-46c9-8cb6-7776ea2ba547","system_id":"levelo_inurba_marseille","lat":43.27054,"lon":5.42281,"is_reserved":false,"is_disabled":false,"rental_uris":{"android":"levelo://app?vid=b027a2c1-d832-46c9-8cb6-7776ea2ba547","ios":"levelo://app?vid=b027a2c1-d832-46c9-8cb6-7776ea2ba547"},"vehicle_type_id":"4","last_reported":1739466377,"current_range_meters":9600,"station_id":"ce4bhk92rcd13ifvqgb0","pricing_plan_id":"cebpf4jnsgd1na2vs0mg"},{"bike_id":"6f5e184a-df15-441a-a887-8534752eac3e","system_id":"levelo_inurba_marseille","lat":43.29968,"lon":5.38501,"is_reserved":false,"is_disabled":false,"rental_uris":{"android":"levelo://app?vid=6f5e184a-df15-441a-a887-8534752eac3e","ios":"levelo://app?vid=6f5e184a-df15-441a-a887-8534752eac3e"},"vehicle_type_id":"4","last_reported":1739466377,"current_range_meters":34000,"station_id":"ce4bgj92rcd13ifvqbd0","pricing_plan_id":"cebpf4jnsgd1na2vs0mg"},{"bike_id":"4004e863-e0ca-4122-9424-ab9f70e142e6","system_id":"levelo_inurba_marseille","lat":43.31685,"lon":5.39624,"is_reserved":false,"is_disabled":false,"rental_uris":{"android":"levelo://app?vid=4004e863-e0ca-4122-9424-ab9f70e142e6","ios":"levelo://app?vid=4004e863-e0ca-4122-9424-ab9f70e142e6"},"vehicle_type_id":"4","last_reported":1739466377,"current_range_meters":26000,"station_id":"","pricing_plan_id":"cebpf4jnsgd1na2vs0mg"},{"bike_id":"2ab762d7-a7dc-4c7d-a787-2e03e3c375ef","system_id":"levelo_inurba_marseille","lat":43.30292,"lon":5.39218,"is_reserved":false,"is_disabled":false,"rental_uris":{"android":"levelo://app?vid=2ab762d7-a7dc-4c7d-a787-2e03e3c375ef","ios":"levelo://app?vid=2ab762d7-a7dc-4c7d-a787-2e03e3c375ef"},"vehicle_type_id":"4","last_reported":1739466377,"current_range_meters":24800,"station_id":"ce4bgkh2rcd13ifvqbk0","pricing_plan_id":"cebpf4jnsgd1na2vs0mg"},{"bike_id":"e0577ce1-f564-4bbd-b449-2085183bd485","system_id":"levelo_inurba_marseille","lat":43.30803,"lon":5.43527,"is_reserved":false,"is_disabled":false,"rental_uris":{"android":"levelo://app?vid=e0577ce1-f564-4bbd-b449-2085183bd485","ios":"levelo://app?vid=e0577ce1-f564-4bbd-b449-2085183bd485"},"vehicle_type_id":"4","last_reported":1739466377,"current_range_meters":28000,"station_id":"ce4bhph2rcd13ifvqheg","pricing_plan_id":"cebpf4jnsgd1na2vs0mg"},{"bike_id":"e4d14330-222d-46d5-8f26-efec567da29c","system_id":"levelo_inurba_marseille","lat":43.28615,"lon":5.35099,"is_reserved":false,"is_disabled":false,"rental_uris":{"android":"levelo://app?vid=e4d14330-222d-46d5-8f26-efec567da29c","ios":"levelo://app?vid=e4d14330-222d-46d5-8f26-efec567da29c"},"vehicle_type_id":"4","last_reported":1739466377,"current_range_meters":38800,"station_id":"ce4bhch2rcd13ifvqeug","pricing_plan_id":"cebpf4jnsgd1na2vs0mg"},{"bike_id":"e82045b1-b0ae-4e9d-938f-b19ea01bc447","system_id":"levelo_inurba_marseille","lat":43.283503,"lon":5.38103,"is_reserved":false,"is_disabled":false,"rental_uris":{"android":"levelo://app?vid=e82045b1-b0ae-4e9d-938f-b19ea01bc447","ios":"levelo://app?vid=e82045b1-b0ae-4e9d-938f-b19ea01bc447"},"vehicle_type_id":"4","last_reported":1739466377,"current_range_meters":19600,"station_id":"ce4bh412rcd13ifvqdr0","pricing_plan_id":"cebpf4jnsgd1na2vs0mg"},{"bike_id":"03f1ee11-be7f-45e6-a171-a893130e88b6","system_id":"levelo_inurba_marseille","lat":43.29006,"lon":5.35616,"is_reserved":false,"is_disabled":true,"rental_uris":{"android":"levelo://app?vid=03f1ee11-be7f-45e6-a171-a893130e88b6","ios":"levelo://app?vid=03f1ee11-be7f-45e6-a171-a893130e88b6"},"vehicle_type_id":"4","last_reported":1739466377,"current_range_meters":38800,"station_id":"ce4bhb92rcd13ifvqen0","pricing_plan_id":"cebpf4jnsgd1na2vs0mg"},{"bike_id":"704ec19d-e7c0-4858-a423-dcfa560220a5","system_id":"levelo_inurba_marseille","lat":43.23188,"lon":5.39976,"is_reserved":false,"is_disabled":false,"rental_uris":{"android":"levelo://app?vid=704ec19d-e7c0-4858-a423-dcfa560220a5","ios":"levelo://app?vid=704ec19d-e7c0-4858-a423-dcfa560220a5"},"vehicle_type_id":"4","last_reported":1739466377,"current_range_meters":36400,"station_id":"ce4bhn12rcd13ifvqgqg","pricing_plan_id":"cebpf4jnsgd1na2vs0mg"},{"bike_id":"57eab003-8fa6-4a88-9159-39f3dfa18e54","system_id":"levelo_inurba_marseille","lat":43.272063,"lon":5.39166,"is_reserved":false,"is_disabled":false,"rental_uris":{"android":"levelo://app?vid=57eab003-8fa6-4a88-9159-39f3dfa18e54","ios":"levelo://app?vid=57eab003-8fa6-4a88-9159-39f3dfa18e54"},"vehicle_type_id":"4","last_reported":1739466377,"current_range_meters":38000,"station_id":"ce4bhhp2rcd13ifvqfm0","pricing_plan_id":"cebpf4jnsgd1na2vs0mg"},{"bike_id":"f947b5a0-e0e7-4bb1-beec-20a69c2d5582","system_id":"levelo_inurba_marseille","lat":43.3043,"lon":5.38894,"is_reserved":false,"is_disabled":false,"rental_uris":{"android":"levelo://app?vid=f947b5a0-e0e7-4bb1-beec-20a69c2d5582","ios":"levelo://app?vid=f947b5a0-e0e7-4bb1-beec-20a69c2d5582"},"vehicle_type_id":"4","last_reported":1739466377,"current_range_meters":29600,"station_id":"ce4bgk12rcd13ifvqbi0","pricing_plan_id":"cebpf4jnsgd1na2vs0mg"},{"bike_id":"ff7717a2-1bda-44f0-be3b-adcd8ec742a4","system_id":"levelo_inurba_marseille","lat":43.30104,"lon":5.39142,"is_reserved":false,"is_disabled":false,"rental_uris":{"android":"levelo://app?vid=ff7717a2-1bda-44f0-be3b-adcd8ec742a4","ios":"levelo://app?vid=ff7717a2-1bda-44f0-be3b-adcd8ec742a4"},"vehicle_type_id":"4","last_reported":1739466377,"current_range_meters":24400,"station_id":"","pricing_plan_id":"cebpf4jnsgd1na2vs0mg"},{"bike_id":"6e79fee3-d43f-4b38-9347-60eb150ccde4","system_id":"levelo_inurba_marseille","lat":43.29299,"lon":5.3714,"is_reserved":false,"is_disabled":false,"rental_uris":{"android":"levelo://app?vid=6e79fee3-d43f-4b38-9347-60eb150ccde4","ios":"levelo://app?vid=6e79fee3-d43f-4b38-9347-60eb150ccde4"},"vehicle_type_id":"4","last_reported":1739466377,"current_range_meters":19600,"station_id":"ce4bgh92rcd13ifvqb40","pricing_plan_id":"cebpf4jnsgd1na2vs0mg"},{"bike_id":"9cf8e6d9-67b8-441b-8ab4-08ef8560d2b0","system_id":"levelo_inurba_marseille","lat":43.33514,"lon":5.35588,"is_reserved":false,"is_disabled":true,"rental_uris":{"android":"levelo://app?vid=9cf8e6d9-67b8-441b-8ab4-08ef8560d2b0","ios":"levelo://app?vid=9cf8e6d9-67b8-441b-8ab4-08ef8560d2b0"},"vehicle_type_id":"4","last_reported":1739466377,"current_range_meters":0,"station_id":"","pricing_plan_id":"cebpf4jnsgd1na2vs0mg"},{"bike_id":"da146b82-afa5-443f-af31-e4525067ea75","system_id":"levelo_inurba_marseille","lat":43.27381,"lon":5.3625,"is_reserved":false,"is_disabled":false,"rental_uris":{"android":"levelo://app?vid=da146b82-afa5-443f-af31-e4525067ea75","ios":"levelo://app?vid=da146b82-afa5-443f-af31-e4525067ea75"},"vehicle_type_id":"4","last_reported":1739466377,"current_range_meters":18000,"station_id":"ce4bhbh2rcd13ifvqeo0","pricing_plan_id":"cebpf4jnsgd1na2vs0mg"},{"bike_id":"b076ea8e-2467-4754-a660-35beb44a3d2f","system_id":"levelo_inurba_marseille","lat":43.23961,"lon":5.36623,"is_reserved":false,"is_disabled":false,"rental_uris":{"android":"levelo://app?vid=b076ea8e-2467-4754-a660-35beb44a3d2f","ios":"levelo://app?vid=b076ea8e-2467-4754-a660-35beb44a3d2f"},"vehicle_type_id":"4","last_reported":1739466377,"current_range_meters":32000,"station_id":"ce4bhi12rcd13ifvqfp0","pricing_plan_id":"cebpf4jnsgd1na2vs0mg"},{"bike_id":"3dac6192-3123-4c95-afea-ba492f5c9f4e","system_id":"levelo_inurba_marseille","lat":43.3172,"lon":5.424,"is_reserved":false,"is_disabled":false,"rental_uris":{"android":"levelo://app?vid=3dac6192-3123-4c95-afea-ba492f5c9f4e","ios":"levelo://app?vid=3dac6192-3123-4c95-afea-ba492f5c9f4e"},"vehicle_type_id":"4","last_reported":1739466377,"current_range_meters":37600,"station_id":"ce4bhp92rcd13ifvqhbg","pricing_plan_id":"cebpf4jnsgd1na2vs0mg"},{"bike_id":"7e5520a4-2922-4ff8-9b47-91c4e8c21ca4","system_id":"levelo_inurba_marseille","lat":43.24644,"lon":5.38888,"is_reserved":false,"is_disabled":false,"rental_uris":{"android":"levelo://app?vid=7e5520a4-2922-4ff8-9b47-91c4e8c21ca4","ios":"levelo://app?vid=7e5520a4-2922-4ff8-9b47-91c4e8c21ca4"},"vehicle_type_id":"4","last_reported":1739466377,"current_range_meters":38800,"station_id":"ce4bhg12rcd13ifvqf60","pricing_plan_id":"cebpf4jnsgd1na2vs0mg"},{"bike_id":"c8f5cf6f-f720-45a0-a52a-19ff32d557f7","system_id":"levelo_inurba_marseille","lat":43.27423,"lon":5.39408,"is_reserved":false,"is_disabled":true,"rental_uris":{"android":"levelo://app?vid=c8f5cf6f-f720-45a0-a52a-19ff32d557f7","ios":"levelo://app?vid=c8f5cf6f-f720-45a0-a52a-19ff32d557f7"},"vehicle_type_id":"4","last_reported":1739466377,"current_range_meters":0,"station_id":"ce4bhdp2rcd13ifvqf20","pricing_plan_id":"cebpf4jnsgd1na2vs0mg"},{"bike_id":"51ab7186-5043-4bed-baca-73708608a302","system_id":"levelo_inurba_marseille","lat":43.29584,"lon":5.37026,"is_reserved":false,"is_disabled":true,"rental_uris":{"android":"levelo://app?vid=51ab7186-5043-4bed-baca-73708608a302","ios":"levelo://app?vid=51ab7186-5043-4bed-baca-73708608a302"},"vehicle_type_id":"4","last_reported":1739466377,"current_range_meters":0,"station_id":"","pricing_plan_id":"cebpf4jnsgd1na2vs0mg"},{"bike_id":"b6e2eaf6-2dfd-4928-ab3c-c71a5866d7f7","system_id":"levelo_inurba_marseille","lat":43.28434,"lon":5.3921,"is_reserved":false,"is_disabled":false,"rental_uris":{"android":"levelo://app?vid=b6e2eaf6-2dfd-4928-ab3c-c71a5866d7f7","ios":"levelo://app?vid=b6e2eaf6-2dfd-4928-ab3c-c71a5866d7f7"},"vehicle_type_id":"4","last_reported":1739466377,"current_range_meters":30800,"station_id":"ce4bhoh2rcd13ifvqh5g","pricing_plan_id":"cebpf4jnsgd1na2vs0mg"},{"bike_id":"d3fc5f7e-9983-4343-a9af-f36df7d45f29","system_id":"levelo_inurba_marseille","lat":43.231904,"lon":5.399815,"is_reserved":false,"is_disabled":false,"rental_uris":{"android":"levelo://app?vid=d3fc5f7e-9983-4343-a9af-f36df7d45f29","ios":"levelo://app?vid=d3fc5f7e-9983-4343-a9af-f36df7d45f29"},"vehicle_type_id":"4","last_reported":1739466377,"current_range_meters":24000,"station_id":"ce4bhn12rcd13ifvqgqg","pricing_plan_id":"cebpf4jnsgd1na2vs0mg"},{"bike_id":"d01cfddf-7881-4b7c-815e-f570bddc475f","system_id":"levelo_inurba_marseille","lat":43.2795,"lon":5.41043,"is_reserved":false,"is_disabled":true,"rental_uris":{"android":"levelo://app?vid=d01cfddf-7881-4b7c-815e-f570bddc475f","ios":"levelo://app?vid=d01cfddf-7881-4b7c-815e-f570bddc475f"},"vehicle_type_id":"4","last_reported":1739466377,"current_range_meters":1200,"station_id":"ce4bhnp2rcd13ifvqh0g","pricing_plan_id":"cebpf4jnsgd1na2vs0mg"},{"bike_id":"533e6cd1-6e14-49bd-bce6-9bad7d0e5064","system_id":"levelo_inurba_marseille","lat":43.29523,"lon":5.39039,"is_reserved":false,"is_disabled":false,"rental_uris":{"android":"levelo://app?vid=533e6cd1-6e14-49bd-bce6-9bad7d0e5064","ios":"levelo://app?vid=533e6cd1-6e14-49bd-bce6-9bad7d0e5064"},"vehicle_type_id":"4","last_reported":1739466377,"current_range_meters":38800,"station_id":"ce4bh3p2rcd13ifvqdp0","pricing_plan_id":"cebpf4jnsgd1na2vs0mg"},{"bike_id":"5ebd5db9-a566-4a1d-9883-36559b682201","system_id":"levelo_inurba_marseille","lat":43.24792,"lon":5.37452,"is_reserved":false,"is_disabled":false,"rental_uris":{"android":"levelo://app?vid=5ebd5db9-a566-4a1d-9883-36559b682201","ios":"levelo://app?vid=5ebd5db9-a566-4a1d-9883-36559b682201"},"vehicle_type_id":"4","last_reported":1739466377,"current_range_meters":24000,"station_id":"ce4bhgh2rcd13ifvqfb0","pricing_plan_id":"cebpf4jnsgd1na2vs0mg"},{"bike_id":"fc742e55-1756-4751-8937-6b4706d07f3f","system_id":"levelo_inurba_marseille","lat":43.30133,"lon":5.38787,"is_reserved":false,"is_disabled":false,"rental_uris":{"android":"levelo://app?vid=fc742e55-1756-4751-8937-6b4706d07f3f","ios":"levelo://app?vid=fc742e55-1756-4751-8937-6b4706d07f3f"},"vehicle_type_id":"4","last_reported":1739466377,"current_range_meters":22800,"station_id":"ce4bghh2rcd13ifvqb60","pricing_plan_id":"cebpf4jnsgd1na2vs0mg"},{"bike_id":"c21a698a-f545-4d6a-83de-5bf5edc4ac5c","system_id":"levelo_inurba_marseille","lat":43.2315,"lon":5.43714,"is_reserved":false,"is_disabled":false,"rental_uris":{"android":"levelo://app?vid=c21a698a-f545-4d6a-83de-5bf5edc4ac5c","ios":"levelo://app?vid=c21a698a-f545-4d6a-83de-5bf5edc4ac5c"},"vehicle_type_id":"4","last_reported":1739466377,"current_range_meters":9600,"station_id":"ce4bhmp2rcd13ifvqgog","pricing_plan_id":"cebpf4jnsgd1na2vs0mg"},{"bike_id":"ee079ffa-4416-4a91-bc98-3bd665acea3b","system_id":"levelo_inurba_marseille","lat":43.33711,"lon":5.3921,"is_reserved":false,"is_disabled":false,"rental_uris":{"android":"levelo://app?vid=ee079ffa-4416-4a91-bc98-3bd665acea3b","ios":"levelo://app?vid=ee079ffa-4416-4a91-bc98-3bd665acea3b"},"vehicle_type_id":"4","last_reported":1739466377,"current_range_meters":38800,"station_id":"ce4bhr92rcd13ifvqhsg","pricing_plan_id":"cebpf4jnsgd1na2vs0mg"},{"bike_id":"1fa82dc6-47d4-4356-bbca-393bf4461726","system_id":"levelo_inurba_marseille","lat":43.239622,"lon":5.366213,"is_reserved":false,"is_disabled":false,"rental_uris":{"android":"levelo://app?vid=1fa82dc6-47d4-4356-bbca-393bf4461726","ios":"levelo://app?vid=1fa82dc6-47d4-4356-bbca-393bf4461726"},"vehicle_type_id":"4","last_reported":1739466377,"current_range_meters":38800,"station_id":"ce4bhi12rcd13ifvqfp0","pricing_plan_id":"cebpf4jnsgd1na2vs0mg"},{"bike_id":"2355c6e5-09c3-4950-a7a8-dbebf456e6b5","system_id":"levelo_inurba_marseille","lat":43.3079,"lon":5.366343,"is_reserved":false,"is_disabled":false,"rental_uris":{"android":"levelo://app?vid=2355c6e5-09c3-4950-a7a8-dbebf456e6b5","ios":"levelo://app?vid=2355c6e5-09c3-4950-a7a8-dbebf456e6b5"},"vehicle_type_id":"4","last_reported":1739466377,"current_range_meters":22000,"station_id":"","pricing_plan_id":"cebpf4jnsgd1na2vs0mg"},{"bike_id":"f883adf9-ab19-45e2-ba0c-a67d68e9282a","system_id":"levelo_inurba_marseille","lat":43.24543,"lon":5.39532,"is_reserved":false,"is_disabled":false,"rental_uris":{"android":"levelo://app?vid=f883adf9-ab19-45e2-ba0c-a67d68e9282a","ios":"levelo://app?vid=f883adf9-ab19-45e2-ba0c-a67d68e9282a"},"vehicle_type_id":"4","last_reported":1739466377,"current_range_meters":24800,"station_id":"ce4bhlp2rcd13ifvqgjg","pricing_plan_id":"cebpf4jnsgd1na2vs0mg"},{"bike_id":"d0d01bf2-0840-46bf-b851-bf978560139d","system_id":"levelo_inurba_marseille","lat":43.2988,"lon":5.39733,"is_reserved":false,"is_disabled":false,"rental_uris":{"android":"levelo://app?vid=d0d01bf2-0840-46bf-b851-bf978560139d","ios":"levelo://app?vid=d0d01bf2-0840-46bf-b851-bf978560139d"},"vehicle_type_id":"4","last_reported":1739466377,"current_range_meters":6000,"station_id":"ce4bh0h2rcd13ifvqd50","pricing_plan_id":"cebpf4jnsgd1na2vs0mg"},{"bike_id":"93cabce3-58dd-4607-8727-b622e6b7f5b9","system_id":"levelo_inurba_marseille","lat":43.24386,"lon":5.37055,"is_reserved":false,"is_disabled":false,"rental_uris":{"android":"levelo://app?vid=93cabce3-58dd-4607-8727-b622e6b7f5b9","ios":"levelo://app?vid=93cabce3-58dd-4607-8727-b622e6b7f5b9"},"vehicle_type_id":"4","last_reported":1739466377,"current_range_meters":38800,"station_id":"ce4bhhh2rcd13ifvqfk0","pricing_plan_id":"cebpf4jnsgd1na2vs0mg"},{"bike_id":"73204b29-ec32-4146-8fea-bcca13682a2a","system_id":"levelo_inurba_marseille","lat":43.24811,"lon":5.37466,"is_reserved":false,"is_disabled":false,"rental_uris":{"android":"levelo://app?vid=73204b29-ec32-4146-8fea-bcca13682a2a","ios":"levelo://app?vid=73204b29-ec32-4146-8fea-bcca13682a2a"},"vehicle_type_id":"4","last_reported":1739466377,"current_range_meters":21600,"station_id":"ce4bhgh2rcd13ifvqfb0","pricing_plan_id":"cebpf4jnsgd1na2vs0mg"},{"bike_id":"898fd5d4-6841-40bb-83c1-e007dd9e11f8","system_id":"levelo_inurba_marseille","lat":43.29797,"lon":5.40401,"is_reserved":false,"is_disabled":false,"rental_uris":{"android":"levelo://app?vid=898fd5d4-6841-40bb-83c1-e007dd9e11f8","ios":"levelo://app?vid=898fd5d4-6841-40bb-83c1-e007dd9e11f8"},"vehicle_type_id":"4","last_reported":1739466377,"current_range_meters":16800,"station_id":"ce4bh112rcd13ifvqd90","pricing_plan_id":"cebpf4jnsgd1na2vs0mg"},{"bike_id":"d1e6b517-b6c2-4320-8222-419cb00ef868","system_id":"levelo_inurba_marseille","lat":43.30318,"lon":5.36888,"is_reserved":false,"is_disabled":false,"rental_uris":{"android":"levelo://app?vid=d1e6b517-b6c2-4320-8222-419cb00ef868","ios":"levelo://app?vid=d1e6b517-b6c2-4320-8222-419cb00ef868"},"vehicle_type_id":"4","last_reported":1739466377,"current_range_meters":17200,"station_id":"ce4bgqh2rcd13ifvqc5g","pricing_plan_id":"cebpf4jnsgd1na2vs0mg"},{"bike_id":"b2c2d795-8fcd-4b62-8101-8fe31e15144e","system_id":"levelo_inurba_marseille","lat":43.29925,"lon":5.36528,"is_reserved":false,"is_disabled":false,"rental_uris":{"android":"levelo://app?vid=b2c2d795-8fcd-4b62-8101-8fe31e15144e","ios":"levelo://app?vid=b2c2d795-8fcd-4b62-8101-8fe31e15144e"},"vehicle_type_id":"4","last_reported":1739466377,"current_range_meters":17600,"station_id":"ce4bgm92rcd13ifvqbr0","pricing_plan_id":"cebpf4jnsgd1na2vs0mg"},{"bike_id":"a3c1a4ab-82f6-4315-9ed6-5bac6bafe89a","system_id":"levelo_inurba_marseille","lat":43.28727,"lon":5.36092,"is_reserved":false,"is_disabled":false,"rental_uris":{"android":"levelo://app?vid=a3c1a4ab-82f6-4315-9ed6-5bac6bafe89a","ios":"levelo://app?vid=a3c1a4ab-82f6-4315-9ed6-5bac6bafe89a"},"vehicle_type_id":"4","last_reported":1739466377,"current_range_meters":20400,"station_id":"cki0cbj6b192h4jlfktg","pricing_plan_id":"cebpf4jnsgd1na2vs0mg"},{"bike_id":"d674d394-04ab-4838-a267-bcdd8affd803","system_id":"levelo_inurba_marseille","lat":43.30806,"lon":5.43519,"is_reserved":false,"is_disabled":false,"rental_uris":{"android":"levelo://app?vid=d674d394-04ab-4838-a267-bcdd8affd803","ios":"levelo://app?vid=d674d394-04ab-4838-a267-bcdd8affd803"},"vehicle_type_id":"4","last_reported":1739466377,"current_range_meters":38800,"station_id":"ce4bhph2rcd13ifvqheg","pricing_plan_id":"cebpf4jnsgd1na2vs0mg"},{"bike_id":"3c972bc6-571f-4946-9dde-c7f43d4c71a0","system_id":"levelo_inurba_marseille","lat":43.324871,"lon":5.365568,"is_reserved":false,"is_disabled":false,"rental_uris":{"android":"levelo://app?vid=3c972bc6-571f-4946-9dde-c7f43d4c71a0","ios":"levelo://app?vid=3c972bc6-571f-4946-9dde-c7f43d4c71a0"},"vehicle_type_id":"4","last_reported":1739466377,"current_range_meters":24000,"station_id":"ce4bhs12rcd13ifvqhvg","pricing_plan_id":"cebpf4jnsgd1na2vs0mg"},{"bike_id":"c4512c05-3d21-4887-a67a-88430faa4723","system_id":"levelo_inurba_marseille","lat":43.28665,"lon":5.36356,"is_reserved":false,"is_disabled":false,"rental_uris":{"android":"levelo://app?vid=c4512c05-3d21-4887-a67a-88430faa4723","ios":"levelo://app?vid=c4512c05-3d21-4887-a67a-88430faa4723"},"vehicle_type_id":"4","last_reported":1739466377,"current_range_meters":26000,"station_id":"ce4bhah2rcd13ifvqej0","pricing_plan_id":"cebpf4jnsgd1na2vs0mg"},{"bike_id":"8c860539-0932-4c40-9811-69f99aeabe05","system_id":"levelo_inurba_marseille","lat":43.30533,"lon":5.36558,"is_reserved":false,"is_disabled":false,"rental_uris":{"android":"levelo://app?vid=8c860539-0932-4c40-9811-69f99aeabe05","ios":"levelo://app?vid=8c860539-0932-4c40-9811-69f99aeabe05"},"vehicle_type_id":"4","last_reported":1739466377,"current_range_meters":17600,"station_id":"ce4bgs12rcd13ifvqcag","pricing_plan_id":"cebpf4jnsgd1na2vs0mg"},{"bike_id":"d587f65d-c9f6-4b19-bae9-25cb318e38a1","system_id":"levelo_inurba_marseille","lat":43.29273,"lon":5.36848,"is_reserved":false,"is_disabled":false,"rental_uris":{"android":"levelo://app?vid=d587f65d-c9f6-4b19-bae9-25cb318e38a1","ios":"levelo://app?vid=d587f65d-c9f6-4b19-bae9-25cb318e38a1"},"vehicle_type_id":"4","last_reported":1739466377,"current_range_meters":38800,"station_id":"ce4bhbp2rcd13ifvqesg","pricing_plan_id":"cebpf4jnsgd1na2vs0mg"},{"bike_id":"08a86ebb-b290-4f14-9520-6a5a716f26bd","system_id":"levelo_inurba_marseille","lat":43.23964,"lon":5.36635,"is_reserved":false,"is_disabled":false,"rental_uris":{"android":"levelo://app?vid=08a86ebb-b290-4f14-9520-6a5a716f26bd","ios":"levelo://app?vid=08a86ebb-b290-4f14-9520-6a5a716f26bd"},"vehicle_type_id":"4","last_reported":1739466377,"current_range_meters":38800,"station_id":"ce4bhi12rcd13ifvqfp0","pricing_plan_id":"cebpf4jnsgd1na2vs0mg"},{"bike_id":"4164c166-a1a5-4a45-86f3-e094e69b576e","system_id":"levelo_inurba_marseille","lat":43.29679,"lon":5.37304,"is_reserved":false,"is_disabled":false,"rental_uris":{"android":"levelo://app?vid=4164c166-a1a5-4a45-86f3-e094e69b576e","ios":"levelo://app?vid=4164c166-a1a5-4a45-86f3-e094e69b576e"},"vehicle_type_id":"4","last_reported":1739466377,"current_range_meters":38000,"station_id":"ce4bgk12rcd13ifvqbj0","pricing_plan_id":"cebpf4jnsgd1na2vs0mg"},{"bike_id":"23849fcd-4bc4-44f6-8337-e9a9a16fe0e7","system_id":"levelo_inurba_marseille","lat":43.29729,"lon":5.4795,"is_reserved":false,"is_disabled":false,"rental_uris":{"android":"levelo://app?vid=23849fcd-4bc4-44f6-8337-e9a9a16fe0e7","ios":"levelo://app?vid=23849fcd-4bc4-44f6-8337-e9a9a16fe0e7"},"vehicle_type_id":"4","last_reported":1739466377,"current_range_meters":8000,"station_id":"","pricing_plan_id":"cebpf4jnsgd1na2vs0mg"},{"bike_id":"fe02ae05-699c-4f05-a53d-04396c4b1391","system_id":"levelo_inurba_marseille","lat":43.29418,"lon":5.38623,"is_reserved":false,"is_disabled":false,"rental_uris":{"android":"levelo://app?vid=fe02ae05-699c-4f05-a53d-04396c4b1391","ios":"levelo://app?vid=fe02ae05-699c-4f05-a53d-04396c4b1391"},"vehicle_type_id":"4","last_reported":1739466377,"current_range_meters":38800,"station_id":"ce4bh2h2rcd13ifvqdh0","pricing_plan_id":"cebpf4jnsgd1na2vs0mg"},{"bike_id":"9bf2f573-745e-4706-90bd-2adcd42eaa3a","system_id":"levelo_inurba_marseille","lat":43.29978,"lon":5.38488,"is_reserved":false,"is_disabled":true,"rental_uris":{"android":"levelo://app?vid=9bf2f573-745e-4706-90bd-2adcd42eaa3a","ios":"levelo://app?vid=9bf2f573-745e-4706-90bd-2adcd42eaa3a"},"vehicle_type_id":"4","last_reported":1739466377,"current_range_meters":1200,"station_id":"ce4bgj92rcd13ifvqbd0","pricing_plan_id":"cebpf4jnsgd1na2vs0mg"},{"bike_id":"1f84712b-5242-428d-8c9a-77198073a7b1","system_id":"levelo_inurba_marseille","lat":43.2885,"lon":5.35852,"is_reserved":false,"is_disabled":false,"rental_uris":{"android":"levelo://app?vid=1f84712b-5242-428d-8c9a-77198073a7b1","ios":"levelo://app?vid=1f84712b-5242-428d-8c9a-77198073a7b1"},"vehicle_type_id":"4","last_reported":1739466377,"current_range_meters":22400,"station_id":"ce4bhb12rcd13ifvqem0","pricing_plan_id":"cebpf4jnsgd1na2vs0mg"},{"bike_id":"6cfbf51a-4ec4-4b50-afa2-a58eb7355bc4","system_id":"levelo_inurba_marseille","lat":43.32727,"lon":5.39156,"is_reserved":false,"is_disabled":false,"rental_uris":{"android":"levelo://app?vid=6cfbf51a-4ec4-4b50-afa2-a58eb7355bc4","ios":"levelo://app?vid=6cfbf51a-4ec4-4b50-afa2-a58eb7355bc4"},"vehicle_type_id":"4","last_reported":1739466377,"current_range_meters":26800,"station_id":"","pricing_plan_id":"cebpf4jnsgd1na2vs0mg"},{"bike_id":"01ecade8-42d0-4557-a2fb-d9f8cac78f27","system_id":"levelo_inurba_marseille","lat":43.2306,"lon":5.35486,"is_reserved":false,"is_disabled":false,"rental_uris":{"android":"levelo://app?vid=01ecade8-42d0-4557-a2fb-d9f8cac78f27","ios":"levelo://app?vid=01ecade8-42d0-4557-a2fb-d9f8cac78f27"},"vehicle_type_id":"4","last_reported":1739466377,"current_range_meters":9200,"station_id":"cpo3342slgdg3j2ifvpg","pricing_plan_id":"cebpf4jnsgd1na2vs0mg"},{"bike_id":"39caa847-b837-4440-a510-689edd01525f","system_id":"levelo_inurba_marseille","lat":43.23961,"lon":5.36635,"is_reserved":false,"is_disabled":false,"rental_uris":{"android":"levelo://app?vid=39caa847-b837-4440-a510-689edd01525f","ios":"levelo://app?vid=39caa847-b837-4440-a510-689edd01525f"},"vehicle_type_id":"4","last_reported":1739466377,"current_range_meters":24400,"station_id":"ce4bhi12rcd13ifvqfp0","pricing_plan_id":"cebpf4jnsgd1na2vs0mg"},{"bike_id":"90069231-8d02-46fd-ba3f-d8e7e83900ee","system_id":"levelo_inurba_marseille","lat":43.28833,"lon":5.43794,"is_reserved":false,"is_disabled":true,"rental_uris":{"android":"levelo://app?vid=90069231-8d02-46fd-ba3f-d8e7e83900ee","ios":"levelo://app?vid=90069231-8d02-46fd-ba3f-d8e7e83900ee"},"vehicle_type_id":"4","last_reported":1739466377,"current_range_meters":0,"station_id":"","pricing_plan_id":"cebpf4jnsgd1na2vs0mg"},{"bike_id":"9d249881-5a15-4231-8a5b-9e0b021f19d2","system_id":"levelo_inurba_marseille","lat":43.27941,"lon":5.38694,"is_reserved":false,"is_disabled":true,"rental_uris":{"android":"levelo://app?vid=9d249881-5a15-4231-8a5b-9e0b021f19d2","ios":"levelo://app?vid=9d249881-5a15-4231-8a5b-9e0b021f19d2"},"vehicle_type_id":"4","last_reported":1739466377,"current_range_meters":35600,"station_id":"","pricing_plan_id":"cebpf4jnsgd1na2vs0mg"},{"bike_id":"125198e8-9259-4d5f-825e-e541c5abc53f","system_id":"levelo_inurba_marseille","lat":43.28074,"lon":5.39664,"is_reserved":false,"is_disabled":false,"rental_uris":{"android":"levelo://app?vid=125198e8-9259-4d5f-825e-e541c5abc53f","ios":"levelo://app?vid=125198e8-9259-4d5f-825e-e541c5abc53f"},"vehicle_type_id":"4","last_reported":1739466377,"current_range_meters":24000,"station_id":"ce4bho12rcd13ifvqh2g","pricing_plan_id":"cebpf4jnsgd1na2vs0mg"},{"bike_id":"85229555-2148-432b-bd32-267216d249f2","system_id":"levelo_inurba_marseille","lat":43.23148,"lon":5.43711,"is_reserved":false,"is_disabled":false,"rental_uris":{"android":"levelo://app?vid=85229555-2148-432b-bd32-267216d249f2","ios":"levelo://app?vid=85229555-2148-432b-bd32-267216d249f2"},"vehicle_type_id":"4","last_reported":1739466377,"current_range_meters":6000,"station_id":"ce4bhmp2rcd13ifvqgog","pricing_plan_id":"cebpf4jnsgd1na2vs0mg"},{"bike_id":"1197363b-8b66-4a7f-a57b-5c2dad4c9493","system_id":"levelo_inurba_marseille","lat":43.29621,"lon":5.37176,"is_reserved":false,"is_disabled":false,"rental_uris":{"android":"levelo://app?vid=1197363b-8b66-4a7f-a57b-5c2dad4c9493","ios":"levelo://app?vid=1197363b-8b66-4a7f-a57b-5c2dad4c9493"},"vehicle_type_id":"4","last_reported":1739466377,"current_range_meters":27600,"station_id":"ce4bgnh2rcd13ifvqc0g","pricing_plan_id":"cebpf4jnsgd1na2vs0mg"},{"bike_id":"1739bcfd-3cfe-46fa-bed1-d5d83b6ff884","system_id":"levelo_inurba_marseille","lat":43.30427,"lon":5.38878,"is_reserved":false,"is_disabled":false,"rental_uris":{"android":"levelo://app?vid=1739bcfd-3cfe-46fa-bed1-d5d83b6ff884","ios":"levelo://app?vid=1739bcfd-3cfe-46fa-bed1-d5d83b6ff884"},"vehicle_type_id":"4","last_reported":1739466377,"current_range_meters":16400,"station_id":"ce4bgk12rcd13ifvqbi0","pricing_plan_id":"cebpf4jnsgd1na2vs0mg"},{"bike_id":"5ba692ca-1f7c-4427-972b-1702aa0bf993","system_id":"levelo_inurba_marseille","lat":43.2792,"lon":5.39583,"is_reserved":false,"is_disabled":false,"rental_uris":{"android":"levelo://app?vid=5ba692ca-1f7c-4427-972b-1702aa0bf993","ios":"levelo://app?vid=5ba692ca-1f7c-4427-972b-1702aa0bf993"},"vehicle_type_id":"4","last_reported":1739466377,"current_range_meters":38400,"station_id":"ce4bhf92rcd13ifvqf40","pricing_plan_id":"cebpf4jnsgd1na2vs0mg"},{"bike_id":"a4f49b8e-6fa6-4ce8-94d9-b820ebb10ac6","system_id":"levelo_inurba_marseille","lat":43.29514,"lon":5.37515,"is_reserved":false,"is_disabled":false,"rental_uris":{"android":"levelo://app?vid=a4f49b8e-6fa6-4ce8-94d9-b820ebb10ac6","ios":"levelo://app?vid=a4f49b8e-6fa6-4ce8-94d9-b820ebb10ac6"},"vehicle_type_id":"4","last_reported":1739466377,"current_range_meters":17200,"station_id":"ce4bgkp2rcd13ifvqbmg","pricing_plan_id":"cebpf4jnsgd1na2vs0mg"},{"bike_id":"4bac268b-ce13-4a2d-bdb5-ae4d878f414a","system_id":"levelo_inurba_marseille","lat":43.2848,"lon":5.38429,"is_reserved":false,"is_disabled":false,"rental_uris":{"android":"levelo://app?vid=4bac268b-ce13-4a2d-bdb5-ae4d878f414a","ios":"levelo://app?vid=4bac268b-ce13-4a2d-bdb5-ae4d878f414a"},"vehicle_type_id":"4","last_reported":1739466377,"current_range_meters":28400,"station_id":"ce4bh512rcd13ifvqe3g","pricing_plan_id":"cebpf4jnsgd1na2vs0mg"},{"bike_id":"3f98a573-5966-4d31-8fa6-038a7ef02869","system_id":"levelo_inurba_marseille","lat":43.27616,"lon":5.36105,"is_reserved":false,"is_disabled":false,"rental_uris":{"android":"levelo://app?vid=3f98a573-5966-4d31-8fa6-038a7ef02869","ios":"levelo://app?vid=3f98a573-5966-4d31-8fa6-038a7ef02869"},"vehicle_type_id":"4","last_reported":1739466377,"current_range_meters":38800,"station_id":"ce4bgj92rcd13ifvqbe0","pricing_plan_id":"cebpf4jnsgd1na2vs0mg"},{"bike_id":"93127b1f-0e2f-41db-8d01-81820d32e24b","system_id":"levelo_inurba_marseille","lat":43.25496,"lon":5.37648,"is_reserved":false,"is_disabled":false,"rental_uris":{"android":"levelo://app?vid=93127b1f-0e2f-41db-8d01-81820d32e24b","ios":"levelo://app?vid=93127b1f-0e2f-41db-8d01-81820d32e24b"},"vehicle_type_id":"4","last_reported":1739466377,"current_range_meters":38800,"station_id":"ce4bhh12rcd13ifvqff0","pricing_plan_id":"cebpf4jnsgd1na2vs0mg"},{"bike_id":"53f8705c-fe16-48e7-b434-264de6ead598","system_id":"levelo_inurba_marseille","lat":43.248065,"lon":5.37457,"is_reserved":false,"is_disabled":false,"rental_uris":{"android":"levelo://app?vid=53f8705c-fe16-48e7-b434-264de6ead598","ios":"levelo://app?vid=53f8705c-fe16-48e7-b434-264de6ead598"},"vehicle_type_id":"4","last_reported":1739466377,"current_range_meters":38400,"station_id":"ce4bhgh2rcd13ifvqfb0","pricing_plan_id":"cebpf4jnsgd1na2vs0mg"},{"bike_id":"7b35ec91-75d0-476a-8303-ae83c6d3cb50","system_id":"levelo_inurba_marseille","lat":43.2481,"lon":5.3746,"is_reserved":false,"is_disabled":false,"rental_uris":{"android":"levelo://app?vid=7b35ec91-75d0-476a-8303-ae83c6d3cb50","ios":"levelo://app?vid=7b35ec91-75d0-476a-8303-ae83c6d3cb50"},"vehicle_type_id":"4","last_reported":1739466377,"current_range_meters":38800,"station_id":"ce4bhgh2rcd13ifvqfb0","pricing_plan_id":"cebpf4jnsgd1na2vs0mg"},{"bike_id":"a1828237-e159-49bf-b3ea-6e0af9f0d43c","system_id":"levelo_inurba_marseille","lat":43.30422,"lon":5.41293,"is_reserved":false,"is_disabled":false,"rental_uris":{"android":"levelo://app?vid=a1828237-e159-49bf-b3ea-6e0af9f0d43c","ios":"levelo://app?vid=a1828237-e159-49bf-b3ea-6e0af9f0d43c"},"vehicle_type_id":"4","last_reported":1739466377,"current_range_meters":24000,"station_id":"ce4bhop2rcd13ifvqh8g","pricing_plan_id":"cebpf4jnsgd1na2vs0mg"},{"bike_id":"60b4b24c-997c-42e2-b2f9-ef7d673c1e51","system_id":"levelo_inurba_marseille","lat":43.28464,"lon":5.35886,"is_reserved":false,"is_disabled":false,"rental_uris":{"android":"levelo://app?vid=60b4b24c-997c-42e2-b2f9-ef7d673c1e51","ios":"levelo://app?vid=60b4b24c-997c-42e2-b2f9-ef7d673c1e51"},"vehicle_type_id":"4","last_reported":1739466377,"current_range_meters":28000,"station_id":"ce4bhah2rcd13ifvqei0","pricing_plan_id":"cebpf4jnsgd1na2vs0mg"},{"bike_id":"119493b9-b330-4574-84ed-b44c8ea583c4","system_id":"levelo_inurba_marseille","lat":43.29622,"lon":5.37169,"is_reserved":false,"is_disabled":false,"rental_uris":{"android":"levelo://app?vid=119493b9-b330-4574-84ed-b44c8ea583c4","ios":"levelo://app?vid=119493b9-b330-4574-84ed-b44c8ea583c4"},"vehicle_type_id":"4","last_reported":1739466377,"current_range_meters":24800,"station_id":"ce4bgnh2rcd13ifvqc0g","pricing_plan_id":"cebpf4jnsgd1na2vs0mg"},{"bike_id":"ea70c6b3-ff74-4978-bd3c-0b81770bef9d","system_id":"levelo_inurba_marseille","lat":43.2868,"lon":5.38666,"is_reserved":false,"is_disabled":false,"rental_uris":{"android":"levelo://app?vid=ea70c6b3-ff74-4978-bd3c-0b81770bef9d","ios":"levelo://app?vid=ea70c6b3-ff74-4978-bd3c-0b81770bef9d"},"vehicle_type_id":"4","last_reported":1739466377,"current_range_meters":27200,"station_id":"ce4bh492rcd13ifvqdug","pricing_plan_id":"cebpf4jnsgd1na2vs0mg"},{"bike_id":"c2250f20-2283-4e17-b7ce-382f2f740aa1","system_id":"levelo_inurba_marseille","lat":43.24802,"lon":5.37447,"is_reserved":false,"is_disabled":false,"rental_uris":{"android":"levelo://app?vid=c2250f20-2283-4e17-b7ce-382f2f740aa1","ios":"levelo://app?vid=c2250f20-2283-4e17-b7ce-382f2f740aa1"},"vehicle_type_id":"4","last_reported":1739466377,"current_range_meters":38800,"station_id":"ce4bhgh2rcd13ifvqfb0","pricing_plan_id":"cebpf4jnsgd1na2vs0mg"},{"bike_id":"4d77db09-905c-49b4-96d1-a6c7bd4303b6","system_id":"levelo_inurba_marseille","lat":43.27378,"lon":5.3625,"is_reserved":false,"is_disabled":false,"rental_uris":{"android":"levelo://app?vid=4d77db09-905c-49b4-96d1-a6c7bd4303b6","ios":"levelo://app?vid=4d77db09-905c-49b4-96d1-a6c7bd4303b6"},"vehicle_type_id":"4","last_reported":1739466377,"current_range_meters":33600,"station_id":"ce4bhbh2rcd13ifvqeo0","pricing_plan_id":"cebpf4jnsgd1na2vs0mg"},{"bike_id":"28009cd7-9fb1-4e34-972d-5c14c0197596","system_id":"levelo_inurba_marseille","lat":43.29569,"lon":5.37519,"is_reserved":false,"is_disabled":false,"rental_uris":{"android":"levelo://app?vid=28009cd7-9fb1-4e34-972d-5c14c0197596","ios":"levelo://app?vid=28009cd7-9fb1-4e34-972d-5c14c0197596"},"vehicle_type_id":"4","last_reported":1739466377,"current_range_meters":4000,"station_id":"ce4bgh92rcd13ifvqb50","pricing_plan_id":"cebpf4jnsgd1na2vs0mg"},{"bike_id":"79e5ad63-abd5-4d07-9e51-60dc9e7253cd","system_id":"levelo_inurba_marseille","lat":43.23194,"lon":5.39982,"is_reserved":false,"is_disabled":true,"rental_uris":{"android":"levelo://app?vid=79e5ad63-abd5-4d07-9e51-60dc9e7253cd","ios":"levelo://app?vid=79e5ad63-abd5-4d07-9e51-60dc9e7253cd"},"vehicle_type_id":"4","last_reported":1739466377,"current_range_meters":0,"station_id":"ce4bhn12rcd13ifvqgqg","pricing_plan_id":"cebpf4jnsgd1na2vs0mg"},{"bike_id":"492e558b-0ce5-4984-b6b1-1d33f225a96b","system_id":"levelo_inurba_marseille","lat":43.2416,"lon":5.36413,"is_reserved":false,"is_disabled":false,"rental_uris":{"android":"levelo://app?vid=492e558b-0ce5-4984-b6b1-1d33f225a96b","ios":"levelo://app?vid=492e558b-0ce5-4984-b6b1-1d33f225a96b"},"vehicle_type_id":"4","last_reported":1739466377,"current_range_meters":38800,"station_id":"cpo36qri1sfpv3e86is0","pricing_plan_id":"cebpf4jnsgd1na2vs0mg"},{"bike_id":"6bf99e3e-9f10-4617-93f9-2e16108e33a0","system_id":"levelo_inurba_marseille","lat":43.23164,"lon":5.43724,"is_reserved":false,"is_disabled":true,"rental_uris":{"android":"levelo://app?vid=6bf99e3e-9f10-4617-93f9-2e16108e33a0","ios":"levelo://app?vid=6bf99e3e-9f10-4617-93f9-2e16108e33a0"},"vehicle_type_id":"4","last_reported":1739466377,"current_range_meters":0,"station_id":"ce4bhmp2rcd13ifvqgog","pricing_plan_id":"cebpf4jnsgd1na2vs0mg"},{"bike_id":"5e97fd93-8ffa-4229-83a7-a7217a5a534d","system_id":"levelo_inurba_marseille","lat":43.2906,"lon":5.3716,"is_reserved":false,"is_disabled":false,"rental_uris":{"android":"levelo://app?vid=5e97fd93-8ffa-4229-83a7-a7217a5a534d","ios":"levelo://app?vid=5e97fd93-8ffa-4229-83a7-a7217a5a534d"},"vehicle_type_id":"4","last_reported":1739466377,"current_range_meters":28800,"station_id":"ce4bh5p2rcd13ifvqe4g","pricing_plan_id":"cebpf4jnsgd1na2vs0mg"},{"bike_id":"069b441a-3fd9-4959-8a02-ec410f21c709","system_id":"levelo_inurba_marseille","lat":43.2894,"lon":5.36641,"is_reserved":false,"is_disabled":false,"rental_uris":{"android":"levelo://app?vid=069b441a-3fd9-4959-8a02-ec410f21c709","ios":"levelo://app?vid=069b441a-3fd9-4959-8a02-ec410f21c709"},"vehicle_type_id":"4","last_reported":1739466377,"current_range_meters":16000,"station_id":"ce4bhap2rcd13ifvqek0","pricing_plan_id":"cebpf4jnsgd1na2vs0mg"},{"bike_id":"88cb6614-3e42-4226-9296-cda54470105d","system_id":"levelo_inurba_marseille","lat":43.30555,"lon":5.36538,"is_reserved":false,"is_disabled":false,"rental_uris":{"android":"levelo://app?vid=88cb6614-3e42-4226-9296-cda54470105d","ios":"levelo://app?vid=88cb6614-3e42-4226-9296-cda54470105d"},"vehicle_type_id":"4","last_reported":1739466377,"current_range_meters":9600,"station_id":"ce4bgs12rcd13ifvqcag","pricing_plan_id":"cebpf4jnsgd1na2vs0mg"},{"bike_id":"44e31346-cf4f-4253-94a3-f3e02c1543d0","system_id":"levelo_inurba_marseille","lat":43.24811,"lon":5.37454,"is_reserved":false,"is_disabled":false,"rental_uris":{"android":"levelo://app?vid=44e31346-cf4f-4253-94a3-f3e02c1543d0","ios":"levelo://app?vid=44e31346-cf4f-4253-94a3-f3e02c1543d0"},"vehicle_type_id":"4","last_reported":1739466377,"current_range_meters":6800,"station_id":"ce4bhgh2rcd13ifvqfb0","pricing_plan_id":"cebpf4jnsgd1na2vs0mg"},{"bike_id":"ff489825-db76-49d3-aa98-c1c0aaa6bdad","system_id":"levelo_inurba_marseille","lat":43.29248,"lon":5.36669,"is_reserved":false,"is_disabled":false,"rental_uris":{"android":"levelo://app?vid=ff489825-db76-49d3-aa98-c1c0aaa6bdad","ios":"levelo://app?vid=ff489825-db76-49d3-aa98-c1c0aaa6bdad"},"vehicle_type_id":"4","last_reported":1739466377,"current_range_meters":8800,"station_id":"","pricing_plan_id":"cebpf4jnsgd1na2vs0mg"},{"bike_id":"698f19bd-1f39-41be-841c-c9f642655696","system_id":"levelo_inurba_marseille","lat":43.29426,"lon":5.38618,"is_reserved":false,"is_disabled":false,"rental_uris":{"android":"levelo://app?vid=698f19bd-1f39-41be-841c-c9f642655696","ios":"levelo://app?vid=698f19bd-1f39-41be-841c-c9f642655696"},"vehicle_type_id":"4","last_reported":1739466377,"current_range_meters":36800,"station_id":"ce4bh2h2rcd13ifvqdh0","pricing_plan_id":"cebpf4jnsgd1na2vs0mg"},{"bike_id":"b05188c1-c27a-4360-a55b-799ca6e034cf","system_id":"levelo_inurba_marseille","lat":43.28042,"lon":5.36929,"is_reserved":false,"is_disabled":false,"rental_uris":{"android":"levelo://app?vid=b05188c1-c27a-4360-a55b-799ca6e034cf","ios":"levelo://app?vid=b05188c1-c27a-4360-a55b-799ca6e034cf"},"vehicle_type_id":"4","last_reported":1739466377,"current_range_meters":14000,"station_id":"ce4bha12rcd13ifvqef0","pricing_plan_id":"cebpf4jnsgd1na2vs0mg"},{"bike_id":"bace8bf9-f802-4769-a1ab-149feec80afe","system_id":"levelo_inurba_marseille","lat":43.28869,"lon":5.35832,"is_reserved":false,"is_disabled":false,"rental_uris":{"android":"levelo://app?vid=bace8bf9-f802-4769-a1ab-149feec80afe","ios":"levelo://app?vid=bace8bf9-f802-4769-a1ab-149feec80afe"},"vehicle_type_id":"4","last_reported":1739466377,"current_range_meters":10000,"station_id":"ce4bhb12rcd13ifvqem0","pricing_plan_id":"cebpf4jnsgd1na2vs0mg"},{"bike_id":"89f55c3f-887e-45d5-8035-c989ef5a5457","system_id":"levelo_inurba_marseille","lat":43.26199,"lon":5.37934,"is_reserved":false,"is_disabled":false,"rental_uris":{"android":"levelo://app?vid=89f55c3f-887e-45d5-8035-c989ef5a5457","ios":"levelo://app?vid=89f55c3f-887e-45d5-8035-c989ef5a5457"},"vehicle_type_id":"4","last_reported":1739466377,"current_range_meters":38000,"station_id":"ce4bhjp2rcd13ifvqg90","pricing_plan_id":"cebpf4jnsgd1na2vs0mg"},{"bike_id":"26de5054-7c43-4c9f-977c-5313481d109f","system_id":"levelo_inurba_marseille","lat":43.24152,"lon":5.39702,"is_reserved":false,"is_disabled":false,"rental_uris":{"android":"levelo://app?vid=26de5054-7c43-4c9f-977c-5313481d109f","ios":"levelo://app?vid=26de5054-7c43-4c9f-977c-5313481d109f"},"vehicle_type_id":"4","last_reported":1739466377,"current_range_meters":38800,"station_id":"ce4bhn12rcd13ifvqgpg","pricing_plan_id":"cebpf4jnsgd1na2vs0mg"},{"bike_id":"004dcd9f-fe33-47bd-93fa-19bdccc4b89f","system_id":"levelo_inurba_marseille","lat":43.251181,"lon":5.403092,"is_reserved":false,"is_disabled":false,"rental_uris":{"android":"levelo://app?vid=004dcd9f-fe33-47bd-93fa-19bdccc4b89f","ios":"levelo://app?vid=004dcd9f-fe33-47bd-93fa-19bdccc4b89f"},"vehicle_type_id":"4","last_reported":1739466377,"current_range_meters":34000,"station_id":"ce4bhm12rcd13ifvqgkg","pricing_plan_id":"cebpf4jnsgd1na2vs0mg"},{"bike_id":"4dbc26c6-2a15-45e7-b1cd-4e0586d88b2f","system_id":"levelo_inurba_marseille","lat":43.27373,"lon":5.36241,"is_reserved":false,"is_disabled":true,"rental_uris":{"android":"levelo://app?vid=4dbc26c6-2a15-45e7-b1cd-4e0586d88b2f","ios":"levelo://app?vid=4dbc26c6-2a15-45e7-b1cd-4e0586d88b2f"},"vehicle_type_id":"4","last_reported":1739466377,"current_range_meters":37600,"station_id":"ce4bhbh2rcd13ifvqeo0","pricing_plan_id":"cebpf4jnsgd1na2vs0mg"},{"bike_id":"2a8d5b38-12c7-43ca-969a-fe7b4ef5b359","system_id":"levelo_inurba_marseille","lat":43.31705,"lon":5.37766,"is_reserved":false,"is_disabled":true,"rental_uris":{"android":"levelo://app?vid=2a8d5b38-12c7-43ca-969a-fe7b4ef5b359","ios":"levelo://app?vid=2a8d5b38-12c7-43ca-969a-fe7b4ef5b359"},"vehicle_type_id":"4","last_reported":1739466377,"current_range_meters":2000,"station_id":"ce4bgth2rcd13ifvqch0","pricing_plan_id":"cebpf4jnsgd1na2vs0mg"},{"bike_id":"a59e99be-cf6e-447d-849c-8a9d713196dc","system_id":"levelo_inurba_marseille","lat":43.29909,"lon":5.43647,"is_reserved":false,"is_disabled":false,"rental_uris":{"android":"levelo://app?vid=a59e99be-cf6e-447d-849c-8a9d713196dc","ios":"levelo://app?vid=a59e99be-cf6e-447d-849c-8a9d713196dc"},"vehicle_type_id":"4","last_reported":1739466377,"current_range_meters":38800,"station_id":"ce4bhpp2rcd13ifvqhfg","pricing_plan_id":"cebpf4jnsgd1na2vs0mg"},{"bike_id":"00f8a0ff-c4e3-42da-8103-f17cc4b1ba0d","system_id":"levelo_inurba_marseille","lat":43.28153,"lon":5.42631,"is_reserved":false,"is_disabled":false,"rental_uris":{"android":"levelo://app?vid=00f8a0ff-c4e3-42da-8103-f17cc4b1ba0d","ios":"levelo://app?vid=00f8a0ff-c4e3-42da-8103-f17cc4b1ba0d"},"vehicle_type_id":"4","last_reported":1739466377,"current_range_meters":22000,"station_id":"ce4bhnh2rcd13ifvqgug","pricing_plan_id":"cebpf4jnsgd1na2vs0mg"},{"bike_id":"d7211194-703e-4d7b-b1fc-6a1467a41aa6","system_id":"levelo_inurba_marseille","lat":43.28029,"lon":5.36938,"is_reserved":false,"is_disabled":false,"rental_uris":{"android":"levelo://app?vid=d7211194-703e-4d7b-b1fc-6a1467a41aa6","ios":"levelo://app?vid=d7211194-703e-4d7b-b1fc-6a1467a41aa6"},"vehicle_type_id":"4","last_reported":1739466377,"current_range_meters":38800,"station_id":"ce4bha12rcd13ifvqef0","pricing_plan_id":"cebpf4jnsgd1na2vs0mg"},{"bike_id":"5429a055-5c17-4863-ac08-ee7234bc7af8","system_id":"levelo_inurba_marseille","lat":43.32268,"lon":5.36839,"is_reserved":false,"is_disabled":false,"rental_uris":{"android":"levelo://app?vid=5429a055-5c17-4863-ac08-ee7234bc7af8","ios":"levelo://app?vid=5429a055-5c17-4863-ac08-ee7234bc7af8"},"vehicle_type_id":"4","last_reported":1739466377,"current_range_meters":38800,"station_id":"","pricing_plan_id":"cebpf4jnsgd1na2vs0mg"},{"bike_id":"891b5235-d570-4a76-86be-74a0648f4828","system_id":"levelo_inurba_marseille","lat":43.29855,"lon":5.36285,"is_reserved":false,"is_disabled":false,"rental_uris":{"android":"levelo://app?vid=891b5235-d570-4a76-86be-74a0648f4828","ios":"levelo://app?vid=891b5235-d570-4a76-86be-74a0648f4828"},"vehicle_type_id":"4","last_reported":1739466377,"current_range_meters":38800,"station_id":"ce4bgpp2rcd13ifvqc3g","pricing_plan_id":"cebpf4jnsgd1na2vs0mg"},{"bike_id":"acc39daa-3a4d-4c95-b5a8-16360a611402","system_id":"levelo_inurba_marseille","lat":43.29636,"lon":5.37158,"is_reserved":false,"is_disabled":true,"rental_uris":{"android":"levelo://app?vid=acc39daa-3a4d-4c95-b5a8-16360a611402","ios":"levelo://app?vid=acc39daa-3a4d-4c95-b5a8-16360a611402"},"vehicle_type_id":"4","last_reported":1739466377,"current_range_meters":38400,"station_id":"ce4bgnh2rcd13ifvqc0g","pricing_plan_id":"cebpf4jnsgd1na2vs0mg"},{"bike_id":"0a6e8ca1-cefd-485c-bb0f-ec52d90f7fba","system_id":"levelo_inurba_marseille","lat":43.24388,"lon":5.37059,"is_reserved":false,"is_disabled":true,"rental_uris":{"android":"levelo://app?vid=0a6e8ca1-cefd-485c-bb0f-ec52d90f7fba","ios":"levelo://app?vid=0a6e8ca1-cefd-485c-bb0f-ec52d90f7fba"},"vehicle_type_id":"4","last_reported":1739466377,"current_range_meters":0,"station_id":"ce4bhhh2rcd13ifvqfk0","pricing_plan_id":"cebpf4jnsgd1na2vs0mg"},{"bike_id":"eea1a41f-cd18-4010-a314-2502ac665690","system_id":"levelo_inurba_marseille","lat":43.23195,"lon":5.35546,"is_reserved":false,"is_disabled":false,"rental_uris":{"android":"levelo://app?vid=eea1a41f-cd18-4010-a314-2502ac665690","ios":"levelo://app?vid=eea1a41f-cd18-4010-a314-2502ac665690"},"vehicle_type_id":"4","last_reported":1739466377,"current_range_meters":38800,"station_id":"ce4bhu92rcd13ifvqi70","pricing_plan_id":"cebpf4jnsgd1na2vs0mg"},{"bike_id":"759731dc-00f7-470d-b9c5-a4a912aa1318","system_id":"levelo_inurba_marseille","lat":43.29852,"lon":5.36283,"is_reserved":false,"is_disabled":false,"rental_uris":{"android":"levelo://app?vid=759731dc-00f7-470d-b9c5-a4a912aa1318","ios":"levelo://app?vid=759731dc-00f7-470d-b9c5-a4a912aa1318"},"vehicle_type_id":"4","last_reported":1739466377,"current_range_meters":11200,"station_id":"ce4bgpp2rcd13ifvqc3g","pricing_plan_id":"cebpf4jnsgd1na2vs0mg"},{"bike_id":"fb76287a-0e06-4576-9651-277a242824a6","system_id":"levelo_inurba_marseille","lat":43.27669,"lon":5.3887,"is_reserved":false,"is_disabled":false,"rental_uris":{"android":"levelo://app?vid=fb76287a-0e06-4576-9651-277a242824a6","ios":"levelo://app?vid=fb76287a-0e06-4576-9651-277a242824a6"},"vehicle_type_id":"4","last_reported":1739466377,"current_range_meters":35200,"station_id":"ce4bhi12rcd13ifvqfo0","pricing_plan_id":"cebpf4jnsgd1na2vs0mg"},{"bike_id":"971f9951-cad8-4d64-aee1-30948583f711","system_id":"levelo_inurba_marseille","lat":43.3247,"lon":5.36535,"is_reserved":false,"is_disabled":false,"rental_uris":{"android":"levelo://app?vid=971f9951-cad8-4d64-aee1-30948583f711","ios":"levelo://app?vid=971f9951-cad8-4d64-aee1-30948583f711"},"vehicle_type_id":"4","last_reported":1739466377,"current_range_meters":38800,"station_id":"ce4bhs12rcd13ifvqhvg","pricing_plan_id":"cebpf4jnsgd1na2vs0mg"},{"bike_id":"f85a6e49-f7bb-4683-b196-177426694447","system_id":"levelo_inurba_marseille","lat":43.30558,"lon":5.36541,"is_reserved":false,"is_disabled":false,"rental_uris":{"android":"levelo://app?vid=f85a6e49-f7bb-4683-b196-177426694447","ios":"levelo://app?vid=f85a6e49-f7bb-4683-b196-177426694447"},"vehicle_type_id":"4","last_reported":1739466377,"current_range_meters":38800,"station_id":"ce4bgs12rcd13ifvqcag","pricing_plan_id":"cebpf4jnsgd1na2vs0mg"},{"bike_id":"a8e8e9d7-b08f-47ed-81ff-965b5a99c25a","system_id":"levelo_inurba_marseille","lat":43.29801,"lon":5.40392,"is_reserved":false,"is_disabled":false,"rental_uris":{"android":"levelo://app?vid=a8e8e9d7-b08f-47ed-81ff-965b5a99c25a","ios":"levelo://app?vid=a8e8e9d7-b08f-47ed-81ff-965b5a99c25a"},"vehicle_type_id":"4","last_reported":1739466377,"current_range_meters":24000,"station_id":"ce4bh112rcd13ifvqd90","pricing_plan_id":"cebpf4jnsgd1na2vs0mg"},{"bike_id":"b08a08e8-7185-49f6-9af9-dfe57361e908","system_id":"levelo_inurba_marseille","lat":43.31884,"lon":5.4074,"is_reserved":false,"is_disabled":false,"rental_uris":{"android":"levelo://app?vid=b08a08e8-7185-49f6-9af9-dfe57361e908","ios":"levelo://app?vid=b08a08e8-7185-49f6-9af9-dfe57361e908"},"vehicle_type_id":"4","last_reported":1739466377,"current_range_meters":3200,"station_id":"ce4bhq12rcd13ifvqhig","pricing_plan_id":"cebpf4jnsgd1na2vs0mg"},{"bike_id":"64d3e1d3-a93d-48c7-a887-e10f8bc35e68","system_id":"levelo_inurba_marseille","lat":43.29294,"lon":5.36939,"is_reserved":false,"is_disabled":false,"rental_uris":{"android":"levelo://app?vid=64d3e1d3-a93d-48c7-a887-e10f8bc35e68","ios":"levelo://app?vid=64d3e1d3-a93d-48c7-a887-e10f8bc35e68"},"vehicle_type_id":"4","last_reported":1739466377,"current_range_meters":30000,"station_id":"","pricing_plan_id":"cebpf4jnsgd1na2vs0mg"},{"bike_id":"dd8d910b-32a1-4cb8-978b-834e19c09bb6","system_id":"levelo_inurba_marseille","lat":43.2721,"lon":5.39178,"is_reserved":false,"is_disabled":false,"rental_uris":{"android":"levelo://app?vid=dd8d910b-32a1-4cb8-978b-834e19c09bb6","ios":"levelo://app?vid=dd8d910b-32a1-4cb8-978b-834e19c09bb6"},"vehicle_type_id":"4","last_reported":1739466377,"current_range_meters":8400,"station_id":"ce4bhhp2rcd13ifvqfm0","pricing_plan_id":"cebpf4jnsgd1na2vs0mg"},{"bike_id":"eb74081f-8035-495f-a073-abb8444b5eb2","system_id":"levelo_inurba_marseille","lat":43.23964,"lon":5.36625,"is_reserved":false,"is_disabled":false,"rental_uris":{"android":"levelo://app?vid=eb74081f-8035-495f-a073-abb8444b5eb2","ios":"levelo://app?vid=eb74081f-8035-495f-a073-abb8444b5eb2"},"vehicle_type_id":"4","last_reported":1739466377,"current_range_meters":38400,"station_id":"ce4bhi12rcd13ifvqfp0","pricing_plan_id":"cebpf4jnsgd1na2vs0mg"},{"bike_id":"213e7ed3-b6c6-470c-8e37-ca6ffb58bff8","system_id":"levelo_inurba_marseille","lat":43.27504,"lon":5.42458,"is_reserved":false,"is_disabled":true,"rental_uris":{"android":"levelo://app?vid=213e7ed3-b6c6-470c-8e37-ca6ffb58bff8","ios":"levelo://app?vid=213e7ed3-b6c6-470c-8e37-ca6ffb58bff8"},"vehicle_type_id":"4","last_reported":1739466377,"current_range_meters":27600,"station_id":"ce4bhn92rcd13ifvqgrg","pricing_plan_id":"cebpf4jnsgd1na2vs0mg"},{"bike_id":"b0c294e2-53ff-4e2e-8031-0040bb07b330","system_id":"levelo_inurba_marseille","lat":43.26931,"lon":5.40237,"is_reserved":false,"is_disabled":false,"rental_uris":{"android":"levelo://app?vid=b0c294e2-53ff-4e2e-8031-0040bb07b330","ios":"levelo://app?vid=b0c294e2-53ff-4e2e-8031-0040bb07b330"},"vehicle_type_id":"4","last_reported":1739466377,"current_range_meters":30800,"station_id":"cjm6bp8fraef2m0cb0m0","pricing_plan_id":"cebpf4jnsgd1na2vs0mg"},{"bike_id":"855b369f-358b-4cb1-9a7c-f21e4db4f97e","system_id":"levelo_inurba_marseille","lat":43.28409,"lon":5.34985,"is_reserved":false,"is_disabled":false,"rental_uris":{"android":"levelo://app?vid=855b369f-358b-4cb1-9a7c-f21e4db4f97e","ios":"levelo://app?vid=855b369f-358b-4cb1-9a7c-f21e4db4f97e"},"vehicle_type_id":"4","last_reported":1739466377,"current_range_meters":36800,"station_id":"ce4bhbh2rcd13ifvqepg","pricing_plan_id":"cebpf4jnsgd1na2vs0mg"},{"bike_id":"05f87a07-acbd-444e-b96e-4ef85edf3d6d","system_id":"levelo_inurba_marseille","lat":43.28413,"lon":5.34988,"is_reserved":false,"is_disabled":false,"rental_uris":{"android":"levelo://app?vid=05f87a07-acbd-444e-b96e-4ef85edf3d6d","ios":"levelo://app?vid=05f87a07-acbd-444e-b96e-4ef85edf3d6d"},"vehicle_type_id":"4","last_reported":1739466377,"current_range_meters":25200,"station_id":"ce4bhbh2rcd13ifvqepg","pricing_plan_id":"cebpf4jnsgd1na2vs0mg"},{"bike_id":"1ec14052-2d33-4aa1-9ab8-58cc71db74d1","system_id":"levelo_inurba_marseille","lat":43.2417,"lon":5.36401,"is_reserved":false,"is_disabled":true,"rental_uris":{"android":"levelo://app?vid=1ec14052-2d33-4aa1-9ab8-58cc71db74d1","ios":"levelo://app?vid=1ec14052-2d33-4aa1-9ab8-58cc71db74d1"},"vehicle_type_id":"4","last_reported":1739466377,"current_range_meters":5600,"station_id":"cpo36qri1sfpv3e86is0","pricing_plan_id":"cebpf4jnsgd1na2vs0mg"},{"bike_id":"6e58a69c-2a4e-4c49-840d-6e728a603acb","system_id":"levelo_inurba_marseille","lat":43.23064,"lon":5.35509,"is_reserved":false,"is_disabled":false,"rental_uris":{"android":"levelo://app?vid=6e58a69c-2a4e-4c49-840d-6e728a603acb","ios":"levelo://app?vid=6e58a69c-2a4e-4c49-840d-6e728a603acb"},"vehicle_type_id":"4","last_reported":1739466377,"current_range_meters":38800,"station_id":"cpo3342slgdg3j2ifvpg","pricing_plan_id":"cebpf4jnsgd1na2vs0mg"},{"bike_id":"b8fd4424-87fa-4c36-8f07-401f72ba1c65","system_id":"levelo_inurba_marseille","lat":43.30194,"lon":5.36617,"is_reserved":false,"is_disabled":false,"rental_uris":{"android":"levelo://app?vid=b8fd4424-87fa-4c36-8f07-401f72ba1c65","ios":"levelo://app?vid=b8fd4424-87fa-4c36-8f07-401f72ba1c65"},"vehicle_type_id":"4","last_reported":1739466377,"current_range_meters":12000,"station_id":"ce4bgrh2rcd13ifvqc8g","pricing_plan_id":"cebpf4jnsgd1na2vs0mg"},{"bike_id":"4450d397-c7c4-4c68-aed9-fa811598c082","system_id":"levelo_inurba_marseille","lat":43.32547,"lon":5.36501,"is_reserved":false,"is_disabled":false,"rental_uris":{"android":"levelo://app?vid=4450d397-c7c4-4c68-aed9-fa811598c082","ios":"levelo://app?vid=4450d397-c7c4-4c68-aed9-fa811598c082"},"vehicle_type_id":"4","last_reported":1739466377,"current_range_meters":36400,"station_id":"","pricing_plan_id":"cebpf4jnsgd1na2vs0mg"},{"bike_id":"f6fd1a92-4c3d-4141-8485-3a04a859c228","system_id":"levelo_inurba_marseille","lat":43.2844,"lon":5.39199,"is_reserved":false,"is_disabled":false,"rental_uris":{"android":"levelo://app?vid=f6fd1a92-4c3d-4141-8485-3a04a859c228","ios":"levelo://app?vid=f6fd1a92-4c3d-4141-8485-3a04a859c228"},"vehicle_type_id":"4","last_reported":1739466377,"current_range_meters":25600,"station_id":"ce4bhoh2rcd13ifvqh5g","pricing_plan_id":"cebpf4jnsgd1na2vs0mg"},{"bike_id":"2ec2169e-42cb-4a6f-bc68-7e11dfdadb24","system_id":"levelo_inurba_marseille","lat":43.29624,"lon":5.37162,"is_reserved":false,"is_disabled":false,"rental_uris":{"android":"levelo://app?vid=2ec2169e-42cb-4a6f-bc68-7e11dfdadb24","ios":"levelo://app?vid=2ec2169e-42cb-4a6f-bc68-7e11dfdadb24"},"vehicle_type_id":"4","last_reported":1739466377,"current_range_meters":38000,"station_id":"ce4bgnh2rcd13ifvqc0g","pricing_plan_id":"cebpf4jnsgd1na2vs0mg"},{"bike_id":"a5d2308c-be9e-4604-b707-769f24a74edd","system_id":"levelo_inurba_marseille","lat":43.24649,"lon":5.38893,"is_reserved":false,"is_disabled":false,"rental_uris":{"android":"levelo://app?vid=a5d2308c-be9e-4604-b707-769f24a74edd","ios":"levelo://app?vid=a5d2308c-be9e-4604-b707-769f24a74edd"},"vehicle_type_id":"4","last_reported":1739466377,"current_range_meters":28400,"station_id":"ce4bhg12rcd13ifvqf60","pricing_plan_id":"cebpf4jnsgd1na2vs0mg"},{"bike_id":"04e79b02-26b7-408e-8d07-a04361b8a27a","system_id":"levelo_inurba_marseille","lat":43.23187,"lon":5.39982,"is_reserved":false,"is_disabled":false,"rental_uris":{"android":"levelo://app?vid=04e79b02-26b7-408e-8d07-a04361b8a27a","ios":"levelo://app?vid=04e79b02-26b7-408e-8d07-a04361b8a27a"},"vehicle_type_id":"4","last_reported":1739466377,"current_range_meters":39200,"station_id":"ce4bhn12rcd13ifvqgqg","pricing_plan_id":"cebpf4jnsgd1na2vs0mg"},{"bike_id":"36f543b1-d2df-48de-95a7-a602dcbe4bc7","system_id":"levelo_inurba_marseille","lat":43.30466,"lon":5.38217,"is_reserved":false,"is_disabled":false,"rental_uris":{"android":"levelo://app?vid=36f543b1-d2df-48de-95a7-a602dcbe4bc7","ios":"levelo://app?vid=36f543b1-d2df-48de-95a7-a602dcbe4bc7"},"vehicle_type_id":"4","last_reported":1739466377,"current_range_meters":16400,"station_id":"","pricing_plan_id":"cebpf4jnsgd1na2vs0mg"},{"bike_id":"eb5e9054-4fbb-4f0e-8b0f-f93c114a0aca","system_id":"levelo_inurba_marseille","lat":43.29426,"lon":5.38634,"is_reserved":false,"is_disabled":false,"rental_uris":{"android":"levelo://app?vid=eb5e9054-4fbb-4f0e-8b0f-f93c114a0aca","ios":"levelo://app?vid=eb5e9054-4fbb-4f0e-8b0f-f93c114a0aca"},"vehicle_type_id":"4","last_reported":1739466377,"current_range_meters":38000,"station_id":"ce4bh2h2rcd13ifvqdh0","pricing_plan_id":"cebpf4jnsgd1na2vs0mg"},{"bike_id":"0a92ec95-bb3f-4c58-a1e5-bb7704b1b93f","system_id":"levelo_inurba_marseille","lat":43.29024,"lon":5.38132,"is_reserved":false,"is_disabled":false,"rental_uris":{"android":"levelo://app?vid=0a92ec95-bb3f-4c58-a1e5-bb7704b1b93f","ios":"levelo://app?vid=0a92ec95-bb3f-4c58-a1e5-bb7704b1b93f"},"vehicle_type_id":"4","last_reported":1739466377,"current_range_meters":15200,"station_id":"ce4bh4p2rcd13ifvqe1g","pricing_plan_id":"cebpf4jnsgd1na2vs0mg"},{"bike_id":"db05031d-9ae9-450b-b775-75a85f2d86e5","system_id":"levelo_inurba_marseille","lat":43.29199,"lon":5.39325,"is_reserved":false,"is_disabled":false,"rental_uris":{"android":"levelo://app?vid=db05031d-9ae9-450b-b775-75a85f2d86e5","ios":"levelo://app?vid=db05031d-9ae9-450b-b775-75a85f2d86e5"},"vehicle_type_id":"4","last_reported":1739466377,"current_range_meters":38800,"station_id":"ce4bh192rcd13ifvqdd0","pricing_plan_id":"cebpf4jnsgd1na2vs0mg"},{"bike_id":"4266fe3d-0d82-4109-8132-4d001d476f5a","system_id":"levelo_inurba_marseille","lat":43.30465,"lon":5.37915,"is_reserved":false,"is_disabled":false,"rental_uris":{"android":"levelo://app?vid=4266fe3d-0d82-4109-8132-4d001d476f5a","ios":"levelo://app?vid=4266fe3d-0d82-4109-8132-4d001d476f5a"},"vehicle_type_id":"4","last_reported":1739466377,"current_range_meters":27600,"station_id":"ce4bgup2rcd13ifvqcn0","pricing_plan_id":"cebpf4jnsgd1na2vs0mg"},{"bike_id":"bbb6f758-ef12-4737-861c-2da510dfe0ae","system_id":"levelo_inurba_marseille","lat":43.29056,"lon":5.36972,"is_reserved":false,"is_disabled":false,"rental_uris":{"android":"levelo://app?vid=bbb6f758-ef12-4737-861c-2da510dfe0ae","ios":"levelo://app?vid=bbb6f758-ef12-4737-861c-2da510dfe0ae"},"vehicle_type_id":"4","last_reported":1739466377,"current_range_meters":35600,"station_id":"","pricing_plan_id":"cebpf4jnsgd1na2vs0mg"},{"bike_id":"e5705982-1f0d-446a-a285-10f4dc8fcc66","system_id":"levelo_inurba_marseille","lat":43.31486,"lon":5.37312,"is_reserved":false,"is_disabled":false,"rental_uris":{"android":"levelo://app?vid=e5705982-1f0d-446a-a285-10f4dc8fcc66","ios":"levelo://app?vid=e5705982-1f0d-446a-a285-10f4dc8fcc66"},"vehicle_type_id":"4","last_reported":1739466377,"current_range_meters":10800,"station_id":"ce4bgt12rcd13ifvqcd0","pricing_plan_id":"cebpf4jnsgd1na2vs0mg"},{"bike_id":"aaaeda1e-af35-4eca-a274-81d74c6d783d","system_id":"levelo_inurba_marseille","lat":43.26802,"lon":5.40265,"is_reserved":false,"is_disabled":false,"rental_uris":{"android":"levelo://app?vid=aaaeda1e-af35-4eca-a274-81d74c6d783d","ios":"levelo://app?vid=aaaeda1e-af35-4eca-a274-81d74c6d783d"},"vehicle_type_id":"4","last_reported":1739466377,"current_range_meters":6000,"station_id":"ce501612rcd8frsf0b60","pricing_plan_id":"cebpf4jnsgd1na2vs0mg"},{"bike_id":"52591901-7075-4154-8ec9-0dfca05a1446","system_id":"levelo_inurba_marseille","lat":43.32488,"lon":5.36577,"is_reserved":false,"is_disabled":false,"rental_uris":{"android":"levelo://app?vid=52591901-7075-4154-8ec9-0dfca05a1446","ios":"levelo://app?vid=52591901-7075-4154-8ec9-0dfca05a1446"},"vehicle_type_id":"4","last_reported":1739466377,"current_range_meters":38800,"station_id":"ce4bhs12rcd13ifvqhvg","pricing_plan_id":"cebpf4jnsgd1na2vs0mg"},{"bike_id":"d175f688-3355-429b-bb12-55ea48386ddc","system_id":"levelo_inurba_marseille","lat":43.28623,"lon":5.35102,"is_reserved":false,"is_disabled":false,"rental_uris":{"android":"levelo://app?vid=d175f688-3355-429b-bb12-55ea48386ddc","ios":"levelo://app?vid=d175f688-3355-429b-bb12-55ea48386ddc"},"vehicle_type_id":"4","last_reported":1739466377,"current_range_meters":14800,"station_id":"ce4bhch2rcd13ifvqeug","pricing_plan_id":"cebpf4jnsgd1na2vs0mg"},{"bike_id":"b1160fd2-a50a-4087-bf57-f0bd16a6614f","system_id":"levelo_inurba_marseille","lat":43.28853,"lon":5.39296,"is_reserved":false,"is_disabled":true,"rental_uris":{"android":"levelo://app?vid=b1160fd2-a50a-4087-bf57-f0bd16a6614f","ios":"levelo://app?vid=b1160fd2-a50a-4087-bf57-f0bd16a6614f"},"vehicle_type_id":"4","last_reported":1739466377,"current_range_meters":2000,"station_id":"ce4bh2p2rcd13ifvqdi0","pricing_plan_id":"cebpf4jnsgd1na2vs0mg"},{"bike_id":"77003980-bbb2-40fb-8cbb-41dc4c8b5b0c","system_id":"levelo_inurba_marseille","lat":43.29261,"lon":5.38447,"is_reserved":false,"is_disabled":false,"rental_uris":{"android":"levelo://app?vid=77003980-bbb2-40fb-8cbb-41dc4c8b5b0c","ios":"levelo://app?vid=77003980-bbb2-40fb-8cbb-41dc4c8b5b0c"},"vehicle_type_id":"4","last_reported":1739466377,"current_range_meters":17200,"station_id":"ce4bh692rcd13ifvqea0","pricing_plan_id":"cebpf4jnsgd1na2vs0mg"},{"bike_id":"ca60b2af-cce7-4290-adcc-eaec354c2c93","system_id":"levelo_inurba_marseille","lat":43.25005,"lon":5.38925,"is_reserved":false,"is_disabled":false,"rental_uris":{"android":"levelo://app?vid=ca60b2af-cce7-4290-adcc-eaec354c2c93","ios":"levelo://app?vid=ca60b2af-cce7-4290-adcc-eaec354c2c93"},"vehicle_type_id":"4","last_reported":1739466377,"current_range_meters":22400,"station_id":"ce4bhgp2rcd13ifvqfd0","pricing_plan_id":"cebpf4jnsgd1na2vs0mg"},{"bike_id":"15fdffcf-418e-415b-be87-a99e570eb199","system_id":"levelo_inurba_marseille","lat":43.23152,"lon":5.437,"is_reserved":false,"is_disabled":false,"rental_uris":{"android":"levelo://app?vid=15fdffcf-418e-415b-be87-a99e570eb199","ios":"levelo://app?vid=15fdffcf-418e-415b-be87-a99e570eb199"},"vehicle_type_id":"4","last_reported":1739466377,"current_range_meters":6400,"station_id":"ce4bhmp2rcd13ifvqgog","pricing_plan_id":"cebpf4jnsgd1na2vs0mg"},{"bike_id":"e4177987-ae80-45ee-9125-631b48c2141f","system_id":"levelo_inurba_marseille","lat":43.2937,"lon":5.37865,"is_reserved":false,"is_disabled":true,"rental_uris":{"android":"levelo://app?vid=e4177987-ae80-45ee-9125-631b48c2141f","ios":"levelo://app?vid=e4177987-ae80-45ee-9125-631b48c2141f"},"vehicle_type_id":"4","last_reported":1739466377,"current_range_meters":2000,"station_id":"ce4bgjh2rcd13ifvqbf0","pricing_plan_id":"cebpf4jnsgd1na2vs0mg"},{"bike_id":"7af63898-7452-47b8-8901-39831c6d129c","system_id":"levelo_inurba_marseille","lat":43.26937,"lon":5.40256,"is_reserved":false,"is_disabled":false,"rental_uris":{"android":"levelo://app?vid=7af63898-7452-47b8-8901-39831c6d129c","ios":"levelo://app?vid=7af63898-7452-47b8-8901-39831c6d129c"},"vehicle_type_id":"4","last_reported":1739466377,"current_range_meters":16400,"station_id":"cjm6bp8fraef2m0cb0m0","pricing_plan_id":"cebpf4jnsgd1na2vs0mg"},{"bike_id":"54ce597b-1ca1-4d62-923d-d4b29eec04b3","system_id":"levelo_inurba_marseille","lat":43.31131,"lon":5.38261,"is_reserved":false,"is_disabled":false,"rental_uris":{"android":"levelo://app?vid=54ce597b-1ca1-4d62-923d-d4b29eec04b3","ios":"levelo://app?vid=54ce597b-1ca1-4d62-923d-d4b29eec04b3"},"vehicle_type_id":"4","last_reported":1739466377,"current_range_meters":9600,"station_id":"","pricing_plan_id":"cebpf4jnsgd1na2vs0mg"},{"bike_id":"5900da6e-6ade-4e81-b9ef-ce2685f5a5b4","system_id":"levelo_inurba_marseille","lat":43.28848,"lon":5.39333,"is_reserved":false,"is_disabled":true,"rental_uris":{"android":"levelo://app?vid=5900da6e-6ade-4e81-b9ef-ce2685f5a5b4","ios":"levelo://app?vid=5900da6e-6ade-4e81-b9ef-ce2685f5a5b4"},"vehicle_type_id":"4","last_reported":1739466377,"current_range_meters":9600,"station_id":"ce4bh2p2rcd13ifvqdi0","pricing_plan_id":"cebpf4jnsgd1na2vs0mg"},{"bike_id":"16535c8e-86df-44d2-bf26-4b8c480963e9","system_id":"levelo_inurba_marseille","lat":43.29801,"lon":5.3811,"is_reserved":false,"is_disabled":true,"rental_uris":{"android":"levelo://app?vid=16535c8e-86df-44d2-bf26-4b8c480963e9","ios":"levelo://app?vid=16535c8e-86df-44d2-bf26-4b8c480963e9"},"vehicle_type_id":"4","last_reported":1739466377,"current_range_meters":2000,"station_id":"ce4bgip2rcd13ifvqbb0","pricing_plan_id":"cebpf4jnsgd1na2vs0mg"},{"bike_id":"82cc7838-4b5a-40fa-9f35-ce1cd1ae67e1","system_id":"levelo_inurba_marseille","lat":43.30099,"lon":5.37132,"is_reserved":false,"is_disabled":true,"rental_uris":{"android":"levelo://app?vid=82cc7838-4b5a-40fa-9f35-ce1cd1ae67e1","ios":"levelo://app?vid=82cc7838-4b5a-40fa-9f35-ce1cd1ae67e1"},"vehicle_type_id":"4","last_reported":1739466377,"current_range_meters":0,"station_id":"","pricing_plan_id":"cebpf4jnsgd1na2vs0mg"},{"bike_id":"69d91e60-c593-49fe-965c-5a109cf047e0","system_id":"levelo_inurba_marseille","lat":43.269085,"lon":5.403106,"is_reserved":false,"is_disabled":false,"rental_uris":{"android":"levelo://app?vid=69d91e60-c593-49fe-965c-5a109cf047e0","ios":"levelo://app?vid=69d91e60-c593-49fe-965c-5a109cf047e0"},"vehicle_type_id":"4","last_reported":1739466377,"current_range_meters":9600,"station_id":"cjm6bp8fraef2m0cb0m0","pricing_plan_id":"cebpf4jnsgd1na2vs0mg"},{"bike_id":"cb036aa9-fa3d-47c7-88ca-ac411cf8f324","system_id":"levelo_inurba_marseille","lat":43.29419,"lon":5.38625,"is_reserved":false,"is_disabled":false,"rental_uris":{"android":"levelo://app?vid=cb036aa9-fa3d-47c7-88ca-ac411cf8f324","ios":"levelo://app?vid=cb036aa9-fa3d-47c7-88ca-ac411cf8f324"},"vehicle_type_id":"4","last_reported":1739466377,"current_range_meters":20400,"station_id":"ce4bh2h2rcd13ifvqdh0","pricing_plan_id":"cebpf4jnsgd1na2vs0mg"},{"bike_id":"d63c2273-cc1e-4781-8548-ed6d7cf06580","system_id":"levelo_inurba_marseille","lat":43.2861,"lon":5.35103,"is_reserved":false,"is_disabled":true,"rental_uris":{"android":"levelo://app?vid=d63c2273-cc1e-4781-8548-ed6d7cf06580","ios":"levelo://app?vid=d63c2273-cc1e-4781-8548-ed6d7cf06580"},"vehicle_type_id":"4","last_reported":1739466377,"current_range_meters":0,"station_id":"ce4bhch2rcd13ifvqeug","pricing_plan_id":"cebpf4jnsgd1na2vs0mg"},{"bike_id":"9fac6217-de29-4cbf-8d15-8724164c7781","system_id":"levelo_inurba_marseille","lat":43.2807,"lon":5.39639,"is_reserved":false,"is_disabled":false,"rental_uris":{"android":"levelo://app?vid=9fac6217-de29-4cbf-8d15-8724164c7781","ios":"levelo://app?vid=9fac6217-de29-4cbf-8d15-8724164c7781"},"vehicle_type_id":"4","last_reported":1739466377,"current_range_meters":26000,"station_id":"ce4bho12rcd13ifvqh2g","pricing_plan_id":"cebpf4jnsgd1na2vs0mg"},{"bike_id":"3ba3cbca-6893-4caf-a02f-e74830c519e5","system_id":"levelo_inurba_marseille","lat":43.28406,"lon":5.3497,"is_reserved":false,"is_disabled":false,"rental_uris":{"android":"levelo://app?vid=3ba3cbca-6893-4caf-a02f-e74830c519e5","ios":"levelo://app?vid=3ba3cbca-6893-4caf-a02f-e74830c519e5"},"vehicle_type_id":"4","last_reported":1739466377,"current_range_meters":14000,"station_id":"ce4bhbh2rcd13ifvqepg","pricing_plan_id":"cebpf4jnsgd1na2vs0mg"},{"bike_id":"90cbaede-16fe-4d01-94b9-f749c2af8609","system_id":"levelo_inurba_marseille","lat":43.29072,"lon":5.37173,"is_reserved":false,"is_disabled":false,"rental_uris":{"android":"levelo://app?vid=90cbaede-16fe-4d01-94b9-f749c2af8609","ios":"levelo://app?vid=90cbaede-16fe-4d01-94b9-f749c2af8609"},"vehicle_type_id":"4","last_reported":1739466377,"current_range_meters":28000,"station_id":"ce4bh5p2rcd13ifvqe4g","pricing_plan_id":"cebpf4jnsgd1na2vs0mg"},{"bike_id":"3bfafe81-22be-4ef8-830c-9d59c43eb6b0","system_id":"levelo_inurba_marseille","lat":43.28419,"lon":5.3499,"is_reserved":false,"is_disabled":false,"rental_uris":{"android":"levelo://app?vid=3bfafe81-22be-4ef8-830c-9d59c43eb6b0","ios":"levelo://app?vid=3bfafe81-22be-4ef8-830c-9d59c43eb6b0"},"vehicle_type_id":"4","last_reported":1739466377,"current_range_meters":17200,"station_id":"ce4bhbh2rcd13ifvqepg","pricing_plan_id":"cebpf4jnsgd1na2vs0mg"},{"bike_id":"f9ec4e1e-d9c9-41ea-a970-083f7f0dc175","system_id":"levelo_inurba_marseille","lat":43.30551,"lon":5.36533,"is_reserved":false,"is_disabled":false,"rental_uris":{"android":"levelo://app?vid=f9ec4e1e-d9c9-41ea-a970-083f7f0dc175","ios":"levelo://app?vid=f9ec4e1e-d9c9-41ea-a970-083f7f0dc175"},"vehicle_type_id":"4","last_reported":1739466377,"current_range_meters":12000,"station_id":"ce4bgs12rcd13ifvqcag","pricing_plan_id":"cebpf4jnsgd1na2vs0mg"},{"bike_id":"d594772c-f06c-42db-b4eb-8c17a4b3b2bd","system_id":"levelo_inurba_marseille","lat":43.29634,"lon":5.3717,"is_reserved":false,"is_disabled":false,"rental_uris":{"android":"levelo://app?vid=d594772c-f06c-42db-b4eb-8c17a4b3b2bd","ios":"levelo://app?vid=d594772c-f06c-42db-b4eb-8c17a4b3b2bd"},"vehicle_type_id":"4","last_reported":1739466377,"current_range_meters":30800,"station_id":"ce4bgnh2rcd13ifvqc0g","pricing_plan_id":"cebpf4jnsgd1na2vs0mg"},{"bike_id":"14098fa1-b1b8-4245-afd0-0cc6af9ca025","system_id":"levelo_inurba_marseille","lat":43.31997,"lon":5.38155,"is_reserved":false,"is_disabled":false,"rental_uris":{"android":"levelo://app?vid=14098fa1-b1b8-4245-afd0-0cc6af9ca025","ios":"levelo://app?vid=14098fa1-b1b8-4245-afd0-0cc6af9ca025"},"vehicle_type_id":"4","last_reported":1739466377,"current_range_meters":18800,"station_id":"ce4bhr12rcd13ifvqhpg","pricing_plan_id":"cebpf4jnsgd1na2vs0mg"},{"bike_id":"eed51985-6abc-4136-9c70-f0994b322ee2","system_id":"levelo_inurba_marseille","lat":43.29421,"lon":5.38616,"is_reserved":false,"is_disabled":true,"rental_uris":{"android":"levelo://app?vid=eed51985-6abc-4136-9c70-f0994b322ee2","ios":"levelo://app?vid=eed51985-6abc-4136-9c70-f0994b322ee2"},"vehicle_type_id":"4","last_reported":1739466377,"current_range_meters":0,"station_id":"ce4bh2h2rcd13ifvqdh0","pricing_plan_id":"cebpf4jnsgd1na2vs0mg"},{"bike_id":"58ca8d36-3abf-4f9b-bf3f-e62ed0e7a978","system_id":"levelo_inurba_marseille","lat":43.2396,"lon":5.36628,"is_reserved":false,"is_disabled":false,"rental_uris":{"android":"levelo://app?vid=58ca8d36-3abf-4f9b-bf3f-e62ed0e7a978","ios":"levelo://app?vid=58ca8d36-3abf-4f9b-bf3f-e62ed0e7a978"},"vehicle_type_id":"4","last_reported":1739466377,"current_range_meters":28800,"station_id":"ce4bhi12rcd13ifvqfp0","pricing_plan_id":"cebpf4jnsgd1na2vs0mg"},{"bike_id":"05753aab-2a5e-492a-80c0-4434a5f0cd7d","system_id":"levelo_inurba_marseille","lat":43.29943,"lon":5.36545,"is_reserved":false,"is_disabled":false,"rental_uris":{"android":"levelo://app?vid=05753aab-2a5e-492a-80c0-4434a5f0cd7d","ios":"levelo://app?vid=05753aab-2a5e-492a-80c0-4434a5f0cd7d"},"vehicle_type_id":"4","last_reported":1739466377,"current_range_meters":38800,"station_id":"ce4bgm92rcd13ifvqbr0","pricing_plan_id":"cebpf4jnsgd1na2vs0mg"},{"bike_id":"d157203c-3a5b-4bbc-9638-6eefce740d5e","system_id":"levelo_inurba_marseille","lat":43.23185,"lon":5.35561,"is_reserved":false,"is_disabled":false,"rental_uris":{"android":"levelo://app?vid=d157203c-3a5b-4bbc-9638-6eefce740d5e","ios":"levelo://app?vid=d157203c-3a5b-4bbc-9638-6eefce740d5e"},"vehicle_type_id":"4","last_reported":1739466377,"current_range_meters":30400,"station_id":"ce4bhu92rcd13ifvqi70","pricing_plan_id":"cebpf4jnsgd1na2vs0mg"},{"bike_id":"9acb5333-5cf1-494e-915f-5f562bae0853","system_id":"levelo_inurba_marseille","lat":43.33748,"lon":5.3918,"is_reserved":false,"is_disabled":false,"rental_uris":{"android":"levelo://app?vid=9acb5333-5cf1-494e-915f-5f562bae0853","ios":"levelo://app?vid=9acb5333-5cf1-494e-915f-5f562bae0853"},"vehicle_type_id":"4","last_reported":1739466377,"current_range_meters":38800,"station_id":"ce4bhr92rcd13ifvqhsg","pricing_plan_id":"cebpf4jnsgd1na2vs0mg"},{"bike_id":"7527d218-02bb-4720-bba5-1e13099a263a","system_id":"levelo_inurba_marseille","lat":43.27972,"lon":5.38737,"is_reserved":false,"is_disabled":false,"rental_uris":{"android":"levelo://app?vid=7527d218-02bb-4720-bba5-1e13099a263a","ios":"levelo://app?vid=7527d218-02bb-4720-bba5-1e13099a263a"},"vehicle_type_id":"4","last_reported":1739466377,"current_range_meters":24400,"station_id":"ce4bhg12rcd13ifvqf80","pricing_plan_id":"cebpf4jnsgd1na2vs0mg"},{"bike_id":"2cea543f-f1b9-41fd-bc88-99c4a6cb8129","system_id":"levelo_inurba_marseille","lat":43.2319,"lon":5.35553,"is_reserved":false,"is_disabled":false,"rental_uris":{"android":"levelo://app?vid=2cea543f-f1b9-41fd-bc88-99c4a6cb8129","ios":"levelo://app?vid=2cea543f-f1b9-41fd-bc88-99c4a6cb8129"},"vehicle_type_id":"4","last_reported":1739466377,"current_range_meters":38800,"station_id":"ce4bhu92rcd13ifvqi70","pricing_plan_id":"cebpf4jnsgd1na2vs0mg"},{"bike_id":"df38d39b-8660-4776-8fce-5127376caf57","system_id":"levelo_inurba_marseille","lat":43.29415,"lon":5.38629,"is_reserved":false,"is_disabled":false,"rental_uris":{"android":"levelo://app?vid=df38d39b-8660-4776-8fce-5127376caf57","ios":"levelo://app?vid=df38d39b-8660-4776-8fce-5127376caf57"},"vehicle_type_id":"4","last_reported":1739466377,"current_range_meters":16000,"station_id":"ce4bh2h2rcd13ifvqdh0","pricing_plan_id":"cebpf4jnsgd1na2vs0mg"},{"bike_id":"22357605-22f9-4c7f-a011-3059b1fea57b","system_id":"levelo_inurba_marseille","lat":43.24648,"lon":5.38907,"is_reserved":false,"is_disabled":false,"rental_uris":{"android":"levelo://app?vid=22357605-22f9-4c7f-a011-3059b1fea57b","ios":"levelo://app?vid=22357605-22f9-4c7f-a011-3059b1fea57b"},"vehicle_type_id":"4","last_reported":1739466377,"current_range_meters":38800,"station_id":"ce4bhg12rcd13ifvqf60","pricing_plan_id":"cebpf4jnsgd1na2vs0mg"},{"bike_id":"25622700-94cb-40a3-84b5-b0015e736e5e","system_id":"levelo_inurba_marseille","lat":43.27375,"lon":5.36265,"is_reserved":false,"is_disabled":false,"rental_uris":{"android":"levelo://app?vid=25622700-94cb-40a3-84b5-b0015e736e5e","ios":"levelo://app?vid=25622700-94cb-40a3-84b5-b0015e736e5e"},"vehicle_type_id":"4","last_reported":1739466377,"current_range_meters":8400,"station_id":"ce4bhbh2rcd13ifvqeo0","pricing_plan_id":"cebpf4jnsgd1na2vs0mg"},{"bike_id":"d80860fa-7cf7-4ae7-befb-26e8065381a1","system_id":"levelo_inurba_marseille","lat":43.2319,"lon":5.35554,"is_reserved":false,"is_disabled":false,"rental_uris":{"android":"levelo://app?vid=d80860fa-7cf7-4ae7-befb-26e8065381a1","ios":"levelo://app?vid=d80860fa-7cf7-4ae7-befb-26e8065381a1"},"vehicle_type_id":"4","last_reported":1739466377,"current_range_meters":30000,"station_id":"ce4bhu92rcd13ifvqi70","pricing_plan_id":"cebpf4jnsgd1na2vs0mg"},{"bike_id":"31f84ddc-bf3b-4d1c-9d83-4ffb586bc67a","system_id":"levelo_inurba_marseille","lat":43.321025,"lon":5.367781,"is_reserved":false,"is_disabled":false,"rental_uris":{"android":"levelo://app?vid=31f84ddc-bf3b-4d1c-9d83-4ffb586bc67a","ios":"levelo://app?vid=31f84ddc-bf3b-4d1c-9d83-4ffb586bc67a"},"vehicle_type_id":"4","last_reported":1739466377,"current_range_meters":36800,"station_id":"ce4bhrh2rcd13ifvqhug","pricing_plan_id":"cebpf4jnsgd1na2vs0mg"},{"bike_id":"95bea59d-9508-4e5c-9462-a6eb2b05c299","system_id":"levelo_inurba_marseille","lat":43.32791,"lon":5.43341,"is_reserved":false,"is_disabled":false,"rental_uris":{"android":"levelo://app?vid=95bea59d-9508-4e5c-9462-a6eb2b05c299","ios":"levelo://app?vid=95bea59d-9508-4e5c-9462-a6eb2b05c299"},"vehicle_type_id":"4","last_reported":1739466377,"current_range_meters":36000,"station_id":"","pricing_plan_id":"cebpf4jnsgd1na2vs0mg"},{"bike_id":"2b18ac1c-4b04-46a4-bc5d-790d25d6a38e","system_id":"levelo_inurba_marseille","lat":43.279838,"lon":5.416673,"is_reserved":false,"is_disabled":false,"rental_uris":{"android":"levelo://app?vid=2b18ac1c-4b04-46a4-bc5d-790d25d6a38e","ios":"levelo://app?vid=2b18ac1c-4b04-46a4-bc5d-790d25d6a38e"},"vehicle_type_id":"4","last_reported":1739466377,"current_range_meters":12400,"station_id":"ce4bho12rcd13ifvqh1g","pricing_plan_id":"cebpf4jnsgd1na2vs0mg"},{"bike_id":"155c4364-a5d1-49ca-9686-c87e618cd2fb","system_id":"levelo_inurba_marseille","lat":43.27428,"lon":5.39419,"is_reserved":false,"is_disabled":false,"rental_uris":{"android":"levelo://app?vid=155c4364-a5d1-49ca-9686-c87e618cd2fb","ios":"levelo://app?vid=155c4364-a5d1-49ca-9686-c87e618cd2fb"},"vehicle_type_id":"4","last_reported":1739466377,"current_range_meters":33600,"station_id":"ce4bhdp2rcd13ifvqf20","pricing_plan_id":"cebpf4jnsgd1na2vs0mg"},{"bike_id":"b541e941-f096-4d74-82a1-d66a1e8875ae","system_id":"levelo_inurba_marseille","lat":43.28099,"lon":5.3784,"is_reserved":false,"is_disabled":false,"rental_uris":{"android":"levelo://app?vid=b541e941-f096-4d74-82a1-d66a1e8875ae","ios":"levelo://app?vid=b541e941-f096-4d74-82a1-d66a1e8875ae"},"vehicle_type_id":"4","last_reported":1739466377,"current_range_meters":26800,"station_id":"ce4bha12rcd13ifvqee0","pricing_plan_id":"cebpf4jnsgd1na2vs0mg"},{"bike_id":"b539a748-8199-43e7-83f3-9ebe36862717","system_id":"levelo_inurba_marseille","lat":43.27368,"lon":5.3626,"is_reserved":false,"is_disabled":false,"rental_uris":{"android":"levelo://app?vid=b539a748-8199-43e7-83f3-9ebe36862717","ios":"levelo://app?vid=b539a748-8199-43e7-83f3-9ebe36862717"},"vehicle_type_id":"4","last_reported":1739466377,"current_range_meters":38800,"station_id":"ce4bhbh2rcd13ifvqeo0","pricing_plan_id":"cebpf4jnsgd1na2vs0mg"},{"bike_id":"b927d3b6-dab4-4b7f-ba24-f89832514483","system_id":"levelo_inurba_marseille","lat":43.31731,"lon":5.42393,"is_reserved":false,"is_disabled":false,"rental_uris":{"android":"levelo://app?vid=b927d3b6-dab4-4b7f-ba24-f89832514483","ios":"levelo://app?vid=b927d3b6-dab4-4b7f-ba24-f89832514483"},"vehicle_type_id":"4","last_reported":1739466377,"current_range_meters":35200,"station_id":"ce4bhp92rcd13ifvqhbg","pricing_plan_id":"cebpf4jnsgd1na2vs0mg"},{"bike_id":"c55db8bb-e85a-4127-9950-4e338006950c","system_id":"levelo_inurba_marseille","lat":43.31084,"lon":5.42433,"is_reserved":false,"is_disabled":false,"rental_uris":{"android":"levelo://app?vid=c55db8bb-e85a-4127-9950-4e338006950c","ios":"levelo://app?vid=c55db8bb-e85a-4127-9950-4e338006950c"},"vehicle_type_id":"4","last_reported":1739466377,"current_range_meters":24400,"station_id":"ce4bhp92rcd13ifvqhag","pricing_plan_id":"cebpf4jnsgd1na2vs0mg"},{"bike_id":"1b478675-4f16-476e-bb59-8ab3bc6be0fa","system_id":"levelo_inurba_marseille","lat":43.23187,"lon":5.39983,"is_reserved":false,"is_disabled":false,"rental_uris":{"android":"levelo://app?vid=1b478675-4f16-476e-bb59-8ab3bc6be0fa","ios":"levelo://app?vid=1b478675-4f16-476e-bb59-8ab3bc6be0fa"},"vehicle_type_id":"4","last_reported":1739466377,"current_range_meters":24400,"station_id":"ce4bhn12rcd13ifvqgqg","pricing_plan_id":"cebpf4jnsgd1na2vs0mg"},{"bike_id":"211363a9-081b-401f-b0c6-364ac6457ebd","system_id":"levelo_inurba_marseille","lat":43.24383,"lon":5.37053,"is_reserved":false,"is_disabled":false,"rental_uris":{"android":"levelo://app?vid=211363a9-081b-401f-b0c6-364ac6457ebd","ios":"levelo://app?vid=211363a9-081b-401f-b0c6-364ac6457ebd"},"vehicle_type_id":"4","last_reported":1739466377,"current_range_meters":38800,"station_id":"ce4bhhh2rcd13ifvqfk0","pricing_plan_id":"cebpf4jnsgd1na2vs0mg"},{"bike_id":"a6a47884-b3b1-44fa-bc98-5c71b8bda4f2","system_id":"levelo_inurba_marseille","lat":43.2396,"lon":5.36656,"is_reserved":false,"is_disabled":false,"rental_uris":{"android":"levelo://app?vid=a6a47884-b3b1-44fa-bc98-5c71b8bda4f2","ios":"levelo://app?vid=a6a47884-b3b1-44fa-bc98-5c71b8bda4f2"},"vehicle_type_id":"4","last_reported":1739466377,"current_range_meters":34000,"station_id":"ce4bhi12rcd13ifvqfp0","pricing_plan_id":"cebpf4jnsgd1na2vs0mg"},{"bike_id":"a1c76ec6-06cc-47a6-a285-e3ba14db48c6","system_id":"levelo_inurba_marseille","lat":43.27969,"lon":5.38724,"is_reserved":false,"is_disabled":false,"rental_uris":{"android":"levelo://app?vid=a1c76ec6-06cc-47a6-a285-e3ba14db48c6","ios":"levelo://app?vid=a1c76ec6-06cc-47a6-a285-e3ba14db48c6"},"vehicle_type_id":"4","last_reported":1739466377,"current_range_meters":34000,"station_id":"ce4bhg12rcd13ifvqf80","pricing_plan_id":"cebpf4jnsgd1na2vs0mg"},{"bike_id":"c1401b58-534f-4563-aad1-6f83fe4e6833","system_id":"levelo_inurba_marseille","lat":43.29419,"lon":5.38622,"is_reserved":false,"is_disabled":false,"rental_uris":{"android":"levelo://app?vid=c1401b58-534f-4563-aad1-6f83fe4e6833","ios":"levelo://app?vid=c1401b58-534f-4563-aad1-6f83fe4e6833"},"vehicle_type_id":"4","last_reported":1739466377,"current_range_meters":29600,"station_id":"ce4bh2h2rcd13ifvqdh0","pricing_plan_id":"cebpf4jnsgd1na2vs0mg"},{"bike_id":"ca069b5e-8daa-49ab-b6bf-93850ee64eda","system_id":"levelo_inurba_marseille","lat":43.28435,"lon":5.39205,"is_reserved":false,"is_disabled":false,"rental_uris":{"android":"levelo://app?vid=ca069b5e-8daa-49ab-b6bf-93850ee64eda","ios":"levelo://app?vid=ca069b5e-8daa-49ab-b6bf-93850ee64eda"},"vehicle_type_id":"4","last_reported":1739466377,"current_range_meters":39200,"station_id":"ce4bhoh2rcd13ifvqh5g","pricing_plan_id":"cebpf4jnsgd1na2vs0mg"},{"bike_id":"2d53ae95-8d8c-46f6-a393-8076fa85e172","system_id":"levelo_inurba_marseille","lat":43.29892,"lon":5.37437,"is_reserved":false,"is_disabled":false,"rental_uris":{"android":"levelo://app?vid=2d53ae95-8d8c-46f6-a393-8076fa85e172","ios":"levelo://app?vid=2d53ae95-8d8c-46f6-a393-8076fa85e172"},"vehicle_type_id":"4","last_reported":1739466377,"current_range_meters":22400,"station_id":"ce4bgjh2rcd13ifvqbg0","pricing_plan_id":"cebpf4jnsgd1na2vs0mg"},{"bike_id":"145dbe95-0abb-404b-9326-c91dd00e25b1","system_id":"levelo_inurba_marseille","lat":43.27068,"lon":5.42285,"is_reserved":false,"is_disabled":false,"rental_uris":{"android":"levelo://app?vid=145dbe95-0abb-404b-9326-c91dd00e25b1","ios":"levelo://app?vid=145dbe95-0abb-404b-9326-c91dd00e25b1"},"vehicle_type_id":"4","last_reported":1739466377,"current_range_meters":28400,"station_id":"ce4bhk92rcd13ifvqgb0","pricing_plan_id":"cebpf4jnsgd1na2vs0mg"},{"bike_id":"2c0a74f0-182a-4005-bc42-bbc3c54a887c","system_id":"levelo_inurba_marseille","lat":43.28991,"lon":5.356,"is_reserved":false,"is_disabled":true,"rental_uris":{"android":"levelo://app?vid=2c0a74f0-182a-4005-bc42-bbc3c54a887c","ios":"levelo://app?vid=2c0a74f0-182a-4005-bc42-bbc3c54a887c"},"vehicle_type_id":"4","last_reported":1739466377,"current_range_meters":28800,"station_id":"ce4bhb92rcd13ifvqen0","pricing_plan_id":"cebpf4jnsgd1na2vs0mg"},{"bike_id":"e67a6b32-0b77-4cac-a7bb-ddffd352ab52","system_id":"levelo_inurba_marseille","lat":43.30541,"lon":5.36707,"is_reserved":false,"is_disabled":true,"rental_uris":{"android":"levelo://app?vid=e67a6b32-0b77-4cac-a7bb-ddffd352ab52","ios":"levelo://app?vid=e67a6b32-0b77-4cac-a7bb-ddffd352ab52"},"vehicle_type_id":"4","last_reported":1739466377,"current_range_meters":0,"station_id":"ce4bgrp2rcd13ifvqc9g","pricing_plan_id":"cebpf4jnsgd1na2vs0mg"},{"bike_id":"f0978e65-44d7-4683-9d58-b7db0c2c1a6b","system_id":"levelo_inurba_marseille","lat":43.27946,"lon":5.41038,"is_reserved":false,"is_disabled":false,"rental_uris":{"android":"levelo://app?vid=f0978e65-44d7-4683-9d58-b7db0c2c1a6b","ios":"levelo://app?vid=f0978e65-44d7-4683-9d58-b7db0c2c1a6b"},"vehicle_type_id":"4","last_reported":1739466377,"current_range_meters":38400,"station_id":"ce4bhnp2rcd13ifvqh0g","pricing_plan_id":"cebpf4jnsgd1na2vs0mg"},{"bike_id":"9c39fe7d-1c85-4ed6-bdef-1d06a3a421bb","system_id":"levelo_inurba_marseille","lat":43.30571,"lon":5.36539,"is_reserved":false,"is_disabled":false,"rental_uris":{"android":"levelo://app?vid=9c39fe7d-1c85-4ed6-bdef-1d06a3a421bb","ios":"levelo://app?vid=9c39fe7d-1c85-4ed6-bdef-1d06a3a421bb"},"vehicle_type_id":"4","last_reported":1739466377,"current_range_meters":35600,"station_id":"ce4bgs12rcd13ifvqcag","pricing_plan_id":"cebpf4jnsgd1na2vs0mg"},{"bike_id":"a1f6c532-806b-4949-ae9b-76c8237ce803","system_id":"levelo_inurba_marseille","lat":43.31717,"lon":5.42415,"is_reserved":false,"is_disabled":false,"rental_uris":{"android":"levelo://app?vid=a1f6c532-806b-4949-ae9b-76c8237ce803","ios":"levelo://app?vid=a1f6c532-806b-4949-ae9b-76c8237ce803"},"vehicle_type_id":"4","last_reported":1739466377,"current_range_meters":22800,"station_id":"ce4bhp92rcd13ifvqhbg","pricing_plan_id":"cebpf4jnsgd1na2vs0mg"},{"bike_id":"2049d3bd-6834-4df2-a1d3-15fe797ef241","system_id":"levelo_inurba_marseille","lat":43.29537,"lon":5.38538,"is_reserved":false,"is_disabled":true,"rental_uris":{"android":"levelo://app?vid=2049d3bd-6834-4df2-a1d3-15fe797ef241","ios":"levelo://app?vid=2049d3bd-6834-4df2-a1d3-15fe797ef241"},"vehicle_type_id":"4","last_reported":1739466377,"current_range_meters":0,"station_id":"ce4bgih2rcd13ifvqba0","pricing_plan_id":"cebpf4jnsgd1na2vs0mg"},{"bike_id":"de7ace2f-5875-4649-9970-7b40f6a94adf","system_id":"levelo_inurba_marseille","lat":43.26198,"lon":5.37941,"is_reserved":false,"is_disabled":false,"rental_uris":{"android":"levelo://app?vid=de7ace2f-5875-4649-9970-7b40f6a94adf","ios":"levelo://app?vid=de7ace2f-5875-4649-9970-7b40f6a94adf"},"vehicle_type_id":"4","last_reported":1739466377,"current_range_meters":24000,"station_id":"ce4bhjp2rcd13ifvqg90","pricing_plan_id":"cebpf4jnsgd1na2vs0mg"},{"bike_id":"e93854cb-f02b-439c-b02a-079196deea9e","system_id":"levelo_inurba_marseille","lat":43.29424,"lon":5.3862,"is_reserved":false,"is_disabled":false,"rental_uris":{"android":"levelo://app?vid=e93854cb-f02b-439c-b02a-079196deea9e","ios":"levelo://app?vid=e93854cb-f02b-439c-b02a-079196deea9e"},"vehicle_type_id":"4","last_reported":1739466377,"current_range_meters":38800,"station_id":"ce4bh2h2rcd13ifvqdh0","pricing_plan_id":"cebpf4jnsgd1na2vs0mg"},{"bike_id":"542b582b-8268-4ab4-8687-a6dc5529041f","system_id":"levelo_inurba_marseille","lat":43.34185,"lon":5.46384,"is_reserved":false,"is_disabled":false,"rental_uris":{"android":"levelo://app?vid=542b582b-8268-4ab4-8687-a6dc5529041f","ios":"levelo://app?vid=542b582b-8268-4ab4-8687-a6dc5529041f"},"vehicle_type_id":"4","last_reported":1739466377,"current_range_meters":13600,"station_id":"","pricing_plan_id":"cebpf4jnsgd1na2vs0mg"},{"bike_id":"0c1bf8e0-ce75-48c3-88d1-8f3cd5166be8","system_id":"levelo_inurba_marseille","lat":43.28098,"lon":5.37826,"is_reserved":false,"is_disabled":false,"rental_uris":{"android":"levelo://app?vid=0c1bf8e0-ce75-48c3-88d1-8f3cd5166be8","ios":"levelo://app?vid=0c1bf8e0-ce75-48c3-88d1-8f3cd5166be8"},"vehicle_type_id":"4","last_reported":1739466377,"current_range_meters":30800,"station_id":"ce4bha12rcd13ifvqee0","pricing_plan_id":"cebpf4jnsgd1na2vs0mg"},{"bike_id":"aa0d2726-bae5-404c-bcba-f6e54d9ddeed","system_id":"levelo_inurba_marseille","lat":43.29195,"lon":5.35792,"is_reserved":false,"is_disabled":false,"rental_uris":{"android":"levelo://app?vid=aa0d2726-bae5-404c-bcba-f6e54d9ddeed","ios":"levelo://app?vid=aa0d2726-bae5-404c-bcba-f6e54d9ddeed"},"vehicle_type_id":"4","last_reported":1739466377,"current_range_meters":38800,"station_id":"ce4bhb12rcd13ifvqel0","pricing_plan_id":"cebpf4jnsgd1na2vs0mg"},{"bike_id":"841b1f4f-6d21-4b48-8dd0-fd828835d17e","system_id":"levelo_inurba_marseille","lat":43.29629,"lon":5.37177,"is_reserved":false,"is_disabled":false,"rental_uris":{"android":"levelo://app?vid=841b1f4f-6d21-4b48-8dd0-fd828835d17e","ios":"levelo://app?vid=841b1f4f-6d21-4b48-8dd0-fd828835d17e"},"vehicle_type_id":"4","last_reported":1739466377,"current_range_meters":38800,"station_id":"ce4bgnh2rcd13ifvqc0g","pricing_plan_id":"cebpf4jnsgd1na2vs0mg"},{"bike_id":"f312cdfa-956c-4fda-a23c-4ab88e4763dc","system_id":"levelo_inurba_marseille","lat":43.28673,"lon":5.38654,"is_reserved":false,"is_disabled":false,"rental_uris":{"android":"levelo://app?vid=f312cdfa-956c-4fda-a23c-4ab88e4763dc","ios":"levelo://app?vid=f312cdfa-956c-4fda-a23c-4ab88e4763dc"},"vehicle_type_id":"4","last_reported":1739466377,"current_range_meters":27200,"station_id":"ce4bh492rcd13ifvqdug","pricing_plan_id":"cebpf4jnsgd1na2vs0mg"},{"bike_id":"c86bf059-a39d-4da3-aa18-06aedf4213b9","system_id":"levelo_inurba_marseille","lat":43.28617,"lon":5.35108,"is_reserved":false,"is_disabled":false,"rental_uris":{"android":"levelo://app?vid=c86bf059-a39d-4da3-aa18-06aedf4213b9","ios":"levelo://app?vid=c86bf059-a39d-4da3-aa18-06aedf4213b9"},"vehicle_type_id":"4","last_reported":1739466377,"current_range_meters":12800,"station_id":"ce4bhch2rcd13ifvqeug","pricing_plan_id":"cebpf4jnsgd1na2vs0mg"},{"bike_id":"b4a4c90c-53dd-408e-bb46-e71269cca0c9","system_id":"levelo_inurba_marseille","lat":43.25018,"lon":5.38904,"is_reserved":false,"is_disabled":false,"rental_uris":{"android":"levelo://app?vid=b4a4c90c-53dd-408e-bb46-e71269cca0c9","ios":"levelo://app?vid=b4a4c90c-53dd-408e-bb46-e71269cca0c9"},"vehicle_type_id":"4","last_reported":1739466377,"current_range_meters":35200,"station_id":"ce4bhgp2rcd13ifvqfd0","pricing_plan_id":"cebpf4jnsgd1na2vs0mg"},{"bike_id":"57b72634-86ba-47af-bd2a-cf31d474fe26","system_id":"levelo_inurba_marseille","lat":43.29513,"lon":5.38192,"is_reserved":false,"is_disabled":false,"rental_uris":{"android":"levelo://app?vid=57b72634-86ba-47af-bd2a-cf31d474fe26","ios":"levelo://app?vid=57b72634-86ba-47af-bd2a-cf31d474fe26"},"vehicle_type_id":"4","last_reported":1739466377,"current_range_meters":28400,"station_id":"","pricing_plan_id":"cebpf4jnsgd1na2vs0mg"},{"bike_id":"f3d849de-452f-4fda-8355-d5576c5c63ba","system_id":"levelo_inurba_marseille","lat":43.29632,"lon":5.37144,"is_reserved":false,"is_disabled":false,"rental_uris":{"android":"levelo://app?vid=f3d849de-452f-4fda-8355-d5576c5c63ba","ios":"levelo://app?vid=f3d849de-452f-4fda-8355-d5576c5c63ba"},"vehicle_type_id":"4","last_reported":1739466377,"current_range_meters":20000,"station_id":"ce4bgnh2rcd13ifvqc0g","pricing_plan_id":"cebpf4jnsgd1na2vs0mg"},{"bike_id":"ea70f191-4547-481a-b348-a8a059ad6a2c","system_id":"levelo_inurba_marseille","lat":43.25722,"lon":5.41115,"is_reserved":false,"is_disabled":false,"rental_uris":{"android":"levelo://app?vid=ea70f191-4547-481a-b348-a8a059ad6a2c","ios":"levelo://app?vid=ea70f191-4547-481a-b348-a8a059ad6a2c"},"vehicle_type_id":"4","last_reported":1739466377,"current_range_meters":29600,"station_id":"ce4bhkp2rcd13ifvqgd0","pricing_plan_id":"cebpf4jnsgd1na2vs0mg"},{"bike_id":"bbab7067-a930-4230-9559-55ab49800813","system_id":"levelo_inurba_marseille","lat":43.231991,"lon":5.355563,"is_reserved":false,"is_disabled":false,"rental_uris":{"android":"levelo://app?vid=bbab7067-a930-4230-9559-55ab49800813","ios":"levelo://app?vid=bbab7067-a930-4230-9559-55ab49800813"},