{"last_updated":1725826104,"ttl":30,"version":"2.2","data":{"bikes":[{"bike_id":"3cad443b-6266-4f7c-9d49-d174a2a81372","system_id":"levelo_inurba_marseille","lat":43.313391,"lon":5.36706,"is_reserved":false,"is_disabled":false,"rental_uris":{"android":"levelo://app?vid=3cad443b-6266-4f7c-9d49-d174a2a81372","ios":"levelo://app?vid=3cad443b-6266-4f7c-9d49-d174a2a81372"},"vehicle_type_id":"4","last_reported":1725826104,"current_range_meters":27600,"station_id":"ce4bgr92rcd13ifvqc6g","pricing_plan_id":"cebpf4jnsgd1na2vs0mg"},{"bike_id":"87c9139e-c46b-4cad-8eff-62e08e26775e","system_id":"levelo_inurba_marseille","lat":43.309076,"lon":5.368465,"is_reserved":false,"is_disabled":false,"rental_uris":{"android":"levelo://app?vid=87c9139e-c46b-4cad-8eff-62e08e26775e","ios":"levelo://app?vid=87c9139e-c46b-4cad-8eff-62e08e26775e"},"vehicle_type_id":"4","last_reported":1725826104,"current_range_meters":30800,"station_id":"ce4bgn92rcd13ifvqbvg","pricing_plan_id":"cebpf4jnsgd1na2vs0mg"},{"bike_id":"00df9045-4197-47cd-b3ba-3b9b2ee04799","system_id":"levelo_inurba_marseille","lat":43.309039,"lon":5.371797,"is_reserved":false,"is_disabled":false,"rental_uris":{"android":"levelo://app?vid=00df9045-4197-47cd-b3ba-3b9b2ee04799","ios":"levelo://app?vid=00df9045-4197-47cd-b3ba-3b9b2ee04799"},"vehicle_type_id":"4","last_reported":1725826104,"current_range_meters":17600,"station_id":"ce4bguh2rcd13ifvqckg","pricing_plan_id":"cebpf4jnsgd1na2vs0mg"},{"bike_id":"d4b148ac-889c-41c3-be96-97f7674dc89f","system_id":"levelo_inurba_marseille","lat":43.317653,"lon":5.372283,"is_reserved":false,"is_disabled":false,"rental_uris":{"android":"levelo://app?vid=d4b148ac-889c-41c3-be96-97f7674dc89f","ios":"levelo://app?vid=d4b148ac-889c-41c3-be96-97f7674dc89f"},"vehicle_type_id":"4","last_reported":1725826104,"current_range_meters":19200,"station_id":"","pricing_plan_id":"cebpf4jnsgd1na2vs0mg"},{"bike_id":"df9a81be-0fe6-4078-bbae-bc4749418370","system_id":"levelo_inurba_marseille","lat":43.30537,"lon":5.367345,"is_reserved":false,"is_disabled":false,"rental_uris":{"android":"levelo://app?vid=df9a81be-0fe6-4078-bbae-bc4749418370","ios":"levelo://app?vid=df9a81be-0fe6-4078-bbae-bc4749418370"},"vehicle_type_id":"4","last_reported":1725826104,"current_range_meters":27600,"station_id":"ce4bgrp2rcd13ifvqc9g","pricing_plan_id":"cebpf4jnsgd1na2vs0mg"},{"bike_id":"a89197f2-aa0b-4fcc-a300-510ebb8829d2","system_id":"levelo_inurba_marseille","lat":43.30537,"lon":5.367345,"is_reserved":false,"is_disabled":false,"rental_uris":{"android":"levelo://app?vid=a89197f2-aa0b-4fcc-a300-510ebb8829d2","ios":"levelo://app?vid=a89197f2-aa0b-4fcc-a300-510ebb8829d2"},"vehicle_type_id":"4","last_reported":1725826104,"current_range_meters":7200,"station_id":"ce4bgrp2rcd13ifvqc9g","pricing_plan_id":"cebpf4jnsgd1na2vs0mg"},{"bike_id":"69f73991-c96f-40de-b8b1-23fc554fc73e","system_id":"levelo_inurba_marseille","lat":43.30537,"lon":5.367345,"is_reserved":false,"is_disabled":false,"rental_uris":{"android":"levelo://app?vid=69f73991-c96f-40de-b8b1-23fc554fc73e","ios":"levelo://app?vid=69f73991-c96f-40de-b8b1-23fc554fc73e"},"vehicle_type_id":"4","last_reported":1725826104,"current_range_meters":10400,"station_id":"ce4bgrp2rcd13ifvqc9g","pricing_plan_id":"cebpf4jnsgd1na2vs0mg"},{"bike_id":"b2271a95-235b-4292-a747-ff96c2ad1624","system_id":"levelo_inurba_marseille","lat":43.305974,"lon":5.372331,"is_reserved":false,"is_disabled":false,"rental_uris":{"android":"levelo://app?vid=b2271a95-235b-4292-a747-ff96c2ad1624","ios":"levelo://app?vid=b2271a95-235b-4292-a747-ff96c2ad1624"},"vehicle_type_id":"4","last_reported":1725826104,"current_range_meters":0,"station_id":"ce4bgqh2rcd13ifvqc4g","pricing_plan_id":"cebpf4jnsgd1na2vs0mg"},{"bike_id":"e967f640-d2f7-4aeb-a7c8-27033612fb9f","system_id":"levelo_inurba_marseille","lat":43.305928,"lon":5.372297,"is_reserved":false,"is_disabled":false,"rental_uris":{"android":"levelo://app?vid=e967f640-d2f7-4aeb-a7c8-27033612fb9f","ios":"levelo://app?vid=e967f640-d2f7-4aeb-a7c8-27033612fb9f"},"vehicle_type_id":"4","last_reported":1725826104,"current_range_meters":0,"station_id":"ce4bgqh2rcd13ifvqc4g","pricing_plan_id":"cebpf4jnsgd1na2vs0mg"},{"bike_id":"e9ec9f21-a384-4c73-9ce0-9d827b71d0e3","system_id":"levelo_inurba_marseille","lat":43.311131,"lon":5.377651,"is_reserved":false,"is_disabled":false,"rental_uris":{"android":"levelo://app?vid=e9ec9f21-a384-4c73-9ce0-9d827b71d0e3","ios":"levelo://app?vid=e9ec9f21-a384-4c73-9ce0-9d827b71d0e3"},"vehicle_type_id":"4","last_reported":1725826104,"current_range_meters":11200,"station_id":"ce4bgt92rcd13ifvqcg0","pricing_plan_id":"cebpf4jnsgd1na2vs0mg"},{"bike_id":"3cc08eda-ef62-47ce-ae07-675f01ac7456","system_id":"levelo_inurba_marseille","lat":43.311125,"lon":5.377624,"is_reserved":false,"is_disabled":false,"rental_uris":{"android":"levelo://app?vid=3cc08eda-ef62-47ce-ae07-675f01ac7456","ios":"levelo://app?vid=3cc08eda-ef62-47ce-ae07-675f01ac7456"},"vehicle_type_id":"4","last_reported":1725826104,"current_range_meters":19200,"station_id":"ce4bgt92rcd13ifvqcg0","pricing_plan_id":"cebpf4jnsgd1na2vs0mg"},{"bike_id":"9d6d0b59-e3da-444d-b715-3f6b5ba94e0b","system_id":"levelo_inurba_marseille","lat":43.311125,"lon":5.377624,"is_reserved":false,"is_disabled":false,"rental_uris":{"android":"levelo://app?vid=9d6d0b59-e3da-444d-b715-3f6b5ba94e0b","ios":"levelo://app?vid=9d6d0b59-e3da-444d-b715-3f6b5ba94e0b"},"vehicle_type_id":"4","last_reported":1725826104,"current_range_meters":23200,"station_id":"ce4bgt92rcd13ifvqcg0","pricing_plan_id":"cebpf4jnsgd1na2vs0mg"},{"bike_id":"09394fd4-3f4e-4044-a827-3461400ade48","system_id":"levelo_inurba_marseille","lat":43.311125,"lon":5.377624,"is_reserved":false,"is_disabled":false,"rental_uris":{"android":"levelo://app?vid=09394fd4-3f4e-4044-a827-3461400ade48","ios":"levelo://app?vid=09394fd4-3f4e-4044-a827-3461400ade48"},"vehicle_type_id":"4","last_reported":1725826104,"current_range_meters":3200,"station_id":"ce4bgt92rcd13ifvqcg0","pricing_plan_id":"cebpf4jnsgd1na2vs0mg"},{"bike_id":"cdb59bca-535c-4ec4-946e-2b0dd8fec56a","system_id":"levelo_inurba_marseille","lat":43.311125,"lon":5.377624,"is_reserved":false,"is_disabled":false,"rental_uris":{"android":"levelo://app?vid=cdb59bca-535c-4ec4-946e-2b0dd8fec56a","ios":"levelo://app?vid=cdb59bca-535c-4ec4-946e-2b0dd8fec56a"},"vehicle_type_id":"4","last_reported":1725826104,"current_range_meters":18800,"station_id":"ce4bgt92rcd13ifvqcg0","pricing_plan_id":"cebpf4jnsgd1na2vs0mg"},{"bike_id":"685dab04-2cc3-47dd-b8f0-418590fbabbe","system_id":"levelo_inurba_marseille","lat":43.31847,"lon":5.37506,"is_reserved":false,"is_disabled":false,"rental_uris":{"android":"levelo://app?vid=685dab04-2cc3-47dd-b8f0-418590fbabbe","ios":"levelo://app?vid=685dab04-2cc3-47dd-b8f0-418590fbabbe"},"vehicle_type_id":"4","last_reported":1725826104,"current_range_meters":2000,"station_id":"","pricing_plan_id":"cebpf4jnsgd1na2vs0mg"},{"bike_id":"3cc2caa8-84b4-472c-88ae-fcc4f86b94d5","system_id":"levelo_inurba_marseille","lat":43.307945,"lon":5.376487,"is_reserved":false,"is_disabled":false,"rental_uris":{"android":"levelo://app?vid=3cc2caa8-84b4-472c-88ae-fcc4f86b94d5","ios":"levelo://app?vid=3cc2caa8-84b4-472c-88ae-fcc4f86b94d5"},"vehicle_type_id":"4","last_reported":1725826104,"current_range_meters":20800,"station_id":"ce4bgv92rcd13ifvqcq0","pricing_plan_id":"cebpf4jnsgd1na2vs0mg"},{"bike_id":"a5dabc25-41da-4702-9d0f-0aee5a136a75","system_id":"levelo_inurba_marseille","lat":43.317075,"lon":5.377367,"is_reserved":false,"is_disabled":false,"rental_uris":{"android":"levelo://app?vid=a5dabc25-41da-4702-9d0f-0aee5a136a75","ios":"levelo://app?vid=a5dabc25-41da-4702-9d0f-0aee5a136a75"},"vehicle_type_id":"4","last_reported":1725826104,"current_range_meters":10400,"station_id":"ce4bgth2rcd13ifvqch0","pricing_plan_id":"cebpf4jnsgd1na2vs0mg"},{"bike_id":"bcdf082f-15b8-4de2-842a-c70088efaad3","system_id":"levelo_inurba_marseille","lat":43.317075,"lon":5.377367,"is_reserved":false,"is_disabled":false,"rental_uris":{"android":"levelo://app?vid=bcdf082f-15b8-4de2-842a-c70088efaad3","ios":"levelo://app?vid=bcdf082f-15b8-4de2-842a-c70088efaad3"},"vehicle_type_id":"4","last_reported":1725826104,"current_range_meters":28800,"station_id":"ce4bgth2rcd13ifvqch0","pricing_plan_id":"cebpf4jnsgd1na2vs0mg"},{"bike_id":"e6240958-5766-4e43-be3c-5414d3e93fa9","system_id":"levelo_inurba_marseille","lat":43.31354,"lon":5.37918,"is_reserved":false,"is_disabled":false,"rental_uris":{"android":"levelo://app?vid=e6240958-5766-4e43-be3c-5414d3e93fa9","ios":"levelo://app?vid=e6240958-5766-4e43-be3c-5414d3e93fa9"},"vehicle_type_id":"4","last_reported":1725826104,"current_range_meters":18000,"station_id":"","pricing_plan_id":"cebpf4jnsgd1na2vs0mg"},{"bike_id":"f7d6f328-8faf-4d58-86d4-ab4b3270c0bd","system_id":"levelo_inurba_marseille","lat":43.3114,"lon":5.37974,"is_reserved":false,"is_disabled":false,"rental_uris":{"android":"levelo://app?vid=f7d6f328-8faf-4d58-86d4-ab4b3270c0bd","ios":"levelo://app?vid=f7d6f328-8faf-4d58-86d4-ab4b3270c0bd"},"vehicle_type_id":"4","last_reported":1725826104,"current_range_meters":12000,"station_id":"","pricing_plan_id":"cebpf4jnsgd1na2vs0mg"},{"bike_id":"67a8ae10-f4e4-4909-9e04-99cdca05e80d","system_id":"levelo_inurba_marseille","lat":43.315289,"lon":5.380349,"is_reserved":false,"is_disabled":false,"rental_uris":{"android":"levelo://app?vid=67a8ae10-f4e4-4909-9e04-99cdca05e80d","ios":"levelo://app?vid=67a8ae10-f4e4-4909-9e04-99cdca05e80d"},"vehicle_type_id":"4","last_reported":1725826104,"current_range_meters":5200,"station_id":"ce4bhsp2rcd13ifvqi50","pricing_plan_id":"cebpf4jnsgd1na2vs0mg"},{"bike_id":"95d6c8cb-f743-4eee-ae0d-c8cf11a41f02","system_id":"levelo_inurba_marseille","lat":43.315289,"lon":5.380349,"is_reserved":false,"is_disabled":false,"rental_uris":{"android":"levelo://app?vid=95d6c8cb-f743-4eee-ae0d-c8cf11a41f02","ios":"levelo://app?vid=95d6c8cb-f743-4eee-ae0d-c8cf11a41f02"},"vehicle_type_id":"4","last_reported":1725826104,"current_range_meters":31600,"station_id":"ce4bhsp2rcd13ifvqi50","pricing_plan_id":"cebpf4jnsgd1na2vs0mg"},{"bike_id":"8abc1be7-4a2e-4963-a93a-db5b2dd55e69","system_id":"levelo_inurba_marseille","lat":43.315289,"lon":5.380349,"is_reserved":false,"is_disabled":false,"rental_uris":{"android":"levelo://app?vid=8abc1be7-4a2e-4963-a93a-db5b2dd55e69","ios":"levelo://app?vid=8abc1be7-4a2e-4963-a93a-db5b2dd55e69"},"vehicle_type_id":"4","last_reported":1725826104,"current_range_meters":800,"station_id":"ce4bhsp2rcd13ifvqi50","pricing_plan_id":"cebpf4jnsgd1na2vs0mg"},{"bike_id":"71293c3b-6a6a-49d5-8e7e-88ec34f115c4","system_id":"levelo_inurba_marseille","lat":43.315289,"lon":5.380349,"is_reserved":false,"is_disabled":false,"rental_uris":{"android":"levelo://app?vid=71293c3b-6a6a-49d5-8e7e-88ec34f115c4","ios":"levelo://app?vid=71293c3b-6a6a-49d5-8e7e-88ec34f115c4"},"vehicle_type_id":"4","last_reported":1725826104,"current_range_meters":10000,"station_id":"ce4bhsp2rcd13ifvqi50","pricing_plan_id":"cebpf4jnsgd1na2vs0mg"},{"bike_id":"4b60d7ee-de2c-431d-8fc1-8ef28afeaa5d","system_id":"levelo_inurba_marseille","lat":43.315289,"lon":5.380349,"is_reserved":false,"is_disabled":false,"rental_uris":{"android":"levelo://app?vid=4b60d7ee-de2c-431d-8fc1-8ef28afeaa5d","ios":"levelo://app?vid=4b60d7ee-de2c-431d-8fc1-8ef28afeaa5d"},"vehicle_type_id":"4","last_reported":1725826104,"current_range_meters":22000,"station_id":"ce4bhsp2rcd13ifvqi50","pricing_plan_id":"cebpf4jnsgd1na2vs0mg"},{"bike_id":"7c34bff3-0530-4ead-8407-4fc6d9f9510d","system_id":"levelo_inurba_marseille","lat":43.31057,"lon":5.38149,"is_reserved":false,"is_disabled":false,"rental_uris":{"android":"levelo://app?vid=7c34bff3-0530-4ead-8407-4fc6d9f9510d","ios":"levelo://app?vid=7c34bff3-0530-4ead-8407-4fc6d9f9510d"},"vehicle_type_id":"4","last_reported":1725826104,"current_range_meters":12400,"station_id":"","pricing_plan_id":"cebpf4jnsgd1na2vs0mg"},{"bike_id":"f1e4df4f-a5c7-419d-8984-4aff60f02134","system_id":"levelo_inurba_marseille","lat":43.301939,"lon":5.366286,"is_reserved":false,"is_disabled":false,"rental_uris":{"android":"levelo://app?vid=f1e4df4f-a5c7-419d-8984-4aff60f02134","ios":"levelo://app?vid=f1e4df4f-a5c7-419d-8984-4aff60f02134"},"vehicle_type_id":"4","last_reported":1725826104,"current_range_meters":11600,"station_id":"ce4bgrh2rcd13ifvqc8g","pricing_plan_id":"cebpf4jnsgd1na2vs0mg"},{"bike_id":"6c08ac65-c059-4c0a-9b4d-7e445f350a3f","system_id":"levelo_inurba_marseille","lat":43.308012,"lon":5.381511,"is_reserved":false,"is_disabled":false,"rental_uris":{"android":"levelo://app?vid=6c08ac65-c059-4c0a-9b4d-7e445f350a3f","ios":"levelo://app?vid=6c08ac65-c059-4c0a-9b4d-7e445f350a3f"},"vehicle_type_id":"4","last_reported":1725826104,"current_range_meters":5200,"station_id":"ce4bgt12rcd13ifvqce0","pricing_plan_id":"cebpf4jnsgd1na2vs0mg"},{"bike_id":"20dd82ec-728d-4dbb-8077-f5e00662571e","system_id":"levelo_inurba_marseille","lat":43.308012,"lon":5.381511,"is_reserved":false,"is_disabled":false,"rental_uris":{"android":"levelo://app?vid=20dd82ec-728d-4dbb-8077-f5e00662571e","ios":"levelo://app?vid=20dd82ec-728d-4dbb-8077-f5e00662571e"},"vehicle_type_id":"4","last_reported":1725826104,"current_range_meters":6800,"station_id":"ce4bgt12rcd13ifvqce0","pricing_plan_id":"cebpf4jnsgd1na2vs0mg"},{"bike_id":"026377e0-e0ed-49ea-8616-356dd358835c","system_id":"levelo_inurba_marseille","lat":43.308012,"lon":5.381511,"is_reserved":false,"is_disabled":false,"rental_uris":{"android":"levelo://app?vid=026377e0-e0ed-49ea-8616-356dd358835c","ios":"levelo://app?vid=026377e0-e0ed-49ea-8616-356dd358835c"},"vehicle_type_id":"4","last_reported":1725826104,"current_range_meters":13200,"station_id":"ce4bgt12rcd13ifvqce0","pricing_plan_id":"cebpf4jnsgd1na2vs0mg"},{"bike_id":"dd9abdd1-b72b-4e62-a0e4-db195f895316","system_id":"levelo_inurba_marseille","lat":43.308012,"lon":5.381511,"is_reserved":false,"is_disabled":false,"rental_uris":{"android":"levelo://app?vid=dd9abdd1-b72b-4e62-a0e4-db195f895316","ios":"levelo://app?vid=dd9abdd1-b72b-4e62-a0e4-db195f895316"},"vehicle_type_id":"4","last_reported":1725826104,"current_range_meters":13200,"station_id":"ce4bgt12rcd13ifvqce0","pricing_plan_id":"cebpf4jnsgd1na2vs0mg"},{"bike_id":"b1956a4c-134e-45ad-9265-dbf90e729582","system_id":"levelo_inurba_marseille","lat":43.308012,"lon":5.381511,"is_reserved":false,"is_disabled":false,"rental_uris":{"android":"levelo://app?vid=b1956a4c-134e-45ad-9265-dbf90e729582","ios":"levelo://app?vid=b1956a4c-134e-45ad-9265-dbf90e729582"},"vehicle_type_id":"4","last_reported":1725826104,"current_range_meters":4400,"station_id":"ce4bgt12rcd13ifvqce0","pricing_plan_id":"cebpf4jnsgd1na2vs0mg"},{"bike_id":"ff824737-de51-4c08-93c4-a87335eadc84","system_id":"levelo_inurba_marseille","lat":43.30797,"lon":5.38174,"is_reserved":false,"is_disabled":false,"rental_uris":{"android":"levelo://app?vid=ff824737-de51-4c08-93c4-a87335eadc84","ios":"levelo://app?vid=ff824737-de51-4c08-93c4-a87335eadc84"},"vehicle_type_id":"4","last_reported":1725826104,"current_range_meters":0,"station_id":"ce4bgt12rcd13ifvqce0","pricing_plan_id":"cebpf4jnsgd1na2vs0mg"},{"bike_id":"7d5dc096-e09c-4f65-af17-7527aaf046f2","system_id":"levelo_inurba_marseille","lat":43.324771,"lon":5.36557,"is_reserved":false,"is_disabled":false,"rental_uris":{"android":"levelo://app?vid=7d5dc096-e09c-4f65-af17-7527aaf046f2","ios":"levelo://app?vid=7d5dc096-e09c-4f65-af17-7527aaf046f2"},"vehicle_type_id":"4","last_reported":1725826104,"current_range_meters":32000,"station_id":"ce4bhs12rcd13ifvqhvg","pricing_plan_id":"cebpf4jnsgd1na2vs0mg"},{"bike_id":"f4cf2b14-0787-453d-b183-96238c9a5283","system_id":"levelo_inurba_marseille","lat":43.324771,"lon":5.36557,"is_reserved":false,"is_disabled":false,"rental_uris":{"android":"levelo://app?vid=f4cf2b14-0787-453d-b183-96238c9a5283","ios":"levelo://app?vid=f4cf2b14-0787-453d-b183-96238c9a5283"},"vehicle_type_id":"4","last_reported":1725826104,"current_range_meters":31200,"station_id":"ce4bhs12rcd13ifvqhvg","pricing_plan_id":"cebpf4jnsgd1na2vs0mg"},{"bike_id":"517c6418-f24b-410c-936b-da4943fd859c","system_id":"levelo_inurba_marseille","lat":43.324771,"lon":5.36557,"is_reserved":false,"is_disabled":false,"rental_uris":{"android":"levelo://app?vid=517c6418-f24b-410c-936b-da4943fd859c","ios":"levelo://app?vid=517c6418-f24b-410c-936b-da4943fd859c"},"vehicle_type_id":"4","last_reported":1725826104,"current_range_meters":29600,"station_id":"ce4bhs12rcd13ifvqhvg","pricing_plan_id":"cebpf4jnsgd1na2vs0mg"},{"bike_id":"8111d373-d8ce-46c3-8612-d016e1f13fb5","system_id":"levelo_inurba_marseille","lat":43.324771,"lon":5.36557,"is_reserved":false,"is_disabled":false,"rental_uris":{"android":"levelo://app?vid=8111d373-d8ce-46c3-8612-d016e1f13fb5","ios":"levelo://app?vid=8111d373-d8ce-46c3-8612-d016e1f13fb5"},"vehicle_type_id":"4","last_reported":1725826104,"current_range_meters":29600,"station_id":"ce4bhs12rcd13ifvqhvg","pricing_plan_id":"cebpf4jnsgd1na2vs0mg"},{"bike_id":"dacc5064-48d7-4477-80bf-85317b192990","system_id":"levelo_inurba_marseille","lat":43.324771,"lon":5.36557,"is_reserved":false,"is_disabled":false,"rental_uris":{"android":"levelo://app?vid=dacc5064-48d7-4477-80bf-85317b192990","ios":"levelo://app?vid=dacc5064-48d7-4477-80bf-85317b192990"},"vehicle_type_id":"4","last_reported":1725826104,"current_range_meters":8400,"station_id":"ce4bhs12rcd13ifvqhvg","pricing_plan_id":"cebpf4jnsgd1na2vs0mg"},{"bike_id":"15366ac0-6c82-4df6-bf9c-aefdeeffe81e","system_id":"levelo_inurba_marseille","lat":43.324771,"lon":5.36557,"is_reserved":false,"is_disabled":false,"rental_uris":{"android":"levelo://app?vid=15366ac0-6c82-4df6-bf9c-aefdeeffe81e","ios":"levelo://app?vid=15366ac0-6c82-4df6-bf9c-aefdeeffe81e"},"vehicle_type_id":"4","last_reported":1725826104,"current_range_meters":14400,"station_id":"ce4bhs12rcd13ifvqhvg","pricing_plan_id":"cebpf4jnsgd1na2vs0mg"},{"bike_id":"2aa7fba3-37e3-4f02-b2f5-9f46da0db247","system_id":"levelo_inurba_marseille","lat":43.324771,"lon":5.36557,"is_reserved":false,"is_disabled":false,"rental_uris":{"android":"levelo://app?vid=2aa7fba3-37e3-4f02-b2f5-9f46da0db247","ios":"levelo://app?vid=2aa7fba3-37e3-4f02-b2f5-9f46da0db247"},"vehicle_type_id":"4","last_reported":1725826104,"current_range_meters":8800,"station_id":"ce4bhs12rcd13ifvqhvg","pricing_plan_id":"cebpf4jnsgd1na2vs0mg"},{"bike_id":"c8993479-49c1-4ea3-a09d-3fdbb0abb7a0","system_id":"levelo_inurba_marseille","lat":43.324771,"lon":5.36557,"is_reserved":false,"is_disabled":false,"rental_uris":{"android":"levelo://app?vid=c8993479-49c1-4ea3-a09d-3fdbb0abb7a0","ios":"levelo://app?vid=c8993479-49c1-4ea3-a09d-3fdbb0abb7a0"},"vehicle_type_id":"4","last_reported":1725826104,"current_range_meters":400,"station_id":"ce4bhs12rcd13ifvqhvg","pricing_plan_id":"cebpf4jnsgd1na2vs0mg"},{"bike_id":"f2ade763-bcd0-435a-b024-9830e62d3058","system_id":"levelo_inurba_marseille","lat":43.310804,"lon":5.38359,"is_reserved":false,"is_disabled":false,"rental_uris":{"android":"levelo://app?vid=f2ade763-bcd0-435a-b024-9830e62d3058","ios":"levelo://app?vid=f2ade763-bcd0-435a-b024-9830e62d3058"},"vehicle_type_id":"4","last_reported":1725826104,"current_range_meters":8800,"station_id":"ce4bgv92rcd13ifvqcr0","pricing_plan_id":"cebpf4jnsgd1na2vs0mg"},{"bike_id":"ab114a1c-13cd-4a2d-ad29-430eba7b63d6","system_id":"levelo_inurba_marseille","lat":43.310804,"lon":5.38359,"is_reserved":false,"is_disabled":false,"rental_uris":{"android":"levelo://app?vid=ab114a1c-13cd-4a2d-ad29-430eba7b63d6","ios":"levelo://app?vid=ab114a1c-13cd-4a2d-ad29-430eba7b63d6"},"vehicle_type_id":"4","last_reported":1725826104,"current_range_meters":16400,"station_id":"ce4bgv92rcd13ifvqcr0","pricing_plan_id":"cebpf4jnsgd1na2vs0mg"},{"bike_id":"5ee4d5d0-8daa-4a55-9bce-9f03383dc458","system_id":"levelo_inurba_marseille","lat":43.302784,"lon":5.377158,"is_reserved":false,"is_disabled":false,"rental_uris":{"android":"levelo://app?vid=5ee4d5d0-8daa-4a55-9bce-9f03383dc458","ios":"levelo://app?vid=5ee4d5d0-8daa-4a55-9bce-9f03383dc458"},"vehicle_type_id":"4","last_reported":1725826104,"current_range_meters":0,"station_id":"ce4bguh2rcd13ifvqcj0","pricing_plan_id":"cebpf4jnsgd1na2vs0mg"},{"bike_id":"aa563268-d238-4a30-ad3d-a3a8dd82fb1d","system_id":"levelo_inurba_marseille","lat":43.30143,"lon":5.37413,"is_reserved":false,"is_disabled":false,"rental_uris":{"android":"levelo://app?vid=aa563268-d238-4a30-ad3d-a3a8dd82fb1d","ios":"levelo://app?vid=aa563268-d238-4a30-ad3d-a3a8dd82fb1d"},"vehicle_type_id":"4","last_reported":1725826104,"current_range_meters":29600,"station_id":"ce4bgs92rcd13ifvqcc0","pricing_plan_id":"cebpf4jnsgd1na2vs0mg"},{"bike_id":"67d4d8cb-6d39-4214-8161-d25f595a39a0","system_id":"levelo_inurba_marseille","lat":43.31995,"lon":5.381507,"is_reserved":false,"is_disabled":false,"rental_uris":{"android":"levelo://app?vid=67d4d8cb-6d39-4214-8161-d25f595a39a0","ios":"levelo://app?vid=67d4d8cb-6d39-4214-8161-d25f595a39a0"},"vehicle_type_id":"4","last_reported":1725826104,"current_range_meters":2800,"station_id":"ce4bhr12rcd13ifvqhpg","pricing_plan_id":"cebpf4jnsgd1na2vs0mg"},{"bike_id":"46639478-df40-4cc3-88ba-ba5c6ad87ceb","system_id":"levelo_inurba_marseille","lat":43.319935,"lon":5.381699,"is_reserved":false,"is_disabled":false,"rental_uris":{"android":"levelo://app?vid=46639478-df40-4cc3-88ba-ba5c6ad87ceb","ios":"levelo://app?vid=46639478-df40-4cc3-88ba-ba5c6ad87ceb"},"vehicle_type_id":"4","last_reported":1725826104,"current_range_meters":18800,"station_id":"ce4bhr12rcd13ifvqhpg","pricing_plan_id":"cebpf4jnsgd1na2vs0mg"},{"bike_id":"52d890f4-b096-4ffd-b107-6bfbca00875b","system_id":"levelo_inurba_marseille","lat":43.31989,"lon":5.38159,"is_reserved":false,"is_disabled":false,"rental_uris":{"android":"levelo://app?vid=52d890f4-b096-4ffd-b107-6bfbca00875b","ios":"levelo://app?vid=52d890f4-b096-4ffd-b107-6bfbca00875b"},"vehicle_type_id":"4","last_reported":1725826104,"current_range_meters":14400,"station_id":"ce4bhr12rcd13ifvqhpg","pricing_plan_id":"cebpf4jnsgd1na2vs0mg"},{"bike_id":"3f1bbebc-8430-4966-af98-f90014826e19","system_id":"levelo_inurba_marseille","lat":43.319935,"lon":5.381699,"is_reserved":false,"is_disabled":false,"rental_uris":{"android":"levelo://app?vid=3f1bbebc-8430-4966-af98-f90014826e19","ios":"levelo://app?vid=3f1bbebc-8430-4966-af98-f90014826e19"},"vehicle_type_id":"4","last_reported":1725826104,"current_range_meters":19600,"station_id":"ce4bhr12rcd13ifvqhpg","pricing_plan_id":"cebpf4jnsgd1na2vs0mg"},{"bike_id":"01a9b8e2-6a4c-4c48-b027-338541b2f87e","system_id":"levelo_inurba_marseille","lat":43.319935,"lon":5.381699,"is_reserved":false,"is_disabled":false,"rental_uris":{"android":"levelo://app?vid=01a9b8e2-6a4c-4c48-b027-338541b2f87e","ios":"levelo://app?vid=01a9b8e2-6a4c-4c48-b027-338541b2f87e"},"vehicle_type_id":"4","last_reported":1725826104,"current_range_meters":5600,"station_id":"ce4bhr12rcd13ifvqhpg","pricing_plan_id":"cebpf4jnsgd1na2vs0mg"},{"bike_id":"d60cdb4d-c076-41d1-8789-e2bc8f17ed68","system_id":"levelo_inurba_marseille","lat":43.319935,"lon":5.381699,"is_reserved":false,"is_disabled":false,"rental_uris":{"android":"levelo://app?vid=d60cdb4d-c076-41d1-8789-e2bc8f17ed68","ios":"levelo://app?vid=d60cdb4d-c076-41d1-8789-e2bc8f17ed68"},"vehicle_type_id":"4","last_reported":1725826104,"current_range_meters":23200,"station_id":"ce4bhr12rcd13ifvqhpg","pricing_plan_id":"cebpf4jnsgd1na2vs0mg"},{"bike_id":"ff1cc1b9-5cfe-4f74-9b68-e099d40b9132","system_id":"levelo_inurba_marseille","lat":43.30337,"lon":5.37918,"is_reserved":false,"is_disabled":false,"rental_uris":{"android":"levelo://app?vid=ff1cc1b9-5cfe-4f74-9b68-e099d40b9132","ios":"levelo://app?vid=ff1cc1b9-5cfe-4f74-9b68-e099d40b9132"},"vehicle_type_id":"4","last_reported":1725826104,"current_range_meters":5600,"station_id":"","pricing_plan_id":"cebpf4jnsgd1na2vs0mg"},{"bike_id":"a74f2f15-c272-4697-8dc9-e86e0e00cecd","system_id":"levelo_inurba_marseille","lat":43.319935,"lon":5.381699,"is_reserved":false,"is_disabled":false,"rental_uris":{"android":"levelo://app?vid=a74f2f15-c272-4697-8dc9-e86e0e00cecd","ios":"levelo://app?vid=a74f2f15-c272-4697-8dc9-e86e0e00cecd"},"vehicle_type_id":"4","last_reported":1725826104,"current_range_meters":9600,"station_id":"ce4bhr12rcd13ifvqhpg","pricing_plan_id":"cebpf4jnsgd1na2vs0mg"},{"bike_id":"2c188780-75c4-4b9f-949c-f7da7ea9ba94","system_id":"levelo_inurba_marseille","lat":43.313571,"lon":5.384829,"is_reserved":false,"is_disabled":false,"rental_uris":{"android":"levelo://app?vid=2c188780-75c4-4b9f-949c-f7da7ea9ba94","ios":"levelo://app?vid=2c188780-75c4-4b9f-949c-f7da7ea9ba94"},"vehicle_type_id":"4","last_reported":1725826104,"current_range_meters":14400,"station_id":"ce4bgt92rcd13ifvqcf0","pricing_plan_id":"cebpf4jnsgd1na2vs0mg"},{"bike_id":"9c18f180-438d-484f-a9a9-268594ca760e","system_id":"levelo_inurba_marseille","lat":43.313571,"lon":5.384829,"is_reserved":false,"is_disabled":false,"rental_uris":{"android":"levelo://app?vid=9c18f180-438d-484f-a9a9-268594ca760e","ios":"levelo://app?vid=9c18f180-438d-484f-a9a9-268594ca760e"},"vehicle_type_id":"4","last_reported":1725826104,"current_range_meters":23200,"station_id":"ce4bgt92rcd13ifvqcf0","pricing_plan_id":"cebpf4jnsgd1na2vs0mg"},{"bike_id":"e33aafa8-7148-4508-b46e-26d54bc504f1","system_id":"levelo_inurba_marseille","lat":43.313571,"lon":5.384829,"is_reserved":false,"is_disabled":false,"rental_uris":{"android":"levelo://app?vid=e33aafa8-7148-4508-b46e-26d54bc504f1","ios":"levelo://app?vid=e33aafa8-7148-4508-b46e-26d54bc504f1"},"vehicle_type_id":"4","last_reported":1725826104,"current_range_meters":13200,"station_id":"ce4bgt92rcd13ifvqcf0","pricing_plan_id":"cebpf4jnsgd1na2vs0mg"},{"bike_id":"a86b7e64-e368-414c-8429-60db360defb2","system_id":"levelo_inurba_marseille","lat":43.313571,"lon":5.384829,"is_reserved":false,"is_disabled":false,"rental_uris":{"android":"levelo://app?vid=a86b7e64-e368-414c-8429-60db360defb2","ios":"levelo://app?vid=a86b7e64-e368-414c-8429-60db360defb2"},"vehicle_type_id":"4","last_reported":1725826104,"current_range_meters":25600,"station_id":"ce4bgt92rcd13ifvqcf0","pricing_plan_id":"cebpf4jnsgd1na2vs0mg"},{"bike_id":"a61369b0-2989-46eb-af5b-8f0983614937","system_id":"levelo_inurba_marseille","lat":43.313571,"lon":5.384829,"is_reserved":false,"is_disabled":false,"rental_uris":{"android":"levelo://app?vid=a61369b0-2989-46eb-af5b-8f0983614937","ios":"levelo://app?vid=a61369b0-2989-46eb-af5b-8f0983614937"},"vehicle_type_id":"4","last_reported":1725826104,"current_range_meters":6000,"station_id":"ce4bgt92rcd13ifvqcf0","pricing_plan_id":"cebpf4jnsgd1na2vs0mg"},{"bike_id":"99a62c04-2a86-4c6b-abb5-87167c045d95","system_id":"levelo_inurba_marseille","lat":43.313571,"lon":5.384829,"is_reserved":false,"is_disabled":false,"rental_uris":{"android":"levelo://app?vid=99a62c04-2a86-4c6b-abb5-87167c045d95","ios":"levelo://app?vid=99a62c04-2a86-4c6b-abb5-87167c045d95"},"vehicle_type_id":"4","last_reported":1725826104,"current_range_meters":0,"station_id":"ce4bgt92rcd13ifvqcf0","pricing_plan_id":"cebpf4jnsgd1na2vs0mg"},{"bike_id":"91d80231-41a5-414b-ba4a-8cc7bf57720e","system_id":"levelo_inurba_marseille","lat":43.313571,"lon":5.384829,"is_reserved":false,"is_disabled":false,"rental_uris":{"android":"levelo://app?vid=91d80231-41a5-414b-ba4a-8cc7bf57720e","ios":"levelo://app?vid=91d80231-41a5-414b-ba4a-8cc7bf57720e"},"vehicle_type_id":"4","last_reported":1725826104,"current_range_meters":23600,"station_id":"ce4bgt92rcd13ifvqcf0","pricing_plan_id":"cebpf4jnsgd1na2vs0mg"},{"bike_id":"f0b9f65c-0585-4066-8079-cb07b124d33f","system_id":"levelo_inurba_marseille","lat":43.313571,"lon":5.384829,"is_reserved":false,"is_disabled":false,"rental_uris":{"android":"levelo://app?vid=f0b9f65c-0585-4066-8079-cb07b124d33f","ios":"levelo://app?vid=f0b9f65c-0585-4066-8079-cb07b124d33f"},"vehicle_type_id":"4","last_reported":1725826104,"current_range_meters":1600,"station_id":"ce4bgt92rcd13ifvqcf0","pricing_plan_id":"cebpf4jnsgd1na2vs0mg"},{"bike_id":"5b319e82-5233-4e0c-b8ed-6512b699d516","system_id":"levelo_inurba_marseille","lat":43.313571,"lon":5.384829,"is_reserved":false,"is_disabled":false,"rental_uris":{"android":"levelo://app?vid=5b319e82-5233-4e0c-b8ed-6512b699d516","ios":"levelo://app?vid=5b319e82-5233-4e0c-b8ed-6512b699d516"},"vehicle_type_id":"4","last_reported":1725826104,"current_range_meters":800,"station_id":"ce4bgt92rcd13ifvqcf0","pricing_plan_id":"cebpf4jnsgd1na2vs0mg"},{"bike_id":"579ef4d6-b842-4840-85f1-eaa0c44c9780","system_id":"levelo_inurba_marseille","lat":43.313571,"lon":5.384829,"is_reserved":false,"is_disabled":false,"rental_uris":{"android":"levelo://app?vid=579ef4d6-b842-4840-85f1-eaa0c44c9780","ios":"levelo://app?vid=579ef4d6-b842-4840-85f1-eaa0c44c9780"},"vehicle_type_id":"4","last_reported":1725826104,"current_range_meters":2800,"station_id":"ce4bgt92rcd13ifvqcf0","pricing_plan_id":"cebpf4jnsgd1na2vs0mg"},{"bike_id":"7266b505-67bc-40b7-bcc0-2aded0ac7fbd","system_id":"levelo_inurba_marseille","lat":43.313571,"lon":5.384829,"is_reserved":false,"is_disabled":false,"rental_uris":{"android":"levelo://app?vid=7266b505-67bc-40b7-bcc0-2aded0ac7fbd","ios":"levelo://app?vid=7266b505-67bc-40b7-bcc0-2aded0ac7fbd"},"vehicle_type_id":"4","last_reported":1725826104,"current_range_meters":0,"station_id":"ce4bgt92rcd13ifvqcf0","pricing_plan_id":"cebpf4jnsgd1na2vs0mg"},{"bike_id":"0033e271-1989-4508-9747-b3f738efccf9","system_id":"levelo_inurba_marseille","lat":43.313571,"lon":5.384829,"is_reserved":false,"is_disabled":false,"rental_uris":{"android":"levelo://app?vid=0033e271-1989-4508-9747-b3f738efccf9","ios":"levelo://app?vid=0033e271-1989-4508-9747-b3f738efccf9"},"vehicle_type_id":"4","last_reported":1725826104,"current_range_meters":27600,"station_id":"ce4bgt92rcd13ifvqcf0","pricing_plan_id":"cebpf4jnsgd1na2vs0mg"},{"bike_id":"1859150e-aa2e-459c-b465-d3139cfe62e0","system_id":"levelo_inurba_marseille","lat":43.299846,"lon":5.371733,"is_reserved":false,"is_disabled":false,"rental_uris":{"android":"levelo://app?vid=1859150e-aa2e-459c-b465-d3139cfe62e0","ios":"levelo://app?vid=1859150e-aa2e-459c-b465-d3139cfe62e0"},"vehicle_type_id":"4","last_reported":1725826104,"current_range_meters":27200,"station_id":"ce4bgr92rcd13ifvqc7g","pricing_plan_id":"cebpf4jnsgd1na2vs0mg"},{"bike_id":"7086c82d-9374-4c72-908d-d6493d0e006c","system_id":"levelo_inurba_marseille","lat":43.299222,"lon":5.365554,"is_reserved":false,"is_disabled":false,"rental_uris":{"android":"levelo://app?vid=7086c82d-9374-4c72-908d-d6493d0e006c","ios":"levelo://app?vid=7086c82d-9374-4c72-908d-d6493d0e006c"},"vehicle_type_id":"4","last_reported":1725826104,"current_range_meters":2000,"station_id":"ce4bgm92rcd13ifvqbr0","pricing_plan_id":"cebpf4jnsgd1na2vs0mg"},{"bike_id":"27d5c764-ad4a-4554-902c-c965d2d921cb","system_id":"levelo_inurba_marseille","lat":43.299222,"lon":5.365554,"is_reserved":false,"is_disabled":false,"rental_uris":{"android":"levelo://app?vid=27d5c764-ad4a-4554-902c-c965d2d921cb","ios":"levelo://app?vid=27d5c764-ad4a-4554-902c-c965d2d921cb"},"vehicle_type_id":"4","last_reported":1725826104,"current_range_meters":0,"station_id":"ce4bgm92rcd13ifvqbr0","pricing_plan_id":"cebpf4jnsgd1na2vs0mg"},{"bike_id":"53817ba8-5e21-4c46-abc6-c39a200d6a23","system_id":"levelo_inurba_marseille","lat":43.311722,"lon":5.387247,"is_reserved":false,"is_disabled":false,"rental_uris":{"android":"levelo://app?vid=53817ba8-5e21-4c46-abc6-c39a200d6a23","ios":"levelo://app?vid=53817ba8-5e21-4c46-abc6-c39a200d6a23"},"vehicle_type_id":"4","last_reported":1725826104,"current_range_meters":18400,"station_id":"ce4bgv12rcd13ifvqcp0","pricing_plan_id":"cebpf4jnsgd1na2vs0mg"},{"bike_id":"4799c050-c945-4c09-8715-a8be47e6dc5b","system_id":"levelo_inurba_marseille","lat":43.299243,"lon":5.37481,"is_reserved":false,"is_disabled":false,"rental_uris":{"android":"levelo://app?vid=4799c050-c945-4c09-8715-a8be47e6dc5b","ios":"levelo://app?vid=4799c050-c945-4c09-8715-a8be47e6dc5b"},"vehicle_type_id":"4","last_reported":1725826104,"current_range_meters":8800,"station_id":"ce4bgjh2rcd13ifvqbg0","pricing_plan_id":"cebpf4jnsgd1na2vs0mg"},{"bike_id":"ea38057d-0bb3-43c3-af30-356f48871d7e","system_id":"levelo_inurba_marseille","lat":43.298433,"lon":5.362774,"is_reserved":false,"is_disabled":false,"rental_uris":{"android":"levelo://app?vid=ea38057d-0bb3-43c3-af30-356f48871d7e","ios":"levelo://app?vid=ea38057d-0bb3-43c3-af30-356f48871d7e"},"vehicle_type_id":"4","last_reported":1725826104,"current_range_meters":25600,"station_id":"ce4bgpp2rcd13ifvqc3g","pricing_plan_id":"cebpf4jnsgd1na2vs0mg"},{"bike_id":"8f452255-48c2-42fb-afea-86e3e2e27a25","system_id":"levelo_inurba_marseille","lat":43.299243,"lon":5.374807,"is_reserved":false,"is_disabled":false,"rental_uris":{"android":"levelo://app?vid=8f452255-48c2-42fb-afea-86e3e2e27a25","ios":"levelo://app?vid=8f452255-48c2-42fb-afea-86e3e2e27a25"},"vehicle_type_id":"4","last_reported":1725826104,"current_range_meters":28000,"station_id":"ce4bgjh2rcd13ifvqbg0","pricing_plan_id":"cebpf4jnsgd1na2vs0mg"},{"bike_id":"dfbe30a3-b7b0-4cad-9b52-1773c6f06140","system_id":"levelo_inurba_marseille","lat":43.311722,"lon":5.387247,"is_reserved":false,"is_disabled":false,"rental_uris":{"android":"levelo://app?vid=dfbe30a3-b7b0-4cad-9b52-1773c6f06140","ios":"levelo://app?vid=dfbe30a3-b7b0-4cad-9b52-1773c6f06140"},"vehicle_type_id":"4","last_reported":1725826104,"current_range_meters":18800,"station_id":"ce4bgv12rcd13ifvqcp0","pricing_plan_id":"cebpf4jnsgd1na2vs0mg"},{"bike_id":"2f63ccd2-2808-4925-b470-2a66adc32ae4","system_id":"levelo_inurba_marseille","lat":43.311722,"lon":5.387247,"is_reserved":false,"is_disabled":false,"rental_uris":{"android":"levelo://app?vid=2f63ccd2-2808-4925-b470-2a66adc32ae4","ios":"levelo://app?vid=2f63ccd2-2808-4925-b470-2a66adc32ae4"},"vehicle_type_id":"4","last_reported":1725826104,"current_range_meters":12000,"station_id":"ce4bgv12rcd13ifvqcp0","pricing_plan_id":"cebpf4jnsgd1na2vs0mg"},{"bike_id":"8fe98b03-cc59-451f-a484-a054af3c9f86","system_id":"levelo_inurba_marseille","lat":43.311722,"lon":5.387247,"is_reserved":false,"is_disabled":false,"rental_uris":{"android":"levelo://app?vid=8fe98b03-cc59-451f-a484-a054af3c9f86","ios":"levelo://app?vid=8fe98b03-cc59-451f-a484-a054af3c9f86"},"vehicle_type_id":"4","last_reported":1725826104,"current_range_meters":23200,"station_id":"ce4bgv12rcd13ifvqcp0","pricing_plan_id":"cebpf4jnsgd1na2vs0mg"},{"bike_id":"070059cd-a761-45cc-9f44-69bd0ad2c4da","system_id":"levelo_inurba_marseille","lat":43.301417,"lon":5.3809,"is_reserved":false,"is_disabled":false,"rental_uris":{"android":"levelo://app?vid=070059cd-a761-45cc-9f44-69bd0ad2c4da","ios":"levelo://app?vid=070059cd-a761-45cc-9f44-69bd0ad2c4da"},"vehicle_type_id":"4","last_reported":1725826104,"current_range_meters":23200,"station_id":"ce4bgjp2rcd13ifvqbh0","pricing_plan_id":"cebpf4jnsgd1na2vs0mg"},{"bike_id":"62953769-bad5-49c0-81ed-44b4d9f5698f","system_id":"levelo_inurba_marseille","lat":43.297839,"lon":5.371098,"is_reserved":false,"is_disabled":false,"rental_uris":{"android":"levelo://app?vid=62953769-bad5-49c0-81ed-44b4d9f5698f","ios":"levelo://app?vid=62953769-bad5-49c0-81ed-44b4d9f5698f"},"vehicle_type_id":"4","last_reported":1725826104,"current_range_meters":24400,"station_id":"ce4bgop2rcd13ifvqc1g","pricing_plan_id":"cebpf4jnsgd1na2vs0mg"},{"bike_id":"791b4ace-d808-4905-88ec-eecf0b011410","system_id":"levelo_inurba_marseille","lat":43.297794,"lon":5.370888,"is_reserved":false,"is_disabled":false,"rental_uris":{"android":"levelo://app?vid=791b4ace-d808-4905-88ec-eecf0b011410","ios":"levelo://app?vid=791b4ace-d808-4905-88ec-eecf0b011410"},"vehicle_type_id":"4","last_reported":1725826104,"current_range_meters":24400,"station_id":"ce4bgop2rcd13ifvqc1g","pricing_plan_id":"cebpf4jnsgd1na2vs0mg"},{"bike_id":"c44588a4-f0c3-4e47-9551-12f24c76e247","system_id":"levelo_inurba_marseille","lat":43.32289,"lon":5.38271,"is_reserved":false,"is_disabled":false,"rental_uris":{"android":"levelo://app?vid=c44588a4-f0c3-4e47-9551-12f24c76e247","ios":"levelo://app?vid=c44588a4-f0c3-4e47-9551-12f24c76e247"},"vehicle_type_id":"4","last_reported":1725826104,"current_range_meters":28800,"station_id":"ce4bhr12rcd13ifvqhqg","pricing_plan_id":"cebpf4jnsgd1na2vs0mg"},{"bike_id":"61946a75-1e7c-4265-a3b6-5f15351838fb","system_id":"levelo_inurba_marseille","lat":43.322872,"lon":5.382756,"is_reserved":false,"is_disabled":false,"rental_uris":{"android":"levelo://app?vid=61946a75-1e7c-4265-a3b6-5f15351838fb","ios":"levelo://app?vid=61946a75-1e7c-4265-a3b6-5f15351838fb"},"vehicle_type_id":"4","last_reported":1725826104,"current_range_meters":19600,"station_id":"ce4bhr12rcd13ifvqhqg","pricing_plan_id":"cebpf4jnsgd1na2vs0mg"},{"bike_id":"2e865a37-4525-4154-bfa5-2e253b800524","system_id":"levelo_inurba_marseille","lat":43.322872,"lon":5.382756,"is_reserved":false,"is_disabled":false,"rental_uris":{"android":"levelo://app?vid=2e865a37-4525-4154-bfa5-2e253b800524","ios":"levelo://app?vid=2e865a37-4525-4154-bfa5-2e253b800524"},"vehicle_type_id":"4","last_reported":1725826104,"current_range_meters":30000,"station_id":"ce4bhr12rcd13ifvqhqg","pricing_plan_id":"cebpf4jnsgd1na2vs0mg"},{"bike_id":"fd0e095f-66c0-4814-98d0-de33862519aa","system_id":"levelo_inurba_marseille","lat":43.322872,"lon":5.382756,"is_reserved":false,"is_disabled":false,"rental_uris":{"android":"levelo://app?vid=fd0e095f-66c0-4814-98d0-de33862519aa","ios":"levelo://app?vid=fd0e095f-66c0-4814-98d0-de33862519aa"},"vehicle_type_id":"4","last_reported":1725826104,"current_range_meters":4800,"station_id":"ce4bhr12rcd13ifvqhqg","pricing_plan_id":"cebpf4jnsgd1na2vs0mg"},{"bike_id":"1a5f8300-291b-493d-ad5b-ec07f0eaf598","system_id":"levelo_inurba_marseille","lat":43.322872,"lon":5.382756,"is_reserved":false,"is_disabled":false,"rental_uris":{"android":"levelo://app?vid=1a5f8300-291b-493d-ad5b-ec07f0eaf598","ios":"levelo://app?vid=1a5f8300-291b-493d-ad5b-ec07f0eaf598"},"vehicle_type_id":"4","last_reported":1725826104,"current_range_meters":31600,"station_id":"ce4bhr12rcd13ifvqhqg","pricing_plan_id":"cebpf4jnsgd1na2vs0mg"},{"bike_id":"e58de14d-48fa-49ff-9e42-30fa2b11e8dc","system_id":"levelo_inurba_marseille","lat":43.322872,"lon":5.382756,"is_reserved":false,"is_disabled":false,"rental_uris":{"android":"levelo://app?vid=e58de14d-48fa-49ff-9e42-30fa2b11e8dc","ios":"levelo://app?vid=e58de14d-48fa-49ff-9e42-30fa2b11e8dc"},"vehicle_type_id":"4","last_reported":1725826104,"current_range_meters":8400,"station_id":"ce4bhr12rcd13ifvqhqg","pricing_plan_id":"cebpf4jnsgd1na2vs0mg"},{"bike_id":"9d4d4ad3-9fa4-4394-8995-8a5887e80cc8","system_id":"levelo_inurba_marseille","lat":43.3229,"lon":5.382786,"is_reserved":false,"is_disabled":false,"rental_uris":{"android":"levelo://app?vid=9d4d4ad3-9fa4-4394-8995-8a5887e80cc8","ios":"levelo://app?vid=9d4d4ad3-9fa4-4394-8995-8a5887e80cc8"},"vehicle_type_id":"4","last_reported":1725826104,"current_range_meters":5200,"station_id":"ce4bhr12rcd13ifvqhqg","pricing_plan_id":"cebpf4jnsgd1na2vs0mg"},{"bike_id":"1f1e6004-3006-416a-9019-e77de74a8bd5","system_id":"levelo_inurba_marseille","lat":43.322872,"lon":5.382756,"is_reserved":false,"is_disabled":false,"rental_uris":{"android":"levelo://app?vid=1f1e6004-3006-416a-9019-e77de74a8bd5","ios":"levelo://app?vid=1f1e6004-3006-416a-9019-e77de74a8bd5"},"vehicle_type_id":"4","last_reported":1725826104,"current_range_meters":11200,"station_id":"ce4bhr12rcd13ifvqhqg","pricing_plan_id":"cebpf4jnsgd1na2vs0mg"},{"bike_id":"5f1151a4-044d-4e98-a822-fe0ac8b3d653","system_id":"levelo_inurba_marseille","lat":43.297163,"lon":5.365866,"is_reserved":false,"is_disabled":false,"rental_uris":{"android":"levelo://app?vid=5f1151a4-044d-4e98-a822-fe0ac8b3d653","ios":"levelo://app?vid=5f1151a4-044d-4e98-a822-fe0ac8b3d653"},"vehicle_type_id":"4","last_reported":1725826104,"current_range_meters":25200,"station_id":"ce4bgn12rcd13ifvqbt0","pricing_plan_id":"cebpf4jnsgd1na2vs0mg"},{"bike_id":"105bc4e8-c71e-4b5d-b34c-269838fe1e0e","system_id":"levelo_inurba_marseille","lat":43.31586,"lon":5.3887,"is_reserved":false,"is_disabled":false,"rental_uris":{"android":"levelo://app?vid=105bc4e8-c71e-4b5d-b34c-269838fe1e0e","ios":"levelo://app?vid=105bc4e8-c71e-4b5d-b34c-269838fe1e0e"},"vehicle_type_id":"4","last_reported":1725826104,"current_range_meters":9600,"station_id":"","pricing_plan_id":"cebpf4jnsgd1na2vs0mg"},{"bike_id":"8a8887de-5c7d-4b1c-91b2-78e9c920b48d","system_id":"levelo_inurba_marseille","lat":43.2968,"lon":5.37291,"is_reserved":false,"is_disabled":false,"rental_uris":{"android":"levelo://app?vid=8a8887de-5c7d-4b1c-91b2-78e9c920b48d","ios":"levelo://app?vid=8a8887de-5c7d-4b1c-91b2-78e9c920b48d"},"vehicle_type_id":"4","last_reported":1725826104,"current_range_meters":30000,"station_id":"ce4bgk12rcd13ifvqbj0","pricing_plan_id":"cebpf4jnsgd1na2vs0mg"},{"bike_id":"1af40115-97a4-4ef3-9520-052ed3a09308","system_id":"levelo_inurba_marseille","lat":43.29573,"lon":5.367355,"is_reserved":false,"is_disabled":false,"rental_uris":{"android":"levelo://app?vid=1af40115-97a4-4ef3-9520-052ed3a09308","ios":"levelo://app?vid=1af40115-97a4-4ef3-9520-052ed3a09308"},"vehicle_type_id":"4","last_reported":1725826104,"current_range_meters":28800,"station_id":"ce4bgph2rcd13ifvqc2g","pricing_plan_id":"cebpf4jnsgd1na2vs0mg"},{"bike_id":"00c76618-f8e7-4d4b-9cab-f75bc2ca477e","system_id":"levelo_inurba_marseille","lat":43.296935,"lon":5.376544,"is_reserved":false,"is_disabled":false,"rental_uris":{"android":"levelo://app?vid=00c76618-f8e7-4d4b-9cab-f75bc2ca477e","ios":"levelo://app?vid=00c76618-f8e7-4d4b-9cab-f75bc2ca477e"},"vehicle_type_id":"4","last_reported":1725826104,"current_range_meters":14800,"station_id":"ce4bgkh2rcd13ifvqbl0","pricing_plan_id":"cebpf4jnsgd1na2vs0mg"},{"bike_id":"906c2b0b-ab5b-452a-9b4d-171e2581c0d5","system_id":"levelo_inurba_marseille","lat":43.296935,"lon":5.376544,"is_reserved":false,"is_disabled":false,"rental_uris":{"android":"levelo://app?vid=906c2b0b-ab5b-452a-9b4d-171e2581c0d5","ios":"levelo://app?vid=906c2b0b-ab5b-452a-9b4d-171e2581c0d5"},"vehicle_type_id":"4","last_reported":1725826104,"current_range_meters":15600,"station_id":"ce4bgkh2rcd13ifvqbl0","pricing_plan_id":"cebpf4jnsgd1na2vs0mg"},{"bike_id":"bcb71676-b842-40a0-a7bc-319a23bf348e","system_id":"levelo_inurba_marseille","lat":43.299028,"lon":5.381509,"is_reserved":false,"is_disabled":false,"rental_uris":{"android":"levelo://app?vid=bcb71676-b842-40a0-a7bc-319a23bf348e","ios":"levelo://app?vid=bcb71676-b842-40a0-a7bc-319a23bf348e"},"vehicle_type_id":"4","last_reported":1725826104,"current_range_meters":28400,"station_id":"ce4bgj12rcd13ifvqbc0","pricing_plan_id":"cebpf4jnsgd1na2vs0mg"},{"bike_id":"ac487eb5-c683-4c3f-8311-bf728857c8f1","system_id":"levelo_inurba_marseille","lat":43.309589,"lon":5.390258,"is_reserved":false,"is_disabled":false,"rental_uris":{"android":"levelo://app?vid=ac487eb5-c683-4c3f-8311-bf728857c8f1","ios":"levelo://app?vid=ac487eb5-c683-4c3f-8311-bf728857c8f1"},"vehicle_type_id":"4","last_reported":1725826104,"current_range_meters":28400,"station_id":"ce4bgup2rcd13ifvqco0","pricing_plan_id":"cebpf4jnsgd1na2vs0mg"},{"bike_id":"e7f5eee6-0316-4948-b9be-97be87356857","system_id":"levelo_inurba_marseille","lat":43.317557,"lon":5.390173,"is_reserved":false,"is_disabled":false,"rental_uris":{"android":"levelo://app?vid=e7f5eee6-0316-4948-b9be-97be87356857","ios":"levelo://app?vid=e7f5eee6-0316-4948-b9be-97be87356857"},"vehicle_type_id":"4","last_reported":1725826104,"current_range_meters":19600,"station_id":"ce4bhqp2rcd13ifvqhng","pricing_plan_id":"cebpf4jnsgd1na2vs0mg"},{"bike_id":"d58d0ecd-5c72-4886-b1a2-59be95d8dbae","system_id":"levelo_inurba_marseille","lat":43.317557,"lon":5.390173,"is_reserved":false,"is_disabled":false,"rental_uris":{"android":"levelo://app?vid=d58d0ecd-5c72-4886-b1a2-59be95d8dbae","ios":"levelo://app?vid=d58d0ecd-5c72-4886-b1a2-59be95d8dbae"},"vehicle_type_id":"4","last_reported":1725826104,"current_range_meters":7600,"station_id":"ce4bhqp2rcd13ifvqhng","pricing_plan_id":"cebpf4jnsgd1na2vs0mg"},{"bike_id":"a93a0c9c-bb9f-410a-9116-e8207dd02fa1","system_id":"levelo_inurba_marseille","lat":43.317557,"lon":5.390173,"is_reserved":false,"is_disabled":false,"rental_uris":{"android":"levelo://app?vid=a93a0c9c-bb9f-410a-9116-e8207dd02fa1","ios":"levelo://app?vid=a93a0c9c-bb9f-410a-9116-e8207dd02fa1"},"vehicle_type_id":"4","last_reported":1725826104,"current_range_meters":19200,"station_id":"ce4bhqp2rcd13ifvqhng","pricing_plan_id":"cebpf4jnsgd1na2vs0mg"},{"bike_id":"10f69fe8-7773-460f-8cbc-84d5043d302b","system_id":"levelo_inurba_marseille","lat":43.32253,"lon":5.387034,"is_reserved":false,"is_disabled":false,"rental_uris":{"android":"levelo://app?vid=10f69fe8-7773-460f-8cbc-84d5043d302b","ios":"levelo://app?vid=10f69fe8-7773-460f-8cbc-84d5043d302b"},"vehicle_type_id":"4","last_reported":1725826104,"current_range_meters":18000,"station_id":"","pricing_plan_id":"cebpf4jnsgd1na2vs0mg"},{"bike_id":"6d766a22-a760-4c58-ac3b-06ec5f4e5f9e","system_id":"levelo_inurba_marseille","lat":43.317557,"lon":5.390173,"is_reserved":false,"is_disabled":false,"rental_uris":{"android":"levelo://app?vid=6d766a22-a760-4c58-ac3b-06ec5f4e5f9e","ios":"levelo://app?vid=6d766a22-a760-4c58-ac3b-06ec5f4e5f9e"},"vehicle_type_id":"4","last_reported":1725826104,"current_range_meters":4400,"station_id":"ce4bhqp2rcd13ifvqhng","pricing_plan_id":"cebpf4jnsgd1na2vs0mg"},{"bike_id":"827a1855-4480-4860-9ac2-6179c0d1e66d","system_id":"levelo_inurba_marseille","lat":43.317557,"lon":5.390173,"is_reserved":false,"is_disabled":false,"rental_uris":{"android":"levelo://app?vid=827a1855-4480-4860-9ac2-6179c0d1e66d","ios":"levelo://app?vid=827a1855-4480-4860-9ac2-6179c0d1e66d"},"vehicle_type_id":"4","last_reported":1725826104,"current_range_meters":3600,"station_id":"ce4bhqp2rcd13ifvqhng","pricing_plan_id":"cebpf4jnsgd1na2vs0mg"},{"bike_id":"b1dcc1d3-eda9-4170-ad14-0d6e904b6f76","system_id":"levelo_inurba_marseille","lat":43.317557,"lon":5.390173,"is_reserved":false,"is_disabled":false,"rental_uris":{"android":"levelo://app?vid=b1dcc1d3-eda9-4170-ad14-0d6e904b6f76","ios":"levelo://app?vid=b1dcc1d3-eda9-4170-ad14-0d6e904b6f76"},"vehicle_type_id":"4","last_reported":1725826104,"current_range_meters":19600,"station_id":"ce4bhqp2rcd13ifvqhng","pricing_plan_id":"cebpf4jnsgd1na2vs0mg"},{"bike_id":"e0c77653-9736-4712-a995-071c1e4934ff","system_id":"levelo_inurba_marseille","lat":43.317557,"lon":5.390173,"is_reserved":false,"is_disabled":false,"rental_uris":{"android":"levelo://app?vid=e0c77653-9736-4712-a995-071c1e4934ff","ios":"levelo://app?vid=e0c77653-9736-4712-a995-071c1e4934ff"},"vehicle_type_id":"4","last_reported":1725826104,"current_range_meters":2000,"station_id":"ce4bhqp2rcd13ifvqhng","pricing_plan_id":"cebpf4jnsgd1na2vs0mg"},{"bike_id":"46cd1718-1511-4f81-ba7c-7ac2516a7e9e","system_id":"levelo_inurba_marseille","lat":43.29799,"lon":5.38099,"is_reserved":false,"is_disabled":false,"rental_uris":{"android":"levelo://app?vid=46cd1718-1511-4f81-ba7c-7ac2516a7e9e","ios":"levelo://app?vid=46cd1718-1511-4f81-ba7c-7ac2516a7e9e"},"vehicle_type_id":"4","last_reported":1725826104,"current_range_meters":0,"station_id":"ce4bgip2rcd13ifvqbb0","pricing_plan_id":"cebpf4jnsgd1na2vs0mg"},{"bike_id":"7b676513-90d1-4ccf-bc78-a87e53244a41","system_id":"levelo_inurba_marseille","lat":43.297973,"lon":5.38106,"is_reserved":false,"is_disabled":false,"rental_uris":{"android":"levelo://app?vid=7b676513-90d1-4ccf-bc78-a87e53244a41","ios":"levelo://app?vid=7b676513-90d1-4ccf-bc78-a87e53244a41"},"vehicle_type_id":"4","last_reported":1725826104,"current_range_meters":24400,"station_id":"ce4bgip2rcd13ifvqbb0","pricing_plan_id":"cebpf4jnsgd1na2vs0mg"},{"bike_id":"07503a9a-8e74-4513-a5ef-bb9c520082dc","system_id":"levelo_inurba_marseille","lat":43.29577,"lon":5.37517,"is_reserved":false,"is_disabled":false,"rental_uris":{"android":"levelo://app?vid=07503a9a-8e74-4513-a5ef-bb9c520082dc","ios":"levelo://app?vid=07503a9a-8e74-4513-a5ef-bb9c520082dc"},"vehicle_type_id":"4","last_reported":1725826104,"current_range_meters":0,"station_id":"ce4bgh92rcd13ifvqb50","pricing_plan_id":"cebpf4jnsgd1na2vs0mg"},{"bike_id":"4ae41cea-4591-41ff-8c02-12b595c1f3df","system_id":"levelo_inurba_marseille","lat":43.304274,"lon":5.388873,"is_reserved":false,"is_disabled":false,"rental_uris":{"android":"levelo://app?vid=4ae41cea-4591-41ff-8c02-12b595c1f3df","ios":"levelo://app?vid=4ae41cea-4591-41ff-8c02-12b595c1f3df"},"vehicle_type_id":"4","last_reported":1725826104,"current_range_meters":27600,"station_id":"ce4bgk12rcd13ifvqbi0","pricing_plan_id":"cebpf4jnsgd1na2vs0mg"},{"bike_id":"53e1d79c-619d-4f0a-9d1d-e473bfaece90","system_id":"levelo_inurba_marseille","lat":43.29568,"lon":5.37509,"is_reserved":false,"is_disabled":false,"rental_uris":{"android":"levelo://app?vid=53e1d79c-619d-4f0a-9d1d-e473bfaece90","ios":"levelo://app?vid=53e1d79c-619d-4f0a-9d1d-e473bfaece90"},"vehicle_type_id":"4","last_reported":1725826104,"current_range_meters":0,"station_id":"ce4bgh92rcd13ifvqb50","pricing_plan_id":"cebpf4jnsgd1na2vs0mg"},{"bike_id":"0cbda6dd-faed-44d5-a3ef-f7d151a9c376","system_id":"levelo_inurba_marseille","lat":43.295748,"lon":5.37522,"is_reserved":false,"is_disabled":false,"rental_uris":{"android":"levelo://app?vid=0cbda6dd-faed-44d5-a3ef-f7d151a9c376","ios":"levelo://app?vid=0cbda6dd-faed-44d5-a3ef-f7d151a9c376"},"vehicle_type_id":"4","last_reported":1725826104,"current_range_meters":0,"station_id":"ce4bgh92rcd13ifvqb50","pricing_plan_id":"cebpf4jnsgd1na2vs0mg"},{"bike_id":"d0c16384-dc11-4173-b600-e5da07b0c45c","system_id":"levelo_inurba_marseille","lat":43.304278,"lon":5.388868,"is_reserved":false,"is_disabled":false,"rental_uris":{"android":"levelo://app?vid=d0c16384-dc11-4173-b600-e5da07b0c45c","ios":"levelo://app?vid=d0c16384-dc11-4173-b600-e5da07b0c45c"},"vehicle_type_id":"4","last_reported":1725826104,"current_range_meters":17200,"station_id":"ce4bgk12rcd13ifvqbi0","pricing_plan_id":"cebpf4jnsgd1na2vs0mg"},{"bike_id":"1abf5906-c9e2-49dd-a2d2-1e96878d311e","system_id":"levelo_inurba_marseille","lat":43.297265,"lon":5.37991,"is_reserved":false,"is_disabled":false,"rental_uris":{"android":"levelo://app?vid=1abf5906-c9e2-49dd-a2d2-1e96878d311e","ios":"levelo://app?vid=1abf5906-c9e2-49dd-a2d2-1e96878d311e"},"vehicle_type_id":"4","last_reported":1725826104,"current_range_meters":0,"station_id":"","pricing_plan_id":"cebpf4jnsgd1na2vs0mg"},{"bike_id":"82dc5da9-7001-4cf7-9c03-6ee4a78ceb94","system_id":"levelo_inurba_marseille","lat":43.30416,"lon":5.38895,"is_reserved":false,"is_disabled":false,"rental_uris":{"android":"levelo://app?vid=82dc5da9-7001-4cf7-9c03-6ee4a78ceb94","ios":"levelo://app?vid=82dc5da9-7001-4cf7-9c03-6ee4a78ceb94"},"vehicle_type_id":"4","last_reported":1725826104,"current_range_meters":0,"station_id":"ce4bgk12rcd13ifvqbi0","pricing_plan_id":"cebpf4jnsgd1na2vs0mg"},{"bike_id":"a0e8d4a9-709d-4fb8-863c-ae0759e21f09","system_id":"levelo_inurba_marseille","lat":43.308012,"lon":5.381511,"is_reserved":false,"is_disabled":false,"rental_uris":{"android":"levelo://app?vid=a0e8d4a9-709d-4fb8-863c-ae0759e21f09","ios":"levelo://app?vid=a0e8d4a9-709d-4fb8-863c-ae0759e21f09"},"vehicle_type_id":"4","last_reported":1725826104,"current_range_meters":11600,"station_id":"ce4bgt12rcd13ifvqce0","pricing_plan_id":"cebpf4jnsgd1na2vs0mg"},{"bike_id":"534055d0-449f-4610-9fc3-f7f7080e54d1","system_id":"levelo_inurba_marseille","lat":43.30024,"lon":5.38548,"is_reserved":false,"is_disabled":false,"rental_uris":{"android":"levelo://app?vid=534055d0-449f-4610-9fc3-f7f7080e54d1","ios":"levelo://app?vid=534055d0-449f-4610-9fc3-f7f7080e54d1"},"vehicle_type_id":"4","last_reported":1725826104,"current_range_meters":11600,"station_id":"","pricing_plan_id":"cebpf4jnsgd1na2vs0mg"},{"bike_id":"5e05e5cb-4daa-4df2-a6e8-d2b1535dd833","system_id":"levelo_inurba_marseille","lat":43.299717,"lon":5.384845,"is_reserved":false,"is_disabled":false,"rental_uris":{"android":"levelo://app?vid=5e05e5cb-4daa-4df2-a6e8-d2b1535dd833","ios":"levelo://app?vid=5e05e5cb-4daa-4df2-a6e8-d2b1535dd833"},"vehicle_type_id":"4","last_reported":1725826104,"current_range_meters":10800,"station_id":"ce4bgj92rcd13ifvqbd0","pricing_plan_id":"cebpf4jnsgd1na2vs0mg"},{"bike_id":"7baa5113-de20-4046-9d97-4b2b8eccc997","system_id":"levelo_inurba_marseille","lat":43.29962,"lon":5.38496,"is_reserved":false,"is_disabled":false,"rental_uris":{"android":"levelo://app?vid=7baa5113-de20-4046-9d97-4b2b8eccc997","ios":"levelo://app?vid=7baa5113-de20-4046-9d97-4b2b8eccc997"},"vehicle_type_id":"4","last_reported":1725826104,"current_range_meters":0,"station_id":"ce4bgj92rcd13ifvqbd0","pricing_plan_id":"cebpf4jnsgd1na2vs0mg"},{"bike_id":"ef17ac17-32d0-420f-badf-1bd6fdd47ca2","system_id":"levelo_inurba_marseille","lat":43.32672,"lon":5.38382,"is_reserved":false,"is_disabled":false,"rental_uris":{"android":"levelo://app?vid=ef17ac17-32d0-420f-badf-1bd6fdd47ca2","ios":"levelo://app?vid=ef17ac17-32d0-420f-badf-1bd6fdd47ca2"},"vehicle_type_id":"4","last_reported":1725826104,"current_range_meters":4000,"station_id":"","pricing_plan_id":"cebpf4jnsgd1na2vs0mg"},{"bike_id":"5daab6b2-306a-4471-aefe-8b2e128afca9","system_id":"levelo_inurba_marseille","lat":43.32367,"lon":5.388836,"is_reserved":false,"is_disabled":false,"rental_uris":{"android":"levelo://app?vid=5daab6b2-306a-4471-aefe-8b2e128afca9","ios":"levelo://app?vid=5daab6b2-306a-4471-aefe-8b2e128afca9"},"vehicle_type_id":"4","last_reported":1725826104,"current_range_meters":0,"station_id":"ce4bhqp2rcd13ifvqhog","pricing_plan_id":"cebpf4jnsgd1na2vs0mg"},{"bike_id":"1389f4a0-fe8c-45a8-89e1-761602337135","system_id":"levelo_inurba_marseille","lat":43.32367,"lon":5.38925,"is_reserved":false,"is_disabled":false,"rental_uris":{"android":"levelo://app?vid=1389f4a0-fe8c-45a8-89e1-761602337135","ios":"levelo://app?vid=1389f4a0-fe8c-45a8-89e1-761602337135"},"vehicle_type_id":"4","last_reported":1725826104,"current_range_meters":15200,"station_id":"ce4bhqp2rcd13ifvqhog","pricing_plan_id":"cebpf4jnsgd1na2vs0mg"},{"bike_id":"74c59e3d-56c9-4373-9efe-a345696f9a5c","system_id":"levelo_inurba_marseille","lat":43.3237,"lon":5.38926,"is_reserved":false,"is_disabled":false,"rental_uris":{"android":"levelo://app?vid=74c59e3d-56c9-4373-9efe-a345696f9a5c","ios":"levelo://app?vid=74c59e3d-56c9-4373-9efe-a345696f9a5c"},"vehicle_type_id":"4","last_reported":1725826104,"current_range_meters":20400,"station_id":"","pricing_plan_id":"cebpf4jnsgd1na2vs0mg"},{"bike_id":"41704600-e9e6-4869-aefd-a4a12996605b","system_id":"levelo_inurba_marseille","lat":43.3237,"lon":5.38926,"is_reserved":false,"is_disabled":false,"rental_uris":{"android":"levelo://app?vid=41704600-e9e6-4869-aefd-a4a12996605b","ios":"levelo://app?vid=41704600-e9e6-4869-aefd-a4a12996605b"},"vehicle_type_id":"4","last_reported":1725826104,"current_range_meters":8000,"station_id":"ce4bhqp2rcd13ifvqhog","pricing_plan_id":"cebpf4jnsgd1na2vs0mg"},{"bike_id":"8fd2843d-a2d8-41e8-8195-f4d9ddcf7916","system_id":"levelo_inurba_marseille","lat":43.295977,"lon":5.381013,"is_reserved":false,"is_disabled":false,"rental_uris":{"android":"levelo://app?vid=8fd2843d-a2d8-41e8-8195-f4d9ddcf7916","ios":"levelo://app?vid=8fd2843d-a2d8-41e8-8195-f4d9ddcf7916"},"vehicle_type_id":"4","last_reported":1725826104,"current_range_meters":1600,"station_id":"ce4bgl12rcd13ifvqbo0","pricing_plan_id":"cebpf4jnsgd1na2vs0mg"},{"bike_id":"6f37c59d-cd45-4a97-aadb-ecec4a0a2f6a","system_id":"levelo_inurba_marseille","lat":43.29327,"lon":5.37076,"is_reserved":false,"is_disabled":false,"rental_uris":{"android":"levelo://app?vid=6f37c59d-cd45-4a97-aadb-ecec4a0a2f6a","ios":"levelo://app?vid=6f37c59d-cd45-4a97-aadb-ecec4a0a2f6a"},"vehicle_type_id":"4","last_reported":1725826104,"current_range_meters":22800,"station_id":"","pricing_plan_id":"cebpf4jnsgd1na2vs0mg"},{"bike_id":"18fe6021-93da-4c7f-86f7-dc48d0735513","system_id":"levelo_inurba_marseille","lat":43.303002,"lon":5.392142,"is_reserved":false,"is_disabled":false,"rental_uris":{"android":"levelo://app?vid=18fe6021-93da-4c7f-86f7-dc48d0735513","ios":"levelo://app?vid=18fe6021-93da-4c7f-86f7-dc48d0735513"},"vehicle_type_id":"4","last_reported":1725826104,"current_range_meters":18800,"station_id":"ce4bgkh2rcd13ifvqbk0","pricing_plan_id":"cebpf4jnsgd1na2vs0mg"},{"bike_id":"1b289fc4-9651-42cd-86c1-eb2d65179ed4","system_id":"levelo_inurba_marseille","lat":43.29295,"lon":5.37459,"is_reserved":false,"is_disabled":false,"rental_uris":{"android":"levelo://app?vid=1b289fc4-9651-42cd-86c1-eb2d65179ed4","ios":"levelo://app?vid=1b289fc4-9651-42cd-86c1-eb2d65179ed4"},"vehicle_type_id":"4","last_reported":1725826104,"current_range_meters":13200,"station_id":"ce4bgi12rcd13ifvqb70","pricing_plan_id":"cebpf4jnsgd1na2vs0mg"},{"bike_id":"8c2d71b0-54b8-4f86-832d-9e548755d66d","system_id":"levelo_inurba_marseille","lat":43.305994,"lon":5.393687,"is_reserved":false,"is_disabled":false,"rental_uris":{"android":"levelo://app?vid=8c2d71b0-54b8-4f86-832d-9e548755d66d","ios":"levelo://app?vid=8c2d71b0-54b8-4f86-832d-9e548755d66d"},"vehicle_type_id":"4","last_reported":1725826104,"current_range_meters":13600,"station_id":"ce4bh0p2rcd13ifvqd80","pricing_plan_id":"cebpf4jnsgd1na2vs0mg"},{"bike_id":"7a851dc4-bceb-4e6c-9581-39d31f6ef251","system_id":"levelo_inurba_marseille","lat":43.305994,"lon":5.393687,"is_reserved":false,"is_disabled":false,"rental_uris":{"android":"levelo://app?vid=7a851dc4-bceb-4e6c-9581-39d31f6ef251","ios":"levelo://app?vid=7a851dc4-bceb-4e6c-9581-39d31f6ef251"},"vehicle_type_id":"4","last_reported":1725826104,"current_range_meters":25600,"station_id":"ce4bh0p2rcd13ifvqd80","pricing_plan_id":"cebpf4jnsgd1na2vs0mg"},{"bike_id":"f1ddb5a7-30a6-4ace-acf3-3e28fb86b5f9","system_id":"levelo_inurba_marseille","lat":43.302992,"lon":5.392136,"is_reserved":false,"is_disabled":false,"rental_uris":{"android":"levelo://app?vid=f1ddb5a7-30a6-4ace-acf3-3e28fb86b5f9","ios":"levelo://app?vid=f1ddb5a7-30a6-4ace-acf3-3e28fb86b5f9"},"vehicle_type_id":"4","last_reported":1725826104,"current_range_meters":15200,"station_id":"ce4bgkh2rcd13ifvqbk0","pricing_plan_id":"cebpf4jnsgd1na2vs0mg"},{"bike_id":"0f817509-f867-49d9-9c1e-477eb7b19adf","system_id":"levelo_inurba_marseille","lat":43.303002,"lon":5.392142,"is_reserved":false,"is_disabled":false,"rental_uris":{"android":"levelo://app?vid=0f817509-f867-49d9-9c1e-477eb7b19adf","ios":"levelo://app?vid=0f817509-f867-49d9-9c1e-477eb7b19adf"},"vehicle_type_id":"4","last_reported":1725826104,"current_range_meters":14800,"station_id":"ce4bgkh2rcd13ifvqbk0","pricing_plan_id":"cebpf4jnsgd1na2vs0mg"},{"bike_id":"c2f1f90a-183a-4ba6-ab64-cfe8faaaa1a0","system_id":"levelo_inurba_marseille","lat":43.302992,"lon":5.392136,"is_reserved":false,"is_disabled":false,"rental_uris":{"android":"levelo://app?vid=c2f1f90a-183a-4ba6-ab64-cfe8faaaa1a0","ios":"levelo://app?vid=c2f1f90a-183a-4ba6-ab64-cfe8faaaa1a0"},"vehicle_type_id":"4","last_reported":1725826104,"current_range_meters":8800,"station_id":"ce4bgkh2rcd13ifvqbk0","pricing_plan_id":"cebpf4jnsgd1na2vs0mg"},{"bike_id":"6cd3a3c3-43fe-427a-aff2-9e233725a8cb","system_id":"levelo_inurba_marseille","lat":43.302992,"lon":5.392136,"is_reserved":false,"is_disabled":false,"rental_uris":{"android":"levelo://app?vid=6cd3a3c3-43fe-427a-aff2-9e233725a8cb","ios":"levelo://app?vid=6cd3a3c3-43fe-427a-aff2-9e233725a8cb"},"vehicle_type_id":"4","last_reported":1725826104,"current_range_meters":10800,"station_id":"ce4bgkh2rcd13ifvqbk0","pricing_plan_id":"cebpf4jnsgd1na2vs0mg"},{"bike_id":"d24a40a3-aafe-447e-89e2-e73cf8a88b6d","system_id":"levelo_inurba_marseille","lat":43.29374,"lon":5.37847,"is_reserved":false,"is_disabled":false,"rental_uris":{"android":"levelo://app?vid=d24a40a3-aafe-447e-89e2-e73cf8a88b6d","ios":"levelo://app?vid=d24a40a3-aafe-447e-89e2-e73cf8a88b6d"},"vehicle_type_id":"4","last_reported":1725826104,"current_range_meters":9200,"station_id":"ce4bgjh2rcd13ifvqbf0","pricing_plan_id":"cebpf4jnsgd1na2vs0mg"},{"bike_id":"3ce88264-f181-4092-81f3-29594a850991","system_id":"levelo_inurba_marseille","lat":43.2936,"lon":5.37835,"is_reserved":false,"is_disabled":false,"rental_uris":{"android":"levelo://app?vid=3ce88264-f181-4092-81f3-29594a850991","ios":"levelo://app?vid=3ce88264-f181-4092-81f3-29594a850991"},"vehicle_type_id":"4","last_reported":1725826104,"current_range_meters":0,"station_id":"ce4bgjh2rcd13ifvqbf0","pricing_plan_id":"cebpf4jnsgd1na2vs0mg"},{"bike_id":"8de25e89-6993-44c7-8aef-6cbfe98a37df","system_id":"levelo_inurba_marseille","lat":43.2936,"lon":5.37835,"is_reserved":false,"is_disabled":false,"rental_uris":{"android":"levelo://app?vid=8de25e89-6993-44c7-8aef-6cbfe98a37df","ios":"levelo://app?vid=8de25e89-6993-44c7-8aef-6cbfe98a37df"},"vehicle_type_id":"4","last_reported":1725826104,"current_range_meters":6000,"station_id":"ce4bgjh2rcd13ifvqbf0","pricing_plan_id":"cebpf4jnsgd1na2vs0mg"},{"bike_id":"3cc005a5-f6e0-4af6-b8ca-f5428bf2db83","system_id":"levelo_inurba_marseille","lat":43.29227,"lon":5.36078,"is_reserved":false,"is_disabled":false,"rental_uris":{"android":"levelo://app?vid=3cc005a5-f6e0-4af6-b8ca-f5428bf2db83","ios":"levelo://app?vid=3cc005a5-f6e0-4af6-b8ca-f5428bf2db83"},"vehicle_type_id":"4","last_reported":1725826104,"current_range_meters":31200,"station_id":"ce4bhbh2rcd13ifvqeqg","pricing_plan_id":"cebpf4jnsgd1na2vs0mg"},{"bike_id":"32334e89-85e3-4035-bf9f-2b6dfee28aed","system_id":"levelo_inurba_marseille","lat":43.292197,"lon":5.360455,"is_reserved":false,"is_disabled":false,"rental_uris":{"android":"levelo://app?vid=32334e89-85e3-4035-bf9f-2b6dfee28aed","ios":"levelo://app?vid=32334e89-85e3-4035-bf9f-2b6dfee28aed"},"vehicle_type_id":"4","last_reported":1725826104,"current_range_meters":31200,"station_id":"ce4bhbh2rcd13ifvqeqg","pricing_plan_id":"cebpf4jnsgd1na2vs0mg"},{"bike_id":"c7a8756d-c3c6-4d26-85bc-a6773f7c784a","system_id":"levelo_inurba_marseille","lat":43.298764,"lon":5.388973,"is_reserved":false,"is_disabled":false,"rental_uris":{"android":"levelo://app?vid=c7a8756d-c3c6-4d26-85bc-a6773f7c784a","ios":"levelo://app?vid=c7a8756d-c3c6-4d26-85bc-a6773f7c784a"},"vehicle_type_id":"4","last_reported":1725826104,"current_range_meters":15600,"station_id":"ce4bh392rcd13ifvqdl0","pricing_plan_id":"cebpf4jnsgd1na2vs0mg"},{"bike_id":"75806c91-86ba-4876-961c-0397adcdc07a","system_id":"levelo_inurba_marseille","lat":43.29876,"lon":5.38906,"is_reserved":false,"is_disabled":false,"rental_uris":{"android":"levelo://app?vid=75806c91-86ba-4876-961c-0397adcdc07a","ios":"levelo://app?vid=75806c91-86ba-4876-961c-0397adcdc07a"},"vehicle_type_id":"4","last_reported":1725826104,"current_range_meters":0,"station_id":"ce4bh392rcd13ifvqdl0","pricing_plan_id":"cebpf4jnsgd1na2vs0mg"},{"bike_id":"25a0fac4-b1ea-4a3d-a8be-96f049111409","system_id":"levelo_inurba_marseille","lat":43.29529,"lon":5.385581,"is_reserved":false,"is_disabled":false,"rental_uris":{"android":"levelo://app?vid=25a0fac4-b1ea-4a3d-a8be-96f049111409","ios":"levelo://app?vid=25a0fac4-b1ea-4a3d-a8be-96f049111409"},"vehicle_type_id":"4","last_reported":1725826104,"current_range_meters":26000,"station_id":"ce4bgih2rcd13ifvqba0","pricing_plan_id":"cebpf4jnsgd1na2vs0mg"},{"bike_id":"cdeed97f-d2f9-4533-99ab-aecc38e8c1aa","system_id":"levelo_inurba_marseille","lat":43.313291,"lon":5.396838,"is_reserved":false,"is_disabled":false,"rental_uris":{"android":"levelo://app?vid=cdeed97f-d2f9-4533-99ab-aecc38e8c1aa","ios":"levelo://app?vid=cdeed97f-d2f9-4533-99ab-aecc38e8c1aa"},"vehicle_type_id":"4","last_reported":1725826104,"current_range_meters":28400,"station_id":"ce4bgvp2rcd13ifvqcu0","pricing_plan_id":"cebpf4jnsgd1na2vs0mg"},{"bike_id":"7e71c693-134b-4603-a1ee-efcd66e0895e","system_id":"levelo_inurba_marseille","lat":43.309047,"lon":5.396551,"is_reserved":false,"is_disabled":false,"rental_uris":{"android":"levelo://app?vid=7e71c693-134b-4603-a1ee-efcd66e0895e","ios":"levelo://app?vid=7e71c693-134b-4603-a1ee-efcd66e0895e"},"vehicle_type_id":"4","last_reported":1725826104,"current_range_meters":31600,"station_id":"ce4bh012rcd13ifvqcv0","pricing_plan_id":"cebpf4jnsgd1na2vs0mg"},{"bike_id":"363395eb-8519-4392-b906-a0ab81d85f75","system_id":"levelo_inurba_marseille","lat":43.309047,"lon":5.396551,"is_reserved":false,"is_disabled":false,"rental_uris":{"android":"levelo://app?vid=363395eb-8519-4392-b906-a0ab81d85f75","ios":"levelo://app?vid=363395eb-8519-4392-b906-a0ab81d85f75"},"vehicle_type_id":"4","last_reported":1725826104,"current_range_meters":8000,"station_id":"ce4bh012rcd13ifvqcv0","pricing_plan_id":"cebpf4jnsgd1na2vs0mg"},{"bike_id":"6d8c35c1-947d-4d05-9a9b-0db2222e8fba","system_id":"levelo_inurba_marseille","lat":43.309038,"lon":5.396546,"is_reserved":false,"is_disabled":false,"rental_uris":{"android":"levelo://app?vid=6d8c35c1-947d-4d05-9a9b-0db2222e8fba","ios":"levelo://app?vid=6d8c35c1-947d-4d05-9a9b-0db2222e8fba"},"vehicle_type_id":"4","last_reported":1725826104,"current_range_meters":13200,"station_id":"ce4bh012rcd13ifvqcv0","pricing_plan_id":"cebpf4jnsgd1na2vs0mg"},{"bike_id":"0295a6b8-7db4-4479-9ddf-4220149a115f","system_id":"levelo_inurba_marseille","lat":43.309038,"lon":5.396546,"is_reserved":false,"is_disabled":false,"rental_uris":{"android":"levelo://app?vid=0295a6b8-7db4-4479-9ddf-4220149a115f","ios":"levelo://app?vid=0295a6b8-7db4-4479-9ddf-4220149a115f"},"vehicle_type_id":"4","last_reported":1725826104,"current_range_meters":11200,"station_id":"ce4bh012rcd13ifvqcv0","pricing_plan_id":"cebpf4jnsgd1na2vs0mg"},{"bike_id":"cb3b9003-044b-4701-8a94-aeab2305a0e3","system_id":"levelo_inurba_marseille","lat":43.309038,"lon":5.396546,"is_reserved":false,"is_disabled":false,"rental_uris":{"android":"levelo://app?vid=cb3b9003-044b-4701-8a94-aeab2305a0e3","ios":"levelo://app?vid=cb3b9003-044b-4701-8a94-aeab2305a0e3"},"vehicle_type_id":"4","last_reported":1725826104,"current_range_meters":12400,"station_id":"ce4bh012rcd13ifvqcv0","pricing_plan_id":"cebpf4jnsgd1na2vs0mg"},{"bike_id":"a33936a6-6577-4c97-9fbf-3c89aa810ce1","system_id":"levelo_inurba_marseille","lat":43.29529,"lon":5.385581,"is_reserved":false,"is_disabled":false,"rental_uris":{"android":"levelo://app?vid=a33936a6-6577-4c97-9fbf-3c89aa810ce1","ios":"levelo://app?vid=a33936a6-6577-4c97-9fbf-3c89aa810ce1"},"vehicle_type_id":"4","last_reported":1725826104,"current_range_meters":27600,"station_id":"ce4bgih2rcd13ifvqba0","pricing_plan_id":"cebpf4jnsgd1na2vs0mg"},{"bike_id":"2fc7b7ab-ec8a-439b-8e39-ea219e44c413","system_id":"levelo_inurba_marseille","lat":43.29529,"lon":5.385581,"is_reserved":false,"is_disabled":false,"rental_uris":{"android":"levelo://app?vid=2fc7b7ab-ec8a-439b-8e39-ea219e44c413","ios":"levelo://app?vid=2fc7b7ab-ec8a-439b-8e39-ea219e44c413"},"vehicle_type_id":"4","last_reported":1725826104,"current_range_meters":25200,"station_id":"ce4bgih2rcd13ifvqba0","pricing_plan_id":"cebpf4jnsgd1na2vs0mg"},{"bike_id":"6eeb6a1e-3ecf-42ee-a4ee-239db525aa47","system_id":"levelo_inurba_marseille","lat":43.295324,"lon":5.385414,"is_reserved":false,"is_disabled":false,"rental_uris":{"android":"levelo://app?vid=6eeb6a1e-3ecf-42ee-a4ee-239db525aa47","ios":"levelo://app?vid=6eeb6a1e-3ecf-42ee-a4ee-239db525aa47"},"vehicle_type_id":"4","last_reported":1725826104,"current_range_meters":29200,"station_id":"ce4bgih2rcd13ifvqba0","pricing_plan_id":"cebpf4jnsgd1na2vs0mg"},{"bike_id":"208582f8-94ca-4c44-8399-8880ce83d99a","system_id":"levelo_inurba_marseille","lat":43.29532,"lon":5.38542,"is_reserved":false,"is_disabled":false,"rental_uris":{"android":"levelo://app?vid=208582f8-94ca-4c44-8399-8880ce83d99a","ios":"levelo://app?vid=208582f8-94ca-4c44-8399-8880ce83d99a"},"vehicle_type_id":"4","last_reported":1725826104,"current_range_meters":5200,"station_id":"ce4bgih2rcd13ifvqba0","pricing_plan_id":"cebpf4jnsgd1na2vs0mg"},{"bike_id":"12f85f6f-61cc-4e70-ae43-2a7529d9ed23","system_id":"levelo_inurba_marseille","lat":43.29529,"lon":5.385581,"is_reserved":false,"is_disabled":false,"rental_uris":{"android":"levelo://app?vid=12f85f6f-61cc-4e70-ae43-2a7529d9ed23","ios":"levelo://app?vid=12f85f6f-61cc-4e70-ae43-2a7529d9ed23"},"vehicle_type_id":"4","last_reported":1725826104,"current_range_meters":5600,"station_id":"ce4bgih2rcd13ifvqba0","pricing_plan_id":"cebpf4jnsgd1na2vs0mg"},{"bike_id":"fe11f213-2850-4e78-8650-b3396e1e6d23","system_id":"levelo_inurba_marseille","lat":43.33277,"lon":5.37985,"is_reserved":false,"is_disabled":false,"rental_uris":{"android":"levelo://app?vid=fe11f213-2850-4e78-8650-b3396e1e6d23","ios":"levelo://app?vid=fe11f213-2850-4e78-8650-b3396e1e6d23"},"vehicle_type_id":"4","last_reported":1725826104,"current_range_meters":5600,"station_id":"","pricing_plan_id":"cebpf4jnsgd1na2vs0mg"},{"bike_id":"c6632ab8-20f9-4ab8-b4b3-f1c336088595","system_id":"levelo_inurba_marseille","lat":43.29522,"lon":5.3855,"is_reserved":false,"is_disabled":false,"rental_uris":{"android":"levelo://app?vid=c6632ab8-20f9-4ab8-b4b3-f1c336088595","ios":"levelo://app?vid=c6632ab8-20f9-4ab8-b4b3-f1c336088595"},"vehicle_type_id":"4","last_reported":1725826104,"current_range_meters":0,"station_id":"ce4bgih2rcd13ifvqba0","pricing_plan_id":"cebpf4jnsgd1na2vs0mg"},{"bike_id":"456f3858-7aad-4678-b19c-b1520d2d8c67","system_id":"levelo_inurba_marseille","lat":43.29069,"lon":5.37168,"is_reserved":false,"is_disabled":false,"rental_uris":{"android":"levelo://app?vid=456f3858-7aad-4678-b19c-b1520d2d8c67","ios":"levelo://app?vid=456f3858-7aad-4678-b19c-b1520d2d8c67"},"vehicle_type_id":"4","last_reported":1725826104,"current_range_meters":30800,"station_id":"ce4bh5p2rcd13ifvqe4g","pricing_plan_id":"cebpf4jnsgd1na2vs0mg"},{"bike_id":"061cc26f-0193-48c5-bd2d-aa76a149db34","system_id":"levelo_inurba_marseille","lat":43.302008,"lon":5.394694,"is_reserved":false,"is_disabled":false,"rental_uris":{"android":"levelo://app?vid=061cc26f-0193-48c5-bd2d-aa76a149db34","ios":"levelo://app?vid=061cc26f-0193-48c5-bd2d-aa76a149db34"},"vehicle_type_id":"4","last_reported":1725826104,"current_range_meters":24400,"station_id":"ce4bh0p2rcd13ifvqd70","pricing_plan_id":"cebpf4jnsgd1na2vs0mg"},{"bike_id":"9cf01a72-1413-45d7-9239-74bf5862fed7","system_id":"levelo_inurba_marseille","lat":43.290631,"lon":5.359244,"is_reserved":false,"is_disabled":false,"rental_uris":{"android":"levelo://app?vid=9cf01a72-1413-45d7-9239-74bf5862fed7","ios":"levelo://app?vid=9cf01a72-1413-45d7-9239-74bf5862fed7"},"vehicle_type_id":"4","last_reported":1725826104,"current_range_meters":13200,"station_id":"ce4bha92rcd13ifvqeg0","pricing_plan_id":"cebpf4jnsgd1na2vs0mg"},{"bike_id":"10a43f03-0db9-4b57-a21b-9593464f8822","system_id":"levelo_inurba_marseille","lat":43.29008,"lon":5.37257,"is_reserved":false,"is_disabled":false,"rental_uris":{"android":"levelo://app?vid=10a43f03-0db9-4b57-a21b-9593464f8822","ios":"levelo://app?vid=10a43f03-0db9-4b57-a21b-9593464f8822"},"vehicle_type_id":"4","last_reported":1725826104,"current_range_meters":0,"station_id":"","pricing_plan_id":"cebpf4jnsgd1na2vs0mg"},{"bike_id":"8bdecaf6-69b8-44ff-9540-0c01da9b3b61","system_id":"levelo_inurba_marseille","lat":43.290631,"lon":5.359244,"is_reserved":false,"is_disabled":false,"rental_uris":{"android":"levelo://app?vid=8bdecaf6-69b8-44ff-9540-0c01da9b3b61","ios":"levelo://app?vid=8bdecaf6-69b8-44ff-9540-0c01da9b3b61"},"vehicle_type_id":"4","last_reported":1725826104,"current_range_meters":23200,"station_id":"ce4bha92rcd13ifvqeg0","pricing_plan_id":"cebpf4jnsgd1na2vs0mg"},{"bike_id":"c67ed9e1-635a-4769-bb84-ba10ff278f73","system_id":"levelo_inurba_marseille","lat":43.294162,"lon":5.386292,"is_reserved":false,"is_disabled":false,"rental_uris":{"android":"levelo://app?vid=c67ed9e1-635a-4769-bb84-ba10ff278f73","ios":"levelo://app?vid=c67ed9e1-635a-4769-bb84-ba10ff278f73"},"vehicle_type_id":"4","last_reported":1725826104,"current_range_meters":24000,"station_id":"ce4bh2h2rcd13ifvqdh0","pricing_plan_id":"cebpf4jnsgd1na2vs0mg"},{"bike_id":"f376beae-ccbd-4e28-9596-a29e738f5aa7","system_id":"levelo_inurba_marseille","lat":43.289184,"lon":5.366408,"is_reserved":false,"is_disabled":false,"rental_uris":{"android":"levelo://app?vid=f376beae-ccbd-4e28-9596-a29e738f5aa7","ios":"levelo://app?vid=f376beae-ccbd-4e28-9596-a29e738f5aa7"},"vehicle_type_id":"4","last_reported":1725826104,"current_range_meters":26800,"station_id":"ce4bhap2rcd13ifvqek0","pricing_plan_id":"cebpf4jnsgd1na2vs0mg"},{"bike_id":"eb2056d1-748d-4b5f-8024-8a9c51a51fc5","system_id":"levelo_inurba_marseille","lat":43.290327,"lon":5.375711,"is_reserved":false,"is_disabled":false,"rental_uris":{"android":"levelo://app?vid=eb2056d1-748d-4b5f-8024-8a9c51a51fc5","ios":"levelo://app?vid=eb2056d1-748d-4b5f-8024-8a9c51a51fc5"},"vehicle_type_id":"4","last_reported":1725826104,"current_range_meters":31600,"station_id":"ce4bh692rcd13ifvqe90","pricing_plan_id":"cebpf4jnsgd1na2vs0mg"},{"bike_id":"a1aa79a8-53ce-4316-adc1-210fe4f39259","system_id":"levelo_inurba_marseille","lat":43.289184,"lon":5.366408,"is_reserved":false,"is_disabled":false,"rental_uris":{"android":"levelo://app?vid=a1aa79a8-53ce-4316-adc1-210fe4f39259","ios":"levelo://app?vid=a1aa79a8-53ce-4316-adc1-210fe4f39259"},"vehicle_type_id":"4","last_reported":1725826104,"current_range_meters":13200,"station_id":"ce4bhap2rcd13ifvqek0","pricing_plan_id":"cebpf4jnsgd1na2vs0mg"},{"bike_id":"5a05ac84-8eed-432f-8f79-d444daced277","system_id":"levelo_inurba_marseille","lat":43.289184,"lon":5.366408,"is_reserved":false,"is_disabled":false,"rental_uris":{"android":"levelo://app?vid=5a05ac84-8eed-432f-8f79-d444daced277","ios":"levelo://app?vid=5a05ac84-8eed-432f-8f79-d444daced277"},"vehicle_type_id":"4","last_reported":1725826104,"current_range_meters":2400,"station_id":"ce4bhap2rcd13ifvqek0","pricing_plan_id":"cebpf4jnsgd1na2vs0mg"},{"bike_id":"ffe709be-451a-443c-acf1-c50638d2eb67","system_id":"levelo_inurba_marseille","lat":43.289184,"lon":5.366408,"is_reserved":false,"is_disabled":false,"rental_uris":{"android":"levelo://app?vid=ffe709be-451a-443c-acf1-c50638d2eb67","ios":"levelo://app?vid=ffe709be-451a-443c-acf1-c50638d2eb67"},"vehicle_type_id":"4","last_reported":1725826104,"current_range_meters":31200,"station_id":"ce4bhap2rcd13ifvqek0","pricing_plan_id":"cebpf4jnsgd1na2vs0mg"},{"bike_id":"be47b0f5-2e26-48bc-a23d-e1c0c0f9529b","system_id":"levelo_inurba_marseille","lat":43.289184,"lon":5.366408,"is_reserved":false,"is_disabled":false,"rental_uris":{"android":"levelo://app?vid=be47b0f5-2e26-48bc-a23d-e1c0c0f9529b","ios":"levelo://app?vid=be47b0f5-2e26-48bc-a23d-e1c0c0f9529b"},"vehicle_type_id":"4","last_reported":1725826104,"current_range_meters":19200,"station_id":"ce4bhap2rcd13ifvqek0","pricing_plan_id":"cebpf4jnsgd1na2vs0mg"},{"bike_id":"d3da4eeb-37e3-40f9-8ee7-b4de66fa0422","system_id":"levelo_inurba_marseille","lat":43.289184,"lon":5.366408,"is_reserved":false,"is_disabled":false,"rental_uris":{"android":"levelo://app?vid=d3da4eeb-37e3-40f9-8ee7-b4de66fa0422","ios":"levelo://app?vid=d3da4eeb-37e3-40f9-8ee7-b4de66fa0422"},"vehicle_type_id":"4","last_reported":1725826104,"current_range_meters":11600,"station_id":"ce4bhap2rcd13ifvqek0","pricing_plan_id":"cebpf4jnsgd1na2vs0mg"},{"bike_id":"f8570897-c7db-424a-b6a1-6f67b8f56f4f","system_id":"levelo_inurba_marseille","lat":43.289334,"lon":5.36632,"is_reserved":false,"is_disabled":false,"rental_uris":{"android":"levelo://app?vid=f8570897-c7db-424a-b6a1-6f67b8f56f4f","ios":"levelo://app?vid=f8570897-c7db-424a-b6a1-6f67b8f56f4f"},"vehicle_type_id":"4","last_reported":1725826104,"current_range_meters":31200,"station_id":"ce4bhap2rcd13ifvqek0","pricing_plan_id":"cebpf4jnsgd1na2vs0mg"},{"bike_id":"518138ad-69b7-4374-a247-c6bd5cefa220","system_id":"levelo_inurba_marseille","lat":43.289184,"lon":5.366408,"is_reserved":false,"is_disabled":false,"rental_uris":{"android":"levelo://app?vid=518138ad-69b7-4374-a247-c6bd5cefa220","ios":"levelo://app?vid=518138ad-69b7-4374-a247-c6bd5cefa220"},"vehicle_type_id":"4","last_reported":1725826104,"current_range_meters":27200,"station_id":"ce4bhap2rcd13ifvqek0","pricing_plan_id":"cebpf4jnsgd1na2vs0mg"},{"bike_id":"18b132d1-b697-4d9c-82db-fdbd3b7f9dc2","system_id":"levelo_inurba_marseille","lat":43.289184,"lon":5.366408,"is_reserved":false,"is_disabled":false,"rental_uris":{"android":"levelo://app?vid=18b132d1-b697-4d9c-82db-fdbd3b7f9dc2","ios":"levelo://app?vid=18b132d1-b697-4d9c-82db-fdbd3b7f9dc2"},"vehicle_type_id":"4","last_reported":1725826104,"current_range_meters":23200,"station_id":"ce4bhap2rcd13ifvqek0","pricing_plan_id":"cebpf4jnsgd1na2vs0mg"},{"bike_id":"f13ffc76-71f2-4ffc-a3d0-6339cd5d4475","system_id":"levelo_inurba_marseille","lat":43.289184,"lon":5.366408,"is_reserved":false,"is_disabled":false,"rental_uris":{"android":"levelo://app?vid=f13ffc76-71f2-4ffc-a3d0-6339cd5d4475","ios":"levelo://app?vid=f13ffc76-71f2-4ffc-a3d0-6339cd5d4475"},"vehicle_type_id":"4","last_reported":1725826104,"current_range_meters":14400,"station_id":"ce4bhap2rcd13ifvqek0","pricing_plan_id":"cebpf4jnsgd1na2vs0mg"},{"bike_id":"f6c0b32d-e5b5-4951-a695-a991b8b6103c","system_id":"levelo_inurba_marseille","lat":43.289184,"lon":5.366408,"is_reserved":false,"is_disabled":false,"rental_uris":{"android":"levelo://app?vid=f6c0b32d-e5b5-4951-a695-a991b8b6103c","ios":"levelo://app?vid=f6c0b32d-e5b5-4951-a695-a991b8b6103c"},"vehicle_type_id":"4","last_reported":1725826104,"current_range_meters":32000,"station_id":"ce4bhap2rcd13ifvqek0","pricing_plan_id":"cebpf4jnsgd1na2vs0mg"},{"bike_id":"efe13740-1772-4675-975b-c02bb1329ac2","system_id":"levelo_inurba_marseille","lat":43.289184,"lon":5.366408,"is_reserved":false,"is_disabled":false,"rental_uris":{"android":"levelo://app?vid=efe13740-1772-4675-975b-c02bb1329ac2","ios":"levelo://app?vid=efe13740-1772-4675-975b-c02bb1329ac2"},"vehicle_type_id":"4","last_reported":1725826104,"current_range_meters":7600,"station_id":"ce4bhap2rcd13ifvqek0","pricing_plan_id":"cebpf4jnsgd1na2vs0mg"},{"bike_id":"d0afd2be-2476-45e8-9c4d-b2cc528fe59d","system_id":"levelo_inurba_marseille","lat":43.289388,"lon":5.36401,"is_reserved":false,"is_disabled":false,"rental_uris":{"android":"levelo://app?vid=d0afd2be-2476-45e8-9c4d-b2cc528fe59d","ios":"levelo://app?vid=d0afd2be-2476-45e8-9c4d-b2cc528fe59d"},"vehicle_type_id":"4","last_reported":1725826104,"current_range_meters":20000,"station_id":"ce4bhc92rcd13ifvqetg","pricing_plan_id":"cebpf4jnsgd1na2vs0mg"},{"bike_id":"4688d032-db0d-4cd8-8264-6f50f890868f","system_id":"levelo_inurba_marseille","lat":43.289468,"lon":5.363719,"is_reserved":false,"is_disabled":false,"rental_uris":{"android":"levelo://app?vid=4688d032-db0d-4cd8-8264-6f50f890868f","ios":"levelo://app?vid=4688d032-db0d-4cd8-8264-6f50f890868f"},"vehicle_type_id":"4","last_reported":1725826104,"current_range_meters":18800,"station_id":"ce4bhc92rcd13ifvqetg","pricing_plan_id":"cebpf4jnsgd1na2vs0mg"},{"bike_id":"2278b75f-b6b7-4ad2-8bdc-c50a9df26770","system_id":"levelo_inurba_marseille","lat":43.289468,"lon":5.363719,"is_reserved":false,"is_disabled":false,"rental_uris":{"android":"levelo://app?vid=2278b75f-b6b7-4ad2-8bdc-c50a9df26770","ios":"levelo://app?vid=2278b75f-b6b7-4ad2-8bdc-c50a9df26770"},"vehicle_type_id":"4","last_reported":1725826104,"current_range_meters":10800,"station_id":"ce4bhc92rcd13ifvqetg","pricing_plan_id":"cebpf4jnsgd1na2vs0mg"},{"bike_id":"d55692c1-852c-4847-a1e1-d30b8dd9605f","system_id":"levelo_inurba_marseille","lat":43.28929,"lon":5.36392,"is_reserved":false,"is_disabled":false,"rental_uris":{"android":"levelo://app?vid=d55692c1-852c-4847-a1e1-d30b8dd9605f","ios":"levelo://app?vid=d55692c1-852c-4847-a1e1-d30b8dd9605f"},"vehicle_type_id":"4","last_reported":1725826104,"current_range_meters":22800,"station_id":"ce4bhc92rcd13ifvqetg","pricing_plan_id":"cebpf4jnsgd1na2vs0mg"},{"bike_id":"f138c29f-2c65-469a-9edd-b1086002703b","system_id":"levelo_inurba_marseille","lat":43.29262,"lon":5.38442,"is_reserved":false,"is_disabled":false,"rental_uris":{"android":"levelo://app?vid=f138c29f-2c65-469a-9edd-b1086002703b","ios":"levelo://app?vid=f138c29f-2c65-469a-9edd-b1086002703b"},"vehicle_type_id":"4","last_reported":1725826104,"current_range_meters":18000,"station_id":"ce4bh692rcd13ifvqea0","pricing_plan_id":"cebpf4jnsgd1na2vs0mg"},{"bike_id":"0e170757-1aa2-4587-9a47-0537d7aab38a","system_id":"levelo_inurba_marseille","lat":43.292642,"lon":5.384254,"is_reserved":false,"is_disabled":false,"rental_uris":{"android":"levelo://app?vid=0e170757-1aa2-4587-9a47-0537d7aab38a","ios":"levelo://app?vid=0e170757-1aa2-4587-9a47-0537d7aab38a"},"vehicle_type_id":"4","last_reported":1725826104,"current_range_meters":32000,"station_id":"ce4bh692rcd13ifvqea0","pricing_plan_id":"cebpf4jnsgd1na2vs0mg"},{"bike_id":"bad98718-c72f-4efe-979a-9a11752f1bc0","system_id":"levelo_inurba_marseille","lat":43.29261,"lon":5.38445,"is_reserved":false,"is_disabled":false,"rental_uris":{"android":"levelo://app?vid=bad98718-c72f-4efe-979a-9a11752f1bc0","ios":"levelo://app?vid=bad98718-c72f-4efe-979a-9a11752f1bc0"},"vehicle_type_id":"4","last_reported":1725826104,"current_range_meters":6800,"station_id":"ce4bh692rcd13ifvqea0","pricing_plan_id":"cebpf4jnsgd1na2vs0mg"},{"bike_id":"fa67ee9c-1289-4f5f-a32f-5c88dc087558","system_id":"levelo_inurba_marseille","lat":43.30418,"lon":5.3975,"is_reserved":false,"is_disabled":false,"rental_uris":{"android":"levelo://app?vid=fa67ee9c-1289-4f5f-a32f-5c88dc087558","ios":"levelo://app?vid=fa67ee9c-1289-4f5f-a32f-5c88dc087558"},"vehicle_type_id":"4","last_reported":1725826104,"current_range_meters":0,"station_id":"ce4bh092rcd13ifvqd20","pricing_plan_id":"cebpf4jnsgd1na2vs0mg"},{"bike_id":"cd9f2392-f792-448e-8980-51ec0ad8ac82","system_id":"levelo_inurba_marseille","lat":43.304127,"lon":5.397487,"is_reserved":false,"is_disabled":false,"rental_uris":{"android":"levelo://app?vid=cd9f2392-f792-448e-8980-51ec0ad8ac82","ios":"levelo://app?vid=cd9f2392-f792-448e-8980-51ec0ad8ac82"},"vehicle_type_id":"4","last_reported":1725826104,"current_range_meters":9600,"station_id":"ce4bh092rcd13ifvqd20","pricing_plan_id":"cebpf4jnsgd1na2vs0mg"},{"bike_id":"402f7a76-cf80-49a5-bea4-9e15c0b61d09","system_id":"levelo_inurba_marseille","lat":43.30421,"lon":5.39755,"is_reserved":false,"is_disabled":false,"rental_uris":{"android":"levelo://app?vid=402f7a76-cf80-49a5-bea4-9e15c0b61d09","ios":"levelo://app?vid=402f7a76-cf80-49a5-bea4-9e15c0b61d09"},"vehicle_type_id":"4","last_reported":1725826104,"current_range_meters":16000,"station_id":"ce4bh092rcd13ifvqd20","pricing_plan_id":"cebpf4jnsgd1na2vs0mg"},{"bike_id":"5fa61732-3788-4d46-ae2b-7f4a782a1891","system_id":"levelo_inurba_marseille","lat":43.292644,"lon":5.384257,"is_reserved":false,"is_disabled":false,"rental_uris":{"android":"levelo://app?vid=5fa61732-3788-4d46-ae2b-7f4a782a1891","ios":"levelo://app?vid=5fa61732-3788-4d46-ae2b-7f4a782a1891"},"vehicle_type_id":"4","last_reported":1725826104,"current_range_meters":21200,"station_id":"ce4bh692rcd13ifvqea0","pricing_plan_id":"cebpf4jnsgd1na2vs0mg"},{"bike_id":"842bc473-5ba8-47dd-9c5d-58cb5ed5ea3a","system_id":"levelo_inurba_marseille","lat":43.304296,"lon":5.397513,"is_reserved":false,"is_disabled":false,"rental_uris":{"android":"levelo://app?vid=842bc473-5ba8-47dd-9c5d-58cb5ed5ea3a","ios":"levelo://app?vid=842bc473-5ba8-47dd-9c5d-58cb5ed5ea3a"},"vehicle_type_id":"4","last_reported":1725826104,"current_range_meters":30800,"station_id":"ce4bh092rcd13ifvqd20","pricing_plan_id":"cebpf4jnsgd1na2vs0mg"},{"bike_id":"23b8af62-6647-46e6-a596-fbecd29d051a","system_id":"levelo_inurba_marseille","lat":43.290103,"lon":5.356114,"is_reserved":false,"is_disabled":false,"rental_uris":{"android":"levelo://app?vid=23b8af62-6647-46e6-a596-fbecd29d051a","ios":"levelo://app?vid=23b8af62-6647-46e6-a596-fbecd29d051a"},"vehicle_type_id":"4","last_reported":1725826104,"current_range_meters":1200,"station_id":"ce4bhb92rcd13ifvqen0","pricing_plan_id":"cebpf4jnsgd1na2vs0mg"},{"bike_id":"3379618b-8fc8-471c-93af-b25134200a31","system_id":"levelo_inurba_marseille","lat":43.290103,"lon":5.356114,"is_reserved":false,"is_disabled":false,"rental_uris":{"android":"levelo://app?vid=3379618b-8fc8-471c-93af-b25134200a31","ios":"levelo://app?vid=3379618b-8fc8-471c-93af-b25134200a31"},"vehicle_type_id":"4","last_reported":1725826104,"current_range_meters":5600,"station_id":"ce4bhb92rcd13ifvqen0","pricing_plan_id":"cebpf4jnsgd1na2vs0mg"},{"bike_id":"1909453e-b5fb-44a0-adcd-3bbf34489c4b","system_id":"levelo_inurba_marseille","lat":43.290995,"lon":5.381361,"is_reserved":false,"is_disabled":false,"rental_uris":{"android":"levelo://app?vid=1909453e-b5fb-44a0-adcd-3bbf34489c4b","ios":"levelo://app?vid=1909453e-b5fb-44a0-adcd-3bbf34489c4b"},"vehicle_type_id":"4","last_reported":1725826104,"current_range_meters":14000,"station_id":"ce4bh512rcd13ifvqe2g","pricing_plan_id":"cebpf4jnsgd1na2vs0mg"},{"bike_id":"c7a4cfdd-3192-4c99-8c98-9cc9854a9bc9","system_id":"levelo_inurba_marseille","lat":43.290995,"lon":5.381361,"is_reserved":false,"is_disabled":false,"rental_uris":{"android":"levelo://app?vid=c7a4cfdd-3192-4c99-8c98-9cc9854a9bc9","ios":"levelo://app?vid=c7a4cfdd-3192-4c99-8c98-9cc9854a9bc9"},"vehicle_type_id":"4","last_reported":1725826104,"current_range_meters":22400,"station_id":"ce4bh512rcd13ifvqe2g","pricing_plan_id":"cebpf4jnsgd1na2vs0mg"},{"bike_id":"18890eb7-9777-4dca-93e7-e197f452b7a1","system_id":"levelo_inurba_marseille","lat":43.289743,"lon":5.378304,"is_reserved":false,"is_disabled":false,"rental_uris":{"android":"levelo://app?vid=18890eb7-9777-4dca-93e7-e197f452b7a1","ios":"levelo://app?vid=18890eb7-9777-4dca-93e7-e197f452b7a1"},"vehicle_type_id":"4","last_reported":1725826104,"current_range_meters":25200,"station_id":"ce4bh9p2rcd13ifvqed0","pricing_plan_id":"cebpf4jnsgd1na2vs0mg"},{"bike_id":"d4a5f00d-43f4-4917-9d35-40e5494e1bfb","system_id":"levelo_inurba_marseille","lat":43.297807,"lon":5.393533,"is_reserved":false,"is_disabled":false,"rental_uris":{"android":"levelo://app?vid=d4a5f00d-43f4-4917-9d35-40e5494e1bfb","ios":"levelo://app?vid=d4a5f00d-43f4-4917-9d35-40e5494e1bfb"},"vehicle_type_id":"4","last_reported":1725826104,"current_range_meters":29600,"station_id":"chh1huq6cuj3fo74tm60","pricing_plan_id":"cebpf4jnsgd1na2vs0mg"},{"bike_id":"973318db-c5f0-4afd-bf5e-f3ab50b4cd82","system_id":"levelo_inurba_marseille","lat":43.297807,"lon":5.393533,"is_reserved":false,"is_disabled":false,"rental_uris":{"android":"levelo://app?vid=973318db-c5f0-4afd-bf5e-f3ab50b4cd82","ios":"levelo://app?vid=973318db-c5f0-4afd-bf5e-f3ab50b4cd82"},"vehicle_type_id":"4","last_reported":1725826104,"current_range_meters":0,"station_id":"chh1huq6cuj3fo74tm60","pricing_plan_id":"cebpf4jnsgd1na2vs0mg"},{"bike_id":"55735178-403c-412e-8431-5600e3ee976b","system_id":"levelo_inurba_marseille","lat":43.297807,"lon":5.393533,"is_reserved":false,"is_disabled":false,"rental_uris":{"android":"levelo://app?vid=55735178-403c-412e-8431-5600e3ee976b","ios":"levelo://app?vid=55735178-403c-412e-8431-5600e3ee976b"},"vehicle_type_id":"4","last_reported":1725826104,"current_range_meters":5200,"station_id":"chh1huq6cuj3fo74tm60","pricing_plan_id":"cebpf4jnsgd1na2vs0mg"},{"bike_id":"d696e2df-cae8-42f7-801a-90d7771f6694","system_id":"levelo_inurba_marseille","lat":43.33015,"lon":5.3904,"is_reserved":false,"is_disabled":false,"rental_uris":{"android":"levelo://app?vid=d696e2df-cae8-42f7-801a-90d7771f6694","ios":"levelo://app?vid=d696e2df-cae8-42f7-801a-90d7771f6694"},"vehicle_type_id":"4","last_reported":1725826104,"current_range_meters":30000,"station_id":"ce4bhr92rcd13ifvqhrg","pricing_plan_id":"cebpf4jnsgd1na2vs0mg"},{"bike_id":"4c39ee94-a0c7-4656-aad9-86b98c720c8a","system_id":"levelo_inurba_marseille","lat":43.297807,"lon":5.393533,"is_reserved":false,"is_disabled":false,"rental_uris":{"android":"levelo://app?vid=4c39ee94-a0c7-4656-aad9-86b98c720c8a","ios":"levelo://app?vid=4c39ee94-a0c7-4656-aad9-86b98c720c8a"},"vehicle_type_id":"4","last_reported":1725826104,"current_range_meters":20400,"station_id":"chh1huq6cuj3fo74tm60","pricing_plan_id":"cebpf4jnsgd1na2vs0mg"},{"bike_id":"1c1a3f72-b432-4381-986c-1fd3c499ef3f","system_id":"levelo_inurba_marseille","lat":43.297815,"lon":5.393548,"is_reserved":false,"is_disabled":false,"rental_uris":{"android":"levelo://app?vid=1c1a3f72-b432-4381-986c-1fd3c499ef3f","ios":"levelo://app?vid=1c1a3f72-b432-4381-986c-1fd3c499ef3f"},"vehicle_type_id":"4","last_reported":1725826104,"current_range_meters":23200,"station_id":"chh1huq6cuj3fo74tm60","pricing_plan_id":"cebpf4jnsgd1na2vs0mg"},{"bike_id":"796c518e-a25c-409d-9c1b-08c9e0185ef2","system_id":"levelo_inurba_marseille","lat":43.330442,"lon":5.389148,"is_reserved":false,"is_disabled":false,"rental_uris":{"android":"levelo://app?vid=796c518e-a25c-409d-9c1b-08c9e0185ef2","ios":"levelo://app?vid=796c518e-a25c-409d-9c1b-08c9e0185ef2"},"vehicle_type_id":"4","last_reported":1725826104,"current_range_meters":32000,"station_id":"ce4bhr92rcd13ifvqhrg","pricing_plan_id":"cebpf4jnsgd1na2vs0mg"},{"bike_id":"dd77611c-3df8-46b4-b1e9-5b73f8baba8a","system_id":"levelo_inurba_marseille","lat":43.33025,"lon":5.39035,"is_reserved":false,"is_disabled":false,"rental_uris":{"android":"levelo://app?vid=dd77611c-3df8-46b4-b1e9-5b73f8baba8a","ios":"levelo://app?vid=dd77611c-3df8-46b4-b1e9-5b73f8baba8a"},"vehicle_type_id":"4","last_reported":1725826104,"current_range_meters":31200,"station_id":"ce4bhr92rcd13ifvqhrg","pricing_plan_id":"cebpf4jnsgd1na2vs0mg"},{"bike_id":"ca09e7ef-7d22-4872-b776-15b6927fb145","system_id":"levelo_inurba_marseille","lat":43.295169,"lon":5.390426,"is_reserved":false,"is_disabled":false,"rental_uris":{"android":"levelo://app?vid=ca09e7ef-7d22-4872-b776-15b6927fb145","ios":"levelo://app?vid=ca09e7ef-7d22-4872-b776-15b6927fb145"},"vehicle_type_id":"4","last_reported":1725826104,"current_range_meters":17600,"station_id":"ce4bh3p2rcd13ifvqdp0","pricing_plan_id":"cebpf4jnsgd1na2vs0mg"},{"bike_id":"1b57b03f-fcc9-4161-89a8-c0db4ea97403","system_id":"levelo_inurba_marseille","lat":43.330442,"lon":5.389148,"is_reserved":false,"is_disabled":false,"rental_uris":{"android":"levelo://app?vid=1b57b03f-fcc9-4161-89a8-c0db4ea97403","ios":"levelo://app?vid=1b57b03f-fcc9-4161-89a8-c0db4ea97403"},"vehicle_type_id":"4","last_reported":1725826104,"current_range_meters":16000,"station_id":"ce4bhr92rcd13ifvqhrg","pricing_plan_id":"cebpf4jnsgd1na2vs0mg"},{"bike_id":"a096d293-dc5e-493c-a6ce-e2d3b6e86a8f","system_id":"levelo_inurba_marseille","lat":43.33025,"lon":5.3904,"is_reserved":false,"is_disabled":false,"rental_uris":{"android":"levelo://app?vid=a096d293-dc5e-493c-a6ce-e2d3b6e86a8f","ios":"levelo://app?vid=a096d293-dc5e-493c-a6ce-e2d3b6e86a8f"},"vehicle_type_id":"4","last_reported":1725826104,"current_range_meters":23200,"station_id":"ce4bhr92rcd13ifvqhrg","pricing_plan_id":"cebpf4jnsgd1na2vs0mg"},{"bike_id":"55cb0dbf-1229-4d47-b7db-ee448ce23597","system_id":"levelo_inurba_marseille","lat":43.330442,"lon":5.389148,"is_reserved":false,"is_disabled":false,"rental_uris":{"android":"levelo://app?vid=55cb0dbf-1229-4d47-b7db-ee448ce23597","ios":"levelo://app?vid=55cb0dbf-1229-4d47-b7db-ee448ce23597"},"vehicle_type_id":"4","last_reported":1725826104,"current_range_meters":27200,"station_id":"ce4bhr92rcd13ifvqhrg","pricing_plan_id":"cebpf4jnsgd1na2vs0mg"},{"bike_id":"b5679bef-3f92-449d-876f-76820b24a6d9","system_id":"levelo_inurba_marseille","lat":43.330442,"lon":5.389148,"is_reserved":false,"is_disabled":false,"rental_uris":{"android":"levelo://app?vid=b5679bef-3f92-449d-876f-76820b24a6d9","ios":"levelo://app?vid=b5679bef-3f92-449d-876f-76820b24a6d9"},"vehicle_type_id":"4","last_reported":1725826104,"current_range_meters":31200,"station_id":"ce4bhr92rcd13ifvqhrg","pricing_plan_id":"cebpf4jnsgd1na2vs0mg"},{"bike_id":"f1f075fc-6eb8-4c47-9c4f-e4ba0522ea82","system_id":"levelo_inurba_marseille","lat":43.28973,"lon":5.37842,"is_reserved":false,"is_disabled":false,"rental_uris":{"android":"levelo://app?vid=f1f075fc-6eb8-4c47-9c4f-e4ba0522ea82","ios":"levelo://app?vid=f1f075fc-6eb8-4c47-9c4f-e4ba0522ea82"},"vehicle_type_id":"4","last_reported":1725826104,"current_range_meters":26800,"station_id":"ce4bh9p2rcd13ifvqed0","pricing_plan_id":"cebpf4jnsgd1na2vs0mg"},{"bike_id":"fcf79bb7-34ef-414d-b452-aafb06ab37a5","system_id":"levelo_inurba_marseille","lat":43.29523,"lon":5.39045,"is_reserved":false,"is_disabled":false,"rental_uris":{"android":"levelo://app?vid=fcf79bb7-34ef-414d-b452-aafb06ab37a5","ios":"levelo://app?vid=fcf79bb7-34ef-414d-b452-aafb06ab37a5"},"vehicle_type_id":"4","last_reported":1725826104,"current_range_meters":0,"station_id":"ce4bh3p2rcd13ifvqdp0","pricing_plan_id":"cebpf4jnsgd1na2vs0mg"},{"bike_id":"5e265840-fc21-4e32-a313-f75d9ca40ac5","system_id":"levelo_inurba_marseille","lat":43.33023,"lon":5.3905,"is_reserved":false,"is_disabled":false,"rental_uris":{"android":"levelo://app?vid=5e265840-fc21-4e32-a313-f75d9ca40ac5","ios":"levelo://app?vid=5e265840-fc21-4e32-a313-f75d9ca40ac5"},"vehicle_type_id":"4","last_reported":1725826104,"current_range_meters":9200,"station_id":"ce4bhr92rcd13ifvqhrg","pricing_plan_id":"cebpf4jnsgd1na2vs0mg"},{"bike_id":"6227054b-2148-4a62-aa09-6f7470e787ad","system_id":"levelo_inurba_marseille","lat":43.28855,"lon":5.37255,"is_reserved":false,"is_disabled":false,"rental_uris":{"android":"levelo://app?vid=6227054b-2148-4a62-aa09-6f7470e787ad","ios":"levelo://app?vid=6227054b-2148-4a62-aa09-6f7470e787ad"},"vehicle_type_id":"4","last_reported":1725826104,"current_range_meters":14400,"station_id":"","pricing_plan_id":"cebpf4jnsgd1na2vs0mg"},{"bike_id":"996a3484-fba2-4ac3-92e4-c5972e000e92","system_id":"levelo_inurba_marseille","lat":43.30679,"lon":5.39973,"is_reserved":false,"is_disabled":false,"rental_uris":{"android":"levelo://app?vid=996a3484-fba2-4ac3-92e4-c5972e000e92","ios":"levelo://app?vid=996a3484-fba2-4ac3-92e4-c5972e000e92"},"vehicle_type_id":"4","last_reported":1725826104,"current_range_meters":4000,"station_id":"","pricing_plan_id":"cebpf4jnsgd1na2vs0mg"},{"bike_id":"a9b3eae4-c193-42a0-9d45-65e9d3a03b43","system_id":"levelo_inurba_marseille","lat":43.290319,"lon":5.375732,"is_reserved":false,"is_disabled":false,"rental_uris":{"android":"levelo://app?vid=a9b3eae4-c193-42a0-9d45-65e9d3a03b43","ios":"levelo://app?vid=a9b3eae4-c193-42a0-9d45-65e9d3a03b43"},"vehicle_type_id":"4","last_reported":1725826104,"current_range_meters":12800,"station_id":"ce4bh692rcd13ifvqe90","pricing_plan_id":"cebpf4jnsgd1na2vs0mg"},{"bike_id":"3915b874-094a-4d12-b75c-41a69b50763d","system_id":"levelo_inurba_marseille","lat":43.28856,"lon":5.358371,"is_reserved":false,"is_disabled":false,"rental_uris":{"android":"levelo://app?vid=3915b874-094a-4d12-b75c-41a69b50763d","ios":"levelo://app?vid=3915b874-094a-4d12-b75c-41a69b50763d"},"vehicle_type_id":"4","last_reported":1725826104,"current_range_meters":2400,"station_id":"ce4bhb12rcd13ifvqem0","pricing_plan_id":"cebpf4jnsgd1na2vs0mg"},{"bike_id":"33f13769-52e5-4dc9-9902-03a7cb68979a","system_id":"levelo_inurba_marseille","lat":43.289696,"lon":5.379656,"is_reserved":false,"is_disabled":false,"rental_uris":{"android":"levelo://app?vid=33f13769-52e5-4dc9-9902-03a7cb68979a","ios":"levelo://app?vid=33f13769-52e5-4dc9-9902-03a7cb68979a"},"vehicle_type_id":"4","last_reported":1725826104,"current_range_meters":26400,"station_id":"","pricing_plan_id":"cebpf4jnsgd1na2vs0mg"},{"bike_id":"5a218add-1b2d-49b2-bde6-c20ffd0b06e1","system_id":"levelo_inurba_marseille","lat":43.29017,"lon":5.38134,"is_reserved":false,"is_disabled":false,"rental_uris":{"android":"levelo://app?vid=5a218add-1b2d-49b2-bde6-c20ffd0b06e1","ios":"levelo://app?vid=5a218add-1b2d-49b2-bde6-c20ffd0b06e1"},"vehicle_type_id":"4","last_reported":1725826104,"current_range_meters":30400,"station_id":"ce4bh4p2rcd13ifvqe1g","pricing_plan_id":"cebpf4jnsgd1na2vs0mg"},{"bike_id":"55472948-ba33-417e-8c39-2efc706559d8","system_id":"levelo_inurba_marseille","lat":43.2902,"lon":5.38144,"is_reserved":false,"is_disabled":false,"rental_uris":{"android":"levelo://app?vid=55472948-ba33-417e-8c39-2efc706559d8","ios":"levelo://app?vid=55472948-ba33-417e-8c39-2efc706559d8"},"vehicle_type_id":"4","last_reported":1725826104,"current_range_meters":6800,"station_id":"ce4bh4p2rcd13ifvqe1g","pricing_plan_id":"cebpf4jnsgd1na2vs0mg"},{"bike_id":"f6391e17-ac2a-4247-8802-27e900e95d34","system_id":"levelo_inurba_marseille","lat":43.29021,"lon":5.38148,"is_reserved":false,"is_disabled":false,"rental_uris":{"android":"levelo://app?vid=f6391e17-ac2a-4247-8802-27e900e95d34","ios":"levelo://app?vid=f6391e17-ac2a-4247-8802-27e900e95d34"},"vehicle_type_id":"4","last_reported":1725826104,"current_range_meters":21200,"station_id":"ce4bh4p2rcd13ifvqe1g","pricing_plan_id":"cebpf4jnsgd1na2vs0mg"},{"bike_id":"ac302a87-14af-435a-ad3b-87809103555a","system_id":"levelo_inurba_marseille","lat":43.2902,"lon":5.38149,"is_reserved":false,"is_disabled":false,"rental_uris":{"android":"levelo://app?vid=ac302a87-14af-435a-ad3b-87809103555a","ios":"levelo://app?vid=ac302a87-14af-435a-ad3b-87809103555a"},"vehicle_type_id":"4","last_reported":1725826104,"current_range_meters":28800,"station_id":"ce4bh4p2rcd13ifvqe1g","pricing_plan_id":"cebpf4jnsgd1na2vs0mg"},{"bike_id":"435722a8-1754-4ee6-a455-9ebe26096570","system_id":"levelo_inurba_marseille","lat":43.28856,"lon":5.358371,"is_reserved":false,"is_disabled":false,"rental_uris":{"android":"levelo://app?vid=435722a8-1754-4ee6-a455-9ebe26096570","ios":"levelo://app?vid=435722a8-1754-4ee6-a455-9ebe26096570"},"vehicle_type_id":"4","last_reported":1725826104,"current_range_meters":31200,"station_id":"ce4bhb12rcd13ifvqem0","pricing_plan_id":"cebpf4jnsgd1na2vs0mg"},{"bike_id":"ba8a5af0-4917-4028-b9d1-cfff66941176","system_id":"levelo_inurba_marseille","lat":43.290094,"lon":5.381264,"is_reserved":false,"is_disabled":false,"rental_uris":{"android":"levelo://app?vid=ba8a5af0-4917-4028-b9d1-cfff66941176","ios":"levelo://app?vid=ba8a5af0-4917-4028-b9d1-cfff66941176"},"vehicle_type_id":"4","last_reported":1725826104,"current_range_meters":4000,"station_id":"ce4bh4p2rcd13ifvqe1g","pricing_plan_id":"cebpf4jnsgd1na2vs0mg"},{"bike_id":"b11d40c4-1663-4798-84d3-35510d46961c","system_id":"levelo_inurba_marseille","lat":43.2901,"lon":5.381269,"is_reserved":false,"is_disabled":false,"rental_uris":{"android":"levelo://app?vid=b11d40c4-1663-4798-84d3-35510d46961c","ios":"levelo://app?vid=b11d40c4-1663-4798-84d3-35510d46961c"},"vehicle_type_id":"4","last_reported":1725826104,"current_range_meters":27200,"station_id":"ce4bh4p2rcd13ifvqe1g","pricing_plan_id":"cebpf4jnsgd1na2vs0mg"},{"bike_id":"ed84d39a-0fbc-4a20-94d5-3e5ea69d0a6d","system_id":"levelo_inurba_marseille","lat":43.28856,"lon":5.358371,"is_reserved":false,"is_disabled":false,"rental_uris":{"android":"levelo://app?vid=ed84d39a-0fbc-4a20-94d5-3e5ea69d0a6d","ios":"levelo://app?vid=ed84d39a-0fbc-4a20-94d5-3e5ea69d0a6d"},"vehicle_type_id":"4","last_reported":1725826104,"current_range_meters":31200,"station_id":"ce4bhb12rcd13ifvqem0","pricing_plan_id":"cebpf4jnsgd1na2vs0mg"},{"bike_id":"f93efed2-9dc1-46c7-afe4-63f885c1fa1e","system_id":"levelo_inurba_marseille","lat":43.28856,"lon":5.358371,"is_reserved":false,"is_disabled":false,"rental_uris":{"android":"levelo://app?vid=f93efed2-9dc1-46c7-afe4-63f885c1fa1e","ios":"levelo://app?vid=f93efed2-9dc1-46c7-afe4-63f885c1fa1e"},"vehicle_type_id":"4","last_reported":1725826104,"current_range_meters":31200,"station_id":"ce4bhb12rcd13ifvqem0","pricing_plan_id":"cebpf4jnsgd1na2vs0mg"},{"bike_id":"40565d8c-4159-4883-b3f0-28e961f6be9e","system_id":"levelo_inurba_marseille","lat":43.33706,"lon":5.35776,"is_reserved":false,"is_disabled":false,"rental_uris":{"android":"levelo://app?vid=40565d8c-4159-4883-b3f0-28e961f6be9e","ios":"levelo://app?vid=40565d8c-4159-4883-b3f0-28e961f6be9e"},"vehicle_type_id":"4","last_reported":1725826104,"current_range_meters":10400,"station_id":"","pricing_plan_id":"cebpf4jnsgd1na2vs0mg"},{"bike_id":"64bb76ed-2a45-433c-b263-d9a8c9b7074c","system_id":"levelo_inurba_marseille","lat":43.306412,"lon":5.401035,"is_reserved":false,"is_disabled":false,"rental_uris":{"android":"levelo://app?vid=64bb76ed-2a45-433c-b263-d9a8c9b7074c","ios":"levelo://app?vid=64bb76ed-2a45-433c-b263-d9a8c9b7074c"},"vehicle_type_id":"4","last_reported":1725826104,"current_range_meters":10000,"station_id":"ce4bh112rcd13ifvqda0","pricing_plan_id":"cebpf4jnsgd1na2vs0mg"},