{"last_updated":1727806336,"ttl":60,"version":"2.2","data":{"bikes":[{"bike_id":"d96e1e44-5547-4671-8d8a-19af3858083c","system_id":"levelo_inurba_marseille","lat":43.30587,"lon":5.39356,"is_reserved":false,"is_disabled":false,"rental_uris":{"android":"levelo://app?vid=d96e1e44-5547-4671-8d8a-19af3858083c","ios":"levelo://app?vid=d96e1e44-5547-4671-8d8a-19af3858083c"},"vehicle_type_id":"4","last_reported":1727806336,"current_range_meters":38800,"station_id":"ce4bh0p2rcd13ifvqd80","pricing_plan_id":"cebpf4jnsgd1na2vs0mg"},{"bike_id":"dd21a4e4-9234-47c3-9a65-4eb3655f026d","system_id":"levelo_inurba_marseille","lat":43.29274,"lon":5.38441,"is_reserved":false,"is_disabled":false,"rental_uris":{"android":"levelo://app?vid=dd21a4e4-9234-47c3-9a65-4eb3655f026d","ios":"levelo://app?vid=dd21a4e4-9234-47c3-9a65-4eb3655f026d"},"vehicle_type_id":"4","last_reported":1727806336,"current_range_meters":37600,"station_id":"ce4bh692rcd13ifvqea0","pricing_plan_id":"cebpf4jnsgd1na2vs0mg"},{"bike_id":"caf2e8a2-4ccf-49be-8083-f4a337936ef6","system_id":"levelo_inurba_marseille","lat":43.32479,"lon":5.36569,"is_reserved":false,"is_disabled":false,"rental_uris":{"android":"levelo://app?vid=caf2e8a2-4ccf-49be-8083-f4a337936ef6","ios":"levelo://app?vid=caf2e8a2-4ccf-49be-8083-f4a337936ef6"},"vehicle_type_id":"4","last_reported":1727806336,"current_range_meters":34800,"station_id":"ce4bhs12rcd13ifvqhvg","pricing_plan_id":"cebpf4jnsgd1na2vs0mg"},{"bike_id":"29e7621a-9400-40b6-ae1b-a2b0109ffc94","system_id":"levelo_inurba_marseille","lat":43.32819,"lon":5.38751,"is_reserved":false,"is_disabled":false,"rental_uris":{"android":"levelo://app?vid=29e7621a-9400-40b6-ae1b-a2b0109ffc94","ios":"levelo://app?vid=29e7621a-9400-40b6-ae1b-a2b0109ffc94"},"vehicle_type_id":"4","last_reported":1727806336,"current_range_meters":38800,"station_id":"","pricing_plan_id":"cebpf4jnsgd1na2vs0mg"},{"bike_id":"2b921514-1848-4c9e-bfe5-b2ae8d515268","system_id":"levelo_inurba_marseille","lat":43.26952,"lon":5.39901,"is_reserved":false,"is_disabled":false,"rental_uris":{"android":"levelo://app?vid=2b921514-1848-4c9e-bfe5-b2ae8d515268","ios":"levelo://app?vid=2b921514-1848-4c9e-bfe5-b2ae8d515268"},"vehicle_type_id":"4","last_reported":1727806336,"current_range_meters":31200,"station_id":"","pricing_plan_id":"cebpf4jnsgd1na2vs0mg"},{"bike_id":"100a6eb3-d864-4715-8031-7729c74975fb","system_id":"levelo_inurba_marseille","lat":43.27996,"lon":5.40024,"is_reserved":false,"is_disabled":false,"rental_uris":{"android":"levelo://app?vid=100a6eb3-d864-4715-8031-7729c74975fb","ios":"levelo://app?vid=100a6eb3-d864-4715-8031-7729c74975fb"},"vehicle_type_id":"4","last_reported":1727806336,"current_range_meters":38800,"station_id":"ce4bho92rcd13ifvqh4g","pricing_plan_id":"cebpf4jnsgd1na2vs0mg"},{"bike_id":"bc4cac38-4ffc-4bcb-93fd-55b3c79bc4f8","system_id":"levelo_inurba_marseille","lat":43.25569,"lon":5.38263,"is_reserved":false,"is_disabled":false,"rental_uris":{"android":"levelo://app?vid=bc4cac38-4ffc-4bcb-93fd-55b3c79bc4f8","ios":"levelo://app?vid=bc4cac38-4ffc-4bcb-93fd-55b3c79bc4f8"},"vehicle_type_id":"4","last_reported":1727806336,"current_range_meters":3200,"station_id":"ce4bhih2rcd13ifvqfs0","pricing_plan_id":"cebpf4jnsgd1na2vs0mg"},{"bike_id":"f6a077b0-361c-4838-a898-222b193a4c46","system_id":"levelo_inurba_marseille","lat":43.29555,"lon":5.4229,"is_reserved":false,"is_disabled":false,"rental_uris":{"android":"levelo://app?vid=f6a077b0-361c-4838-a898-222b193a4c46","ios":"levelo://app?vid=f6a077b0-361c-4838-a898-222b193a4c46"},"vehicle_type_id":"4","last_reported":1727806336,"current_range_meters":28800,"station_id":"ce4bhph2rcd13ifvqhdg","pricing_plan_id":"cebpf4jnsgd1na2vs0mg"},{"bike_id":"bc0935b9-f1d6-41e8-9780-ab9a83416a07","system_id":"levelo_inurba_marseille","lat":43.27997,"lon":5.40006,"is_reserved":false,"is_disabled":false,"rental_uris":{"android":"levelo://app?vid=bc0935b9-f1d6-41e8-9780-ab9a83416a07","ios":"levelo://app?vid=bc0935b9-f1d6-41e8-9780-ab9a83416a07"},"vehicle_type_id":"4","last_reported":1727806336,"current_range_meters":8000,"station_id":"ce4bho92rcd13ifvqh4g","pricing_plan_id":"cebpf4jnsgd1na2vs0mg"},{"bike_id":"d687f24e-23fe-4c03-9415-84ac105ad04e","system_id":"levelo_inurba_marseille","lat":43.27917,"lon":5.39582,"is_reserved":false,"is_disabled":false,"rental_uris":{"android":"levelo://app?vid=d687f24e-23fe-4c03-9415-84ac105ad04e","ios":"levelo://app?vid=d687f24e-23fe-4c03-9415-84ac105ad04e"},"vehicle_type_id":"4","last_reported":1727806336,"current_range_meters":8800,"station_id":"ce4bhf92rcd13ifvqf40","pricing_plan_id":"cebpf4jnsgd1na2vs0mg"},{"bike_id":"831f2257-5bf1-454f-aafc-4bf4139d733e","system_id":"levelo_inurba_marseille","lat":43.24544,"lon":5.39526,"is_reserved":false,"is_disabled":false,"rental_uris":{"android":"levelo://app?vid=831f2257-5bf1-454f-aafc-4bf4139d733e","ios":"levelo://app?vid=831f2257-5bf1-454f-aafc-4bf4139d733e"},"vehicle_type_id":"4","last_reported":1727806336,"current_range_meters":18000,"station_id":"ce4bhlp2rcd13ifvqgjg","pricing_plan_id":"cebpf4jnsgd1na2vs0mg"},{"bike_id":"a58af8c6-2a81-4b77-9dd1-80822e174168","system_id":"levelo_inurba_marseille","lat":43.27808,"lon":5.40718,"is_reserved":false,"is_disabled":false,"rental_uris":{"android":"levelo://app?vid=a58af8c6-2a81-4b77-9dd1-80822e174168","ios":"levelo://app?vid=a58af8c6-2a81-4b77-9dd1-80822e174168"},"vehicle_type_id":"4","last_reported":1727806336,"current_range_meters":39200,"station_id":"ce4bhnh2rcd13ifvqgtg","pricing_plan_id":"cebpf4jnsgd1na2vs0mg"},{"bike_id":"291b6700-f2fd-456a-9b46-4fca87fc0f6b","system_id":"levelo_inurba_marseille","lat":43.31708,"lon":5.43709,"is_reserved":false,"is_disabled":false,"rental_uris":{"android":"levelo://app?vid=291b6700-f2fd-456a-9b46-4fca87fc0f6b","ios":"levelo://app?vid=291b6700-f2fd-456a-9b46-4fca87fc0f6b"},"vehicle_type_id":"4","last_reported":1727806336,"current_range_meters":10000,"station_id":"ce4bhp92rcd13ifvqhcg","pricing_plan_id":"cebpf4jnsgd1na2vs0mg"},{"bike_id":"0aeae588-ce00-42b0-9734-06cd5b160ad0","system_id":"levelo_inurba_marseille","lat":43.28152,"lon":5.4264,"is_reserved":false,"is_disabled":false,"rental_uris":{"android":"levelo://app?vid=0aeae588-ce00-42b0-9734-06cd5b160ad0","ios":"levelo://app?vid=0aeae588-ce00-42b0-9734-06cd5b160ad0"},"vehicle_type_id":"4","last_reported":1727806336,"current_range_meters":8800,"station_id":"ce4bhnh2rcd13ifvqgug","pricing_plan_id":"cebpf4jnsgd1na2vs0mg"},{"bike_id":"bcd3d28a-ea65-4172-8f36-03236c255f65","system_id":"levelo_inurba_marseille","lat":43.303368,"lon":5.404426,"is_reserved":false,"is_disabled":false,"rental_uris":{"android":"levelo://app?vid=bcd3d28a-ea65-4172-8f36-03236c255f65","ios":"levelo://app?vid=bcd3d28a-ea65-4172-8f36-03236c255f65"},"vehicle_type_id":"4","last_reported":1727806336,"current_range_meters":38800,"station_id":"ce4bh012rcd13ifvqd10","pricing_plan_id":"cebpf4jnsgd1na2vs0mg"},{"bike_id":"ca113266-0903-46af-873c-c05987fab7f6","system_id":"levelo_inurba_marseille","lat":43.29158,"lon":5.3717,"is_reserved":false,"is_disabled":false,"rental_uris":{"android":"levelo://app?vid=ca113266-0903-46af-873c-c05987fab7f6","ios":"levelo://app?vid=ca113266-0903-46af-873c-c05987fab7f6"},"vehicle_type_id":"4","last_reported":1727806336,"current_range_meters":37600,"station_id":"ce4bha92rcd13ifvqeh0","pricing_plan_id":"cebpf4jnsgd1na2vs0mg"},{"bike_id":"9ea65383-a0de-4a50-8614-6075feadc120","system_id":"levelo_inurba_marseille","lat":43.3133,"lon":5.39692,"is_reserved":false,"is_disabled":false,"rental_uris":{"android":"levelo://app?vid=9ea65383-a0de-4a50-8614-6075feadc120","ios":"levelo://app?vid=9ea65383-a0de-4a50-8614-6075feadc120"},"vehicle_type_id":"4","last_reported":1727806336,"current_range_meters":36800,"station_id":"ce4bgvp2rcd13ifvqcu0","pricing_plan_id":"cebpf4jnsgd1na2vs0mg"},{"bike_id":"4859970b-1559-4ff0-b8e1-a1165d9b289c","system_id":"levelo_inurba_marseille","lat":43.28916,"lon":5.38411,"is_reserved":false,"is_disabled":false,"rental_uris":{"android":"levelo://app?vid=4859970b-1559-4ff0-b8e1-a1165d9b289c","ios":"levelo://app?vid=4859970b-1559-4ff0-b8e1-a1165d9b289c"},"vehicle_type_id":"4","last_reported":1727806336,"current_range_meters":2000,"station_id":"ce4bh612rcd13ifvqe6g","pricing_plan_id":"cebpf4jnsgd1na2vs0mg"},{"bike_id":"21d11966-d94b-49a2-97bb-83a67b193706","system_id":"levelo_inurba_marseille","lat":43.29629,"lon":5.40598,"is_reserved":false,"is_disabled":false,"rental_uris":{"android":"levelo://app?vid=21d11966-d94b-49a2-97bb-83a67b193706","ios":"levelo://app?vid=21d11966-d94b-49a2-97bb-83a67b193706"},"vehicle_type_id":"4","last_reported":1727806336,"current_range_meters":38800,"station_id":"ce4bh0h2rcd13ifvqd60","pricing_plan_id":"cebpf4jnsgd1na2vs0mg"},{"bike_id":"e30c7e07-a3f6-4b7b-b137-3eeec92f97bf","system_id":"levelo_inurba_marseille","lat":43.33022,"lon":5.39043,"is_reserved":false,"is_disabled":false,"rental_uris":{"android":"levelo://app?vid=e30c7e07-a3f6-4b7b-b137-3eeec92f97bf","ios":"levelo://app?vid=e30c7e07-a3f6-4b7b-b137-3eeec92f97bf"},"vehicle_type_id":"4","last_reported":1727806336,"current_range_meters":25200,"station_id":"ce4bhr92rcd13ifvqhrg","pricing_plan_id":"cebpf4jnsgd1na2vs0mg"},{"bike_id":"7e76f61d-1104-460b-895f-03b2abf7da39","system_id":"levelo_inurba_marseille","lat":43.24077,"lon":5.37759,"is_reserved":false,"is_disabled":false,"rental_uris":{"android":"levelo://app?vid=7e76f61d-1104-460b-895f-03b2abf7da39","ios":"levelo://app?vid=7e76f61d-1104-460b-895f-03b2abf7da39"},"vehicle_type_id":"4","last_reported":1727806336,"current_range_meters":16400,"station_id":"ce4bhnp2rcd13ifvqgvg","pricing_plan_id":"cebpf4jnsgd1na2vs0mg"},{"bike_id":"1bd4444f-2f28-42f4-8820-c243d2603262","system_id":"levelo_inurba_marseille","lat":43.2799,"lon":5.40016,"is_reserved":false,"is_disabled":false,"rental_uris":{"android":"levelo://app?vid=1bd4444f-2f28-42f4-8820-c243d2603262","ios":"levelo://app?vid=1bd4444f-2f28-42f4-8820-c243d2603262"},"vehicle_type_id":"4","last_reported":1727806336,"current_range_meters":4000,"station_id":"ce4bho92rcd13ifvqh4g","pricing_plan_id":"cebpf4jnsgd1na2vs0mg"},{"bike_id":"d97cabd9-4352-4e3a-97fc-d3f8ae01999c","system_id":"levelo_inurba_marseille","lat":43.32326,"lon":5.40625,"is_reserved":false,"is_disabled":false,"rental_uris":{"android":"levelo://app?vid=d97cabd9-4352-4e3a-97fc-d3f8ae01999c","ios":"levelo://app?vid=d97cabd9-4352-4e3a-97fc-d3f8ae01999c"},"vehicle_type_id":"4","last_reported":1727806336,"current_range_meters":37600,"station_id":"ce4bhq92rcd13ifvqhjg","pricing_plan_id":"cebpf4jnsgd1na2vs0mg"},{"bike_id":"c32d92b6-7ce5-4d09-bf38-7781f66ad1d1","system_id":"levelo_inurba_marseille","lat":43.25718,"lon":5.41114,"is_reserved":false,"is_disabled":false,"rental_uris":{"android":"levelo://app?vid=c32d92b6-7ce5-4d09-bf38-7781f66ad1d1","ios":"levelo://app?vid=c32d92b6-7ce5-4d09-bf38-7781f66ad1d1"},"vehicle_type_id":"4","last_reported":1727806336,"current_range_meters":8000,"station_id":"ce4bhkp2rcd13ifvqgd0","pricing_plan_id":"cebpf4jnsgd1na2vs0mg"},{"bike_id":"4eeb4e63-d492-485b-bd41-0a63164847d5","system_id":"levelo_inurba_marseille","lat":43.28414,"lon":5.37505,"is_reserved":false,"is_disabled":false,"rental_uris":{"android":"levelo://app?vid=4eeb4e63-d492-485b-bd41-0a63164847d5","ios":"levelo://app?vid=4eeb4e63-d492-485b-bd41-0a63164847d5"},"vehicle_type_id":"4","last_reported":1727806336,"current_range_meters":24800,"station_id":"ce4bh412rcd13ifvqds0","pricing_plan_id":"cebpf4jnsgd1na2vs0mg"},{"bike_id":"cc07bd96-c001-4cad-b8d8-6c83fdb27706","system_id":"levelo_inurba_marseille","lat":43.27994,"lon":5.40014,"is_reserved":false,"is_disabled":false,"rental_uris":{"android":"levelo://app?vid=cc07bd96-c001-4cad-b8d8-6c83fdb27706","ios":"levelo://app?vid=cc07bd96-c001-4cad-b8d8-6c83fdb27706"},"vehicle_type_id":"4","last_reported":1727806336,"current_range_meters":16800,"station_id":"ce4bho92rcd13ifvqh4g","pricing_plan_id":"cebpf4jnsgd1na2vs0mg"},{"bike_id":"0476a4ab-c1ab-4d24-a7ff-f4d3edf4ba8e","system_id":"levelo_inurba_marseille","lat":43.287,"lon":5.39977,"is_reserved":false,"is_disabled":false,"rental_uris":{"android":"levelo://app?vid=0476a4ab-c1ab-4d24-a7ff-f4d3edf4ba8e","ios":"levelo://app?vid=0476a4ab-c1ab-4d24-a7ff-f4d3edf4ba8e"},"vehicle_type_id":"4","last_reported":1727806336,"current_range_meters":6800,"station_id":"ce4bho92rcd13ifvqh3g","pricing_plan_id":"cebpf4jnsgd1na2vs0mg"},{"bike_id":"ae317b96-73ae-42de-a2a7-4f366ae1729d","system_id":"levelo_inurba_marseille","lat":43.29885,"lon":5.38901,"is_reserved":false,"is_disabled":false,"rental_uris":{"android":"levelo://app?vid=ae317b96-73ae-42de-a2a7-4f366ae1729d","ios":"levelo://app?vid=ae317b96-73ae-42de-a2a7-4f366ae1729d"},"vehicle_type_id":"4","last_reported":1727806336,"current_range_meters":38000,"station_id":"ce4bh392rcd13ifvqdl0","pricing_plan_id":"cebpf4jnsgd1na2vs0mg"},{"bike_id":"2b3cba80-980e-45c6-af09-5c9975ad2ab1","system_id":"levelo_inurba_marseille","lat":43.30146,"lon":5.39849,"is_reserved":false,"is_disabled":false,"rental_uris":{"android":"levelo://app?vid=2b3cba80-980e-45c6-af09-5c9975ad2ab1","ios":"levelo://app?vid=2b3cba80-980e-45c6-af09-5c9975ad2ab1"},"vehicle_type_id":"4","last_reported":1727806336,"current_range_meters":30400,"station_id":"ce4bh0h2rcd13ifvqd40","pricing_plan_id":"cebpf4jnsgd1na2vs0mg"},{"bike_id":"a2c17efe-a385-4232-8dec-4a5f5de49af6","system_id":"levelo_inurba_marseille","lat":43.27653,"lon":5.38895,"is_reserved":false,"is_disabled":false,"rental_uris":{"android":"levelo://app?vid=a2c17efe-a385-4232-8dec-4a5f5de49af6","ios":"levelo://app?vid=a2c17efe-a385-4232-8dec-4a5f5de49af6"},"vehicle_type_id":"4","last_reported":1727806336,"current_range_meters":5600,"station_id":"ce4bhi12rcd13ifvqfo0","pricing_plan_id":"cebpf4jnsgd1na2vs0mg"},{"bike_id":"d616de3c-fdcc-449b-aaab-950f4c46fdd3","system_id":"levelo_inurba_marseille","lat":43.32107,"lon":5.36782,"is_reserved":false,"is_disabled":false,"rental_uris":{"android":"levelo://app?vid=d616de3c-fdcc-449b-aaab-950f4c46fdd3","ios":"levelo://app?vid=d616de3c-fdcc-449b-aaab-950f4c46fdd3"},"vehicle_type_id":"4","last_reported":1727806336,"current_range_meters":12000,"station_id":"ce4bhrh2rcd13ifvqhug","pricing_plan_id":"cebpf4jnsgd1na2vs0mg"},{"bike_id":"9b3928c5-abc0-44e6-a77c-1a525abff7a7","system_id":"levelo_inurba_marseille","lat":43.30324,"lon":5.40441,"is_reserved":false,"is_disabled":false,"rental_uris":{"android":"levelo://app?vid=9b3928c5-abc0-44e6-a77c-1a525abff7a7","ios":"levelo://app?vid=9b3928c5-abc0-44e6-a77c-1a525abff7a7"},"vehicle_type_id":"4","last_reported":1727806336,"current_range_meters":38800,"station_id":"ce4bh012rcd13ifvqd10","pricing_plan_id":"cebpf4jnsgd1na2vs0mg"},{"bike_id":"57ce1f67-5421-4a7a-9fe7-c0ce29d69433","system_id":"levelo_inurba_marseille","lat":43.28464,"lon":5.3841,"is_reserved":false,"is_disabled":false,"rental_uris":{"android":"levelo://app?vid=57ce1f67-5421-4a7a-9fe7-c0ce29d69433","ios":"levelo://app?vid=57ce1f67-5421-4a7a-9fe7-c0ce29d69433"},"vehicle_type_id":"4","last_reported":1727806336,"current_range_meters":37600,"station_id":"ce4bh512rcd13ifvqe3g","pricing_plan_id":"cebpf4jnsgd1na2vs0mg"},{"bike_id":"38fdea01-f745-47fa-9ba4-38f5ca331fd1","system_id":"levelo_inurba_marseille","lat":43.29246,"lon":5.38523,"is_reserved":false,"is_disabled":false,"rental_uris":{"android":"levelo://app?vid=38fdea01-f745-47fa-9ba4-38f5ca331fd1","ios":"levelo://app?vid=38fdea01-f745-47fa-9ba4-38f5ca331fd1"},"vehicle_type_id":"4","last_reported":1727806336,"current_range_meters":12800,"station_id":"ce4bh692rcd13ifvqea0","pricing_plan_id":"cebpf4jnsgd1na2vs0mg"},{"bike_id":"e9861ed6-dec8-4652-bfc0-616c3d98a7d1","system_id":"levelo_inurba_marseille","lat":43.28679,"lon":5.37389,"is_reserved":false,"is_disabled":false,"rental_uris":{"android":"levelo://app?vid=e9861ed6-dec8-4652-bfc0-616c3d98a7d1","ios":"levelo://app?vid=e9861ed6-dec8-4652-bfc0-616c3d98a7d1"},"vehicle_type_id":"4","last_reported":1727806336,"current_range_meters":14800,"station_id":"ce4bh3p2rcd13ifvqdq0","pricing_plan_id":"cebpf4jnsgd1na2vs0mg"},{"bike_id":"d84b99fa-7bb7-48b5-83c0-434c1d647fde","system_id":"levelo_inurba_marseille","lat":43.28851,"lon":5.39306,"is_reserved":false,"is_disabled":false,"rental_uris":{"android":"levelo://app?vid=d84b99fa-7bb7-48b5-83c0-434c1d647fde","ios":"levelo://app?vid=d84b99fa-7bb7-48b5-83c0-434c1d647fde"},"vehicle_type_id":"4","last_reported":1727806336,"current_range_meters":7200,"station_id":"ce4bh2p2rcd13ifvqdi0","pricing_plan_id":"cebpf4jnsgd1na2vs0mg"},{"bike_id":"4d87c69d-e175-4df2-ae71-21a8671c69b9","system_id":"levelo_inurba_marseille","lat":43.28833,"lon":5.39338,"is_reserved":false,"is_disabled":false,"rental_uris":{"android":"levelo://app?vid=4d87c69d-e175-4df2-ae71-21a8671c69b9","ios":"levelo://app?vid=4d87c69d-e175-4df2-ae71-21a8671c69b9"},"vehicle_type_id":"4","last_reported":1727806336,"current_range_meters":8400,"station_id":"ce4bh2p2rcd13ifvqdi0","pricing_plan_id":"cebpf4jnsgd1na2vs0mg"},{"bike_id":"c87cbcf6-5323-4613-b4d0-9266fc83505c","system_id":"levelo_inurba_marseille","lat":43.27804,"lon":5.40728,"is_reserved":false,"is_disabled":false,"rental_uris":{"android":"levelo://app?vid=c87cbcf6-5323-4613-b4d0-9266fc83505c","ios":"levelo://app?vid=c87cbcf6-5323-4613-b4d0-9266fc83505c"},"vehicle_type_id":"4","last_reported":1727806336,"current_range_meters":18000,"station_id":"ce4bhnh2rcd13ifvqgtg","pricing_plan_id":"cebpf4jnsgd1na2vs0mg"},{"bike_id":"7ceac49f-bc33-42d2-879a-e265db9cf0ee","system_id":"levelo_inurba_marseille","lat":43.28708,"lon":5.39994,"is_reserved":false,"is_disabled":false,"rental_uris":{"android":"levelo://app?vid=7ceac49f-bc33-42d2-879a-e265db9cf0ee","ios":"levelo://app?vid=7ceac49f-bc33-42d2-879a-e265db9cf0ee"},"vehicle_type_id":"4","last_reported":1727806336,"current_range_meters":8000,"station_id":"ce4bho92rcd13ifvqh3g","pricing_plan_id":"cebpf4jnsgd1na2vs0mg"},{"bike_id":"9418ba21-9cc4-49b3-b14c-8a7e5d42531e","system_id":"levelo_inurba_marseille","lat":43.31268,"lon":5.40176,"is_reserved":false,"is_disabled":false,"rental_uris":{"android":"levelo://app?vid=9418ba21-9cc4-49b3-b14c-8a7e5d42531e","ios":"levelo://app?vid=9418ba21-9cc4-49b3-b14c-8a7e5d42531e"},"vehicle_type_id":"4","last_reported":1727806336,"current_range_meters":38800,"station_id":"ce4bh092rcd13ifvqd30","pricing_plan_id":"cebpf4jnsgd1na2vs0mg"},{"bike_id":"609844d3-402e-4c83-8b7f-d2093120cb67","system_id":"levelo_inurba_marseille","lat":43.32539,"lon":5.4145,"is_reserved":false,"is_disabled":false,"rental_uris":{"android":"levelo://app?vid=609844d3-402e-4c83-8b7f-d2093120cb67","ios":"levelo://app?vid=609844d3-402e-4c83-8b7f-d2093120cb67"},"vehicle_type_id":"4","last_reported":1727806336,"current_range_meters":38400,"station_id":"ce4bhq12rcd13ifvqhhg","pricing_plan_id":"cebpf4jnsgd1na2vs0mg"},{"bike_id":"4f25ac2d-0308-439f-aeed-3522acdf667e","system_id":"levelo_inurba_marseille","lat":43.299,"lon":5.43664,"is_reserved":false,"is_disabled":false,"rental_uris":{"android":"levelo://app?vid=4f25ac2d-0308-439f-aeed-3522acdf667e","ios":"levelo://app?vid=4f25ac2d-0308-439f-aeed-3522acdf667e"},"vehicle_type_id":"4","last_reported":1727806336,"current_range_meters":18000,"station_id":"ce4bhpp2rcd13ifvqhfg","pricing_plan_id":"cebpf4jnsgd1na2vs0mg"},{"bike_id":"2efe889c-d7f9-441d-afae-d38011cb4d35","system_id":"levelo_inurba_marseille","lat":43.28447,"lon":5.35892,"is_reserved":false,"is_disabled":false,"rental_uris":{"android":"levelo://app?vid=2efe889c-d7f9-441d-afae-d38011cb4d35","ios":"levelo://app?vid=2efe889c-d7f9-441d-afae-d38011cb4d35"},"vehicle_type_id":"4","last_reported":1727806336,"current_range_meters":38400,"station_id":"ce4bhah2rcd13ifvqei0","pricing_plan_id":"cebpf4jnsgd1na2vs0mg"},{"bike_id":"5480597b-4a20-45ab-8d7b-e759f04bc45a","system_id":"levelo_inurba_marseille","lat":43.25568,"lon":5.38237,"is_reserved":false,"is_disabled":false,"rental_uris":{"android":"levelo://app?vid=5480597b-4a20-45ab-8d7b-e759f04bc45a","ios":"levelo://app?vid=5480597b-4a20-45ab-8d7b-e759f04bc45a"},"vehicle_type_id":"4","last_reported":1727806336,"current_range_meters":2800,"station_id":"ce4bhih2rcd13ifvqfs0","pricing_plan_id":"cebpf4jnsgd1na2vs0mg"},{"bike_id":"26d718c7-9f7d-4c2c-82a6-84e58e5afac1","system_id":"levelo_inurba_marseille","lat":43.24079,"lon":5.37759,"is_reserved":false,"is_disabled":false,"rental_uris":{"android":"levelo://app?vid=26d718c7-9f7d-4c2c-82a6-84e58e5afac1","ios":"levelo://app?vid=26d718c7-9f7d-4c2c-82a6-84e58e5afac1"},"vehicle_type_id":"4","last_reported":1727806336,"current_range_meters":22000,"station_id":"ce4bhnp2rcd13ifvqgvg","pricing_plan_id":"cebpf4jnsgd1na2vs0mg"},{"bike_id":"de1e7b09-ca4b-4b48-a3fd-23a534e7333f","system_id":"levelo_inurba_marseille","lat":43.31752,"lon":5.39024,"is_reserved":false,"is_disabled":false,"rental_uris":{"android":"levelo://app?vid=de1e7b09-ca4b-4b48-a3fd-23a534e7333f","ios":"levelo://app?vid=de1e7b09-ca4b-4b48-a3fd-23a534e7333f"},"vehicle_type_id":"4","last_reported":1727806336,"current_range_meters":37600,"station_id":"ce4bhqp2rcd13ifvqhng","pricing_plan_id":"cebpf4jnsgd1na2vs0mg"},{"bike_id":"4c558abb-656b-47cf-88ab-821731025a99","system_id":"levelo_inurba_marseille","lat":43.31085,"lon":5.42431,"is_reserved":false,"is_disabled":false,"rental_uris":{"android":"levelo://app?vid=4c558abb-656b-47cf-88ab-821731025a99","ios":"levelo://app?vid=4c558abb-656b-47cf-88ab-821731025a99"},"vehicle_type_id":"4","last_reported":1727806336,"current_range_meters":19200,"station_id":"ce4bhp92rcd13ifvqhag","pricing_plan_id":"cebpf4jnsgd1na2vs0mg"},{"bike_id":"5c22c832-a575-4b05-a068-7017a41090e0","system_id":"levelo_inurba_marseille","lat":43.24078,"lon":5.37758,"is_reserved":false,"is_disabled":false,"rental_uris":{"android":"levelo://app?vid=5c22c832-a575-4b05-a068-7017a41090e0","ios":"levelo://app?vid=5c22c832-a575-4b05-a068-7017a41090e0"},"vehicle_type_id":"4","last_reported":1727806336,"current_range_meters":10000,"station_id":"ce4bhnp2rcd13ifvqgvg","pricing_plan_id":"cebpf4jnsgd1na2vs0mg"},{"bike_id":"c361d3d3-f7ad-4e0f-a7df-be47b9d79105","system_id":"levelo_inurba_marseille","lat":43.278232,"lon":5.392057,"is_reserved":false,"is_disabled":false,"rental_uris":{"android":"levelo://app?vid=c361d3d3-f7ad-4e0f-a7df-be47b9d79105","ios":"levelo://app?vid=c361d3d3-f7ad-4e0f-a7df-be47b9d79105"},"vehicle_type_id":"4","last_reported":1727806336,"current_range_meters":10000,"station_id":"ce4bgi12rcd13ifvqb70","pricing_plan_id":"cebpf4jnsgd1na2vs0mg"},{"bike_id":"931ad000-0a20-48b4-ad31-897e48b02089","system_id":"levelo_inurba_marseille","lat":43.323704,"lon":5.389709,"is_reserved":false,"is_disabled":false,"rental_uris":{"android":"levelo://app?vid=931ad000-0a20-48b4-ad31-897e48b02089","ios":"levelo://app?vid=931ad000-0a20-48b4-ad31-897e48b02089"},"vehicle_type_id":"4","last_reported":1727806336,"current_range_meters":38800,"station_id":"ce4bhqp2rcd13ifvqhog","pricing_plan_id":"cebpf4jnsgd1na2vs0mg"},{"bike_id":"87ce770f-f23f-45e7-8a25-ae30e99903b5","system_id":"levelo_inurba_marseille","lat":43.29874,"lon":5.39737,"is_reserved":false,"is_disabled":false,"rental_uris":{"android":"levelo://app?vid=87ce770f-f23f-45e7-8a25-ae30e99903b5","ios":"levelo://app?vid=87ce770f-f23f-45e7-8a25-ae30e99903b5"},"vehicle_type_id":"4","last_reported":1727806336,"current_range_meters":27600,"station_id":"ce4bh0h2rcd13ifvqd50","pricing_plan_id":"cebpf4jnsgd1na2vs0mg"},{"bike_id":"12324574-34b4-4d8c-a309-27f2c871283b","system_id":"levelo_inurba_marseille","lat":43.290436,"lon":5.370417,"is_reserved":false,"is_disabled":false,"rental_uris":{"android":"levelo://app?vid=12324574-34b4-4d8c-a309-27f2c871283b","ios":"levelo://app?vid=12324574-34b4-4d8c-a309-27f2c871283b"},"vehicle_type_id":"4","last_reported":1727806336,"current_range_meters":24800,"station_id":"ce4bhap2rcd13ifvqek0","pricing_plan_id":"cebpf4jnsgd1na2vs0mg"},{"bike_id":"e39cd6f1-548c-400d-9f96-bf8b0c294a2d","system_id":"levelo_inurba_marseille","lat":43.24084,"lon":5.37748,"is_reserved":false,"is_disabled":false,"rental_uris":{"android":"levelo://app?vid=e39cd6f1-548c-400d-9f96-bf8b0c294a2d","ios":"levelo://app?vid=e39cd6f1-548c-400d-9f96-bf8b0c294a2d"},"vehicle_type_id":"4","last_reported":1727806336,"current_range_meters":16400,"station_id":"ce4bhnp2rcd13ifvqgvg","pricing_plan_id":"cebpf4jnsgd1na2vs0mg"},{"bike_id":"a7382c38-586b-4b5c-8530-e1282870af04","system_id":"levelo_inurba_marseille","lat":43.23167,"lon":5.39995,"is_reserved":false,"is_disabled":false,"rental_uris":{"android":"levelo://app?vid=a7382c38-586b-4b5c-8530-e1282870af04","ios":"levelo://app?vid=a7382c38-586b-4b5c-8530-e1282870af04"},"vehicle_type_id":"4","last_reported":1727806336,"current_range_meters":29600,"station_id":"ce4bhn12rcd13ifvqgqg","pricing_plan_id":"cebpf4jnsgd1na2vs0mg"},{"bike_id":"cb7e260b-ef7e-4788-9ea7-e8afd3b30bd1","system_id":"levelo_inurba_marseille","lat":43.28011,"lon":5.40039,"is_reserved":false,"is_disabled":false,"rental_uris":{"android":"levelo://app?vid=cb7e260b-ef7e-4788-9ea7-e8afd3b30bd1","ios":"levelo://app?vid=cb7e260b-ef7e-4788-9ea7-e8afd3b30bd1"},"vehicle_type_id":"4","last_reported":1727806336,"current_range_meters":12000,"station_id":"ce4bh192rcd13ifvqdc0","pricing_plan_id":"cebpf4jnsgd1na2vs0mg"},{"bike_id":"f8f518e3-bd48-40f5-801a-4ead88758ee2","system_id":"levelo_inurba_marseille","lat":43.32113,"lon":5.3677,"is_reserved":false,"is_disabled":false,"rental_uris":{"android":"levelo://app?vid=f8f518e3-bd48-40f5-801a-4ead88758ee2","ios":"levelo://app?vid=f8f518e3-bd48-40f5-801a-4ead88758ee2"},"vehicle_type_id":"4","last_reported":1727806336,"current_range_meters":14000,"station_id":"ce4bhrh2rcd13ifvqhug","pricing_plan_id":"cebpf4jnsgd1na2vs0mg"},{"bike_id":"eb2f3e81-5bc0-40a6-b7d0-df45f91bb71c","system_id":"levelo_inurba_marseille","lat":43.27988,"lon":5.40012,"is_reserved":false,"is_disabled":false,"rental_uris":{"android":"levelo://app?vid=eb2f3e81-5bc0-40a6-b7d0-df45f91bb71c","ios":"levelo://app?vid=eb2f3e81-5bc0-40a6-b7d0-df45f91bb71c"},"vehicle_type_id":"4","last_reported":1727806336,"current_range_meters":19600,"station_id":"ce4bho92rcd13ifvqh4g","pricing_plan_id":"cebpf4jnsgd1na2vs0mg"},{"bike_id":"dce009d0-1394-49d7-a126-a2a48a9a3fe7","system_id":"levelo_inurba_marseille","lat":43.290486,"lon":5.375634,"is_reserved":false,"is_disabled":false,"rental_uris":{"android":"levelo://app?vid=dce009d0-1394-49d7-a126-a2a48a9a3fe7","ios":"levelo://app?vid=dce009d0-1394-49d7-a126-a2a48a9a3fe7"},"vehicle_type_id":"4","last_reported":1727806336,"current_range_meters":38800,"station_id":"ce4bh692rcd13ifvqe90","pricing_plan_id":"cebpf4jnsgd1na2vs0mg"},{"bike_id":"70ed0ea2-c1fa-43ea-b48b-d693b7006bb7","system_id":"levelo_inurba_marseille","lat":43.28432,"lon":5.39185,"is_reserved":false,"is_disabled":false,"rental_uris":{"android":"levelo://app?vid=70ed0ea2-c1fa-43ea-b48b-d693b7006bb7","ios":"levelo://app?vid=70ed0ea2-c1fa-43ea-b48b-d693b7006bb7"},"vehicle_type_id":"4","last_reported":1727806336,"current_range_meters":4400,"station_id":"ce4bhoh2rcd13ifvqh5g","pricing_plan_id":"cebpf4jnsgd1na2vs0mg"},{"bike_id":"dbd2e51a-db9b-4ba9-b145-416f0fc12c30","system_id":"levelo_inurba_marseille","lat":43.29567,"lon":5.37521,"is_reserved":false,"is_disabled":false,"rental_uris":{"android":"levelo://app?vid=dbd2e51a-db9b-4ba9-b145-416f0fc12c30","ios":"levelo://app?vid=dbd2e51a-db9b-4ba9-b145-416f0fc12c30"},"vehicle_type_id":"4","last_reported":1727806336,"current_range_meters":15200,"station_id":"ce4bgh92rcd13ifvqb50","pricing_plan_id":"cebpf4jnsgd1na2vs0mg"},{"bike_id":"dc03e946-be64-435d-a6e2-304d0c9f3ef5","system_id":"levelo_inurba_marseille","lat":43.31523,"lon":5.38035,"is_reserved":false,"is_disabled":false,"rental_uris":{"android":"levelo://app?vid=dc03e946-be64-435d-a6e2-304d0c9f3ef5","ios":"levelo://app?vid=dc03e946-be64-435d-a6e2-304d0c9f3ef5"},"vehicle_type_id":"4","last_reported":1727806336,"current_range_meters":35600,"station_id":"ce4bhsp2rcd13ifvqi50","pricing_plan_id":"cebpf4jnsgd1na2vs0mg"},{"bike_id":"c272a279-90ee-4bfb-9ffd-5998d51b43da","system_id":"levelo_inurba_marseille","lat":43.25577,"lon":5.38235,"is_reserved":false,"is_disabled":false,"rental_uris":{"android":"levelo://app?vid=c272a279-90ee-4bfb-9ffd-5998d51b43da","ios":"levelo://app?vid=c272a279-90ee-4bfb-9ffd-5998d51b43da"},"vehicle_type_id":"4","last_reported":1727806336,"current_range_meters":15200,"station_id":"ce4bhih2rcd13ifvqfs0","pricing_plan_id":"cebpf4jnsgd1na2vs0mg"},{"bike_id":"d995d233-d2fe-4db9-b69b-baa1337469bf","system_id":"levelo_inurba_marseille","lat":43.26714,"lon":5.40142,"is_reserved":false,"is_disabled":false,"rental_uris":{"android":"levelo://app?vid=d995d233-d2fe-4db9-b69b-baa1337469bf","ios":"levelo://app?vid=d995d233-d2fe-4db9-b69b-baa1337469bf"},"vehicle_type_id":"4","last_reported":1727806336,"current_range_meters":12400,"station_id":"ce4bhm92rcd13ifvqglg","pricing_plan_id":"cebpf4jnsgd1na2vs0mg"},{"bike_id":"67439202-077d-4991-b6f7-9876a293e354","system_id":"levelo_inurba_marseille","lat":43.28343,"lon":5.38106,"is_reserved":false,"is_disabled":false,"rental_uris":{"android":"levelo://app?vid=67439202-077d-4991-b6f7-9876a293e354","ios":"levelo://app?vid=67439202-077d-4991-b6f7-9876a293e354"},"vehicle_type_id":"4","last_reported":1727806336,"current_range_meters":3200,"station_id":"ce4bh412rcd13ifvqdr0","pricing_plan_id":"cebpf4jnsgd1na2vs0mg"},{"bike_id":"0e10fc43-d56c-49c3-8ac4-9081912d2829","system_id":"levelo_inurba_marseille","lat":43.26685,"lon":5.38272,"is_reserved":false,"is_disabled":false,"rental_uris":{"android":"levelo://app?vid=0e10fc43-d56c-49c3-8ac4-9081912d2829","ios":"levelo://app?vid=0e10fc43-d56c-49c3-8ac4-9081912d2829"},"vehicle_type_id":"4","last_reported":1727806336,"current_range_meters":36800,"station_id":"ce4bhg92rcd13ifvqf90","pricing_plan_id":"cebpf4jnsgd1na2vs0mg"},{"bike_id":"92440955-74a7-4858-b9d2-710fb1f6d77b","system_id":"levelo_inurba_marseille","lat":43.27173,"lon":5.40999,"is_reserved":false,"is_disabled":false,"rental_uris":{"android":"levelo://app?vid=92440955-74a7-4858-b9d2-710fb1f6d77b","ios":"levelo://app?vid=92440955-74a7-4858-b9d2-710fb1f6d77b"},"vehicle_type_id":"4","last_reported":1727806336,"current_range_meters":5600,"station_id":"ce4bhl12rcd13ifvqgf0","pricing_plan_id":"cebpf4jnsgd1na2vs0mg"},{"bike_id":"1e92b09a-83bd-434d-bc30-b1805b0d50c8","system_id":"levelo_inurba_marseille","lat":43.28002,"lon":5.40004,"is_reserved":false,"is_disabled":false,"rental_uris":{"android":"levelo://app?vid=1e92b09a-83bd-434d-bc30-b1805b0d50c8","ios":"levelo://app?vid=1e92b09a-83bd-434d-bc30-b1805b0d50c8"},"vehicle_type_id":"4","last_reported":1727806336,"current_range_meters":10800,"station_id":"ce4bho92rcd13ifvqh4g","pricing_plan_id":"cebpf4jnsgd1na2vs0mg"},{"bike_id":"c7102913-06d2-4186-bb76-c1bbe10cd03c","system_id":"levelo_inurba_marseille","lat":43.28001,"lon":5.40007,"is_reserved":false,"is_disabled":false,"rental_uris":{"android":"levelo://app?vid=c7102913-06d2-4186-bb76-c1bbe10cd03c","ios":"levelo://app?vid=c7102913-06d2-4186-bb76-c1bbe10cd03c"},"vehicle_type_id":"4","last_reported":1727806336,"current_range_meters":32400,"station_id":"ce4bho92rcd13ifvqh4g","pricing_plan_id":"cebpf4jnsgd1na2vs0mg"},{"bike_id":"b652f429-09b8-4697-9c1b-3b9adc3c55d8","system_id":"levelo_inurba_marseille","lat":43.26871,"lon":5.39135,"is_reserved":false,"is_disabled":false,"rental_uris":{"android":"levelo://app?vid=b652f429-09b8-4697-9c1b-3b9adc3c55d8","ios":"levelo://app?vid=b652f429-09b8-4697-9c1b-3b9adc3c55d8"},"vehicle_type_id":"4","last_reported":1727806336,"current_range_meters":6400,"station_id":"","pricing_plan_id":"cebpf4jnsgd1na2vs0mg"},{"bike_id":"61a947e1-a421-40aa-a820-d6e19a6f0fe4","system_id":"levelo_inurba_marseille","lat":43.31721,"lon":5.42404,"is_reserved":false,"is_disabled":false,"rental_uris":{"android":"levelo://app?vid=61a947e1-a421-40aa-a820-d6e19a6f0fe4","ios":"levelo://app?vid=61a947e1-a421-40aa-a820-d6e19a6f0fe4"},"vehicle_type_id":"4","last_reported":1727806336,"current_range_meters":26000,"station_id":"ce4bhp92rcd13ifvqhbg","pricing_plan_id":"cebpf4jnsgd1na2vs0mg"},{"bike_id":"37623181-9101-4c73-bb6a-5aa8fec97674","system_id":"levelo_inurba_marseille","lat":43.287079,"lon":5.372975,"is_reserved":false,"is_disabled":false,"rental_uris":{"android":"levelo://app?vid=37623181-9101-4c73-bb6a-5aa8fec97674","ios":"levelo://app?vid=37623181-9101-4c73-bb6a-5aa8fec97674"},"vehicle_type_id":"4","last_reported":1727806336,"current_range_meters":10800,"station_id":"ce4bhah2rcd13ifvqei0","pricing_plan_id":"cebpf4jnsgd1na2vs0mg"},{"bike_id":"9929179e-80d5-48aa-b9d5-45098e84f772","system_id":"levelo_inurba_marseille","lat":43.31448,"lon":5.39209,"is_reserved":false,"is_disabled":false,"rental_uris":{"android":"levelo://app?vid=9929179e-80d5-48aa-b9d5-45098e84f772","ios":"levelo://app?vid=9929179e-80d5-48aa-b9d5-45098e84f772"},"vehicle_type_id":"4","last_reported":1727806336,"current_range_meters":38800,"station_id":"","pricing_plan_id":"cebpf4jnsgd1na2vs0mg"},{"bike_id":"cc334f47-266c-4194-bd67-059ec0658e9f","system_id":"levelo_inurba_marseille","lat":43.31267,"lon":5.40172,"is_reserved":false,"is_disabled":false,"rental_uris":{"android":"levelo://app?vid=cc334f47-266c-4194-bd67-059ec0658e9f","ios":"levelo://app?vid=cc334f47-266c-4194-bd67-059ec0658e9f"},"vehicle_type_id":"4","last_reported":1727806336,"current_range_meters":12800,"station_id":"ce4bh092rcd13ifvqd30","pricing_plan_id":"cebpf4jnsgd1na2vs0mg"},{"bike_id":"9d66cfb5-ff3a-453e-b145-9f2a54c9f17f","system_id":"levelo_inurba_marseille","lat":43.25121,"lon":5.40321,"is_reserved":false,"is_disabled":false,"rental_uris":{"android":"levelo://app?vid=9d66cfb5-ff3a-453e-b145-9f2a54c9f17f","ios":"levelo://app?vid=9d66cfb5-ff3a-453e-b145-9f2a54c9f17f"},"vehicle_type_id":"4","last_reported":1727806336,"current_range_meters":18000,"station_id":"ce4bhlh2rcd13ifvqgig","pricing_plan_id":"cebpf4jnsgd1na2vs0mg"},{"bike_id":"80bcd953-9d5e-42cf-952c-4bc52d4c35bd","system_id":"levelo_inurba_marseille","lat":43.29519,"lon":5.39413,"is_reserved":false,"is_disabled":false,"rental_uris":{"android":"levelo://app?vid=80bcd953-9d5e-42cf-952c-4bc52d4c35bd","ios":"levelo://app?vid=80bcd953-9d5e-42cf-952c-4bc52d4c35bd"},"vehicle_type_id":"4","last_reported":1727806336,"current_range_meters":4400,"station_id":"ce4bh292rcd13ifvqdf0","pricing_plan_id":"cebpf4jnsgd1na2vs0mg"},{"bike_id":"a648c215-afca-4359-aa1c-c8fc75bb0cb6","system_id":"levelo_inurba_marseille","lat":43.29982,"lon":5.38494,"is_reserved":false,"is_disabled":false,"rental_uris":{"android":"levelo://app?vid=a648c215-afca-4359-aa1c-c8fc75bb0cb6","ios":"levelo://app?vid=a648c215-afca-4359-aa1c-c8fc75bb0cb6"},"vehicle_type_id":"4","last_reported":1727806336,"current_range_meters":39200,"station_id":"ce4bgj92rcd13ifvqbd0","pricing_plan_id":"cebpf4jnsgd1na2vs0mg"},{"bike_id":"f8e9fe54-4a76-4998-b2ca-d9a9219f5a09","system_id":"levelo_inurba_marseille","lat":43.29023,"lon":5.38126,"is_reserved":false,"is_disabled":false,"rental_uris":{"android":"levelo://app?vid=f8e9fe54-4a76-4998-b2ca-d9a9219f5a09","ios":"levelo://app?vid=f8e9fe54-4a76-4998-b2ca-d9a9219f5a09"},"vehicle_type_id":"4","last_reported":1727806336,"current_range_meters":10000,"station_id":"ce4bh4p2rcd13ifvqe1g","pricing_plan_id":"cebpf4jnsgd1na2vs0mg"},{"bike_id":"66fca013-aa6a-46fd-aa76-1d7e3011dba3","system_id":"levelo_inurba_marseille","lat":43.31706,"lon":5.43714,"is_reserved":false,"is_disabled":false,"rental_uris":{"android":"levelo://app?vid=66fca013-aa6a-46fd-aa76-1d7e3011dba3","ios":"levelo://app?vid=66fca013-aa6a-46fd-aa76-1d7e3011dba3"},"vehicle_type_id":"4","last_reported":1727806336,"current_range_meters":7200,"station_id":"ce4bhp92rcd13ifvqhcg","pricing_plan_id":"cebpf4jnsgd1na2vs0mg"},{"bike_id":"d37177c6-e958-4843-9929-2ac397a2adb5","system_id":"levelo_inurba_marseille","lat":43.29708,"lon":5.36602,"is_reserved":false,"is_disabled":false,"rental_uris":{"android":"levelo://app?vid=d37177c6-e958-4843-9929-2ac397a2adb5","ios":"levelo://app?vid=d37177c6-e958-4843-9929-2ac397a2adb5"},"vehicle_type_id":"4","last_reported":1727806336,"current_range_meters":11200,"station_id":"ce4bgn12rcd13ifvqbt0","pricing_plan_id":"cebpf4jnsgd1na2vs0mg"},{"bike_id":"a39377d7-f877-4866-a1d9-840cdeb76865","system_id":"levelo_inurba_marseille","lat":43.28923,"lon":5.38402,"is_reserved":false,"is_disabled":false,"rental_uris":{"android":"levelo://app?vid=a39377d7-f877-4866-a1d9-840cdeb76865","ios":"levelo://app?vid=a39377d7-f877-4866-a1d9-840cdeb76865"},"vehicle_type_id":"4","last_reported":1727806336,"current_range_meters":2800,"station_id":"ce4bh612rcd13ifvqe6g","pricing_plan_id":"cebpf4jnsgd1na2vs0mg"},{"bike_id":"0292ff83-8582-4b56-b47c-952d87d53fc4","system_id":"levelo_inurba_marseille","lat":43.24647,"lon":5.38895,"is_reserved":false,"is_disabled":false,"rental_uris":{"android":"levelo://app?vid=0292ff83-8582-4b56-b47c-952d87d53fc4","ios":"levelo://app?vid=0292ff83-8582-4b56-b47c-952d87d53fc4"},"vehicle_type_id":"4","last_reported":1727806336,"current_range_meters":26000,"station_id":"ce4bhg12rcd13ifvqf60","pricing_plan_id":"cebpf4jnsgd1na2vs0mg"},{"bike_id":"89b9dfd5-0dc9-4197-bb8d-be7f07ee51ff","system_id":"levelo_inurba_marseille","lat":43.31521,"lon":5.38031,"is_reserved":false,"is_disabled":false,"rental_uris":{"android":"levelo://app?vid=89b9dfd5-0dc9-4197-bb8d-be7f07ee51ff","ios":"levelo://app?vid=89b9dfd5-0dc9-4197-bb8d-be7f07ee51ff"},"vehicle_type_id":"4","last_reported":1727806336,"current_range_meters":19600,"station_id":"ce4bhsp2rcd13ifvqi50","pricing_plan_id":"cebpf4jnsgd1na2vs0mg"},{"bike_id":"2e6db03b-89d0-4b7f-9255-d4415cec9b74","system_id":"levelo_inurba_marseille","lat":43.25084,"lon":5.39516,"is_reserved":false,"is_disabled":false,"rental_uris":{"android":"levelo://app?vid=2e6db03b-89d0-4b7f-9255-d4415cec9b74","ios":"levelo://app?vid=2e6db03b-89d0-4b7f-9255-d4415cec9b74"},"vehicle_type_id":"4","last_reported":1727806336,"current_range_meters":3600,"station_id":"ce4bhm12rcd13ifvqgkg","pricing_plan_id":"cebpf4jnsgd1na2vs0mg"},{"bike_id":"4158dfa0-734d-4050-bbb4-c1d838b33c7b","system_id":"levelo_inurba_marseille","lat":43.25574,"lon":5.38236,"is_reserved":false,"is_disabled":false,"rental_uris":{"android":"levelo://app?vid=4158dfa0-734d-4050-bbb4-c1d838b33c7b","ios":"levelo://app?vid=4158dfa0-734d-4050-bbb4-c1d838b33c7b"},"vehicle_type_id":"4","last_reported":1727806336,"current_range_meters":7200,"station_id":"ce4bhih2rcd13ifvqfs0","pricing_plan_id":"cebpf4jnsgd1na2vs0mg"},{"bike_id":"e47d8b5f-6f7d-401a-8617-51b7d9b65561","system_id":"levelo_inurba_marseille","lat":43.32217,"lon":5.38701,"is_reserved":false,"is_disabled":false,"rental_uris":{"android":"levelo://app?vid=e47d8b5f-6f7d-401a-8617-51b7d9b65561","ios":"levelo://app?vid=e47d8b5f-6f7d-401a-8617-51b7d9b65561"},"vehicle_type_id":"4","last_reported":1727806336,"current_range_meters":16000,"station_id":"","pricing_plan_id":"cebpf4jnsgd1na2vs0mg"},{"bike_id":"6ff016f9-d31d-4e50-9002-5dee01876d27","system_id":"levelo_inurba_marseille","lat":43.31331,"lon":5.39692,"is_reserved":false,"is_disabled":false,"rental_uris":{"android":"levelo://app?vid=6ff016f9-d31d-4e50-9002-5dee01876d27","ios":"levelo://app?vid=6ff016f9-d31d-4e50-9002-5dee01876d27"},"vehicle_type_id":"4","last_reported":1727806336,"current_range_meters":19200,"station_id":"ce4bgvp2rcd13ifvqcu0","pricing_plan_id":"cebpf4jnsgd1na2vs0mg"},{"bike_id":"0d5dee4d-0ad8-47c1-9864-3005492d32fd","system_id":"levelo_inurba_marseille","lat":43.290269,"lon":5.386459,"is_reserved":false,"is_disabled":false,"rental_uris":{"android":"levelo://app?vid=0d5dee4d-0ad8-47c1-9864-3005492d32fd","ios":"levelo://app?vid=0d5dee4d-0ad8-47c1-9864-3005492d32fd"},"vehicle_type_id":"4","last_reported":1727806336,"current_range_meters":25600,"station_id":"ce4bh4p2rcd13ifvqe0g","pricing_plan_id":"cebpf4jnsgd1na2vs0mg"},{"bike_id":"ccf9af0f-db9f-45cb-aae0-d0351cefb866","system_id":"levelo_inurba_marseille","lat":43.2742,"lon":5.39412,"is_reserved":false,"is_disabled":false,"rental_uris":{"android":"levelo://app?vid=ccf9af0f-db9f-45cb-aae0-d0351cefb866","ios":"levelo://app?vid=ccf9af0f-db9f-45cb-aae0-d0351cefb866"},"vehicle_type_id":"4","last_reported":1727806336,"current_range_meters":25600,"station_id":"ce4bhdp2rcd13ifvqf20","pricing_plan_id":"cebpf4jnsgd1na2vs0mg"},{"bike_id":"f482b811-60c5-4cb4-be69-55c1c230887b","system_id":"levelo_inurba_marseille","lat":43.28458,"lon":5.35898,"is_reserved":false,"is_disabled":false,"rental_uris":{"android":"levelo://app?vid=f482b811-60c5-4cb4-be69-55c1c230887b","ios":"levelo://app?vid=f482b811-60c5-4cb4-be69-55c1c230887b"},"vehicle_type_id":"4","last_reported":1727806336,"current_range_meters":32800,"station_id":"ce4bhah2rcd13ifvqei0","pricing_plan_id":"cebpf4jnsgd1na2vs0mg"},{"bike_id":"3bedffcf-66c6-4f25-9b2f-1d7b91ef9ed4","system_id":"levelo_inurba_marseille","lat":43.3171,"lon":5.43706,"is_reserved":false,"is_disabled":false,"rental_uris":{"android":"levelo://app?vid=3bedffcf-66c6-4f25-9b2f-1d7b91ef9ed4","ios":"levelo://app?vid=3bedffcf-66c6-4f25-9b2f-1d7b91ef9ed4"},"vehicle_type_id":"4","last_reported":1727806336,"current_range_meters":4800,"station_id":"ce4bhp92rcd13ifvqhcg","pricing_plan_id":"cebpf4jnsgd1na2vs0mg"},{"bike_id":"67d08e63-74c2-4e4a-a324-c66312660c6c","system_id":"levelo_inurba_marseille","lat":43.28001,"lon":5.40016,"is_reserved":false,"is_disabled":false,"rental_uris":{"android":"levelo://app?vid=67d08e63-74c2-4e4a-a324-c66312660c6c","ios":"levelo://app?vid=67d08e63-74c2-4e4a-a324-c66312660c6c"},"vehicle_type_id":"4","last_reported":1727806336,"current_range_meters":3200,"station_id":"ce4bho92rcd13ifvqh4g","pricing_plan_id":"cebpf4jnsgd1na2vs0mg"},{"bike_id":"cfeaa78d-417b-4f0d-8985-5aaf92a02212","system_id":"levelo_inurba_marseille","lat":43.31821,"lon":5.42371,"is_reserved":false,"is_disabled":false,"rental_uris":{"android":"levelo://app?vid=cfeaa78d-417b-4f0d-8985-5aaf92a02212","ios":"levelo://app?vid=cfeaa78d-417b-4f0d-8985-5aaf92a02212"},"vehicle_type_id":"4","last_reported":1727806336,"current_range_meters":29600,"station_id":"","pricing_plan_id":"cebpf4jnsgd1na2vs0mg"},{"bike_id":"1b0da400-df7f-46cf-a71b-f878e1e3bfe9","system_id":"levelo_inurba_marseille","lat":43.24071,"lon":5.37763,"is_reserved":false,"is_disabled":false,"rental_uris":{"android":"levelo://app?vid=1b0da400-df7f-46cf-a71b-f878e1e3bfe9","ios":"levelo://app?vid=1b0da400-df7f-46cf-a71b-f878e1e3bfe9"},"vehicle_type_id":"4","last_reported":1727806336,"current_range_meters":29600,"station_id":"ce4bhnp2rcd13ifvqgvg","pricing_plan_id":"cebpf4jnsgd1na2vs0mg"},{"bike_id":"1889d644-f519-4d82-9a76-a6f8d98030f5","system_id":"levelo_inurba_marseille","lat":43.28404,"lon":5.37515,"is_reserved":false,"is_disabled":false,"rental_uris":{"android":"levelo://app?vid=1889d644-f519-4d82-9a76-a6f8d98030f5","ios":"levelo://app?vid=1889d644-f519-4d82-9a76-a6f8d98030f5"},"vehicle_type_id":"4","last_reported":1727806336,"current_range_meters":30000,"station_id":"ce4bh412rcd13ifvqds0","pricing_plan_id":"cebpf4jnsgd1na2vs0mg"},{"bike_id":"78a020b7-f343-41fe-90fa-c1cf2e6bde44","system_id":"levelo_inurba_marseille","lat":43.28487,"lon":5.38414,"is_reserved":false,"is_disabled":false,"rental_uris":{"android":"levelo://app?vid=78a020b7-f343-41fe-90fa-c1cf2e6bde44","ios":"levelo://app?vid=78a020b7-f343-41fe-90fa-c1cf2e6bde44"},"vehicle_type_id":"4","last_reported":1727806336,"current_range_meters":20400,"station_id":"ce4bh512rcd13ifvqe3g","pricing_plan_id":"cebpf4jnsgd1na2vs0mg"},{"bike_id":"0b0b2a76-da15-4499-b7ff-06c754649c44","system_id":"levelo_inurba_marseille","lat":43.32363,"lon":5.38893,"is_reserved":false,"is_disabled":false,"rental_uris":{"android":"levelo://app?vid=0b0b2a76-da15-4499-b7ff-06c754649c44","ios":"levelo://app?vid=0b0b2a76-da15-4499-b7ff-06c754649c44"},"vehicle_type_id":"4","last_reported":1727806336,"current_range_meters":28000,"station_id":"ce4bhqp2rcd13ifvqhog","pricing_plan_id":"cebpf4jnsgd1na2vs0mg"},{"bike_id":"18515bbc-c0b2-471a-938b-cca1c53922a9","system_id":"levelo_inurba_marseille","lat":43.29702,"lon":5.36609,"is_reserved":false,"is_disabled":false,"rental_uris":{"android":"levelo://app?vid=18515bbc-c0b2-471a-938b-cca1c53922a9","ios":"levelo://app?vid=18515bbc-c0b2-471a-938b-cca1c53922a9"},"vehicle_type_id":"4","last_reported":1727806336,"current_range_meters":38800,"station_id":"ce4bgn12rcd13ifvqbt0","pricing_plan_id":"cebpf4jnsgd1na2vs0mg"},{"bike_id":"946f0037-4f02-4e5c-acb2-800667fab619","system_id":"levelo_inurba_marseille","lat":43.31081,"lon":5.42434,"is_reserved":false,"is_disabled":false,"rental_uris":{"android":"levelo://app?vid=946f0037-4f02-4e5c-acb2-800667fab619","ios":"levelo://app?vid=946f0037-4f02-4e5c-acb2-800667fab619"},"vehicle_type_id":"4","last_reported":1727806336,"current_range_meters":12400,"station_id":"ce4bhp92rcd13ifvqhag","pricing_plan_id":"cebpf4jnsgd1na2vs0mg"},{"bike_id":"8ceb96fe-a74c-49c6-8577-bc4076ef5c3c","system_id":"levelo_inurba_marseille","lat":43.32281,"lon":5.38272,"is_reserved":false,"is_disabled":false,"rental_uris":{"android":"levelo://app?vid=8ceb96fe-a74c-49c6-8577-bc4076ef5c3c","ios":"levelo://app?vid=8ceb96fe-a74c-49c6-8577-bc4076ef5c3c"},"vehicle_type_id":"4","last_reported":1727806336,"current_range_meters":9600,"station_id":"ce4bhr12rcd13ifvqhqg","pricing_plan_id":"cebpf4jnsgd1na2vs0mg"},{"bike_id":"d511a127-8a35-415b-bd7b-44f616338c85","system_id":"levelo_inurba_marseille","lat":43.26802,"lon":5.40271,"is_reserved":false,"is_disabled":false,"rental_uris":{"android":"levelo://app?vid=d511a127-8a35-415b-bd7b-44f616338c85","ios":"levelo://app?vid=d511a127-8a35-415b-bd7b-44f616338c85"},"vehicle_type_id":"4","last_reported":1727806336,"current_range_meters":30000,"station_id":"ce501612rcd8frsf0b60","pricing_plan_id":"cebpf4jnsgd1na2vs0mg"},{"bike_id":"62c45d11-25fc-41d0-91db-d1b7d30b349d","system_id":"levelo_inurba_marseille","lat":43.29571,"lon":5.39975,"is_reserved":false,"is_disabled":false,"rental_uris":{"android":"levelo://app?vid=62c45d11-25fc-41d0-91db-d1b7d30b349d","ios":"levelo://app?vid=62c45d11-25fc-41d0-91db-d1b7d30b349d"},"vehicle_type_id":"4","last_reported":1727806336,"current_range_meters":17200,"station_id":"ce4bh312rcd13ifvqdj0","pricing_plan_id":"cebpf4jnsgd1na2vs0mg"},{"bike_id":"b337bd20-f5ab-4d71-a842-ea60a4480d01","system_id":"levelo_inurba_marseille","lat":43.33752,"lon":5.37462,"is_reserved":false,"is_disabled":false,"rental_uris":{"android":"levelo://app?vid=b337bd20-f5ab-4d71-a842-ea60a4480d01","ios":"levelo://app?vid=b337bd20-f5ab-4d71-a842-ea60a4480d01"},"vehicle_type_id":"4","last_reported":1727806336,"current_range_meters":36800,"station_id":"","pricing_plan_id":"cebpf4jnsgd1na2vs0mg"},{"bike_id":"2d1e394b-c65c-48dd-8f6c-7fbd688f784e","system_id":"levelo_inurba_marseille","lat":43.31652,"lon":5.38798,"is_reserved":false,"is_disabled":false,"rental_uris":{"android":"levelo://app?vid=2d1e394b-c65c-48dd-8f6c-7fbd688f784e","ios":"levelo://app?vid=2d1e394b-c65c-48dd-8f6c-7fbd688f784e"},"vehicle_type_id":"4","last_reported":1727806336,"current_range_meters":11600,"station_id":"ce4bhqp2rcd13ifvqhng","pricing_plan_id":"cebpf4jnsgd1na2vs0mg"},{"bike_id":"a839f8c2-1f19-41c9-b661-130324e30c0f","system_id":"levelo_inurba_marseille","lat":43.32283,"lon":5.38268,"is_reserved":false,"is_disabled":false,"rental_uris":{"android":"levelo://app?vid=a839f8c2-1f19-41c9-b661-130324e30c0f","ios":"levelo://app?vid=a839f8c2-1f19-41c9-b661-130324e30c0f"},"vehicle_type_id":"4","last_reported":1727806336,"current_range_meters":39200,"station_id":"ce4bhr12rcd13ifvqhqg","pricing_plan_id":"cebpf4jnsgd1na2vs0mg"},{"bike_id":"4cf2fff7-a99a-4367-b6ed-f10eb27380f9","system_id":"levelo_inurba_marseille","lat":43.25499,"lon":5.37654,"is_reserved":false,"is_disabled":false,"rental_uris":{"android":"levelo://app?vid=4cf2fff7-a99a-4367-b6ed-f10eb27380f9","ios":"levelo://app?vid=4cf2fff7-a99a-4367-b6ed-f10eb27380f9"},"vehicle_type_id":"4","last_reported":1727806336,"current_range_meters":5600,"station_id":"ce4bhh12rcd13ifvqff0","pricing_plan_id":"cebpf4jnsgd1na2vs0mg"},{"bike_id":"e92792b5-6f8e-402a-9186-3fb341d6c407","system_id":"levelo_inurba_marseille","lat":43.26205,"lon":5.37932,"is_reserved":false,"is_disabled":false,"rental_uris":{"android":"levelo://app?vid=e92792b5-6f8e-402a-9186-3fb341d6c407","ios":"levelo://app?vid=e92792b5-6f8e-402a-9186-3fb341d6c407"},"vehicle_type_id":"4","last_reported":1727806336,"current_range_meters":30400,"station_id":"ce4bhjp2rcd13ifvqg90","pricing_plan_id":"cebpf4jnsgd1na2vs0mg"},{"bike_id":"5a8d058d-190c-4b8e-a88a-767247b0fbd4","system_id":"levelo_inurba_marseille","lat":43.23176,"lon":5.39989,"is_reserved":false,"is_disabled":false,"rental_uris":{"android":"levelo://app?vid=5a8d058d-190c-4b8e-a88a-767247b0fbd4","ios":"levelo://app?vid=5a8d058d-190c-4b8e-a88a-767247b0fbd4"},"vehicle_type_id":"4","last_reported":1727806336,"current_range_meters":20000,"station_id":"ce4bhn12rcd13ifvqgqg","pricing_plan_id":"cebpf4jnsgd1na2vs0mg"},{"bike_id":"863326eb-c40a-4c9a-bd31-954aa5cec617","system_id":"levelo_inurba_marseille","lat":43.25576,"lon":5.38237,"is_reserved":false,"is_disabled":false,"rental_uris":{"android":"levelo://app?vid=863326eb-c40a-4c9a-bd31-954aa5cec617","ios":"levelo://app?vid=863326eb-c40a-4c9a-bd31-954aa5cec617"},"vehicle_type_id":"4","last_reported":1727806336,"current_range_meters":5600,"station_id":"ce4bhih2rcd13ifvqfs0","pricing_plan_id":"cebpf4jnsgd1na2vs0mg"},{"bike_id":"f493192b-13c6-47a1-9573-739dd32e633f","system_id":"levelo_inurba_marseille","lat":43.337444,"lon":5.374475,"is_reserved":false,"is_disabled":false,"rental_uris":{"android":"levelo://app?vid=f493192b-13c6-47a1-9573-739dd32e633f","ios":"levelo://app?vid=f493192b-13c6-47a1-9573-739dd32e633f"},"vehicle_type_id":"4","last_reported":1727806336,"current_range_meters":16400,"station_id":"","pricing_plan_id":"cebpf4jnsgd1na2vs0mg"},{"bike_id":"f1a30d42-1cd6-49ba-b1ee-a7c0ac223e1a","system_id":"levelo_inurba_marseille","lat":43.28155,"lon":5.42641,"is_reserved":false,"is_disabled":false,"rental_uris":{"android":"levelo://app?vid=f1a30d42-1cd6-49ba-b1ee-a7c0ac223e1a","ios":"levelo://app?vid=f1a30d42-1cd6-49ba-b1ee-a7c0ac223e1a"},"vehicle_type_id":"4","last_reported":1727806336,"current_range_meters":17600,"station_id":"ce4bhnh2rcd13ifvqgug","pricing_plan_id":"cebpf4jnsgd1na2vs0mg"},{"bike_id":"d0f3ba74-2db6-4276-a970-d6d9e934005a","system_id":"levelo_inurba_marseille","lat":43.33721,"lon":5.39185,"is_reserved":false,"is_disabled":false,"rental_uris":{"android":"levelo://app?vid=d0f3ba74-2db6-4276-a970-d6d9e934005a","ios":"levelo://app?vid=d0f3ba74-2db6-4276-a970-d6d9e934005a"},"vehicle_type_id":"4","last_reported":1727806336,"current_range_meters":38000,"station_id":"ce4bhr92rcd13ifvqhsg","pricing_plan_id":"cebpf4jnsgd1na2vs0mg"},{"bike_id":"499e8115-da28-431c-8fe7-0b1ce09a9889","system_id":"levelo_inurba_marseille","lat":43.30246,"lon":5.40063,"is_reserved":false,"is_disabled":false,"rental_uris":{"android":"levelo://app?vid=499e8115-da28-431c-8fe7-0b1ce09a9889","ios":"levelo://app?vid=499e8115-da28-431c-8fe7-0b1ce09a9889"},"vehicle_type_id":"4","last_reported":1727806336,"current_range_meters":38800,"station_id":"ce4bgvh2rcd13ifvqcs0","pricing_plan_id":"cebpf4jnsgd1na2vs0mg"},{"bike_id":"f1dd1acd-6ae2-46a7-8d62-c777e527ff0c","system_id":"levelo_inurba_marseille","lat":43.28454,"lon":5.35879,"is_reserved":false,"is_disabled":false,"rental_uris":{"android":"levelo://app?vid=f1dd1acd-6ae2-46a7-8d62-c777e527ff0c","ios":"levelo://app?vid=f1dd1acd-6ae2-46a7-8d62-c777e527ff0c"},"vehicle_type_id":"4","last_reported":1727806336,"current_range_meters":4400,"station_id":"ce4bhah2rcd13ifvqei0","pricing_plan_id":"cebpf4jnsgd1na2vs0mg"},{"bike_id":"d1fcff47-1481-4dd4-94dd-23e65ff7fe3a","system_id":"levelo_inurba_marseille","lat":43.26057,"lon":5.39396,"is_reserved":false,"is_disabled":false,"rental_uris":{"android":"levelo://app?vid=d1fcff47-1481-4dd4-94dd-23e65ff7fe3a","ios":"levelo://app?vid=d1fcff47-1481-4dd4-94dd-23e65ff7fe3a"},"vehicle_type_id":"4","last_reported":1727806336,"current_range_meters":20400,"station_id":"ce4bhh92rcd13ifvqfj0","pricing_plan_id":"cebpf4jnsgd1na2vs0mg"},{"bike_id":"4d96e61d-a35f-41e5-8577-a7d0dc666726","system_id":"levelo_inurba_marseille","lat":43.25821,"lon":5.39438,"is_reserved":false,"is_disabled":false,"rental_uris":{"android":"levelo://app?vid=4d96e61d-a35f-41e5-8577-a7d0dc666726","ios":"levelo://app?vid=4d96e61d-a35f-41e5-8577-a7d0dc666726"},"vehicle_type_id":"4","last_reported":1727806336,"current_range_meters":6000,"station_id":"ce4bhip2rcd13ifvqft0","pricing_plan_id":"cebpf4jnsgd1na2vs0mg"},{"bike_id":"1de4b099-258d-4c16-bd38-5296c070786f","system_id":"levelo_inurba_marseille","lat":43.28158,"lon":5.42641,"is_reserved":false,"is_disabled":false,"rental_uris":{"android":"levelo://app?vid=1de4b099-258d-4c16-bd38-5296c070786f","ios":"levelo://app?vid=1de4b099-258d-4c16-bd38-5296c070786f"},"vehicle_type_id":"4","last_reported":1727806336,"current_range_meters":9600,"station_id":"ce4bhnh2rcd13ifvqgug","pricing_plan_id":"cebpf4jnsgd1na2vs0mg"},{"bike_id":"a2ae8adb-cbe8-4c0b-89c0-a433c1504522","system_id":"levelo_inurba_marseille","lat":43.31262,"lon":5.40179,"is_reserved":false,"is_disabled":false,"rental_uris":{"android":"levelo://app?vid=a2ae8adb-cbe8-4c0b-89c0-a433c1504522","ios":"levelo://app?vid=a2ae8adb-cbe8-4c0b-89c0-a433c1504522"},"vehicle_type_id":"4","last_reported":1727806336,"current_range_meters":28400,"station_id":"ce4bh092rcd13ifvqd30","pricing_plan_id":"cebpf4jnsgd1na2vs0mg"},{"bike_id":"cd5c8346-5ff9-4ebd-927d-5f0ce3c64597","system_id":"levelo_inurba_marseille","lat":43.29169,"lon":5.37161,"is_reserved":false,"is_disabled":false,"rental_uris":{"android":"levelo://app?vid=cd5c8346-5ff9-4ebd-927d-5f0ce3c64597","ios":"levelo://app?vid=cd5c8346-5ff9-4ebd-927d-5f0ce3c64597"},"vehicle_type_id":"4","last_reported":1727806336,"current_range_meters":24400,"station_id":"ce4bha92rcd13ifvqeh0","pricing_plan_id":"cebpf4jnsgd1na2vs0mg"},{"bike_id":"b7a4367c-fc71-4ab7-95c7-5d35b416dab0","system_id":"levelo_inurba_marseille","lat":43.31525,"lon":5.38042,"is_reserved":false,"is_disabled":false,"rental_uris":{"android":"levelo://app?vid=b7a4367c-fc71-4ab7-95c7-5d35b416dab0","ios":"levelo://app?vid=b7a4367c-fc71-4ab7-95c7-5d35b416dab0"},"vehicle_type_id":"4","last_reported":1727806336,"current_range_meters":39200,"station_id":"ce4bhsp2rcd13ifvqi50","pricing_plan_id":"cebpf4jnsgd1na2vs0mg"},{"bike_id":"ef29ff35-fd09-4474-b929-41254ea52f61","system_id":"levelo_inurba_marseille","lat":43.27987,"lon":5.40017,"is_reserved":false,"is_disabled":false,"rental_uris":{"android":"levelo://app?vid=ef29ff35-fd09-4474-b929-41254ea52f61","ios":"levelo://app?vid=ef29ff35-fd09-4474-b929-41254ea52f61"},"vehicle_type_id":"4","last_reported":1727806336,"current_range_meters":8000,"station_id":"ce4bho92rcd13ifvqh4g","pricing_plan_id":"cebpf4jnsgd1na2vs0mg"},{"bike_id":"d92ab752-9f2b-4ec9-9644-bc381e960903","system_id":"levelo_inurba_marseille","lat":43.27997,"lon":5.40006,"is_reserved":false,"is_disabled":false,"rental_uris":{"android":"levelo://app?vid=d92ab752-9f2b-4ec9-9644-bc381e960903","ios":"levelo://app?vid=d92ab752-9f2b-4ec9-9644-bc381e960903"},"vehicle_type_id":"4","last_reported":1727806336,"current_range_meters":21600,"station_id":"ce4bho92rcd13ifvqh4g","pricing_plan_id":"cebpf4jnsgd1na2vs0mg"},{"bike_id":"66691992-3740-46a3-9b9f-3c204c90aeab","system_id":"levelo_inurba_marseille","lat":43.31872,"lon":5.40739,"is_reserved":false,"is_disabled":false,"rental_uris":{"android":"levelo://app?vid=66691992-3740-46a3-9b9f-3c204c90aeab","ios":"levelo://app?vid=66691992-3740-46a3-9b9f-3c204c90aeab"},"vehicle_type_id":"4","last_reported":1727806336,"current_range_meters":18000,"station_id":"ce4bhq12rcd13ifvqhig","pricing_plan_id":"cebpf4jnsgd1na2vs0mg"},{"bike_id":"8d9fd315-34b8-429a-813d-1bf9af532a07","system_id":"levelo_inurba_marseille","lat":43.28152,"lon":5.42646,"is_reserved":false,"is_disabled":false,"rental_uris":{"android":"levelo://app?vid=8d9fd315-34b8-429a-813d-1bf9af532a07","ios":"levelo://app?vid=8d9fd315-34b8-429a-813d-1bf9af532a07"},"vehicle_type_id":"4","last_reported":1727806336,"current_range_meters":3200,"station_id":"ce4bhnh2rcd13ifvqgug","pricing_plan_id":"cebpf4jnsgd1na2vs0mg"},{"bike_id":"5f15242d-ca9a-4c0e-a2d6-9b9b07b75157","system_id":"levelo_inurba_marseille","lat":43.29303,"lon":5.3745,"is_reserved":false,"is_disabled":false,"rental_uris":{"android":"levelo://app?vid=5f15242d-ca9a-4c0e-a2d6-9b9b07b75157","ios":"levelo://app?vid=5f15242d-ca9a-4c0e-a2d6-9b9b07b75157"},"vehicle_type_id":"4","last_reported":1727806336,"current_range_meters":23200,"station_id":"ce4bgi12rcd13ifvqb70","pricing_plan_id":"cebpf4jnsgd1na2vs0mg"},{"bike_id":"b3672e33-6b77-4411-9955-eb46704118d7","system_id":"levelo_inurba_marseille","lat":43.25723,"lon":5.41116,"is_reserved":false,"is_disabled":false,"rental_uris":{"android":"levelo://app?vid=b3672e33-6b77-4411-9955-eb46704118d7","ios":"levelo://app?vid=b3672e33-6b77-4411-9955-eb46704118d7"},"vehicle_type_id":"4","last_reported":1727806336,"current_range_meters":27600,"station_id":"ce4bhkp2rcd13ifvqgd0","pricing_plan_id":"cebpf4jnsgd1na2vs0mg"},{"bike_id":"b46a91f9-0b26-498d-b8ac-ec249396e291","system_id":"levelo_inurba_marseille","lat":43.29891,"lon":5.43667,"is_reserved":false,"is_disabled":false,"rental_uris":{"android":"levelo://app?vid=b46a91f9-0b26-498d-b8ac-ec249396e291","ios":"levelo://app?vid=b46a91f9-0b26-498d-b8ac-ec249396e291"},"vehicle_type_id":"4","last_reported":1727806336,"current_range_meters":21600,"station_id":"ce4bhpp2rcd13ifvqhfg","pricing_plan_id":"cebpf4jnsgd1na2vs0mg"},{"bike_id":"b3361d1a-6eb3-4909-b9cc-4feef150c504","system_id":"levelo_inurba_marseille","lat":43.31479,"lon":5.37306,"is_reserved":false,"is_disabled":false,"rental_uris":{"android":"levelo://app?vid=b3361d1a-6eb3-4909-b9cc-4feef150c504","ios":"levelo://app?vid=b3361d1a-6eb3-4909-b9cc-4feef150c504"},"vehicle_type_id":"4","last_reported":1727806336,"current_range_meters":32400,"station_id":"ce4bgt12rcd13ifvqcd0","pricing_plan_id":"cebpf4jnsgd1na2vs0mg"},{"bike_id":"e01d9c0c-e59c-41d6-bf1a-0b90cecf8482","system_id":"levelo_inurba_marseille","lat":43.28356,"lon":5.38642,"is_reserved":false,"is_disabled":false,"rental_uris":{"android":"levelo://app?vid=e01d9c0c-e59c-41d6-bf1a-0b90cecf8482","ios":"levelo://app?vid=e01d9c0c-e59c-41d6-bf1a-0b90cecf8482"},"vehicle_type_id":"4","last_reported":1727806336,"current_range_meters":38800,"station_id":"ce4bh492rcd13ifvqdvg","pricing_plan_id":"cebpf4jnsgd1na2vs0mg"},{"bike_id":"b5e4df66-c8b2-46d7-a7ce-add59ccd51c1","system_id":"levelo_inurba_marseille","lat":43.27991,"lon":5.40014,"is_reserved":false,"is_disabled":false,"rental_uris":{"android":"levelo://app?vid=b5e4df66-c8b2-46d7-a7ce-add59ccd51c1","ios":"levelo://app?vid=b5e4df66-c8b2-46d7-a7ce-add59ccd51c1"},"vehicle_type_id":"4","last_reported":1727806336,"current_range_meters":18800,"station_id":"ce4bho92rcd13ifvqh4g","pricing_plan_id":"cebpf4jnsgd1na2vs0mg"},{"bike_id":"4ce49f7c-99b8-443f-afc2-d355bb41ba3a","system_id":"levelo_inurba_marseille","lat":43.29526,"lon":5.3905,"is_reserved":false,"is_disabled":false,"rental_uris":{"android":"levelo://app?vid=4ce49f7c-99b8-443f-afc2-d355bb41ba3a","ios":"levelo://app?vid=4ce49f7c-99b8-443f-afc2-d355bb41ba3a"},"vehicle_type_id":"4","last_reported":1727806336,"current_range_meters":23200,"station_id":"ce4bh3p2rcd13ifvqdp0","pricing_plan_id":"cebpf4jnsgd1na2vs0mg"},{"bike_id":"9ec9c6f4-7594-4f24-b075-0b78691507e4","system_id":"levelo_inurba_marseille","lat":43.27993,"lon":5.40013,"is_reserved":false,"is_disabled":false,"rental_uris":{"android":"levelo://app?vid=9ec9c6f4-7594-4f24-b075-0b78691507e4","ios":"levelo://app?vid=9ec9c6f4-7594-4f24-b075-0b78691507e4"},"vehicle_type_id":"4","last_reported":1727806336,"current_range_meters":38800,"station_id":"ce4bho92rcd13ifvqh4g","pricing_plan_id":"cebpf4jnsgd1na2vs0mg"},{"bike_id":"9b34a5ea-e6d2-45b2-836f-033718094fc0","system_id":"levelo_inurba_marseille","lat":43.30349,"lon":5.41875,"is_reserved":false,"is_disabled":false,"rental_uris":{"android":"levelo://app?vid=9b34a5ea-e6d2-45b2-836f-033718094fc0","ios":"levelo://app?vid=9b34a5ea-e6d2-45b2-836f-033718094fc0"},"vehicle_type_id":"4","last_reported":1727806336,"current_range_meters":30800,"station_id":"ce4bhop2rcd13ifvqh7g","pricing_plan_id":"cebpf4jnsgd1na2vs0mg"},{"bike_id":"d4a029fd-5849-40ff-90e3-a7c59913543c","system_id":"levelo_inurba_marseille","lat":43.31109,"lon":5.37775,"is_reserved":false,"is_disabled":false,"rental_uris":{"android":"levelo://app?vid=d4a029fd-5849-40ff-90e3-a7c59913543c","ios":"levelo://app?vid=d4a029fd-5849-40ff-90e3-a7c59913543c"},"vehicle_type_id":"4","last_reported":1727806336,"current_range_meters":38800,"station_id":"ce4bgt92rcd13ifvqcg0","pricing_plan_id":"cebpf4jnsgd1na2vs0mg"},{"bike_id":"c4432127-0b97-48c8-b745-bef6023d020a","system_id":"levelo_inurba_marseille","lat":43.33719,"lon":5.39178,"is_reserved":false,"is_disabled":false,"rental_uris":{"android":"levelo://app?vid=c4432127-0b97-48c8-b745-bef6023d020a","ios":"levelo://app?vid=c4432127-0b97-48c8-b745-bef6023d020a"},"vehicle_type_id":"4","last_reported":1727806336,"current_range_meters":31200,"station_id":"ce4bhr92rcd13ifvqhsg","pricing_plan_id":"cebpf4jnsgd1na2vs0mg"},{"bike_id":"e598b7ff-5ca0-4035-a845-86487fcc6865","system_id":"levelo_inurba_marseille","lat":43.28842,"lon":5.39303,"is_reserved":false,"is_disabled":false,"rental_uris":{"android":"levelo://app?vid=e598b7ff-5ca0-4035-a845-86487fcc6865","ios":"levelo://app?vid=e598b7ff-5ca0-4035-a845-86487fcc6865"},"vehicle_type_id":"4","last_reported":1727806336,"current_range_meters":7200,"station_id":"ce4bh2p2rcd13ifvqdi0","pricing_plan_id":"cebpf4jnsgd1na2vs0mg"},{"bike_id":"068d138c-795a-477f-881f-176abb1b3bf7","system_id":"levelo_inurba_marseille","lat":43.28851,"lon":5.39325,"is_reserved":false,"is_disabled":false,"rental_uris":{"android":"levelo://app?vid=068d138c-795a-477f-881f-176abb1b3bf7","ios":"levelo://app?vid=068d138c-795a-477f-881f-176abb1b3bf7"},"vehicle_type_id":"4","last_reported":1727806336,"current_range_meters":12000,"station_id":"ce4bh2p2rcd13ifvqdi0","pricing_plan_id":"cebpf4jnsgd1na2vs0mg"},{"bike_id":"b966220b-9b92-44da-945a-8d347ea98f0f","system_id":"levelo_inurba_marseille","lat":43.30543,"lon":5.3842,"is_reserved":false,"is_disabled":false,"rental_uris":{"android":"levelo://app?vid=b966220b-9b92-44da-945a-8d347ea98f0f","ios":"levelo://app?vid=b966220b-9b92-44da-945a-8d347ea98f0f"},"vehicle_type_id":"4","last_reported":1727806336,"current_range_meters":28000,"station_id":"ce4bgg92rcd13ifvqb30","pricing_plan_id":"cebpf4jnsgd1na2vs0mg"},{"bike_id":"d29dc684-5977-4857-9fdb-728775ead93e","system_id":"levelo_inurba_marseille","lat":43.33721,"lon":5.391847,"is_reserved":false,"is_disabled":false,"rental_uris":{"android":"levelo://app?vid=d29dc684-5977-4857-9fdb-728775ead93e","ios":"levelo://app?vid=d29dc684-5977-4857-9fdb-728775ead93e"},"vehicle_type_id":"4","last_reported":1727806336,"current_range_meters":38000,"station_id":"ce4bhr92rcd13ifvqhsg","pricing_plan_id":"cebpf4jnsgd1na2vs0mg"},{"bike_id":"d1db18f8-1c4b-4828-9b2c-027f685c46fe","system_id":"levelo_inurba_marseille","lat":43.31166,"lon":5.38722,"is_reserved":false,"is_disabled":false,"rental_uris":{"android":"levelo://app?vid=d1db18f8-1c4b-4828-9b2c-027f685c46fe","ios":"levelo://app?vid=d1db18f8-1c4b-4828-9b2c-027f685c46fe"},"vehicle_type_id":"4","last_reported":1727806336,"current_range_meters":16000,"station_id":"ce4bgv12rcd13ifvqcp0","pricing_plan_id":"cebpf4jnsgd1na2vs0mg"},{"bike_id":"2d241ed6-1b33-459d-b392-3b42488ecbf1","system_id":"levelo_inurba_marseille","lat":43.30126,"lon":5.39863,"is_reserved":false,"is_disabled":false,"rental_uris":{"android":"levelo://app?vid=2d241ed6-1b33-459d-b392-3b42488ecbf1","ios":"levelo://app?vid=2d241ed6-1b33-459d-b392-3b42488ecbf1"},"vehicle_type_id":"4","last_reported":1727806336,"current_range_meters":1600,"station_id":"ce4bh0h2rcd13ifvqd40","pricing_plan_id":"cebpf4jnsgd1na2vs0mg"},{"bike_id":"e5c8dffa-3c93-44b4-9e7e-4adb83decb53","system_id":"levelo_inurba_marseille","lat":43.24175,"lon":5.39731,"is_reserved":false,"is_disabled":false,"rental_uris":{"android":"levelo://app?vid=e5c8dffa-3c93-44b4-9e7e-4adb83decb53","ios":"levelo://app?vid=e5c8dffa-3c93-44b4-9e7e-4adb83decb53"},"vehicle_type_id":"4","last_reported":1727806336,"current_range_meters":10000,"station_id":"ce4bhn12rcd13ifvqgpg","pricing_plan_id":"cebpf4jnsgd1na2vs0mg"},{"bike_id":"3458493d-def6-461d-8762-b4192c7d0626","system_id":"levelo_inurba_marseille","lat":43.32361,"lon":5.38888,"is_reserved":false,"is_disabled":false,"rental_uris":{"android":"levelo://app?vid=3458493d-def6-461d-8762-b4192c7d0626","ios":"levelo://app?vid=3458493d-def6-461d-8762-b4192c7d0626"},"vehicle_type_id":"4","last_reported":1727806336,"current_range_meters":24800,"station_id":"ce4bhqp2rcd13ifvqhog","pricing_plan_id":"cebpf4jnsgd1na2vs0mg"},{"bike_id":"408d588c-d6e0-4b7f-805a-63e3f004b896","system_id":"levelo_inurba_marseille","lat":43.31084,"lon":5.42429,"is_reserved":false,"is_disabled":false,"rental_uris":{"android":"levelo://app?vid=408d588c-d6e0-4b7f-805a-63e3f004b896","ios":"levelo://app?vid=408d588c-d6e0-4b7f-805a-63e3f004b896"},"vehicle_type_id":"4","last_reported":1727806336,"current_range_meters":19200,"station_id":"ce4bhp92rcd13ifvqhag","pricing_plan_id":"cebpf4jnsgd1na2vs0mg"},{"bike_id":"8156ada3-8140-472b-b61a-be822897754c","system_id":"levelo_inurba_marseille","lat":43.291065,"lon":5.38171,"is_reserved":false,"is_disabled":false,"rental_uris":{"android":"levelo://app?vid=8156ada3-8140-472b-b61a-be822897754c","ios":"levelo://app?vid=8156ada3-8140-472b-b61a-be822897754c"},"vehicle_type_id":"4","last_reported":1727806336,"current_range_meters":3200,"station_id":"ce4bh512rcd13ifvqe2g","pricing_plan_id":"cebpf4jnsgd1na2vs0mg"},{"bike_id":"22a5bbf8-57d1-4beb-b037-0ba05314f639","system_id":"levelo_inurba_marseille","lat":43.28461,"lon":5.35889,"is_reserved":false,"is_disabled":false,"rental_uris":{"android":"levelo://app?vid=22a5bbf8-57d1-4beb-b037-0ba05314f639","ios":"levelo://app?vid=22a5bbf8-57d1-4beb-b037-0ba05314f639"},"vehicle_type_id":"4","last_reported":1727806336,"current_range_meters":30000,"station_id":"ce4bhah2rcd13ifvqei0","pricing_plan_id":"cebpf4jnsgd1na2vs0mg"},{"bike_id":"d02732f0-a413-4720-a3bc-e52746670bfb","system_id":"levelo_inurba_marseille","lat":43.32291,"lon":5.38278,"is_reserved":false,"is_disabled":false,"rental_uris":{"android":"levelo://app?vid=d02732f0-a413-4720-a3bc-e52746670bfb","ios":"levelo://app?vid=d02732f0-a413-4720-a3bc-e52746670bfb"},"vehicle_type_id":"4","last_reported":1727806336,"current_range_meters":26800,"station_id":"ce4bhr12rcd13ifvqhqg","pricing_plan_id":"cebpf4jnsgd1na2vs0mg"},{"bike_id":"833a15c2-b781-4494-8b35-862704801281","system_id":"levelo_inurba_marseille","lat":43.29027,"lon":5.38632,"is_reserved":false,"is_disabled":false,"rental_uris":{"android":"levelo://app?vid=833a15c2-b781-4494-8b35-862704801281","ios":"levelo://app?vid=833a15c2-b781-4494-8b35-862704801281"},"vehicle_type_id":"4","last_reported":1727806336,"current_range_meters":7200,"station_id":"ce4bh4p2rcd13ifvqe0g","pricing_plan_id":"cebpf4jnsgd1na2vs0mg"},{"bike_id":"a165878f-00b3-42aa-b99b-681f0bd1f09f","system_id":"levelo_inurba_marseille","lat":43.28415,"lon":5.37524,"is_reserved":false,"is_disabled":false,"rental_uris":{"android":"levelo://app?vid=a165878f-00b3-42aa-b99b-681f0bd1f09f","ios":"levelo://app?vid=a165878f-00b3-42aa-b99b-681f0bd1f09f"},"vehicle_type_id":"4","last_reported":1727806336,"current_range_meters":3600,"station_id":"ce4bh412rcd13ifvqds0","pricing_plan_id":"cebpf4jnsgd1na2vs0mg"},{"bike_id":"ab932a5f-6aba-4bb1-ade3-2d0ba12729b9","system_id":"levelo_inurba_marseille","lat":43.32284,"lon":5.38265,"is_reserved":false,"is_disabled":false,"rental_uris":{"android":"levelo://app?vid=ab932a5f-6aba-4bb1-ade3-2d0ba12729b9","ios":"levelo://app?vid=ab932a5f-6aba-4bb1-ade3-2d0ba12729b9"},"vehicle_type_id":"4","last_reported":1727806336,"current_range_meters":20400,"station_id":"ce4bhr12rcd13ifvqhqg","pricing_plan_id":"cebpf4jnsgd1na2vs0mg"},{"bike_id":"7a58c2c8-50c0-4818-855c-4b86297baff1","system_id":"levelo_inurba_marseille","lat":43.337444,"lon":5.374475,"is_reserved":false,"is_disabled":false,"rental_uris":{"android":"levelo://app?vid=7a58c2c8-50c0-4818-855c-4b86297baff1","ios":"levelo://app?vid=7a58c2c8-50c0-4818-855c-4b86297baff1"},"vehicle_type_id":"4","last_reported":1727806336,"current_range_meters":31200,"station_id":"","pricing_plan_id":"cebpf4jnsgd1na2vs0mg"},{"bike_id":"30804107-5716-4396-958e-caac2483e6e1","system_id":"levelo_inurba_marseille","lat":43.26787,"lon":5.39416,"is_reserved":false,"is_disabled":false,"rental_uris":{"android":"levelo://app?vid=30804107-5716-4396-958e-caac2483e6e1","ios":"levelo://app?vid=30804107-5716-4396-958e-caac2483e6e1"},"vehicle_type_id":"4","last_reported":1727806336,"current_range_meters":38000,"station_id":"ce4bhh12rcd13ifvqfg0","pricing_plan_id":"cebpf4jnsgd1na2vs0mg"},{"bike_id":"9d7bc809-8009-478e-8a3d-cde430a22e9f","system_id":"levelo_inurba_marseille","lat":43.24071,"lon":5.37762,"is_reserved":false,"is_disabled":false,"rental_uris":{"android":"levelo://app?vid=9d7bc809-8009-478e-8a3d-cde430a22e9f","ios":"levelo://app?vid=9d7bc809-8009-478e-8a3d-cde430a22e9f"},"vehicle_type_id":"4","last_reported":1727806336,"current_range_meters":20400,"station_id":"ce4bhnp2rcd13ifvqgvg","pricing_plan_id":"cebpf4jnsgd1na2vs0mg"},{"bike_id":"8a81f54d-1088-4c1b-ac2e-a859fbc81cae","system_id":"levelo_inurba_marseille","lat":43.29547,"lon":5.39999,"is_reserved":false,"is_disabled":false,"rental_uris":{"android":"levelo://app?vid=8a81f54d-1088-4c1b-ac2e-a859fbc81cae","ios":"levelo://app?vid=8a81f54d-1088-4c1b-ac2e-a859fbc81cae"},"vehicle_type_id":"4","last_reported":1727806336,"current_range_meters":6400,"station_id":"ce4bh312rcd13ifvqdj0","pricing_plan_id":"cebpf4jnsgd1na2vs0mg"},{"bike_id":"2645d6bc-1fd5-4cd7-a6d5-4b96567535e0","system_id":"levelo_inurba_marseille","lat":43.29915,"lon":5.37465,"is_reserved":false,"is_disabled":false,"rental_uris":{"android":"levelo://app?vid=2645d6bc-1fd5-4cd7-a6d5-4b96567535e0","ios":"levelo://app?vid=2645d6bc-1fd5-4cd7-a6d5-4b96567535e0"},"vehicle_type_id":"4","last_reported":1727806336,"current_range_meters":6400,"station_id":"ce4bgjh2rcd13ifvqbg0","pricing_plan_id":"cebpf4jnsgd1na2vs0mg"},{"bike_id":"ead9e092-c2b2-467c-82e1-ce35e8e07880","system_id":"levelo_inurba_marseille","lat":43.27811,"lon":5.40711,"is_reserved":false,"is_disabled":false,"rental_uris":{"android":"levelo://app?vid=ead9e092-c2b2-467c-82e1-ce35e8e07880","ios":"levelo://app?vid=ead9e092-c2b2-467c-82e1-ce35e8e07880"},"vehicle_type_id":"4","last_reported":1727806336,"current_range_meters":35600,"station_id":"ce4bhnh2rcd13ifvqgtg","pricing_plan_id":"cebpf4jnsgd1na2vs0mg"},{"bike_id":"b0c9bed0-5ad2-4173-a477-4f89242256aa","system_id":"levelo_inurba_marseille","lat":43.27807,"lon":5.40719,"is_reserved":false,"is_disabled":false,"rental_uris":{"android":"levelo://app?vid=b0c9bed0-5ad2-4173-a477-4f89242256aa","ios":"levelo://app?vid=b0c9bed0-5ad2-4173-a477-4f89242256aa"},"vehicle_type_id":"4","last_reported":1727806336,"current_range_meters":19600,"station_id":"ce4bhnh2rcd13ifvqgtg","pricing_plan_id":"cebpf4jnsgd1na2vs0mg"},{"bike_id":"9729e408-d6de-40b6-a877-085a8d1da339","system_id":"levelo_inurba_marseille","lat":43.24521,"lon":5.39545,"is_reserved":false,"is_disabled":false,"rental_uris":{"android":"levelo://app?vid=9729e408-d6de-40b6-a877-085a8d1da339","ios":"levelo://app?vid=9729e408-d6de-40b6-a877-085a8d1da339"},"vehicle_type_id":"4","last_reported":1727806336,"current_range_meters":22400,"station_id":"ce4bhlp2rcd13ifvqgjg","pricing_plan_id":"cebpf4jnsgd1na2vs0mg"},{"bike_id":"a1de05c1-82b2-4d55-a73a-aff75d468430","system_id":"levelo_inurba_marseille","lat":43.29779,"lon":5.39364,"is_reserved":false,"is_disabled":false,"rental_uris":{"android":"levelo://app?vid=a1de05c1-82b2-4d55-a73a-aff75d468430","ios":"levelo://app?vid=a1de05c1-82b2-4d55-a73a-aff75d468430"},"vehicle_type_id":"4","last_reported":1727806336,"current_range_meters":3200,"station_id":"chh1huq6cuj3fo74tm60","pricing_plan_id":"cebpf4jnsgd1na2vs0mg"},{"bike_id":"b7a75d39-7de2-45b7-9a7f-76b26f7a01b8","system_id":"levelo_inurba_marseille","lat":43.32475,"lon":5.37426,"is_reserved":false,"is_disabled":false,"rental_uris":{"android":"levelo://app?vid=b7a75d39-7de2-45b7-9a7f-76b26f7a01b8","ios":"levelo://app?vid=b7a75d39-7de2-45b7-9a7f-76b26f7a01b8"},"vehicle_type_id":"4","last_reported":1727806336,"current_range_meters":36000,"station_id":"ce4bguh2rcd13ifvqckg","pricing_plan_id":"cebpf4jnsgd1na2vs0mg"},{"bike_id":"82c7638b-4272-4d5d-90fd-55e01777e539","system_id":"levelo_inurba_marseille","lat":43.27995,"lon":5.40009,"is_reserved":false,"is_disabled":false,"rental_uris":{"android":"levelo://app?vid=82c7638b-4272-4d5d-90fd-55e01777e539","ios":"levelo://app?vid=82c7638b-4272-4d5d-90fd-55e01777e539"},"vehicle_type_id":"4","last_reported":1727806336,"current_range_meters":6800,"station_id":"ce4bho92rcd13ifvqh4g","pricing_plan_id":"cebpf4jnsgd1na2vs0mg"},{"bike_id":"429769ac-91e2-4479-abab-4631184fe220","system_id":"levelo_inurba_marseille","lat":43.25572,"lon":5.38243,"is_reserved":false,"is_disabled":false,"rental_uris":{"android":"levelo://app?vid=429769ac-91e2-4479-abab-4631184fe220","ios":"levelo://app?vid=429769ac-91e2-4479-abab-4631184fe220"},"vehicle_type_id":"4","last_reported":1727806336,"current_range_meters":3600,"station_id":"ce4bhih2rcd13ifvqfs0","pricing_plan_id":"cebpf4jnsgd1na2vs0mg"},{"bike_id":"8384b0a5-14c9-4b06-a8d3-03a72ab5bfe9","system_id":"levelo_inurba_marseille","lat":43.28939,"lon":5.36634,"is_reserved":false,"is_disabled":false,"rental_uris":{"android":"levelo://app?vid=8384b0a5-14c9-4b06-a8d3-03a72ab5bfe9","ios":"levelo://app?vid=8384b0a5-14c9-4b06-a8d3-03a72ab5bfe9"},"vehicle_type_id":"4","last_reported":1727806336,"current_range_meters":36000,"station_id":"ce4bhap2rcd13ifvqek0","pricing_plan_id":"cebpf4jnsgd1na2vs0mg"},{"bike_id":"437b8d29-8ec2-410d-9e63-c5b7cc126a00","system_id":"levelo_inurba_marseille","lat":43.32285,"lon":5.38277,"is_reserved":false,"is_disabled":false,"rental_uris":{"android":"levelo://app?vid=437b8d29-8ec2-410d-9e63-c5b7cc126a00","ios":"levelo://app?vid=437b8d29-8ec2-410d-9e63-c5b7cc126a00"},"vehicle_type_id":"4","last_reported":1727806336,"current_range_meters":30400,"station_id":"ce4bhr12rcd13ifvqhqg","pricing_plan_id":"cebpf4jnsgd1na2vs0mg"},{"bike_id":"508058b4-8bd9-4912-939e-09a5fad199ae","system_id":"levelo_inurba_marseille","lat":43.27812,"lon":5.40708,"is_reserved":false,"is_disabled":false,"rental_uris":{"android":"levelo://app?vid=508058b4-8bd9-4912-939e-09a5fad199ae","ios":"levelo://app?vid=508058b4-8bd9-4912-939e-09a5fad199ae"},"vehicle_type_id":"4","last_reported":1727806336,"current_range_meters":36800,"station_id":"ce4bhnh2rcd13ifvqgtg","pricing_plan_id":"cebpf4jnsgd1na2vs0mg"},{"bike_id":"2e1f696b-9e2c-478f-bd60-921099cf8195","system_id":"levelo_inurba_marseille","lat":43.29522,"lon":5.39406,"is_reserved":false,"is_disabled":false,"rental_uris":{"android":"levelo://app?vid=2e1f696b-9e2c-478f-bd60-921099cf8195","ios":"levelo://app?vid=2e1f696b-9e2c-478f-bd60-921099cf8195"},"vehicle_type_id":"4","last_reported":1727806336,"current_range_meters":4800,"station_id":"ce4bh292rcd13ifvqdf0","pricing_plan_id":"cebpf4jnsgd1na2vs0mg"},{"bike_id":"fded9251-b838-4ace-a111-a857502a68e1","system_id":"levelo_inurba_marseille","lat":43.29889,"lon":5.4367,"is_reserved":false,"is_disabled":false,"rental_uris":{"android":"levelo://app?vid=fded9251-b838-4ace-a111-a857502a68e1","ios":"levelo://app?vid=fded9251-b838-4ace-a111-a857502a68e1"},"vehicle_type_id":"4","last_reported":1727806336,"current_range_meters":12000,"station_id":"ce4bhpp2rcd13ifvqhfg","pricing_plan_id":"cebpf4jnsgd1na2vs0mg"},{"bike_id":"74956dbe-73fd-4e71-846f-7416f31b3b0b","system_id":"levelo_inurba_marseille","lat":43.27993,"lon":5.40011,"is_reserved":false,"is_disabled":false,"rental_uris":{"android":"levelo://app?vid=74956dbe-73fd-4e71-846f-7416f31b3b0b","ios":"levelo://app?vid=74956dbe-73fd-4e71-846f-7416f31b3b0b"},"vehicle_type_id":"4","last_reported":1727806336,"current_range_meters":38800,"station_id":"ce4bho92rcd13ifvqh4g","pricing_plan_id":"cebpf4jnsgd1na2vs0mg"},{"bike_id":"56cd1ff8-8b0b-443d-9194-2871ad990d22","system_id":"levelo_inurba_marseille","lat":43.29789,"lon":5.38102,"is_reserved":false,"is_disabled":false,"rental_uris":{"android":"levelo://app?vid=56cd1ff8-8b0b-443d-9194-2871ad990d22","ios":"levelo://app?vid=56cd1ff8-8b0b-443d-9194-2871ad990d22"},"vehicle_type_id":"4","last_reported":1727806336,"current_range_meters":3200,"station_id":"ce4bgip2rcd13ifvqbb0","pricing_plan_id":"cebpf4jnsgd1na2vs0mg"},{"bike_id":"0306418a-ecd7-471e-be8c-81f7ec244baf","system_id":"levelo_inurba_marseille","lat":43.3108,"lon":5.42437,"is_reserved":false,"is_disabled":false,"rental_uris":{"android":"levelo://app?vid=0306418a-ecd7-471e-be8c-81f7ec244baf","ios":"levelo://app?vid=0306418a-ecd7-471e-be8c-81f7ec244baf"},"vehicle_type_id":"4","last_reported":1727806336,"current_range_meters":39200,"station_id":"ce4bhp92rcd13ifvqhag","pricing_plan_id":"cebpf4jnsgd1na2vs0mg"},{"bike_id":"3a1842bf-b52d-4835-97b1-9c30914f4aed","system_id":"levelo_inurba_marseille","lat":43.31082,"lon":5.42429,"is_reserved":false,"is_disabled":false,"rental_uris":{"android":"levelo://app?vid=3a1842bf-b52d-4835-97b1-9c30914f4aed","ios":"levelo://app?vid=3a1842bf-b52d-4835-97b1-9c30914f4aed"},"vehicle_type_id":"4","last_reported":1727806336,"current_range_meters":35600,"station_id":"ce4bhp92rcd13ifvqhag","pricing_plan_id":"cebpf4jnsgd1na2vs0mg"},{"bike_id":"2f72d8b5-87e5-41ce-8bf5-2a01555553a2","system_id":"levelo_inurba_marseille","lat":43.27811,"lon":5.40714,"is_reserved":false,"is_disabled":false,"rental_uris":{"android":"levelo://app?vid=2f72d8b5-87e5-41ce-8bf5-2a01555553a2","ios":"levelo://app?vid=2f72d8b5-87e5-41ce-8bf5-2a01555553a2"},"vehicle_type_id":"4","last_reported":1727806336,"current_range_meters":30800,"station_id":"ce4bhnh2rcd13ifvqgtg","pricing_plan_id":"cebpf4jnsgd1na2vs0mg"},{"bike_id":"3e1cf221-6e11-491f-af11-e8f1b1d9499b","system_id":"levelo_inurba_marseille","lat":43.3199,"lon":5.38162,"is_reserved":false,"is_disabled":false,"rental_uris":{"android":"levelo://app?vid=3e1cf221-6e11-491f-af11-e8f1b1d9499b","ios":"levelo://app?vid=3e1cf221-6e11-491f-af11-e8f1b1d9499b"},"vehicle_type_id":"4","last_reported":1727806336,"current_range_meters":2000,"station_id":"ce4bhr12rcd13ifvqhpg","pricing_plan_id":"cebpf4jnsgd1na2vs0mg"},{"bike_id":"56031aea-9627-4974-9856-b4f618a93914","system_id":"levelo_inurba_marseille","lat":43.31267,"lon":5.40175,"is_reserved":false,"is_disabled":false,"rental_uris":{"android":"levelo://app?vid=56031aea-9627-4974-9856-b4f618a93914","ios":"levelo://app?vid=56031aea-9627-4974-9856-b4f618a93914"},"vehicle_type_id":"4","last_reported":1727806336,"current_range_meters":8800,"station_id":"ce4bh092rcd13ifvqd30","pricing_plan_id":"cebpf4jnsgd1na2vs0mg"},{"bike_id":"e00e928b-5929-4ce0-a699-5b9976d003e6","system_id":"levelo_inurba_marseille","lat":43.29535,"lon":5.38546,"is_reserved":false,"is_disabled":false,"rental_uris":{"android":"levelo://app?vid=e00e928b-5929-4ce0-a699-5b9976d003e6","ios":"levelo://app?vid=e00e928b-5929-4ce0-a699-5b9976d003e6"},"vehicle_type_id":"4","last_reported":1727806336,"current_range_meters":9600,"station_id":"ce4bgih2rcd13ifvqba0","pricing_plan_id":"cebpf4jnsgd1na2vs0mg"},{"bike_id":"3f370a2c-619a-4392-bd50-26df4bf68643","system_id":"levelo_inurba_marseille","lat":43.32334,"lon":5.40621,"is_reserved":false,"is_disabled":false,"rental_uris":{"android":"levelo://app?vid=3f370a2c-619a-4392-bd50-26df4bf68643","ios":"levelo://app?vid=3f370a2c-619a-4392-bd50-26df4bf68643"},"vehicle_type_id":"4","last_reported":1727806336,"current_range_meters":24800,"station_id":"ce4bhq92rcd13ifvqhjg","pricing_plan_id":"cebpf4jnsgd1na2vs0mg"},{"bike_id":"a3bb5cfe-0a37-4de6-ab68-cdfeaabac780","system_id":"levelo_inurba_marseille","lat":43.32472,"lon":5.36577,"is_reserved":false,"is_disabled":false,"rental_uris":{"android":"levelo://app?vid=a3bb5cfe-0a37-4de6-ab68-cdfeaabac780","ios":"levelo://app?vid=a3bb5cfe-0a37-4de6-ab68-cdfeaabac780"},"vehicle_type_id":"4","last_reported":1727806336,"current_range_meters":37600,"station_id":"ce4bhs12rcd13ifvqhvg","pricing_plan_id":"cebpf4jnsgd1na2vs0mg"},{"bike_id":"75bf0e18-cf20-471e-b998-1fb597905afc","system_id":"levelo_inurba_marseille","lat":43.311,"lon":5.40242,"is_reserved":false,"is_disabled":false,"rental_uris":{"android":"levelo://app?vid=75bf0e18-cf20-471e-b998-1fb597905afc","ios":"levelo://app?vid=75bf0e18-cf20-471e-b998-1fb597905afc"},"vehicle_type_id":"4","last_reported":1727806336,"current_range_meters":25600,"station_id":"ce4bgvp2rcd13ifvqct0","pricing_plan_id":"cebpf4jnsgd1na2vs0mg"},{"bike_id":"cf698516-372f-4521-ac94-fe8671534213","system_id":"levelo_inurba_marseille","lat":43.30301,"lon":5.39206,"is_reserved":false,"is_disabled":false,"rental_uris":{"android":"levelo://app?vid=cf698516-372f-4521-ac94-fe8671534213","ios":"levelo://app?vid=cf698516-372f-4521-ac94-fe8671534213"},"vehicle_type_id":"4","last_reported":1727806336,"current_range_meters":10800,"station_id":"ce4bgkh2rcd13ifvqbk0","pricing_plan_id":"cebpf4jnsgd1na2vs0mg"},{"bike_id":"5f70748e-7347-492e-a096-5ec74c17af13","system_id":"levelo_inurba_marseille","lat":43.30401,"lon":5.41303,"is_reserved":false,"is_disabled":false,"rental_uris":{"android":"levelo://app?vid=5f70748e-7347-492e-a096-5ec74c17af13","ios":"levelo://app?vid=5f70748e-7347-492e-a096-5ec74c17af13"},"vehicle_type_id":"4","last_reported":1727806336,"current_range_meters":10000,"station_id":"ce4bhop2rcd13ifvqh8g","pricing_plan_id":"cebpf4jnsgd1na2vs0mg"},{"bike_id":"5b42c565-9fd0-4f86-9504-b5449b2210e1","system_id":"levelo_inurba_marseille","lat":43.31752,"lon":5.39018,"is_reserved":false,"is_disabled":false,"rental_uris":{"android":"levelo://app?vid=5b42c565-9fd0-4f86-9504-b5449b2210e1","ios":"levelo://app?vid=5b42c565-9fd0-4f86-9504-b5449b2210e1"},"vehicle_type_id":"4","last_reported":1727806336,"current_range_meters":39200,"station_id":"ce4bhqp2rcd13ifvqhng","pricing_plan_id":"cebpf4jnsgd1na2vs0mg"},{"bike_id":"bbe2dfb4-6aa0-4837-84a7-399a43bef46f","system_id":"levelo_inurba_marseille","lat":43.3171,"lon":5.37752,"is_reserved":false,"is_disabled":false,"rental_uris":{"android":"levelo://app?vid=bbe2dfb4-6aa0-4837-84a7-399a43bef46f","ios":"levelo://app?vid=bbe2dfb4-6aa0-4837-84a7-399a43bef46f"},"vehicle_type_id":"4","last_reported":1727806336,"current_range_meters":8800,"station_id":"ce4bgth2rcd13ifvqch0","pricing_plan_id":"cebpf4jnsgd1na2vs0mg"},{"bike_id":"878f458c-956e-4dee-8916-d43e9350c630","system_id":"levelo_inurba_marseille","lat":43.29351,"lon":5.37848,"is_reserved":false,"is_disabled":false,"rental_uris":{"android":"levelo://app?vid=878f458c-956e-4dee-8916-d43e9350c630","ios":"levelo://app?vid=878f458c-956e-4dee-8916-d43e9350c630"},"vehicle_type_id":"4","last_reported":1727806336,"current_range_meters":6000,"station_id":"ce4bgjh2rcd13ifvqbf0","pricing_plan_id":"cebpf4jnsgd1na2vs0mg"},{"bike_id":"0bac7494-8be7-455a-8828-62f69b51dde6","system_id":"levelo_inurba_marseille","lat":43.304281,"lon":5.397383,"is_reserved":false,"is_disabled":false,"rental_uris":{"android":"levelo://app?vid=0bac7494-8be7-455a-8828-62f69b51dde6","ios":"levelo://app?vid=0bac7494-8be7-455a-8828-62f69b51dde6"},"vehicle_type_id":"4","last_reported":1727806336,"current_range_meters":18000,"station_id":"ce4bh0h2rcd13ifvqd40","pricing_plan_id":"cebpf4jnsgd1na2vs0mg"},{"bike_id":"0da8fe58-6296-4f1b-b8b8-14716687e0b4","system_id":"levelo_inurba_marseille","lat":43.31322,"lon":5.39696,"is_reserved":false,"is_disabled":false,"rental_uris":{"android":"levelo://app?vid=0da8fe58-6296-4f1b-b8b8-14716687e0b4","ios":"levelo://app?vid=0da8fe58-6296-4f1b-b8b8-14716687e0b4"},"vehicle_type_id":"4","last_reported":1727806336,"current_range_meters":39200,"station_id":"ce4bgvp2rcd13ifvqcu0","pricing_plan_id":"cebpf4jnsgd1na2vs0mg"},{"bike_id":"fe933d3f-0a45-40d8-9c55-eb2f2c0acd4e","system_id":"levelo_inurba_marseille","lat":43.29512,"lon":5.39408,"is_reserved":false,"is_disabled":false,"rental_uris":{"android":"levelo://app?vid=fe933d3f-0a45-40d8-9c55-eb2f2c0acd4e","ios":"levelo://app?vid=fe933d3f-0a45-40d8-9c55-eb2f2c0acd4e"},"vehicle_type_id":"4","last_reported":1727806336,"current_range_meters":12800,"station_id":"ce4bh292rcd13ifvqdf0","pricing_plan_id":"cebpf4jnsgd1na2vs0mg"},{"bike_id":"8d6ec373-064f-4271-9a9f-025b34edbda5","system_id":"levelo_inurba_marseille","lat":43.29876,"lon":5.3891,"is_reserved":false,"is_disabled":false,"rental_uris":{"android":"levelo://app?vid=8d6ec373-064f-4271-9a9f-025b34edbda5","ios":"levelo://app?vid=8d6ec373-064f-4271-9a9f-025b34edbda5"},"vehicle_type_id":"4","last_reported":1727806336,"current_range_meters":10000,"station_id":"ce4bh392rcd13ifvqdl0","pricing_plan_id":"cebpf4jnsgd1na2vs0mg"},{"bike_id":"8e721b1d-7094-4d8f-9e3f-3e51ff30542a","system_id":"levelo_inurba_marseille","lat":43.29868,"lon":5.3973,"is_reserved":false,"is_disabled":false,"rental_uris":{"android":"levelo://app?vid=8e721b1d-7094-4d8f-9e3f-3e51ff30542a","ios":"levelo://app?vid=8e721b1d-7094-4d8f-9e3f-3e51ff30542a"},"vehicle_type_id":"4","last_reported":1727806336,"current_range_meters":25600,"station_id":"ce4bh0h2rcd13ifvqd50","pricing_plan_id":"cebpf4jnsgd1na2vs0mg"},{"bike_id":"3bb0704b-e238-4cb3-965a-f36f7a5cdbde","system_id":"levelo_inurba_marseille","lat":43.32478,"lon":5.36566,"is_reserved":false,"is_disabled":false,"rental_uris":{"android":"levelo://app?vid=3bb0704b-e238-4cb3-965a-f36f7a5cdbde","ios":"levelo://app?vid=3bb0704b-e238-4cb3-965a-f36f7a5cdbde"},"vehicle_type_id":"4","last_reported":1727806336,"current_range_meters":7200,"station_id":"ce4bhs12rcd13ifvqhvg","pricing_plan_id":"cebpf4jnsgd1na2vs0mg"},{"bike_id":"ec8cbaa0-53d7-4a30-9dce-bef395c9af88","system_id":"levelo_inurba_marseille","lat":43.31714,"lon":5.37737,"is_reserved":false,"is_disabled":false,"rental_uris":{"android":"levelo://app?vid=ec8cbaa0-53d7-4a30-9dce-bef395c9af88","ios":"levelo://app?vid=ec8cbaa0-53d7-4a30-9dce-bef395c9af88"},"vehicle_type_id":"4","last_reported":1727806336,"current_range_meters":25200,"station_id":"ce4bgth2rcd13ifvqch0","pricing_plan_id":"cebpf4jnsgd1na2vs0mg"},{"bike_id":"e1caf8d1-18b6-4aba-8da7-4454cdb42dc7","system_id":"levelo_inurba_marseille","lat":43.25503,"lon":5.37651,"is_reserved":false,"is_disabled":false,"rental_uris":{"android":"levelo://app?vid=e1caf8d1-18b6-4aba-8da7-4454cdb42dc7","ios":"levelo://app?vid=e1caf8d1-18b6-4aba-8da7-4454cdb42dc7"},"vehicle_type_id":"4","last_reported":1727806336,"current_range_meters":9600,"station_id":"ce4bhh12rcd13ifvqff0","pricing_plan_id":"cebpf4jnsgd1na2vs0mg"},{"bike_id":"e686463a-e293-4038-b17c-9ccadabf5984","system_id":"levelo_inurba_marseille","lat":43.29891,"lon":5.43668,"is_reserved":false,"is_disabled":false,"rental_uris":{"android":"levelo://app?vid=e686463a-e293-4038-b17c-9ccadabf5984","ios":"levelo://app?vid=e686463a-e293-4038-b17c-9ccadabf5984"},"vehicle_type_id":"4","last_reported":1727806336,"current_range_meters":38800,"station_id":"ce4bhpp2rcd13ifvqhfg","pricing_plan_id":"cebpf4jnsgd1na2vs0mg"},{"bike_id":"53cb2107-45a3-4b33-b8d4-9c6921709f36","system_id":"levelo_inurba_marseille","lat":43.29027,"lon":5.3865,"is_reserved":false,"is_disabled":false,"rental_uris":{"android":"levelo://app?vid=53cb2107-45a3-4b33-b8d4-9c6921709f36","ios":"levelo://app?vid=53cb2107-45a3-4b33-b8d4-9c6921709f36"},"vehicle_type_id":"4","last_reported":1727806336,"current_range_meters":39200,"station_id":"ce4bh4p2rcd13ifvqe0g","pricing_plan_id":"cebpf4jnsgd1na2vs0mg"},{"bike_id":"5644078e-2f2c-4595-b652-c81a155272bf","system_id":"levelo_inurba_marseille","lat":43.30877,"lon":5.39642,"is_reserved":false,"is_disabled":false,"rental_uris":{"android":"levelo://app?vid=5644078e-2f2c-4595-b652-c81a155272bf","ios":"levelo://app?vid=5644078e-2f2c-4595-b652-c81a155272bf"},"vehicle_type_id":"4","last_reported":1727806336,"current_range_meters":14000,"station_id":"ce4bh012rcd13ifvqcv0","pricing_plan_id":"cebpf4jnsgd1na2vs0mg"},{"bike_id":"1727a209-9ea4-47cf-a28d-2e48d195263d","system_id":"levelo_inurba_marseille","lat":43.27999,"lon":5.40014,"is_reserved":false,"is_disabled":false,"rental_uris":{"android":"levelo://app?vid=1727a209-9ea4-47cf-a28d-2e48d195263d","ios":"levelo://app?vid=1727a209-9ea4-47cf-a28d-2e48d195263d"},"vehicle_type_id":"4","last_reported":1727806336,"current_range_meters":33600,"station_id":"ce4bho92rcd13ifvqh4g","pricing_plan_id":"cebpf4jnsgd1na2vs0mg"},{"bike_id":"780433d2-d5db-4392-870f-7d4b44eb90de","system_id":"levelo_inurba_marseille","lat":43.30953,"lon":5.39036,"is_reserved":false,"is_disabled":false,"rental_uris":{"android":"levelo://app?vid=780433d2-d5db-4392-870f-7d4b44eb90de","ios":"levelo://app?vid=780433d2-d5db-4392-870f-7d4b44eb90de"},"vehicle_type_id":"4","last_reported":1727806336,"current_range_meters":38800,"station_id":"ce4bgup2rcd13ifvqco0","pricing_plan_id":"cebpf4jnsgd1na2vs0mg"},{"bike_id":"a6866f1e-2be6-4aeb-be02-c3a209d1c92c","system_id":"levelo_inurba_marseille","lat":43.28405,"lon":5.37521,"is_reserved":false,"is_disabled":false,"rental_uris":{"android":"levelo://app?vid=a6866f1e-2be6-4aeb-be02-c3a209d1c92c","ios":"levelo://app?vid=a6866f1e-2be6-4aeb-be02-c3a209d1c92c"},"vehicle_type_id":"4","last_reported":1727806336,"current_range_meters":17600,"station_id":"ce4bh412rcd13ifvqds0","pricing_plan_id":"cebpf4jnsgd1na2vs0mg"},{"bike_id":"8532345f-8303-4c81-8705-965610a0a135","system_id":"levelo_inurba_marseille","lat":43.28979,"lon":5.37837,"is_reserved":false,"is_disabled":false,"rental_uris":{"android":"levelo://app?vid=8532345f-8303-4c81-8705-965610a0a135","ios":"levelo://app?vid=8532345f-8303-4c81-8705-965610a0a135"},"vehicle_type_id":"4","last_reported":1727806336,"current_range_meters":28400,"station_id":"ce4bh9p2rcd13ifvqed0","pricing_plan_id":"cebpf4jnsgd1na2vs0mg"},{"bike_id":"b61a696b-ec15-4123-9032-a5302df55e25","system_id":"levelo_inurba_marseille","lat":43.32965,"lon":5.38252,"is_reserved":false,"is_disabled":false,"rental_uris":{"android":"levelo://app?vid=b61a696b-ec15-4123-9032-a5302df55e25","ios":"levelo://app?vid=b61a696b-ec15-4123-9032-a5302df55e25"},"vehicle_type_id":"4","last_reported":1727806336,"current_range_meters":20000,"station_id":"","pricing_plan_id":"cebpf4jnsgd1na2vs0mg"},{"bike_id":"29cfac41-0e15-4432-9b80-1b03d0131566","system_id":"levelo_inurba_marseille","lat":43.30588,"lon":5.37126,"is_reserved":false,"is_disabled":false,"rental_uris":{"android":"levelo://app?vid=29cfac41-0e15-4432-9b80-1b03d0131566","ios":"levelo://app?vid=29cfac41-0e15-4432-9b80-1b03d0131566"},"vehicle_type_id":"4","last_reported":1727806336,"current_range_meters":38400,"station_id":"","pricing_plan_id":"cebpf4jnsgd1na2vs0mg"},{"bike_id":"c9b2d5f9-be6b-4f0e-aaa5-36176bc4f098","system_id":"levelo_inurba_marseille","lat":43.317022,"lon":5.405442,"is_reserved":false,"is_disabled":false,"rental_uris":{"android":"levelo://app?vid=c9b2d5f9-be6b-4f0e-aaa5-36176bc4f098","ios":"levelo://app?vid=c9b2d5f9-be6b-4f0e-aaa5-36176bc4f098"},"vehicle_type_id":"4","last_reported":1727806336,"current_range_meters":8800,"station_id":"ce4bh012rcd13ifvqd00","pricing_plan_id":"cebpf4jnsgd1na2vs0mg"},{"bike_id":"39a638e8-4228-4fc5-ad4b-863cab27b627","system_id":"levelo_inurba_marseille","lat":43.29262,"lon":5.38445,"is_reserved":false,"is_disabled":false,"rental_uris":{"android":"levelo://app?vid=39a638e8-4228-4fc5-ad4b-863cab27b627","ios":"levelo://app?vid=39a638e8-4228-4fc5-ad4b-863cab27b627"},"vehicle_type_id":"4","last_reported":1727806336,"current_range_meters":4000,"station_id":"ce4bh692rcd13ifvqea0","pricing_plan_id":"cebpf4jnsgd1na2vs0mg"},{"bike_id":"42455822-5caf-4db2-8653-4138fbd058f9","system_id":"levelo_inurba_marseille","lat":43.29527,"lon":5.3855,"is_reserved":false,"is_disabled":false,"rental_uris":{"android":"levelo://app?vid=42455822-5caf-4db2-8653-4138fbd058f9","ios":"levelo://app?vid=42455822-5caf-4db2-8653-4138fbd058f9"},"vehicle_type_id":"4","last_reported":1727806336,"current_range_meters":20400,"station_id":"ce4bgih2rcd13ifvqba0","pricing_plan_id":"cebpf4jnsgd1na2vs0mg"},{"bike_id":"862302a3-09cb-480a-830e-aadf4f45a6df","system_id":"levelo_inurba_marseille","lat":43.28411,"lon":5.37518,"is_reserved":false,"is_disabled":false,"rental_uris":{"android":"levelo://app?vid=862302a3-09cb-480a-830e-aadf4f45a6df","ios":"levelo://app?vid=862302a3-09cb-480a-830e-aadf4f45a6df"},"vehicle_type_id":"4","last_reported":1727806336,"current_range_meters":25600,"station_id":"ce4bh412rcd13ifvqds0","pricing_plan_id":"cebpf4jnsgd1na2vs0mg"},{"bike_id":"d791cb32-bf42-4811-87da-32c0ce1a689d","system_id":"levelo_inurba_marseille","lat":43.28859,"lon":5.39321,"is_reserved":false,"is_disabled":false,"rental_uris":{"android":"levelo://app?vid=d791cb32-bf42-4811-87da-32c0ce1a689d","ios":"levelo://app?vid=d791cb32-bf42-4811-87da-32c0ce1a689d"},"vehicle_type_id":"4","last_reported":1727806336,"current_range_meters":10800,"station_id":"ce4bh2p2rcd13ifvqdi0","pricing_plan_id":"cebpf4jnsgd1na2vs0mg"},{"bike_id":"75d5578c-4600-4275-bf30-f1b9e207a6da","system_id":"levelo_inurba_marseille","lat":43.29488,"lon":5.36202,"is_reserved":false,"is_disabled":false,"rental_uris":{"android":"levelo://app?vid=75d5578c-4600-4275-bf30-f1b9e207a6da","ios":"levelo://app?vid=75d5578c-4600-4275-bf30-f1b9e207a6da"},"vehicle_type_id":"4","last_reported":1727806336,"current_range_meters":18000,"station_id":"","pricing_plan_id":"cebpf4jnsgd1na2vs0mg"},{"bike_id":"acbc29ce-5f87-4b25-bfe7-8c108ad2c3d7","system_id":"levelo_inurba_marseille","lat":43.23173,"lon":5.39988,"is_reserved":false,"is_disabled":false,"rental_uris":{"android":"levelo://app?vid=acbc29ce-5f87-4b25-bfe7-8c108ad2c3d7","ios":"levelo://app?vid=acbc29ce-5f87-4b25-bfe7-8c108ad2c3d7"},"vehicle_type_id":"4","last_reported":1727806336,"current_range_meters":12400,"station_id":"ce4bhn12rcd13ifvqgqg","pricing_plan_id":"cebpf4jnsgd1na2vs0mg"},{"bike_id":"a16a29b5-9304-412c-b347-a302501cad9e","system_id":"levelo_inurba_marseille","lat":43.31444,"lon":5.37376,"is_reserved":false,"is_disabled":false,"rental_uris":{"android":"levelo://app?vid=a16a29b5-9304-412c-b347-a302501cad9e","ios":"levelo://app?vid=a16a29b5-9304-412c-b347-a302501cad9e"},"vehicle_type_id":"4","last_reported":1727806336,"current_range_meters":33600,"station_id":"","pricing_plan_id":"cebpf4jnsgd1na2vs0mg"},{"bike_id":"b0794406-05bc-4a36-81e7-99a4a4b8f80d","system_id":"levelo_inurba_marseille","lat":43.29514,"lon":5.3941,"is_reserved":false,"is_disabled":false,"rental_uris":{"android":"levelo://app?vid=b0794406-05bc-4a36-81e7-99a4a4b8f80d","ios":"levelo://app?vid=b0794406-05bc-4a36-81e7-99a4a4b8f80d"},"vehicle_type_id":"4","last_reported":1727806336,"current_range_meters":6400,"station_id":"ce4bh292rcd13ifvqdf0","pricing_plan_id":"cebpf4jnsgd1na2vs0mg"},{"bike_id":"cbd33724-5c27-4f9f-9a14-0e57c3b6b7d0","system_id":"levelo_inurba_marseille","lat":43.29889,"lon":5.43672,"is_reserved":false,"is_disabled":false,"rental_uris":{"android":"levelo://app?vid=cbd33724-5c27-4f9f-9a14-0e57c3b6b7d0","ios":"levelo://app?vid=cbd33724-5c27-4f9f-9a14-0e57c3b6b7d0"},"vehicle_type_id":"4","last_reported":1727806336,"current_range_meters":4800,"station_id":"ce4bhpp2rcd13ifvqhfg","pricing_plan_id":"cebpf4jnsgd1na2vs0mg"},{"bike_id":"528263ab-2814-4a72-ab99-44da30eeb71c","system_id":"levelo_inurba_marseille","lat":43.28457,"lon":5.35896,"is_reserved":false,"is_disabled":false,"rental_uris":{"android":"levelo://app?vid=528263ab-2814-4a72-ab99-44da30eeb71c","ios":"levelo://app?vid=528263ab-2814-4a72-ab99-44da30eeb71c"},"vehicle_type_id":"4","last_reported":1727806336,"current_range_meters":17200,"station_id":"ce4bhah2rcd13ifvqei0","pricing_plan_id":"cebpf4jnsgd1na2vs0mg"},{"bike_id":"d84f2116-c46c-4d11-95a4-c11a5643405d","system_id":"levelo_inurba_marseille","lat":43.25576,"lon":5.38227,"is_reserved":false,"is_disabled":false,"rental_uris":{"android":"levelo://app?vid=d84f2116-c46c-4d11-95a4-c11a5643405d","ios":"levelo://app?vid=d84f2116-c46c-4d11-95a4-c11a5643405d"},"vehicle_type_id":"4","last_reported":1727806336,"current_range_meters":5600,"station_id":"ce4bhih2rcd13ifvqfs0","pricing_plan_id":"cebpf4jnsgd1na2vs0mg"},{"bike_id":"338bba50-d1ac-46fc-8968-eeb28b611436","system_id":"levelo_inurba_marseille","lat":43.28981,"lon":5.37832,"is_reserved":false,"is_disabled":false,"rental_uris":{"android":"levelo://app?vid=338bba50-d1ac-46fc-8968-eeb28b611436","ios":"levelo://app?vid=338bba50-d1ac-46fc-8968-eeb28b611436"},"vehicle_type_id":"4","last_reported":1727806336,"current_range_meters":8400,"station_id":"ce4bh9p2rcd13ifvqed0","pricing_plan_id":"cebpf4jnsgd1na2vs0mg"},{"bike_id":"66740ee2-2e55-420a-8110-30de6d8d3f39","system_id":"levelo_inurba_marseille","lat":43.3236,"lon":5.38883,"is_reserved":false,"is_disabled":false,"rental_uris":{"android":"levelo://app?vid=66740ee2-2e55-420a-8110-30de6d8d3f39","ios":"levelo://app?vid=66740ee2-2e55-420a-8110-30de6d8d3f39"},"vehicle_type_id":"4","last_reported":1727806336,"current_range_meters":11600,"station_id":"ce4bhqp2rcd13ifvqhog","pricing_plan_id":"cebpf4jnsgd1na2vs0mg"},{"bike_id":"afea975c-c183-4bc7-8366-2b772b690d76","system_id":"levelo_inurba_marseille","lat":43.28977,"lon":5.37836,"is_reserved":false,"is_disabled":false,"rental_uris":{"android":"levelo://app?vid=afea975c-c183-4bc7-8366-2b772b690d76","ios":"levelo://app?vid=afea975c-c183-4bc7-8366-2b772b690d76"},"vehicle_type_id":"4","last_reported":1727806336,"current_range_meters":32800,"station_id":"ce4bh9p2rcd13ifvqed0","pricing_plan_id":"cebpf4jnsgd1na2vs0mg"},{"bike_id":"c04f59a2-5ed6-4565-9b82-a4d883d5c740","system_id":"levelo_inurba_marseille","lat":43.2941,"lon":5.38626,"is_reserved":false,"is_disabled":false,"rental_uris":{"android":"levelo://app?vid=c04f59a2-5ed6-4565-9b82-a4d883d5c740","ios":"levelo://app?vid=c04f59a2-5ed6-4565-9b82-a4d883d5c740"},"vehicle_type_id":"4","last_reported":1727806336,"current_range_meters":8400,"station_id":"ce4bh2h2rcd13ifvqdh0","pricing_plan_id":"cebpf4jnsgd1na2vs0mg"},{"bike_id":"3f682ed8-265f-4983-96a1-65b63dcd8a76","system_id":"levelo_inurba_marseille","lat":43.323461,"lon":5.389648,"is_reserved":false,"is_disabled":false,"rental_uris":{"android":"levelo://app?vid=3f682ed8-265f-4983-96a1-65b63dcd8a76","ios":"levelo://app?vid=3f682ed8-265f-4983-96a1-65b63dcd8a76"},"vehicle_type_id":"4","last_reported":1727806336,"current_range_meters":38800,"station_id":"ce4bhqp2rcd13ifvqhog","pricing_plan_id":"cebpf4jnsgd1na2vs0mg"},{"bike_id":"6a1c0fb6-83f7-41c1-8f51-638093240112","system_id":"levelo_inurba_marseille","lat":43.29787,"lon":5.40405,"is_reserved":false,"is_disabled":false,"rental_uris":{"android":"levelo://app?vid=6a1c0fb6-83f7-41c1-8f51-638093240112","ios":"levelo://app?vid=6a1c0fb6-83f7-41c1-8f51-638093240112"},"vehicle_type_id":"4","last_reported":1727806336,"current_range_meters":32000,"station_id":"ce4bh112rcd13ifvqd90","pricing_plan_id":"cebpf4jnsgd1na2vs0mg"},{"bike_id":"d770ef8a-b71d-4f9d-b90a-984661708b1d","system_id":"levelo_inurba_marseille","lat":43.29958,"lon":5.4132,"is_reserved":false,"is_disabled":false,"rental_uris":{"android":"levelo://app?vid=d770ef8a-b71d-4f9d-b90a-984661708b1d","ios":"levelo://app?vid=d770ef8a-b71d-4f9d-b90a-984661708b1d"},"vehicle_type_id":"4","last_reported":1727806336,"current_range_meters":14000,"station_id":"ce4bhp12rcd13ifvqh9g","pricing_plan_id":"cebpf4jnsgd1na2vs0mg"},{"bike_id":"ee838ce8-b3fa-4d64-b470-490b68637db9","system_id":"levelo_inurba_marseille","lat":43.299639,"lon":5.386594,"is_reserved":false,"is_disabled":false,"rental_uris":{"android":"levelo://app?vid=ee838ce8-b3fa-4d64-b470-490b68637db9","ios":"levelo://app?vid=ee838ce8-b3fa-4d64-b470-490b68637db9"},"vehicle_type_id":"4","last_reported":1727806336,"current_range_meters":38400,"station_id":"ce4bgvp2rcd13ifvqct0","pricing_plan_id":"cebpf4jnsgd1na2vs0mg"},