{"last_updated":1732882717,"ttl":60,"version":"2.2","data":{"bikes":[{"bike_id":"a6938546-9c24-4db5-ab33-e50997791d9c","system_id":"levelo_inurba_marseille","lat":43.28157,"lon":5.42645,"is_reserved":false,"is_disabled":true,"rental_uris":{"android":"levelo://app?vid=a6938546-9c24-4db5-ab33-e50997791d9c","ios":"levelo://app?vid=a6938546-9c24-4db5-ab33-e50997791d9c"},"vehicle_type_id":"4","last_reported":1732882717,"current_range_meters":0,"station_id":"ce4bhnh2rcd13ifvqgug","pricing_plan_id":"cebpf4jnsgd1na2vs0mg"},{"bike_id":"b856c8b4-412d-4c25-bdd4-e6b29aed04cb","system_id":"levelo_inurba_marseille","lat":43.22932,"lon":5.35378,"is_reserved":false,"is_disabled":false,"rental_uris":{"android":"levelo://app?vid=b856c8b4-412d-4c25-bdd4-e6b29aed04cb","ios":"levelo://app?vid=b856c8b4-412d-4c25-bdd4-e6b29aed04cb"},"vehicle_type_id":"4","last_reported":1732882717,"current_range_meters":38800,"station_id":"cpo3532slgdg3j2ikp40","pricing_plan_id":"cebpf4jnsgd1na2vs0mg"},{"bike_id":"9a2bd221-2799-474b-90a8-79ef0d864b96","system_id":"levelo_inurba_marseille","lat":43.29602,"lon":5.37803,"is_reserved":false,"is_disabled":true,"rental_uris":{"android":"levelo://app?vid=9a2bd221-2799-474b-90a8-79ef0d864b96","ios":"levelo://app?vid=9a2bd221-2799-474b-90a8-79ef0d864b96"},"vehicle_type_id":"4","last_reported":1732882717,"current_range_meters":8000,"station_id":"ce4bgi92rcd13ifvqb90","pricing_plan_id":"cebpf4jnsgd1na2vs0mg"},{"bike_id":"43602253-a5d2-4025-a10b-e226dca7b09e","system_id":"levelo_inurba_marseille","lat":43.31234,"lon":5.36882,"is_reserved":false,"is_disabled":false,"rental_uris":{"android":"levelo://app?vid=43602253-a5d2-4025-a10b-e226dca7b09e","ios":"levelo://app?vid=43602253-a5d2-4025-a10b-e226dca7b09e"},"vehicle_type_id":"4","last_reported":1732882717,"current_range_meters":26800,"station_id":"ce4bgl92rcd13ifvqbq0","pricing_plan_id":"cebpf4jnsgd1na2vs0mg"},{"bike_id":"eae5672e-ff9e-46b6-8437-9a5ac5b960c4","system_id":"levelo_inurba_marseille","lat":43.31888,"lon":5.40739,"is_reserved":false,"is_disabled":false,"rental_uris":{"android":"levelo://app?vid=eae5672e-ff9e-46b6-8437-9a5ac5b960c4","ios":"levelo://app?vid=eae5672e-ff9e-46b6-8437-9a5ac5b960c4"},"vehicle_type_id":"4","last_reported":1732882717,"current_range_meters":4400,"station_id":"ce4bhq12rcd13ifvqhig","pricing_plan_id":"cebpf4jnsgd1na2vs0mg"},{"bike_id":"fac63031-3de9-41dc-941a-a395646bc4e4","system_id":"levelo_inurba_marseille","lat":43.25578,"lon":5.38238,"is_reserved":false,"is_disabled":false,"rental_uris":{"android":"levelo://app?vid=fac63031-3de9-41dc-941a-a395646bc4e4","ios":"levelo://app?vid=fac63031-3de9-41dc-941a-a395646bc4e4"},"vehicle_type_id":"4","last_reported":1732882717,"current_range_meters":6800,"station_id":"ce4bhih2rcd13ifvqfs0","pricing_plan_id":"cebpf4jnsgd1na2vs0mg"},{"bike_id":"fa234cad-4d46-436a-aa5f-c5c856b793b4","system_id":"levelo_inurba_marseille","lat":43.23961,"lon":5.36633,"is_reserved":false,"is_disabled":false,"rental_uris":{"android":"levelo://app?vid=fa234cad-4d46-436a-aa5f-c5c856b793b4","ios":"levelo://app?vid=fa234cad-4d46-436a-aa5f-c5c856b793b4"},"vehicle_type_id":"4","last_reported":1732882717,"current_range_meters":38800,"station_id":"ce4bhi12rcd13ifvqfp0","pricing_plan_id":"cebpf4jnsgd1na2vs0mg"},{"bike_id":"b68e4575-2d7c-4a35-ae3f-f8d5fcf2bebb","system_id":"levelo_inurba_marseille","lat":43.29935,"lon":5.36538,"is_reserved":false,"is_disabled":false,"rental_uris":{"android":"levelo://app?vid=b68e4575-2d7c-4a35-ae3f-f8d5fcf2bebb","ios":"levelo://app?vid=b68e4575-2d7c-4a35-ae3f-f8d5fcf2bebb"},"vehicle_type_id":"4","last_reported":1732882717,"current_range_meters":36800,"station_id":"ce4bgm92rcd13ifvqbr0","pricing_plan_id":"cebpf4jnsgd1na2vs0mg"},{"bike_id":"ea208889-da07-4155-baae-08d6fd40ddff","system_id":"levelo_inurba_marseille","lat":43.28946,"lon":5.36405,"is_reserved":false,"is_disabled":false,"rental_uris":{"android":"levelo://app?vid=ea208889-da07-4155-baae-08d6fd40ddff","ios":"levelo://app?vid=ea208889-da07-4155-baae-08d6fd40ddff"},"vehicle_type_id":"4","last_reported":1732882717,"current_range_meters":20800,"station_id":"ce4bhc92rcd13ifvqetg","pricing_plan_id":"cebpf4jnsgd1na2vs0mg"},{"bike_id":"c230ba19-bf57-4cbd-8d45-0221e7be889f","system_id":"levelo_inurba_marseille","lat":43.2694,"lon":5.38922,"is_reserved":false,"is_disabled":false,"rental_uris":{"android":"levelo://app?vid=c230ba19-bf57-4cbd-8d45-0221e7be889f","ios":"levelo://app?vid=c230ba19-bf57-4cbd-8d45-0221e7be889f"},"vehicle_type_id":"4","last_reported":1732882717,"current_range_meters":12800,"station_id":"ce4bhhh2rcd13ifvqfl0","pricing_plan_id":"cebpf4jnsgd1na2vs0mg"},{"bike_id":"21bf1ce0-ced8-4774-8e2b-62b029b2226f","system_id":"levelo_inurba_marseille","lat":43.31529,"lon":5.38036,"is_reserved":false,"is_disabled":false,"rental_uris":{"android":"levelo://app?vid=21bf1ce0-ced8-4774-8e2b-62b029b2226f","ios":"levelo://app?vid=21bf1ce0-ced8-4774-8e2b-62b029b2226f"},"vehicle_type_id":"4","last_reported":1732882717,"current_range_meters":28000,"station_id":"ce4bhsp2rcd13ifvqi50","pricing_plan_id":"cebpf4jnsgd1na2vs0mg"},{"bike_id":"6a609512-d3a8-4df1-b5c7-3355a5b889de","system_id":"levelo_inurba_marseille","lat":43.28276,"lon":5.35078,"is_reserved":false,"is_disabled":true,"rental_uris":{"android":"levelo://app?vid=6a609512-d3a8-4df1-b5c7-3355a5b889de","ios":"levelo://app?vid=6a609512-d3a8-4df1-b5c7-3355a5b889de"},"vehicle_type_id":"4","last_reported":1732882717,"current_range_meters":26800,"station_id":"ce4bhbp2rcd13ifvqerg","pricing_plan_id":"cebpf4jnsgd1na2vs0mg"},{"bike_id":"ce15a521-8a1d-47b7-92c8-091ca367d00e","system_id":"levelo_inurba_marseille","lat":43.33749,"lon":5.37439,"is_reserved":false,"is_disabled":false,"rental_uris":{"android":"levelo://app?vid=ce15a521-8a1d-47b7-92c8-091ca367d00e","ios":"levelo://app?vid=ce15a521-8a1d-47b7-92c8-091ca367d00e"},"vehicle_type_id":"4","last_reported":1732882717,"current_range_meters":33200,"station_id":"","pricing_plan_id":"cebpf4jnsgd1na2vs0mg"},{"bike_id":"4ff335b1-9650-4c51-866f-8a7fc8cee4ee","system_id":"levelo_inurba_marseille","lat":43.26213,"lon":5.37447,"is_reserved":false,"is_disabled":false,"rental_uris":{"android":"levelo://app?vid=4ff335b1-9650-4c51-866f-8a7fc8cee4ee","ios":"levelo://app?vid=4ff335b1-9650-4c51-866f-8a7fc8cee4ee"},"vehicle_type_id":"4","last_reported":1732882717,"current_range_meters":20400,"station_id":"ce4bhgp2rcd13ifvqfc0","pricing_plan_id":"cebpf4jnsgd1na2vs0mg"},{"bike_id":"db3c106a-5fc0-44ad-bed3-25b68013685f","system_id":"levelo_inurba_marseille","lat":43.27177,"lon":5.41,"is_reserved":false,"is_disabled":false,"rental_uris":{"android":"levelo://app?vid=db3c106a-5fc0-44ad-bed3-25b68013685f","ios":"levelo://app?vid=db3c106a-5fc0-44ad-bed3-25b68013685f"},"vehicle_type_id":"4","last_reported":1732882717,"current_range_meters":22400,"station_id":"ce4bhl12rcd13ifvqgf0","pricing_plan_id":"cebpf4jnsgd1na2vs0mg"},{"bike_id":"310b9c25-7d37-4ab9-a23e-f40557e70aa4","system_id":"levelo_inurba_marseille","lat":43.24181,"lon":5.39735,"is_reserved":false,"is_disabled":false,"rental_uris":{"android":"levelo://app?vid=310b9c25-7d37-4ab9-a23e-f40557e70aa4","ios":"levelo://app?vid=310b9c25-7d37-4ab9-a23e-f40557e70aa4"},"vehicle_type_id":"4","last_reported":1732882717,"current_range_meters":28800,"station_id":"ce4bhn12rcd13ifvqgpg","pricing_plan_id":"cebpf4jnsgd1na2vs0mg"},{"bike_id":"49032d78-30d7-4669-945d-e0639a004625","system_id":"levelo_inurba_marseille","lat":43.29891,"lon":5.39727,"is_reserved":false,"is_disabled":false,"rental_uris":{"android":"levelo://app?vid=49032d78-30d7-4669-945d-e0639a004625","ios":"levelo://app?vid=49032d78-30d7-4669-945d-e0639a004625"},"vehicle_type_id":"4","last_reported":1732882717,"current_range_meters":12800,"station_id":"ce4bh0h2rcd13ifvqd50","pricing_plan_id":"cebpf4jnsgd1na2vs0mg"},{"bike_id":"f03756c7-bad9-4648-aab2-49d6af6b9b5d","system_id":"levelo_inurba_marseille","lat":43.23188,"lon":5.39974,"is_reserved":false,"is_disabled":false,"rental_uris":{"android":"levelo://app?vid=f03756c7-bad9-4648-aab2-49d6af6b9b5d","ios":"levelo://app?vid=f03756c7-bad9-4648-aab2-49d6af6b9b5d"},"vehicle_type_id":"4","last_reported":1732882717,"current_range_meters":32000,"station_id":"ce4bhn12rcd13ifvqgqg","pricing_plan_id":"cebpf4jnsgd1na2vs0mg"},{"bike_id":"b145f94a-aa9d-49b7-9b85-5584803cb044","system_id":"levelo_inurba_marseille","lat":43.27023,"lon":5.38744,"is_reserved":false,"is_disabled":false,"rental_uris":{"android":"levelo://app?vid=b145f94a-aa9d-49b7-9b85-5584803cb044","ios":"levelo://app?vid=b145f94a-aa9d-49b7-9b85-5584803cb044"},"vehicle_type_id":"4","last_reported":1732882717,"current_range_meters":36800,"station_id":"","pricing_plan_id":"cebpf4jnsgd1na2vs0mg"},{"bike_id":"6f7949e1-de87-4a49-8620-fec27e04447f","system_id":"levelo_inurba_marseille","lat":43.3372,"lon":5.39195,"is_reserved":false,"is_disabled":false,"rental_uris":{"android":"levelo://app?vid=6f7949e1-de87-4a49-8620-fec27e04447f","ios":"levelo://app?vid=6f7949e1-de87-4a49-8620-fec27e04447f"},"vehicle_type_id":"4","last_reported":1732882717,"current_range_meters":30800,"station_id":"ce4bhr92rcd13ifvqhsg","pricing_plan_id":"cebpf4jnsgd1na2vs0mg"},{"bike_id":"d6af473c-317d-44a4-ba58-092abf84584f","system_id":"levelo_inurba_marseille","lat":43.22933,"lon":5.3538,"is_reserved":false,"is_disabled":false,"rental_uris":{"android":"levelo://app?vid=d6af473c-317d-44a4-ba58-092abf84584f","ios":"levelo://app?vid=d6af473c-317d-44a4-ba58-092abf84584f"},"vehicle_type_id":"4","last_reported":1732882717,"current_range_meters":38400,"station_id":"cpo3532slgdg3j2ikp40","pricing_plan_id":"cebpf4jnsgd1na2vs0mg"},{"bike_id":"79da6e11-068f-4f85-891a-bf5d6033ae1b","system_id":"levelo_inurba_marseille","lat":43.29201,"lon":5.39319,"is_reserved":false,"is_disabled":true,"rental_uris":{"android":"levelo://app?vid=79da6e11-068f-4f85-891a-bf5d6033ae1b","ios":"levelo://app?vid=79da6e11-068f-4f85-891a-bf5d6033ae1b"},"vehicle_type_id":"4","last_reported":1732882717,"current_range_meters":29600,"station_id":"ce4bh192rcd13ifvqdd0","pricing_plan_id":"cebpf4jnsgd1na2vs0mg"},{"bike_id":"cf7f1337-f195-45e4-bbed-b8188cc2c361","system_id":"levelo_inurba_marseille","lat":43.30191,"lon":5.36609,"is_reserved":false,"is_disabled":false,"rental_uris":{"android":"levelo://app?vid=cf7f1337-f195-45e4-bbed-b8188cc2c361","ios":"levelo://app?vid=cf7f1337-f195-45e4-bbed-b8188cc2c361"},"vehicle_type_id":"4","last_reported":1732882717,"current_range_meters":16400,"station_id":"ce4bgrh2rcd13ifvqc8g","pricing_plan_id":"cebpf4jnsgd1na2vs0mg"},{"bike_id":"07403647-d001-4550-b2bf-27d16495fa67","system_id":"levelo_inurba_marseille","lat":43.31228,"lon":5.36864,"is_reserved":false,"is_disabled":false,"rental_uris":{"android":"levelo://app?vid=07403647-d001-4550-b2bf-27d16495fa67","ios":"levelo://app?vid=07403647-d001-4550-b2bf-27d16495fa67"},"vehicle_type_id":"4","last_reported":1732882717,"current_range_meters":9600,"station_id":"ce4bgl92rcd13ifvqbq0","pricing_plan_id":"cebpf4jnsgd1na2vs0mg"},{"bike_id":"58478917-f6ff-4576-83cb-98891ff9a690","system_id":"levelo_inurba_marseille","lat":43.26028,"lon":5.37547,"is_reserved":false,"is_disabled":false,"rental_uris":{"android":"levelo://app?vid=58478917-f6ff-4576-83cb-98891ff9a690","ios":"levelo://app?vid=58478917-f6ff-4576-83cb-98891ff9a690"},"vehicle_type_id":"4","last_reported":1732882717,"current_range_meters":28800,"station_id":"ce4bhgh2rcd13ifvqfa0","pricing_plan_id":"cebpf4jnsgd1na2vs0mg"},{"bike_id":"e314bc56-f5bb-4998-82a2-b01f83a54de1","system_id":"levelo_inurba_marseille","lat":43.30175,"lon":5.38097,"is_reserved":false,"is_disabled":false,"rental_uris":{"android":"levelo://app?vid=e314bc56-f5bb-4998-82a2-b01f83a54de1","ios":"levelo://app?vid=e314bc56-f5bb-4998-82a2-b01f83a54de1"},"vehicle_type_id":"4","last_reported":1732882717,"current_range_meters":38000,"station_id":"ce4bgjp2rcd13ifvqbh0","pricing_plan_id":"cebpf4jnsgd1na2vs0mg"},{"bike_id":"4709c438-f4af-415a-a919-d27302b75dca","system_id":"levelo_inurba_marseille","lat":43.23194,"lon":5.35553,"is_reserved":false,"is_disabled":false,"rental_uris":{"android":"levelo://app?vid=4709c438-f4af-415a-a919-d27302b75dca","ios":"levelo://app?vid=4709c438-f4af-415a-a919-d27302b75dca"},"vehicle_type_id":"4","last_reported":1732882717,"current_range_meters":38800,"station_id":"ce4bhu92rcd13ifvqi70","pricing_plan_id":"cebpf4jnsgd1na2vs0mg"},{"bike_id":"d1486dd5-23d4-40bc-bb61-4a3c8126196a","system_id":"levelo_inurba_marseille","lat":43.27374,"lon":5.36287,"is_reserved":false,"is_disabled":true,"rental_uris":{"android":"levelo://app?vid=d1486dd5-23d4-40bc-bb61-4a3c8126196a","ios":"levelo://app?vid=d1486dd5-23d4-40bc-bb61-4a3c8126196a"},"vehicle_type_id":"4","last_reported":1732882717,"current_range_meters":39200,"station_id":"ce4bhbh2rcd13ifvqeo0","pricing_plan_id":"cebpf4jnsgd1na2vs0mg"},{"bike_id":"c34ed66a-f76b-46d6-b519-b3726d77f086","system_id":"levelo_inurba_marseille","lat":43.26806,"lon":5.40267,"is_reserved":false,"is_disabled":false,"rental_uris":{"android":"levelo://app?vid=c34ed66a-f76b-46d6-b519-b3726d77f086","ios":"levelo://app?vid=c34ed66a-f76b-46d6-b519-b3726d77f086"},"vehicle_type_id":"4","last_reported":1732882717,"current_range_meters":38800,"station_id":"ce501612rcd8frsf0b60","pricing_plan_id":"cebpf4jnsgd1na2vs0mg"},{"bike_id":"a53e2654-e69b-4041-ac48-30a18352c81b","system_id":"levelo_inurba_marseille","lat":43.27817,"lon":5.40716,"is_reserved":false,"is_disabled":false,"rental_uris":{"android":"levelo://app?vid=a53e2654-e69b-4041-ac48-30a18352c81b","ios":"levelo://app?vid=a53e2654-e69b-4041-ac48-30a18352c81b"},"vehicle_type_id":"4","last_reported":1732882717,"current_range_meters":22400,"station_id":"ce4bhnh2rcd13ifvqgtg","pricing_plan_id":"cebpf4jnsgd1na2vs0mg"},{"bike_id":"97537f24-b6a1-4407-bb83-146625cb34d4","system_id":"levelo_inurba_marseille","lat":43.27214,"lon":5.39188,"is_reserved":false,"is_disabled":false,"rental_uris":{"android":"levelo://app?vid=97537f24-b6a1-4407-bb83-146625cb34d4","ios":"levelo://app?vid=97537f24-b6a1-4407-bb83-146625cb34d4"},"vehicle_type_id":"4","last_reported":1732882717,"current_range_meters":16000,"station_id":"ce4bhhp2rcd13ifvqfm0","pricing_plan_id":"cebpf4jnsgd1na2vs0mg"},{"bike_id":"2c2dbeed-d8b9-4443-8bc1-facb2c0b2be9","system_id":"levelo_inurba_marseille","lat":43.30441,"lon":5.36876,"is_reserved":false,"is_disabled":false,"rental_uris":{"android":"levelo://app?vid=2c2dbeed-d8b9-4443-8bc1-facb2c0b2be9","ios":"levelo://app?vid=2c2dbeed-d8b9-4443-8bc1-facb2c0b2be9"},"vehicle_type_id":"4","last_reported":1732882717,"current_range_meters":8000,"station_id":"","pricing_plan_id":"cebpf4jnsgd1na2vs0mg"},{"bike_id":"6d4c3fde-86ad-4bb8-9f46-ed89fd9e0517","system_id":"levelo_inurba_marseille","lat":43.2439,"lon":5.37061,"is_reserved":false,"is_disabled":true,"rental_uris":{"android":"levelo://app?vid=6d4c3fde-86ad-4bb8-9f46-ed89fd9e0517","ios":"levelo://app?vid=6d4c3fde-86ad-4bb8-9f46-ed89fd9e0517"},"vehicle_type_id":"4","last_reported":1732882717,"current_range_meters":1600,"station_id":"ce4bhhh2rcd13ifvqfk0","pricing_plan_id":"cebpf4jnsgd1na2vs0mg"},{"bike_id":"ffa4a609-12c2-4bcb-a232-bff214294d68","system_id":"levelo_inurba_marseille","lat":43.26208,"lon":5.3792,"is_reserved":false,"is_disabled":false,"rental_uris":{"android":"levelo://app?vid=ffa4a609-12c2-4bcb-a232-bff214294d68","ios":"levelo://app?vid=ffa4a609-12c2-4bcb-a232-bff214294d68"},"vehicle_type_id":"4","last_reported":1732882717,"current_range_meters":36800,"station_id":"ce4bhjp2rcd13ifvqg90","pricing_plan_id":"cebpf4jnsgd1na2vs0mg"},{"bike_id":"d43bcf0d-16aa-4132-bee9-932c9bcef8f2","system_id":"levelo_inurba_marseille","lat":43.32368,"lon":5.38886,"is_reserved":false,"is_disabled":false,"rental_uris":{"android":"levelo://app?vid=d43bcf0d-16aa-4132-bee9-932c9bcef8f2","ios":"levelo://app?vid=d43bcf0d-16aa-4132-bee9-932c9bcef8f2"},"vehicle_type_id":"4","last_reported":1732882717,"current_range_meters":38000,"station_id":"ce4bhqp2rcd13ifvqhog","pricing_plan_id":"cebpf4jnsgd1na2vs0mg"},{"bike_id":"4035e70a-9b35-49ff-8763-9565717e2e74","system_id":"levelo_inurba_marseille","lat":43.28477,"lon":5.35902,"is_reserved":false,"is_disabled":true,"rental_uris":{"android":"levelo://app?vid=4035e70a-9b35-49ff-8763-9565717e2e74","ios":"levelo://app?vid=4035e70a-9b35-49ff-8763-9565717e2e74"},"vehicle_type_id":"4","last_reported":1732882717,"current_range_meters":9600,"station_id":"ce4bhah2rcd13ifvqei0","pricing_plan_id":"cebpf4jnsgd1na2vs0mg"},{"bike_id":"bc749360-3ce4-4dd6-a0ac-83aa82c323a7","system_id":"levelo_inurba_marseille","lat":43.28157,"lon":5.42637,"is_reserved":false,"is_disabled":true,"rental_uris":{"android":"levelo://app?vid=bc749360-3ce4-4dd6-a0ac-83aa82c323a7","ios":"levelo://app?vid=bc749360-3ce4-4dd6-a0ac-83aa82c323a7"},"vehicle_type_id":"4","last_reported":1732882717,"current_range_meters":38800,"station_id":"ce4bhnh2rcd13ifvqgug","pricing_plan_id":"cebpf4jnsgd1na2vs0mg"},{"bike_id":"81103a60-64e6-4327-a628-de53b974f3e8","system_id":"levelo_inurba_marseille","lat":43.30592,"lon":5.39361,"is_reserved":false,"is_disabled":true,"rental_uris":{"android":"levelo://app?vid=81103a60-64e6-4327-a628-de53b974f3e8","ios":"levelo://app?vid=81103a60-64e6-4327-a628-de53b974f3e8"},"vehicle_type_id":"4","last_reported":1732882717,"current_range_meters":4800,"station_id":"ce4bh0p2rcd13ifvqd80","pricing_plan_id":"cebpf4jnsgd1na2vs0mg"},{"bike_id":"6eff0c29-a30c-44bf-9255-c0cf74eb9293","system_id":"levelo_inurba_marseille","lat":43.28717,"lon":5.37952,"is_reserved":false,"is_disabled":false,"rental_uris":{"android":"levelo://app?vid=6eff0c29-a30c-44bf-9255-c0cf74eb9293","ios":"levelo://app?vid=6eff0c29-a30c-44bf-9255-c0cf74eb9293"},"vehicle_type_id":"4","last_reported":1732882717,"current_range_meters":24400,"station_id":"ce4bh9p2rcd13ifvqec0","pricing_plan_id":"cebpf4jnsgd1na2vs0mg"},{"bike_id":"4d4c884f-6933-49c0-8899-f9856d90f44d","system_id":"levelo_inurba_marseille","lat":43.29748,"lon":5.37971,"is_reserved":false,"is_disabled":true,"rental_uris":{"android":"levelo://app?vid=4d4c884f-6933-49c0-8899-f9856d90f44d","ios":"levelo://app?vid=4d4c884f-6933-49c0-8899-f9856d90f44d"},"vehicle_type_id":"4","last_reported":1732882717,"current_range_meters":0,"station_id":"","pricing_plan_id":"cebpf4jnsgd1na2vs0mg"},{"bike_id":"0a6a01b8-ebc9-4549-9bc8-25449ed3a98c","system_id":"levelo_inurba_marseille","lat":43.32,"lon":5.38149,"is_reserved":false,"is_disabled":false,"rental_uris":{"android":"levelo://app?vid=0a6a01b8-ebc9-4549-9bc8-25449ed3a98c","ios":"levelo://app?vid=0a6a01b8-ebc9-4549-9bc8-25449ed3a98c"},"vehicle_type_id":"4","last_reported":1732882717,"current_range_meters":23200,"station_id":"ce4bhr12rcd13ifvqhpg","pricing_plan_id":"cebpf4jnsgd1na2vs0mg"},{"bike_id":"02895370-c40c-4c5d-869e-dbb8ac908e5c","system_id":"levelo_inurba_marseille","lat":43.271737,"lon":5.409946,"is_reserved":false,"is_disabled":false,"rental_uris":{"android":"levelo://app?vid=02895370-c40c-4c5d-869e-dbb8ac908e5c","ios":"levelo://app?vid=02895370-c40c-4c5d-869e-dbb8ac908e5c"},"vehicle_type_id":"4","last_reported":1732882717,"current_range_meters":40000,"station_id":"ce4bhl12rcd13ifvqgf0","pricing_plan_id":"cebpf4jnsgd1na2vs0mg"},{"bike_id":"9009be37-c6b1-406b-b0a8-fbab355f715e","system_id":"levelo_inurba_marseille","lat":43.33767,"lon":5.37492,"is_reserved":false,"is_disabled":false,"rental_uris":{"android":"levelo://app?vid=9009be37-c6b1-406b-b0a8-fbab355f715e","ios":"levelo://app?vid=9009be37-c6b1-406b-b0a8-fbab355f715e"},"vehicle_type_id":"4","last_reported":1732882717,"current_range_meters":36800,"station_id":"","pricing_plan_id":"cebpf4jnsgd1na2vs0mg"},{"bike_id":"13920883-c13d-4762-9829-9e55b17413c2","system_id":"levelo_inurba_marseille","lat":43.27498,"lon":5.4245,"is_reserved":false,"is_disabled":false,"rental_uris":{"android":"levelo://app?vid=13920883-c13d-4762-9829-9e55b17413c2","ios":"levelo://app?vid=13920883-c13d-4762-9829-9e55b17413c2"},"vehicle_type_id":"4","last_reported":1732882717,"current_range_meters":15200,"station_id":"ce4bhn92rcd13ifvqgrg","pricing_plan_id":"cebpf4jnsgd1na2vs0mg"},{"bike_id":"5b19fdd8-7af2-4dcf-91cb-f9ee5bb5e91a","system_id":"levelo_inurba_marseille","lat":43.29167,"lon":5.37153,"is_reserved":false,"is_disabled":true,"rental_uris":{"android":"levelo://app?vid=5b19fdd8-7af2-4dcf-91cb-f9ee5bb5e91a","ios":"levelo://app?vid=5b19fdd8-7af2-4dcf-91cb-f9ee5bb5e91a"},"vehicle_type_id":"4","last_reported":1732882717,"current_range_meters":24000,"station_id":"ce4bha92rcd13ifvqeh0","pricing_plan_id":"cebpf4jnsgd1na2vs0mg"},{"bike_id":"cca576eb-d842-4fcf-a853-c510b487fd80","system_id":"levelo_inurba_marseille","lat":43.33616,"lon":5.41035,"is_reserved":false,"is_disabled":true,"rental_uris":{"android":"levelo://app?vid=cca576eb-d842-4fcf-a853-c510b487fd80","ios":"levelo://app?vid=cca576eb-d842-4fcf-a853-c510b487fd80"},"vehicle_type_id":"4","last_reported":1732882717,"current_range_meters":25600,"station_id":"ce4bhqh2rcd13ifvqhmg","pricing_plan_id":"cebpf4jnsgd1na2vs0mg"},{"bike_id":"be1ea8ae-bb6c-4cc9-9878-4dd6e7c328d6","system_id":"levelo_inurba_marseille","lat":43.32106,"lon":5.36769,"is_reserved":false,"is_disabled":false,"rental_uris":{"android":"levelo://app?vid=be1ea8ae-bb6c-4cc9-9878-4dd6e7c328d6","ios":"levelo://app?vid=be1ea8ae-bb6c-4cc9-9878-4dd6e7c328d6"},"vehicle_type_id":"4","last_reported":1732882717,"current_range_meters":36000,"station_id":"ce4bhrh2rcd13ifvqhug","pricing_plan_id":"cebpf4jnsgd1na2vs0mg"},{"bike_id":"9589002c-1bab-46c5-9d09-a7efb8d9d194","system_id":"levelo_inurba_marseille","lat":43.28474,"lon":5.34991,"is_reserved":false,"is_disabled":false,"rental_uris":{"android":"levelo://app?vid=9589002c-1bab-46c5-9d09-a7efb8d9d194","ios":"levelo://app?vid=9589002c-1bab-46c5-9d09-a7efb8d9d194"},"vehicle_type_id":"4","last_reported":1732882717,"current_range_meters":21600,"station_id":"","pricing_plan_id":"cebpf4jnsgd1na2vs0mg"},{"bike_id":"42829c7e-d580-49fe-90e8-d06404203957","system_id":"levelo_inurba_marseille","lat":43.29619,"lon":5.37171,"is_reserved":false,"is_disabled":false,"rental_uris":{"android":"levelo://app?vid=42829c7e-d580-49fe-90e8-d06404203957","ios":"levelo://app?vid=42829c7e-d580-49fe-90e8-d06404203957"},"vehicle_type_id":"4","last_reported":1732882717,"current_range_meters":33200,"station_id":"ce4bgnh2rcd13ifvqc0g","pricing_plan_id":"cebpf4jnsgd1na2vs0mg"},{"bike_id":"77be03dd-3d99-4535-adc0-1c7477c4a3a3","system_id":"levelo_inurba_marseille","lat":43.32292,"lon":5.38264,"is_reserved":false,"is_disabled":false,"rental_uris":{"android":"levelo://app?vid=77be03dd-3d99-4535-adc0-1c7477c4a3a3","ios":"levelo://app?vid=77be03dd-3d99-4535-adc0-1c7477c4a3a3"},"vehicle_type_id":"4","last_reported":1732882717,"current_range_meters":23200,"station_id":"ce4bhr12rcd13ifvqhqg","pricing_plan_id":"cebpf4jnsgd1na2vs0mg"},{"bike_id":"e7a47070-ab70-4185-9b1c-3806811206dd","system_id":"levelo_inurba_marseille","lat":43.25087,"lon":5.39523,"is_reserved":false,"is_disabled":false,"rental_uris":{"android":"levelo://app?vid=e7a47070-ab70-4185-9b1c-3806811206dd","ios":"levelo://app?vid=e7a47070-ab70-4185-9b1c-3806811206dd"},"vehicle_type_id":"4","last_reported":1732882717,"current_range_meters":26800,"station_id":"ce4bhm12rcd13ifvqgkg","pricing_plan_id":"cebpf4jnsgd1na2vs0mg"},{"bike_id":"4cd79fb1-29e9-4453-8446-eea81ab019c0","system_id":"levelo_inurba_marseille","lat":43.33758,"lon":5.374802,"is_reserved":false,"is_disabled":false,"rental_uris":{"android":"levelo://app?vid=4cd79fb1-29e9-4453-8446-eea81ab019c0","ios":"levelo://app?vid=4cd79fb1-29e9-4453-8446-eea81ab019c0"},"vehicle_type_id":"4","last_reported":1732882717,"current_range_meters":16400,"station_id":"","pricing_plan_id":"cebpf4jnsgd1na2vs0mg"},{"bike_id":"2f540c50-095f-43f8-ac07-9abddc03635b","system_id":"levelo_inurba_marseille","lat":43.30452,"lon":5.37897,"is_reserved":false,"is_disabled":false,"rental_uris":{"android":"levelo://app?vid=2f540c50-095f-43f8-ac07-9abddc03635b","ios":"levelo://app?vid=2f540c50-095f-43f8-ac07-9abddc03635b"},"vehicle_type_id":"4","last_reported":1732882717,"current_range_meters":18000,"station_id":"ce4bgup2rcd13ifvqcn0","pricing_plan_id":"cebpf4jnsgd1na2vs0mg"},{"bike_id":"7d6f967b-d913-4f33-acab-07b2fb3f4857","system_id":"levelo_inurba_marseille","lat":43.26567,"lon":5.39002,"is_reserved":false,"is_disabled":false,"rental_uris":{"android":"levelo://app?vid=7d6f967b-d913-4f33-acab-07b2fb3f4857","ios":"levelo://app?vid=7d6f967b-d913-4f33-acab-07b2fb3f4857"},"vehicle_type_id":"4","last_reported":1732882717,"current_range_meters":38400,"station_id":"ce4bhe12rcd13ifvqf30","pricing_plan_id":"cebpf4jnsgd1na2vs0mg"},{"bike_id":"f62a5fa2-9173-4ac1-b63a-4a63811fbef9","system_id":"levelo_inurba_marseille","lat":43.25928,"lon":5.40913,"is_reserved":false,"is_disabled":false,"rental_uris":{"android":"levelo://app?vid=f62a5fa2-9173-4ac1-b63a-4a63811fbef9","ios":"levelo://app?vid=f62a5fa2-9173-4ac1-b63a-4a63811fbef9"},"vehicle_type_id":"4","last_reported":1732882717,"current_range_meters":19600,"station_id":"ce4bhm92rcd13ifvqglg","pricing_plan_id":"cebpf4jnsgd1na2vs0mg"},{"bike_id":"e35e4fa5-0730-47b3-a40a-d70e6137fcb0","system_id":"levelo_inurba_marseille","lat":43.27169,"lon":5.40993,"is_reserved":false,"is_disabled":false,"rental_uris":{"android":"levelo://app?vid=e35e4fa5-0730-47b3-a40a-d70e6137fcb0","ios":"levelo://app?vid=e35e4fa5-0730-47b3-a40a-d70e6137fcb0"},"vehicle_type_id":"4","last_reported":1732882717,"current_range_meters":33600,"station_id":"ce4bhl12rcd13ifvqgf0","pricing_plan_id":"cebpf4jnsgd1na2vs0mg"},{"bike_id":"e8fa7be1-2407-41a7-b843-e7c70f1917ef","system_id":"levelo_inurba_marseille","lat":43.2761,"lon":5.36109,"is_reserved":false,"is_disabled":true,"rental_uris":{"android":"levelo://app?vid=e8fa7be1-2407-41a7-b843-e7c70f1917ef","ios":"levelo://app?vid=e8fa7be1-2407-41a7-b843-e7c70f1917ef"},"vehicle_type_id":"4","last_reported":1732882717,"current_range_meters":0,"station_id":"ce4bgj92rcd13ifvqbe0","pricing_plan_id":"cebpf4jnsgd1na2vs0mg"},{"bike_id":"b2dd31ad-4169-4a2b-87da-c06c0880256c","system_id":"levelo_inurba_marseille","lat":43.26564,"lon":5.38976,"is_reserved":false,"is_disabled":false,"rental_uris":{"android":"levelo://app?vid=b2dd31ad-4169-4a2b-87da-c06c0880256c","ios":"levelo://app?vid=b2dd31ad-4169-4a2b-87da-c06c0880256c"},"vehicle_type_id":"4","last_reported":1732882717,"current_range_meters":2800,"station_id":"ce4bhe12rcd13ifvqf30","pricing_plan_id":"cebpf4jnsgd1na2vs0mg"},{"bike_id":"222ca4c9-5039-4d62-bf5f-608f0d2ab45e","system_id":"levelo_inurba_marseille","lat":43.26513,"lon":5.37965,"is_reserved":false,"is_disabled":false,"rental_uris":{"android":"levelo://app?vid=222ca4c9-5039-4d62-bf5f-608f0d2ab45e","ios":"levelo://app?vid=222ca4c9-5039-4d62-bf5f-608f0d2ab45e"},"vehicle_type_id":"4","last_reported":1732882717,"current_range_meters":26000,"station_id":"ce4bhah2rcd13ifvqei0","pricing_plan_id":"cebpf4jnsgd1na2vs0mg"},{"bike_id":"d6a0ff66-87dd-49de-a09b-bea530d1c972","system_id":"levelo_inurba_marseille","lat":43.25576,"lon":5.38245,"is_reserved":false,"is_disabled":true,"rental_uris":{"android":"levelo://app?vid=d6a0ff66-87dd-49de-a09b-bea530d1c972","ios":"levelo://app?vid=d6a0ff66-87dd-49de-a09b-bea530d1c972"},"vehicle_type_id":"4","last_reported":1732882717,"current_range_meters":33200,"station_id":"ce4bhih2rcd13ifvqfs0","pricing_plan_id":"cebpf4jnsgd1na2vs0mg"},{"bike_id":"c6987b7c-0a57-4f2a-9f67-21aaa65411ee","system_id":"levelo_inurba_marseille","lat":43.32285,"lon":5.3828,"is_reserved":false,"is_disabled":false,"rental_uris":{"android":"levelo://app?vid=c6987b7c-0a57-4f2a-9f67-21aaa65411ee","ios":"levelo://app?vid=c6987b7c-0a57-4f2a-9f67-21aaa65411ee"},"vehicle_type_id":"4","last_reported":1732882717,"current_range_meters":26800,"station_id":"ce4bhr12rcd13ifvqhqg","pricing_plan_id":"cebpf4jnsgd1na2vs0mg"},{"bike_id":"b67592a3-7acc-44f1-b820-d9f27a448bb7","system_id":"levelo_inurba_marseille","lat":43.30945,"lon":5.39031,"is_reserved":false,"is_disabled":false,"rental_uris":{"android":"levelo://app?vid=b67592a3-7acc-44f1-b820-d9f27a448bb7","ios":"levelo://app?vid=b67592a3-7acc-44f1-b820-d9f27a448bb7"},"vehicle_type_id":"4","last_reported":1732882717,"current_range_meters":7200,"station_id":"ce4bgup2rcd13ifvqco0","pricing_plan_id":"cebpf4jnsgd1na2vs0mg"},{"bike_id":"e2fccdcc-8621-4fe7-9271-7b51c683628c","system_id":"levelo_inurba_marseille","lat":43.30536,"lon":5.36543,"is_reserved":false,"is_disabled":false,"rental_uris":{"android":"levelo://app?vid=e2fccdcc-8621-4fe7-9271-7b51c683628c","ios":"levelo://app?vid=e2fccdcc-8621-4fe7-9271-7b51c683628c"},"vehicle_type_id":"4","last_reported":1732882717,"current_range_meters":24400,"station_id":"ce4bgs12rcd13ifvqcag","pricing_plan_id":"cebpf4jnsgd1na2vs0mg"},{"bike_id":"3ca8d527-6c31-4160-8bc9-0dbae13780f9","system_id":"levelo_inurba_marseille","lat":43.28468,"lon":5.35892,"is_reserved":false,"is_disabled":true,"rental_uris":{"android":"levelo://app?vid=3ca8d527-6c31-4160-8bc9-0dbae13780f9","ios":"levelo://app?vid=3ca8d527-6c31-4160-8bc9-0dbae13780f9"},"vehicle_type_id":"4","last_reported":1732882717,"current_range_meters":23200,"station_id":"ce4bhah2rcd13ifvqei0","pricing_plan_id":"cebpf4jnsgd1na2vs0mg"},{"bike_id":"325fbcc4-a4bc-43ae-8d64-c177be6e0441","system_id":"levelo_inurba_marseille","lat":43.27998,"lon":5.41656,"is_reserved":false,"is_disabled":false,"rental_uris":{"android":"levelo://app?vid=325fbcc4-a4bc-43ae-8d64-c177be6e0441","ios":"levelo://app?vid=325fbcc4-a4bc-43ae-8d64-c177be6e0441"},"vehicle_type_id":"4","last_reported":1732882717,"current_range_meters":30400,"station_id":"ce4bho12rcd13ifvqh1g","pricing_plan_id":"cebpf4jnsgd1na2vs0mg"},{"bike_id":"a985c880-13b0-471f-be68-7059b51df585","system_id":"levelo_inurba_marseille","lat":43.26802,"lon":5.40277,"is_reserved":false,"is_disabled":true,"rental_uris":{"android":"levelo://app?vid=a985c880-13b0-471f-be68-7059b51df585","ios":"levelo://app?vid=a985c880-13b0-471f-be68-7059b51df585"},"vehicle_type_id":"4","last_reported":1732882717,"current_range_meters":1200,"station_id":"ce501612rcd8frsf0b60","pricing_plan_id":"cebpf4jnsgd1na2vs0mg"},{"bike_id":"d6a1032f-e325-4965-8989-4bc9ee38f956","system_id":"levelo_inurba_marseille","lat":43.2937,"lon":5.3785,"is_reserved":false,"is_disabled":false,"rental_uris":{"android":"levelo://app?vid=d6a1032f-e325-4965-8989-4bc9ee38f956","ios":"levelo://app?vid=d6a1032f-e325-4965-8989-4bc9ee38f956"},"vehicle_type_id":"4","last_reported":1732882717,"current_range_meters":38400,"station_id":"ce4bgjh2rcd13ifvqbf0","pricing_plan_id":"cebpf4jnsgd1na2vs0mg"},{"bike_id":"16fb8e17-b179-4d5a-add7-fbd05efe76fb","system_id":"levelo_inurba_marseille","lat":43.25927,"lon":5.40906,"is_reserved":false,"is_disabled":true,"rental_uris":{"android":"levelo://app?vid=16fb8e17-b179-4d5a-add7-fbd05efe76fb","ios":"levelo://app?vid=16fb8e17-b179-4d5a-add7-fbd05efe76fb"},"vehicle_type_id":"4","last_reported":1732882717,"current_range_meters":14000,"station_id":"ce4bhm92rcd13ifvqglg","pricing_plan_id":"cebpf4jnsgd1na2vs0mg"},{"bike_id":"0ac80eb5-e942-4565-93e8-3e9a32cfbdc4","system_id":"levelo_inurba_marseille","lat":43.29623,"lon":5.3717,"is_reserved":false,"is_disabled":false,"rental_uris":{"android":"levelo://app?vid=0ac80eb5-e942-4565-93e8-3e9a32cfbdc4","ios":"levelo://app?vid=0ac80eb5-e942-4565-93e8-3e9a32cfbdc4"},"vehicle_type_id":"4","last_reported":1732882717,"current_range_meters":38000,"station_id":"ce4bgnh2rcd13ifvqc0g","pricing_plan_id":"cebpf4jnsgd1na2vs0mg"},{"bike_id":"4c102127-2cfd-445c-b7a4-d328f721a050","system_id":"levelo_inurba_marseille","lat":43.30435,"lon":5.38898,"is_reserved":false,"is_disabled":false,"rental_uris":{"android":"levelo://app?vid=4c102127-2cfd-445c-b7a4-d328f721a050","ios":"levelo://app?vid=4c102127-2cfd-445c-b7a4-d328f721a050"},"vehicle_type_id":"4","last_reported":1732882717,"current_range_meters":37600,"station_id":"ce4bgk12rcd13ifvqbi0","pricing_plan_id":"cebpf4jnsgd1na2vs0mg"},{"bike_id":"12132080-fff1-4859-bd32-cd136265b927","system_id":"levelo_inurba_marseille","lat":43.25868,"lon":5.39899,"is_reserved":false,"is_disabled":false,"rental_uris":{"android":"levelo://app?vid=12132080-fff1-4859-bd32-cd136265b927","ios":"levelo://app?vid=12132080-fff1-4859-bd32-cd136265b927"},"vehicle_type_id":"4","last_reported":1732882717,"current_range_meters":27600,"station_id":"ce4bhl92rcd13ifvqghg","pricing_plan_id":"cebpf4jnsgd1na2vs0mg"},{"bike_id":"9bf73d1f-8694-4aaa-a0cc-0dc4f02394d3","system_id":"levelo_inurba_marseille","lat":43.27422,"lon":5.39417,"is_reserved":false,"is_disabled":true,"rental_uris":{"android":"levelo://app?vid=9bf73d1f-8694-4aaa-a0cc-0dc4f02394d3","ios":"levelo://app?vid=9bf73d1f-8694-4aaa-a0cc-0dc4f02394d3"},"vehicle_type_id":"4","last_reported":1732882717,"current_range_meters":31200,"station_id":"ce4bhdp2rcd13ifvqf20","pricing_plan_id":"cebpf4jnsgd1na2vs0mg"},{"bike_id":"746d3c0d-a266-464f-aef4-e56a74931f65","system_id":"levelo_inurba_marseille","lat":43.24389,"lon":5.3706,"is_reserved":false,"is_disabled":false,"rental_uris":{"android":"levelo://app?vid=746d3c0d-a266-464f-aef4-e56a74931f65","ios":"levelo://app?vid=746d3c0d-a266-464f-aef4-e56a74931f65"},"vehicle_type_id":"4","last_reported":1732882717,"current_range_meters":13600,"station_id":"ce4bhhh2rcd13ifvqfk0","pricing_plan_id":"cebpf4jnsgd1na2vs0mg"},{"bike_id":"87a20c3c-65d4-407c-8eaf-fd2e0980a57a","system_id":"levelo_inurba_marseille","lat":43.33111,"lon":5.38227,"is_reserved":false,"is_disabled":false,"rental_uris":{"android":"levelo://app?vid=87a20c3c-65d4-407c-8eaf-fd2e0980a57a","ios":"levelo://app?vid=87a20c3c-65d4-407c-8eaf-fd2e0980a57a"},"vehicle_type_id":"4","last_reported":1732882717,"current_range_meters":16400,"station_id":"","pricing_plan_id":"cebpf4jnsgd1na2vs0mg"},{"bike_id":"a99e441f-fcb3-4edf-8132-a5c34ea369bf","system_id":"levelo_inurba_marseille","lat":43.26946,"lon":5.40239,"is_reserved":false,"is_disabled":true,"rental_uris":{"android":"levelo://app?vid=a99e441f-fcb3-4edf-8132-a5c34ea369bf","ios":"levelo://app?vid=a99e441f-fcb3-4edf-8132-a5c34ea369bf"},"vehicle_type_id":"4","last_reported":1732882717,"current_range_meters":800,"station_id":"cjm6bp8fraef2m0cb0m0","pricing_plan_id":"cebpf4jnsgd1na2vs0mg"},{"bike_id":"91475a11-c126-482c-88c0-39201ca2c9ce","system_id":"levelo_inurba_marseille","lat":43.28273,"lon":5.35067,"is_reserved":false,"is_disabled":false,"rental_uris":{"android":"levelo://app?vid=91475a11-c126-482c-88c0-39201ca2c9ce","ios":"levelo://app?vid=91475a11-c126-482c-88c0-39201ca2c9ce"},"vehicle_type_id":"4","last_reported":1732882717,"current_range_meters":35600,"station_id":"ce4bhbp2rcd13ifvqerg","pricing_plan_id":"cebpf4jnsgd1na2vs0mg"},{"bike_id":"47c72c6e-ad28-46fd-9c1a-57fe666b255c","system_id":"levelo_inurba_marseille","lat":43.29976,"lon":5.38492,"is_reserved":false,"is_disabled":false,"rental_uris":{"android":"levelo://app?vid=47c72c6e-ad28-46fd-9c1a-57fe666b255c","ios":"levelo://app?vid=47c72c6e-ad28-46fd-9c1a-57fe666b255c"},"vehicle_type_id":"4","last_reported":1732882717,"current_range_meters":9200,"station_id":"ce4bgj92rcd13ifvqbd0","pricing_plan_id":"cebpf4jnsgd1na2vs0mg"},{"bike_id":"90a7d43f-53fe-4889-9259-8a8be20683a4","system_id":"levelo_inurba_marseille","lat":43.31274,"lon":5.4017,"is_reserved":false,"is_disabled":true,"rental_uris":{"android":"levelo://app?vid=90a7d43f-53fe-4889-9259-8a8be20683a4","ios":"levelo://app?vid=90a7d43f-53fe-4889-9259-8a8be20683a4"},"vehicle_type_id":"4","last_reported":1732882717,"current_range_meters":1600,"station_id":"ce4bh092rcd13ifvqd30","pricing_plan_id":"cebpf4jnsgd1na2vs0mg"},{"bike_id":"dfd24468-d253-490a-9795-f32c6d161b67","system_id":"levelo_inurba_marseille","lat":43.26558,"lon":5.37284,"is_reserved":false,"is_disabled":false,"rental_uris":{"android":"levelo://app?vid=dfd24468-d253-490a-9795-f32c6d161b67","ios":"levelo://app?vid=dfd24468-d253-490a-9795-f32c6d161b67"},"vehicle_type_id":"4","last_reported":1732882717,"current_range_meters":13600,"station_id":"ce4bhg12rcd13ifvqf70","pricing_plan_id":"cebpf4jnsgd1na2vs0mg"},{"bike_id":"6eaf9167-5116-4163-8b77-e0e9e5b35c42","system_id":"levelo_inurba_marseille","lat":43.2397,"lon":5.36624,"is_reserved":false,"is_disabled":false,"rental_uris":{"android":"levelo://app?vid=6eaf9167-5116-4163-8b77-e0e9e5b35c42","ios":"levelo://app?vid=6eaf9167-5116-4163-8b77-e0e9e5b35c42"},"vehicle_type_id":"4","last_reported":1732882717,"current_range_meters":37600,"station_id":"ce4bhi12rcd13ifvqfp0","pricing_plan_id":"cebpf4jnsgd1na2vs0mg"},{"bike_id":"81d9f7be-c3c6-4233-bf11-948e6f22debc","system_id":"levelo_inurba_marseille","lat":43.32365,"lon":5.38877,"is_reserved":false,"is_disabled":false,"rental_uris":{"android":"levelo://app?vid=81d9f7be-c3c6-4233-bf11-948e6f22debc","ios":"levelo://app?vid=81d9f7be-c3c6-4233-bf11-948e6f22debc"},"vehicle_type_id":"4","last_reported":1732882717,"current_range_meters":36800,"station_id":"ce4bhqp2rcd13ifvqhog","pricing_plan_id":"cebpf4jnsgd1na2vs0mg"},{"bike_id":"e23cecb0-b499-419c-950e-c8fa40b5b9f1","system_id":"levelo_inurba_marseille","lat":43.29586,"lon":5.36735,"is_reserved":false,"is_disabled":false,"rental_uris":{"android":"levelo://app?vid=e23cecb0-b499-419c-950e-c8fa40b5b9f1","ios":"levelo://app?vid=e23cecb0-b499-419c-950e-c8fa40b5b9f1"},"vehicle_type_id":"4","last_reported":1732882717,"current_range_meters":37600,"station_id":"ce4bgph2rcd13ifvqc2g","pricing_plan_id":"cebpf4jnsgd1na2vs0mg"},{"bike_id":"d9a9d031-da0e-46d5-8585-9b76c9b747e7","system_id":"levelo_inurba_marseille","lat":43.30275,"lon":5.37708,"is_reserved":false,"is_disabled":false,"rental_uris":{"android":"levelo://app?vid=d9a9d031-da0e-46d5-8585-9b76c9b747e7","ios":"levelo://app?vid=d9a9d031-da0e-46d5-8585-9b76c9b747e7"},"vehicle_type_id":"4","last_reported":1732882717,"current_range_meters":19200,"station_id":"ce4bguh2rcd13ifvqcj0","pricing_plan_id":"cebpf4jnsgd1na2vs0mg"},{"bike_id":"29a80c71-9648-4a26-b6c9-5f69092eaa01","system_id":"levelo_inurba_marseille","lat":43.27067,"lon":5.42273,"is_reserved":false,"is_disabled":true,"rental_uris":{"android":"levelo://app?vid=29a80c71-9648-4a26-b6c9-5f69092eaa01","ios":"levelo://app?vid=29a80c71-9648-4a26-b6c9-5f69092eaa01"},"vehicle_type_id":"4","last_reported":1732882717,"current_range_meters":38800,"station_id":"ce4bhk92rcd13ifvqgb0","pricing_plan_id":"cebpf4jnsgd1na2vs0mg"},{"bike_id":"6b5ae9b2-9f78-478e-91ff-69b4270219f1","system_id":"levelo_inurba_marseille","lat":43.28276,"lon":5.35079,"is_reserved":false,"is_disabled":false,"rental_uris":{"android":"levelo://app?vid=6b5ae9b2-9f78-478e-91ff-69b4270219f1","ios":"levelo://app?vid=6b5ae9b2-9f78-478e-91ff-69b4270219f1"},"vehicle_type_id":"4","last_reported":1732882717,"current_range_meters":39200,"station_id":"ce4bhbp2rcd13ifvqerg","pricing_plan_id":"cebpf4jnsgd1na2vs0mg"},{"bike_id":"2a60fd72-9cfa-415f-937e-d89edec4f374","system_id":"levelo_inurba_marseille","lat":43.25005,"lon":5.38914,"is_reserved":false,"is_disabled":false,"rental_uris":{"android":"levelo://app?vid=2a60fd72-9cfa-415f-937e-d89edec4f374","ios":"levelo://app?vid=2a60fd72-9cfa-415f-937e-d89edec4f374"},"vehicle_type_id":"4","last_reported":1732882717,"current_range_meters":27600,"station_id":"ce4bhgp2rcd13ifvqfd0","pricing_plan_id":"cebpf4jnsgd1na2vs0mg"},{"bike_id":"5b6140a7-7f65-4ca3-a3f2-419ab04c93da","system_id":"levelo_inurba_marseille","lat":43.22929,"lon":5.35377,"is_reserved":false,"is_disabled":false,"rental_uris":{"android":"levelo://app?vid=5b6140a7-7f65-4ca3-a3f2-419ab04c93da","ios":"levelo://app?vid=5b6140a7-7f65-4ca3-a3f2-419ab04c93da"},"vehicle_type_id":"4","last_reported":1732882717,"current_range_meters":27600,"station_id":"cpo3532slgdg3j2ikp40","pricing_plan_id":"cebpf4jnsgd1na2vs0mg"},{"bike_id":"8929ecb1-9b5b-482d-aeb6-84fb36203fca","system_id":"levelo_inurba_marseille","lat":43.23969,"lon":5.36633,"is_reserved":false,"is_disabled":false,"rental_uris":{"android":"levelo://app?vid=8929ecb1-9b5b-482d-aeb6-84fb36203fca","ios":"levelo://app?vid=8929ecb1-9b5b-482d-aeb6-84fb36203fca"},"vehicle_type_id":"4","last_reported":1732882717,"current_range_meters":6800,"station_id":"ce4bhi12rcd13ifvqfp0","pricing_plan_id":"cebpf4jnsgd1na2vs0mg"},{"bike_id":"f511c16e-f452-4111-a8f2-a022c8becb1b","system_id":"levelo_inurba_marseille","lat":43.29523,"lon":5.38545,"is_reserved":false,"is_disabled":true,"rental_uris":{"android":"levelo://app?vid=f511c16e-f452-4111-a8f2-a022c8becb1b","ios":"levelo://app?vid=f511c16e-f452-4111-a8f2-a022c8becb1b"},"vehicle_type_id":"4","last_reported":1732882717,"current_range_meters":1200,"station_id":"ce4bgih2rcd13ifvqba0","pricing_plan_id":"cebpf4jnsgd1na2vs0mg"},{"bike_id":"414ced6b-9457-41ed-a305-11df89f57c01","system_id":"levelo_inurba_marseille","lat":43.34144,"lon":5.40905,"is_reserved":false,"is_disabled":false,"rental_uris":{"android":"levelo://app?vid=414ced6b-9457-41ed-a305-11df89f57c01","ios":"levelo://app?vid=414ced6b-9457-41ed-a305-11df89f57c01"},"vehicle_type_id":"4","last_reported":1732882717,"current_range_meters":7200,"station_id":"ce4bhqh2rcd13ifvqhlg","pricing_plan_id":"cebpf4jnsgd1na2vs0mg"},{"bike_id":"3c64f8f1-3727-4982-81f9-5cd249dfa582","system_id":"levelo_inurba_marseille","lat":43.30216,"lon":5.36633,"is_reserved":false,"is_disabled":false,"rental_uris":{"android":"levelo://app?vid=3c64f8f1-3727-4982-81f9-5cd249dfa582","ios":"levelo://app?vid=3c64f8f1-3727-4982-81f9-5cd249dfa582"},"vehicle_type_id":"4","last_reported":1732882717,"current_range_meters":28400,"station_id":"ce4bgrh2rcd13ifvqc8g","pricing_plan_id":"cebpf4jnsgd1na2vs0mg"},{"bike_id":"a3755a7d-fb5e-4354-879f-d4c5dfa884b0","system_id":"levelo_inurba_marseille","lat":43.2761,"lon":5.3612,"is_reserved":false,"is_disabled":false,"rental_uris":{"android":"levelo://app?vid=a3755a7d-fb5e-4354-879f-d4c5dfa884b0","ios":"levelo://app?vid=a3755a7d-fb5e-4354-879f-d4c5dfa884b0"},"vehicle_type_id":"4","last_reported":1732882717,"current_range_meters":27600,"station_id":"ce4bgj92rcd13ifvqbe0","pricing_plan_id":"cebpf4jnsgd1na2vs0mg"},{"bike_id":"759518f4-9f32-4b72-97fe-df61c6c7bd05","system_id":"levelo_inurba_marseille","lat":43.31075,"lon":5.40091,"is_reserved":false,"is_disabled":false,"rental_uris":{"android":"levelo://app?vid=759518f4-9f32-4b72-97fe-df61c6c7bd05","ios":"levelo://app?vid=759518f4-9f32-4b72-97fe-df61c6c7bd05"},"vehicle_type_id":"4","last_reported":1732882717,"current_range_meters":7200,"station_id":"","pricing_plan_id":"cebpf4jnsgd1na2vs0mg"},{"bike_id":"676eaa99-8f60-4d7b-a638-dd0dcbaeede0","system_id":"levelo_inurba_marseille","lat":43.25005,"lon":5.38931,"is_reserved":false,"is_disabled":false,"rental_uris":{"android":"levelo://app?vid=676eaa99-8f60-4d7b-a638-dd0dcbaeede0","ios":"levelo://app?vid=676eaa99-8f60-4d7b-a638-dd0dcbaeede0"},"vehicle_type_id":"4","last_reported":1732882717,"current_range_meters":36000,"station_id":"ce4bhgp2rcd13ifvqfd0","pricing_plan_id":"cebpf4jnsgd1na2vs0mg"},{"bike_id":"01358c9b-026e-432a-a0de-0670a5f1398a","system_id":"levelo_inurba_marseille","lat":43.3133,"lon":5.39697,"is_reserved":false,"is_disabled":false,"rental_uris":{"android":"levelo://app?vid=01358c9b-026e-432a-a0de-0670a5f1398a","ios":"levelo://app?vid=01358c9b-026e-432a-a0de-0670a5f1398a"},"vehicle_type_id":"4","last_reported":1732882717,"current_range_meters":9600,"station_id":"ce4bgvp2rcd13ifvqcu0","pricing_plan_id":"cebpf4jnsgd1na2vs0mg"},{"bike_id":"4c04fb93-c8d9-42a2-9ac3-98af0f54d0f9","system_id":"levelo_inurba_marseille","lat":43.30133,"lon":5.38784,"is_reserved":false,"is_disabled":false,"rental_uris":{"android":"levelo://app?vid=4c04fb93-c8d9-42a2-9ac3-98af0f54d0f9","ios":"levelo://app?vid=4c04fb93-c8d9-42a2-9ac3-98af0f54d0f9"},"vehicle_type_id":"4","last_reported":1732882717,"current_range_meters":8400,"station_id":"ce4bghh2rcd13ifvqb60","pricing_plan_id":"cebpf4jnsgd1na2vs0mg"},{"bike_id":"0631c7b3-dcd6-423a-b870-36ebe59297c3","system_id":"levelo_inurba_marseille","lat":43.30894,"lon":5.36842,"is_reserved":false,"is_disabled":false,"rental_uris":{"android":"levelo://app?vid=0631c7b3-dcd6-423a-b870-36ebe59297c3","ios":"levelo://app?vid=0631c7b3-dcd6-423a-b870-36ebe59297c3"},"vehicle_type_id":"4","last_reported":1732882717,"current_range_meters":38800,"station_id":"ce4bgn92rcd13ifvqbvg","pricing_plan_id":"cebpf4jnsgd1na2vs0mg"},{"bike_id":"06d2e5c9-9797-46cd-8f41-14b5d00f65f9","system_id":"levelo_inurba_marseille","lat":43.27071,"lon":5.4228,"is_reserved":false,"is_disabled":false,"rental_uris":{"android":"levelo://app?vid=06d2e5c9-9797-46cd-8f41-14b5d00f65f9","ios":"levelo://app?vid=06d2e5c9-9797-46cd-8f41-14b5d00f65f9"},"vehicle_type_id":"4","last_reported":1732882717,"current_range_meters":20400,"station_id":"ce4bhk92rcd13ifvqgb0","pricing_plan_id":"cebpf4jnsgd1na2vs0mg"},{"bike_id":"37c0c859-44cd-49e3-a6ea-7136fe89707f","system_id":"levelo_inurba_marseille","lat":43.30927,"lon":5.40145,"is_reserved":false,"is_disabled":false,"rental_uris":{"android":"levelo://app?vid=37c0c859-44cd-49e3-a6ea-7136fe89707f","ios":"levelo://app?vid=37c0c859-44cd-49e3-a6ea-7136fe89707f"},"vehicle_type_id":"4","last_reported":1732882717,"current_range_meters":30000,"station_id":"ce4bgvp2rcd13ifvqct0","pricing_plan_id":"cebpf4jnsgd1na2vs0mg"},{"bike_id":"d8c7679f-3684-4d69-b812-d2c0a727dbfb","system_id":"levelo_inurba_marseille","lat":43.29532,"lon":5.38548,"is_reserved":false,"is_disabled":false,"rental_uris":{"android":"levelo://app?vid=d8c7679f-3684-4d69-b812-d2c0a727dbfb","ios":"levelo://app?vid=d8c7679f-3684-4d69-b812-d2c0a727dbfb"},"vehicle_type_id":"4","last_reported":1732882717,"current_range_meters":20400,"station_id":"ce4bgih2rcd13ifvqba0","pricing_plan_id":"cebpf4jnsgd1na2vs0mg"},{"bike_id":"606f4b92-39a8-4f88-978c-f3ff47b620c4","system_id":"levelo_inurba_marseille","lat":43.27171,"lon":5.4099,"is_reserved":false,"is_disabled":false,"rental_uris":{"android":"levelo://app?vid=606f4b92-39a8-4f88-978c-f3ff47b620c4","ios":"levelo://app?vid=606f4b92-39a8-4f88-978c-f3ff47b620c4"},"vehicle_type_id":"4","last_reported":1732882717,"current_range_meters":25600,"station_id":"ce4bhl12rcd13ifvqgf0","pricing_plan_id":"cebpf4jnsgd1na2vs0mg"},{"bike_id":"d792e28b-3835-4035-b1d5-ba57c26b2d40","system_id":"levelo_inurba_marseille","lat":43.30134,"lon":5.39856,"is_reserved":false,"is_disabled":false,"rental_uris":{"android":"levelo://app?vid=d792e28b-3835-4035-b1d5-ba57c26b2d40","ios":"levelo://app?vid=d792e28b-3835-4035-b1d5-ba57c26b2d40"},"vehicle_type_id":"4","last_reported":1732882717,"current_range_meters":3200,"station_id":"","pricing_plan_id":"cebpf4jnsgd1na2vs0mg"},{"bike_id":"fb910f4e-0ccf-4769-b841-8b1e8c2af886","system_id":"levelo_inurba_marseille","lat":43.30209,"lon":5.36929,"is_reserved":false,"is_disabled":false,"rental_uris":{"android":"levelo://app?vid=fb910f4e-0ccf-4769-b841-8b1e8c2af886","ios":"levelo://app?vid=fb910f4e-0ccf-4769-b841-8b1e8c2af886"},"vehicle_type_id":"4","last_reported":1732882717,"current_range_meters":38000,"station_id":"ce4bha92rcd13ifvqeh0","pricing_plan_id":"cebpf4jnsgd1na2vs0mg"},{"bike_id":"2839c06e-dfc6-4bb4-92dd-cd78c43581f0","system_id":"levelo_inurba_marseille","lat":43.23197,"lon":5.35555,"is_reserved":false,"is_disabled":false,"rental_uris":{"android":"levelo://app?vid=2839c06e-dfc6-4bb4-92dd-cd78c43581f0","ios":"levelo://app?vid=2839c06e-dfc6-4bb4-92dd-cd78c43581f0"},"vehicle_type_id":"4","last_reported":1732882717,"current_range_meters":20000,"station_id":"ce4bhu92rcd13ifvqi70","pricing_plan_id":"cebpf4jnsgd1na2vs0mg"},{"bike_id":"82d7cbd9-0ce0-433f-abd5-66b594c55141","system_id":"levelo_inurba_marseille","lat":43.30955,"lon":5.39035,"is_reserved":false,"is_disabled":false,"rental_uris":{"android":"levelo://app?vid=82d7cbd9-0ce0-433f-abd5-66b594c55141","ios":"levelo://app?vid=82d7cbd9-0ce0-433f-abd5-66b594c55141"},"vehicle_type_id":"4","last_reported":1732882717,"current_range_meters":30000,"station_id":"ce4bgup2rcd13ifvqco0","pricing_plan_id":"cebpf4jnsgd1na2vs0mg"},{"bike_id":"0551ec67-94ad-4fcc-a139-50dc5d1a4e00","system_id":"levelo_inurba_marseille","lat":43.3138,"lon":5.36763,"is_reserved":false,"is_disabled":false,"rental_uris":{"android":"levelo://app?vid=0551ec67-94ad-4fcc-a139-50dc5d1a4e00","ios":"levelo://app?vid=0551ec67-94ad-4fcc-a139-50dc5d1a4e00"},"vehicle_type_id":"4","last_reported":1732882717,"current_range_meters":35200,"station_id":"ce4bgr92rcd13ifvqc6g","pricing_plan_id":"cebpf4jnsgd1na2vs0mg"},{"bike_id":"7789e245-92df-43c2-8166-d6f7ccbd033b","system_id":"levelo_inurba_marseille","lat":43.29164,"lon":5.37923,"is_reserved":false,"is_disabled":true,"rental_uris":{"android":"levelo://app?vid=7789e245-92df-43c2-8166-d6f7ccbd033b","ios":"levelo://app?vid=7789e245-92df-43c2-8166-d6f7ccbd033b"},"vehicle_type_id":"4","last_reported":1732882717,"current_range_meters":6000,"station_id":"","pricing_plan_id":"cebpf4jnsgd1na2vs0mg"},{"bike_id":"bb3a8680-9758-4910-b46f-e4eeb6695671","system_id":"levelo_inurba_marseille","lat":43.306,"lon":5.37218,"is_reserved":false,"is_disabled":false,"rental_uris":{"android":"levelo://app?vid=bb3a8680-9758-4910-b46f-e4eeb6695671","ios":"levelo://app?vid=bb3a8680-9758-4910-b46f-e4eeb6695671"},"vehicle_type_id":"4","last_reported":1732882717,"current_range_meters":39200,"station_id":"ce4bgqh2rcd13ifvqc4g","pricing_plan_id":"cebpf4jnsgd1na2vs0mg"},{"bike_id":"ecc99567-47ff-4c1d-be36-d4ef31337a86","system_id":"levelo_inurba_marseille","lat":43.29024,"lon":5.38128,"is_reserved":false,"is_disabled":false,"rental_uris":{"android":"levelo://app?vid=ecc99567-47ff-4c1d-be36-d4ef31337a86","ios":"levelo://app?vid=ecc99567-47ff-4c1d-be36-d4ef31337a86"},"vehicle_type_id":"4","last_reported":1732882717,"current_range_meters":22000,"station_id":"ce4bh4p2rcd13ifvqe1g","pricing_plan_id":"cebpf4jnsgd1na2vs0mg"},{"bike_id":"fe1c6c60-0f4f-4b5c-a7ea-9f2ff8347245","system_id":"levelo_inurba_marseille","lat":43.27616,"lon":5.36102,"is_reserved":false,"is_disabled":true,"rental_uris":{"android":"levelo://app?vid=fe1c6c60-0f4f-4b5c-a7ea-9f2ff8347245","ios":"levelo://app?vid=fe1c6c60-0f4f-4b5c-a7ea-9f2ff8347245"},"vehicle_type_id":"4","last_reported":1732882717,"current_range_meters":0,"station_id":"ce4bgj92rcd13ifvqbe0","pricing_plan_id":"cebpf4jnsgd1na2vs0mg"},{"bike_id":"c1273547-3d6b-4a56-8c27-39d198530abf","system_id":"levelo_inurba_marseille","lat":43.30603,"lon":5.37235,"is_reserved":false,"is_disabled":false,"rental_uris":{"android":"levelo://app?vid=c1273547-3d6b-4a56-8c27-39d198530abf","ios":"levelo://app?vid=c1273547-3d6b-4a56-8c27-39d198530abf"},"vehicle_type_id":"4","last_reported":1732882717,"current_range_meters":39200,"station_id":"ce4bgqh2rcd13ifvqc4g","pricing_plan_id":"cebpf4jnsgd1na2vs0mg"},{"bike_id":"b453e718-367d-44bc-833a-93c6887bd103","system_id":"levelo_inurba_marseille","lat":43.26806,"lon":5.40264,"is_reserved":false,"is_disabled":false,"rental_uris":{"android":"levelo://app?vid=b453e718-367d-44bc-833a-93c6887bd103","ios":"levelo://app?vid=b453e718-367d-44bc-833a-93c6887bd103"},"vehicle_type_id":"4","last_reported":1732882717,"current_range_meters":38800,"station_id":"ce501612rcd8frsf0b60","pricing_plan_id":"cebpf4jnsgd1na2vs0mg"},{"bike_id":"cba4ab8a-ad2e-4974-9131-6f6e24d5b6ce","system_id":"levelo_inurba_marseille","lat":43.2952,"lon":5.39037,"is_reserved":false,"is_disabled":false,"rental_uris":{"android":"levelo://app?vid=cba4ab8a-ad2e-4974-9131-6f6e24d5b6ce","ios":"levelo://app?vid=cba4ab8a-ad2e-4974-9131-6f6e24d5b6ce"},"vehicle_type_id":"4","last_reported":1732882717,"current_range_meters":19600,"station_id":"ce4bh3p2rcd13ifvqdp0","pricing_plan_id":"cebpf4jnsgd1na2vs0mg"},{"bike_id":"57883350-7ee0-4b23-9fb4-e091ce37b4c3","system_id":"levelo_inurba_marseille","lat":43.27176,"lon":5.41071,"is_reserved":false,"is_disabled":false,"rental_uris":{"android":"levelo://app?vid=57883350-7ee0-4b23-9fb4-e091ce37b4c3","ios":"levelo://app?vid=57883350-7ee0-4b23-9fb4-e091ce37b4c3"},"vehicle_type_id":"4","last_reported":1732882717,"current_range_meters":39200,"station_id":"ce4bhl12rcd13ifvqgf0","pricing_plan_id":"cebpf4jnsgd1na2vs0mg"},{"bike_id":"db281093-f4bd-4ace-8e0c-6bf3e82c532c","system_id":"levelo_inurba_marseille","lat":43.26573,"lon":5.39028,"is_reserved":false,"is_disabled":false,"rental_uris":{"android":"levelo://app?vid=db281093-f4bd-4ace-8e0c-6bf3e82c532c","ios":"levelo://app?vid=db281093-f4bd-4ace-8e0c-6bf3e82c532c"},"vehicle_type_id":"4","last_reported":1732882717,"current_range_meters":38000,"station_id":"ce4bhe12rcd13ifvqf30","pricing_plan_id":"cebpf4jnsgd1na2vs0mg"},{"bike_id":"bcc5f871-247b-47d9-8f48-7c5135d938ce","system_id":"levelo_inurba_marseille","lat":43.27818,"lon":5.40727,"is_reserved":false,"is_disabled":false,"rental_uris":{"android":"levelo://app?vid=bcc5f871-247b-47d9-8f48-7c5135d938ce","ios":"levelo://app?vid=bcc5f871-247b-47d9-8f48-7c5135d938ce"},"vehicle_type_id":"4","last_reported":1732882717,"current_range_meters":6800,"station_id":"ce4bhnh2rcd13ifvqgtg","pricing_plan_id":"cebpf4jnsgd1na2vs0mg"},{"bike_id":"5a2f1235-85ab-4288-b201-67c1080a26ce","system_id":"levelo_inurba_marseille","lat":43.33023,"lon":5.39041,"is_reserved":false,"is_disabled":false,"rental_uris":{"android":"levelo://app?vid=5a2f1235-85ab-4288-b201-67c1080a26ce","ios":"levelo://app?vid=5a2f1235-85ab-4288-b201-67c1080a26ce"},"vehicle_type_id":"4","last_reported":1732882717,"current_range_meters":18800,"station_id":"ce4bhr92rcd13ifvqhrg","pricing_plan_id":"cebpf4jnsgd1na2vs0mg"},{"bike_id":"5cbf1539-18e9-4c34-b3ac-bb7a0181213c","system_id":"levelo_inurba_marseille","lat":43.29926,"lon":5.3654,"is_reserved":false,"is_disabled":false,"rental_uris":{"android":"levelo://app?vid=5cbf1539-18e9-4c34-b3ac-bb7a0181213c","ios":"levelo://app?vid=5cbf1539-18e9-4c34-b3ac-bb7a0181213c"},"vehicle_type_id":"4","last_reported":1732882717,"current_range_meters":37600,"station_id":"ce4bgm92rcd13ifvqbr0","pricing_plan_id":"cebpf4jnsgd1na2vs0mg"},{"bike_id":"43043987-d023-48c4-b123-40588d2dcf10","system_id":"levelo_inurba_marseille","lat":43.2958,"lon":5.37499,"is_reserved":false,"is_disabled":true,"rental_uris":{"android":"levelo://app?vid=43043987-d023-48c4-b123-40588d2dcf10","ios":"levelo://app?vid=43043987-d023-48c4-b123-40588d2dcf10"},"vehicle_type_id":"4","last_reported":1732882717,"current_range_meters":0,"station_id":"ce4bgh92rcd13ifvqb50","pricing_plan_id":"cebpf4jnsgd1na2vs0mg"},{"bike_id":"a7d03a36-f2d2-4ec9-b8cc-dcb186ac26fd","system_id":"levelo_inurba_marseille","lat":43.30537,"lon":5.36706,"is_reserved":false,"is_disabled":true,"rental_uris":{"android":"levelo://app?vid=a7d03a36-f2d2-4ec9-b8cc-dcb186ac26fd","ios":"levelo://app?vid=a7d03a36-f2d2-4ec9-b8cc-dcb186ac26fd"},"vehicle_type_id":"4","last_reported":1732882717,"current_range_meters":37600,"station_id":"ce4bgrp2rcd13ifvqc9g","pricing_plan_id":"cebpf4jnsgd1na2vs0mg"},{"bike_id":"372dcf13-a9c5-4d94-8b71-13decc646750","system_id":"levelo_inurba_marseille","lat":43.30542,"lon":5.36559,"is_reserved":false,"is_disabled":false,"rental_uris":{"android":"levelo://app?vid=372dcf13-a9c5-4d94-8b71-13decc646750","ios":"levelo://app?vid=372dcf13-a9c5-4d94-8b71-13decc646750"},"vehicle_type_id":"4","last_reported":1732882717,"current_range_meters":17200,"station_id":"ce4bgs12rcd13ifvqcag","pricing_plan_id":"cebpf4jnsgd1na2vs0mg"},{"bike_id":"75486131-8e85-4448-87a1-67a7e3096de4","system_id":"levelo_inurba_marseille","lat":43.30943,"lon":5.37913,"is_reserved":false,"is_disabled":true,"rental_uris":{"android":"levelo://app?vid=75486131-8e85-4448-87a1-67a7e3096de4","ios":"levelo://app?vid=75486131-8e85-4448-87a1-67a7e3096de4"},"vehicle_type_id":"4","last_reported":1732882717,"current_range_meters":0,"station_id":"","pricing_plan_id":"cebpf4jnsgd1na2vs0mg"},{"bike_id":"a5909545-3e09-4859-9fda-9ffe4e6e4883","system_id":"levelo_inurba_marseille","lat":43.23066,"lon":5.35491,"is_reserved":false,"is_disabled":false,"rental_uris":{"android":"levelo://app?vid=a5909545-3e09-4859-9fda-9ffe4e6e4883","ios":"levelo://app?vid=a5909545-3e09-4859-9fda-9ffe4e6e4883"},"vehicle_type_id":"4","last_reported":1732882717,"current_range_meters":17600,"station_id":"cpo3342slgdg3j2ifvpg","pricing_plan_id":"cebpf4jnsgd1na2vs0mg"},{"bike_id":"50f7e2aa-92c2-4bd2-a2a0-3b5b70e10fb6","system_id":"levelo_inurba_marseille","lat":43.29707,"lon":5.36622,"is_reserved":false,"is_disabled":false,"rental_uris":{"android":"levelo://app?vid=50f7e2aa-92c2-4bd2-a2a0-3b5b70e10fb6","ios":"levelo://app?vid=50f7e2aa-92c2-4bd2-a2a0-3b5b70e10fb6"},"vehicle_type_id":"4","last_reported":1732882717,"current_range_meters":16400,"station_id":"ce4bgn12rcd13ifvqbt0","pricing_plan_id":"cebpf4jnsgd1na2vs0mg"},{"bike_id":"0cd01837-493c-4f88-b5e4-271606563ea7","system_id":"levelo_inurba_marseille","lat":43.30558,"lon":5.36519,"is_reserved":false,"is_disabled":false,"rental_uris":{"android":"levelo://app?vid=0cd01837-493c-4f88-b5e4-271606563ea7","ios":"levelo://app?vid=0cd01837-493c-4f88-b5e4-271606563ea7"},"vehicle_type_id":"4","last_reported":1732882717,"current_range_meters":27200,"station_id":"ce4bgs12rcd13ifvqcag","pricing_plan_id":"cebpf4jnsgd1na2vs0mg"},{"bike_id":"1f3be82a-39fb-49be-9f70-2df7092d6f3c","system_id":"levelo_inurba_marseille","lat":43.32466,"lon":5.36589,"is_reserved":false,"is_disabled":false,"rental_uris":{"android":"levelo://app?vid=1f3be82a-39fb-49be-9f70-2df7092d6f3c","ios":"levelo://app?vid=1f3be82a-39fb-49be-9f70-2df7092d6f3c"},"vehicle_type_id":"4","last_reported":1732882717,"current_range_meters":12400,"station_id":"ce4bhs12rcd13ifvqhvg","pricing_plan_id":"cebpf4jnsgd1na2vs0mg"},{"bike_id":"8999a3e0-39d6-4830-b0dc-ce22cf610bba","system_id":"levelo_inurba_marseille","lat":43.31234,"lon":5.36859,"is_reserved":false,"is_disabled":false,"rental_uris":{"android":"levelo://app?vid=8999a3e0-39d6-4830-b0dc-ce22cf610bba","ios":"levelo://app?vid=8999a3e0-39d6-4830-b0dc-ce22cf610bba"},"vehicle_type_id":"4","last_reported":1732882717,"current_range_meters":28000,"station_id":"ce4bgl92rcd13ifvqbq0","pricing_plan_id":"cebpf4jnsgd1na2vs0mg"},{"bike_id":"d232b51f-8a91-4fe2-8e93-1d5ea369822b","system_id":"levelo_inurba_marseille","lat":43.23156,"lon":5.43706,"is_reserved":false,"is_disabled":false,"rental_uris":{"android":"levelo://app?vid=d232b51f-8a91-4fe2-8e93-1d5ea369822b","ios":"levelo://app?vid=d232b51f-8a91-4fe2-8e93-1d5ea369822b"},"vehicle_type_id":"4","last_reported":1732882717,"current_range_meters":33200,"station_id":"ce4bhmp2rcd13ifvqgog","pricing_plan_id":"cebpf4jnsgd1na2vs0mg"},{"bike_id":"e5951ee3-4a5a-4ebb-b469-096c5188dfa3","system_id":"levelo_inurba_marseille","lat":43.23192,"lon":5.35545,"is_reserved":false,"is_disabled":false,"rental_uris":{"android":"levelo://app?vid=e5951ee3-4a5a-4ebb-b469-096c5188dfa3","ios":"levelo://app?vid=e5951ee3-4a5a-4ebb-b469-096c5188dfa3"},"vehicle_type_id":"4","last_reported":1732882717,"current_range_meters":24400,"station_id":"ce4bhu92rcd13ifvqi70","pricing_plan_id":"cebpf4jnsgd1na2vs0mg"},{"bike_id":"f9a63393-5401-4f98-ae5a-dfbb8291ab6d","system_id":"levelo_inurba_marseille","lat":43.3005,"lon":5.3754,"is_reserved":false,"is_disabled":true,"rental_uris":{"android":"levelo://app?vid=f9a63393-5401-4f98-ae5a-dfbb8291ab6d","ios":"levelo://app?vid=f9a63393-5401-4f98-ae5a-dfbb8291ab6d"},"vehicle_type_id":"4","last_reported":1732882717,"current_range_meters":0,"station_id":"","pricing_plan_id":"cebpf4jnsgd1na2vs0mg"},{"bike_id":"3a503410-6812-4462-b565-a0f7913050be","system_id":"levelo_inurba_marseille","lat":43.28873,"lon":5.35839,"is_reserved":false,"is_disabled":false,"rental_uris":{"android":"levelo://app?vid=3a503410-6812-4462-b565-a0f7913050be","ios":"levelo://app?vid=3a503410-6812-4462-b565-a0f7913050be"},"vehicle_type_id":"4","last_reported":1732882717,"current_range_meters":17600,"station_id":"ce4bhb12rcd13ifvqem0","pricing_plan_id":"cebpf4jnsgd1na2vs0mg"},{"bike_id":"c51b437c-4418-478e-a34b-878e84842db3","system_id":"levelo_inurba_marseille","lat":43.29691,"lon":5.37693,"is_reserved":false,"is_disabled":false,"rental_uris":{"android":"levelo://app?vid=c51b437c-4418-478e-a34b-878e84842db3","ios":"levelo://app?vid=c51b437c-4418-478e-a34b-878e84842db3"},"vehicle_type_id":"4","last_reported":1732882717,"current_range_meters":35600,"station_id":"ce4bgkh2rcd13ifvqbl0","pricing_plan_id":"cebpf4jnsgd1na2vs0mg"},{"bike_id":"ca4a62cc-0162-4867-baae-5fed586cc0f8","system_id":"levelo_inurba_marseille","lat":43.27176,"lon":5.40993,"is_reserved":false,"is_disabled":false,"rental_uris":{"android":"levelo://app?vid=ca4a62cc-0162-4867-baae-5fed586cc0f8","ios":"levelo://app?vid=ca4a62cc-0162-4867-baae-5fed586cc0f8"},"vehicle_type_id":"4","last_reported":1732882717,"current_range_meters":19600,"station_id":"ce4bhl12rcd13ifvqgf0","pricing_plan_id":"cebpf4jnsgd1na2vs0mg"},{"bike_id":"209edce5-94bd-42b7-894c-233f806592a5","system_id":"levelo_inurba_marseille","lat":43.32355,"lon":5.36755,"is_reserved":false,"is_disabled":false,"rental_uris":{"android":"levelo://app?vid=209edce5-94bd-42b7-894c-233f806592a5","ios":"levelo://app?vid=209edce5-94bd-42b7-894c-233f806592a5"},"vehicle_type_id":"4","last_reported":1732882717,"current_range_meters":35600,"station_id":"ce4bhsh2rcd13ifvqi2g","pricing_plan_id":"cebpf4jnsgd1na2vs0mg"},{"bike_id":"8ecd59cc-f9d8-49fe-a0b7-107d3a6bf517","system_id":"levelo_inurba_marseille","lat":43.31709,"lon":5.37758,"is_reserved":false,"is_disabled":false,"rental_uris":{"android":"levelo://app?vid=8ecd59cc-f9d8-49fe-a0b7-107d3a6bf517","ios":"levelo://app?vid=8ecd59cc-f9d8-49fe-a0b7-107d3a6bf517"},"vehicle_type_id":"4","last_reported":1732882717,"current_range_meters":38000,"station_id":"ce4bgth2rcd13ifvqch0","pricing_plan_id":"cebpf4jnsgd1na2vs0mg"},{"bike_id":"5637f218-5935-4ecf-8d2f-8e866d4ee57b","system_id":"levelo_inurba_marseille","lat":43.28001,"lon":5.41667,"is_reserved":false,"is_disabled":false,"rental_uris":{"android":"levelo://app?vid=5637f218-5935-4ecf-8d2f-8e866d4ee57b","ios":"levelo://app?vid=5637f218-5935-4ecf-8d2f-8e866d4ee57b"},"vehicle_type_id":"4","last_reported":1732882717,"current_range_meters":34000,"station_id":"ce4bho12rcd13ifvqh1g","pricing_plan_id":"cebpf4jnsgd1na2vs0mg"},{"bike_id":"b72e90f4-71f6-4d3c-ae58-52d9ecfbedbb","system_id":"levelo_inurba_marseille","lat":43.2861,"lon":5.35103,"is_reserved":false,"is_disabled":false,"rental_uris":{"android":"levelo://app?vid=b72e90f4-71f6-4d3c-ae58-52d9ecfbedbb","ios":"levelo://app?vid=b72e90f4-71f6-4d3c-ae58-52d9ecfbedbb"},"vehicle_type_id":"4","last_reported":1732882717,"current_range_meters":17200,"station_id":"ce4bhch2rcd13ifvqeug","pricing_plan_id":"cebpf4jnsgd1na2vs0mg"},{"bike_id":"574ba74e-ea23-46d4-a8f2-5a26caa49dfa","system_id":"levelo_inurba_marseille","lat":43.29875,"lon":5.4368,"is_reserved":false,"is_disabled":false,"rental_uris":{"android":"levelo://app?vid=574ba74e-ea23-46d4-a8f2-5a26caa49dfa","ios":"levelo://app?vid=574ba74e-ea23-46d4-a8f2-5a26caa49dfa"},"vehicle_type_id":"4","last_reported":1732882717,"current_range_meters":30000,"station_id":"ce4bhpp2rcd13ifvqhfg","pricing_plan_id":"cebpf4jnsgd1na2vs0mg"},{"bike_id":"de8dedfd-c65e-4ce5-b8ec-b5ab34a22a6e","system_id":"levelo_inurba_marseille","lat":43.27069,"lon":5.42279,"is_reserved":false,"is_disabled":true,"rental_uris":{"android":"levelo://app?vid=de8dedfd-c65e-4ce5-b8ec-b5ab34a22a6e","ios":"levelo://app?vid=de8dedfd-c65e-4ce5-b8ec-b5ab34a22a6e"},"vehicle_type_id":"4","last_reported":1732882717,"current_range_meters":39200,"station_id":"ce4bhk92rcd13ifvqgb0","pricing_plan_id":"cebpf4jnsgd1na2vs0mg"},{"bike_id":"3e0d76c6-1563-4eb9-98eb-27ae3393c569","system_id":"levelo_inurba_marseille","lat":43.26062,"lon":5.39398,"is_reserved":false,"is_disabled":false,"rental_uris":{"android":"levelo://app?vid=3e0d76c6-1563-4eb9-98eb-27ae3393c569","ios":"levelo://app?vid=3e0d76c6-1563-4eb9-98eb-27ae3393c569"},"vehicle_type_id":"4","last_reported":1732882717,"current_range_meters":34000,"station_id":"ce4bhh92rcd13ifvqfj0","pricing_plan_id":"cebpf4jnsgd1na2vs0mg"},{"bike_id":"f576f1ac-9441-4aaf-9239-99d550cb7b55","system_id":"levelo_inurba_marseille","lat":43.31704,"lon":5.37765,"is_reserved":false,"is_disabled":true,"rental_uris":{"android":"levelo://app?vid=f576f1ac-9441-4aaf-9239-99d550cb7b55","ios":"levelo://app?vid=f576f1ac-9441-4aaf-9239-99d550cb7b55"},"vehicle_type_id":"4","last_reported":1732882717,"current_range_meters":28000,"station_id":"ce4bgth2rcd13ifvqch0","pricing_plan_id":"cebpf4jnsgd1na2vs0mg"},{"bike_id":"47a43e08-c0ab-48e4-8264-39798859023a","system_id":"levelo_inurba_marseille","lat":43.2923,"lon":5.36081,"is_reserved":false,"is_disabled":false,"rental_uris":{"android":"levelo://app?vid=47a43e08-c0ab-48e4-8264-39798859023a","ios":"levelo://app?vid=47a43e08-c0ab-48e4-8264-39798859023a"},"vehicle_type_id":"4","last_reported":1732882717,"current_range_meters":24400,"station_id":"ce4bhbh2rcd13ifvqeqg","pricing_plan_id":"cebpf4jnsgd1na2vs0mg"},{"bike_id":"d1fd7c18-081f-4165-90f6-fbb5157ea749","system_id":"levelo_inurba_marseille","lat":43.27974,"lon":5.38755,"is_reserved":false,"is_disabled":true,"rental_uris":{"android":"levelo://app?vid=d1fd7c18-081f-4165-90f6-fbb5157ea749","ios":"levelo://app?vid=d1fd7c18-081f-4165-90f6-fbb5157ea749"},"vehicle_type_id":"4","last_reported":1732882717,"current_range_meters":0,"station_id":"ce4bhg12rcd13ifvqf80","pricing_plan_id":"cebpf4jnsgd1na2vs0mg"},{"bike_id":"2544c63f-9e10-4bc2-86cb-5f83a4fcc4cd","system_id":"levelo_inurba_marseille","lat":43.28473,"lon":5.38431,"is_reserved":false,"is_disabled":false,"rental_uris":{"android":"levelo://app?vid=2544c63f-9e10-4bc2-86cb-5f83a4fcc4cd","ios":"levelo://app?vid=2544c63f-9e10-4bc2-86cb-5f83a4fcc4cd"},"vehicle_type_id":"4","last_reported":1732882717,"current_range_meters":12400,"station_id":"ce4bh512rcd13ifvqe3g","pricing_plan_id":"cebpf4jnsgd1na2vs0mg"},{"bike_id":"cf002d38-17c9-44fd-9354-c7910c4bd3ff","system_id":"levelo_inurba_marseille","lat":43.33028,"lon":5.3904,"is_reserved":false,"is_disabled":false,"rental_uris":{"android":"levelo://app?vid=cf002d38-17c9-44fd-9354-c7910c4bd3ff","ios":"levelo://app?vid=cf002d38-17c9-44fd-9354-c7910c4bd3ff"},"vehicle_type_id":"4","last_reported":1732882717,"current_range_meters":28800,"station_id":"ce4bhr92rcd13ifvqhrg","pricing_plan_id":"cebpf4jnsgd1na2vs0mg"},{"bike_id":"85d779b1-fc38-4a41-b2b8-6e6eade9c368","system_id":"levelo_inurba_marseille","lat":43.29002,"lon":5.35627,"is_reserved":false,"is_disabled":true,"rental_uris":{"android":"levelo://app?vid=85d779b1-fc38-4a41-b2b8-6e6eade9c368","ios":"levelo://app?vid=85d779b1-fc38-4a41-b2b8-6e6eade9c368"},"vehicle_type_id":"4","last_reported":1732882717,"current_range_meters":0,"station_id":"ce4bhb92rcd13ifvqen0","pricing_plan_id":"cebpf4jnsgd1na2vs0mg"},{"bike_id":"bd116da4-9303-4372-b375-2867673729fc","system_id":"levelo_inurba_marseille","lat":43.23145,"lon":5.43719,"is_reserved":false,"is_disabled":false,"rental_uris":{"android":"levelo://app?vid=bd116da4-9303-4372-b375-2867673729fc","ios":"levelo://app?vid=bd116da4-9303-4372-b375-2867673729fc"},"vehicle_type_id":"4","last_reported":1732882717,"current_range_meters":23200,"station_id":"ce4bhmp2rcd13ifvqgog","pricing_plan_id":"cebpf4jnsgd1na2vs0mg"},{"bike_id":"43746d86-8a13-4845-9faf-ae69b548d714","system_id":"levelo_inurba_marseille","lat":43.29459,"lon":5.37917,"is_reserved":false,"is_disabled":true,"rental_uris":{"android":"levelo://app?vid=43746d86-8a13-4845-9faf-ae69b548d714","ios":"levelo://app?vid=43746d86-8a13-4845-9faf-ae69b548d714"},"vehicle_type_id":"4","last_reported":1732882717,"current_range_meters":0,"station_id":"","pricing_plan_id":"cebpf4jnsgd1na2vs0mg"},{"bike_id":"c8bc602c-04ad-4ddb-9fae-c094cb505146","system_id":"levelo_inurba_marseille","lat":43.31366,"lon":5.38497,"is_reserved":false,"is_disabled":false,"rental_uris":{"android":"levelo://app?vid=c8bc602c-04ad-4ddb-9fae-c094cb505146","ios":"levelo://app?vid=c8bc602c-04ad-4ddb-9fae-c094cb505146"},"vehicle_type_id":"4","last_reported":1732882717,"current_range_meters":24400,"station_id":"ce4bgt92rcd13ifvqcf0","pricing_plan_id":"cebpf4jnsgd1na2vs0mg"},{"bike_id":"2431bfd7-6674-420b-9efa-ffbb83845045","system_id":"levelo_inurba_marseille","lat":43.297902,"lon":5.380849,"is_reserved":false,"is_disabled":false,"rental_uris":{"android":"levelo://app?vid=2431bfd7-6674-420b-9efa-ffbb83845045","ios":"levelo://app?vid=2431bfd7-6674-420b-9efa-ffbb83845045"},"vehicle_type_id":"4","last_reported":1732882717,"current_range_meters":29600,"station_id":"ce4bgip2rcd13ifvqbb0","pricing_plan_id":"cebpf4jnsgd1na2vs0mg"},{"bike_id":"10a72995-887d-4ce6-8101-c843a1dac819","system_id":"levelo_inurba_marseille","lat":43.265577,"lon":5.390307,"is_reserved":false,"is_disabled":false,"rental_uris":{"android":"levelo://app?vid=10a72995-887d-4ce6-8101-c843a1dac819","ios":"levelo://app?vid=10a72995-887d-4ce6-8101-c843a1dac819"},"vehicle_type_id":"4","last_reported":1732882717,"current_range_meters":30000,"station_id":"ce4bhe12rcd13ifvqf30","pricing_plan_id":"cebpf4jnsgd1na2vs0mg"},{"bike_id":"20e29cf1-263a-4c6f-968c-f0d326dc411c","system_id":"levelo_inurba_marseille","lat":43.28274,"lon":5.35085,"is_reserved":false,"is_disabled":false,"rental_uris":{"android":"levelo://app?vid=20e29cf1-263a-4c6f-968c-f0d326dc411c","ios":"levelo://app?vid=20e29cf1-263a-4c6f-968c-f0d326dc411c"},"vehicle_type_id":"4","last_reported":1732882717,"current_range_meters":17200,"station_id":"ce4bhbp2rcd13ifvqerg","pricing_plan_id":"cebpf4jnsgd1na2vs0mg"},{"bike_id":"c41e9656-284b-4495-ac9b-461982f10d89","system_id":"levelo_inurba_marseille","lat":43.26803,"lon":5.40271,"is_reserved":false,"is_disabled":false,"rental_uris":{"android":"levelo://app?vid=c41e9656-284b-4495-ac9b-461982f10d89","ios":"levelo://app?vid=c41e9656-284b-4495-ac9b-461982f10d89"},"vehicle_type_id":"4","last_reported":1732882717,"current_range_meters":36400,"station_id":"ce501612rcd8frsf0b60","pricing_plan_id":"cebpf4jnsgd1na2vs0mg"},{"bike_id":"b3d47772-058e-4a8e-91f3-3d5c2a953fbb","system_id":"levelo_inurba_marseille","lat":43.25868,"lon":5.39897,"is_reserved":false,"is_disabled":false,"rental_uris":{"android":"levelo://app?vid=b3d47772-058e-4a8e-91f3-3d5c2a953fbb","ios":"levelo://app?vid=b3d47772-058e-4a8e-91f3-3d5c2a953fbb"},"vehicle_type_id":"4","last_reported":1732882717,"current_range_meters":37600,"station_id":"ce4bhl92rcd13ifvqghg","pricing_plan_id":"cebpf4jnsgd1na2vs0mg"},{"bike_id":"5dde6864-6705-4fe1-9e79-ee4ed65a6a50","system_id":"levelo_inurba_marseille","lat":43.24553,"lon":5.39526,"is_reserved":false,"is_disabled":false,"rental_uris":{"android":"levelo://app?vid=5dde6864-6705-4fe1-9e79-ee4ed65a6a50","ios":"levelo://app?vid=5dde6864-6705-4fe1-9e79-ee4ed65a6a50"},"vehicle_type_id":"4","last_reported":1732882717,"current_range_meters":38800,"station_id":"ce4bhlp2rcd13ifvqgjg","pricing_plan_id":"cebpf4jnsgd1na2vs0mg"},{"bike_id":"d482c2bf-698e-403b-b4f7-07f35050b310","system_id":"levelo_inurba_marseille","lat":43.30954,"lon":5.39035,"is_reserved":false,"is_disabled":false,"rental_uris":{"android":"levelo://app?vid=d482c2bf-698e-403b-b4f7-07f35050b310","ios":"levelo://app?vid=d482c2bf-698e-403b-b4f7-07f35050b310"},"vehicle_type_id":"4","last_reported":1732882717,"current_range_meters":18800,"station_id":"ce4bgup2rcd13ifvqco0","pricing_plan_id":"cebpf4jnsgd1na2vs0mg"},{"bike_id":"045963bd-81a5-4389-8be5-269625fb9e4e","system_id":"levelo_inurba_marseille","lat":43.25502,"lon":5.37649,"is_reserved":false,"is_disabled":false,"rental_uris":{"android":"levelo://app?vid=045963bd-81a5-4389-8be5-269625fb9e4e","ios":"levelo://app?vid=045963bd-81a5-4389-8be5-269625fb9e4e"},"vehicle_type_id":"4","last_reported":1732882717,"current_range_meters":29600,"station_id":"ce4bhh12rcd13ifvqff0","pricing_plan_id":"cebpf4jnsgd1na2vs0mg"},{"bike_id":"a8dc222d-2a79-4559-874d-5706fd2740a0","system_id":"levelo_inurba_marseille","lat":43.27066,"lon":5.40253,"is_reserved":false,"is_disabled":false,"rental_uris":{"android":"levelo://app?vid=a8dc222d-2a79-4559-874d-5706fd2740a0","ios":"levelo://app?vid=a8dc222d-2a79-4559-874d-5706fd2740a0"},"vehicle_type_id":"4","last_reported":1732882717,"current_range_meters":36800,"station_id":"ce4bhk92rcd13ifvqgc0","pricing_plan_id":"cebpf4jnsgd1na2vs0mg"},{"bike_id":"f54fdf2a-8b1a-41e0-9c6d-03c7517b275b","system_id":"levelo_inurba_marseille","lat":43.27057,"lon":5.40259,"is_reserved":false,"is_disabled":false,"rental_uris":{"android":"levelo://app?vid=f54fdf2a-8b1a-41e0-9c6d-03c7517b275b","ios":"levelo://app?vid=f54fdf2a-8b1a-41e0-9c6d-03c7517b275b"},"vehicle_type_id":"4","last_reported":1732882717,"current_range_meters":11200,"station_id":"ce4bhk92rcd13ifvqgc0","pricing_plan_id":"cebpf4jnsgd1na2vs0mg"},{"bike_id":"fc4d15f5-6256-45a3-90d6-77bb4c676955","system_id":"levelo_inurba_marseille","lat":43.296284,"lon":5.377877,"is_reserved":false,"is_disabled":true,"rental_uris":{"android":"levelo://app?vid=fc4d15f5-6256-45a3-90d6-77bb4c676955","ios":"levelo://app?vid=fc4d15f5-6256-45a3-90d6-77bb4c676955"},"vehicle_type_id":"4","last_reported":1732882717,"current_range_meters":29600,"station_id":"","pricing_plan_id":"cebpf4jnsgd1na2vs0mg"},{"bike_id":"c88f8730-1176-4717-97e2-17c27b15274f","system_id":"levelo_inurba_marseille","lat":43.23198,"lon":5.35549,"is_reserved":false,"is_disabled":false,"rental_uris":{"android":"levelo://app?vid=c88f8730-1176-4717-97e2-17c27b15274f","ios":"levelo://app?vid=c88f8730-1176-4717-97e2-17c27b15274f"},"vehicle_type_id":"4","last_reported":1732882717,"current_range_meters":38800,"station_id":"ce4bhu92rcd13ifvqi70","pricing_plan_id":"cebpf4jnsgd1na2vs0mg"},{"bike_id":"e9b9e2a2-8ccb-4a7b-b43b-4ab2fc5fe2cd","system_id":"levelo_inurba_marseille","lat":43.28351,"lon":5.38107,"is_reserved":false,"is_disabled":false,"rental_uris":{"android":"levelo://app?vid=e9b9e2a2-8ccb-4a7b-b43b-4ab2fc5fe2cd","ios":"levelo://app?vid=e9b9e2a2-8ccb-4a7b-b43b-4ab2fc5fe2cd"},"vehicle_type_id":"4","last_reported":1732882717,"current_range_meters":3200,"station_id":"ce4bh412rcd13ifvqdr0","pricing_plan_id":"cebpf4jnsgd1na2vs0mg"},{"bike_id":"6efcd3b3-109d-411c-9c82-ac1c338aa322","system_id":"levelo_inurba_marseille","lat":43.29929,"lon":5.3654,"is_reserved":false,"is_disabled":false,"rental_uris":{"android":"levelo://app?vid=6efcd3b3-109d-411c-9c82-ac1c338aa322","ios":"levelo://app?vid=6efcd3b3-109d-411c-9c82-ac1c338aa322"},"vehicle_type_id":"4","last_reported":1732882717,"current_range_meters":22800,"station_id":"ce4bgm92rcd13ifvqbr0","pricing_plan_id":"cebpf4jnsgd1na2vs0mg"},{"bike_id":"c20afd6c-d414-44df-9450-cc27e4ad9839","system_id":"levelo_inurba_marseille","lat":43.32151,"lon":5.38459,"is_reserved":false,"is_disabled":true,"rental_uris":{"android":"levelo://app?vid=c20afd6c-d414-44df-9450-cc27e4ad9839","ios":"levelo://app?vid=c20afd6c-d414-44df-9450-cc27e4ad9839"},"vehicle_type_id":"4","last_reported":1732882717,"current_range_meters":0,"station_id":"","pricing_plan_id":"cebpf4jnsgd1na2vs0mg"},{"bike_id":"5547a441-9653-482c-905c-97a54076438b","system_id":"levelo_inurba_marseille","lat":43.32363,"lon":5.36757,"is_reserved":false,"is_disabled":false,"rental_uris":{"android":"levelo://app?vid=5547a441-9653-482c-905c-97a54076438b","ios":"levelo://app?vid=5547a441-9653-482c-905c-97a54076438b"},"vehicle_type_id":"4","last_reported":1732882717,"current_range_meters":22000,"station_id":"ce4bhsh2rcd13ifvqi2g","pricing_plan_id":"cebpf4jnsgd1na2vs0mg"},{"bike_id":"586e17ce-2246-4400-9587-c98f365f0f92","system_id":"levelo_inurba_marseille","lat":43.28843,"lon":5.39301,"is_reserved":false,"is_disabled":false,"rental_uris":{"android":"levelo://app?vid=586e17ce-2246-4400-9587-c98f365f0f92","ios":"levelo://app?vid=586e17ce-2246-4400-9587-c98f365f0f92"},"vehicle_type_id":"4","last_reported":1732882717,"current_range_meters":31200,"station_id":"ce4bh2p2rcd13ifvqdi0","pricing_plan_id":"cebpf4jnsgd1na2vs0mg"},{"bike_id":"b0b2b06e-bae2-48f5-9681-49c5c3ebcac9","system_id":"levelo_inurba_marseille","lat":43.29883,"lon":5.38903,"is_reserved":false,"is_disabled":true,"rental_uris":{"android":"levelo://app?vid=b0b2b06e-bae2-48f5-9681-49c5c3ebcac9","ios":"levelo://app?vid=b0b2b06e-bae2-48f5-9681-49c5c3ebcac9"},"vehicle_type_id":"4","last_reported":1732882717,"current_range_meters":23200,"station_id":"ce4bh392rcd13ifvqdl0","pricing_plan_id":"cebpf4jnsgd1na2vs0mg"},{"bike_id":"3a4e6c41-3f77-4254-abd4-29776dd71545","system_id":"levelo_inurba_marseille","lat":43.30527,"lon":5.36543,"is_reserved":false,"is_disabled":false,"rental_uris":{"android":"levelo://app?vid=3a4e6c41-3f77-4254-abd4-29776dd71545","ios":"levelo://app?vid=3a4e6c41-3f77-4254-abd4-29776dd71545"},"vehicle_type_id":"4","last_reported":1732882717,"current_range_meters":38800,"station_id":"ce4bgs12rcd13ifvqcag","pricing_plan_id":"cebpf4jnsgd1na2vs0mg"},{"bike_id":"53832248-7ea6-4cc6-856c-2b60c3f17998","system_id":"levelo_inurba_marseille","lat":43.29551,"lon":5.42286,"is_reserved":false,"is_disabled":true,"rental_uris":{"android":"levelo://app?vid=53832248-7ea6-4cc6-856c-2b60c3f17998","ios":"levelo://app?vid=53832248-7ea6-4cc6-856c-2b60c3f17998"},"vehicle_type_id":"4","last_reported":1732882717,"current_range_meters":38800,"station_id":"ce4bhph2rcd13ifvqhdg","pricing_plan_id":"cebpf4jnsgd1na2vs0mg"},{"bike_id":"4beebde1-100b-4b54-b3bf-4e9c0eae6e2a","system_id":"levelo_inurba_marseille","lat":43.26797,"lon":5.39448,"is_reserved":false,"is_disabled":false,"rental_uris":{"android":"levelo://app?vid=4beebde1-100b-4b54-b3bf-4e9c0eae6e2a","ios":"levelo://app?vid=4beebde1-100b-4b54-b3bf-4e9c0eae6e2a"},"vehicle_type_id":"4","last_reported":1732882717,"current_range_meters":28400,"station_id":"ce4bhh12rcd13ifvqfg0","pricing_plan_id":"cebpf4jnsgd1na2vs0mg"},{"bike_id":"92defe58-ac95-4158-a899-a1890c4e5262","system_id":"levelo_inurba_marseille","lat":43.26814,"lon":5.37126,"is_reserved":false,"is_disabled":true,"rental_uris":{"android":"levelo://app?vid=92defe58-ac95-4158-a899-a1890c4e5262","ios":"levelo://app?vid=92defe58-ac95-4158-a899-a1890c4e5262"},"vehicle_type_id":"4","last_reported":1732882717,"current_range_meters":0,"station_id":"","pricing_plan_id":"cebpf4jnsgd1na2vs0mg"},{"bike_id":"b7a23fb8-618b-4ad6-8050-42e15cecbd69","system_id":"levelo_inurba_marseille","lat":43.31358,"lon":5.38505,"is_reserved":false,"is_disabled":false,"rental_uris":{"android":"levelo://app?vid=b7a23fb8-618b-4ad6-8050-42e15cecbd69","ios":"levelo://app?vid=b7a23fb8-618b-4ad6-8050-42e15cecbd69"},"vehicle_type_id":"4","last_reported":1732882717,"current_range_meters":13600,"station_id":"ce4bgt92rcd13ifvqcf0","pricing_plan_id":"cebpf4jnsgd1na2vs0mg"},{"bike_id":"3043e874-44eb-4ce8-a2fb-d5bb027c2006","system_id":"levelo_inurba_marseille","lat":43.30533,"lon":5.3654,"is_reserved":false,"is_disabled":false,"rental_uris":{"android":"levelo://app?vid=3043e874-44eb-4ce8-a2fb-d5bb027c2006","ios":"levelo://app?vid=3043e874-44eb-4ce8-a2fb-d5bb027c2006"},"vehicle_type_id":"4","last_reported":1732882717,"current_range_meters":39200,"station_id":"ce4bgs12rcd13ifvqcag","pricing_plan_id":"cebpf4jnsgd1na2vs0mg"},{"bike_id":"66fece67-ac4e-4c3d-9158-6d481222621e","system_id":"levelo_inurba_marseille","lat":43.29035,"lon":5.38136,"is_reserved":false,"is_disabled":false,"rental_uris":{"android":"levelo://app?vid=66fece67-ac4e-4c3d-9158-6d481222621e","ios":"levelo://app?vid=66fece67-ac4e-4c3d-9158-6d481222621e"},"vehicle_type_id":"4","last_reported":1732882717,"current_range_meters":18000,"station_id":"ce4bh4p2rcd13ifvqe1g","pricing_plan_id":"cebpf4jnsgd1na2vs0mg"},{"bike_id":"49b5e6fd-07e3-4612-becc-468f8bad0daa","system_id":"levelo_inurba_marseille","lat":43.23195,"lon":5.35554,"is_reserved":false,"is_disabled":false,"rental_uris":{"android":"levelo://app?vid=49b5e6fd-07e3-4612-becc-468f8bad0daa","ios":"levelo://app?vid=49b5e6fd-07e3-4612-becc-468f8bad0daa"},"vehicle_type_id":"4","last_reported":1732882717,"current_range_meters":38800,"station_id":"ce4bhu92rcd13ifvqi70","pricing_plan_id":"cebpf4jnsgd1na2vs0mg"},{"bike_id":"a303b3f2-2dd4-4aa3-ac5d-ca964f32210b","system_id":"levelo_inurba_marseille","lat":43.30138,"lon":5.3878,"is_reserved":false,"is_disabled":false,"rental_uris":{"android":"levelo://app?vid=a303b3f2-2dd4-4aa3-ac5d-ca964f32210b","ios":"levelo://app?vid=a303b3f2-2dd4-4aa3-ac5d-ca964f32210b"},"vehicle_type_id":"4","last_reported":1732882717,"current_range_meters":18000,"station_id":"ce4bghh2rcd13ifvqb60","pricing_plan_id":"cebpf4jnsgd1na2vs0mg"},{"bike_id":"10bd7429-3f56-4a14-9f0c-a2d1b9a51f6b","system_id":"levelo_inurba_marseille","lat":43.26682,"lon":5.38276,"is_reserved":false,"is_disabled":false,"rental_uris":{"android":"levelo://app?vid=10bd7429-3f56-4a14-9f0c-a2d1b9a51f6b","ios":"levelo://app?vid=10bd7429-3f56-4a14-9f0c-a2d1b9a51f6b"},"vehicle_type_id":"4","last_reported":1732882717,"current_range_meters":24800,"station_id":"ce4bhg92rcd13ifvqf90","pricing_plan_id":"cebpf4jnsgd1na2vs0mg"},{"bike_id":"c769a5cb-f343-4489-bdb1-38e4a0d629c6","system_id":"levelo_inurba_marseille","lat":43.298788,"lon":5.389137,"is_reserved":false,"is_disabled":false,"rental_uris":{"android":"levelo://app?vid=c769a5cb-f343-4489-bdb1-38e4a0d629c6","ios":"levelo://app?vid=c769a5cb-f343-4489-bdb1-38e4a0d629c6"},"vehicle_type_id":"4","last_reported":1732882717,"current_range_meters":24800,"station_id":"ce4bh392rcd13ifvqdl0","pricing_plan_id":"cebpf4jnsgd1na2vs0mg"},{"bike_id":"9f55e5e8-02a7-447f-a153-d6353d469dc1","system_id":"levelo_inurba_marseille","lat":43.29265,"lon":5.38444,"is_reserved":false,"is_disabled":false,"rental_uris":{"android":"levelo://app?vid=9f55e5e8-02a7-447f-a153-d6353d469dc1","ios":"levelo://app?vid=9f55e5e8-02a7-447f-a153-d6353d469dc1"},"vehicle_type_id":"4","last_reported":1732882717,"current_range_meters":37600,"station_id":"ce4bh692rcd13ifvqea0","pricing_plan_id":"cebpf4jnsgd1na2vs0mg"},{"bike_id":"bea31957-ef09-4b6c-ad5b-32eebdfda98d","system_id":"levelo_inurba_marseille","lat":43.31368,"lon":5.38496,"is_reserved":false,"is_disabled":false,"rental_uris":{"android":"levelo://app?vid=bea31957-ef09-4b6c-ad5b-32eebdfda98d","ios":"levelo://app?vid=bea31957-ef09-4b6c-ad5b-32eebdfda98d"},"vehicle_type_id":"4","last_reported":1732882717,"current_range_meters":39200,"station_id":"ce4bgt92rcd13ifvqcf0","pricing_plan_id":"cebpf4jnsgd1na2vs0mg"},{"bike_id":"2a122c73-948c-475c-979d-6b9609c8c6ea","system_id":"levelo_inurba_marseille","lat":43.29717,"lon":5.37701,"is_reserved":false,"is_disabled":false,"rental_uris":{"android":"levelo://app?vid=2a122c73-948c-475c-979d-6b9609c8c6ea","ios":"levelo://app?vid=2a122c73-948c-475c-979d-6b9609c8c6ea"},"vehicle_type_id":"4","last_reported":1732882717,"current_range_meters":22800,"station_id":"ce4bgkh2rcd13ifvqbl0","pricing_plan_id":"cebpf4jnsgd1na2vs0mg"},{"bike_id":"83688efd-6143-43ed-bf13-d38e5e751874","system_id":"levelo_inurba_marseille","lat":43.30487,"lon":5.37251,"is_reserved":false,"is_disabled":false,"rental_uris":{"android":"levelo://app?vid=83688efd-6143-43ed-bf13-d38e5e751874","ios":"levelo://app?vid=83688efd-6143-43ed-bf13-d38e5e751874"},"vehicle_type_id":"4","last_reported":1732882717,"current_range_meters":6400,"station_id":"","pricing_plan_id":"cebpf4jnsgd1na2vs0mg"},{"bike_id":"fbb69a76-9f06-4ea3-954f-7f4b2f1d4bea","system_id":"levelo_inurba_marseille","lat":43.22926,"lon":5.35376,"is_reserved":false,"is_disabled":false,"rental_uris":{"android":"levelo://app?vid=fbb69a76-9f06-4ea3-954f-7f4b2f1d4bea","ios":"levelo://app?vid=fbb69a76-9f06-4ea3-954f-7f4b2f1d4bea"},"vehicle_type_id":"4","last_reported":1732882717,"current_range_meters":37600,"station_id":"cpo3532slgdg3j2ikp40","pricing_plan_id":"cebpf4jnsgd1na2vs0mg"},{"bike_id":"7f40d311-925e-4569-bfac-14159180b7a5","system_id":"levelo_inurba_marseille","lat":43.25869,"lon":5.39913,"is_reserved":false,"is_disabled":false,"rental_uris":{"android":"levelo://app?vid=7f40d311-925e-4569-bfac-14159180b7a5","ios":"levelo://app?vid=7f40d311-925e-4569-bfac-14159180b7a5"},"vehicle_type_id":"4","last_reported":1732882717,"current_range_meters":38800,"station_id":"ce4bhl92rcd13ifvqghg","pricing_plan_id":"cebpf4jnsgd1na2vs0mg"},{"bike_id":"9e944db9-d48e-4848-b5fa-4af701aee80b","system_id":"levelo_inurba_marseille","lat":48.80797,"lon":2.40127,"is_reserved":false,"is_disabled":true,"rental_uris":{"android":"levelo://app?vid=9e944db9-d48e-4848-b5fa-4af701aee80b","ios":"levelo://app?vid=9e944db9-d48e-4848-b5fa-4af701aee80b"},"vehicle_type_id":"4","last_reported":1732882717,"current_range_meters":19600,"station_id":"","pricing_plan_id":"cebpf4jnsgd1na2vs0mg"},{"bike_id":"28636c70-2c23-4c4b-9668-fa0f5607aa68","system_id":"levelo_inurba_marseille","lat":43.30137,"lon":5.38781,"is_reserved":false,"is_disabled":false,"rental_uris":{"android":"levelo://app?vid=28636c70-2c23-4c4b-9668-fa0f5607aa68","ios":"levelo://app?vid=28636c70-2c23-4c4b-9668-fa0f5607aa68"},"vehicle_type_id":"4","last_reported":1732882717,"current_range_meters":9600,"station_id":"ce4bghh2rcd13ifvqb60","pricing_plan_id":"cebpf4jnsgd1na2vs0mg"},{"bike_id":"b202fc79-e823-46ad-af93-47c43e43186b","system_id":"levelo_inurba_marseille","lat":43.30595,"lon":5.39357,"is_reserved":false,"is_disabled":false,"rental_uris":{"android":"levelo://app?vid=b202fc79-e823-46ad-af93-47c43e43186b","ios":"levelo://app?vid=b202fc79-e823-46ad-af93-47c43e43186b"},"vehicle_type_id":"4","last_reported":1732882717,"current_range_meters":20000,"station_id":"ce4bh0p2rcd13ifvqd80","pricing_plan_id":"cebpf4jnsgd1na2vs0mg"},{"bike_id":"59868cce-ddcf-45bd-92d0-747b03b56a52","system_id":"levelo_inurba_marseille","lat":43.29877,"lon":5.39737,"is_reserved":false,"is_disabled":false,"rental_uris":{"android":"levelo://app?vid=59868cce-ddcf-45bd-92d0-747b03b56a52","ios":"levelo://app?vid=59868cce-ddcf-45bd-92d0-747b03b56a52"},"vehicle_type_id":"4","last_reported":1732882717,"current_range_meters":27200,"station_id":"ce4bh0h2rcd13ifvqd50","pricing_plan_id":"cebpf4jnsgd1na2vs0mg"},{"bike_id":"14ae1bd6-aed1-4caa-aed0-86b9da917581","system_id":"levelo_inurba_marseille","lat":43.29624,"lon":5.37718,"is_reserved":false,"is_disabled":false,"rental_uris":{"android":"levelo://app?vid=14ae1bd6-aed1-4caa-aed0-86b9da917581","ios":"levelo://app?vid=14ae1bd6-aed1-4caa-aed0-86b9da917581"},"vehicle_type_id":"4","last_reported":1732882717,"current_range_meters":9600,"station_id":"ce4bgi92rcd13ifvqb90","pricing_plan_id":"cebpf4jnsgd1na2vs0mg"},{"bike_id":"66d83529-a29a-4480-ac7a-6e5820ed86e7","system_id":"levelo_inurba_marseille","lat":43.29847,"lon":5.36287,"is_reserved":false,"is_disabled":false,"rental_uris":{"android":"levelo://app?vid=66d83529-a29a-4480-ac7a-6e5820ed86e7","ios":"levelo://app?vid=66d83529-a29a-4480-ac7a-6e5820ed86e7"},"vehicle_type_id":"4","last_reported":1732882717,"current_range_meters":33200,"station_id":"ce4bgpp2rcd13ifvqc3g","pricing_plan_id":"cebpf4jnsgd1na2vs0mg"},{"bike_id":"9c24f44a-c825-4551-87a5-93536588fd4f","system_id":"levelo_inurba_marseille","lat":43.29719,"lon":5.37687,"is_reserved":false,"is_disabled":false,"rental_uris":{"android":"levelo://app?vid=9c24f44a-c825-4551-87a5-93536588fd4f","ios":"levelo://app?vid=9c24f44a-c825-4551-87a5-93536588fd4f"},"vehicle_type_id":"4","last_reported":1732882717,"current_range_meters":38800,"station_id":"ce4bgkh2rcd13ifvqbl0","pricing_plan_id":"cebpf4jnsgd1na2vs0mg"},{"bike_id":"513174f9-8400-446c-9ecb-cb2c8b665b67","system_id":"levelo_inurba_marseille","lat":43.24079,"lon":5.37767,"is_reserved":false,"is_disabled":true,"rental_uris":{"android":"levelo://app?vid=513174f9-8400-446c-9ecb-cb2c8b665b67","ios":"levelo://app?vid=513174f9-8400-446c-9ecb-cb2c8b665b67"},"vehicle_type_id":"4","last_reported":1732882717,"current_range_meters":1600,"station_id":"ce4bhnp2rcd13ifvqgvg","pricing_plan_id":"cebpf4jnsgd1na2vs0mg"},{"bike_id":"c030decd-11be-4119-810a-9ec743dccc87","system_id":"levelo_inurba_marseille","lat":43.29712,"lon":5.36607,"is_reserved":false,"is_disabled":false,"rental_uris":{"android":"levelo://app?vid=c030decd-11be-4119-810a-9ec743dccc87","ios":"levelo://app?vid=c030decd-11be-4119-810a-9ec743dccc87"},"vehicle_type_id":"4","last_reported":1732882717,"current_range_meters":38000,"station_id":"ce4bgn12rcd13ifvqbt0","pricing_plan_id":"cebpf4jnsgd1na2vs0mg"},{"bike_id":"c357b476-34b1-4241-b06a-701851e1e8a2","system_id":"levelo_inurba_marseille","lat":43.29582,"lon":5.36749,"is_reserved":false,"is_disabled":false,"rental_uris":{"android":"levelo://app?vid=c357b476-34b1-4241-b06a-701851e1e8a2","ios":"levelo://app?vid=c357b476-34b1-4241-b06a-701851e1e8a2"},"vehicle_type_id":"4","last_reported":1732882717,"current_range_meters":38800,"station_id":"ce4bgph2rcd13ifvqc2g","pricing_plan_id":"cebpf4jnsgd1na2vs0mg"},{"bike_id":"5a56ca44-45bb-4715-9f86-d09b7796fd4b","system_id":"levelo_inurba_marseille","lat":43.28944,"lon":5.3663,"is_reserved":false,"is_disabled":false,"rental_uris":{"android":"levelo://app?vid=5a56ca44-45bb-4715-9f86-d09b7796fd4b","ios":"levelo://app?vid=5a56ca44-45bb-4715-9f86-d09b7796fd4b"},"vehicle_type_id":"4","last_reported":1732882717,"current_range_meters":38800,"station_id":"ce4bhap2rcd13ifvqek0","pricing_plan_id":"cebpf4jnsgd1na2vs0mg"},{"bike_id":"a7b6818e-21a8-464b-94c0-f3d9f8a1c31a","system_id":"levelo_inurba_marseille","lat":43.28914,"lon":5.40006,"is_reserved":false,"is_disabled":false,"rental_uris":{"android":"levelo://app?vid=a7b6818e-21a8-464b-94c0-f3d9f8a1c31a","ios":"levelo://app?vid=a7b6818e-21a8-464b-94c0-f3d9f8a1c31a"},"vehicle_type_id":"4","last_reported":1732882717,"current_range_meters":26800,"station_id":"","pricing_plan_id":"cebpf4jnsgd1na2vs0mg"},{"bike_id":"501b6669-c9d3-400e-a8e7-52c9b56f327b","system_id":"levelo_inurba_marseille","lat":43.27175,"lon":5.40993,"is_reserved":false,"is_disabled":false,"rental_uris":{"android":"levelo://app?vid=501b6669-c9d3-400e-a8e7-52c9b56f327b","ios":"levelo://app?vid=501b6669-c9d3-400e-a8e7-52c9b56f327b"},"vehicle_type_id":"4","last_reported":1732882717,"current_range_meters":11200,"station_id":"ce4bhl12rcd13ifvqgf0","pricing_plan_id":"cebpf4jnsgd1na2vs0mg"},{"bike_id":"718cee5d-5eec-49cc-affe-06e8d4297bab","system_id":"levelo_inurba_marseille","lat":43.29377,"lon":5.37863,"is_reserved":false,"is_disabled":true,"rental_uris":{"android":"levelo://app?vid=718cee5d-5eec-49cc-affe-06e8d4297bab","ios":"levelo://app?vid=718cee5d-5eec-49cc-affe-06e8d4297bab"},"vehicle_type_id":"4","last_reported":1732882717,"current_range_meters":36000,"station_id":"ce4bgjh2rcd13ifvqbf0","pricing_plan_id":"cebpf4jnsgd1na2vs0mg"},{"bike_id":"b069cb8d-e1da-4583-85e5-79ac3d7b48a4","system_id":"levelo_inurba_marseille","lat":43.29847,"lon":5.36288,"is_reserved":false,"is_disabled":false,"rental_uris":{"android":"levelo://app?vid=b069cb8d-e1da-4583-85e5-79ac3d7b48a4","ios":"levelo://app?vid=b069cb8d-e1da-4583-85e5-79ac3d7b48a4"},"vehicle_type_id":"4","last_reported":1732882717,"current_range_meters":31200,"station_id":"ce4bgpp2rcd13ifvqc3g","pricing_plan_id":"cebpf4jnsgd1na2vs0mg"},{"bike_id":"95f0b1d7-3bab-4e66-b219-aa890b69b102","system_id":"levelo_inurba_marseille","lat":43.29715,"lon":5.36624,"is_reserved":false,"is_disabled":false,"rental_uris":{"android":"levelo://app?vid=95f0b1d7-3bab-4e66-b219-aa890b69b102","ios":"levelo://app?vid=95f0b1d7-3bab-4e66-b219-aa890b69b102"},"vehicle_type_id":"4","last_reported":1732882717,"current_range_meters":19200,"station_id":"ce4bgn12rcd13ifvqbt0","pricing_plan_id":"cebpf4jnsgd1na2vs0mg"},{"bike_id":"a81fe2e9-188b-4b50-b2db-bbda51577084","system_id":"levelo_inurba_marseille","lat":43.268,"lon":5.4027,"is_reserved":false,"is_disabled":false,"rental_uris":{"android":"levelo://app?vid=a81fe2e9-188b-4b50-b2db-bbda51577084","ios":"levelo://app?vid=a81fe2e9-188b-4b50-b2db-bbda51577084"},"vehicle_type_id":"4","last_reported":1732882717,"current_range_meters":26000,"station_id":"ce501612rcd8frsf0b60","pricing_plan_id":"cebpf4jnsgd1na2vs0mg"},{"bike_id":"d546d55a-0eea-4308-bd5e-672d51c1e00b","system_id":"levelo_inurba_marseille","lat":43.29028,"lon":5.38143,"is_reserved":false,"is_disabled":false,"rental_uris":{"android":"levelo://app?vid=d546d55a-0eea-4308-bd5e-672d51c1e00b","ios":"levelo://app?vid=d546d55a-0eea-4308-bd5e-672d51c1e00b"},"vehicle_type_id":"4","last_reported":1732882717,"current_range_meters":38800,"station_id":"ce4bh4p2rcd13ifvqe1g","pricing_plan_id":"cebpf4jnsgd1na2vs0mg"},{"bike_id":"ae3817ed-117b-4ae4-bc47-be03692973ed","system_id":"levelo_inurba_marseille","lat":43.23182,"lon":5.35573,"is_reserved":false,"is_disabled":false,"rental_uris":{"android":"levelo://app?vid=ae3817ed-117b-4ae4-bc47-be03692973ed","ios":"levelo://app?vid=ae3817ed-117b-4ae4-bc47-be03692973ed"},"vehicle_type_id":"4","last_reported":1732882717,"current_range_meters":38800,"station_id":"ce4bhu92rcd13ifvqi70","pricing_plan_id":"cebpf4jnsgd1na2vs0mg"},{"bike_id":"5c3c9295-6d1e-4fe8-93bd-7bc91b148d34","system_id":"levelo_inurba_marseille","lat":43.29622,"lon":5.37158,"is_reserved":false,"is_disabled":false,"rental_uris":{"android":"levelo://app?vid=5c3c9295-6d1e-4fe8-93bd-7bc91b148d34","ios":"levelo://app?vid=5c3c9295-6d1e-4fe8-93bd-7bc91b148d34"},"vehicle_type_id":"4","last_reported":1732882717,"current_range_meters":22400,"station_id":"ce4bgnh2rcd13ifvqc0g","pricing_plan_id":"cebpf4jnsgd1na2vs0mg"},{"bike_id":"cbdff249-6f74-4d08-9351-b6d228d3e15e","system_id":"levelo_inurba_marseille","lat":43.3089,"lon":5.37188,"is_reserved":false,"is_disabled":false,"rental_uris":{"android":"levelo://app?vid=cbdff249-6f74-4d08-9351-b6d228d3e15e","ios":"levelo://app?vid=cbdff249-6f74-4d08-9351-b6d228d3e15e"},"vehicle_type_id":"4","last_reported":1732882717,"current_range_meters":10000,"station_id":"ce4bguh2rcd13ifvqckg","pricing_plan_id":"cebpf4jnsgd1na2vs0mg"},{"bike_id":"14f31641-0558-4e77-979d-7897c11d3d20","system_id":"levelo_inurba_marseille","lat":43.29007,"lon":5.35611,"is_reserved":false,"is_disabled":false,"rental_uris":{"android":"levelo://app?vid=14f31641-0558-4e77-979d-7897c11d3d20","ios":"levelo://app?vid=14f31641-0558-4e77-979d-7897c11d3d20"},"vehicle_type_id":"4","last_reported":1732882717,"current_range_meters":32400,"station_id":"ce4bhb92rcd13ifvqen0","pricing_plan_id":"cebpf4jnsgd1na2vs0mg"},{"bike_id":"543bf7b3-585d-475f-8df4-f832207e7738","system_id":"levelo_inurba_marseille","lat":43.2904,"lon":5.35924,"is_reserved":false,"is_disabled":true,"rental_uris":{"android":"levelo://app?vid=543bf7b3-585d-475f-8df4-f832207e7738","ios":"levelo://app?vid=543bf7b3-585d-475f-8df4-f832207e7738"},"vehicle_type_id":"4","last_reported":1732882717,"current_range_meters":22000,"station_id":"ce4bha92rcd13ifvqeg0","pricing_plan_id":"cebpf4jnsgd1na2vs0mg"},{"bike_id":"a0a36287-9950-4047-84cf-94821759d1c9","system_id":"levelo_inurba_marseille","lat":43.25588,"lon":5.38229,"is_reserved":false,"is_disabled":true,"rental_uris":{"android":"levelo://app?vid=a0a36287-9950-4047-84cf-94821759d1c9","ios":"levelo://app?vid=a0a36287-9950-4047-84cf-94821759d1c9"},"vehicle_type_id":"4","last_reported":1732882717,"current_range_meters":1200,"station_id":"ce4bhih2rcd13ifvqfs0","pricing_plan_id":"cebpf4jnsgd1na2vs0mg"},{"bike_id":"202ceef9-7259-48a9-aa1e-d8da8494241e","system_id":"levelo_inurba_marseille","lat":43.28342,"lon":5.38105,"is_reserved":false,"is_disabled":true,"rental_uris":{"android":"levelo://app?vid=202ceef9-7259-48a9-aa1e-d8da8494241e","ios":"levelo://app?vid=202ceef9-7259-48a9-aa1e-d8da8494241e"},"vehicle_type_id":"4","last_reported":1732882717,"current_range_meters":3200,"station_id":"ce4bh412rcd13ifvqdr0","pricing_plan_id":"cebpf4jnsgd1na2vs0mg"},{"bike_id":"ad0e6ee2-5441-47e5-9c91-3052637a5dee","system_id":"levelo_inurba_marseille","lat":43.24382,"lon":5.37063,"is_reserved":false,"is_disabled":false,"rental_uris":{"android":"levelo://app?vid=ad0e6ee2-5441-47e5-9c91-3052637a5dee","ios":"levelo://app?vid=ad0e6ee2-5441-47e5-9c91-3052637a5dee"},"vehicle_type_id":"4","last_reported":1732882717,"current_range_meters":30000,"station_id":"ce4bhhh2rcd13ifvqfk0","pricing_plan_id":"cebpf4jnsgd1na2vs0mg"},{"bike_id":"b4d58e23-01ae-4c65-b568-c25ecb787930","system_id":"levelo_inurba_marseille","lat":43.26567,"lon":5.39381,"is_reserved":false,"is_disabled":true,"rental_uris":{"android":"levelo://app?vid=b4d58e23-01ae-4c65-b568-c25ecb787930","ios":"levelo://app?vid=b4d58e23-01ae-4c65-b568-c25ecb787930"},"vehicle_type_id":"4","last_reported":1732882717,"current_range_meters":0,"station_id":"","pricing_plan_id":"cebpf4jnsgd1na2vs0mg"},{"bike_id":"839c6504-c3ad-4a81-a876-be05cea51952","system_id":"levelo_inurba_marseille","lat":43.23154,"lon":5.43702,"is_reserved":false,"is_disabled":true,"rental_uris":{"android":"levelo://app?vid=839c6504-c3ad-4a81-a876-be05cea51952","ios":"levelo://app?vid=839c6504-c3ad-4a81-a876-be05cea51952"},"vehicle_type_id":"4","last_reported":1732882717,"current_range_meters":1600,"station_id":"ce4bhmp2rcd13ifvqgog","pricing_plan_id":"cebpf4jnsgd1na2vs0mg"},{"bike_id":"918683ab-af62-4fd6-9988-94bdf8329133","system_id":"levelo_inurba_marseille","lat":43.2319,"lon":5.39986,"is_reserved":false,"is_disabled":false,"rental_uris":{"android":"levelo://app?vid=918683ab-af62-4fd6-9988-94bdf8329133","ios":"levelo://app?vid=918683ab-af62-4fd6-9988-94bdf8329133"},"vehicle_type_id":"4","last_reported":1732882717,"current_range_meters":6800,"station_id":"ce4bhn12rcd13ifvqgqg","pricing_plan_id":"cebpf4jnsgd1na2vs0mg"},{"bike_id":"d70534cb-4619-48df-b668-32bab2e477d6","system_id":"levelo_inurba_marseille","lat":43.28341,"lon":5.38112,"is_reserved":false,"is_disabled":true,"rental_uris":{"android":"levelo://app?vid=d70534cb-4619-48df-b668-32bab2e477d6","ios":"levelo://app?vid=d70534cb-4619-48df-b668-32bab2e477d6"},"vehicle_type_id":"4","last_reported":1732882717,"current_range_meters":17200,"station_id":"ce4bh412rcd13ifvqdr0","pricing_plan_id":"cebpf4jnsgd1na2vs0mg"},{"bike_id":"4b64012b-32e7-4211-8a10-b9ed4b894eae","system_id":"levelo_inurba_marseille","lat":43.29031,"lon":5.38644,"is_reserved":false,"is_disabled":false,"rental_uris":{"android":"levelo://app?vid=4b64012b-32e7-4211-8a10-b9ed4b894eae","ios":"levelo://app?vid=4b64012b-32e7-4211-8a10-b9ed4b894eae"},"vehicle_type_id":"4","last_reported":1732882717,"current_range_meters":27600,"station_id":"ce4bh4p2rcd13ifvqe0g","pricing_plan_id":"cebpf4jnsgd1na2vs0mg"},{"bike_id":"0db8d473-7c7a-4aaf-a12e-b4d3a18c605f","system_id":"levelo_inurba_marseille","lat":43.30138,"lon":5.39876,"is_reserved":false,"is_disabled":false,"rental_uris":{"android":"levelo://app?vid=0db8d473-7c7a-4aaf-a12e-b4d3a18c605f","ios":"levelo://app?vid=0db8d473-7c7a-4aaf-a12e-b4d3a18c605f"},"vehicle_type_id":"4","last_reported":1732882717,"current_range_meters":39200,"station_id":"ce4bh0h2rcd13ifvqd40","pricing_plan_id":"cebpf4jnsgd1na2vs0mg"},{"bike_id":"30bb44b4-4253-41ce-8ec4-2f61bee6c7d5","system_id":"levelo_inurba_marseille","lat":43.25585,"lon":5.38229,"is_reserved":false,"is_disabled":false,"rental_uris":{"android":"levelo://app?vid=30bb44b4-4253-41ce-8ec4-2f61bee6c7d5","ios":"levelo://app?vid=30bb44b4-4253-41ce-8ec4-2f61bee6c7d5"},"vehicle_type_id":"4","last_reported":1732882717,"current_range_meters":25200,"station_id":"ce4bhih2rcd13ifvqfs0","pricing_plan_id":"cebpf4jnsgd1na2vs0mg"},{"bike_id":"71f116f9-dafa-4d45-b9e3-92fe4f8d28bf","system_id":"levelo_inurba_marseille","lat":43.3153,"lon":5.38037,"is_reserved":false,"is_disabled":false,"rental_uris":{"android":"levelo://app?vid=71f116f9-dafa-4d45-b9e3-92fe4f8d28bf","ios":"levelo://app?vid=71f116f9-dafa-4d45-b9e3-92fe4f8d28bf"},"vehicle_type_id":"4","last_reported":1732882717,"current_range_meters":22800,"station_id":"ce4bhsp2rcd13ifvqi50","pricing_plan_id":"cebpf4jnsgd1na2vs0mg"},{"bike_id":"6e832de2-c6a5-4914-bc03-16444b7c345c","system_id":"levelo_inurba_marseille","lat":43.32294,"lon":5.38279,"is_reserved":false,"is_disabled":false,"rental_uris":{"android":"levelo://app?vid=6e832de2-c6a5-4914-bc03-16444b7c345c","ios":"levelo://app?vid=6e832de2-c6a5-4914-bc03-16444b7c345c"},"vehicle_type_id":"4","last_reported":1732882717,"current_range_meters":28800,"station_id":"ce4bhr12rcd13ifvqhqg","pricing_plan_id":"cebpf4jnsgd1na2vs0mg"},{"bike_id":"47799a65-a324-4c59-8e8f-d77814c352fe","system_id":"levelo_inurba_marseille","lat":43.30863,"lon":5.37041,"is_reserved":false,"is_disabled":false,"rental_uris":{"android":"levelo://app?vid=47799a65-a324-4c59-8e8f-d77814c352fe","ios":"levelo://app?vid=47799a65-a324-4c59-8e8f-d77814c352fe"},"vehicle_type_id":"4","last_reported":1732882717,"current_range_meters":38000,"station_id":"","pricing_plan_id":"cebpf4jnsgd1na2vs0mg"},