{"last_updated":1722085767,"ttl":30,"version":"2.2","data":{"bikes":[{"bike_id":"adad6f08-e33d-4a50-a018-bdf793d3774e","system_id":"levelo_inurba_marseille","lat":43.31341,"lon":5.367098,"is_reserved":false,"is_disabled":false,"rental_uris":{"android":"levelo://app?vid=adad6f08-e33d-4a50-a018-bdf793d3774e","ios":"levelo://app?vid=adad6f08-e33d-4a50-a018-bdf793d3774e"},"vehicle_type_id":"4","last_reported":1722085767,"current_range_meters":31200,"station_id":"ce4bgr92rcd13ifvqc6g","pricing_plan_id":"cebpf4jnsgd1na2vs0mg"},{"bike_id":"07436606-2660-44e3-94ac-84cfc98d84e8","system_id":"levelo_inurba_marseille","lat":43.313391,"lon":5.36706,"is_reserved":false,"is_disabled":false,"rental_uris":{"android":"levelo://app?vid=07436606-2660-44e3-94ac-84cfc98d84e8","ios":"levelo://app?vid=07436606-2660-44e3-94ac-84cfc98d84e8"},"vehicle_type_id":"4","last_reported":1722085767,"current_range_meters":30800,"station_id":"ce4bgr92rcd13ifvqc6g","pricing_plan_id":"cebpf4jnsgd1na2vs0mg"},{"bike_id":"8bead9aa-274f-4b19-9d06-1827d5f6f667","system_id":"levelo_inurba_marseille","lat":43.313391,"lon":5.36706,"is_reserved":false,"is_disabled":false,"rental_uris":{"android":"levelo://app?vid=8bead9aa-274f-4b19-9d06-1827d5f6f667","ios":"levelo://app?vid=8bead9aa-274f-4b19-9d06-1827d5f6f667"},"vehicle_type_id":"4","last_reported":1722085767,"current_range_meters":17600,"station_id":"ce4bgr92rcd13ifvqc6g","pricing_plan_id":"cebpf4jnsgd1na2vs0mg"},{"bike_id":"2b4bce37-0fe8-4dac-9c86-9821859ebb5c","system_id":"levelo_inurba_marseille","lat":43.313391,"lon":5.36706,"is_reserved":false,"is_disabled":false,"rental_uris":{"android":"levelo://app?vid=2b4bce37-0fe8-4dac-9c86-9821859ebb5c","ios":"levelo://app?vid=2b4bce37-0fe8-4dac-9c86-9821859ebb5c"},"vehicle_type_id":"4","last_reported":1722085767,"current_range_meters":9200,"station_id":"ce4bgr92rcd13ifvqc6g","pricing_plan_id":"cebpf4jnsgd1na2vs0mg"},{"bike_id":"abbd5922-4314-4384-ae84-c0d4bf01dcfe","system_id":"levelo_inurba_marseille","lat":43.31341,"lon":5.367098,"is_reserved":false,"is_disabled":false,"rental_uris":{"android":"levelo://app?vid=abbd5922-4314-4384-ae84-c0d4bf01dcfe","ios":"levelo://app?vid=abbd5922-4314-4384-ae84-c0d4bf01dcfe"},"vehicle_type_id":"4","last_reported":1722085767,"current_range_meters":26400,"station_id":"ce4bgr92rcd13ifvqc6g","pricing_plan_id":"cebpf4jnsgd1na2vs0mg"},{"bike_id":"2ddc153b-df45-4dac-8186-bfb01b4a6bd0","system_id":"levelo_inurba_marseille","lat":43.313391,"lon":5.36706,"is_reserved":false,"is_disabled":false,"rental_uris":{"android":"levelo://app?vid=2ddc153b-df45-4dac-8186-bfb01b4a6bd0","ios":"levelo://app?vid=2ddc153b-df45-4dac-8186-bfb01b4a6bd0"},"vehicle_type_id":"4","last_reported":1722085767,"current_range_meters":31600,"station_id":"ce4bgr92rcd13ifvqc6g","pricing_plan_id":"cebpf4jnsgd1na2vs0mg"},{"bike_id":"fa279ac7-db49-4e76-b3c2-99988d52fb9f","system_id":"levelo_inurba_marseille","lat":43.312239,"lon":5.368562,"is_reserved":false,"is_disabled":false,"rental_uris":{"android":"levelo://app?vid=fa279ac7-db49-4e76-b3c2-99988d52fb9f","ios":"levelo://app?vid=fa279ac7-db49-4e76-b3c2-99988d52fb9f"},"vehicle_type_id":"4","last_reported":1722085767,"current_range_meters":23200,"station_id":"ce4bgl92rcd13ifvqbq0","pricing_plan_id":"cebpf4jnsgd1na2vs0mg"},{"bike_id":"077de5a7-72d5-4523-8ce7-e30b1e810dce","system_id":"levelo_inurba_marseille","lat":43.312239,"lon":5.368562,"is_reserved":false,"is_disabled":false,"rental_uris":{"android":"levelo://app?vid=077de5a7-72d5-4523-8ce7-e30b1e810dce","ios":"levelo://app?vid=077de5a7-72d5-4523-8ce7-e30b1e810dce"},"vehicle_type_id":"4","last_reported":1722085767,"current_range_meters":3200,"station_id":"ce4bgl92rcd13ifvqbq0","pricing_plan_id":"cebpf4jnsgd1na2vs0mg"},{"bike_id":"4056ea7c-bf7c-4e23-891e-48bb3c6eb35f","system_id":"levelo_inurba_marseille","lat":43.312239,"lon":5.368562,"is_reserved":false,"is_disabled":false,"rental_uris":{"android":"levelo://app?vid=4056ea7c-bf7c-4e23-891e-48bb3c6eb35f","ios":"levelo://app?vid=4056ea7c-bf7c-4e23-891e-48bb3c6eb35f"},"vehicle_type_id":"4","last_reported":1722085767,"current_range_meters":0,"station_id":"ce4bgl92rcd13ifvqbq0","pricing_plan_id":"cebpf4jnsgd1na2vs0mg"},{"bike_id":"69aefc41-84b8-443a-a224-b79d4928a55d","system_id":"levelo_inurba_marseille","lat":43.312239,"lon":5.368562,"is_reserved":false,"is_disabled":false,"rental_uris":{"android":"levelo://app?vid=69aefc41-84b8-443a-a224-b79d4928a55d","ios":"levelo://app?vid=69aefc41-84b8-443a-a224-b79d4928a55d"},"vehicle_type_id":"4","last_reported":1722085767,"current_range_meters":13600,"station_id":"ce4bgl92rcd13ifvqbq0","pricing_plan_id":"cebpf4jnsgd1na2vs0mg"},{"bike_id":"11a10c25-5f00-4485-8c05-eaeb258c56d6","system_id":"levelo_inurba_marseille","lat":43.312239,"lon":5.368562,"is_reserved":false,"is_disabled":false,"rental_uris":{"android":"levelo://app?vid=11a10c25-5f00-4485-8c05-eaeb258c56d6","ios":"levelo://app?vid=11a10c25-5f00-4485-8c05-eaeb258c56d6"},"vehicle_type_id":"4","last_reported":1722085767,"current_range_meters":22800,"station_id":"ce4bgl92rcd13ifvqbq0","pricing_plan_id":"cebpf4jnsgd1na2vs0mg"},{"bike_id":"68e0b2e9-5324-4eee-9609-4cc1b5bb5a72","system_id":"levelo_inurba_marseille","lat":43.312239,"lon":5.368562,"is_reserved":false,"is_disabled":false,"rental_uris":{"android":"levelo://app?vid=68e0b2e9-5324-4eee-9609-4cc1b5bb5a72","ios":"levelo://app?vid=68e0b2e9-5324-4eee-9609-4cc1b5bb5a72"},"vehicle_type_id":"4","last_reported":1722085767,"current_range_meters":26000,"station_id":"ce4bgl92rcd13ifvqbq0","pricing_plan_id":"cebpf4jnsgd1na2vs0mg"},{"bike_id":"3e6f926b-3f97-4daa-8289-ec09e31d779b","system_id":"levelo_inurba_marseille","lat":43.312239,"lon":5.368562,"is_reserved":false,"is_disabled":false,"rental_uris":{"android":"levelo://app?vid=3e6f926b-3f97-4daa-8289-ec09e31d779b","ios":"levelo://app?vid=3e6f926b-3f97-4daa-8289-ec09e31d779b"},"vehicle_type_id":"4","last_reported":1722085767,"current_range_meters":21600,"station_id":"ce4bgl92rcd13ifvqbq0","pricing_plan_id":"cebpf4jnsgd1na2vs0mg"},{"bike_id":"70b147dd-4dee-45ec-b1a6-7eca4050b185","system_id":"levelo_inurba_marseille","lat":43.314984,"lon":5.368485,"is_reserved":false,"is_disabled":false,"rental_uris":{"android":"levelo://app?vid=70b147dd-4dee-45ec-b1a6-7eca4050b185","ios":"levelo://app?vid=70b147dd-4dee-45ec-b1a6-7eca4050b185"},"vehicle_type_id":"4","last_reported":1722085767,"current_range_meters":10400,"station_id":"","pricing_plan_id":"cebpf4jnsgd1na2vs0mg"},{"bike_id":"66573ae9-58e8-4450-aeac-b0f0e32816c3","system_id":"levelo_inurba_marseille","lat":43.309076,"lon":5.368465,"is_reserved":false,"is_disabled":false,"rental_uris":{"android":"levelo://app?vid=66573ae9-58e8-4450-aeac-b0f0e32816c3","ios":"levelo://app?vid=66573ae9-58e8-4450-aeac-b0f0e32816c3"},"vehicle_type_id":"4","last_reported":1722085767,"current_range_meters":30000,"station_id":"ce4bgn92rcd13ifvqbvg","pricing_plan_id":"cebpf4jnsgd1na2vs0mg"},{"bike_id":"b4974b09-ce70-4139-b130-7acf6addc35a","system_id":"levelo_inurba_marseille","lat":43.309076,"lon":5.368465,"is_reserved":false,"is_disabled":false,"rental_uris":{"android":"levelo://app?vid=b4974b09-ce70-4139-b130-7acf6addc35a","ios":"levelo://app?vid=b4974b09-ce70-4139-b130-7acf6addc35a"},"vehicle_type_id":"4","last_reported":1722085767,"current_range_meters":13600,"station_id":"ce4bgn92rcd13ifvqbvg","pricing_plan_id":"cebpf4jnsgd1na2vs0mg"},{"bike_id":"688f351b-f431-4895-bcb5-f2fff912fe0c","system_id":"levelo_inurba_marseille","lat":43.314811,"lon":5.373103,"is_reserved":false,"is_disabled":false,"rental_uris":{"android":"levelo://app?vid=688f351b-f431-4895-bcb5-f2fff912fe0c","ios":"levelo://app?vid=688f351b-f431-4895-bcb5-f2fff912fe0c"},"vehicle_type_id":"4","last_reported":1722085767,"current_range_meters":23200,"station_id":"ce4bgt12rcd13ifvqcd0","pricing_plan_id":"cebpf4jnsgd1na2vs0mg"},{"bike_id":"0ca3eac3-a5b5-45de-9828-9521837c6aa4","system_id":"levelo_inurba_marseille","lat":43.314811,"lon":5.373103,"is_reserved":false,"is_disabled":false,"rental_uris":{"android":"levelo://app?vid=0ca3eac3-a5b5-45de-9828-9521837c6aa4","ios":"levelo://app?vid=0ca3eac3-a5b5-45de-9828-9521837c6aa4"},"vehicle_type_id":"4","last_reported":1722085767,"current_range_meters":18800,"station_id":"ce4bgt12rcd13ifvqcd0","pricing_plan_id":"cebpf4jnsgd1na2vs0mg"},{"bike_id":"6f2a24b6-4821-4067-8412-382b3224b9c7","system_id":"levelo_inurba_marseille","lat":43.31499,"lon":5.37315,"is_reserved":false,"is_disabled":false,"rental_uris":{"android":"levelo://app?vid=6f2a24b6-4821-4067-8412-382b3224b9c7","ios":"levelo://app?vid=6f2a24b6-4821-4067-8412-382b3224b9c7"},"vehicle_type_id":"4","last_reported":1722085767,"current_range_meters":0,"station_id":"ce4bgt12rcd13ifvqcd0","pricing_plan_id":"cebpf4jnsgd1na2vs0mg"},{"bike_id":"58b5a0f2-8dfd-4c1e-94b3-355be814bbf3","system_id":"levelo_inurba_marseille","lat":43.309039,"lon":5.371797,"is_reserved":false,"is_disabled":false,"rental_uris":{"android":"levelo://app?vid=58b5a0f2-8dfd-4c1e-94b3-355be814bbf3","ios":"levelo://app?vid=58b5a0f2-8dfd-4c1e-94b3-355be814bbf3"},"vehicle_type_id":"4","last_reported":1722085767,"current_range_meters":28000,"station_id":"ce4bguh2rcd13ifvqckg","pricing_plan_id":"cebpf4jnsgd1na2vs0mg"},{"bike_id":"99fc6748-4775-4aa4-a53a-ded0c0bcbba9","system_id":"levelo_inurba_marseille","lat":43.31545,"lon":5.37308,"is_reserved":false,"is_disabled":false,"rental_uris":{"android":"levelo://app?vid=99fc6748-4775-4aa4-a53a-ded0c0bcbba9","ios":"levelo://app?vid=99fc6748-4775-4aa4-a53a-ded0c0bcbba9"},"vehicle_type_id":"4","last_reported":1722085767,"current_range_meters":8400,"station_id":"","pricing_plan_id":"cebpf4jnsgd1na2vs0mg"},{"bike_id":"634add49-c70e-40cc-855f-2dbd635593b1","system_id":"levelo_inurba_marseille","lat":43.309039,"lon":5.371797,"is_reserved":false,"is_disabled":false,"rental_uris":{"android":"levelo://app?vid=634add49-c70e-40cc-855f-2dbd635593b1","ios":"levelo://app?vid=634add49-c70e-40cc-855f-2dbd635593b1"},"vehicle_type_id":"4","last_reported":1722085767,"current_range_meters":16000,"station_id":"ce4bguh2rcd13ifvqckg","pricing_plan_id":"cebpf4jnsgd1na2vs0mg"},{"bike_id":"8c4a85f1-b8fe-4387-854f-037a597b8430","system_id":"levelo_inurba_marseille","lat":43.309039,"lon":5.371797,"is_reserved":false,"is_disabled":false,"rental_uris":{"android":"levelo://app?vid=8c4a85f1-b8fe-4387-854f-037a597b8430","ios":"levelo://app?vid=8c4a85f1-b8fe-4387-854f-037a597b8430"},"vehicle_type_id":"4","last_reported":1722085767,"current_range_meters":21200,"station_id":"ce4bguh2rcd13ifvqckg","pricing_plan_id":"cebpf4jnsgd1na2vs0mg"},{"bike_id":"1ef70904-19f5-42a7-a1bd-fa2d73cdcab5","system_id":"levelo_inurba_marseille","lat":43.31675,"lon":5.374751,"is_reserved":false,"is_disabled":false,"rental_uris":{"android":"levelo://app?vid=1ef70904-19f5-42a7-a1bd-fa2d73cdcab5","ios":"levelo://app?vid=1ef70904-19f5-42a7-a1bd-fa2d73cdcab5"},"vehicle_type_id":"4","last_reported":1722085767,"current_range_meters":0,"station_id":"","pricing_plan_id":"cebpf4jnsgd1na2vs0mg"},{"bike_id":"8d4894b0-5231-4bfc-afdb-9e488be62f7e","system_id":"levelo_inurba_marseille","lat":43.305712,"lon":5.365641,"is_reserved":false,"is_disabled":false,"rental_uris":{"android":"levelo://app?vid=8d4894b0-5231-4bfc-afdb-9e488be62f7e","ios":"levelo://app?vid=8d4894b0-5231-4bfc-afdb-9e488be62f7e"},"vehicle_type_id":"4","last_reported":1722085767,"current_range_meters":4800,"station_id":"ce4bgs12rcd13ifvqcag","pricing_plan_id":"cebpf4jnsgd1na2vs0mg"},{"bike_id":"9bbd57e0-1208-4360-b777-d1ac8c6e1715","system_id":"levelo_inurba_marseille","lat":43.305712,"lon":5.365641,"is_reserved":false,"is_disabled":false,"rental_uris":{"android":"levelo://app?vid=9bbd57e0-1208-4360-b777-d1ac8c6e1715","ios":"levelo://app?vid=9bbd57e0-1208-4360-b777-d1ac8c6e1715"},"vehicle_type_id":"4","last_reported":1722085767,"current_range_meters":14400,"station_id":"ce4bgs12rcd13ifvqcag","pricing_plan_id":"cebpf4jnsgd1na2vs0mg"},{"bike_id":"0c6bd5ba-b2cd-4879-8be0-e84a5b75d466","system_id":"levelo_inurba_marseille","lat":43.305712,"lon":5.365641,"is_reserved":false,"is_disabled":false,"rental_uris":{"android":"levelo://app?vid=0c6bd5ba-b2cd-4879-8be0-e84a5b75d466","ios":"levelo://app?vid=0c6bd5ba-b2cd-4879-8be0-e84a5b75d466"},"vehicle_type_id":"4","last_reported":1722085767,"current_range_meters":18000,"station_id":"ce4bgs12rcd13ifvqcag","pricing_plan_id":"cebpf4jnsgd1na2vs0mg"},{"bike_id":"53c5e90a-357d-49a5-8836-f9a7af013758","system_id":"levelo_inurba_marseille","lat":43.305712,"lon":5.365641,"is_reserved":false,"is_disabled":false,"rental_uris":{"android":"levelo://app?vid=53c5e90a-357d-49a5-8836-f9a7af013758","ios":"levelo://app?vid=53c5e90a-357d-49a5-8836-f9a7af013758"},"vehicle_type_id":"4","last_reported":1722085767,"current_range_meters":12400,"station_id":"ce4bgs12rcd13ifvqcag","pricing_plan_id":"cebpf4jnsgd1na2vs0mg"},{"bike_id":"8239b7a9-4ded-4801-b143-4c04a50dce90","system_id":"levelo_inurba_marseille","lat":43.30549,"lon":5.36549,"is_reserved":false,"is_disabled":false,"rental_uris":{"android":"levelo://app?vid=8239b7a9-4ded-4801-b143-4c04a50dce90","ios":"levelo://app?vid=8239b7a9-4ded-4801-b143-4c04a50dce90"},"vehicle_type_id":"4","last_reported":1722085767,"current_range_meters":18000,"station_id":"ce4bgs12rcd13ifvqcag","pricing_plan_id":"cebpf4jnsgd1na2vs0mg"},{"bike_id":"a0d048ed-125f-4ef0-b96f-81339ff5e795","system_id":"levelo_inurba_marseille","lat":43.30549,"lon":5.36548,"is_reserved":false,"is_disabled":false,"rental_uris":{"android":"levelo://app?vid=a0d048ed-125f-4ef0-b96f-81339ff5e795","ios":"levelo://app?vid=a0d048ed-125f-4ef0-b96f-81339ff5e795"},"vehicle_type_id":"4","last_reported":1722085767,"current_range_meters":24400,"station_id":"ce4bgs12rcd13ifvqcag","pricing_plan_id":"cebpf4jnsgd1na2vs0mg"},{"bike_id":"24dcd65c-b12b-4bf3-b108-e9cf8c377766","system_id":"levelo_inurba_marseille","lat":43.30616,"lon":5.37215,"is_reserved":false,"is_disabled":false,"rental_uris":{"android":"levelo://app?vid=24dcd65c-b12b-4bf3-b108-e9cf8c377766","ios":"levelo://app?vid=24dcd65c-b12b-4bf3-b108-e9cf8c377766"},"vehicle_type_id":"4","last_reported":1722085767,"current_range_meters":21600,"station_id":"ce4bgqh2rcd13ifvqc4g","pricing_plan_id":"cebpf4jnsgd1na2vs0mg"},{"bike_id":"a3bd9a0a-e3df-4e60-b8df-214c951501ca","system_id":"levelo_inurba_marseille","lat":43.305989,"lon":5.37225,"is_reserved":false,"is_disabled":false,"rental_uris":{"android":"levelo://app?vid=a3bd9a0a-e3df-4e60-b8df-214c951501ca","ios":"levelo://app?vid=a3bd9a0a-e3df-4e60-b8df-214c951501ca"},"vehicle_type_id":"4","last_reported":1722085767,"current_range_meters":24400,"station_id":"ce4bgqh2rcd13ifvqc4g","pricing_plan_id":"cebpf4jnsgd1na2vs0mg"},{"bike_id":"3b9df079-81c4-4b9e-b924-73dbf2ef5a95","system_id":"levelo_inurba_marseille","lat":43.305989,"lon":5.37225,"is_reserved":false,"is_disabled":false,"rental_uris":{"android":"levelo://app?vid=3b9df079-81c4-4b9e-b924-73dbf2ef5a95","ios":"levelo://app?vid=3b9df079-81c4-4b9e-b924-73dbf2ef5a95"},"vehicle_type_id":"4","last_reported":1722085767,"current_range_meters":0,"station_id":"ce4bgqh2rcd13ifvqc4g","pricing_plan_id":"cebpf4jnsgd1na2vs0mg"},{"bike_id":"14bf7a58-c03a-4702-9f23-38d2d8f72bf6","system_id":"levelo_inurba_marseille","lat":43.311131,"lon":5.377651,"is_reserved":false,"is_disabled":false,"rental_uris":{"android":"levelo://app?vid=14bf7a58-c03a-4702-9f23-38d2d8f72bf6","ios":"levelo://app?vid=14bf7a58-c03a-4702-9f23-38d2d8f72bf6"},"vehicle_type_id":"4","last_reported":1722085767,"current_range_meters":4000,"station_id":"ce4bgt92rcd13ifvqcg0","pricing_plan_id":"cebpf4jnsgd1na2vs0mg"},{"bike_id":"0c507310-97cd-4e94-a14a-2b8c9b3e0204","system_id":"levelo_inurba_marseille","lat":43.305368,"lon":5.367343,"is_reserved":false,"is_disabled":false,"rental_uris":{"android":"levelo://app?vid=0c507310-97cd-4e94-a14a-2b8c9b3e0204","ios":"levelo://app?vid=0c507310-97cd-4e94-a14a-2b8c9b3e0204"},"vehicle_type_id":"4","last_reported":1722085767,"current_range_meters":20000,"station_id":"ce4bgrp2rcd13ifvqc9g","pricing_plan_id":"cebpf4jnsgd1na2vs0mg"},{"bike_id":"214ccdb7-6de7-408e-b5a8-27d2544d276f","system_id":"levelo_inurba_marseille","lat":43.317075,"lon":5.377367,"is_reserved":false,"is_disabled":false,"rental_uris":{"android":"levelo://app?vid=214ccdb7-6de7-408e-b5a8-27d2544d276f","ios":"levelo://app?vid=214ccdb7-6de7-408e-b5a8-27d2544d276f"},"vehicle_type_id":"4","last_reported":1722085767,"current_range_meters":15200,"station_id":"ce4bgth2rcd13ifvqch0","pricing_plan_id":"cebpf4jnsgd1na2vs0mg"},{"bike_id":"f95e3773-5c34-4d2c-b5fe-5d2929ce1ef0","system_id":"levelo_inurba_marseille","lat":43.317075,"lon":5.377367,"is_reserved":false,"is_disabled":false,"rental_uris":{"android":"levelo://app?vid=f95e3773-5c34-4d2c-b5fe-5d2929ce1ef0","ios":"levelo://app?vid=f95e3773-5c34-4d2c-b5fe-5d2929ce1ef0"},"vehicle_type_id":"4","last_reported":1722085767,"current_range_meters":6400,"station_id":"ce4bgth2rcd13ifvqch0","pricing_plan_id":"cebpf4jnsgd1na2vs0mg"},{"bike_id":"a2863c0b-a215-4d05-8d0e-42b8dc8e5aeb","system_id":"levelo_inurba_marseille","lat":43.305712,"lon":5.365641,"is_reserved":false,"is_disabled":false,"rental_uris":{"android":"levelo://app?vid=a2863c0b-a215-4d05-8d0e-42b8dc8e5aeb","ios":"levelo://app?vid=a2863c0b-a215-4d05-8d0e-42b8dc8e5aeb"},"vehicle_type_id":"4","last_reported":1722085767,"current_range_meters":26000,"station_id":"ce4bgs12rcd13ifvqcag","pricing_plan_id":"cebpf4jnsgd1na2vs0mg"},{"bike_id":"934f0b97-8586-4dd8-956b-22b9aa2d83bd","system_id":"levelo_inurba_marseille","lat":43.315289,"lon":5.380349,"is_reserved":false,"is_disabled":false,"rental_uris":{"android":"levelo://app?vid=934f0b97-8586-4dd8-956b-22b9aa2d83bd","ios":"levelo://app?vid=934f0b97-8586-4dd8-956b-22b9aa2d83bd"},"vehicle_type_id":"4","last_reported":1722085767,"current_range_meters":26800,"station_id":"ce4bhsp2rcd13ifvqi50","pricing_plan_id":"cebpf4jnsgd1na2vs0mg"},{"bike_id":"6d8c8136-ebbb-435e-990a-13371e9ee2de","system_id":"levelo_inurba_marseille","lat":43.315361,"lon":5.380263,"is_reserved":false,"is_disabled":false,"rental_uris":{"android":"levelo://app?vid=6d8c8136-ebbb-435e-990a-13371e9ee2de","ios":"levelo://app?vid=6d8c8136-ebbb-435e-990a-13371e9ee2de"},"vehicle_type_id":"4","last_reported":1722085767,"current_range_meters":26400,"station_id":"ce4bhsp2rcd13ifvqi50","pricing_plan_id":"cebpf4jnsgd1na2vs0mg"},{"bike_id":"817e62d3-5e2f-4ae3-acfd-41fa207a84fe","system_id":"levelo_inurba_marseille","lat":43.315289,"lon":5.380349,"is_reserved":false,"is_disabled":false,"rental_uris":{"android":"levelo://app?vid=817e62d3-5e2f-4ae3-acfd-41fa207a84fe","ios":"levelo://app?vid=817e62d3-5e2f-4ae3-acfd-41fa207a84fe"},"vehicle_type_id":"4","last_reported":1722085767,"current_range_meters":17200,"station_id":"ce4bhsp2rcd13ifvqi50","pricing_plan_id":"cebpf4jnsgd1na2vs0mg"},{"bike_id":"a53ca99e-965b-443f-a2f7-3ef412ee5c84","system_id":"levelo_inurba_marseille","lat":43.315326,"lon":5.380306,"is_reserved":false,"is_disabled":false,"rental_uris":{"android":"levelo://app?vid=a53ca99e-965b-443f-a2f7-3ef412ee5c84","ios":"levelo://app?vid=a53ca99e-965b-443f-a2f7-3ef412ee5c84"},"vehicle_type_id":"4","last_reported":1722085767,"current_range_meters":30000,"station_id":"ce4bhsp2rcd13ifvqi50","pricing_plan_id":"cebpf4jnsgd1na2vs0mg"},{"bike_id":"b5abd685-417f-4836-add0-416e7e2a3854","system_id":"levelo_inurba_marseille","lat":43.315289,"lon":5.380349,"is_reserved":false,"is_disabled":false,"rental_uris":{"android":"levelo://app?vid=b5abd685-417f-4836-add0-416e7e2a3854","ios":"levelo://app?vid=b5abd685-417f-4836-add0-416e7e2a3854"},"vehicle_type_id":"4","last_reported":1722085767,"current_range_meters":5600,"station_id":"ce4bhsp2rcd13ifvqi50","pricing_plan_id":"cebpf4jnsgd1na2vs0mg"},{"bike_id":"5768c54c-53a8-4ad2-85b1-712a45c2bf70","system_id":"levelo_inurba_marseille","lat":43.31537,"lon":5.380311,"is_reserved":false,"is_disabled":false,"rental_uris":{"android":"levelo://app?vid=5768c54c-53a8-4ad2-85b1-712a45c2bf70","ios":"levelo://app?vid=5768c54c-53a8-4ad2-85b1-712a45c2bf70"},"vehicle_type_id":"4","last_reported":1722085767,"current_range_meters":29200,"station_id":"ce4bhsp2rcd13ifvqi50","pricing_plan_id":"cebpf4jnsgd1na2vs0mg"},{"bike_id":"45c14a0e-0546-448a-8ab2-cf9dd6f9275e","system_id":"levelo_inurba_marseille","lat":43.31535,"lon":5.38032,"is_reserved":false,"is_disabled":false,"rental_uris":{"android":"levelo://app?vid=45c14a0e-0546-448a-8ab2-cf9dd6f9275e","ios":"levelo://app?vid=45c14a0e-0546-448a-8ab2-cf9dd6f9275e"},"vehicle_type_id":"4","last_reported":1722085767,"current_range_meters":28800,"station_id":"ce4bhsp2rcd13ifvqi50","pricing_plan_id":"cebpf4jnsgd1na2vs0mg"},{"bike_id":"88e1ae86-96d0-4770-8720-1a86c4c8f7ec","system_id":"levelo_inurba_marseille","lat":43.31541,"lon":5.38031,"is_reserved":false,"is_disabled":false,"rental_uris":{"android":"levelo://app?vid=88e1ae86-96d0-4770-8720-1a86c4c8f7ec","ios":"levelo://app?vid=88e1ae86-96d0-4770-8720-1a86c4c8f7ec"},"vehicle_type_id":"4","last_reported":1722085767,"current_range_meters":26400,"station_id":"ce4bhsp2rcd13ifvqi50","pricing_plan_id":"cebpf4jnsgd1na2vs0mg"},{"bike_id":"67c509a1-43af-470c-968c-68a461c7d31c","system_id":"levelo_inurba_marseille","lat":43.31535,"lon":5.38034,"is_reserved":false,"is_disabled":false,"rental_uris":{"android":"levelo://app?vid=67c509a1-43af-470c-968c-68a461c7d31c","ios":"levelo://app?vid=67c509a1-43af-470c-968c-68a461c7d31c"},"vehicle_type_id":"4","last_reported":1722085767,"current_range_meters":30000,"station_id":"ce4bhsp2rcd13ifvqi50","pricing_plan_id":"cebpf4jnsgd1na2vs0mg"},{"bike_id":"e1576ded-b366-46de-aa33-87e0e77c0d45","system_id":"levelo_inurba_marseille","lat":43.315289,"lon":5.380349,"is_reserved":false,"is_disabled":false,"rental_uris":{"android":"levelo://app?vid=e1576ded-b366-46de-aa33-87e0e77c0d45","ios":"levelo://app?vid=e1576ded-b366-46de-aa33-87e0e77c0d45"},"vehicle_type_id":"4","last_reported":1722085767,"current_range_meters":10400,"station_id":"ce4bhsp2rcd13ifvqi50","pricing_plan_id":"cebpf4jnsgd1na2vs0mg"},{"bike_id":"cf3667db-a03a-42a7-a360-5cb68de93ca3","system_id":"levelo_inurba_marseille","lat":43.315289,"lon":5.380349,"is_reserved":false,"is_disabled":false,"rental_uris":{"android":"levelo://app?vid=cf3667db-a03a-42a7-a360-5cb68de93ca3","ios":"levelo://app?vid=cf3667db-a03a-42a7-a360-5cb68de93ca3"},"vehicle_type_id":"4","last_reported":1722085767,"current_range_meters":21600,"station_id":"ce4bhsp2rcd13ifvqi50","pricing_plan_id":"cebpf4jnsgd1na2vs0mg"},{"bike_id":"fad235f2-0449-4d2d-9fcf-eca8df43759e","system_id":"levelo_inurba_marseille","lat":43.315289,"lon":5.380349,"is_reserved":false,"is_disabled":false,"rental_uris":{"android":"levelo://app?vid=fad235f2-0449-4d2d-9fcf-eca8df43759e","ios":"levelo://app?vid=fad235f2-0449-4d2d-9fcf-eca8df43759e"},"vehicle_type_id":"4","last_reported":1722085767,"current_range_meters":21600,"station_id":"ce4bhsp2rcd13ifvqi50","pricing_plan_id":"cebpf4jnsgd1na2vs0mg"},{"bike_id":"86a28410-184b-4744-877b-6ae2b25c4f4b","system_id":"levelo_inurba_marseille","lat":43.315289,"lon":5.380349,"is_reserved":false,"is_disabled":false,"rental_uris":{"android":"levelo://app?vid=86a28410-184b-4744-877b-6ae2b25c4f4b","ios":"levelo://app?vid=86a28410-184b-4744-877b-6ae2b25c4f4b"},"vehicle_type_id":"4","last_reported":1722085767,"current_range_meters":24800,"station_id":"ce4bhsp2rcd13ifvqi50","pricing_plan_id":"cebpf4jnsgd1na2vs0mg"},{"bike_id":"b804cf6c-f1f2-476a-9212-a72e9c30a98e","system_id":"levelo_inurba_marseille","lat":43.315293,"lon":5.380349,"is_reserved":false,"is_disabled":false,"rental_uris":{"android":"levelo://app?vid=b804cf6c-f1f2-476a-9212-a72e9c30a98e","ios":"levelo://app?vid=b804cf6c-f1f2-476a-9212-a72e9c30a98e"},"vehicle_type_id":"4","last_reported":1722085767,"current_range_meters":27200,"station_id":"ce4bhsp2rcd13ifvqi50","pricing_plan_id":"cebpf4jnsgd1na2vs0mg"},{"bike_id":"e290bae6-8ef0-4c20-908d-77fc57a94b47","system_id":"levelo_inurba_marseille","lat":43.324771,"lon":5.36557,"is_reserved":false,"is_disabled":false,"rental_uris":{"android":"levelo://app?vid=e290bae6-8ef0-4c20-908d-77fc57a94b47","ios":"levelo://app?vid=e290bae6-8ef0-4c20-908d-77fc57a94b47"},"vehicle_type_id":"4","last_reported":1722085767,"current_range_meters":7200,"station_id":"ce4bhs12rcd13ifvqhvg","pricing_plan_id":"cebpf4jnsgd1na2vs0mg"},{"bike_id":"26d67c8f-831e-4fb3-9f00-461b68fe5d1c","system_id":"levelo_inurba_marseille","lat":43.301939,"lon":5.366286,"is_reserved":false,"is_disabled":false,"rental_uris":{"android":"levelo://app?vid=26d67c8f-831e-4fb3-9f00-461b68fe5d1c","ios":"levelo://app?vid=26d67c8f-831e-4fb3-9f00-461b68fe5d1c"},"vehicle_type_id":"4","last_reported":1722085767,"current_range_meters":18400,"station_id":"ce4bgrh2rcd13ifvqc8g","pricing_plan_id":"cebpf4jnsgd1na2vs0mg"},{"bike_id":"4223f9dd-936f-48fc-86b5-74fd44bdb977","system_id":"levelo_inurba_marseille","lat":43.30472,"lon":5.37893,"is_reserved":false,"is_disabled":false,"rental_uris":{"android":"levelo://app?vid=4223f9dd-936f-48fc-86b5-74fd44bdb977","ios":"levelo://app?vid=4223f9dd-936f-48fc-86b5-74fd44bdb977"},"vehicle_type_id":"4","last_reported":1722085767,"current_range_meters":21600,"station_id":"ce4bgup2rcd13ifvqcn0","pricing_plan_id":"cebpf4jnsgd1na2vs0mg"},{"bike_id":"13beec3f-032e-4591-9531-cfc9f3d9370e","system_id":"levelo_inurba_marseille","lat":43.304606,"lon":5.379026,"is_reserved":false,"is_disabled":false,"rental_uris":{"android":"levelo://app?vid=13beec3f-032e-4591-9531-cfc9f3d9370e","ios":"levelo://app?vid=13beec3f-032e-4591-9531-cfc9f3d9370e"},"vehicle_type_id":"4","last_reported":1722085767,"current_range_meters":18000,"station_id":"ce4bgup2rcd13ifvqcn0","pricing_plan_id":"cebpf4jnsgd1na2vs0mg"},{"bike_id":"3a24fae2-0af4-4602-9a23-057394bfd4d7","system_id":"levelo_inurba_marseille","lat":43.304606,"lon":5.379026,"is_reserved":false,"is_disabled":false,"rental_uris":{"android":"levelo://app?vid=3a24fae2-0af4-4602-9a23-057394bfd4d7","ios":"levelo://app?vid=3a24fae2-0af4-4602-9a23-057394bfd4d7"},"vehicle_type_id":"4","last_reported":1722085767,"current_range_meters":14800,"station_id":"ce4bgup2rcd13ifvqcn0","pricing_plan_id":"cebpf4jnsgd1na2vs0mg"},{"bike_id":"3d876e83-dc17-42a4-95e9-b9156fff5fcc","system_id":"levelo_inurba_marseille","lat":43.324771,"lon":5.36557,"is_reserved":false,"is_disabled":false,"rental_uris":{"android":"levelo://app?vid=3d876e83-dc17-42a4-95e9-b9156fff5fcc","ios":"levelo://app?vid=3d876e83-dc17-42a4-95e9-b9156fff5fcc"},"vehicle_type_id":"4","last_reported":1722085767,"current_range_meters":6800,"station_id":"ce4bhs12rcd13ifvqhvg","pricing_plan_id":"cebpf4jnsgd1na2vs0mg"},{"bike_id":"33499b9a-4468-4d2a-9302-d9435251028e","system_id":"levelo_inurba_marseille","lat":43.324771,"lon":5.36557,"is_reserved":false,"is_disabled":false,"rental_uris":{"android":"levelo://app?vid=33499b9a-4468-4d2a-9302-d9435251028e","ios":"levelo://app?vid=33499b9a-4468-4d2a-9302-d9435251028e"},"vehicle_type_id":"4","last_reported":1722085767,"current_range_meters":9200,"station_id":"ce4bhs12rcd13ifvqhvg","pricing_plan_id":"cebpf4jnsgd1na2vs0mg"},{"bike_id":"2fb79667-ea02-4953-87fa-e97ab647561d","system_id":"levelo_inurba_marseille","lat":43.324771,"lon":5.36557,"is_reserved":false,"is_disabled":false,"rental_uris":{"android":"levelo://app?vid=2fb79667-ea02-4953-87fa-e97ab647561d","ios":"levelo://app?vid=2fb79667-ea02-4953-87fa-e97ab647561d"},"vehicle_type_id":"4","last_reported":1722085767,"current_range_meters":28400,"station_id":"ce4bhs12rcd13ifvqhvg","pricing_plan_id":"cebpf4jnsgd1na2vs0mg"},{"bike_id":"6bee0eaf-c8ac-439e-8fcc-ede6fe2f1595","system_id":"levelo_inurba_marseille","lat":43.324771,"lon":5.36557,"is_reserved":false,"is_disabled":false,"rental_uris":{"android":"levelo://app?vid=6bee0eaf-c8ac-439e-8fcc-ede6fe2f1595","ios":"levelo://app?vid=6bee0eaf-c8ac-439e-8fcc-ede6fe2f1595"},"vehicle_type_id":"4","last_reported":1722085767,"current_range_meters":31200,"station_id":"ce4bhs12rcd13ifvqhvg","pricing_plan_id":"cebpf4jnsgd1na2vs0mg"},{"bike_id":"de9fcd48-cb02-49f9-ba9e-930aa8efa881","system_id":"levelo_inurba_marseille","lat":43.3102,"lon":5.38387,"is_reserved":false,"is_disabled":false,"rental_uris":{"android":"levelo://app?vid=de9fcd48-cb02-49f9-ba9e-930aa8efa881","ios":"levelo://app?vid=de9fcd48-cb02-49f9-ba9e-930aa8efa881"},"vehicle_type_id":"4","last_reported":1722085767,"current_range_meters":22400,"station_id":"ce4bhr12rcd13ifvqhqg","pricing_plan_id":"cebpf4jnsgd1na2vs0mg"},{"bike_id":"a64e2aca-3c46-488d-ae81-e6a3bbc575ef","system_id":"levelo_inurba_marseille","lat":43.299222,"lon":5.365554,"is_reserved":false,"is_disabled":false,"rental_uris":{"android":"levelo://app?vid=a64e2aca-3c46-488d-ae81-e6a3bbc575ef","ios":"levelo://app?vid=a64e2aca-3c46-488d-ae81-e6a3bbc575ef"},"vehicle_type_id":"4","last_reported":1722085767,"current_range_meters":11200,"station_id":"ce4bgm92rcd13ifvqbr0","pricing_plan_id":"cebpf4jnsgd1na2vs0mg"},{"bike_id":"710fe7ff-6988-4966-bcd7-7903ca8d95f8","system_id":"levelo_inurba_marseille","lat":43.299222,"lon":5.365554,"is_reserved":false,"is_disabled":false,"rental_uris":{"android":"levelo://app?vid=710fe7ff-6988-4966-bcd7-7903ca8d95f8","ios":"levelo://app?vid=710fe7ff-6988-4966-bcd7-7903ca8d95f8"},"vehicle_type_id":"4","last_reported":1722085767,"current_range_meters":10400,"station_id":"ce4bgm92rcd13ifvqbr0","pricing_plan_id":"cebpf4jnsgd1na2vs0mg"},{"bike_id":"6c1172e0-45eb-43b4-9657-800bf75677b8","system_id":"levelo_inurba_marseille","lat":43.299222,"lon":5.365554,"is_reserved":false,"is_disabled":false,"rental_uris":{"android":"levelo://app?vid=6c1172e0-45eb-43b4-9657-800bf75677b8","ios":"levelo://app?vid=6c1172e0-45eb-43b4-9657-800bf75677b8"},"vehicle_type_id":"4","last_reported":1722085767,"current_range_meters":7200,"station_id":"ce4bgm92rcd13ifvqbr0","pricing_plan_id":"cebpf4jnsgd1na2vs0mg"},{"bike_id":"9df41fec-4549-43f8-8c75-7517744cbb33","system_id":"levelo_inurba_marseille","lat":43.320323,"lon":5.382661,"is_reserved":false,"is_disabled":false,"rental_uris":{"android":"levelo://app?vid=9df41fec-4549-43f8-8c75-7517744cbb33","ios":"levelo://app?vid=9df41fec-4549-43f8-8c75-7517744cbb33"},"vehicle_type_id":"4","last_reported":1722085767,"current_range_meters":29600,"station_id":"","pricing_plan_id":"cebpf4jnsgd1na2vs0mg"},{"bike_id":"72e8f382-0f63-4362-8ef1-f6222cf3dc05","system_id":"levelo_inurba_marseille","lat":43.2985,"lon":5.36284,"is_reserved":false,"is_disabled":false,"rental_uris":{"android":"levelo://app?vid=72e8f382-0f63-4362-8ef1-f6222cf3dc05","ios":"levelo://app?vid=72e8f382-0f63-4362-8ef1-f6222cf3dc05"},"vehicle_type_id":"4","last_reported":1722085767,"current_range_meters":22800,"station_id":"ce4bgpp2rcd13ifvqc3g","pricing_plan_id":"cebpf4jnsgd1na2vs0mg"},{"bike_id":"64f720cd-9f02-4144-86fa-d8d611ad9ce3","system_id":"levelo_inurba_marseille","lat":43.2985,"lon":5.36281,"is_reserved":false,"is_disabled":false,"rental_uris":{"android":"levelo://app?vid=64f720cd-9f02-4144-86fa-d8d611ad9ce3","ios":"levelo://app?vid=64f720cd-9f02-4144-86fa-d8d611ad9ce3"},"vehicle_type_id":"4","last_reported":1722085767,"current_range_meters":21600,"station_id":"ce4bgpp2rcd13ifvqc3g","pricing_plan_id":"cebpf4jnsgd1na2vs0mg"},{"bike_id":"3c029f6c-6856-4b82-b2cc-09b93823c649","system_id":"levelo_inurba_marseille","lat":43.298433,"lon":5.362774,"is_reserved":false,"is_disabled":false,"rental_uris":{"android":"levelo://app?vid=3c029f6c-6856-4b82-b2cc-09b93823c649","ios":"levelo://app?vid=3c029f6c-6856-4b82-b2cc-09b93823c649"},"vehicle_type_id":"4","last_reported":1722085767,"current_range_meters":30000,"station_id":"ce4bgpp2rcd13ifvqc3g","pricing_plan_id":"cebpf4jnsgd1na2vs0mg"},{"bike_id":"23a1011d-a425-414d-af34-9cdc0d211485","system_id":"levelo_inurba_marseille","lat":43.298433,"lon":5.362774,"is_reserved":false,"is_disabled":false,"rental_uris":{"android":"levelo://app?vid=23a1011d-a425-414d-af34-9cdc0d211485","ios":"levelo://app?vid=23a1011d-a425-414d-af34-9cdc0d211485"},"vehicle_type_id":"4","last_reported":1722085767,"current_range_meters":32000,"station_id":"ce4bgpp2rcd13ifvqc3g","pricing_plan_id":"cebpf4jnsgd1na2vs0mg"},{"bike_id":"0ea4521b-20b1-49be-a212-6ccfb5b3633b","system_id":"levelo_inurba_marseille","lat":43.298433,"lon":5.362774,"is_reserved":false,"is_disabled":false,"rental_uris":{"android":"levelo://app?vid=0ea4521b-20b1-49be-a212-6ccfb5b3633b","ios":"levelo://app?vid=0ea4521b-20b1-49be-a212-6ccfb5b3633b"},"vehicle_type_id":"4","last_reported":1722085767,"current_range_meters":20800,"station_id":"ce4bgpp2rcd13ifvqc3g","pricing_plan_id":"cebpf4jnsgd1na2vs0mg"},{"bike_id":"7654bff5-aa9a-4a38-8769-b6aaf02a9ee7","system_id":"levelo_inurba_marseille","lat":43.298433,"lon":5.362774,"is_reserved":false,"is_disabled":false,"rental_uris":{"android":"levelo://app?vid=7654bff5-aa9a-4a38-8769-b6aaf02a9ee7","ios":"levelo://app?vid=7654bff5-aa9a-4a38-8769-b6aaf02a9ee7"},"vehicle_type_id":"4","last_reported":1722085767,"current_range_meters":28000,"station_id":"ce4bgpp2rcd13ifvqc3g","pricing_plan_id":"cebpf4jnsgd1na2vs0mg"},{"bike_id":"95ee89e1-4d6a-4afb-a652-04cb4e2e7743","system_id":"levelo_inurba_marseille","lat":43.299243,"lon":5.37481,"is_reserved":false,"is_disabled":false,"rental_uris":{"android":"levelo://app?vid=95ee89e1-4d6a-4afb-a652-04cb4e2e7743","ios":"levelo://app?vid=95ee89e1-4d6a-4afb-a652-04cb4e2e7743"},"vehicle_type_id":"4","last_reported":1722085767,"current_range_meters":0,"station_id":"ce4bgjh2rcd13ifvqbg0","pricing_plan_id":"cebpf4jnsgd1na2vs0mg"},{"bike_id":"676a783e-e245-40b4-b5b2-40c4069e3988","system_id":"levelo_inurba_marseille","lat":43.31166,"lon":5.38723,"is_reserved":false,"is_disabled":false,"rental_uris":{"android":"levelo://app?vid=676a783e-e245-40b4-b5b2-40c4069e3988","ios":"levelo://app?vid=676a783e-e245-40b4-b5b2-40c4069e3988"},"vehicle_type_id":"4","last_reported":1722085767,"current_range_meters":15200,"station_id":"ce4bgv12rcd13ifvqcp0","pricing_plan_id":"cebpf4jnsgd1na2vs0mg"},{"bike_id":"258da0ef-3c20-4352-b9ba-f81d7607481d","system_id":"levelo_inurba_marseille","lat":43.30155,"lon":5.38094,"is_reserved":false,"is_disabled":false,"rental_uris":{"android":"levelo://app?vid=258da0ef-3c20-4352-b9ba-f81d7607481d","ios":"levelo://app?vid=258da0ef-3c20-4352-b9ba-f81d7607481d"},"vehicle_type_id":"4","last_reported":1722085767,"current_range_meters":27600,"station_id":"","pricing_plan_id":"cebpf4jnsgd1na2vs0mg"},{"bike_id":"cb685685-6451-477f-8403-4c49edf77041","system_id":"levelo_inurba_marseille","lat":43.30152,"lon":5.38099,"is_reserved":false,"is_disabled":false,"rental_uris":{"android":"levelo://app?vid=cb685685-6451-477f-8403-4c49edf77041","ios":"levelo://app?vid=cb685685-6451-477f-8403-4c49edf77041"},"vehicle_type_id":"4","last_reported":1722085767,"current_range_meters":28800,"station_id":"","pricing_plan_id":"cebpf4jnsgd1na2vs0mg"},{"bike_id":"2aa797f6-cf35-44ea-b97b-35b9e34f58e1","system_id":"levelo_inurba_marseille","lat":43.322904,"lon":5.38261,"is_reserved":false,"is_disabled":false,"rental_uris":{"android":"levelo://app?vid=2aa797f6-cf35-44ea-b97b-35b9e34f58e1","ios":"levelo://app?vid=2aa797f6-cf35-44ea-b97b-35b9e34f58e1"},"vehicle_type_id":"4","last_reported":1722085767,"current_range_meters":31200,"station_id":"ce4bhr12rcd13ifvqhqg","pricing_plan_id":"cebpf4jnsgd1na2vs0mg"},{"bike_id":"d4262961-f3bb-4638-aa76-74e085324454","system_id":"levelo_inurba_marseille","lat":43.322963,"lon":5.38257,"is_reserved":false,"is_disabled":false,"rental_uris":{"android":"levelo://app?vid=d4262961-f3bb-4638-aa76-74e085324454","ios":"levelo://app?vid=d4262961-f3bb-4638-aa76-74e085324454"},"vehicle_type_id":"4","last_reported":1722085767,"current_range_meters":400,"station_id":"ce4bhr12rcd13ifvqhqg","pricing_plan_id":"cebpf4jnsgd1na2vs0mg"},{"bike_id":"fcb56ca4-b343-49a1-85ec-be873f2aa94e","system_id":"levelo_inurba_marseille","lat":43.32289,"lon":5.3827,"is_reserved":false,"is_disabled":false,"rental_uris":{"android":"levelo://app?vid=fcb56ca4-b343-49a1-85ec-be873f2aa94e","ios":"levelo://app?vid=fcb56ca4-b343-49a1-85ec-be873f2aa94e"},"vehicle_type_id":"4","last_reported":1722085767,"current_range_meters":31200,"station_id":"ce4bhr12rcd13ifvqhqg","pricing_plan_id":"cebpf4jnsgd1na2vs0mg"},{"bike_id":"9486eedd-1f8d-4785-b568-8856f41e281a","system_id":"levelo_inurba_marseille","lat":43.32288,"lon":5.38274,"is_reserved":false,"is_disabled":false,"rental_uris":{"android":"levelo://app?vid=9486eedd-1f8d-4785-b568-8856f41e281a","ios":"levelo://app?vid=9486eedd-1f8d-4785-b568-8856f41e281a"},"vehicle_type_id":"4","last_reported":1722085767,"current_range_meters":6400,"station_id":"ce4bhr12rcd13ifvqhqg","pricing_plan_id":"cebpf4jnsgd1na2vs0mg"},{"bike_id":"631897c2-3c6a-41a0-9577-9b318ba17584","system_id":"levelo_inurba_marseille","lat":43.322872,"lon":5.382756,"is_reserved":false,"is_disabled":false,"rental_uris":{"android":"levelo://app?vid=631897c2-3c6a-41a0-9577-9b318ba17584","ios":"levelo://app?vid=631897c2-3c6a-41a0-9577-9b318ba17584"},"vehicle_type_id":"4","last_reported":1722085767,"current_range_meters":27600,"station_id":"ce4bhr12rcd13ifvqhqg","pricing_plan_id":"cebpf4jnsgd1na2vs0mg"},{"bike_id":"7a4a332f-ccad-4d9e-9cdf-a1c6d87ff077","system_id":"levelo_inurba_marseille","lat":43.322872,"lon":5.382756,"is_reserved":false,"is_disabled":false,"rental_uris":{"android":"levelo://app?vid=7a4a332f-ccad-4d9e-9cdf-a1c6d87ff077","ios":"levelo://app?vid=7a4a332f-ccad-4d9e-9cdf-a1c6d87ff077"},"vehicle_type_id":"4","last_reported":1722085767,"current_range_meters":31600,"station_id":"ce4bhr12rcd13ifvqhqg","pricing_plan_id":"cebpf4jnsgd1na2vs0mg"},{"bike_id":"c397368f-9f67-4482-b9f7-1d9f600407e8","system_id":"levelo_inurba_marseille","lat":43.322872,"lon":5.382756,"is_reserved":false,"is_disabled":false,"rental_uris":{"android":"levelo://app?vid=c397368f-9f67-4482-b9f7-1d9f600407e8","ios":"levelo://app?vid=c397368f-9f67-4482-b9f7-1d9f600407e8"},"vehicle_type_id":"4","last_reported":1722085767,"current_range_meters":18000,"station_id":"ce4bhr12rcd13ifvqhqg","pricing_plan_id":"cebpf4jnsgd1na2vs0mg"},{"bike_id":"5eb38d73-72e2-4954-a27b-a3fde67d19ae","system_id":"levelo_inurba_marseille","lat":43.297163,"lon":5.365866,"is_reserved":false,"is_disabled":false,"rental_uris":{"android":"levelo://app?vid=5eb38d73-72e2-4954-a27b-a3fde67d19ae","ios":"levelo://app?vid=5eb38d73-72e2-4954-a27b-a3fde67d19ae"},"vehicle_type_id":"4","last_reported":1722085767,"current_range_meters":29200,"station_id":"ce4bgn12rcd13ifvqbt0","pricing_plan_id":"cebpf4jnsgd1na2vs0mg"},{"bike_id":"088666b3-c4d7-4c45-8734-00edfd07c941","system_id":"levelo_inurba_marseille","lat":43.297163,"lon":5.365866,"is_reserved":false,"is_disabled":false,"rental_uris":{"android":"levelo://app?vid=088666b3-c4d7-4c45-8734-00edfd07c941","ios":"levelo://app?vid=088666b3-c4d7-4c45-8734-00edfd07c941"},"vehicle_type_id":"4","last_reported":1722085767,"current_range_meters":16000,"station_id":"ce4bgn12rcd13ifvqbt0","pricing_plan_id":"cebpf4jnsgd1na2vs0mg"},{"bike_id":"c6ad52dc-356c-4a21-b037-85220e44ad04","system_id":"levelo_inurba_marseille","lat":43.297163,"lon":5.365866,"is_reserved":false,"is_disabled":false,"rental_uris":{"android":"levelo://app?vid=c6ad52dc-356c-4a21-b037-85220e44ad04","ios":"levelo://app?vid=c6ad52dc-356c-4a21-b037-85220e44ad04"},"vehicle_type_id":"4","last_reported":1722085767,"current_range_meters":13200,"station_id":"ce4bgn12rcd13ifvqbt0","pricing_plan_id":"cebpf4jnsgd1na2vs0mg"},{"bike_id":"77ebd6f7-0e15-4246-8feb-b1d720ac899a","system_id":"levelo_inurba_marseille","lat":43.300434,"lon":5.382081,"is_reserved":false,"is_disabled":false,"rental_uris":{"android":"levelo://app?vid=77ebd6f7-0e15-4246-8feb-b1d720ac899a","ios":"levelo://app?vid=77ebd6f7-0e15-4246-8feb-b1d720ac899a"},"vehicle_type_id":"4","last_reported":1722085767,"current_range_meters":19600,"station_id":"","pricing_plan_id":"cebpf4jnsgd1na2vs0mg"},{"bike_id":"972f4e68-c0fc-4fdb-b147-7325b0b3f4cd","system_id":"levelo_inurba_marseille","lat":43.304278,"lon":5.388868,"is_reserved":false,"is_disabled":false,"rental_uris":{"android":"levelo://app?vid=972f4e68-c0fc-4fdb-b147-7325b0b3f4cd","ios":"levelo://app?vid=972f4e68-c0fc-4fdb-b147-7325b0b3f4cd"},"vehicle_type_id":"4","last_reported":1722085767,"current_range_meters":6800,"station_id":"ce4bgk12rcd13ifvqbi0","pricing_plan_id":"cebpf4jnsgd1na2vs0mg"},{"bike_id":"ccb67e8e-d961-463f-b42c-15faa1ac8289","system_id":"levelo_inurba_marseille","lat":43.29573,"lon":5.367355,"is_reserved":false,"is_disabled":false,"rental_uris":{"android":"levelo://app?vid=ccb67e8e-d961-463f-b42c-15faa1ac8289","ios":"levelo://app?vid=ccb67e8e-d961-463f-b42c-15faa1ac8289"},"vehicle_type_id":"4","last_reported":1722085767,"current_range_meters":18000,"station_id":"ce4bgph2rcd13ifvqc2g","pricing_plan_id":"cebpf4jnsgd1na2vs0mg"},{"bike_id":"b9ecc661-2869-45c0-b729-9d72befbc95d","system_id":"levelo_inurba_marseille","lat":43.29573,"lon":5.367355,"is_reserved":false,"is_disabled":false,"rental_uris":{"android":"levelo://app?vid=b9ecc661-2869-45c0-b729-9d72befbc95d","ios":"levelo://app?vid=b9ecc661-2869-45c0-b729-9d72befbc95d"},"vehicle_type_id":"4","last_reported":1722085767,"current_range_meters":20400,"station_id":"ce4bgph2rcd13ifvqc2g","pricing_plan_id":"cebpf4jnsgd1na2vs0mg"},{"bike_id":"f4a24678-9fb9-40ca-bb4e-923df8398d46","system_id":"levelo_inurba_marseille","lat":43.29573,"lon":5.367355,"is_reserved":false,"is_disabled":false,"rental_uris":{"android":"levelo://app?vid=f4a24678-9fb9-40ca-bb4e-923df8398d46","ios":"levelo://app?vid=f4a24678-9fb9-40ca-bb4e-923df8398d46"},"vehicle_type_id":"4","last_reported":1722085767,"current_range_meters":28000,"station_id":"ce4bgph2rcd13ifvqc2g","pricing_plan_id":"cebpf4jnsgd1na2vs0mg"},{"bike_id":"ad6e61cf-771b-469f-8920-563dea3d4336","system_id":"levelo_inurba_marseille","lat":43.29573,"lon":5.367355,"is_reserved":false,"is_disabled":false,"rental_uris":{"android":"levelo://app?vid=ad6e61cf-771b-469f-8920-563dea3d4336","ios":"levelo://app?vid=ad6e61cf-771b-469f-8920-563dea3d4336"},"vehicle_type_id":"4","last_reported":1722085767,"current_range_meters":31600,"station_id":"ce4bgph2rcd13ifvqc2g","pricing_plan_id":"cebpf4jnsgd1na2vs0mg"},{"bike_id":"b90aabb3-a89e-42e1-8c9e-eff21b13103f","system_id":"levelo_inurba_marseille","lat":43.29581,"lon":5.36743,"is_reserved":false,"is_disabled":false,"rental_uris":{"android":"levelo://app?vid=b90aabb3-a89e-42e1-8c9e-eff21b13103f","ios":"levelo://app?vid=b90aabb3-a89e-42e1-8c9e-eff21b13103f"},"vehicle_type_id":"4","last_reported":1722085767,"current_range_meters":8000,"station_id":"ce4bgph2rcd13ifvqc2g","pricing_plan_id":"cebpf4jnsgd1na2vs0mg"},{"bike_id":"87999cb7-b11d-4444-bba4-2970e51f5d79","system_id":"levelo_inurba_marseille","lat":43.296921,"lon":5.376579,"is_reserved":false,"is_disabled":false,"rental_uris":{"android":"levelo://app?vid=87999cb7-b11d-4444-bba4-2970e51f5d79","ios":"levelo://app?vid=87999cb7-b11d-4444-bba4-2970e51f5d79"},"vehicle_type_id":"4","last_reported":1722085767,"current_range_meters":31200,"station_id":"ce4bgkh2rcd13ifvqbl0","pricing_plan_id":"cebpf4jnsgd1na2vs0mg"},{"bike_id":"356928f2-7e07-4bff-905e-5aa401df4ac1","system_id":"levelo_inurba_marseille","lat":43.299028,"lon":5.381509,"is_reserved":false,"is_disabled":false,"rental_uris":{"android":"levelo://app?vid=356928f2-7e07-4bff-905e-5aa401df4ac1","ios":"levelo://app?vid=356928f2-7e07-4bff-905e-5aa401df4ac1"},"vehicle_type_id":"4","last_reported":1722085767,"current_range_meters":18800,"station_id":"ce4bgj12rcd13ifvqbc0","pricing_plan_id":"cebpf4jnsgd1na2vs0mg"},{"bike_id":"456384f9-ed32-4acf-af53-a59bedb72a64","system_id":"levelo_inurba_marseille","lat":43.296935,"lon":5.376544,"is_reserved":false,"is_disabled":false,"rental_uris":{"android":"levelo://app?vid=456384f9-ed32-4acf-af53-a59bedb72a64","ios":"levelo://app?vid=456384f9-ed32-4acf-af53-a59bedb72a64"},"vehicle_type_id":"4","last_reported":1722085767,"current_range_meters":18800,"station_id":"ce4bgkh2rcd13ifvqbl0","pricing_plan_id":"cebpf4jnsgd1na2vs0mg"},{"bike_id":"5eb0b9c5-7b5c-4dad-b992-2b05c5962174","system_id":"levelo_inurba_marseille","lat":43.304278,"lon":5.388868,"is_reserved":false,"is_disabled":false,"rental_uris":{"android":"levelo://app?vid=5eb0b9c5-7b5c-4dad-b992-2b05c5962174","ios":"levelo://app?vid=5eb0b9c5-7b5c-4dad-b992-2b05c5962174"},"vehicle_type_id":"4","last_reported":1722085767,"current_range_meters":400,"station_id":"ce4bgk12rcd13ifvqbi0","pricing_plan_id":"cebpf4jnsgd1na2vs0mg"},{"bike_id":"71a18871-abd3-4418-9c78-3407531c1cb5","system_id":"levelo_inurba_marseille","lat":43.296263,"lon":5.377094,"is_reserved":false,"is_disabled":false,"rental_uris":{"android":"levelo://app?vid=71a18871-abd3-4418-9c78-3407531c1cb5","ios":"levelo://app?vid=71a18871-abd3-4418-9c78-3407531c1cb5"},"vehicle_type_id":"4","last_reported":1722085767,"current_range_meters":15200,"station_id":"ce4bgi92rcd13ifvqb90","pricing_plan_id":"cebpf4jnsgd1na2vs0mg"},{"bike_id":"eb260fd4-1a9a-44cc-be69-2368a3153995","system_id":"levelo_inurba_marseille","lat":43.296263,"lon":5.377094,"is_reserved":false,"is_disabled":false,"rental_uris":{"android":"levelo://app?vid=eb260fd4-1a9a-44cc-be69-2368a3153995","ios":"levelo://app?vid=eb260fd4-1a9a-44cc-be69-2368a3153995"},"vehicle_type_id":"4","last_reported":1722085767,"current_range_meters":31600,"station_id":"ce4bgi92rcd13ifvqb90","pricing_plan_id":"cebpf4jnsgd1na2vs0mg"},{"bike_id":"0860e255-3370-4989-874d-f10bec56b6ee","system_id":"levelo_inurba_marseille","lat":43.32367,"lon":5.388836,"is_reserved":false,"is_disabled":false,"rental_uris":{"android":"levelo://app?vid=0860e255-3370-4989-874d-f10bec56b6ee","ios":"levelo://app?vid=0860e255-3370-4989-874d-f10bec56b6ee"},"vehicle_type_id":"4","last_reported":1722085767,"current_range_meters":24800,"station_id":"ce4bhqp2rcd13ifvqhog","pricing_plan_id":"cebpf4jnsgd1na2vs0mg"},{"bike_id":"6aac8e03-a2ec-4e5f-bd3f-545d85220f21","system_id":"levelo_inurba_marseille","lat":43.292749,"lon":5.368402,"is_reserved":false,"is_disabled":false,"rental_uris":{"android":"levelo://app?vid=6aac8e03-a2ec-4e5f-bd3f-545d85220f21","ios":"levelo://app?vid=6aac8e03-a2ec-4e5f-bd3f-545d85220f21"},"vehicle_type_id":"4","last_reported":1722085767,"current_range_meters":0,"station_id":"ce4bhbp2rcd13ifvqesg","pricing_plan_id":"cebpf4jnsgd1na2vs0mg"},{"bike_id":"f994ecc8-d67b-42c9-8fee-e954ee39f0bf","system_id":"levelo_inurba_marseille","lat":43.293249,"lon":5.371578,"is_reserved":false,"is_disabled":false,"rental_uris":{"android":"levelo://app?vid=f994ecc8-d67b-42c9-8fee-e954ee39f0bf","ios":"levelo://app?vid=f994ecc8-d67b-42c9-8fee-e954ee39f0bf"},"vehicle_type_id":"4","last_reported":1722085767,"current_range_meters":5200,"station_id":"ce4bgh92rcd13ifvqb40","pricing_plan_id":"cebpf4jnsgd1na2vs0mg"},{"bike_id":"f110e317-353d-4640-bf0c-b61ca446a80e","system_id":"levelo_inurba_marseille","lat":43.305994,"lon":5.393687,"is_reserved":false,"is_disabled":false,"rental_uris":{"android":"levelo://app?vid=f110e317-353d-4640-bf0c-b61ca446a80e","ios":"levelo://app?vid=f110e317-353d-4640-bf0c-b61ca446a80e"},"vehicle_type_id":"4","last_reported":1722085767,"current_range_meters":14000,"station_id":"ce4bh0p2rcd13ifvqd80","pricing_plan_id":"cebpf4jnsgd1na2vs0mg"},{"bike_id":"c5b99e46-654a-4ee8-9ab4-d31ece2b3d94","system_id":"levelo_inurba_marseille","lat":43.303002,"lon":5.392142,"is_reserved":false,"is_disabled":false,"rental_uris":{"android":"levelo://app?vid=c5b99e46-654a-4ee8-9ab4-d31ece2b3d94","ios":"levelo://app?vid=c5b99e46-654a-4ee8-9ab4-d31ece2b3d94"},"vehicle_type_id":"4","last_reported":1722085767,"current_range_meters":28800,"station_id":"ce4bgkh2rcd13ifvqbk0","pricing_plan_id":"cebpf4jnsgd1na2vs0mg"},{"bike_id":"bf950bac-1fea-4a5e-9d7a-4004ff9c3045","system_id":"levelo_inurba_marseille","lat":43.2936,"lon":5.37835,"is_reserved":false,"is_disabled":false,"rental_uris":{"android":"levelo://app?vid=bf950bac-1fea-4a5e-9d7a-4004ff9c3045","ios":"levelo://app?vid=bf950bac-1fea-4a5e-9d7a-4004ff9c3045"},"vehicle_type_id":"4","last_reported":1722085767,"current_range_meters":29200,"station_id":"ce4bgjh2rcd13ifvqbf0","pricing_plan_id":"cebpf4jnsgd1na2vs0mg"},{"bike_id":"af5ce0fe-47de-4416-9404-783acb8d6b31","system_id":"levelo_inurba_marseille","lat":43.29228,"lon":5.36061,"is_reserved":false,"is_disabled":false,"rental_uris":{"android":"levelo://app?vid=af5ce0fe-47de-4416-9404-783acb8d6b31","ios":"levelo://app?vid=af5ce0fe-47de-4416-9404-783acb8d6b31"},"vehicle_type_id":"4","last_reported":1722085767,"current_range_meters":29200,"station_id":"ce4bhbh2rcd13ifvqeqg","pricing_plan_id":"cebpf4jnsgd1na2vs0mg"},{"bike_id":"d6d8dd5d-fb38-48ce-8178-10ef90afbe70","system_id":"levelo_inurba_marseille","lat":43.29227,"lon":5.36064,"is_reserved":false,"is_disabled":false,"rental_uris":{"android":"levelo://app?vid=d6d8dd5d-fb38-48ce-8178-10ef90afbe70","ios":"levelo://app?vid=d6d8dd5d-fb38-48ce-8178-10ef90afbe70"},"vehicle_type_id":"4","last_reported":1722085767,"current_range_meters":23200,"station_id":"","pricing_plan_id":"cebpf4jnsgd1na2vs0mg"},{"bike_id":"d7edc125-c393-47f1-85b9-7140fd5a148a","system_id":"levelo_inurba_marseille","lat":43.292311,"lon":5.360731,"is_reserved":false,"is_disabled":false,"rental_uris":{"android":"levelo://app?vid=d7edc125-c393-47f1-85b9-7140fd5a148a","ios":"levelo://app?vid=d7edc125-c393-47f1-85b9-7140fd5a148a"},"vehicle_type_id":"4","last_reported":1722085767,"current_range_meters":31200,"station_id":"ce4bhbh2rcd13ifvqeqg","pricing_plan_id":"cebpf4jnsgd1na2vs0mg"},{"bike_id":"f3ebf7c0-d05c-47a5-835c-d7cee6f13538","system_id":"levelo_inurba_marseille","lat":43.30085,"lon":5.390856,"is_reserved":false,"is_disabled":false,"rental_uris":{"android":"levelo://app?vid=f3ebf7c0-d05c-47a5-835c-d7cee6f13538","ios":"levelo://app?vid=f3ebf7c0-d05c-47a5-835c-d7cee6f13538"},"vehicle_type_id":"4","last_reported":1722085767,"current_range_meters":4000,"station_id":"ce4bh192rcd13ifvqdb0","pricing_plan_id":"cebpf4jnsgd1na2vs0mg"},{"bike_id":"d5f04152-5c86-44aa-85a6-685b8a1fea32","system_id":"levelo_inurba_marseille","lat":43.293009,"lon":5.374584,"is_reserved":false,"is_disabled":false,"rental_uris":{"android":"levelo://app?vid=d5f04152-5c86-44aa-85a6-685b8a1fea32","ios":"levelo://app?vid=d5f04152-5c86-44aa-85a6-685b8a1fea32"},"vehicle_type_id":"4","last_reported":1722085767,"current_range_meters":28400,"station_id":"ce4bgi12rcd13ifvqb70","pricing_plan_id":"cebpf4jnsgd1na2vs0mg"},{"bike_id":"c9df13fc-c711-4c28-ada2-1678efbf1af2","system_id":"levelo_inurba_marseille","lat":43.293009,"lon":5.374584,"is_reserved":false,"is_disabled":false,"rental_uris":{"android":"levelo://app?vid=c9df13fc-c711-4c28-ada2-1678efbf1af2","ios":"levelo://app?vid=c9df13fc-c711-4c28-ada2-1678efbf1af2"},"vehicle_type_id":"4","last_reported":1722085767,"current_range_meters":0,"station_id":"ce4bgi12rcd13ifvqb70","pricing_plan_id":"cebpf4jnsgd1na2vs0mg"},{"bike_id":"7791a67d-cbd9-4d69-b13e-ed69840dd3c9","system_id":"levelo_inurba_marseille","lat":43.292005,"lon":5.357875,"is_reserved":false,"is_disabled":false,"rental_uris":{"android":"levelo://app?vid=7791a67d-cbd9-4d69-b13e-ed69840dd3c9","ios":"levelo://app?vid=7791a67d-cbd9-4d69-b13e-ed69840dd3c9"},"vehicle_type_id":"4","last_reported":1722085767,"current_range_meters":6000,"station_id":"ce4bhb12rcd13ifvqel0","pricing_plan_id":"cebpf4jnsgd1na2vs0mg"},{"bike_id":"e01df331-7db6-4ad6-b6b6-31ad7e348959","system_id":"levelo_inurba_marseille","lat":43.29196,"lon":5.35797,"is_reserved":false,"is_disabled":false,"rental_uris":{"android":"levelo://app?vid=e01df331-7db6-4ad6-b6b6-31ad7e348959","ios":"levelo://app?vid=e01df331-7db6-4ad6-b6b6-31ad7e348959"},"vehicle_type_id":"4","last_reported":1722085767,"current_range_meters":30800,"station_id":"ce4bhb12rcd13ifvqel0","pricing_plan_id":"cebpf4jnsgd1na2vs0mg"},{"bike_id":"4f6c5c21-33bb-40ac-b075-567d09908382","system_id":"levelo_inurba_marseille","lat":43.292005,"lon":5.357875,"is_reserved":false,"is_disabled":false,"rental_uris":{"android":"levelo://app?vid=4f6c5c21-33bb-40ac-b075-567d09908382","ios":"levelo://app?vid=4f6c5c21-33bb-40ac-b075-567d09908382"},"vehicle_type_id":"4","last_reported":1722085767,"current_range_meters":30800,"station_id":"ce4bhb12rcd13ifvqel0","pricing_plan_id":"cebpf4jnsgd1na2vs0mg"},{"bike_id":"6cf07f29-db24-4021-a8ec-429d85fe03a9","system_id":"levelo_inurba_marseille","lat":43.291994,"lon":5.357886,"is_reserved":false,"is_disabled":false,"rental_uris":{"android":"levelo://app?vid=6cf07f29-db24-4021-a8ec-429d85fe03a9","ios":"levelo://app?vid=6cf07f29-db24-4021-a8ec-429d85fe03a9"},"vehicle_type_id":"4","last_reported":1722085767,"current_range_meters":19600,"station_id":"ce4bhb12rcd13ifvqel0","pricing_plan_id":"cebpf4jnsgd1na2vs0mg"},{"bike_id":"018bdf84-837f-4336-89c1-27df5d6af4d6","system_id":"levelo_inurba_marseille","lat":43.290624,"lon":5.359245,"is_reserved":false,"is_disabled":false,"rental_uris":{"android":"levelo://app?vid=018bdf84-837f-4336-89c1-27df5d6af4d6","ios":"levelo://app?vid=018bdf84-837f-4336-89c1-27df5d6af4d6"},"vehicle_type_id":"4","last_reported":1722085767,"current_range_meters":15600,"station_id":"ce4bha92rcd13ifvqeg0","pricing_plan_id":"cebpf4jnsgd1na2vs0mg"},{"bike_id":"452808b9-04f9-45ca-b8b2-e13227157c40","system_id":"levelo_inurba_marseille","lat":43.290624,"lon":5.359245,"is_reserved":false,"is_disabled":false,"rental_uris":{"android":"levelo://app?vid=452808b9-04f9-45ca-b8b2-e13227157c40","ios":"levelo://app?vid=452808b9-04f9-45ca-b8b2-e13227157c40"},"vehicle_type_id":"4","last_reported":1722085767,"current_range_meters":11200,"station_id":"ce4bha92rcd13ifvqeg0","pricing_plan_id":"cebpf4jnsgd1na2vs0mg"},{"bike_id":"f8dd4ff9-c2a9-4966-bfbb-1d8c5f05627f","system_id":"levelo_inurba_marseille","lat":43.290624,"lon":5.359245,"is_reserved":false,"is_disabled":false,"rental_uris":{"android":"levelo://app?vid=f8dd4ff9-c2a9-4966-bfbb-1d8c5f05627f","ios":"levelo://app?vid=f8dd4ff9-c2a9-4966-bfbb-1d8c5f05627f"},"vehicle_type_id":"4","last_reported":1722085767,"current_range_meters":30400,"station_id":"ce4bha92rcd13ifvqeg0","pricing_plan_id":"cebpf4jnsgd1na2vs0mg"},{"bike_id":"60d2494d-c0f9-40d4-9c8d-2349d9184f78","system_id":"levelo_inurba_marseille","lat":43.2904,"lon":5.3592,"is_reserved":false,"is_disabled":false,"rental_uris":{"android":"levelo://app?vid=60d2494d-c0f9-40d4-9c8d-2349d9184f78","ios":"levelo://app?vid=60d2494d-c0f9-40d4-9c8d-2349d9184f78"},"vehicle_type_id":"4","last_reported":1722085767,"current_range_meters":12800,"station_id":"ce4bha92rcd13ifvqeg0","pricing_plan_id":"cebpf4jnsgd1na2vs0mg"},{"bike_id":"426409bb-6960-4f90-976b-3fc46589e8e4","system_id":"levelo_inurba_marseille","lat":43.289184,"lon":5.366408,"is_reserved":false,"is_disabled":false,"rental_uris":{"android":"levelo://app?vid=426409bb-6960-4f90-976b-3fc46589e8e4","ios":"levelo://app?vid=426409bb-6960-4f90-976b-3fc46589e8e4"},"vehicle_type_id":"4","last_reported":1722085767,"current_range_meters":23200,"station_id":"ce4bhap2rcd13ifvqek0","pricing_plan_id":"cebpf4jnsgd1na2vs0mg"},{"bike_id":"75a302a6-fea3-424b-88cf-68f50a604601","system_id":"levelo_inurba_marseille","lat":43.29272,"lon":5.38441,"is_reserved":false,"is_disabled":false,"rental_uris":{"android":"levelo://app?vid=75a302a6-fea3-424b-88cf-68f50a604601","ios":"levelo://app?vid=75a302a6-fea3-424b-88cf-68f50a604601"},"vehicle_type_id":"4","last_reported":1722085767,"current_range_meters":0,"station_id":"ce4bh692rcd13ifvqea0","pricing_plan_id":"cebpf4jnsgd1na2vs0mg"},{"bike_id":"6045f0ec-9304-463a-bc16-87e859b3aea0","system_id":"levelo_inurba_marseille","lat":43.290104,"lon":5.356111,"is_reserved":false,"is_disabled":false,"rental_uris":{"android":"levelo://app?vid=6045f0ec-9304-463a-bc16-87e859b3aea0","ios":"levelo://app?vid=6045f0ec-9304-463a-bc16-87e859b3aea0"},"vehicle_type_id":"4","last_reported":1722085767,"current_range_meters":28000,"station_id":"ce4bhb92rcd13ifvqen0","pricing_plan_id":"cebpf4jnsgd1na2vs0mg"},{"bike_id":"e58752cc-94d5-483b-b8eb-161615c622c6","system_id":"levelo_inurba_marseille","lat":43.29007,"lon":5.35617,"is_reserved":false,"is_disabled":false,"rental_uris":{"android":"levelo://app?vid=e58752cc-94d5-483b-b8eb-161615c622c6","ios":"levelo://app?vid=e58752cc-94d5-483b-b8eb-161615c622c6"},"vehicle_type_id":"4","last_reported":1722085767,"current_range_meters":0,"station_id":"ce4bhb92rcd13ifvqen0","pricing_plan_id":"cebpf4jnsgd1na2vs0mg"},{"bike_id":"854ae169-968a-4d60-a60b-e2d54404f931","system_id":"levelo_inurba_marseille","lat":43.290104,"lon":5.356111,"is_reserved":false,"is_disabled":false,"rental_uris":{"android":"levelo://app?vid=854ae169-968a-4d60-a60b-e2d54404f931","ios":"levelo://app?vid=854ae169-968a-4d60-a60b-e2d54404f931"},"vehicle_type_id":"4","last_reported":1722085767,"current_range_meters":31200,"station_id":"ce4bhb92rcd13ifvqen0","pricing_plan_id":"cebpf4jnsgd1na2vs0mg"},{"bike_id":"45628d16-1af8-4f74-8268-d83c1b3afd18","system_id":"levelo_inurba_marseille","lat":43.290104,"lon":5.356111,"is_reserved":false,"is_disabled":false,"rental_uris":{"android":"levelo://app?vid=45628d16-1af8-4f74-8268-d83c1b3afd18","ios":"levelo://app?vid=45628d16-1af8-4f74-8268-d83c1b3afd18"},"vehicle_type_id":"4","last_reported":1722085767,"current_range_meters":0,"station_id":"ce4bhb92rcd13ifvqen0","pricing_plan_id":"cebpf4jnsgd1na2vs0mg"},{"bike_id":"d3d00c8b-0f68-44f0-a2b6-d1f2ea2deeca","system_id":"levelo_inurba_marseille","lat":43.29005,"lon":5.35612,"is_reserved":false,"is_disabled":false,"rental_uris":{"android":"levelo://app?vid=d3d00c8b-0f68-44f0-a2b6-d1f2ea2deeca","ios":"levelo://app?vid=d3d00c8b-0f68-44f0-a2b6-d1f2ea2deeca"},"vehicle_type_id":"4","last_reported":1722085767,"current_range_meters":28000,"station_id":"ce4bhb92rcd13ifvqen0","pricing_plan_id":"cebpf4jnsgd1na2vs0mg"},{"bike_id":"8671561d-39e5-4c5b-a895-435c5a54d679","system_id":"levelo_inurba_marseille","lat":43.289,"lon":5.3619,"is_reserved":false,"is_disabled":false,"rental_uris":{"android":"levelo://app?vid=8671561d-39e5-4c5b-a895-435c5a54d679","ios":"levelo://app?vid=8671561d-39e5-4c5b-a895-435c5a54d679"},"vehicle_type_id":"4","last_reported":1722085767,"current_range_meters":8400,"station_id":"","pricing_plan_id":"cebpf4jnsgd1na2vs0mg"},{"bike_id":"128b5bbc-055c-4ea7-8a8a-4fdbea123c5e","system_id":"levelo_inurba_marseille","lat":43.290104,"lon":5.356111,"is_reserved":false,"is_disabled":false,"rental_uris":{"android":"levelo://app?vid=128b5bbc-055c-4ea7-8a8a-4fdbea123c5e","ios":"levelo://app?vid=128b5bbc-055c-4ea7-8a8a-4fdbea123c5e"},"vehicle_type_id":"4","last_reported":1722085767,"current_range_meters":14000,"station_id":"ce4bhb92rcd13ifvqen0","pricing_plan_id":"cebpf4jnsgd1na2vs0mg"},{"bike_id":"2f66cdbd-3c8a-4f1e-93f6-d4b5ec79439e","system_id":"levelo_inurba_marseille","lat":43.29005,"lon":5.35608,"is_reserved":false,"is_disabled":false,"rental_uris":{"android":"levelo://app?vid=2f66cdbd-3c8a-4f1e-93f6-d4b5ec79439e","ios":"levelo://app?vid=2f66cdbd-3c8a-4f1e-93f6-d4b5ec79439e"},"vehicle_type_id":"4","last_reported":1722085767,"current_range_meters":28000,"station_id":"ce4bhb92rcd13ifvqen0","pricing_plan_id":"cebpf4jnsgd1na2vs0mg"},{"bike_id":"b3c90ba6-b0fb-426c-8356-e44324aa3cf3","system_id":"levelo_inurba_marseille","lat":43.290104,"lon":5.356111,"is_reserved":false,"is_disabled":false,"rental_uris":{"android":"levelo://app?vid=b3c90ba6-b0fb-426c-8356-e44324aa3cf3","ios":"levelo://app?vid=b3c90ba6-b0fb-426c-8356-e44324aa3cf3"},"vehicle_type_id":"4","last_reported":1722085767,"current_range_meters":0,"station_id":"ce4bhb92rcd13ifvqen0","pricing_plan_id":"cebpf4jnsgd1na2vs0mg"},{"bike_id":"3db00340-af2c-4816-9b22-373b3ece0d32","system_id":"levelo_inurba_marseille","lat":43.290104,"lon":5.356111,"is_reserved":false,"is_disabled":false,"rental_uris":{"android":"levelo://app?vid=3db00340-af2c-4816-9b22-373b3ece0d32","ios":"levelo://app?vid=3db00340-af2c-4816-9b22-373b3ece0d32"},"vehicle_type_id":"4","last_reported":1722085767,"current_range_meters":21200,"station_id":"ce4bhb92rcd13ifvqen0","pricing_plan_id":"cebpf4jnsgd1na2vs0mg"},{"bike_id":"07dfb50a-cdc7-469c-a7a5-3216a0f4ee1d","system_id":"levelo_inurba_marseille","lat":43.29003,"lon":5.35612,"is_reserved":false,"is_disabled":false,"rental_uris":{"android":"levelo://app?vid=07dfb50a-cdc7-469c-a7a5-3216a0f4ee1d","ios":"levelo://app?vid=07dfb50a-cdc7-469c-a7a5-3216a0f4ee1d"},"vehicle_type_id":"4","last_reported":1722085767,"current_range_meters":0,"station_id":"ce4bhb92rcd13ifvqen0","pricing_plan_id":"cebpf4jnsgd1na2vs0mg"},{"bike_id":"3d048686-88ce-4e80-a75c-43a4d86c2f82","system_id":"levelo_inurba_marseille","lat":43.290104,"lon":5.356111,"is_reserved":false,"is_disabled":false,"rental_uris":{"android":"levelo://app?vid=3d048686-88ce-4e80-a75c-43a4d86c2f82","ios":"levelo://app?vid=3d048686-88ce-4e80-a75c-43a4d86c2f82"},"vehicle_type_id":"4","last_reported":1722085767,"current_range_meters":20000,"station_id":"ce4bhb92rcd13ifvqen0","pricing_plan_id":"cebpf4jnsgd1na2vs0mg"},{"bike_id":"13922e8d-2f80-4283-a21e-ea7694c3b18b","system_id":"levelo_inurba_marseille","lat":43.295169,"lon":5.390426,"is_reserved":false,"is_disabled":false,"rental_uris":{"android":"levelo://app?vid=13922e8d-2f80-4283-a21e-ea7694c3b18b","ios":"levelo://app?vid=13922e8d-2f80-4283-a21e-ea7694c3b18b"},"vehicle_type_id":"4","last_reported":1722085767,"current_range_meters":400,"station_id":"ce4bh3p2rcd13ifvqdp0","pricing_plan_id":"cebpf4jnsgd1na2vs0mg"},{"bike_id":"edbd5652-3f93-4697-8a77-4a460e177c21","system_id":"levelo_inurba_marseille","lat":43.290995,"lon":5.381361,"is_reserved":false,"is_disabled":false,"rental_uris":{"android":"levelo://app?vid=edbd5652-3f93-4697-8a77-4a460e177c21","ios":"levelo://app?vid=edbd5652-3f93-4697-8a77-4a460e177c21"},"vehicle_type_id":"4","last_reported":1722085767,"current_range_meters":9600,"station_id":"ce4bh512rcd13ifvqe2g","pricing_plan_id":"cebpf4jnsgd1na2vs0mg"},{"bike_id":"270bd5b7-7b6a-4518-a9b9-a4be17841c4b","system_id":"levelo_inurba_marseille","lat":43.291,"lon":5.38119,"is_reserved":false,"is_disabled":false,"rental_uris":{"android":"levelo://app?vid=270bd5b7-7b6a-4518-a9b9-a4be17841c4b","ios":"levelo://app?vid=270bd5b7-7b6a-4518-a9b9-a4be17841c4b"},"vehicle_type_id":"4","last_reported":1722085767,"current_range_meters":12800,"station_id":"ce4bh512rcd13ifvqe2g","pricing_plan_id":"cebpf4jnsgd1na2vs0mg"},{"bike_id":"c193cbd8-2d2c-4ede-9b4d-8df2b792b49e","system_id":"levelo_inurba_marseille","lat":43.29091,"lon":5.38138,"is_reserved":false,"is_disabled":false,"rental_uris":{"android":"levelo://app?vid=c193cbd8-2d2c-4ede-9b4d-8df2b792b49e","ios":"levelo://app?vid=c193cbd8-2d2c-4ede-9b4d-8df2b792b49e"},"vehicle_type_id":"4","last_reported":1722085767,"current_range_meters":25600,"station_id":"ce4bh512rcd13ifvqe2g","pricing_plan_id":"cebpf4jnsgd1na2vs0mg"},{"bike_id":"bf34ac9f-83aa-44e4-b0bf-6f572a21b21a","system_id":"levelo_inurba_marseille","lat":43.290995,"lon":5.381361,"is_reserved":false,"is_disabled":false,"rental_uris":{"android":"levelo://app?vid=bf34ac9f-83aa-44e4-b0bf-6f572a21b21a","ios":"levelo://app?vid=bf34ac9f-83aa-44e4-b0bf-6f572a21b21a"},"vehicle_type_id":"4","last_reported":1722085767,"current_range_meters":13600,"station_id":"ce4bh512rcd13ifvqe2g","pricing_plan_id":"cebpf4jnsgd1na2vs0mg"},{"bike_id":"351ba9cd-bd97-429d-8658-180bf6a638a8","system_id":"levelo_inurba_marseille","lat":43.330442,"lon":5.389148,"is_reserved":false,"is_disabled":false,"rental_uris":{"android":"levelo://app?vid=351ba9cd-bd97-429d-8658-180bf6a638a8","ios":"levelo://app?vid=351ba9cd-bd97-429d-8658-180bf6a638a8"},"vehicle_type_id":"4","last_reported":1722085767,"current_range_meters":10000,"station_id":"ce4bhr92rcd13ifvqhrg","pricing_plan_id":"cebpf4jnsgd1na2vs0mg"},{"bike_id":"c73a0e05-00f0-4093-9d5b-8dad8104cd6e","system_id":"levelo_inurba_marseille","lat":43.289741,"lon":5.378306,"is_reserved":false,"is_disabled":false,"rental_uris":{"android":"levelo://app?vid=c73a0e05-00f0-4093-9d5b-8dad8104cd6e","ios":"levelo://app?vid=c73a0e05-00f0-4093-9d5b-8dad8104cd6e"},"vehicle_type_id":"4","last_reported":1722085767,"current_range_meters":4000,"station_id":"ce4bh9p2rcd13ifvqed0","pricing_plan_id":"cebpf4jnsgd1na2vs0mg"},{"bike_id":"03265a15-9cbb-437f-a0c3-187470e51679","system_id":"levelo_inurba_marseille","lat":43.31458,"lon":5.40059,"is_reserved":false,"is_disabled":false,"rental_uris":{"android":"levelo://app?vid=03265a15-9cbb-437f-a0c3-187470e51679","ios":"levelo://app?vid=03265a15-9cbb-437f-a0c3-187470e51679"},"vehicle_type_id":"4","last_reported":1722085767,"current_range_meters":1600,"station_id":"","pricing_plan_id":"cebpf4jnsgd1na2vs0mg"},{"bike_id":"149ad317-2977-4c2d-b9af-065d2c29d5b4","system_id":"levelo_inurba_marseille","lat":43.310725,"lon":5.400831,"is_reserved":false,"is_disabled":false,"rental_uris":{"android":"levelo://app?vid=149ad317-2977-4c2d-b9af-065d2c29d5b4","ios":"levelo://app?vid=149ad317-2977-4c2d-b9af-065d2c29d5b4"},"vehicle_type_id":"4","last_reported":1722085767,"current_range_meters":22400,"station_id":"","pricing_plan_id":"cebpf4jnsgd1na2vs0mg"},{"bike_id":"f638f420-ce18-4cbd-ad90-0ec94d95b9ed","system_id":"levelo_inurba_marseille","lat":43.290094,"lon":5.381264,"is_reserved":false,"is_disabled":false,"rental_uris":{"android":"levelo://app?vid=f638f420-ce18-4cbd-ad90-0ec94d95b9ed","ios":"levelo://app?vid=f638f420-ce18-4cbd-ad90-0ec94d95b9ed"},"vehicle_type_id":"4","last_reported":1722085767,"current_range_meters":28000,"station_id":"ce4bh4p2rcd13ifvqe1g","pricing_plan_id":"cebpf4jnsgd1na2vs0mg"},{"bike_id":"79b2d61f-4043-4814-95cc-9a36b193d62d","system_id":"levelo_inurba_marseille","lat":43.28856,"lon":5.358371,"is_reserved":false,"is_disabled":false,"rental_uris":{"android":"levelo://app?vid=79b2d61f-4043-4814-95cc-9a36b193d62d","ios":"levelo://app?vid=79b2d61f-4043-4814-95cc-9a36b193d62d"},"vehicle_type_id":"4","last_reported":1722085767,"current_range_meters":14400,"station_id":"ce4bhb12rcd13ifvqem0","pricing_plan_id":"cebpf4jnsgd1na2vs0mg"},{"bike_id":"3a86b62f-b234-4c45-a56c-8642cf8e893d","system_id":"levelo_inurba_marseille","lat":43.28856,"lon":5.358371,"is_reserved":false,"is_disabled":false,"rental_uris":{"android":"levelo://app?vid=3a86b62f-b234-4c45-a56c-8642cf8e893d","ios":"levelo://app?vid=3a86b62f-b234-4c45-a56c-8642cf8e893d"},"vehicle_type_id":"4","last_reported":1722085767,"current_range_meters":14800,"station_id":"ce4bhb12rcd13ifvqem0","pricing_plan_id":"cebpf4jnsgd1na2vs0mg"},{"bike_id":"951ce47e-bc7f-40a2-a8d4-70e20b77d0c1","system_id":"levelo_inurba_marseille","lat":43.28856,"lon":5.358371,"is_reserved":false,"is_disabled":false,"rental_uris":{"android":"levelo://app?vid=951ce47e-bc7f-40a2-a8d4-70e20b77d0c1","ios":"levelo://app?vid=951ce47e-bc7f-40a2-a8d4-70e20b77d0c1"},"vehicle_type_id":"4","last_reported":1722085767,"current_range_meters":20800,"station_id":"ce4bhb12rcd13ifvqem0","pricing_plan_id":"cebpf4jnsgd1na2vs0mg"},{"bike_id":"cde4f7e6-a753-4e9c-b3aa-2cb478d38878","system_id":"levelo_inurba_marseille","lat":43.28856,"lon":5.358371,"is_reserved":false,"is_disabled":false,"rental_uris":{"android":"levelo://app?vid=cde4f7e6-a753-4e9c-b3aa-2cb478d38878","ios":"levelo://app?vid=cde4f7e6-a753-4e9c-b3aa-2cb478d38878"},"vehicle_type_id":"4","last_reported":1722085767,"current_range_meters":10800,"station_id":"ce4bhb12rcd13ifvqem0","pricing_plan_id":"cebpf4jnsgd1na2vs0mg"},{"bike_id":"22edc276-caae-40f0-a40a-e7f82494c020","system_id":"levelo_inurba_marseille","lat":43.28856,"lon":5.358371,"is_reserved":false,"is_disabled":false,"rental_uris":{"android":"levelo://app?vid=22edc276-caae-40f0-a40a-e7f82494c020","ios":"levelo://app?vid=22edc276-caae-40f0-a40a-e7f82494c020"},"vehicle_type_id":"4","last_reported":1722085767,"current_range_meters":2400,"station_id":"ce4bhb12rcd13ifvqem0","pricing_plan_id":"cebpf4jnsgd1na2vs0mg"},{"bike_id":"ac92bda3-b0da-4f4a-b128-3b34b17e43f5","system_id":"levelo_inurba_marseille","lat":43.28856,"lon":5.358371,"is_reserved":false,"is_disabled":false,"rental_uris":{"android":"levelo://app?vid=ac92bda3-b0da-4f4a-b128-3b34b17e43f5","ios":"levelo://app?vid=ac92bda3-b0da-4f4a-b128-3b34b17e43f5"},"vehicle_type_id":"4","last_reported":1722085767,"current_range_meters":27200,"station_id":"ce4bhb12rcd13ifvqem0","pricing_plan_id":"cebpf4jnsgd1na2vs0mg"},{"bike_id":"bd35e78f-05aa-4626-a3a9-25d70d3a485c","system_id":"levelo_inurba_marseille","lat":43.28856,"lon":5.358371,"is_reserved":false,"is_disabled":false,"rental_uris":{"android":"levelo://app?vid=bd35e78f-05aa-4626-a3a9-25d70d3a485c","ios":"levelo://app?vid=bd35e78f-05aa-4626-a3a9-25d70d3a485c"},"vehicle_type_id":"4","last_reported":1722085767,"current_range_meters":10400,"station_id":"ce4bhb12rcd13ifvqem0","pricing_plan_id":"cebpf4jnsgd1na2vs0mg"},{"bike_id":"e92bf1d5-b1ca-44cd-9b31-a0496082825d","system_id":"levelo_inurba_marseille","lat":43.33733,"lon":5.37507,"is_reserved":false,"is_disabled":false,"rental_uris":{"android":"levelo://app?vid=e92bf1d5-b1ca-44cd-9b31-a0496082825d","ios":"levelo://app?vid=e92bf1d5-b1ca-44cd-9b31-a0496082825d"},"vehicle_type_id":"4","last_reported":1722085767,"current_range_meters":29200,"station_id":"","pricing_plan_id":"cebpf4jnsgd1na2vs0mg"},{"bike_id":"28ff567c-281c-4a43-913e-e1206badf942","system_id":"levelo_inurba_marseille","lat":43.33742,"lon":5.37465,"is_reserved":false,"is_disabled":false,"rental_uris":{"android":"levelo://app?vid=28ff567c-281c-4a43-913e-e1206badf942","ios":"levelo://app?vid=28ff567c-281c-4a43-913e-e1206badf942"},"vehicle_type_id":"4","last_reported":1722085767,"current_range_meters":28800,"station_id":"","pricing_plan_id":"cebpf4jnsgd1na2vs0mg"},{"bike_id":"0aa226e6-2195-431b-bdc4-34bf44420451","system_id":"levelo_inurba_marseille","lat":43.337467,"lon":5.374397,"is_reserved":false,"is_disabled":false,"rental_uris":{"android":"levelo://app?vid=0aa226e6-2195-431b-bdc4-34bf44420451","ios":"levelo://app?vid=0aa226e6-2195-431b-bdc4-34bf44420451"},"vehicle_type_id":"4","last_reported":1722085767,"current_range_meters":27200,"station_id":"","pricing_plan_id":"cebpf4jnsgd1na2vs0mg"},{"bike_id":"6ff48f3c-927a-470d-a08e-7714539082f0","system_id":"levelo_inurba_marseille","lat":43.337447,"lon":5.374547,"is_reserved":false,"is_disabled":false,"rental_uris":{"android":"levelo://app?vid=6ff48f3c-927a-470d-a08e-7714539082f0","ios":"levelo://app?vid=6ff48f3c-927a-470d-a08e-7714539082f0"},"vehicle_type_id":"4","last_reported":1722085767,"current_range_meters":4000,"station_id":"","pricing_plan_id":"cebpf4jnsgd1na2vs0mg"},{"bike_id":"346d2814-55ae-4833-a11d-e32f00d77a28","system_id":"levelo_inurba_marseille","lat":43.309371,"lon":5.401449,"is_reserved":false,"is_disabled":false,"rental_uris":{"android":"levelo://app?vid=346d2814-55ae-4833-a11d-e32f00d77a28","ios":"levelo://app?vid=346d2814-55ae-4833-a11d-e32f00d77a28"},"vehicle_type_id":"4","last_reported":1722085767,"current_range_meters":28000,"station_id":"ce4bgvp2rcd13ifvqct0","pricing_plan_id":"cebpf4jnsgd1na2vs0mg"},{"bike_id":"43d41115-8937-4ce6-93a9-3efbe19032fb","system_id":"levelo_inurba_marseille","lat":43.30651,"lon":5.40072,"is_reserved":false,"is_disabled":false,"rental_uris":{"android":"levelo://app?vid=43d41115-8937-4ce6-93a9-3efbe19032fb","ios":"levelo://app?vid=43d41115-8937-4ce6-93a9-3efbe19032fb"},"vehicle_type_id":"4","last_reported":1722085767,"current_range_meters":0,"station_id":"ce4bh112rcd13ifvqda0","pricing_plan_id":"cebpf4jnsgd1na2vs0mg"},{"bike_id":"f0338c4f-2f14-449f-abf8-25e44f36ca55","system_id":"levelo_inurba_marseille","lat":43.337503,"lon":5.374507,"is_reserved":false,"is_disabled":false,"rental_uris":{"android":"levelo://app?vid=f0338c4f-2f14-449f-abf8-25e44f36ca55","ios":"levelo://app?vid=f0338c4f-2f14-449f-abf8-25e44f36ca55"},"vehicle_type_id":"4","last_reported":1722085767,"current_range_meters":29600,"station_id":"","pricing_plan_id":"cebpf4jnsgd1na2vs0mg"},{"bike_id":"20a7bf81-31fd-4cb5-b454-68d5314a31b8","system_id":"levelo_inurba_marseille","lat":43.337497,"lon":5.374595,"is_reserved":false,"is_disabled":false,"rental_uris":{"android":"levelo://app?vid=20a7bf81-31fd-4cb5-b454-68d5314a31b8","ios":"levelo://app?vid=20a7bf81-31fd-4cb5-b454-68d5314a31b8"},"vehicle_type_id":"4","last_reported":1722085767,"current_range_meters":30800,"station_id":"","pricing_plan_id":"cebpf4jnsgd1na2vs0mg"},{"bike_id":"f8e8dd66-c7d6-4bd0-91ac-ef4274ae24f3","system_id":"levelo_inurba_marseille","lat":43.33745,"lon":5.374923,"is_reserved":false,"is_disabled":false,"rental_uris":{"android":"levelo://app?vid=f8e8dd66-c7d6-4bd0-91ac-ef4274ae24f3","ios":"levelo://app?vid=f8e8dd66-c7d6-4bd0-91ac-ef4274ae24f3"},"vehicle_type_id":"4","last_reported":1722085767,"current_range_meters":23200,"station_id":"","pricing_plan_id":"cebpf4jnsgd1na2vs0mg"},{"bike_id":"6cf0c176-f7c0-4e29-a014-f3a3b29e1d2a","system_id":"levelo_inurba_marseille","lat":43.337526,"lon":5.374469,"is_reserved":false,"is_disabled":false,"rental_uris":{"android":"levelo://app?vid=6cf0c176-f7c0-4e29-a014-f3a3b29e1d2a","ios":"levelo://app?vid=6cf0c176-f7c0-4e29-a014-f3a3b29e1d2a"},"vehicle_type_id":"4","last_reported":1722085767,"current_range_meters":28800,"station_id":"","pricing_plan_id":"cebpf4jnsgd1na2vs0mg"},{"bike_id":"3e79250c-7764-488c-b465-61fd16d31170","system_id":"levelo_inurba_marseille","lat":43.33753,"lon":5.374513,"is_reserved":false,"is_disabled":false,"rental_uris":{"android":"levelo://app?vid=3e79250c-7764-488c-b465-61fd16d31170","ios":"levelo://app?vid=3e79250c-7764-488c-b465-61fd16d31170"},"vehicle_type_id":"4","last_reported":1722085767,"current_range_meters":29600,"station_id":"","pricing_plan_id":"cebpf4jnsgd1na2vs0mg"},{"bike_id":"ce2a281f-6b17-464e-8289-d463ea4cfa07","system_id":"levelo_inurba_marseille","lat":43.337553,"lon":5.374554,"is_reserved":false,"is_disabled":false,"rental_uris":{"android":"levelo://app?vid=ce2a281f-6b17-464e-8289-d463ea4cfa07","ios":"levelo://app?vid=ce2a281f-6b17-464e-8289-d463ea4cfa07"},"vehicle_type_id":"4","last_reported":1722085767,"current_range_meters":30000,"station_id":"","pricing_plan_id":"cebpf4jnsgd1na2vs0mg"},{"bike_id":"bf86f662-a5a9-402b-aac6-1cf3ab32b9fe","system_id":"levelo_inurba_marseille","lat":43.301117,"lon":5.398795,"is_reserved":false,"is_disabled":false,"rental_uris":{"android":"levelo://app?vid=bf86f662-a5a9-402b-aac6-1cf3ab32b9fe","ios":"levelo://app?vid=bf86f662-a5a9-402b-aac6-1cf3ab32b9fe"},"vehicle_type_id":"4","last_reported":1722085767,"current_range_meters":0,"station_id":"ce4bh0h2rcd13ifvqd40","pricing_plan_id":"cebpf4jnsgd1na2vs0mg"},{"bike_id":"cdcd251a-e3fe-4ab9-98c8-24c6376964d2","system_id":"levelo_inurba_marseille","lat":43.290624,"lon":5.359245,"is_reserved":false,"is_disabled":false,"rental_uris":{"android":"levelo://app?vid=cdcd251a-e3fe-4ab9-98c8-24c6376964d2","ios":"levelo://app?vid=cdcd251a-e3fe-4ab9-98c8-24c6376964d2"},"vehicle_type_id":"4","last_reported":1722085767,"current_range_meters":20800,"station_id":"ce4bha92rcd13ifvqeg0","pricing_plan_id":"cebpf4jnsgd1na2vs0mg"},{"bike_id":"e0eed87d-82e1-459c-8dee-a099498aa625","system_id":"levelo_inurba_marseille","lat":43.289307,"lon":5.38406,"is_reserved":false,"is_disabled":false,"rental_uris":{"android":"levelo://app?vid=e0eed87d-82e1-459c-8dee-a099498aa625","ios":"levelo://app?vid=e0eed87d-82e1-459c-8dee-a099498aa625"},"vehicle_type_id":"4","last_reported":1722085767,"current_range_meters":21200,"station_id":"ce4bh612rcd13ifvqe6g","pricing_plan_id":"cebpf4jnsgd1na2vs0mg"},{"bike_id":"7e01240d-b354-473c-bb75-fc14304c5c96","system_id":"levelo_inurba_marseille","lat":43.302759,"lon":5.400793,"is_reserved":false,"is_disabled":false,"rental_uris":{"android":"levelo://app?vid=7e01240d-b354-473c-bb75-fc14304c5c96","ios":"levelo://app?vid=7e01240d-b354-473c-bb75-fc14304c5c96"},"vehicle_type_id":"4","last_reported":1722085767,"current_range_meters":1600,"station_id":"ce4bgvh2rcd13ifvqcs0","pricing_plan_id":"cebpf4jnsgd1na2vs0mg"},{"bike_id":"07a4efb8-dcda-4ca9-bbeb-f945a2213727","system_id":"levelo_inurba_marseille","lat":43.290328,"lon":5.386547,"is_reserved":false,"is_disabled":false,"rental_uris":{"android":"levelo://app?vid=07a4efb8-dcda-4ca9-bbeb-f945a2213727","ios":"levelo://app?vid=07a4efb8-dcda-4ca9-bbeb-f945a2213727"},"vehicle_type_id":"4","last_reported":1722085767,"current_range_meters":11600,"station_id":"ce4bh4p2rcd13ifvqe0g","pricing_plan_id":"cebpf4jnsgd1na2vs0mg"},{"bike_id":"f745e933-3523-4482-95fa-6e9ccdc46b0b","system_id":"levelo_inurba_marseille","lat":43.286039,"lon":5.370679,"is_reserved":false,"is_disabled":false,"rental_uris":{"android":"levelo://app?vid=f745e933-3523-4482-95fa-6e9ccdc46b0b","ios":"levelo://app?vid=f745e933-3523-4482-95fa-6e9ccdc46b0b"},"vehicle_type_id":"4","last_reported":1722085767,"current_range_meters":20800,"station_id":"ce4bht12rcd13ifvqi60","pricing_plan_id":"cebpf4jnsgd1na2vs0mg"},{"bike_id":"21f45e9a-7d20-450b-8f12-3d96701d53ed","system_id":"levelo_inurba_marseille","lat":43.31401,"lon":5.40399,"is_reserved":false,"is_disabled":false,"rental_uris":{"android":"levelo://app?vid=21f45e9a-7d20-450b-8f12-3d96701d53ed","ios":"levelo://app?vid=21f45e9a-7d20-450b-8f12-3d96701d53ed"},"vehicle_type_id":"4","last_reported":1722085767,"current_range_meters":400,"station_id":"","pricing_plan_id":"cebpf4jnsgd1na2vs0mg"},{"bike_id":"2c9ca53a-3b44-465a-8fa5-73e7cbffc645","system_id":"levelo_inurba_marseille","lat":43.287156,"lon":5.379404,"is_reserved":false,"is_disabled":false,"rental_uris":{"android":"levelo://app?vid=2c9ca53a-3b44-465a-8fa5-73e7cbffc645","ios":"levelo://app?vid=2c9ca53a-3b44-465a-8fa5-73e7cbffc645"},"vehicle_type_id":"4","last_reported":1722085767,"current_range_meters":0,"station_id":"ce4bh9p2rcd13ifvqec0","pricing_plan_id":"cebpf4jnsgd1na2vs0mg"},{"bike_id":"0454a6f5-6fcb-43a9-bb84-9e181a334b44","system_id":"levelo_inurba_marseille","lat":43.28514,"lon":5.35963,"is_reserved":false,"is_disabled":false,"rental_uris":{"android":"levelo://app?vid=0454a6f5-6fcb-43a9-bb84-9e181a334b44","ios":"levelo://app?vid=0454a6f5-6fcb-43a9-bb84-9e181a334b44"},"vehicle_type_id":"4","last_reported":1722085767,"current_range_meters":20400,"station_id":"","pricing_plan_id":"cebpf4jnsgd1na2vs0mg"},{"bike_id":"07f9ff32-1875-4e7a-80ad-78c0eeed3770","system_id":"levelo_inurba_marseille","lat":43.28464,"lon":5.35893,"is_reserved":false,"is_disabled":false,"rental_uris":{"android":"levelo://app?vid=07f9ff32-1875-4e7a-80ad-78c0eeed3770","ios":"levelo://app?vid=07f9ff32-1875-4e7a-80ad-78c0eeed3770"},"vehicle_type_id":"4","last_reported":1722085767,"current_range_meters":0,"station_id":"ce4bhah2rcd13ifvqei0","pricing_plan_id":"cebpf4jnsgd1na2vs0mg"},{"bike_id":"1aee9461-eecc-427d-91ea-ebb3db82a45c","system_id":"levelo_inurba_marseille","lat":43.284534,"lon":5.358662,"is_reserved":false,"is_disabled":false,"rental_uris":{"android":"levelo://app?vid=1aee9461-eecc-427d-91ea-ebb3db82a45c","ios":"levelo://app?vid=1aee9461-eecc-427d-91ea-ebb3db82a45c"},"vehicle_type_id":"4","last_reported":1722085767,"current_range_meters":10000,"station_id":"ce4bhah2rcd13ifvqei0","pricing_plan_id":"cebpf4jnsgd1na2vs0mg"},{"bike_id":"0a89d4bd-dc09-4d1c-aca0-99aa47392b76","system_id":"levelo_inurba_marseille","lat":43.28627,"lon":5.35105,"is_reserved":false,"is_disabled":false,"rental_uris":{"android":"levelo://app?vid=0a89d4bd-dc09-4d1c-aca0-99aa47392b76","ios":"levelo://app?vid=0a89d4bd-dc09-4d1c-aca0-99aa47392b76"},"vehicle_type_id":"4","last_reported":1722085767,"current_range_meters":30000,"station_id":"ce4bhch2rcd13ifvqeug","pricing_plan_id":"cebpf4jnsgd1na2vs0mg"},{"bike_id":"535c412c-1898-458f-b742-298089281984","system_id":"levelo_inurba_marseille","lat":43.28627,"lon":5.35101,"is_reserved":false,"is_disabled":false,"rental_uris":{"android":"levelo://app?vid=535c412c-1898-458f-b742-298089281984","ios":"levelo://app?vid=535c412c-1898-458f-b742-298089281984"},"vehicle_type_id":"4","last_reported":1722085767,"current_range_meters":20000,"station_id":"ce4bhch2rcd13ifvqeug","pricing_plan_id":"cebpf4jnsgd1na2vs0mg"},{"bike_id":"e0f25bd1-ad61-4daf-89f5-1f8c54dcc131","system_id":"levelo_inurba_marseille","lat":43.28621,"lon":5.35108,"is_reserved":false,"is_disabled":false,"rental_uris":{"android":"levelo://app?vid=e0f25bd1-ad61-4daf-89f5-1f8c54dcc131","ios":"levelo://app?vid=e0f25bd1-ad61-4daf-89f5-1f8c54dcc131"},"vehicle_type_id":"4","last_reported":1722085767,"current_range_meters":12400,"station_id":"ce4bhch2rcd13ifvqeug","pricing_plan_id":"cebpf4jnsgd1na2vs0mg"},{"bike_id":"b5a51157-4664-4bfa-9d60-7807e5ad9824","system_id":"levelo_inurba_marseille","lat":43.28624,"lon":5.35098,"is_reserved":false,"is_disabled":false,"rental_uris":{"android":"levelo://app?vid=b5a51157-4664-4bfa-9d60-7807e5ad9824","ios":"levelo://app?vid=b5a51157-4664-4bfa-9d60-7807e5ad9824"},"vehicle_type_id":"4","last_reported":1722085767,"current_range_meters":31200,"station_id":"ce4bhch2rcd13ifvqeug","pricing_plan_id":"cebpf4jnsgd1na2vs0mg"},{"bike_id":"393fb8bd-e0e9-483c-8250-119aad64b0cc","system_id":"levelo_inurba_marseille","lat":43.28618,"lon":5.35115,"is_reserved":false,"is_disabled":false,"rental_uris":{"android":"levelo://app?vid=393fb8bd-e0e9-483c-8250-119aad64b0cc","ios":"levelo://app?vid=393fb8bd-e0e9-483c-8250-119aad64b0cc"},"vehicle_type_id":"4","last_reported":1722085767,"current_range_meters":0,"station_id":"ce4bhch2rcd13ifvqeug","pricing_plan_id":"cebpf4jnsgd1na2vs0mg"},{"bike_id":"c26aec70-2d61-4de1-8b5f-a4bf02eb00c2","system_id":"levelo_inurba_marseille","lat":43.28624,"lon":5.35096,"is_reserved":false,"is_disabled":false,"rental_uris":{"android":"levelo://app?vid=c26aec70-2d61-4de1-8b5f-a4bf02eb00c2","ios":"levelo://app?vid=c26aec70-2d61-4de1-8b5f-a4bf02eb00c2"},"vehicle_type_id":"4","last_reported":1722085767,"current_range_meters":12000,"station_id":"ce4bhch2rcd13ifvqeug","pricing_plan_id":"cebpf4jnsgd1na2vs0mg"},{"bike_id":"01473be5-f961-42b6-88f9-28d81e6133a2","system_id":"levelo_inurba_marseille","lat":43.286226,"lon":5.350994,"is_reserved":false,"is_disabled":false,"rental_uris":{"android":"levelo://app?vid=01473be5-f961-42b6-88f9-28d81e6133a2","ios":"levelo://app?vid=01473be5-f961-42b6-88f9-28d81e6133a2"},"vehicle_type_id":"4","last_reported":1722085767,"current_range_meters":11600,"station_id":"ce4bhch2rcd13ifvqeug","pricing_plan_id":"cebpf4jnsgd1na2vs0mg"},{"bike_id":"58b7941b-7730-4477-bfcd-e99f3d80ca1c","system_id":"levelo_inurba_marseille","lat":43.28621,"lon":5.35103,"is_reserved":false,"is_disabled":false,"rental_uris":{"android":"levelo://app?vid=58b7941b-7730-4477-bfcd-e99f3d80ca1c","ios":"levelo://app?vid=58b7941b-7730-4477-bfcd-e99f3d80ca1c"},"vehicle_type_id":"4","last_reported":1722085767,"current_range_meters":18800,"station_id":"ce4bhch2rcd13ifvqeug","pricing_plan_id":"cebpf4jnsgd1na2vs0mg"},{"bike_id":"074448ee-e507-4cad-a096-52fd96acfdb4","system_id":"levelo_inurba_marseille","lat":43.28618,"lon":5.35109,"is_reserved":false,"is_disabled":false,"rental_uris":{"android":"levelo://app?vid=074448ee-e507-4cad-a096-52fd96acfdb4","ios":"levelo://app?vid=074448ee-e507-4cad-a096-52fd96acfdb4"},"vehicle_type_id":"4","last_reported":1722085767,"current_range_meters":27200,"station_id":"ce4bhch2rcd13ifvqeug","pricing_plan_id":"cebpf4jnsgd1na2vs0mg"},{"bike_id":"9c197d19-8c46-44c1-bdb4-9318a32c38c4","system_id":"levelo_inurba_marseille","lat":43.2862,"lon":5.35099,"is_reserved":false,"is_disabled":false,"rental_uris":{"android":"levelo://app?vid=9c197d19-8c46-44c1-bdb4-9318a32c38c4","ios":"levelo://app?vid=9c197d19-8c46-44c1-bdb4-9318a32c38c4"},"vehicle_type_id":"4","last_reported":1722085767,"current_range_meters":3200,"station_id":"ce4bhch2rcd13ifvqeug","pricing_plan_id":"cebpf4jnsgd1na2vs0mg"},{"bike_id":"6afd0e88-ca92-4f61-85a6-17a39420d249","system_id":"levelo_inurba_marseille","lat":43.28618,"lon":5.35105,"is_reserved":false,"is_disabled":false,"rental_uris":{"android":"levelo://app?vid=6afd0e88-ca92-4f61-85a6-17a39420d249","ios":"levelo://app?vid=6afd0e88-ca92-4f61-85a6-17a39420d249"},"vehicle_type_id":"4","last_reported":1722085767,"current_range_meters":19600,"station_id":"ce4bhch2rcd13ifvqeug","pricing_plan_id":"cebpf4jnsgd1na2vs0mg"},{"bike_id":"890f117e-5606-4695-b4ef-868ab45bc11f","system_id":"levelo_inurba_marseille","lat":43.28618,"lon":5.35104,"is_reserved":false,"is_disabled":false,"rental_uris":{"android":"levelo://app?vid=890f117e-5606-4695-b4ef-868ab45bc11f","ios":"levelo://app?vid=890f117e-5606-4695-b4ef-868ab45bc11f"},"vehicle_type_id":"4","last_reported":1722085767,"current_range_meters":28400,"station_id":"ce4bhch2rcd13ifvqeug","pricing_plan_id":"cebpf4jnsgd1na2vs0mg"},{"bike_id":"4824540b-fbf7-4bf3-a905-8273b446cc57","system_id":"levelo_inurba_marseille","lat":43.28619,"lon":5.351,"is_reserved":false,"is_disabled":false,"rental_uris":{"android":"levelo://app?vid=4824540b-fbf7-4bf3-a905-8273b446cc57","ios":"levelo://app?vid=4824540b-fbf7-4bf3-a905-8273b446cc57"},"vehicle_type_id":"4","last_reported":1722085767,"current_range_meters":31200,"station_id":"ce4bhch2rcd13ifvqeug","pricing_plan_id":"cebpf4jnsgd1na2vs0mg"},{"bike_id":"803b7649-fa00-48ea-9032-3f08cffcec49","system_id":"levelo_inurba_marseille","lat":43.2862,"lon":5.35096,"is_reserved":false,"is_disabled":false,"rental_uris":{"android":"levelo://app?vid=803b7649-fa00-48ea-9032-3f08cffcec49","ios":"levelo://app?vid=803b7649-fa00-48ea-9032-3f08cffcec49"},"vehicle_type_id":"4","last_reported":1722085767,"current_range_meters":31200,"station_id":"ce4bhch2rcd13ifvqeug","pricing_plan_id":"cebpf4jnsgd1na2vs0mg"},{"bike_id":"0792a101-7bde-4532-ad0d-069f2d9219db","system_id":"levelo_inurba_marseille","lat":43.28618,"lon":5.35098,"is_reserved":false,"is_disabled":false,"rental_uris":{"android":"levelo://app?vid=0792a101-7bde-4532-ad0d-069f2d9219db","ios":"levelo://app?vid=0792a101-7bde-4532-ad0d-069f2d9219db"},"vehicle_type_id":"4","last_reported":1722085767,"current_range_meters":12400,"station_id":"ce4bhch2rcd13ifvqeug","pricing_plan_id":"cebpf4jnsgd1na2vs0mg"},{"bike_id":"4d391fdd-66ed-462e-a0af-3b655dadaab0","system_id":"levelo_inurba_marseille","lat":43.28617,"lon":5.35101,"is_reserved":false,"is_disabled":false,"rental_uris":{"android":"levelo://app?vid=4d391fdd-66ed-462e-a0af-3b655dadaab0","ios":"levelo://app?vid=4d391fdd-66ed-462e-a0af-3b655dadaab0"},"vehicle_type_id":"4","last_reported":1722085767,"current_range_meters":3600,"station_id":"ce4bhch2rcd13ifvqeug","pricing_plan_id":"cebpf4jnsgd1na2vs0mg"},{"bike_id":"f47281a1-f6eb-4c5b-8832-eb1f85bd1fc8","system_id":"levelo_inurba_marseille","lat":43.28617,"lon":5.351,"is_reserved":false,"is_disabled":false,"rental_uris":{"android":"levelo://app?vid=f47281a1-f6eb-4c5b-8832-eb1f85bd1fc8","ios":"levelo://app?vid=f47281a1-f6eb-4c5b-8832-eb1f85bd1fc8"},"vehicle_type_id":"4","last_reported":1722085767,"current_range_meters":23600,"station_id":"ce4bhch2rcd13ifvqeug","pricing_plan_id":"cebpf4jnsgd1na2vs0mg"},{"bike_id":"5a8b4f7f-8858-4cce-a6cf-39e56f74bd1e","system_id":"levelo_inurba_marseille","lat":43.28617,"lon":5.351,"is_reserved":false,"is_disabled":false,"rental_uris":{"android":"levelo://app?vid=5a8b4f7f-8858-4cce-a6cf-39e56f74bd1e","ios":"levelo://app?vid=5a8b4f7f-8858-4cce-a6cf-39e56f74bd1e"},"vehicle_type_id":"4","last_reported":1722085767,"current_range_meters":0,"station_id":"ce4bhch2rcd13ifvqeug","pricing_plan_id":"cebpf4jnsgd1na2vs0mg"},{"bike_id":"f9205870-4ba1-4b91-ae46-4e55501c198a","system_id":"levelo_inurba_marseille","lat":43.28616,"lon":5.35103,"is_reserved":false,"is_disabled":false,"rental_uris":{"android":"levelo://app?vid=f9205870-4ba1-4b91-ae46-4e55501c198a","ios":"levelo://app?vid=f9205870-4ba1-4b91-ae46-4e55501c198a"},"vehicle_type_id":"4","last_reported":1722085767,"current_range_meters":22000,"station_id":"ce4bhch2rcd13ifvqeug","pricing_plan_id":"cebpf4jnsgd1na2vs0mg"},{"bike_id":"6453a802-53f6-48c4-8aff-7c293ed75dda","system_id":"levelo_inurba_marseille","lat":43.286148,"lon":5.351038,"is_reserved":false,"is_disabled":false,"rental_uris":{"android":"levelo://app?vid=6453a802-53f6-48c4-8aff-7c293ed75dda","ios":"levelo://app?vid=6453a802-53f6-48c4-8aff-7c293ed75dda"},"vehicle_type_id":"4","last_reported":1722085767,"current_range_meters":23200,"station_id":"","pricing_plan_id":"cebpf4jnsgd1na2vs0mg"},{"bike_id":"a411acfb-dcb4-485e-a67b-cc5c9fd0feac","system_id":"levelo_inurba_marseille","lat":43.28614,"lon":5.35103,"is_reserved":false,"is_disabled":false,"rental_uris":{"android":"levelo://app?vid=a411acfb-dcb4-485e-a67b-cc5c9fd0feac","ios":"levelo://app?vid=a411acfb-dcb4-485e-a67b-cc5c9fd0feac"},"vehicle_type_id":"4","last_reported":1722085767,"current_range_meters":31200,"station_id":"ce4bhch2rcd13ifvqeug","pricing_plan_id":"cebpf4jnsgd1na2vs0mg"},{"bike_id":"dc4b3ef5-483f-4f97-b910-8b30cbe5592e","system_id":"levelo_inurba_marseille","lat":43.28614,"lon":5.35102,"is_reserved":false,"is_disabled":false,"rental_uris":{"android":"levelo://app?vid=dc4b3ef5-483f-4f97-b910-8b30cbe5592e","ios":"levelo://app?vid=dc4b3ef5-483f-4f97-b910-8b30cbe5592e"},"vehicle_type_id":"4","last_reported":1722085767,"current_range_meters":28000,"station_id":"ce4bhch2rcd13ifvqeug","pricing_plan_id":"cebpf4jnsgd1na2vs0mg"},{"bike_id":"a1fb0234-862c-4247-99a7-e57367b0c1cf","system_id":"levelo_inurba_marseille","lat":43.28614,"lon":5.35102,"is_reserved":false,"is_disabled":false,"rental_uris":{"android":"levelo://app?vid=a1fb0234-862c-4247-99a7-e57367b0c1cf","ios":"levelo://app?vid=a1fb0234-862c-4247-99a7-e57367b0c1cf"},"vehicle_type_id":"4","last_reported":1722085767,"current_range_meters":31200,"station_id":"ce4bhch2rcd13ifvqeug","pricing_plan_id":"cebpf4jnsgd1na2vs0mg"},{"bike_id":"78784ea7-f0f5-421a-8119-a6cc86e761ae","system_id":"levelo_inurba_marseille","lat":43.28615,"lon":5.35098,"is_reserved":false,"is_disabled":false,"rental_uris":{"android":"levelo://app?vid=78784ea7-f0f5-421a-8119-a6cc86e761ae","ios":"levelo://app?vid=78784ea7-f0f5-421a-8119-a6cc86e761ae"},"vehicle_type_id":"4","last_reported":1722085767,"current_range_meters":10800,"station_id":"ce4bhch2rcd13ifvqeug","pricing_plan_id":"cebpf4jnsgd1na2vs0mg"},{"bike_id":"aeec8b6c-8ab6-4895-b7ee-c104c635ca3a","system_id":"levelo_inurba_marseille","lat":43.28612,"lon":5.35105,"is_reserved":false,"is_disabled":false,"rental_uris":{"android":"levelo://app?vid=aeec8b6c-8ab6-4895-b7ee-c104c635ca3a","ios":"levelo://app?vid=aeec8b6c-8ab6-4895-b7ee-c104c635ca3a"},"vehicle_type_id":"4","last_reported":1722085767,"current_range_meters":23600,"station_id":"ce4bhch2rcd13ifvqeug","pricing_plan_id":"cebpf4jnsgd1na2vs0mg"},{"bike_id":"addc2f9a-be85-4513-8bfa-b2adf33c7819","system_id":"levelo_inurba_marseille","lat":43.285856,"lon":5.350771,"is_reserved":false,"is_disabled":false,"rental_uris":{"android":"levelo://app?vid=addc2f9a-be85-4513-8bfa-b2adf33c7819","ios":"levelo://app?vid=addc2f9a-be85-4513-8bfa-b2adf33c7819"},"vehicle_type_id":"4","last_reported":1722085767,"current_range_meters":20000,"station_id":"ce4bhch2rcd13ifvqeug","pricing_plan_id":"cebpf4jnsgd1na2vs0mg"},{"bike_id":"7f4cd0dd-d743-4396-a21a-887e78b47fbe","system_id":"levelo_inurba_marseille","lat":43.28612,"lon":5.35104,"is_reserved":false,"is_disabled":false,"rental_uris":{"android":"levelo://app?vid=7f4cd0dd-d743-4396-a21a-887e78b47fbe","ios":"levelo://app?vid=7f4cd0dd-d743-4396-a21a-887e78b47fbe"},"vehicle_type_id":"4","last_reported":1722085767,"current_range_meters":800,"station_id":"ce4bhch2rcd13ifvqeug","pricing_plan_id":"cebpf4jnsgd1na2vs0mg"},{"bike_id":"e6a3d18f-037f-4f04-aded-9df2f63009c7","system_id":"levelo_inurba_marseille","lat":43.28614,"lon":5.35097,"is_reserved":false,"is_disabled":false,"rental_uris":{"android":"levelo://app?vid=e6a3d18f-037f-4f04-aded-9df2f63009c7","ios":"levelo://app?vid=e6a3d18f-037f-4f04-aded-9df2f63009c7"},"vehicle_type_id":"4","last_reported":1722085767,"current_range_meters":16800,"station_id":"ce4bhch2rcd13ifvqeug","pricing_plan_id":"cebpf4jnsgd1na2vs0mg"},{"bike_id":"dd196e07-656a-436c-8b64-2cb9ed00f148","system_id":"levelo_inurba_marseille","lat":43.28613,"lon":5.35099,"is_reserved":false,"is_disabled":false,"rental_uris":{"android":"levelo://app?vid=dd196e07-656a-436c-8b64-2cb9ed00f148","ios":"levelo://app?vid=dd196e07-656a-436c-8b64-2cb9ed00f148"},"vehicle_type_id":"4","last_reported":1722085767,"current_range_meters":14400,"station_id":"ce4bhch2rcd13ifvqeug","pricing_plan_id":"cebpf4jnsgd1na2vs0mg"},{"bike_id":"5b3cad77-227d-4bda-81a3-5b96d51c19c0","system_id":"levelo_inurba_marseille","lat":43.28611,"lon":5.35098,"is_reserved":false,"is_disabled":false,"rental_uris":{"android":"levelo://app?vid=5b3cad77-227d-4bda-81a3-5b96d51c19c0","ios":"levelo://app?vid=5b3cad77-227d-4bda-81a3-5b96d51c19c0"},"vehicle_type_id":"4","last_reported":1722085767,"current_range_meters":24400,"station_id":"ce4bhch2rcd13ifvqeug","pricing_plan_id":"cebpf4jnsgd1na2vs0mg"},{"bike_id":"c007c553-67dc-4371-a791-3316a2ca47df","system_id":"levelo_inurba_marseille","lat":43.286061,"lon":5.351098,"is_reserved":false,"is_disabled":false,"rental_uris":{"android":"levelo://app?vid=c007c553-67dc-4371-a791-3316a2ca47df","ios":"levelo://app?vid=c007c553-67dc-4371-a791-3316a2ca47df"},"vehicle_type_id":"4","last_reported":1722085767,"current_range_meters":24800,"station_id":"ce4bhch2rcd13ifvqeug","pricing_plan_id":"cebpf4jnsgd1na2vs0mg"},{"bike_id":"20f5b130-5553-42a6-b1ee-6fec00c04704","system_id":"levelo_inurba_marseille","lat":43.28426,"lon":5.35859,"is_reserved":false,"is_disabled":false,"rental_uris":{"android":"levelo://app?vid=20f5b130-5553-42a6-b1ee-6fec00c04704","ios":"levelo://app?vid=20f5b130-5553-42a6-b1ee-6fec00c04704"},"vehicle_type_id":"4","last_reported":1722085767,"current_range_meters":16000,"station_id":"","pricing_plan_id":"cebpf4jnsgd1na2vs0mg"},{"bike_id":"8399d982-4a71-4452-8746-81f0bf2d15f4","system_id":"levelo_inurba_marseille","lat":43.28409,"lon":5.37516,"is_reserved":false,"is_disabled":false,"rental_uris":{"android":"levelo://app?vid=8399d982-4a71-4452-8746-81f0bf2d15f4","ios":"levelo://app?vid=8399d982-4a71-4452-8746-81f0bf2d15f4"},"vehicle_type_id":"4","last_reported":1722085767,"current_range_meters":0,"station_id":"ce4bh412rcd13ifvqds0","pricing_plan_id":"cebpf4jnsgd1na2vs0mg"},{"bike_id":"706d2729-75da-46b1-a6c3-be5f9909f3b4","system_id":"levelo_inurba_marseille","lat":43.28404,"lon":5.37517,"is_reserved":false,"is_disabled":false,"rental_uris":{"android":"levelo://app?vid=706d2729-75da-46b1-a6c3-be5f9909f3b4","ios":"levelo://app?vid=706d2729-75da-46b1-a6c3-be5f9909f3b4"},"vehicle_type_id":"4","last_reported":1722085767,"current_range_meters":10000,"station_id":"ce4bh412rcd13ifvqds0","pricing_plan_id":"cebpf4jnsgd1na2vs0mg"},{"bike_id":"e8080547-572f-47d1-bde8-ffc26f12c275","system_id":"levelo_inurba_marseille","lat":43.299523,"lon":5.402895,"is_reserved":false,"is_disabled":false,"rental_uris":{"android":"levelo://app?vid=e8080547-572f-47d1-bde8-ffc26f12c275","ios":"levelo://app?vid=e8080547-572f-47d1-bde8-ffc26f12c275"},"vehicle_type_id":"4","last_reported":1722085767,"current_range_meters":21600,"station_id":"","pricing_plan_id":"cebpf4jnsgd1na2vs0mg"},{"bike_id":"ed0bd43e-3247-4a32-8ba2-dc45c7982713","system_id":"levelo_inurba_marseille","lat":43.319179,"lon":5.407725,"is_reserved":false,"is_disabled":false,"rental_uris":{"android":"levelo://app?vid=ed0bd43e-3247-4a32-8ba2-dc45c7982713","ios":"levelo://app?vid=ed0bd43e-3247-4a32-8ba2-dc45c7982713"},"vehicle_type_id":"4","last_reported":1722085767,"current_range_meters":30400,"station_id":"ce4bhq12rcd13ifvqhig","pricing_plan_id":"cebpf4jnsgd1na2vs0mg"},{"bike_id":"81b7d781-f970-4696-970c-f10b366ea018","system_id":"levelo_inurba_marseille","lat":43.319179,"lon":5.407725,"is_reserved":false,"is_disabled":false,"rental_uris":{"android":"levelo://app?vid=81b7d781-f970-4696-970c-f10b366ea018","ios":"levelo://app?vid=81b7d781-f970-4696-970c-f10b366ea018"},"vehicle_type_id":"4","last_reported":1722085767,"current_range_meters":28000,"station_id":"ce4bhq12rcd13ifvqhig","pricing_plan_id":"cebpf4jnsgd1na2vs0mg"},{"bike_id":"300c353f-9609-413c-a118-4a1d167f4b28","system_id":"levelo_inurba_marseille","lat":43.319179,"lon":5.407725,"is_reserved":false,"is_disabled":false,"rental_uris":{"android":"levelo://app?vid=300c353f-9609-413c-a118-4a1d167f4b28","ios":"levelo://app?vid=300c353f-9609-413c-a118-4a1d167f4b28"},"vehicle_type_id":"4","last_reported":1722085767,"current_range_meters":19200,"station_id":"ce4bhq12rcd13ifvqhig","pricing_plan_id":"cebpf4jnsgd1na2vs0mg"},{"bike_id":"acd01f13-54aa-4157-ab6b-0846acc70e3e","system_id":"levelo_inurba_marseille","lat":43.323464,"lon":5.406297,"is_reserved":false,"is_disabled":false,"rental_uris":{"android":"levelo://app?vid=acd01f13-54aa-4157-ab6b-0846acc70e3e","ios":"levelo://app?vid=acd01f13-54aa-4157-ab6b-0846acc70e3e"},"vehicle_type_id":"4","last_reported":1722085767,"current_range_meters":3200,"station_id":"ce4bhq92rcd13ifvqhjg","pricing_plan_id":"cebpf4jnsgd1na2vs0mg"},{"bike_id":"2ae5533b-b92a-4213-98b5-f522ba974985","system_id":"levelo_inurba_marseille","lat":43.337168,"lon":5.391825,"is_reserved":false,"is_disabled":false,"rental_uris":{"android":"levelo://app?vid=2ae5533b-b92a-4213-98b5-f522ba974985","ios":"levelo://app?vid=2ae5533b-b92a-4213-98b5-f522ba974985"},"vehicle_type_id":"4","last_reported":1722085767,"current_range_meters":31600,"station_id":"ce4bhr92rcd13ifvqhsg","pricing_plan_id":"cebpf4jnsgd1na2vs0mg"},{"bike_id":"89a88d5e-35a1-4aec-b83d-2880145f42be","system_id":"levelo_inurba_marseille","lat":43.323464,"lon":5.406297,"is_reserved":false,"is_disabled":false,"rental_uris":{"android":"levelo://app?vid=89a88d5e-35a1-4aec-b83d-2880145f42be","ios":"levelo://app?vid=89a88d5e-35a1-4aec-b83d-2880145f42be"},"vehicle_type_id":"4","last_reported":1722085767,"current_range_meters":28800,"station_id":"ce4bhq92rcd13ifvqhjg","pricing_plan_id":"cebpf4jnsgd1na2vs0mg"},{"bike_id":"bf566eb0-1a34-49e5-9985-f41b167b6ecd","system_id":"levelo_inurba_marseille","lat":43.323464,"lon":5.406297,"is_reserved":false,"is_disabled":false,"rental_uris":{"android":"levelo://app?vid=bf566eb0-1a34-49e5-9985-f41b167b6ecd","ios":"levelo://app?vid=bf566eb0-1a34-49e5-9985-f41b167b6ecd"},"vehicle_type_id":"4","last_reported":1722085767,"current_range_meters":4400,"station_id":"ce4bhq92rcd13ifvqhjg","pricing_plan_id":"cebpf4jnsgd1na2vs0mg"},{"bike_id":"0d3a4859-dc7d-4a98-9b40-00615631bac6","system_id":"levelo_inurba_marseille","lat":43.33717,"lon":5.391857,"is_reserved":false,"is_disabled":false,"rental_uris":{"android":"levelo://app?vid=0d3a4859-dc7d-4a98-9b40-00615631bac6","ios":"levelo://app?vid=0d3a4859-dc7d-4a98-9b40-00615631bac6"},"vehicle_type_id":"4","last_reported":1722085767,"current_range_meters":7600,"station_id":"ce4bhr92rcd13ifvqhsg","pricing_plan_id":"cebpf4jnsgd1na2vs0mg"},{"bike_id":"aaa404bc-34e6-4d7d-8719-076ed49879f4","system_id":"levelo_inurba_marseille","lat":43.295713,"lon":5.399639,"is_reserved":false,"is_disabled":false,"rental_uris":{"android":"levelo://app?vid=aaa404bc-34e6-4d7d-8719-076ed49879f4","ios":"levelo://app?vid=aaa404bc-34e6-4d7d-8719-076ed49879f4"},"vehicle_type_id":"4","last_reported":1722085767,"current_range_meters":0,"station_id":"ce4bh312rcd13ifvqdj0","pricing_plan_id":"cebpf4jnsgd1na2vs0mg"},{"bike_id":"8e11f3dd-878b-4099-aaf1-0dcc1998740e","system_id":"levelo_inurba_marseille","lat":43.284787,"lon":5.384116,"is_reserved":false,"is_disabled":false,"rental_uris":{"android":"levelo://app?vid=8e11f3dd-878b-4099-aaf1-0dcc1998740e","ios":"levelo://app?vid=8e11f3dd-878b-4099-aaf1-0dcc1998740e"},"vehicle_type_id":"4","last_reported":1722085767,"current_range_meters":16800,"station_id":"ce4bh512rcd13ifvqe3g","pricing_plan_id":"cebpf4jnsgd1na2vs0mg"},{"bike_id":"271fcc9f-bd13-47a1-927d-62017b64667b","system_id":"levelo_inurba_marseille","lat":43.284787,"lon":5.384116,"is_reserved":false,"is_disabled":false,"rental_uris":{"android":"levelo://app?vid=271fcc9f-bd13-47a1-927d-62017b64667b","ios":"levelo://app?vid=271fcc9f-bd13-47a1-927d-62017b64667b"},"vehicle_type_id":"4","last_reported":1722085767,"current_range_meters":0,"station_id":"ce4bh512rcd13ifvqe3g","pricing_plan_id":"cebpf4jnsgd1na2vs0mg"},