{"last_updated":1740215307,"ttl":60,"version":"2.2","data":{"bikes":[{"bike_id":"f1c9ebe7-ec3a-4a9e-9f92-c9fd230e3c92","system_id":"levelo_inurba_marseille","lat":43.28606,"lon":5.35111,"is_reserved":false,"is_disabled":false,"rental_uris":{"android":"levelo://app?vid=f1c9ebe7-ec3a-4a9e-9f92-c9fd230e3c92","ios":"levelo://app?vid=f1c9ebe7-ec3a-4a9e-9f92-c9fd230e3c92"},"vehicle_type_id":"4","last_reported":1740215308,"current_range_meters":2800,"station_id":"ce4bhch2rcd13ifvqeug","pricing_plan_id":"cebpf4jnsgd1na2vs0mg"},{"bike_id":"419b4ccf-9337-4dc9-9409-111b92134d45","system_id":"levelo_inurba_marseille","lat":43.337444,"lon":5.374475,"is_reserved":false,"is_disabled":false,"rental_uris":{"android":"levelo://app?vid=419b4ccf-9337-4dc9-9409-111b92134d45","ios":"levelo://app?vid=419b4ccf-9337-4dc9-9409-111b92134d45"},"vehicle_type_id":"4","last_reported":1740215308,"current_range_meters":3200,"station_id":"","pricing_plan_id":"cebpf4jnsgd1na2vs0mg"},{"bike_id":"2d203d3b-b9be-4543-95f1-da2e41576b3b","system_id":"levelo_inurba_marseille","lat":43.2956,"lon":5.37491,"is_reserved":false,"is_disabled":false,"rental_uris":{"android":"levelo://app?vid=2d203d3b-b9be-4543-95f1-da2e41576b3b","ios":"levelo://app?vid=2d203d3b-b9be-4543-95f1-da2e41576b3b"},"vehicle_type_id":"4","last_reported":1740215308,"current_range_meters":3600,"station_id":"ce4bgh92rcd13ifvqb50","pricing_plan_id":"cebpf4jnsgd1na2vs0mg"},{"bike_id":"350202bf-5272-4b25-8012-1b5e3cc2c139","system_id":"levelo_inurba_marseille","lat":43.31213,"lon":5.37296,"is_reserved":false,"is_disabled":false,"rental_uris":{"android":"levelo://app?vid=350202bf-5272-4b25-8012-1b5e3cc2c139","ios":"levelo://app?vid=350202bf-5272-4b25-8012-1b5e3cc2c139"},"vehicle_type_id":"4","last_reported":1740215308,"current_range_meters":3600,"station_id":"","pricing_plan_id":"cebpf4jnsgd1na2vs0mg"},{"bike_id":"285f776a-6c37-4c62-8123-b9120720ec65","system_id":"levelo_inurba_marseille","lat":43.24782,"lon":5.39045,"is_reserved":false,"is_disabled":false,"rental_uris":{"android":"levelo://app?vid=285f776a-6c37-4c62-8123-b9120720ec65","ios":"levelo://app?vid=285f776a-6c37-4c62-8123-b9120720ec65"},"vehicle_type_id":"4","last_reported":1740215308,"current_range_meters":4000,"station_id":"","pricing_plan_id":"cebpf4jnsgd1na2vs0mg"},{"bike_id":"2b79b3a7-5b74-49f4-bb58-5d5397f748f9","system_id":"levelo_inurba_marseille","lat":43.25006,"lon":5.38941,"is_reserved":false,"is_disabled":true,"rental_uris":{"android":"levelo://app?vid=2b79b3a7-5b74-49f4-bb58-5d5397f748f9","ios":"levelo://app?vid=2b79b3a7-5b74-49f4-bb58-5d5397f748f9"},"vehicle_type_id":"4","last_reported":1740215308,"current_range_meters":4400,"station_id":"ce4bhgp2rcd13ifvqfd0","pricing_plan_id":"cebpf4jnsgd1na2vs0mg"},{"bike_id":"0bcd69a4-23ee-4469-ab4c-59928d1a3c26","system_id":"levelo_inurba_marseille","lat":43.27948,"lon":5.41043,"is_reserved":false,"is_disabled":false,"rental_uris":{"android":"levelo://app?vid=0bcd69a4-23ee-4469-ab4c-59928d1a3c26","ios":"levelo://app?vid=0bcd69a4-23ee-4469-ab4c-59928d1a3c26"},"vehicle_type_id":"4","last_reported":1740215308,"current_range_meters":4400,"station_id":"ce4bhnp2rcd13ifvqh0g","pricing_plan_id":"cebpf4jnsgd1na2vs0mg"},{"bike_id":"6b6e1059-5264-45b9-9cb9-d24cf5205f2a","system_id":"levelo_inurba_marseille","lat":43.23971,"lon":5.36647,"is_reserved":false,"is_disabled":true,"rental_uris":{"android":"levelo://app?vid=6b6e1059-5264-45b9-9cb9-d24cf5205f2a","ios":"levelo://app?vid=6b6e1059-5264-45b9-9cb9-d24cf5205f2a"},"vehicle_type_id":"4","last_reported":1740215308,"current_range_meters":4800,"station_id":"","pricing_plan_id":"cebpf4jnsgd1na2vs0mg"},{"bike_id":"ae5c8cc0-fec8-4d7f-b3e4-ee124c7166b5","system_id":"levelo_inurba_marseille","lat":43.3043,"lon":5.397513,"is_reserved":false,"is_disabled":false,"rental_uris":{"android":"levelo://app?vid=ae5c8cc0-fec8-4d7f-b3e4-ee124c7166b5","ios":"levelo://app?vid=ae5c8cc0-fec8-4d7f-b3e4-ee124c7166b5"},"vehicle_type_id":"4","last_reported":1740215308,"current_range_meters":4800,"station_id":"ce4bh092rcd13ifvqd20","pricing_plan_id":"cebpf4jnsgd1na2vs0mg"},{"bike_id":"0b34320f-1530-4fcc-86f4-70d2a5ac39d6","system_id":"levelo_inurba_marseille","lat":43.27065,"lon":5.40234,"is_reserved":false,"is_disabled":false,"rental_uris":{"android":"levelo://app?vid=0b34320f-1530-4fcc-86f4-70d2a5ac39d6","ios":"levelo://app?vid=0b34320f-1530-4fcc-86f4-70d2a5ac39d6"},"vehicle_type_id":"4","last_reported":1740215308,"current_range_meters":4800,"station_id":"ce4bhk92rcd13ifvqgc0","pricing_plan_id":"cebpf4jnsgd1na2vs0mg"},{"bike_id":"5adb03c8-9e92-4bca-badc-823584838fed","system_id":"levelo_inurba_marseille","lat":43.27671,"lon":5.38913,"is_reserved":false,"is_disabled":false,"rental_uris":{"android":"levelo://app?vid=5adb03c8-9e92-4bca-badc-823584838fed","ios":"levelo://app?vid=5adb03c8-9e92-4bca-badc-823584838fed"},"vehicle_type_id":"4","last_reported":1740215308,"current_range_meters":5600,"station_id":"ce4bhi12rcd13ifvqfo0","pricing_plan_id":"cebpf4jnsgd1na2vs0mg"},{"bike_id":"4bead99d-197d-4ba0-a20e-7f5fe83ce021","system_id":"levelo_inurba_marseille","lat":43.25064,"lon":5.40426,"is_reserved":false,"is_disabled":false,"rental_uris":{"android":"levelo://app?vid=4bead99d-197d-4ba0-a20e-7f5fe83ce021","ios":"levelo://app?vid=4bead99d-197d-4ba0-a20e-7f5fe83ce021"},"vehicle_type_id":"4","last_reported":1740215308,"current_range_meters":5600,"station_id":"ce4bhlh2rcd13ifvqgig","pricing_plan_id":"cebpf4jnsgd1na2vs0mg"},{"bike_id":"53b870e3-9ade-4434-9c0c-26dd21d70be8","system_id":"levelo_inurba_marseille","lat":43.30503,"lon":5.37182,"is_reserved":false,"is_disabled":false,"rental_uris":{"android":"levelo://app?vid=53b870e3-9ade-4434-9c0c-26dd21d70be8","ios":"levelo://app?vid=53b870e3-9ade-4434-9c0c-26dd21d70be8"},"vehicle_type_id":"4","last_reported":1740215308,"current_range_meters":6000,"station_id":"","pricing_plan_id":"cebpf4jnsgd1na2vs0mg"},{"bike_id":"b45ab281-2ffb-4786-bbfb-31f4db8658f9","system_id":"levelo_inurba_marseille","lat":43.26595,"lon":5.39029,"is_reserved":false,"is_disabled":false,"rental_uris":{"android":"levelo://app?vid=b45ab281-2ffb-4786-bbfb-31f4db8658f9","ios":"levelo://app?vid=b45ab281-2ffb-4786-bbfb-31f4db8658f9"},"vehicle_type_id":"4","last_reported":1740215308,"current_range_meters":6000,"station_id":"ce4bhe12rcd13ifvqf30","pricing_plan_id":"cebpf4jnsgd1na2vs0mg"},{"bike_id":"9b657097-6d50-493a-a91f-1e2b4f0d3321","system_id":"levelo_inurba_marseille","lat":43.27911,"lon":5.39582,"is_reserved":false,"is_disabled":false,"rental_uris":{"android":"levelo://app?vid=9b657097-6d50-493a-a91f-1e2b4f0d3321","ios":"levelo://app?vid=9b657097-6d50-493a-a91f-1e2b4f0d3321"},"vehicle_type_id":"4","last_reported":1740215308,"current_range_meters":6000,"station_id":"ce4bhf92rcd13ifvqf40","pricing_plan_id":"cebpf4jnsgd1na2vs0mg"},{"bike_id":"2c01f343-3f49-4b0e-a699-a10894e0de7d","system_id":"levelo_inurba_marseille","lat":43.28148,"lon":5.42655,"is_reserved":false,"is_disabled":false,"rental_uris":{"android":"levelo://app?vid=2c01f343-3f49-4b0e-a699-a10894e0de7d","ios":"levelo://app?vid=2c01f343-3f49-4b0e-a699-a10894e0de7d"},"vehicle_type_id":"4","last_reported":1740215308,"current_range_meters":6000,"station_id":"ce4bhnh2rcd13ifvqgug","pricing_plan_id":"cebpf4jnsgd1na2vs0mg"},{"bike_id":"2e8521de-4b17-4165-9acc-0225ff96fcdb","system_id":"levelo_inurba_marseille","lat":43.28417,"lon":5.37537,"is_reserved":false,"is_disabled":false,"rental_uris":{"android":"levelo://app?vid=2e8521de-4b17-4165-9acc-0225ff96fcdb","ios":"levelo://app?vid=2e8521de-4b17-4165-9acc-0225ff96fcdb"},"vehicle_type_id":"4","last_reported":1740215308,"current_range_meters":6000,"station_id":"ce4bh412rcd13ifvqds0","pricing_plan_id":"cebpf4jnsgd1na2vs0mg"},{"bike_id":"702ece55-6fac-4f6f-ab51-8fd635b2e183","system_id":"levelo_inurba_marseille","lat":43.27193,"lon":5.39197,"is_reserved":false,"is_disabled":false,"rental_uris":{"android":"levelo://app?vid=702ece55-6fac-4f6f-ab51-8fd635b2e183","ios":"levelo://app?vid=702ece55-6fac-4f6f-ab51-8fd635b2e183"},"vehicle_type_id":"4","last_reported":1740215308,"current_range_meters":4800,"station_id":"ce4bhhp2rcd13ifvqfm0","pricing_plan_id":"cebpf4jnsgd1na2vs0mg"},{"bike_id":"7c5289cb-0b42-4bee-9961-0cc3ccb86bfe","system_id":"levelo_inurba_marseille","lat":43.24108,"lon":5.3775,"is_reserved":false,"is_disabled":false,"rental_uris":{"android":"levelo://app?vid=7c5289cb-0b42-4bee-9961-0cc3ccb86bfe","ios":"levelo://app?vid=7c5289cb-0b42-4bee-9961-0cc3ccb86bfe"},"vehicle_type_id":"4","last_reported":1740215308,"current_range_meters":6000,"station_id":"ce4bhnp2rcd13ifvqgvg","pricing_plan_id":"cebpf4jnsgd1na2vs0mg"},{"bike_id":"d2cb6fb4-70b5-4bb1-8fdb-58651e619996","system_id":"levelo_inurba_marseille","lat":43.28414,"lon":5.37527,"is_reserved":false,"is_disabled":false,"rental_uris":{"android":"levelo://app?vid=d2cb6fb4-70b5-4bb1-8fdb-58651e619996","ios":"levelo://app?vid=d2cb6fb4-70b5-4bb1-8fdb-58651e619996"},"vehicle_type_id":"4","last_reported":1740215308,"current_range_meters":6000,"station_id":"ce4bh412rcd13ifvqds0","pricing_plan_id":"cebpf4jnsgd1na2vs0mg"},{"bike_id":"e2124d37-d1a5-4d4d-8c06-fda2ba0b4397","system_id":"levelo_inurba_marseille","lat":43.29192,"lon":5.42716,"is_reserved":false,"is_disabled":true,"rental_uris":{"android":"levelo://app?vid=e2124d37-d1a5-4d4d-8c06-fda2ba0b4397","ios":"levelo://app?vid=e2124d37-d1a5-4d4d-8c06-fda2ba0b4397"},"vehicle_type_id":"4","last_reported":1740215308,"current_range_meters":6400,"station_id":"","pricing_plan_id":"cebpf4jnsgd1na2vs0mg"},{"bike_id":"0584e728-54f2-4eca-887e-fe95607e016b","system_id":"levelo_inurba_marseille","lat":43.28275,"lon":5.35089,"is_reserved":false,"is_disabled":false,"rental_uris":{"android":"levelo://app?vid=0584e728-54f2-4eca-887e-fe95607e016b","ios":"levelo://app?vid=0584e728-54f2-4eca-887e-fe95607e016b"},"vehicle_type_id":"4","last_reported":1740215308,"current_range_meters":6400,"station_id":"ce4bhbp2rcd13ifvqerg","pricing_plan_id":"cebpf4jnsgd1na2vs0mg"},{"bike_id":"e6b3adbc-9d3e-4a9a-aaef-5b9015925024","system_id":"levelo_inurba_marseille","lat":43.31114,"lon":5.37769,"is_reserved":false,"is_disabled":false,"rental_uris":{"android":"levelo://app?vid=e6b3adbc-9d3e-4a9a-aaef-5b9015925024","ios":"levelo://app?vid=e6b3adbc-9d3e-4a9a-aaef-5b9015925024"},"vehicle_type_id":"4","last_reported":1740215308,"current_range_meters":6400,"station_id":"ce4bgt92rcd13ifvqcg0","pricing_plan_id":"cebpf4jnsgd1na2vs0mg"},{"bike_id":"a2e4953e-b369-433b-8261-a64c88b8c43d","system_id":"levelo_inurba_marseille","lat":43.28267,"lon":5.42376,"is_reserved":false,"is_disabled":false,"rental_uris":{"android":"levelo://app?vid=a2e4953e-b369-433b-8261-a64c88b8c43d","ios":"levelo://app?vid=a2e4953e-b369-433b-8261-a64c88b8c43d"},"vehicle_type_id":"4","last_reported":1740215308,"current_range_meters":6800,"station_id":"","pricing_plan_id":"cebpf4jnsgd1na2vs0mg"},{"bike_id":"a7e57524-7096-4476-8d9d-8e8806b1c3d0","system_id":"levelo_inurba_marseille","lat":43.23157,"lon":5.437,"is_reserved":false,"is_disabled":true,"rental_uris":{"android":"levelo://app?vid=a7e57524-7096-4476-8d9d-8e8806b1c3d0","ios":"levelo://app?vid=a7e57524-7096-4476-8d9d-8e8806b1c3d0"},"vehicle_type_id":"4","last_reported":1740215308,"current_range_meters":6800,"station_id":"ce4bhmp2rcd13ifvqgog","pricing_plan_id":"cebpf4jnsgd1na2vs0mg"},{"bike_id":"e2605be6-729f-4263-a772-380592b3879d","system_id":"levelo_inurba_marseille","lat":43.30487,"lon":5.38107,"is_reserved":false,"is_disabled":false,"rental_uris":{"android":"levelo://app?vid=e2605be6-729f-4263-a772-380592b3879d","ios":"levelo://app?vid=e2605be6-729f-4263-a772-380592b3879d"},"vehicle_type_id":"4","last_reported":1740215308,"current_range_meters":6800,"station_id":"","pricing_plan_id":"cebpf4jnsgd1na2vs0mg"},{"bike_id":"6217edc5-f970-4407-80bc-03f762a7c131","system_id":"levelo_inurba_marseille","lat":43.30146,"lon":5.38092,"is_reserved":false,"is_disabled":false,"rental_uris":{"android":"levelo://app?vid=6217edc5-f970-4407-80bc-03f762a7c131","ios":"levelo://app?vid=6217edc5-f970-4407-80bc-03f762a7c131"},"vehicle_type_id":"4","last_reported":1740215308,"current_range_meters":6400,"station_id":"ce4bgjp2rcd13ifvqbh0","pricing_plan_id":"cebpf4jnsgd1na2vs0mg"},{"bike_id":"6726115d-85f2-46c3-9205-adcc69db6251","system_id":"levelo_inurba_marseille","lat":43.2858,"lon":5.39475,"is_reserved":false,"is_disabled":true,"rental_uris":{"android":"levelo://app?vid=6726115d-85f2-46c3-9205-adcc69db6251","ios":"levelo://app?vid=6726115d-85f2-46c3-9205-adcc69db6251"},"vehicle_type_id":"4","last_reported":1740215308,"current_range_meters":7200,"station_id":"ce4bh292rcd13ifvqdg0","pricing_plan_id":"cebpf4jnsgd1na2vs0mg"},{"bike_id":"2074b46a-4462-434a-b913-d175d76b0c97","system_id":"levelo_inurba_marseille","lat":43.23965,"lon":5.36634,"is_reserved":false,"is_disabled":false,"rental_uris":{"android":"levelo://app?vid=2074b46a-4462-434a-b913-d175d76b0c97","ios":"levelo://app?vid=2074b46a-4462-434a-b913-d175d76b0c97"},"vehicle_type_id":"4","last_reported":1740215308,"current_range_meters":7200,"station_id":"ce4bhi12rcd13ifvqfp0","pricing_plan_id":"cebpf4jnsgd1na2vs0mg"},{"bike_id":"d0109f8e-c695-44b8-83b5-050518c2c6c9","system_id":"levelo_inurba_marseille","lat":43.23058,"lon":5.35497,"is_reserved":false,"is_disabled":false,"rental_uris":{"android":"levelo://app?vid=d0109f8e-c695-44b8-83b5-050518c2c6c9","ios":"levelo://app?vid=d0109f8e-c695-44b8-83b5-050518c2c6c9"},"vehicle_type_id":"4","last_reported":1740215308,"current_range_meters":7200,"station_id":"cpo3342slgdg3j2ifvpg","pricing_plan_id":"cebpf4jnsgd1na2vs0mg"},{"bike_id":"646b5cae-2afa-416c-8287-2abe42f0a681","system_id":"levelo_inurba_marseille","lat":43.30406,"lon":5.4129,"is_reserved":false,"is_disabled":false,"rental_uris":{"android":"levelo://app?vid=646b5cae-2afa-416c-8287-2abe42f0a681","ios":"levelo://app?vid=646b5cae-2afa-416c-8287-2abe42f0a681"},"vehicle_type_id":"4","last_reported":1740215308,"current_range_meters":8000,"station_id":"ce4bhop2rcd13ifvqh8g","pricing_plan_id":"cebpf4jnsgd1na2vs0mg"},{"bike_id":"c08354d8-2d7f-4528-b12d-bc2942eb1a51","system_id":"levelo_inurba_marseille","lat":43.29235,"lon":5.40932,"is_reserved":false,"is_disabled":false,"rental_uris":{"android":"levelo://app?vid=c08354d8-2d7f-4528-b12d-bc2942eb1a51","ios":"levelo://app?vid=c08354d8-2d7f-4528-b12d-bc2942eb1a51"},"vehicle_type_id":"4","last_reported":1740215308,"current_range_meters":8000,"station_id":"ce4bh192rcd13ifvqdc0","pricing_plan_id":"cebpf4jnsgd1na2vs0mg"},{"bike_id":"d5b50ff4-937a-4d99-afed-0708c8bffb59","system_id":"levelo_inurba_marseille","lat":43.2957,"lon":5.39982,"is_reserved":false,"is_disabled":false,"rental_uris":{"android":"levelo://app?vid=d5b50ff4-937a-4d99-afed-0708c8bffb59","ios":"levelo://app?vid=d5b50ff4-937a-4d99-afed-0708c8bffb59"},"vehicle_type_id":"4","last_reported":1740215308,"current_range_meters":8000,"station_id":"ce4bh312rcd13ifvqdj0","pricing_plan_id":"cebpf4jnsgd1na2vs0mg"},{"bike_id":"def726d5-4740-459b-8a4d-4b3858095065","system_id":"levelo_inurba_marseille","lat":43.24815,"lon":5.37466,"is_reserved":false,"is_disabled":false,"rental_uris":{"android":"levelo://app?vid=def726d5-4740-459b-8a4d-4b3858095065","ios":"levelo://app?vid=def726d5-4740-459b-8a4d-4b3858095065"},"vehicle_type_id":"4","last_reported":1740215308,"current_range_meters":8000,"station_id":"ce4bhgh2rcd13ifvqfb0","pricing_plan_id":"cebpf4jnsgd1na2vs0mg"},{"bike_id":"e7b615e3-db9b-4723-ab59-0385b732a269","system_id":"levelo_inurba_marseille","lat":43.29669,"lon":5.38221,"is_reserved":false,"is_disabled":false,"rental_uris":{"android":"levelo://app?vid=e7b615e3-db9b-4723-ab59-0385b732a269","ios":"levelo://app?vid=e7b615e3-db9b-4723-ab59-0385b732a269"},"vehicle_type_id":"4","last_reported":1740215308,"current_range_meters":8000,"station_id":"","pricing_plan_id":"cebpf4jnsgd1na2vs0mg"},{"bike_id":"c0d6c131-aacf-4529-aad8-041fd8310aae","system_id":"levelo_inurba_marseille","lat":43.2913,"lon":5.37566,"is_reserved":false,"is_disabled":false,"rental_uris":{"android":"levelo://app?vid=c0d6c131-aacf-4529-aad8-041fd8310aae","ios":"levelo://app?vid=c0d6c131-aacf-4529-aad8-041fd8310aae"},"vehicle_type_id":"4","last_reported":1740215308,"current_range_meters":8000,"station_id":"","pricing_plan_id":"cebpf4jnsgd1na2vs0mg"},{"bike_id":"f3feea2e-5bf7-41f6-a6d2-c494ec11d6a2","system_id":"levelo_inurba_marseille","lat":43.230658,"lon":5.354909,"is_reserved":false,"is_disabled":false,"rental_uris":{"android":"levelo://app?vid=f3feea2e-5bf7-41f6-a6d2-c494ec11d6a2","ios":"levelo://app?vid=f3feea2e-5bf7-41f6-a6d2-c494ec11d6a2"},"vehicle_type_id":"4","last_reported":1740215308,"current_range_meters":8000,"station_id":"cpo3342slgdg3j2ifvpg","pricing_plan_id":"cebpf4jnsgd1na2vs0mg"},{"bike_id":"6aafab1c-b1fd-4bbd-a318-89366250d32c","system_id":"levelo_inurba_marseille","lat":43.30353,"lon":5.41878,"is_reserved":false,"is_disabled":false,"rental_uris":{"android":"levelo://app?vid=6aafab1c-b1fd-4bbd-a318-89366250d32c","ios":"levelo://app?vid=6aafab1c-b1fd-4bbd-a318-89366250d32c"},"vehicle_type_id":"4","last_reported":1740215308,"current_range_meters":8400,"station_id":"ce4bhop2rcd13ifvqh7g","pricing_plan_id":"cebpf4jnsgd1na2vs0mg"},{"bike_id":"2b8d73ad-5137-4320-bf7a-9fcaea6cd84f","system_id":"levelo_inurba_marseille","lat":43.27997,"lon":5.40014,"is_reserved":false,"is_disabled":false,"rental_uris":{"android":"levelo://app?vid=2b8d73ad-5137-4320-bf7a-9fcaea6cd84f","ios":"levelo://app?vid=2b8d73ad-5137-4320-bf7a-9fcaea6cd84f"},"vehicle_type_id":"4","last_reported":1740215308,"current_range_meters":8400,"station_id":"ce4bho92rcd13ifvqh4g","pricing_plan_id":"cebpf4jnsgd1na2vs0mg"},{"bike_id":"ae247aba-916f-4b0f-b2cd-cd9e14ebf058","system_id":"levelo_inurba_marseille","lat":43.30235,"lon":5.40057,"is_reserved":false,"is_disabled":false,"rental_uris":{"android":"levelo://app?vid=ae247aba-916f-4b0f-b2cd-cd9e14ebf058","ios":"levelo://app?vid=ae247aba-916f-4b0f-b2cd-cd9e14ebf058"},"vehicle_type_id":"4","last_reported":1740215308,"current_range_meters":8400,"station_id":"ce4bgvh2rcd13ifvqcs0","pricing_plan_id":"cebpf4jnsgd1na2vs0mg"},{"bike_id":"d414c500-f227-4efb-aabd-f7246cca81bc","system_id":"levelo_inurba_marseille","lat":43.23068,"lon":5.35509,"is_reserved":false,"is_disabled":false,"rental_uris":{"android":"levelo://app?vid=d414c500-f227-4efb-aabd-f7246cca81bc","ios":"levelo://app?vid=d414c500-f227-4efb-aabd-f7246cca81bc"},"vehicle_type_id":"4","last_reported":1740215308,"current_range_meters":8400,"station_id":"cpo3342slgdg3j2ifvpg","pricing_plan_id":"cebpf4jnsgd1na2vs0mg"},{"bike_id":"d27d48ff-9dbf-4f1d-be11-933dfc7fe146","system_id":"levelo_inurba_marseille","lat":43.28434,"lon":5.37514,"is_reserved":false,"is_disabled":false,"rental_uris":{"android":"levelo://app?vid=d27d48ff-9dbf-4f1d-be11-933dfc7fe146","ios":"levelo://app?vid=d27d48ff-9dbf-4f1d-be11-933dfc7fe146"},"vehicle_type_id":"4","last_reported":1740215308,"current_range_meters":8400,"station_id":"ce4bh412rcd13ifvqds0","pricing_plan_id":"cebpf4jnsgd1na2vs0mg"},{"bike_id":"9d5b8fa3-06e6-4d69-a5c4-74d042560aab","system_id":"levelo_inurba_marseille","lat":43.3087,"lon":5.37212,"is_reserved":false,"is_disabled":false,"rental_uris":{"android":"levelo://app?vid=9d5b8fa3-06e6-4d69-a5c4-74d042560aab","ios":"levelo://app?vid=9d5b8fa3-06e6-4d69-a5c4-74d042560aab"},"vehicle_type_id":"4","last_reported":1740215308,"current_range_meters":8800,"station_id":"ce4bguh2rcd13ifvqckg","pricing_plan_id":"cebpf4jnsgd1na2vs0mg"},{"bike_id":"df29adbb-05e2-4bcf-9c64-f08403058d7e","system_id":"levelo_inurba_marseille","lat":43.32643,"lon":5.41009,"is_reserved":false,"is_disabled":false,"rental_uris":{"android":"levelo://app?vid=df29adbb-05e2-4bcf-9c64-f08403058d7e","ios":"levelo://app?vid=df29adbb-05e2-4bcf-9c64-f08403058d7e"},"vehicle_type_id":"4","last_reported":1740215308,"current_range_meters":8800,"station_id":"ce4bhpp2rcd13ifvqhgg","pricing_plan_id":"cebpf4jnsgd1na2vs0mg"},{"bike_id":"2afb22c7-7048-4615-a3b7-71b0be04e579","system_id":"levelo_inurba_marseille","lat":43.23203,"lon":5.35583,"is_reserved":false,"is_disabled":false,"rental_uris":{"android":"levelo://app?vid=2afb22c7-7048-4615-a3b7-71b0be04e579","ios":"levelo://app?vid=2afb22c7-7048-4615-a3b7-71b0be04e579"},"vehicle_type_id":"4","last_reported":1740215308,"current_range_meters":8800,"station_id":"","pricing_plan_id":"cebpf4jnsgd1na2vs0mg"},{"bike_id":"18bf3b10-c60f-45d1-b458-9bd568a3b871","system_id":"levelo_inurba_marseille","lat":43.25815,"lon":5.39472,"is_reserved":false,"is_disabled":false,"rental_uris":{"android":"levelo://app?vid=18bf3b10-c60f-45d1-b458-9bd568a3b871","ios":"levelo://app?vid=18bf3b10-c60f-45d1-b458-9bd568a3b871"},"vehicle_type_id":"4","last_reported":1740215308,"current_range_meters":8800,"station_id":"ce4bhip2rcd13ifvqft0","pricing_plan_id":"cebpf4jnsgd1na2vs0mg"},{"bike_id":"7195e16d-3552-41a0-a438-b790dc48cb5a","system_id":"levelo_inurba_marseille","lat":43.337444,"lon":5.374475,"is_reserved":false,"is_disabled":true,"rental_uris":{"android":"levelo://app?vid=7195e16d-3552-41a0-a438-b790dc48cb5a","ios":"levelo://app?vid=7195e16d-3552-41a0-a438-b790dc48cb5a"},"vehicle_type_id":"4","last_reported":1740215308,"current_range_meters":8800,"station_id":"","pricing_plan_id":"cebpf4jnsgd1na2vs0mg"},{"bike_id":"943382b3-3ac2-40b7-baae-7ca1aec3b930","system_id":"levelo_inurba_marseille","lat":43.28146,"lon":5.42667,"is_reserved":false,"is_disabled":false,"rental_uris":{"android":"levelo://app?vid=943382b3-3ac2-40b7-baae-7ca1aec3b930","ios":"levelo://app?vid=943382b3-3ac2-40b7-baae-7ca1aec3b930"},"vehicle_type_id":"4","last_reported":1740215308,"current_range_meters":8800,"station_id":"ce4bhnh2rcd13ifvqgug","pricing_plan_id":"cebpf4jnsgd1na2vs0mg"},{"bike_id":"89563a26-7881-4a62-8f9e-a7769f24651b","system_id":"levelo_inurba_marseille","lat":43.23151,"lon":5.43695,"is_reserved":false,"is_disabled":false,"rental_uris":{"android":"levelo://app?vid=89563a26-7881-4a62-8f9e-a7769f24651b","ios":"levelo://app?vid=89563a26-7881-4a62-8f9e-a7769f24651b"},"vehicle_type_id":"4","last_reported":1740215308,"current_range_meters":8800,"station_id":"ce4bhmp2rcd13ifvqgog","pricing_plan_id":"cebpf4jnsgd1na2vs0mg"},{"bike_id":"e501be99-a171-4e91-9e5b-ac547e4c06f2","system_id":"levelo_inurba_marseille","lat":43.2318,"lon":5.35562,"is_reserved":false,"is_disabled":false,"rental_uris":{"android":"levelo://app?vid=e501be99-a171-4e91-9e5b-ac547e4c06f2","ios":"levelo://app?vid=e501be99-a171-4e91-9e5b-ac547e4c06f2"},"vehicle_type_id":"4","last_reported":1740215308,"current_range_meters":8800,"station_id":"ce4bhu92rcd13ifvqi70","pricing_plan_id":"cebpf4jnsgd1na2vs0mg"},{"bike_id":"742bc5a2-3444-4e4e-844a-5248e8280f90","system_id":"levelo_inurba_marseille","lat":43.25087,"lon":5.39516,"is_reserved":false,"is_disabled":false,"rental_uris":{"android":"levelo://app?vid=742bc5a2-3444-4e4e-844a-5248e8280f90","ios":"levelo://app?vid=742bc5a2-3444-4e4e-844a-5248e8280f90"},"vehicle_type_id":"4","last_reported":1740215308,"current_range_meters":8800,"station_id":"ce4bhm12rcd13ifvqgkg","pricing_plan_id":"cebpf4jnsgd1na2vs0mg"},{"bike_id":"a7b3aafd-ce45-4b2b-923e-00c0122258d7","system_id":"levelo_inurba_marseille","lat":43.295807,"lon":5.375144,"is_reserved":false,"is_disabled":false,"rental_uris":{"android":"levelo://app?vid=a7b3aafd-ce45-4b2b-923e-00c0122258d7","ios":"levelo://app?vid=a7b3aafd-ce45-4b2b-923e-00c0122258d7"},"vehicle_type_id":"4","last_reported":1740215308,"current_range_meters":8800,"station_id":"ce4bgh92rcd13ifvqb50","pricing_plan_id":"cebpf4jnsgd1na2vs0mg"},{"bike_id":"104a1cff-9a75-4e8f-8e84-837fbddf2646","system_id":"levelo_inurba_marseille","lat":43.28722,"lon":5.36095,"is_reserved":false,"is_disabled":true,"rental_uris":{"android":"levelo://app?vid=104a1cff-9a75-4e8f-8e84-837fbddf2646","ios":"levelo://app?vid=104a1cff-9a75-4e8f-8e84-837fbddf2646"},"vehicle_type_id":"4","last_reported":1740215308,"current_range_meters":9200,"station_id":"cki0cbj6b192h4jlfktg","pricing_plan_id":"cebpf4jnsgd1na2vs0mg"},{"bike_id":"5348d5dc-5dca-4978-b167-cd7e8ce45433","system_id":"levelo_inurba_marseille","lat":43.30536,"lon":5.36532,"is_reserved":false,"is_disabled":false,"rental_uris":{"android":"levelo://app?vid=5348d5dc-5dca-4978-b167-cd7e8ce45433","ios":"levelo://app?vid=5348d5dc-5dca-4978-b167-cd7e8ce45433"},"vehicle_type_id":"4","last_reported":1740215308,"current_range_meters":9200,"station_id":"ce4bgs12rcd13ifvqcag","pricing_plan_id":"cebpf4jnsgd1na2vs0mg"},{"bike_id":"ab46b189-6bae-4129-a7fd-10b3ccd5a48e","system_id":"levelo_inurba_marseille","lat":43.27209,"lon":5.40009,"is_reserved":false,"is_disabled":false,"rental_uris":{"android":"levelo://app?vid=ab46b189-6bae-4129-a7fd-10b3ccd5a48e","ios":"levelo://app?vid=ab46b189-6bae-4129-a7fd-10b3ccd5a48e"},"vehicle_type_id":"4","last_reported":1740215308,"current_range_meters":9200,"station_id":"","pricing_plan_id":"cebpf4jnsgd1na2vs0mg"},{"bike_id":"56e66b92-9239-4875-832a-522288ca444b","system_id":"levelo_inurba_marseille","lat":43.29028,"lon":5.40019,"is_reserved":false,"is_disabled":false,"rental_uris":{"android":"levelo://app?vid=56e66b92-9239-4875-832a-522288ca444b","ios":"levelo://app?vid=56e66b92-9239-4875-832a-522288ca444b"},"vehicle_type_id":"4","last_reported":1740215308,"current_range_meters":9200,"station_id":"ce4bh392rcd13ifvqdm0","pricing_plan_id":"cebpf4jnsgd1na2vs0mg"},{"bike_id":"32cb548e-3f9c-45c3-8ca4-71e2dff11160","system_id":"levelo_inurba_marseille","lat":43.26578,"lon":5.39055,"is_reserved":false,"is_disabled":false,"rental_uris":{"android":"levelo://app?vid=32cb548e-3f9c-45c3-8ca4-71e2dff11160","ios":"levelo://app?vid=32cb548e-3f9c-45c3-8ca4-71e2dff11160"},"vehicle_type_id":"4","last_reported":1740215308,"current_range_meters":9200,"station_id":"ce4bhe12rcd13ifvqf30","pricing_plan_id":"cebpf4jnsgd1na2vs0mg"},{"bike_id":"a5861d8a-322b-4fa8-9cf5-48f1ed0493f0","system_id":"levelo_inurba_marseille","lat":43.26943,"lon":5.38648,"is_reserved":false,"is_disabled":false,"rental_uris":{"android":"levelo://app?vid=a5861d8a-322b-4fa8-9cf5-48f1ed0493f0","ios":"levelo://app?vid=a5861d8a-322b-4fa8-9cf5-48f1ed0493f0"},"vehicle_type_id":"4","last_reported":1740215308,"current_range_meters":9600,"station_id":"","pricing_plan_id":"cebpf4jnsgd1na2vs0mg"},{"bike_id":"f32fe46d-1120-4c2c-97c5-cdbf2de4ccec","system_id":"levelo_inurba_marseille","lat":43.25918,"lon":5.4092,"is_reserved":false,"is_disabled":false,"rental_uris":{"android":"levelo://app?vid=f32fe46d-1120-4c2c-97c5-cdbf2de4ccec","ios":"levelo://app?vid=f32fe46d-1120-4c2c-97c5-cdbf2de4ccec"},"vehicle_type_id":"4","last_reported":1740215308,"current_range_meters":9600,"station_id":"ce4bhm92rcd13ifvqglg","pricing_plan_id":"cebpf4jnsgd1na2vs0mg"},{"bike_id":"104cc81f-2dc0-4a55-8242-f461230322d5","system_id":"levelo_inurba_marseille","lat":43.28568,"lon":5.39496,"is_reserved":false,"is_disabled":false,"rental_uris":{"android":"levelo://app?vid=104cc81f-2dc0-4a55-8242-f461230322d5","ios":"levelo://app?vid=104cc81f-2dc0-4a55-8242-f461230322d5"},"vehicle_type_id":"4","last_reported":1740215308,"current_range_meters":9600,"station_id":"ce4bh292rcd13ifvqdg0","pricing_plan_id":"cebpf4jnsgd1na2vs0mg"},{"bike_id":"c04b81b6-1d78-49d2-a77e-38338694652c","system_id":"levelo_inurba_marseille","lat":43.23629,"lon":5.40992,"is_reserved":false,"is_disabled":false,"rental_uris":{"android":"levelo://app?vid=c04b81b6-1d78-49d2-a77e-38338694652c","ios":"levelo://app?vid=c04b81b6-1d78-49d2-a77e-38338694652c"},"vehicle_type_id":"4","last_reported":1740215308,"current_range_meters":9600,"station_id":"","pricing_plan_id":"cebpf4jnsgd1na2vs0mg"},{"bike_id":"6b04f75f-fb5c-42fe-a63b-5e82daec1ece","system_id":"levelo_inurba_marseille","lat":43.25582,"lon":5.38238,"is_reserved":false,"is_disabled":false,"rental_uris":{"android":"levelo://app?vid=6b04f75f-fb5c-42fe-a63b-5e82daec1ece","ios":"levelo://app?vid=6b04f75f-fb5c-42fe-a63b-5e82daec1ece"},"vehicle_type_id":"4","last_reported":1740215308,"current_range_meters":9600,"station_id":"ce4bhih2rcd13ifvqfs0","pricing_plan_id":"cebpf4jnsgd1na2vs0mg"},{"bike_id":"82541053-5fdd-4b64-9659-39b0b90a4c78","system_id":"levelo_inurba_marseille","lat":43.31228,"lon":5.36829,"is_reserved":false,"is_disabled":false,"rental_uris":{"android":"levelo://app?vid=82541053-5fdd-4b64-9659-39b0b90a4c78","ios":"levelo://app?vid=82541053-5fdd-4b64-9659-39b0b90a4c78"},"vehicle_type_id":"4","last_reported":1740215308,"current_range_meters":10800,"station_id":"ce4bgl92rcd13ifvqbq0","pricing_plan_id":"cebpf4jnsgd1na2vs0mg"},{"bike_id":"78b97302-9c59-42d1-a13f-5e8c85841d45","system_id":"levelo_inurba_marseille","lat":43.2656,"lon":5.39028,"is_reserved":false,"is_disabled":false,"rental_uris":{"android":"levelo://app?vid=78b97302-9c59-42d1-a13f-5e8c85841d45","ios":"levelo://app?vid=78b97302-9c59-42d1-a13f-5e8c85841d45"},"vehicle_type_id":"4","last_reported":1740215308,"current_range_meters":9600,"station_id":"ce4bhe12rcd13ifvqf30","pricing_plan_id":"cebpf4jnsgd1na2vs0mg"},{"bike_id":"3e94955c-e3a1-40d9-a922-0709808ca999","system_id":"levelo_inurba_marseille","lat":43.29063,"lon":5.37121,"is_reserved":false,"is_disabled":false,"rental_uris":{"android":"levelo://app?vid=3e94955c-e3a1-40d9-a922-0709808ca999","ios":"levelo://app?vid=3e94955c-e3a1-40d9-a922-0709808ca999"},"vehicle_type_id":"4","last_reported":1740215308,"current_range_meters":10000,"station_id":"ce4bh5p2rcd13ifvqe4g","pricing_plan_id":"cebpf4jnsgd1na2vs0mg"},{"bike_id":"890ed045-4ab0-4066-a815-05e3df29bf93","system_id":"levelo_inurba_marseille","lat":43.2705,"lon":5.40268,"is_reserved":false,"is_disabled":false,"rental_uris":{"android":"levelo://app?vid=890ed045-4ab0-4066-a815-05e3df29bf93","ios":"levelo://app?vid=890ed045-4ab0-4066-a815-05e3df29bf93"},"vehicle_type_id":"4","last_reported":1740215308,"current_range_meters":10000,"station_id":"ce4bhk92rcd13ifvqgc0","pricing_plan_id":"cebpf4jnsgd1na2vs0mg"},{"bike_id":"d93b56e8-81a2-4df1-b772-ccfe1aba8adb","system_id":"levelo_inurba_marseille","lat":43.29455,"lon":5.39071,"is_reserved":false,"is_disabled":false,"rental_uris":{"android":"levelo://app?vid=d93b56e8-81a2-4df1-b772-ccfe1aba8adb","ios":"levelo://app?vid=d93b56e8-81a2-4df1-b772-ccfe1aba8adb"},"vehicle_type_id":"4","last_reported":1740215308,"current_range_meters":10000,"station_id":"","pricing_plan_id":"cebpf4jnsgd1na2vs0mg"},{"bike_id":"812f52e5-c611-4ad3-9e33-9d66033c735c","system_id":"levelo_inurba_marseille","lat":43.23156,"lon":5.43706,"is_reserved":false,"is_disabled":false,"rental_uris":{"android":"levelo://app?vid=812f52e5-c611-4ad3-9e33-9d66033c735c","ios":"levelo://app?vid=812f52e5-c611-4ad3-9e33-9d66033c735c"},"vehicle_type_id":"4","last_reported":1740215308,"current_range_meters":10000,"station_id":"ce4bhmp2rcd13ifvqgog","pricing_plan_id":"cebpf4jnsgd1na2vs0mg"},{"bike_id":"08b85738-489c-4fdf-abcb-17da0e494013","system_id":"levelo_inurba_marseille","lat":43.2793,"lon":5.39601,"is_reserved":false,"is_disabled":false,"rental_uris":{"android":"levelo://app?vid=08b85738-489c-4fdf-abcb-17da0e494013","ios":"levelo://app?vid=08b85738-489c-4fdf-abcb-17da0e494013"},"vehicle_type_id":"4","last_reported":1740215308,"current_range_meters":10000,"station_id":"ce4bhf92rcd13ifvqf40","pricing_plan_id":"cebpf4jnsgd1na2vs0mg"},{"bike_id":"a404738f-d592-4923-bb7f-8cad6bf8fec4","system_id":"levelo_inurba_marseille","lat":43.2796,"lon":5.38519,"is_reserved":false,"is_disabled":false,"rental_uris":{"android":"levelo://app?vid=a404738f-d592-4923-bb7f-8cad6bf8fec4","ios":"levelo://app?vid=a404738f-d592-4923-bb7f-8cad6bf8fec4"},"vehicle_type_id":"4","last_reported":1740215308,"current_range_meters":10000,"station_id":"","pricing_plan_id":"cebpf4jnsgd1na2vs0mg"},{"bike_id":"af1107fa-d68e-4f88-b9a9-b5e22ec9744f","system_id":"levelo_inurba_marseille","lat":43.23035,"lon":5.35572,"is_reserved":false,"is_disabled":false,"rental_uris":{"android":"levelo://app?vid=af1107fa-d68e-4f88-b9a9-b5e22ec9744f","ios":"levelo://app?vid=af1107fa-d68e-4f88-b9a9-b5e22ec9744f"},"vehicle_type_id":"4","last_reported":1740215308,"current_range_meters":10000,"station_id":"cpo3342slgdg3j2ifvpg","pricing_plan_id":"cebpf4jnsgd1na2vs0mg"},{"bike_id":"718c3a69-842c-4223-8226-083bef674d23","system_id":"levelo_inurba_marseille","lat":43.255816,"lon":5.382299,"is_reserved":false,"is_disabled":false,"rental_uris":{"android":"levelo://app?vid=718c3a69-842c-4223-8226-083bef674d23","ios":"levelo://app?vid=718c3a69-842c-4223-8226-083bef674d23"},"vehicle_type_id":"4","last_reported":1740215308,"current_range_meters":10000,"station_id":"ce4bhih2rcd13ifvqfs0","pricing_plan_id":"cebpf4jnsgd1na2vs0mg"},{"bike_id":"78596268-b97a-482d-b434-451d29533c2f","system_id":"levelo_inurba_marseille","lat":43.29032,"lon":5.37572,"is_reserved":false,"is_disabled":false,"rental_uris":{"android":"levelo://app?vid=78596268-b97a-482d-b434-451d29533c2f","ios":"levelo://app?vid=78596268-b97a-482d-b434-451d29533c2f"},"vehicle_type_id":"4","last_reported":1740215308,"current_range_meters":9600,"station_id":"ce4bh692rcd13ifvqe90","pricing_plan_id":"cebpf4jnsgd1na2vs0mg"},{"bike_id":"275c6989-ff86-4e1f-8d47-af3f92e61b74","system_id":"levelo_inurba_marseille","lat":43.27933,"lon":5.39588,"is_reserved":false,"is_disabled":false,"rental_uris":{"android":"levelo://app?vid=275c6989-ff86-4e1f-8d47-af3f92e61b74","ios":"levelo://app?vid=275c6989-ff86-4e1f-8d47-af3f92e61b74"},"vehicle_type_id":"4","last_reported":1740215308,"current_range_meters":10000,"station_id":"ce4bhf92rcd13ifvqf40","pricing_plan_id":"cebpf4jnsgd1na2vs0mg"},{"bike_id":"78ccc1b5-e05d-4c30-bc5b-473f9d97e2cd","system_id":"levelo_inurba_marseille","lat":43.30104,"lon":5.37814,"is_reserved":false,"is_disabled":false,"rental_uris":{"android":"levelo://app?vid=78ccc1b5-e05d-4c30-bc5b-473f9d97e2cd","ios":"levelo://app?vid=78ccc1b5-e05d-4c30-bc5b-473f9d97e2cd"},"vehicle_type_id":"4","last_reported":1740215308,"current_range_meters":10800,"station_id":"","pricing_plan_id":"cebpf4jnsgd1na2vs0mg"},{"bike_id":"3372843d-d9b8-48e7-a75e-62d9bb27ba4f","system_id":"levelo_inurba_marseille","lat":43.27915,"lon":5.39586,"is_reserved":false,"is_disabled":false,"rental_uris":{"android":"levelo://app?vid=3372843d-d9b8-48e7-a75e-62d9bb27ba4f","ios":"levelo://app?vid=3372843d-d9b8-48e7-a75e-62d9bb27ba4f"},"vehicle_type_id":"4","last_reported":1740215308,"current_range_meters":10800,"station_id":"ce4bhf92rcd13ifvqf40","pricing_plan_id":"cebpf4jnsgd1na2vs0mg"},{"bike_id":"1bb7db80-3871-413c-ab2d-3515cfae14be","system_id":"levelo_inurba_marseille","lat":43.30264,"lon":5.40043,"is_reserved":false,"is_disabled":false,"rental_uris":{"android":"levelo://app?vid=1bb7db80-3871-413c-ab2d-3515cfae14be","ios":"levelo://app?vid=1bb7db80-3871-413c-ab2d-3515cfae14be"},"vehicle_type_id":"4","last_reported":1740215308,"current_range_meters":10800,"station_id":"ce4bgvh2rcd13ifvqcs0","pricing_plan_id":"cebpf4jnsgd1na2vs0mg"},{"bike_id":"265e0085-dbb2-442c-82c5-057359849f03","system_id":"levelo_inurba_marseille","lat":43.26589,"lon":5.39046,"is_reserved":false,"is_disabled":false,"rental_uris":{"android":"levelo://app?vid=265e0085-dbb2-442c-82c5-057359849f03","ios":"levelo://app?vid=265e0085-dbb2-442c-82c5-057359849f03"},"vehicle_type_id":"4","last_reported":1740215308,"current_range_meters":10800,"station_id":"ce4bhe12rcd13ifvqf30","pricing_plan_id":"cebpf4jnsgd1na2vs0mg"},{"bike_id":"35331f57-b06c-41f1-8224-4eb3668702eb","system_id":"levelo_inurba_marseille","lat":43.23046,"lon":5.35501,"is_reserved":false,"is_disabled":false,"rental_uris":{"android":"levelo://app?vid=35331f57-b06c-41f1-8224-4eb3668702eb","ios":"levelo://app?vid=35331f57-b06c-41f1-8224-4eb3668702eb"},"vehicle_type_id":"4","last_reported":1740215308,"current_range_meters":10800,"station_id":"cpo3342slgdg3j2ifvpg","pricing_plan_id":"cebpf4jnsgd1na2vs0mg"},{"bike_id":"b985ad1f-1942-453b-b5eb-7462cafd1e31","system_id":"levelo_inurba_marseille","lat":43.23185,"lon":5.35558,"is_reserved":false,"is_disabled":false,"rental_uris":{"android":"levelo://app?vid=b985ad1f-1942-453b-b5eb-7462cafd1e31","ios":"levelo://app?vid=b985ad1f-1942-453b-b5eb-7462cafd1e31"},"vehicle_type_id":"4","last_reported":1740215308,"current_range_meters":10800,"station_id":"ce4bhu92rcd13ifvqi70","pricing_plan_id":"cebpf4jnsgd1na2vs0mg"},{"bike_id":"d312ce1d-aae9-4c62-a1e8-38c15d95735a","system_id":"levelo_inurba_marseille","lat":43.22946,"lon":5.35405,"is_reserved":false,"is_disabled":false,"rental_uris":{"android":"levelo://app?vid=d312ce1d-aae9-4c62-a1e8-38c15d95735a","ios":"levelo://app?vid=d312ce1d-aae9-4c62-a1e8-38c15d95735a"},"vehicle_type_id":"4","last_reported":1740215308,"current_range_meters":11200,"station_id":"cpo3532slgdg3j2ikp40","pricing_plan_id":"cebpf4jnsgd1na2vs0mg"},{"bike_id":"3f51f82c-3b37-4a43-9c86-c97bbfa07d5c","system_id":"levelo_inurba_marseille","lat":43.29274,"lon":5.407727,"is_reserved":false,"is_disabled":false,"rental_uris":{"android":"levelo://app?vid=3f51f82c-3b37-4a43-9c86-c97bbfa07d5c","ios":"levelo://app?vid=3f51f82c-3b37-4a43-9c86-c97bbfa07d5c"},"vehicle_type_id":"4","last_reported":1740215308,"current_range_meters":11200,"station_id":"ce4bgjh2rcd13ifvqbf0","pricing_plan_id":"cebpf4jnsgd1na2vs0mg"},{"bike_id":"839d9e40-24db-46ac-85e9-dc54c7789861","system_id":"levelo_inurba_marseille","lat":43.2417,"lon":5.36411,"is_reserved":false,"is_disabled":false,"rental_uris":{"android":"levelo://app?vid=839d9e40-24db-46ac-85e9-dc54c7789861","ios":"levelo://app?vid=839d9e40-24db-46ac-85e9-dc54c7789861"},"vehicle_type_id":"4","last_reported":1740215308,"current_range_meters":11200,"station_id":"cpo36qri1sfpv3e86is0","pricing_plan_id":"cebpf4jnsgd1na2vs0mg"},{"bike_id":"6c2ab6e6-2d04-4225-b04d-1f709ec68055","system_id":"levelo_inurba_marseille","lat":43.22937,"lon":5.35398,"is_reserved":false,"is_disabled":false,"rental_uris":{"android":"levelo://app?vid=6c2ab6e6-2d04-4225-b04d-1f709ec68055","ios":"levelo://app?vid=6c2ab6e6-2d04-4225-b04d-1f709ec68055"},"vehicle_type_id":"4","last_reported":1740215308,"current_range_meters":11200,"station_id":"cpo3532slgdg3j2ikp40","pricing_plan_id":"cebpf4jnsgd1na2vs0mg"},{"bike_id":"e85daac6-507c-4ca1-a0ea-150e175ac0f7","system_id":"levelo_inurba_marseille","lat":43.304638,"lon":5.379093,"is_reserved":false,"is_disabled":false,"rental_uris":{"android":"levelo://app?vid=e85daac6-507c-4ca1-a0ea-150e175ac0f7","ios":"levelo://app?vid=e85daac6-507c-4ca1-a0ea-150e175ac0f7"},"vehicle_type_id":"4","last_reported":1740215308,"current_range_meters":14400,"station_id":"ce4bhb92rcd13ifvqen0","pricing_plan_id":"cebpf4jnsgd1na2vs0mg"},{"bike_id":"6eb643a3-c629-4ab7-b905-981e2e83f531","system_id":"levelo_inurba_marseille","lat":43.24644,"lon":5.38185,"is_reserved":false,"is_disabled":false,"rental_uris":{"android":"levelo://app?vid=6eb643a3-c629-4ab7-b905-981e2e83f531","ios":"levelo://app?vid=6eb643a3-c629-4ab7-b905-981e2e83f531"},"vehicle_type_id":"4","last_reported":1740215308,"current_range_meters":11200,"station_id":"ce4bhih2rcd13ifvqfr0","pricing_plan_id":"cebpf4jnsgd1na2vs0mg"},{"bike_id":"fd1bd7a7-5aaa-49a8-ade0-9f3ab3adc337","system_id":"levelo_inurba_marseille","lat":43.31199,"lon":5.38722,"is_reserved":false,"is_disabled":false,"rental_uris":{"android":"levelo://app?vid=fd1bd7a7-5aaa-49a8-ade0-9f3ab3adc337","ios":"levelo://app?vid=fd1bd7a7-5aaa-49a8-ade0-9f3ab3adc337"},"vehicle_type_id":"4","last_reported":1740215308,"current_range_meters":11600,"station_id":"ce4bgv12rcd13ifvqcp0","pricing_plan_id":"cebpf4jnsgd1na2vs0mg"},{"bike_id":"2cc51be8-3d37-4d75-afde-af294fd2823e","system_id":"levelo_inurba_marseille","lat":43.29846,"lon":5.36267,"is_reserved":false,"is_disabled":false,"rental_uris":{"android":"levelo://app?vid=2cc51be8-3d37-4d75-afde-af294fd2823e","ios":"levelo://app?vid=2cc51be8-3d37-4d75-afde-af294fd2823e"},"vehicle_type_id":"4","last_reported":1740215308,"current_range_meters":11600,"station_id":"ce4bgpp2rcd13ifvqc3g","pricing_plan_id":"cebpf4jnsgd1na2vs0mg"},{"bike_id":"6e274d9f-89d8-4a25-a4f3-c30449f9d08e","system_id":"levelo_inurba_marseille","lat":43.25706,"lon":5.41109,"is_reserved":false,"is_disabled":false,"rental_uris":{"android":"levelo://app?vid=6e274d9f-89d8-4a25-a4f3-c30449f9d08e","ios":"levelo://app?vid=6e274d9f-89d8-4a25-a4f3-c30449f9d08e"},"vehicle_type_id":"4","last_reported":1740215308,"current_range_meters":11600,"station_id":"ce4bhkp2rcd13ifvqgd0","pricing_plan_id":"cebpf4jnsgd1na2vs0mg"},{"bike_id":"49ea746d-9229-4750-9561-01538a72b0ed","system_id":"levelo_inurba_marseille","lat":43.27814,"lon":5.40753,"is_reserved":false,"is_disabled":false,"rental_uris":{"android":"levelo://app?vid=49ea746d-9229-4750-9561-01538a72b0ed","ios":"levelo://app?vid=49ea746d-9229-4750-9561-01538a72b0ed"},"vehicle_type_id":"4","last_reported":1740215308,"current_range_meters":11600,"station_id":"ce4bhnh2rcd13ifvqgtg","pricing_plan_id":"cebpf4jnsgd1na2vs0mg"},{"bike_id":"a843b7bf-825f-466d-b5d5-1b9b4d73dcf9","system_id":"levelo_inurba_marseille","lat":43.29386,"lon":5.38804,"is_reserved":false,"is_disabled":true,"rental_uris":{"android":"levelo://app?vid=a843b7bf-825f-466d-b5d5-1b9b4d73dcf9","ios":"levelo://app?vid=a843b7bf-825f-466d-b5d5-1b9b4d73dcf9"},"vehicle_type_id":"4","last_reported":1740215308,"current_range_meters":11600,"station_id":"","pricing_plan_id":"cebpf4jnsgd1na2vs0mg"},{"bike_id":"2e8b1b89-b249-4468-85cb-15bdcc0e862d","system_id":"levelo_inurba_marseille","lat":43.2845,"lon":5.35887,"is_reserved":false,"is_disabled":false,"rental_uris":{"android":"levelo://app?vid=2e8b1b89-b249-4468-85cb-15bdcc0e862d","ios":"levelo://app?vid=2e8b1b89-b249-4468-85cb-15bdcc0e862d"},"vehicle_type_id":"4","last_reported":1740215308,"current_range_meters":11600,"station_id":"ce4bhah2rcd13ifvqei0","pricing_plan_id":"cebpf4jnsgd1na2vs0mg"},{"bike_id":"e44046f0-9605-4164-9ff7-4db7f543e330","system_id":"levelo_inurba_marseille","lat":43.30595,"lon":5.3723,"is_reserved":false,"is_disabled":false,"rental_uris":{"android":"levelo://app?vid=e44046f0-9605-4164-9ff7-4db7f543e330","ios":"levelo://app?vid=e44046f0-9605-4164-9ff7-4db7f543e330"},"vehicle_type_id":"4","last_reported":1740215308,"current_range_meters":12000,"station_id":"ce4bgqh2rcd13ifvqc4g","pricing_plan_id":"cebpf4jnsgd1na2vs0mg"},{"bike_id":"3c232bab-88ac-4592-9031-c21395fd8a78","system_id":"levelo_inurba_marseille","lat":43.32363,"lon":5.36773,"is_reserved":false,"is_disabled":false,"rental_uris":{"android":"levelo://app?vid=3c232bab-88ac-4592-9031-c21395fd8a78","ios":"levelo://app?vid=3c232bab-88ac-4592-9031-c21395fd8a78"},"vehicle_type_id":"4","last_reported":1740215308,"current_range_meters":12000,"station_id":"ce4bhsh2rcd13ifvqi2g","pricing_plan_id":"cebpf4jnsgd1na2vs0mg"},{"bike_id":"121d0936-3fe7-48c3-a975-5bb2a8eefb30","system_id":"levelo_inurba_marseille","lat":43.24654,"lon":5.38907,"is_reserved":false,"is_disabled":false,"rental_uris":{"android":"levelo://app?vid=121d0936-3fe7-48c3-a975-5bb2a8eefb30","ios":"levelo://app?vid=121d0936-3fe7-48c3-a975-5bb2a8eefb30"},"vehicle_type_id":"4","last_reported":1740215308,"current_range_meters":8400,"station_id":"ce4bhg12rcd13ifvqf60","pricing_plan_id":"cebpf4jnsgd1na2vs0mg"},{"bike_id":"dff557ff-126c-48c2-9538-9412d8f07010","system_id":"levelo_inurba_marseille","lat":43.27918,"lon":5.39587,"is_reserved":false,"is_disabled":false,"rental_uris":{"android":"levelo://app?vid=dff557ff-126c-48c2-9538-9412d8f07010","ios":"levelo://app?vid=dff557ff-126c-48c2-9538-9412d8f07010"},"vehicle_type_id":"4","last_reported":1740215308,"current_range_meters":12000,"station_id":"ce4bhf92rcd13ifvqf40","pricing_plan_id":"cebpf4jnsgd1na2vs0mg"},{"bike_id":"f923546d-d5e0-4497-a063-c2baf4406689","system_id":"levelo_inurba_marseille","lat":43.26212,"lon":5.37443,"is_reserved":false,"is_disabled":false,"rental_uris":{"android":"levelo://app?vid=f923546d-d5e0-4497-a063-c2baf4406689","ios":"levelo://app?vid=f923546d-d5e0-4497-a063-c2baf4406689"},"vehicle_type_id":"4","last_reported":1740215308,"current_range_meters":12000,"station_id":"ce4bhgp2rcd13ifvqfc0","pricing_plan_id":"cebpf4jnsgd1na2vs0mg"},{"bike_id":"7dc8b618-940a-4283-9df6-66bfa3628712","system_id":"levelo_inurba_marseille","lat":43.24797,"lon":5.37461,"is_reserved":false,"is_disabled":false,"rental_uris":{"android":"levelo://app?vid=7dc8b618-940a-4283-9df6-66bfa3628712","ios":"levelo://app?vid=7dc8b618-940a-4283-9df6-66bfa3628712"},"vehicle_type_id":"4","last_reported":1740215308,"current_range_meters":12400,"station_id":"ce4bhgh2rcd13ifvqfb0","pricing_plan_id":"cebpf4jnsgd1na2vs0mg"},{"bike_id":"c89ff36b-749d-4e46-ace2-887e5be4aff5","system_id":"levelo_inurba_marseille","lat":43.28472,"lon":5.38417,"is_reserved":false,"is_disabled":false,"rental_uris":{"android":"levelo://app?vid=c89ff36b-749d-4e46-ace2-887e5be4aff5","ios":"levelo://app?vid=c89ff36b-749d-4e46-ace2-887e5be4aff5"},"vehicle_type_id":"4","last_reported":1740215308,"current_range_meters":12400,"station_id":"ce4bh512rcd13ifvqe3g","pricing_plan_id":"cebpf4jnsgd1na2vs0mg"},{"bike_id":"7b39cb64-7ff8-44dc-bd12-6fc670765abc","system_id":"levelo_inurba_marseille","lat":43.27808,"lon":5.40721,"is_reserved":false,"is_disabled":false,"rental_uris":{"android":"levelo://app?vid=7b39cb64-7ff8-44dc-bd12-6fc670765abc","ios":"levelo://app?vid=7b39cb64-7ff8-44dc-bd12-6fc670765abc"},"vehicle_type_id":"4","last_reported":1740215308,"current_range_meters":12400,"station_id":"ce4bhnh2rcd13ifvqgtg","pricing_plan_id":"cebpf4jnsgd1na2vs0mg"},{"bike_id":"7bd13ee2-e52b-43cb-a712-c66477f5a94f","system_id":"levelo_inurba_marseille","lat":43.28462,"lon":5.35894,"is_reserved":false,"is_disabled":false,"rental_uris":{"android":"levelo://app?vid=7bd13ee2-e52b-43cb-a712-c66477f5a94f","ios":"levelo://app?vid=7bd13ee2-e52b-43cb-a712-c66477f5a94f"},"vehicle_type_id":"4","last_reported":1740215308,"current_range_meters":12800,"station_id":"ce4bhah2rcd13ifvqei0","pricing_plan_id":"cebpf4jnsgd1na2vs0mg"},{"bike_id":"7c8f3d05-5401-4545-847e-9fcee9ea83d5","system_id":"levelo_inurba_marseille","lat":43.26578,"lon":5.39881,"is_reserved":false,"is_disabled":false,"rental_uris":{"android":"levelo://app?vid=7c8f3d05-5401-4545-847e-9fcee9ea83d5","ios":"levelo://app?vid=7c8f3d05-5401-4545-847e-9fcee9ea83d5"},"vehicle_type_id":"4","last_reported":1740215308,"current_range_meters":12800,"station_id":"","pricing_plan_id":"cebpf4jnsgd1na2vs0mg"},{"bike_id":"b720df93-ac31-493b-8e16-f9e266f23268","system_id":"levelo_inurba_marseille","lat":43.29266,"lon":5.40134,"is_reserved":false,"is_disabled":false,"rental_uris":{"android":"levelo://app?vid=b720df93-ac31-493b-8e16-f9e266f23268","ios":"levelo://app?vid=b720df93-ac31-493b-8e16-f9e266f23268"},"vehicle_type_id":"4","last_reported":1740215308,"current_range_meters":12800,"station_id":"ce4bh312rcd13ifvqdk0","pricing_plan_id":"cebpf4jnsgd1na2vs0mg"},{"bike_id":"e49c55a6-77f0-44e2-9a5a-3263ad7fc811","system_id":"levelo_inurba_marseille","lat":43.25072,"lon":5.39525,"is_reserved":false,"is_disabled":false,"rental_uris":{"android":"levelo://app?vid=e49c55a6-77f0-44e2-9a5a-3263ad7fc811","ios":"levelo://app?vid=e49c55a6-77f0-44e2-9a5a-3263ad7fc811"},"vehicle_type_id":"4","last_reported":1740215308,"current_range_meters":13600,"station_id":"ce4bhm12rcd13ifvqgkg","pricing_plan_id":"cebpf4jnsgd1na2vs0mg"},{"bike_id":"fc719a48-4f02-4ff0-a0b0-5867ff99caf1","system_id":"levelo_inurba_marseille","lat":43.30397,"lon":5.41288,"is_reserved":false,"is_disabled":false,"rental_uris":{"android":"levelo://app?vid=fc719a48-4f02-4ff0-a0b0-5867ff99caf1","ios":"levelo://app?vid=fc719a48-4f02-4ff0-a0b0-5867ff99caf1"},"vehicle_type_id":"4","last_reported":1740215308,"current_range_meters":13600,"station_id":"ce4bhop2rcd13ifvqh8g","pricing_plan_id":"cebpf4jnsgd1na2vs0mg"},{"bike_id":"35803d2e-8a90-49e0-ac0d-de00d2e1cf00","system_id":"levelo_inurba_marseille","lat":43.28419,"lon":5.37522,"is_reserved":false,"is_disabled":false,"rental_uris":{"android":"levelo://app?vid=35803d2e-8a90-49e0-ac0d-de00d2e1cf00","ios":"levelo://app?vid=35803d2e-8a90-49e0-ac0d-de00d2e1cf00"},"vehicle_type_id":"4","last_reported":1740215308,"current_range_meters":13600,"station_id":"ce4bh412rcd13ifvqds0","pricing_plan_id":"cebpf4jnsgd1na2vs0mg"},{"bike_id":"1951b280-e8ac-4fa5-a3ef-806580107c2a","system_id":"levelo_inurba_marseille","lat":43.28156,"lon":5.4265,"is_reserved":false,"is_disabled":false,"rental_uris":{"android":"levelo://app?vid=1951b280-e8ac-4fa5-a3ef-806580107c2a","ios":"levelo://app?vid=1951b280-e8ac-4fa5-a3ef-806580107c2a"},"vehicle_type_id":"4","last_reported":1740215308,"current_range_meters":14000,"station_id":"ce4bhnh2rcd13ifvqgug","pricing_plan_id":"cebpf4jnsgd1na2vs0mg"},{"bike_id":"519c0d90-c598-4074-9c80-d5e1565ff705","system_id":"levelo_inurba_marseille","lat":43.23059,"lon":5.35507,"is_reserved":false,"is_disabled":false,"rental_uris":{"android":"levelo://app?vid=519c0d90-c598-4074-9c80-d5e1565ff705","ios":"levelo://app?vid=519c0d90-c598-4074-9c80-d5e1565ff705"},"vehicle_type_id":"4","last_reported":1740215308,"current_range_meters":14000,"station_id":"cpo3342slgdg3j2ifvpg","pricing_plan_id":"cebpf4jnsgd1na2vs0mg"},{"bike_id":"aa6b079d-ac76-4c64-aa3c-29b3f6dad2e1","system_id":"levelo_inurba_marseille","lat":43.28151,"lon":5.42645,"is_reserved":false,"is_disabled":false,"rental_uris":{"android":"levelo://app?vid=aa6b079d-ac76-4c64-aa3c-29b3f6dad2e1","ios":"levelo://app?vid=aa6b079d-ac76-4c64-aa3c-29b3f6dad2e1"},"vehicle_type_id":"4","last_reported":1740215308,"current_range_meters":14000,"station_id":"ce4bhnh2rcd13ifvqgug","pricing_plan_id":"cebpf4jnsgd1na2vs0mg"},{"bike_id":"0b35ef10-1d1d-4e8a-949e-c3122c5e3874","system_id":"levelo_inurba_marseille","lat":43.23956,"lon":5.36635,"is_reserved":false,"is_disabled":false,"rental_uris":{"android":"levelo://app?vid=0b35ef10-1d1d-4e8a-949e-c3122c5e3874","ios":"levelo://app?vid=0b35ef10-1d1d-4e8a-949e-c3122c5e3874"},"vehicle_type_id":"4","last_reported":1740215308,"current_range_meters":14000,"station_id":"ce4bhi12rcd13ifvqfp0","pricing_plan_id":"cebpf4jnsgd1na2vs0mg"},{"bike_id":"0c383ce5-56f4-475d-a51d-5eb362fcd4f5","system_id":"levelo_inurba_marseille","lat":43.28719,"lon":5.39981,"is_reserved":false,"is_disabled":false,"rental_uris":{"android":"levelo://app?vid=0c383ce5-56f4-475d-a51d-5eb362fcd4f5","ios":"levelo://app?vid=0c383ce5-56f4-475d-a51d-5eb362fcd4f5"},"vehicle_type_id":"4","last_reported":1740215308,"current_range_meters":14000,"station_id":"ce4bho92rcd13ifvqh3g","pricing_plan_id":"cebpf4jnsgd1na2vs0mg"},{"bike_id":"716e600f-c60b-4910-8e11-fe27400df68d","system_id":"levelo_inurba_marseille","lat":43.32663,"lon":5.41005,"is_reserved":false,"is_disabled":false,"rental_uris":{"android":"levelo://app?vid=716e600f-c60b-4910-8e11-fe27400df68d","ios":"levelo://app?vid=716e600f-c60b-4910-8e11-fe27400df68d"},"vehicle_type_id":"4","last_reported":1740215308,"current_range_meters":14400,"station_id":"ce4bhpp2rcd13ifvqhgg","pricing_plan_id":"cebpf4jnsgd1na2vs0mg"},{"bike_id":"7013810f-ce4c-4eae-bd58-6441f8f0d513","system_id":"levelo_inurba_marseille","lat":43.29569,"lon":5.3754,"is_reserved":false,"is_disabled":false,"rental_uris":{"android":"levelo://app?vid=7013810f-ce4c-4eae-bd58-6441f8f0d513","ios":"levelo://app?vid=7013810f-ce4c-4eae-bd58-6441f8f0d513"},"vehicle_type_id":"4","last_reported":1740215308,"current_range_meters":14400,"station_id":"ce4bgh92rcd13ifvqb50","pricing_plan_id":"cebpf4jnsgd1na2vs0mg"},{"bike_id":"f2583835-6391-492f-adcd-0276b5ac89b1","system_id":"levelo_inurba_marseille","lat":43.25663,"lon":5.41234,"is_reserved":false,"is_disabled":true,"rental_uris":{"android":"levelo://app?vid=f2583835-6391-492f-adcd-0276b5ac89b1","ios":"levelo://app?vid=f2583835-6391-492f-adcd-0276b5ac89b1"},"vehicle_type_id":"4","last_reported":1740215308,"current_range_meters":14400,"station_id":"ce4bhkp2rcd13ifvqgd0","pricing_plan_id":"cebpf4jnsgd1na2vs0mg"},{"bike_id":"e985c6df-42dc-42f6-9942-2accd57dfefa","system_id":"levelo_inurba_marseille","lat":43.27055,"lon":5.40269,"is_reserved":false,"is_disabled":false,"rental_uris":{"android":"levelo://app?vid=e985c6df-42dc-42f6-9942-2accd57dfefa","ios":"levelo://app?vid=e985c6df-42dc-42f6-9942-2accd57dfefa"},"vehicle_type_id":"4","last_reported":1740215308,"current_range_meters":14400,"station_id":"ce4bhk92rcd13ifvqgc0","pricing_plan_id":"cebpf4jnsgd1na2vs0mg"},{"bike_id":"c3896a30-7e6f-46fe-84c6-384c663a7369","system_id":"levelo_inurba_marseille","lat":43.31751,"lon":5.39022,"is_reserved":false,"is_disabled":false,"rental_uris":{"android":"levelo://app?vid=c3896a30-7e6f-46fe-84c6-384c663a7369","ios":"levelo://app?vid=c3896a30-7e6f-46fe-84c6-384c663a7369"},"vehicle_type_id":"4","last_reported":1740215308,"current_range_meters":12400,"station_id":"ce4bhqp2rcd13ifvqhng","pricing_plan_id":"cebpf4jnsgd1na2vs0mg"},{"bike_id":"f791cc57-454f-4dc8-b04e-bd1a5a453684","system_id":"levelo_inurba_marseille","lat":43.29586,"lon":5.37735,"is_reserved":false,"is_disabled":false,"rental_uris":{"android":"levelo://app?vid=f791cc57-454f-4dc8-b04e-bd1a5a453684","ios":"levelo://app?vid=f791cc57-454f-4dc8-b04e-bd1a5a453684"},"vehicle_type_id":"4","last_reported":1740215308,"current_range_meters":14400,"station_id":"ce4bgi92rcd13ifvqb90","pricing_plan_id":"cebpf4jnsgd1na2vs0mg"},{"bike_id":"1b0d6542-f74d-4dd5-b78b-1cd1115ff80b","system_id":"levelo_inurba_marseille","lat":43.306,"lon":5.37399,"is_reserved":false,"is_disabled":false,"rental_uris":{"android":"levelo://app?vid=1b0d6542-f74d-4dd5-b78b-1cd1115ff80b","ios":"levelo://app?vid=1b0d6542-f74d-4dd5-b78b-1cd1115ff80b"},"vehicle_type_id":"4","last_reported":1740215308,"current_range_meters":15200,"station_id":"","pricing_plan_id":"cebpf4jnsgd1na2vs0mg"},{"bike_id":"05f2bea0-a8b7-4ebb-b4a5-de83bfe8e8e8","system_id":"levelo_inurba_marseille","lat":43.30916,"lon":5.37458,"is_reserved":false,"is_disabled":false,"rental_uris":{"android":"levelo://app?vid=05f2bea0-a8b7-4ebb-b4a5-de83bfe8e8e8","ios":"levelo://app?vid=05f2bea0-a8b7-4ebb-b4a5-de83bfe8e8e8"},"vehicle_type_id":"4","last_reported":1740215308,"current_range_meters":14800,"station_id":"","pricing_plan_id":"cebpf4jnsgd1na2vs0mg"},{"bike_id":"06b5b92e-20c2-4581-8ccf-06307578ea44","system_id":"levelo_inurba_marseille","lat":43.27176,"lon":5.40997,"is_reserved":false,"is_disabled":false,"rental_uris":{"android":"levelo://app?vid=06b5b92e-20c2-4581-8ccf-06307578ea44","ios":"levelo://app?vid=06b5b92e-20c2-4581-8ccf-06307578ea44"},"vehicle_type_id":"4","last_reported":1740215308,"current_range_meters":14800,"station_id":"ce4bhl12rcd13ifvqgf0","pricing_plan_id":"cebpf4jnsgd1na2vs0mg"},{"bike_id":"d88699b9-7a50-415c-9cdb-a35fdc00ed80","system_id":"levelo_inurba_marseille","lat":43.29934,"lon":5.37193,"is_reserved":false,"is_disabled":false,"rental_uris":{"android":"levelo://app?vid=d88699b9-7a50-415c-9cdb-a35fdc00ed80","ios":"levelo://app?vid=d88699b9-7a50-415c-9cdb-a35fdc00ed80"},"vehicle_type_id":"4","last_reported":1740215308,"current_range_meters":14800,"station_id":"","pricing_plan_id":"cebpf4jnsgd1na2vs0mg"},{"bike_id":"1b5b87c8-f96f-4740-8b60-bcc62c6e3f59","system_id":"levelo_inurba_marseille","lat":43.314,"lon":5.38497,"is_reserved":false,"is_disabled":false,"rental_uris":{"android":"levelo://app?vid=1b5b87c8-f96f-4740-8b60-bcc62c6e3f59","ios":"levelo://app?vid=1b5b87c8-f96f-4740-8b60-bcc62c6e3f59"},"vehicle_type_id":"4","last_reported":1740215308,"current_range_meters":14800,"station_id":"ce4bgt92rcd13ifvqcf0","pricing_plan_id":"cebpf4jnsgd1na2vs0mg"},{"bike_id":"dc1fce77-a765-4398-991f-f895da3f81f0","system_id":"levelo_inurba_marseille","lat":43.31111,"lon":5.37763,"is_reserved":false,"is_disabled":false,"rental_uris":{"android":"levelo://app?vid=dc1fce77-a765-4398-991f-f895da3f81f0","ios":"levelo://app?vid=dc1fce77-a765-4398-991f-f895da3f81f0"},"vehicle_type_id":"4","last_reported":1740215308,"current_range_meters":15200,"station_id":"ce4bgt92rcd13ifvqcg0","pricing_plan_id":"cebpf4jnsgd1na2vs0mg"},{"bike_id":"4ee54b30-0375-428e-a33b-33a3efc37389","system_id":"levelo_inurba_marseille","lat":43.28155,"lon":5.42646,"is_reserved":false,"is_disabled":false,"rental_uris":{"android":"levelo://app?vid=4ee54b30-0375-428e-a33b-33a3efc37389","ios":"levelo://app?vid=4ee54b30-0375-428e-a33b-33a3efc37389"},"vehicle_type_id":"4","last_reported":1740215308,"current_range_meters":15200,"station_id":"ce4bhnh2rcd13ifvqgug","pricing_plan_id":"cebpf4jnsgd1na2vs0mg"},{"bike_id":"ecb792ba-e590-4d62-97cc-1e9b429064df","system_id":"levelo_inurba_marseille","lat":43.25015,"lon":5.38923,"is_reserved":false,"is_disabled":false,"rental_uris":{"android":"levelo://app?vid=ecb792ba-e590-4d62-97cc-1e9b429064df","ios":"levelo://app?vid=ecb792ba-e590-4d62-97cc-1e9b429064df"},"vehicle_type_id":"4","last_reported":1740215308,"current_range_meters":15200,"station_id":"ce4bhgp2rcd13ifvqfd0","pricing_plan_id":"cebpf4jnsgd1na2vs0mg"},{"bike_id":"9742006c-9001-4a3d-bf27-357c96fc534b","system_id":"levelo_inurba_marseille","lat":43.29212,"lon":5.40142,"is_reserved":false,"is_disabled":true,"rental_uris":{"android":"levelo://app?vid=9742006c-9001-4a3d-bf27-357c96fc534b","ios":"levelo://app?vid=9742006c-9001-4a3d-bf27-357c96fc534b"},"vehicle_type_id":"4","last_reported":1740215308,"current_range_meters":15200,"station_id":"ce4bh312rcd13ifvqdk0","pricing_plan_id":"cebpf4jnsgd1na2vs0mg"},{"bike_id":"005e5eb8-39b1-40fe-bf10-36f6bd3cba88","system_id":"levelo_inurba_marseille","lat":43.28369,"lon":5.38655,"is_reserved":false,"is_disabled":false,"rental_uris":{"android":"levelo://app?vid=005e5eb8-39b1-40fe-bf10-36f6bd3cba88","ios":"levelo://app?vid=005e5eb8-39b1-40fe-bf10-36f6bd3cba88"},"vehicle_type_id":"4","last_reported":1740215308,"current_range_meters":15200,"station_id":"ce4bh492rcd13ifvqdvg","pricing_plan_id":"cebpf4jnsgd1na2vs0mg"},{"bike_id":"dab960d9-1ede-46dd-ade3-a5360c9021cf","system_id":"levelo_inurba_marseille","lat":43.23195,"lon":5.35547,"is_reserved":false,"is_disabled":false,"rental_uris":{"android":"levelo://app?vid=dab960d9-1ede-46dd-ade3-a5360c9021cf","ios":"levelo://app?vid=dab960d9-1ede-46dd-ade3-a5360c9021cf"},"vehicle_type_id":"4","last_reported":1740215308,"current_range_meters":15200,"station_id":"ce4bhu92rcd13ifvqi70","pricing_plan_id":"cebpf4jnsgd1na2vs0mg"},{"bike_id":"cdb3fdc5-664f-4eb2-939d-0ba06a471ffa","system_id":"levelo_inurba_marseille","lat":43.28426,"lon":5.375083,"is_reserved":false,"is_disabled":true,"rental_uris":{"android":"levelo://app?vid=cdb3fdc5-664f-4eb2-939d-0ba06a471ffa","ios":"levelo://app?vid=cdb3fdc5-664f-4eb2-939d-0ba06a471ffa"},"vehicle_type_id":"4","last_reported":1740215308,"current_range_meters":15200,"station_id":"ce4bh412rcd13ifvqds0","pricing_plan_id":"cebpf4jnsgd1na2vs0mg"},{"bike_id":"7b3cabe1-5c29-42e3-875a-0ef9e45b503e","system_id":"levelo_inurba_marseille","lat":43.2925,"lon":5.40914,"is_reserved":false,"is_disabled":false,"rental_uris":{"android":"levelo://app?vid=7b3cabe1-5c29-42e3-875a-0ef9e45b503e","ios":"levelo://app?vid=7b3cabe1-5c29-42e3-875a-0ef9e45b503e"},"vehicle_type_id":"4","last_reported":1740215308,"current_range_meters":15200,"station_id":"ce4bh192rcd13ifvqdc0","pricing_plan_id":"cebpf4jnsgd1na2vs0mg"},{"bike_id":"97dd1c22-94e5-4412-8c4d-542c05b3044a","system_id":"levelo_inurba_marseille","lat":43.29517,"lon":5.37523,"is_reserved":false,"is_disabled":false,"rental_uris":{"android":"levelo://app?vid=97dd1c22-94e5-4412-8c4d-542c05b3044a","ios":"levelo://app?vid=97dd1c22-94e5-4412-8c4d-542c05b3044a"},"vehicle_type_id":"4","last_reported":1740215308,"current_range_meters":15200,"station_id":"ce4bgkp2rcd13ifvqbmg","pricing_plan_id":"cebpf4jnsgd1na2vs0mg"},{"bike_id":"c47f3d98-2abe-4c97-9c9c-e2ee8dd37b49","system_id":"levelo_inurba_marseille","lat":43.25562,"lon":5.38234,"is_reserved":false,"is_disabled":false,"rental_uris":{"android":"levelo://app?vid=c47f3d98-2abe-4c97-9c9c-e2ee8dd37b49","ios":"levelo://app?vid=c47f3d98-2abe-4c97-9c9c-e2ee8dd37b49"},"vehicle_type_id":"4","last_reported":1740215308,"current_range_meters":15200,"station_id":"ce4bhih2rcd13ifvqfs0","pricing_plan_id":"cebpf4jnsgd1na2vs0mg"},{"bike_id":"1f7411cd-9379-4bab-a8bc-411b928d8602","system_id":"levelo_inurba_marseille","lat":43.27488,"lon":5.42471,"is_reserved":false,"is_disabled":false,"rental_uris":{"android":"levelo://app?vid=1f7411cd-9379-4bab-a8bc-411b928d8602","ios":"levelo://app?vid=1f7411cd-9379-4bab-a8bc-411b928d8602"},"vehicle_type_id":"4","last_reported":1740215308,"current_range_meters":16000,"station_id":"ce4bhn92rcd13ifvqgrg","pricing_plan_id":"cebpf4jnsgd1na2vs0mg"},{"bike_id":"591257fb-0080-4772-a25c-61e50faac221","system_id":"levelo_inurba_marseille","lat":43.26552,"lon":5.37289,"is_reserved":false,"is_disabled":false,"rental_uris":{"android":"levelo://app?vid=591257fb-0080-4772-a25c-61e50faac221","ios":"levelo://app?vid=591257fb-0080-4772-a25c-61e50faac221"},"vehicle_type_id":"4","last_reported":1740215308,"current_range_meters":16000,"station_id":"ce4bhg12rcd13ifvqf70","pricing_plan_id":"cebpf4jnsgd1na2vs0mg"},{"bike_id":"ab8e4fa1-a748-4b68-9f46-2fdc2afb052f","system_id":"levelo_inurba_marseille","lat":43.258,"lon":5.39416,"is_reserved":false,"is_disabled":false,"rental_uris":{"android":"levelo://app?vid=ab8e4fa1-a748-4b68-9f46-2fdc2afb052f","ios":"levelo://app?vid=ab8e4fa1-a748-4b68-9f46-2fdc2afb052f"},"vehicle_type_id":"4","last_reported":1740215308,"current_range_meters":16000,"station_id":"ce4bhip2rcd13ifvqft0","pricing_plan_id":"cebpf4jnsgd1na2vs0mg"},{"bike_id":"b4e88379-ec3e-4e46-8238-b00e53730d99","system_id":"levelo_inurba_marseille","lat":43.2827,"lon":5.3507,"is_reserved":false,"is_disabled":false,"rental_uris":{"android":"levelo://app?vid=b4e88379-ec3e-4e46-8238-b00e53730d99","ios":"levelo://app?vid=b4e88379-ec3e-4e46-8238-b00e53730d99"},"vehicle_type_id":"4","last_reported":1740215308,"current_range_meters":16000,"station_id":"ce4bhbp2rcd13ifvqerg","pricing_plan_id":"cebpf4jnsgd1na2vs0mg"},{"bike_id":"8b52c24a-60e9-4f95-8f6d-a404db75239c","system_id":"levelo_inurba_marseille","lat":43.2738,"lon":5.3625,"is_reserved":false,"is_disabled":true,"rental_uris":{"android":"levelo://app?vid=8b52c24a-60e9-4f95-8f6d-a404db75239c","ios":"levelo://app?vid=8b52c24a-60e9-4f95-8f6d-a404db75239c"},"vehicle_type_id":"4","last_reported":1740215308,"current_range_meters":16000,"station_id":"ce4bhbh2rcd13ifvqeo0","pricing_plan_id":"cebpf4jnsgd1na2vs0mg"},{"bike_id":"d5566d2e-78e8-488f-b3e7-c9c338cd491f","system_id":"levelo_inurba_marseille","lat":43.27493,"lon":5.42457,"is_reserved":false,"is_disabled":true,"rental_uris":{"android":"levelo://app?vid=d5566d2e-78e8-488f-b3e7-c9c338cd491f","ios":"levelo://app?vid=d5566d2e-78e8-488f-b3e7-c9c338cd491f"},"vehicle_type_id":"4","last_reported":1740215308,"current_range_meters":16000,"station_id":"ce4bhn92rcd13ifvqgrg","pricing_plan_id":"cebpf4jnsgd1na2vs0mg"},{"bike_id":"12ffda0a-87e5-4f79-b284-3416cf7a96d4","system_id":"levelo_inurba_marseille","lat":43.25875,"lon":5.39907,"is_reserved":false,"is_disabled":false,"rental_uris":{"android":"levelo://app?vid=12ffda0a-87e5-4f79-b284-3416cf7a96d4","ios":"levelo://app?vid=12ffda0a-87e5-4f79-b284-3416cf7a96d4"},"vehicle_type_id":"4","last_reported":1740215308,"current_range_meters":16000,"station_id":"ce4bhl92rcd13ifvqghg","pricing_plan_id":"cebpf4jnsgd1na2vs0mg"},{"bike_id":"55635c29-c892-45fd-a603-fe2abf11fb43","system_id":"levelo_inurba_marseille","lat":43.27617,"lon":5.36113,"is_reserved":false,"is_disabled":false,"rental_uris":{"android":"levelo://app?vid=55635c29-c892-45fd-a603-fe2abf11fb43","ios":"levelo://app?vid=55635c29-c892-45fd-a603-fe2abf11fb43"},"vehicle_type_id":"4","last_reported":1740215308,"current_range_meters":16000,"station_id":"ce4bgj92rcd13ifvqbe0","pricing_plan_id":"cebpf4jnsgd1na2vs0mg"},{"bike_id":"a6076d25-d844-412a-85fb-dcdd847e5197","system_id":"levelo_inurba_marseille","lat":43.29251,"lon":5.40924,"is_reserved":false,"is_disabled":false,"rental_uris":{"android":"levelo://app?vid=a6076d25-d844-412a-85fb-dcdd847e5197","ios":"levelo://app?vid=a6076d25-d844-412a-85fb-dcdd847e5197"},"vehicle_type_id":"4","last_reported":1740215308,"current_range_meters":16000,"station_id":"ce4bh192rcd13ifvqdc0","pricing_plan_id":"cebpf4jnsgd1na2vs0mg"},{"bike_id":"bc558735-2479-4391-a735-df6e67205a24","system_id":"levelo_inurba_marseille","lat":43.25108,"lon":5.40325,"is_reserved":false,"is_disabled":false,"rental_uris":{"android":"levelo://app?vid=bc558735-2479-4391-a735-df6e67205a24","ios":"levelo://app?vid=bc558735-2479-4391-a735-df6e67205a24"},"vehicle_type_id":"4","last_reported":1740215308,"current_range_meters":16000,"station_id":"ce4bhlh2rcd13ifvqgig","pricing_plan_id":"cebpf4jnsgd1na2vs0mg"},{"bike_id":"3b50d86c-2115-4dfa-a0ef-b70b70d2f2c0","system_id":"levelo_inurba_marseille","lat":43.27931,"lon":5.41061,"is_reserved":false,"is_disabled":false,"rental_uris":{"android":"levelo://app?vid=3b50d86c-2115-4dfa-a0ef-b70b70d2f2c0","ios":"levelo://app?vid=3b50d86c-2115-4dfa-a0ef-b70b70d2f2c0"},"vehicle_type_id":"4","last_reported":1740215308,"current_range_meters":16000,"station_id":"ce4bhnp2rcd13ifvqh0g","pricing_plan_id":"cebpf4jnsgd1na2vs0mg"},{"bike_id":"e396f565-544f-4dea-a1de-828f6b41343c","system_id":"levelo_inurba_marseille","lat":43.28153,"lon":5.42654,"is_reserved":false,"is_disabled":false,"rental_uris":{"android":"levelo://app?vid=e396f565-544f-4dea-a1de-828f6b41343c","ios":"levelo://app?vid=e396f565-544f-4dea-a1de-828f6b41343c"},"vehicle_type_id":"4","last_reported":1740215308,"current_range_meters":16000,"station_id":"ce4bhnh2rcd13ifvqgug","pricing_plan_id":"cebpf4jnsgd1na2vs0mg"},{"bike_id":"96b9f7c0-cd3c-40d1-bc41-8a82bed04cc8","system_id":"levelo_inurba_marseille","lat":43.29263,"lon":5.36851,"is_reserved":false,"is_disabled":false,"rental_uris":{"android":"levelo://app?vid=96b9f7c0-cd3c-40d1-bc41-8a82bed04cc8","ios":"levelo://app?vid=96b9f7c0-cd3c-40d1-bc41-8a82bed04cc8"},"vehicle_type_id":"4","last_reported":1740215308,"current_range_meters":16000,"station_id":"ce4bhbp2rcd13ifvqesg","pricing_plan_id":"cebpf4jnsgd1na2vs0mg"},{"bike_id":"cb9cef3e-b444-4f14-bfe8-4893a8e4e617","system_id":"levelo_inurba_marseille","lat":43.25581,"lon":5.38228,"is_reserved":false,"is_disabled":false,"rental_uris":{"android":"levelo://app?vid=cb9cef3e-b444-4f14-bfe8-4893a8e4e617","ios":"levelo://app?vid=cb9cef3e-b444-4f14-bfe8-4893a8e4e617"},"vehicle_type_id":"4","last_reported":1740215308,"current_range_meters":16400,"station_id":"ce4bhih2rcd13ifvqfs0","pricing_plan_id":"cebpf4jnsgd1na2vs0mg"},{"bike_id":"ffb2be4e-d5d6-4276-846d-a64b0c45ef0e","system_id":"levelo_inurba_marseille","lat":43.30256,"lon":5.40086,"is_reserved":false,"is_disabled":false,"rental_uris":{"android":"levelo://app?vid=ffb2be4e-d5d6-4276-846d-a64b0c45ef0e","ios":"levelo://app?vid=ffb2be4e-d5d6-4276-846d-a64b0c45ef0e"},"vehicle_type_id":"4","last_reported":1740215308,"current_range_meters":16400,"station_id":"ce4bgvh2rcd13ifvqcs0","pricing_plan_id":"cebpf4jnsgd1na2vs0mg"},{"bike_id":"d6b9680f-5c1a-447c-b4c6-3950a2717262","system_id":"levelo_inurba_marseille","lat":43.29003,"lon":5.356,"is_reserved":false,"is_disabled":false,"rental_uris":{"android":"levelo://app?vid=d6b9680f-5c1a-447c-b4c6-3950a2717262","ios":"levelo://app?vid=d6b9680f-5c1a-447c-b4c6-3950a2717262"},"vehicle_type_id":"4","last_reported":1740215308,"current_range_meters":14000,"station_id":"ce4bhb92rcd13ifvqen0","pricing_plan_id":"cebpf4jnsgd1na2vs0mg"},{"bike_id":"6171c7fc-2f00-4981-afb4-d8d6db9c37a7","system_id":"levelo_inurba_marseille","lat":43.30811,"lon":5.38126,"is_reserved":false,"is_disabled":true,"rental_uris":{"android":"levelo://app?vid=6171c7fc-2f00-4981-afb4-d8d6db9c37a7","ios":"levelo://app?vid=6171c7fc-2f00-4981-afb4-d8d6db9c37a7"},"vehicle_type_id":"4","last_reported":1740215308,"current_range_meters":16400,"station_id":"ce4bgt12rcd13ifvqce0","pricing_plan_id":"cebpf4jnsgd1na2vs0mg"},{"bike_id":"417001bc-e8ee-4b24-9108-f07a293bf8c3","system_id":"levelo_inurba_marseille","lat":43.2973,"lon":5.37689,"is_reserved":false,"is_disabled":false,"rental_uris":{"android":"levelo://app?vid=417001bc-e8ee-4b24-9108-f07a293bf8c3","ios":"levelo://app?vid=417001bc-e8ee-4b24-9108-f07a293bf8c3"},"vehicle_type_id":"4","last_reported":1740215308,"current_range_meters":16000,"station_id":"","pricing_plan_id":"cebpf4jnsgd1na2vs0mg"},{"bike_id":"8ae434c3-c941-4fb7-a68e-77ad594543d8","system_id":"levelo_inurba_marseille","lat":43.29572,"lon":5.42248,"is_reserved":false,"is_disabled":false,"rental_uris":{"android":"levelo://app?vid=8ae434c3-c941-4fb7-a68e-77ad594543d8","ios":"levelo://app?vid=8ae434c3-c941-4fb7-a68e-77ad594543d8"},"vehicle_type_id":"4","last_reported":1740215308,"current_range_meters":16400,"station_id":"ce4bhph2rcd13ifvqhdg","pricing_plan_id":"cebpf4jnsgd1na2vs0mg"},{"bike_id":"f75b7c43-b1e9-419b-9e88-97af31d30220","system_id":"levelo_inurba_marseille","lat":43.23954,"lon":5.3665,"is_reserved":false,"is_disabled":false,"rental_uris":{"android":"levelo://app?vid=f75b7c43-b1e9-419b-9e88-97af31d30220","ios":"levelo://app?vid=f75b7c43-b1e9-419b-9e88-97af31d30220"},"vehicle_type_id":"4","last_reported":1740215308,"current_range_meters":16400,"station_id":"ce4bhi12rcd13ifvqfp0","pricing_plan_id":"cebpf4jnsgd1na2vs0mg"},{"bike_id":"a14d7680-12ec-480a-b003-5bf94384c4c1","system_id":"levelo_inurba_marseille","lat":43.29198,"lon":5.39327,"is_reserved":false,"is_disabled":false,"rental_uris":{"android":"levelo://app?vid=a14d7680-12ec-480a-b003-5bf94384c4c1","ios":"levelo://app?vid=a14d7680-12ec-480a-b003-5bf94384c4c1"},"vehicle_type_id":"4","last_reported":1740215308,"current_range_meters":16400,"station_id":"ce4bh192rcd13ifvqdd0","pricing_plan_id":"cebpf4jnsgd1na2vs0mg"},{"bike_id":"893db85a-5a83-4269-9ee6-e9d9e2059e92","system_id":"levelo_inurba_marseille","lat":43.29558,"lon":5.37509,"is_reserved":false,"is_disabled":false,"rental_uris":{"android":"levelo://app?vid=893db85a-5a83-4269-9ee6-e9d9e2059e92","ios":"levelo://app?vid=893db85a-5a83-4269-9ee6-e9d9e2059e92"},"vehicle_type_id":"4","last_reported":1740215308,"current_range_meters":16400,"station_id":"ce4bgh92rcd13ifvqb50","pricing_plan_id":"cebpf4jnsgd1na2vs0mg"},{"bike_id":"458572a4-668e-4ab7-b8df-d8d6bc37cf5a","system_id":"levelo_inurba_marseille","lat":43.3041,"lon":5.41286,"is_reserved":false,"is_disabled":false,"rental_uris":{"android":"levelo://app?vid=458572a4-668e-4ab7-b8df-d8d6bc37cf5a","ios":"levelo://app?vid=458572a4-668e-4ab7-b8df-d8d6bc37cf5a"},"vehicle_type_id":"4","last_reported":1740215308,"current_range_meters":16400,"station_id":"ce4bhop2rcd13ifvqh8g","pricing_plan_id":"cebpf4jnsgd1na2vs0mg"},{"bike_id":"eed7bf5c-180e-4885-a945-301ac2bfacbd","system_id":"levelo_inurba_marseille","lat":43.30023,"lon":5.40119,"is_reserved":false,"is_disabled":false,"rental_uris":{"android":"levelo://app?vid=eed7bf5c-180e-4885-a945-301ac2bfacbd","ios":"levelo://app?vid=eed7bf5c-180e-4885-a945-301ac2bfacbd"},"vehicle_type_id":"4","last_reported":1740215308,"current_range_meters":16400,"station_id":"","pricing_plan_id":"cebpf4jnsgd1na2vs0mg"},{"bike_id":"a022cf82-e42b-417a-9710-af495905efea","system_id":"levelo_inurba_marseille","lat":43.28616,"lon":5.35108,"is_reserved":false,"is_disabled":false,"rental_uris":{"android":"levelo://app?vid=a022cf82-e42b-417a-9710-af495905efea","ios":"levelo://app?vid=a022cf82-e42b-417a-9710-af495905efea"},"vehicle_type_id":"4","last_reported":1740215308,"current_range_meters":16400,"station_id":"ce4bhch2rcd13ifvqeug","pricing_plan_id":"cebpf4jnsgd1na2vs0mg"},{"bike_id":"8e403f8a-b998-4fb1-bb90-54bf70e024a5","system_id":"levelo_inurba_marseille","lat":43.26935,"lon":5.389166,"is_reserved":false,"is_disabled":false,"rental_uris":{"android":"levelo://app?vid=8e403f8a-b998-4fb1-bb90-54bf70e024a5","ios":"levelo://app?vid=8e403f8a-b998-4fb1-bb90-54bf70e024a5"},"vehicle_type_id":"4","last_reported":1740215308,"current_range_meters":16400,"station_id":"ce4bhhh2rcd13ifvqfl0","pricing_plan_id":"cebpf4jnsgd1na2vs0mg"},{"bike_id":"f5298310-14cd-4aed-bc3f-841e7d37dcf5","system_id":"levelo_inurba_marseille","lat":43.32648,"lon":5.40973,"is_reserved":false,"is_disabled":true,"rental_uris":{"android":"levelo://app?vid=f5298310-14cd-4aed-bc3f-841e7d37dcf5","ios":"levelo://app?vid=f5298310-14cd-4aed-bc3f-841e7d37dcf5"},"vehicle_type_id":"4","last_reported":1740215308,"current_range_meters":16400,"station_id":"ce4bhpp2rcd13ifvqhgg","pricing_plan_id":"cebpf4jnsgd1na2vs0mg"},{"bike_id":"aa2bc768-7edc-4fb5-bf43-d53dd5fac575","system_id":"levelo_inurba_marseille","lat":43.301475,"lon":5.381095,"is_reserved":false,"is_disabled":false,"rental_uris":{"android":"levelo://app?vid=aa2bc768-7edc-4fb5-bf43-d53dd5fac575","ios":"levelo://app?vid=aa2bc768-7edc-4fb5-bf43-d53dd5fac575"},"vehicle_type_id":"4","last_reported":1740215308,"current_range_meters":16800,"station_id":"ce4bgjp2rcd13ifvqbh0","pricing_plan_id":"cebpf4jnsgd1na2vs0mg"},{"bike_id":"b46e2cd9-9583-48ce-9fd8-e84487554328","system_id":"levelo_inurba_marseille","lat":43.25115,"lon":5.40334,"is_reserved":false,"is_disabled":false,"rental_uris":{"android":"levelo://app?vid=b46e2cd9-9583-48ce-9fd8-e84487554328","ios":"levelo://app?vid=b46e2cd9-9583-48ce-9fd8-e84487554328"},"vehicle_type_id":"4","last_reported":1740215308,"current_range_meters":16800,"station_id":"ce4bhlh2rcd13ifvqgig","pricing_plan_id":"cebpf4jnsgd1na2vs0mg"},{"bike_id":"3fd2a98c-7939-498c-8625-9658300a849b","system_id":"levelo_inurba_marseille","lat":43.259217,"lon":5.408967,"is_reserved":false,"is_disabled":false,"rental_uris":{"android":"levelo://app?vid=3fd2a98c-7939-498c-8625-9658300a849b","ios":"levelo://app?vid=3fd2a98c-7939-498c-8625-9658300a849b"},"vehicle_type_id":"4","last_reported":1740215308,"current_range_meters":16800,"station_id":"ce4bhm92rcd13ifvqglg","pricing_plan_id":"cebpf4jnsgd1na2vs0mg"},{"bike_id":"0c33f1f1-9de2-4635-88dd-5b3b6f2bb3a3","system_id":"levelo_inurba_marseille","lat":43.3016,"lon":5.38103,"is_reserved":false,"is_disabled":false,"rental_uris":{"android":"levelo://app?vid=0c33f1f1-9de2-4635-88dd-5b3b6f2bb3a3","ios":"levelo://app?vid=0c33f1f1-9de2-4635-88dd-5b3b6f2bb3a3"},"vehicle_type_id":"4","last_reported":1740215308,"current_range_meters":16800,"station_id":"ce4bgjp2rcd13ifvqbh0","pricing_plan_id":"cebpf4jnsgd1na2vs0mg"},{"bike_id":"d78c3eb3-43db-4da7-8790-587f01a5aedf","system_id":"levelo_inurba_marseille","lat":43.30215,"lon":5.39462,"is_reserved":false,"is_disabled":false,"rental_uris":{"android":"levelo://app?vid=d78c3eb3-43db-4da7-8790-587f01a5aedf","ios":"levelo://app?vid=d78c3eb3-43db-4da7-8790-587f01a5aedf"},"vehicle_type_id":"4","last_reported":1740215308,"current_range_meters":16800,"station_id":"ce4bh0p2rcd13ifvqd70","pricing_plan_id":"cebpf4jnsgd1na2vs0mg"},{"bike_id":"acc99c3d-8988-4213-85e7-762cbe3c231d","system_id":"levelo_inurba_marseille","lat":43.241693,"lon":5.3971,"is_reserved":false,"is_disabled":false,"rental_uris":{"android":"levelo://app?vid=acc99c3d-8988-4213-85e7-762cbe3c231d","ios":"levelo://app?vid=acc99c3d-8988-4213-85e7-762cbe3c231d"},"vehicle_type_id":"4","last_reported":1740215308,"current_range_meters":17200,"station_id":"ce4bhn12rcd13ifvqgpg","pricing_plan_id":"cebpf4jnsgd1na2vs0mg"},{"bike_id":"105ea8ad-0d16-4875-9fde-e085311250f4","system_id":"levelo_inurba_marseille","lat":43.23182,"lon":5.35574,"is_reserved":false,"is_disabled":false,"rental_uris":{"android":"levelo://app?vid=105ea8ad-0d16-4875-9fde-e085311250f4","ios":"levelo://app?vid=105ea8ad-0d16-4875-9fde-e085311250f4"},"vehicle_type_id":"4","last_reported":1740215308,"current_range_meters":17200,"station_id":"ce4bhu92rcd13ifvqi70","pricing_plan_id":"cebpf4jnsgd1na2vs0mg"},{"bike_id":"7b961df5-02b9-46f2-8b82-2d839f71e419","system_id":"levelo_inurba_marseille","lat":43.25867,"lon":5.39905,"is_reserved":false,"is_disabled":false,"rental_uris":{"android":"levelo://app?vid=7b961df5-02b9-46f2-8b82-2d839f71e419","ios":"levelo://app?vid=7b961df5-02b9-46f2-8b82-2d839f71e419"},"vehicle_type_id":"4","last_reported":1740215308,"current_range_meters":17200,"station_id":"ce4bhl92rcd13ifvqghg","pricing_plan_id":"cebpf4jnsgd1na2vs0mg"},{"bike_id":"955f0554-f1a7-425e-adb6-8b24dc2896c4","system_id":"levelo_inurba_marseille","lat":43.28454,"lon":5.35891,"is_reserved":false,"is_disabled":false,"rental_uris":{"android":"levelo://app?vid=955f0554-f1a7-425e-adb6-8b24dc2896c4","ios":"levelo://app?vid=955f0554-f1a7-425e-adb6-8b24dc2896c4"},"vehicle_type_id":"4","last_reported":1740215308,"current_range_meters":17200,"station_id":"ce4bhah2rcd13ifvqei0","pricing_plan_id":"cebpf4jnsgd1na2vs0mg"},{"bike_id":"e86e9def-85c3-4d1b-8c66-4511177d388c","system_id":"levelo_inurba_marseille","lat":43.28533,"lon":5.39518,"is_reserved":false,"is_disabled":false,"rental_uris":{"android":"levelo://app?vid=e86e9def-85c3-4d1b-8c66-4511177d388c","ios":"levelo://app?vid=e86e9def-85c3-4d1b-8c66-4511177d388c"},"vehicle_type_id":"4","last_reported":1740215308,"current_range_meters":17200,"station_id":"ce4bh292rcd13ifvqdg0","pricing_plan_id":"cebpf4jnsgd1na2vs0mg"},{"bike_id":"103f77c9-589f-480a-9173-ecd3e24a0282","system_id":"levelo_inurba_marseille","lat":43.26951,"lon":5.38638,"is_reserved":false,"is_disabled":false,"rental_uris":{"android":"levelo://app?vid=103f77c9-589f-480a-9173-ecd3e24a0282","ios":"levelo://app?vid=103f77c9-589f-480a-9173-ecd3e24a0282"},"vehicle_type_id":"4","last_reported":1740215308,"current_range_meters":17600,"station_id":"ce4bhh92rcd13ifvqfh0","pricing_plan_id":"cebpf4jnsgd1na2vs0mg"},{"bike_id":"fa3aa5a5-4e00-466e-8b65-149b2e48f46f","system_id":"levelo_inurba_marseille","lat":43.30245,"lon":5.40081,"is_reserved":false,"is_disabled":false,"rental_uris":{"android":"levelo://app?vid=fa3aa5a5-4e00-466e-8b65-149b2e48f46f","ios":"levelo://app?vid=fa3aa5a5-4e00-466e-8b65-149b2e48f46f"},"vehicle_type_id":"4","last_reported":1740215308,"current_range_meters":17600,"station_id":"ce4bgvh2rcd13ifvqcs0","pricing_plan_id":"cebpf4jnsgd1na2vs0mg"},{"bike_id":"fcb4de08-c373-4c5d-a0d2-88032e74db12","system_id":"levelo_inurba_marseille","lat":43.2586,"lon":5.39908,"is_reserved":false,"is_disabled":true,"rental_uris":{"android":"levelo://app?vid=fcb4de08-c373-4c5d-a0d2-88032e74db12","ios":"levelo://app?vid=fcb4de08-c373-4c5d-a0d2-88032e74db12"},"vehicle_type_id":"4","last_reported":1740215308,"current_range_meters":17600,"station_id":"ce4bhl92rcd13ifvqghg","pricing_plan_id":"cebpf4jnsgd1na2vs0mg"},{"bike_id":"6bafa852-1f3a-493f-8842-1c0a87e6341d","system_id":"levelo_inurba_marseille","lat":43.29618,"lon":5.377,"is_reserved":false,"is_disabled":true,"rental_uris":{"android":"levelo://app?vid=6bafa852-1f3a-493f-8842-1c0a87e6341d","ios":"levelo://app?vid=6bafa852-1f3a-493f-8842-1c0a87e6341d"},"vehicle_type_id":"4","last_reported":1740215308,"current_range_meters":17600,"station_id":"ce4bgi92rcd13ifvqb90","pricing_plan_id":"cebpf4jnsgd1na2vs0mg"},{"bike_id":"4fdae7c3-1683-4b26-ac1e-1da99f66d1cd","system_id":"levelo_inurba_marseille","lat":43.28616,"lon":5.35103,"is_reserved":false,"is_disabled":false,"rental_uris":{"android":"levelo://app?vid=4fdae7c3-1683-4b26-ac1e-1da99f66d1cd","ios":"levelo://app?vid=4fdae7c3-1683-4b26-ac1e-1da99f66d1cd"},"vehicle_type_id":"4","last_reported":1740215308,"current_range_meters":18000,"station_id":"ce4bhch2rcd13ifvqeug","pricing_plan_id":"cebpf4jnsgd1na2vs0mg"},{"bike_id":"33cc0fcb-f6e1-44bc-9328-d3f75a5791c5","system_id":"levelo_inurba_marseille","lat":43.23194,"lon":5.35559,"is_reserved":false,"is_disabled":false,"rental_uris":{"android":"levelo://app?vid=33cc0fcb-f6e1-44bc-9328-d3f75a5791c5","ios":"levelo://app?vid=33cc0fcb-f6e1-44bc-9328-d3f75a5791c5"},"vehicle_type_id":"4","last_reported":1740215308,"current_range_meters":18000,"station_id":"ce4bhu92rcd13ifvqi70","pricing_plan_id":"cebpf4jnsgd1na2vs0mg"},{"bike_id":"a0edf93a-4860-4f88-948b-32eb1c069e5f","system_id":"levelo_inurba_marseille","lat":43.26327,"lon":5.37409,"is_reserved":false,"is_disabled":false,"rental_uris":{"android":"levelo://app?vid=a0edf93a-4860-4f88-948b-32eb1c069e5f","ios":"levelo://app?vid=a0edf93a-4860-4f88-948b-32eb1c069e5f"},"vehicle_type_id":"4","last_reported":1740215308,"current_range_meters":18000,"station_id":"","pricing_plan_id":"cebpf4jnsgd1na2vs0mg"},{"bike_id":"9d38af36-2ef5-42fb-90cd-b9e130ca21db","system_id":"levelo_inurba_marseille","lat":43.2987,"lon":5.38925,"is_reserved":false,"is_disabled":true,"rental_uris":{"android":"levelo://app?vid=9d38af36-2ef5-42fb-90cd-b9e130ca21db","ios":"levelo://app?vid=9d38af36-2ef5-42fb-90cd-b9e130ca21db"},"vehicle_type_id":"4","last_reported":1740215308,"current_range_meters":18000,"station_id":"ce4bh392rcd13ifvqdl0","pricing_plan_id":"cebpf4jnsgd1na2vs0mg"},{"bike_id":"24678d82-a715-4225-b832-38e00357adde","system_id":"levelo_inurba_marseille","lat":43.28548,"lon":5.39494,"is_reserved":false,"is_disabled":false,"rental_uris":{"android":"levelo://app?vid=24678d82-a715-4225-b832-38e00357adde","ios":"levelo://app?vid=24678d82-a715-4225-b832-38e00357adde"},"vehicle_type_id":"4","last_reported":1740215308,"current_range_meters":18000,"station_id":"ce4bh292rcd13ifvqdg0","pricing_plan_id":"cebpf4jnsgd1na2vs0mg"},{"bike_id":"391e0c53-9654-4a1e-9b05-ddcac99fdaa4","system_id":"levelo_inurba_marseille","lat":43.2901,"lon":5.356153,"is_reserved":false,"is_disabled":false,"rental_uris":{"android":"levelo://app?vid=391e0c53-9654-4a1e-9b05-ddcac99fdaa4","ios":"levelo://app?vid=391e0c53-9654-4a1e-9b05-ddcac99fdaa4"},"vehicle_type_id":"4","last_reported":1740215308,"current_range_meters":18800,"station_id":"ce4bhb92rcd13ifvqen0","pricing_plan_id":"cebpf4jnsgd1na2vs0mg"},{"bike_id":"ed7c343c-6498-402d-861b-81331e00b496","system_id":"levelo_inurba_marseille","lat":43.30308,"lon":5.369,"is_reserved":false,"is_disabled":false,"rental_uris":{"android":"levelo://app?vid=ed7c343c-6498-402d-861b-81331e00b496","ios":"levelo://app?vid=ed7c343c-6498-402d-861b-81331e00b496"},"vehicle_type_id":"4","last_reported":1740215308,"current_range_meters":18800,"station_id":"ce4bgqh2rcd13ifvqc5g","pricing_plan_id":"cebpf4jnsgd1na2vs0mg"},{"bike_id":"9a17c0ed-1b08-4636-9e9f-60f8ee1ef12c","system_id":"levelo_inurba_marseille","lat":43.337444,"lon":5.374475,"is_reserved":false,"is_disabled":false,"rental_uris":{"android":"levelo://app?vid=9a17c0ed-1b08-4636-9e9f-60f8ee1ef12c","ios":"levelo://app?vid=9a17c0ed-1b08-4636-9e9f-60f8ee1ef12c"},"vehicle_type_id":"4","last_reported":1740215308,"current_range_meters":18800,"station_id":"","pricing_plan_id":"cebpf4jnsgd1na2vs0mg"},{"bike_id":"c333be8c-1fa1-4379-b0e3-8e4618c72055","system_id":"levelo_inurba_marseille","lat":43.33024,"lon":5.39056,"is_reserved":false,"is_disabled":false,"rental_uris":{"android":"levelo://app?vid=c333be8c-1fa1-4379-b0e3-8e4618c72055","ios":"levelo://app?vid=c333be8c-1fa1-4379-b0e3-8e4618c72055"},"vehicle_type_id":"4","last_reported":1740215308,"current_range_meters":18000,"station_id":"ce4bhr92rcd13ifvqhrg","pricing_plan_id":"cebpf4jnsgd1na2vs0mg"},{"bike_id":"2b5bd5b0-9c76-44c4-b7c6-e5a46b44435a","system_id":"levelo_inurba_marseille","lat":43.24394,"lon":5.37062,"is_reserved":false,"is_disabled":false,"rental_uris":{"android":"levelo://app?vid=2b5bd5b0-9c76-44c4-b7c6-e5a46b44435a","ios":"levelo://app?vid=2b5bd5b0-9c76-44c4-b7c6-e5a46b44435a"},"vehicle_type_id":"4","last_reported":1740215308,"current_range_meters":19200,"station_id":"ce4bhhh2rcd13ifvqfk0","pricing_plan_id":"cebpf4jnsgd1na2vs0mg"},{"bike_id":"175addb6-f267-4c2f-bfd4-21ebed05a455","system_id":"levelo_inurba_marseille","lat":43.28696,"lon":5.39988,"is_reserved":false,"is_disabled":false,"rental_uris":{"android":"levelo://app?vid=175addb6-f267-4c2f-bfd4-21ebed05a455","ios":"levelo://app?vid=175addb6-f267-4c2f-bfd4-21ebed05a455"},"vehicle_type_id":"4","last_reported":1740215308,"current_range_meters":19200,"station_id":"ce4bho92rcd13ifvqh3g","pricing_plan_id":"cebpf4jnsgd1na2vs0mg"},{"bike_id":"e636832d-d31d-492b-9bcd-b899a106503d","system_id":"levelo_inurba_marseille","lat":43.2417,"lon":5.3639,"is_reserved":false,"is_disabled":false,"rental_uris":{"android":"levelo://app?vid=e636832d-d31d-492b-9bcd-b899a106503d","ios":"levelo://app?vid=e636832d-d31d-492b-9bcd-b899a106503d"},"vehicle_type_id":"4","last_reported":1740215308,"current_range_meters":19200,"station_id":"cpo36qri1sfpv3e86is0","pricing_plan_id":"cebpf4jnsgd1na2vs0mg"},{"bike_id":"e9881abb-8c73-43fb-958c-c9a14669644d","system_id":"levelo_inurba_marseille","lat":43.26954,"lon":5.40305,"is_reserved":false,"is_disabled":false,"rental_uris":{"android":"levelo://app?vid=e9881abb-8c73-43fb-958c-c9a14669644d","ios":"levelo://app?vid=e9881abb-8c73-43fb-958c-c9a14669644d"},"vehicle_type_id":"4","last_reported":1740215308,"current_range_meters":19200,"station_id":"cjm6bp8fraef2m0cb0m0","pricing_plan_id":"cebpf4jnsgd1na2vs0mg"},{"bike_id":"7d4b257a-c60d-48e8-85d7-7dc3f985241e","system_id":"levelo_inurba_marseille","lat":43.29629,"lon":5.38562,"is_reserved":false,"is_disabled":false,"rental_uris":{"android":"levelo://app?vid=7d4b257a-c60d-48e8-85d7-7dc3f985241e","ios":"levelo://app?vid=7d4b257a-c60d-48e8-85d7-7dc3f985241e"},"vehicle_type_id":"4","last_reported":1740215308,"current_range_meters":19200,"station_id":"","pricing_plan_id":"cebpf4jnsgd1na2vs0mg"},{"bike_id":"46c81966-b3eb-4627-a59b-15444573451a","system_id":"levelo_inurba_marseille","lat":43.29187,"lon":5.35808,"is_reserved":false,"is_disabled":false,"rental_uris":{"android":"levelo://app?vid=46c81966-b3eb-4627-a59b-15444573451a","ios":"levelo://app?vid=46c81966-b3eb-4627-a59b-15444573451a"},"vehicle_type_id":"4","last_reported":1740215308,"current_range_meters":19200,"station_id":"ce4bhb12rcd13ifvqel0","pricing_plan_id":"cebpf4jnsgd1na2vs0mg"},{"bike_id":"32da43d9-ea34-4c3f-b898-ac07b9ef29da","system_id":"levelo_inurba_marseille","lat":43.29051,"lon":5.40022,"is_reserved":false,"is_disabled":false,"rental_uris":{"android":"levelo://app?vid=32da43d9-ea34-4c3f-b898-ac07b9ef29da","ios":"levelo://app?vid=32da43d9-ea34-4c3f-b898-ac07b9ef29da"},"vehicle_type_id":"4","last_reported":1740215308,"current_range_meters":19200,"station_id":"ce4bh392rcd13ifvqdm0","pricing_plan_id":"cebpf4jnsgd1na2vs0mg"},{"bike_id":"63393adb-05ed-41f1-a7aa-f07af875bc1d","system_id":"levelo_inurba_marseille","lat":43.28402,"lon":5.37513,"is_reserved":false,"is_disabled":false,"rental_uris":{"android":"levelo://app?vid=63393adb-05ed-41f1-a7aa-f07af875bc1d","ios":"levelo://app?vid=63393adb-05ed-41f1-a7aa-f07af875bc1d"},"vehicle_type_id":"4","last_reported":1740215308,"current_range_meters":19200,"station_id":"ce4bh412rcd13ifvqds0","pricing_plan_id":"cebpf4jnsgd1na2vs0mg"},{"bike_id":"b95cceb0-2581-46ca-8d22-ae800dfede9f","system_id":"levelo_inurba_marseille","lat":43.28159,"lon":5.42641,"is_reserved":false,"is_disabled":false,"rental_uris":{"android":"levelo://app?vid=b95cceb0-2581-46ca-8d22-ae800dfede9f","ios":"levelo://app?vid=b95cceb0-2581-46ca-8d22-ae800dfede9f"},"vehicle_type_id":"4","last_reported":1740215308,"current_range_meters":19200,"station_id":"ce4bhnh2rcd13ifvqgug","pricing_plan_id":"cebpf4jnsgd1na2vs0mg"},{"bike_id":"7a407485-2440-49c8-8e14-d0beb8679c21","system_id":"levelo_inurba_marseille","lat":43.28734,"lon":5.37921,"is_reserved":false,"is_disabled":false,"rental_uris":{"android":"levelo://app?vid=7a407485-2440-49c8-8e14-d0beb8679c21","ios":"levelo://app?vid=7a407485-2440-49c8-8e14-d0beb8679c21"},"vehicle_type_id":"4","last_reported":1740215308,"current_range_meters":17600,"station_id":"ce4bh9p2rcd13ifvqec0","pricing_plan_id":"cebpf4jnsgd1na2vs0mg"},{"bike_id":"d7a8ccad-412e-45ee-a34b-c87bdc449d3b","system_id":"levelo_inurba_marseille","lat":43.26946,"lon":5.38639,"is_reserved":false,"is_disabled":false,"rental_uris":{"android":"levelo://app?vid=d7a8ccad-412e-45ee-a34b-c87bdc449d3b","ios":"levelo://app?vid=d7a8ccad-412e-45ee-a34b-c87bdc449d3b"},"vehicle_type_id":"4","last_reported":1740215308,"current_range_meters":19600,"station_id":"ce4bhh92rcd13ifvqfh0","pricing_plan_id":"cebpf4jnsgd1na2vs0mg"},{"bike_id":"247a66e5-d316-4043-b5ae-428490805f60","system_id":"levelo_inurba_marseille","lat":43.26527,"lon":5.3906,"is_reserved":false,"is_disabled":false,"rental_uris":{"android":"levelo://app?vid=247a66e5-d316-4043-b5ae-428490805f60","ios":"levelo://app?vid=247a66e5-d316-4043-b5ae-428490805f60"},"vehicle_type_id":"4","last_reported":1740215308,"current_range_meters":19600,"station_id":"ce4bhe12rcd13ifvqf30","pricing_plan_id":"cebpf4jnsgd1na2vs0mg"},{"bike_id":"4325c892-de91-485e-b034-c91f7794be12","system_id":"levelo_inurba_marseille","lat":43.28428,"lon":5.37504,"is_reserved":false,"is_disabled":false,"rental_uris":{"android":"levelo://app?vid=4325c892-de91-485e-b034-c91f7794be12","ios":"levelo://app?vid=4325c892-de91-485e-b034-c91f7794be12"},"vehicle_type_id":"4","last_reported":1740215308,"current_range_meters":19600,"station_id":"ce4bh412rcd13ifvqds0","pricing_plan_id":"cebpf4jnsgd1na2vs0mg"},{"bike_id":"c4a3f5dd-b8d8-4d73-8a8f-ea8b0e26e290","system_id":"levelo_inurba_marseille","lat":43.29976,"lon":5.41317,"is_reserved":false,"is_disabled":false,"rental_uris":{"android":"levelo://app?vid=c4a3f5dd-b8d8-4d73-8a8f-ea8b0e26e290","ios":"levelo://app?vid=c4a3f5dd-b8d8-4d73-8a8f-ea8b0e26e290"},"vehicle_type_id":"4","last_reported":1740215308,"current_range_meters":19600,"station_id":"ce4bhp12rcd13ifvqh9g","pricing_plan_id":"cebpf4jnsgd1na2vs0mg"},{"bike_id":"b70b0e90-8357-459c-affe-2f638df0ce3d","system_id":"levelo_inurba_marseille","lat":43.2615,"lon":5.40553,"is_reserved":false,"is_disabled":true,"rental_uris":{"android":"levelo://app?vid=b70b0e90-8357-459c-affe-2f638df0ce3d","ios":"levelo://app?vid=b70b0e90-8357-459c-affe-2f638df0ce3d"},"vehicle_type_id":"4","last_reported":1740215308,"current_range_meters":19600,"station_id":"ce4bhmh2rcd13ifvqgmg","pricing_plan_id":"cebpf4jnsgd1na2vs0mg"},{"bike_id":"1720b3f4-1795-4773-8c89-8c50ac5a7ef5","system_id":"levelo_inurba_marseille","lat":43.30273,"lon":5.3673,"is_reserved":false,"is_disabled":false,"rental_uris":{"android":"levelo://app?vid=1720b3f4-1795-4773-8c89-8c50ac5a7ef5","ios":"levelo://app?vid=1720b3f4-1795-4773-8c89-8c50ac5a7ef5"},"vehicle_type_id":"4","last_reported":1740215308,"current_range_meters":19600,"station_id":"","pricing_plan_id":"cebpf4jnsgd1na2vs0mg"},{"bike_id":"77a275cf-5297-4cbd-91d8-eb49bf537e98","system_id":"levelo_inurba_marseille","lat":43.28606,"lon":5.37072,"is_reserved":false,"is_disabled":false,"rental_uris":{"android":"levelo://app?vid=77a275cf-5297-4cbd-91d8-eb49bf537e98","ios":"levelo://app?vid=77a275cf-5297-4cbd-91d8-eb49bf537e98"},"vehicle_type_id":"4","last_reported":1740215308,"current_range_meters":19600,"station_id":"ce4bht12rcd13ifvqi60","pricing_plan_id":"cebpf4jnsgd1na2vs0mg"},{"bike_id":"9faf844a-413f-419f-bdea-64830f7f2bfb","system_id":"levelo_inurba_marseille","lat":43.29871,"lon":5.37923,"is_reserved":false,"is_disabled":false,"rental_uris":{"android":"levelo://app?vid=9faf844a-413f-419f-bdea-64830f7f2bfb","ios":"levelo://app?vid=9faf844a-413f-419f-bdea-64830f7f2bfb"},"vehicle_type_id":"4","last_reported":1740215308,"current_range_meters":20000,"station_id":"","pricing_plan_id":"cebpf4jnsgd1na2vs0mg"},{"bike_id":"c454fed1-3565-4aba-9dd4-d8b8f49bf4df","system_id":"levelo_inurba_marseille","lat":43.27207,"lon":5.39185,"is_reserved":false,"is_disabled":false,"rental_uris":{"android":"levelo://app?vid=c454fed1-3565-4aba-9dd4-d8b8f49bf4df","ios":"levelo://app?vid=c454fed1-3565-4aba-9dd4-d8b8f49bf4df"},"vehicle_type_id":"4","last_reported":1740215308,"current_range_meters":20000,"station_id":"ce4bhhp2rcd13ifvqfm0","pricing_plan_id":"cebpf4jnsgd1na2vs0mg"},{"bike_id":"67cf67a4-68de-44c5-84ae-4f3d53137af1","system_id":"levelo_inurba_marseille","lat":43.30925,"lon":5.40145,"is_reserved":false,"is_disabled":false,"rental_uris":{"android":"levelo://app?vid=67cf67a4-68de-44c5-84ae-4f3d53137af1","ios":"levelo://app?vid=67cf67a4-68de-44c5-84ae-4f3d53137af1"},"vehicle_type_id":"4","last_reported":1740215308,"current_range_meters":20400,"station_id":"ce4bgvp2rcd13ifvqct0","pricing_plan_id":"cebpf4jnsgd1na2vs0mg"},{"bike_id":"ca0df41b-ebb5-47c9-a6be-bfdcc28260e4","system_id":"levelo_inurba_marseille","lat":43.28356,"lon":5.41761,"is_reserved":false,"is_disabled":true,"rental_uris":{"android":"levelo://app?vid=ca0df41b-ebb5-47c9-a6be-bfdcc28260e4","ios":"levelo://app?vid=ca0df41b-ebb5-47c9-a6be-bfdcc28260e4"},"vehicle_type_id":"4","last_reported":1740215308,"current_range_meters":20000,"station_id":"","pricing_plan_id":"cebpf4jnsgd1na2vs0mg"},{"bike_id":"98996ac5-018c-4ce9-a75d-1962425ad1c9","system_id":"levelo_inurba_marseille","lat":43.29234,"lon":5.40916,"is_reserved":false,"is_disabled":false,"rental_uris":{"android":"levelo://app?vid=98996ac5-018c-4ce9-a75d-1962425ad1c9","ios":"levelo://app?vid=98996ac5-018c-4ce9-a75d-1962425ad1c9"},"vehicle_type_id":"4","last_reported":1740215308,"current_range_meters":20000,"station_id":"ce4bh192rcd13ifvqdc0","pricing_plan_id":"cebpf4jnsgd1na2vs0mg"},{"bike_id":"80e30e07-59ff-4807-b06b-c6dc1a9e08e2","system_id":"levelo_inurba_marseille","lat":43.33598,"lon":5.41029,"is_reserved":false,"is_disabled":true,"rental_uris":{"android":"levelo://app?vid=80e30e07-59ff-4807-b06b-c6dc1a9e08e2","ios":"levelo://app?vid=80e30e07-59ff-4807-b06b-c6dc1a9e08e2"},"vehicle_type_id":"4","last_reported":1740215308,"current_range_meters":20400,"station_id":"ce4bhqh2rcd13ifvqhmg","pricing_plan_id":"cebpf4jnsgd1na2vs0mg"},{"bike_id":"ed7e86a6-c0f3-4b5a-aacb-4bcb9e29c918","system_id":"levelo_inurba_marseille","lat":43.3118,"lon":5.38713,"is_reserved":false,"is_disabled":true,"rental_uris":{"android":"levelo://app?vid=ed7e86a6-c0f3-4b5a-aacb-4bcb9e29c918","ios":"levelo://app?vid=ed7e86a6-c0f3-4b5a-aacb-4bcb9e29c918"},"vehicle_type_id":"4","last_reported":1740215308,"current_range_meters":20400,"station_id":"ce4bgv12rcd13ifvqcp0","pricing_plan_id":"cebpf4jnsgd1na2vs0mg"},{"bike_id":"9eea044a-f68f-4639-8f02-71bf2c84bd7e","system_id":"levelo_inurba_marseille","lat":43.29772,"lon":5.38942,"is_reserved":false,"is_disabled":true,"rental_uris":{"android":"levelo://app?vid=9eea044a-f68f-4639-8f02-71bf2c84bd7e","ios":"levelo://app?vid=9eea044a-f68f-4639-8f02-71bf2c84bd7e"},"vehicle_type_id":"4","last_reported":1740215308,"current_range_meters":20400,"station_id":"","pricing_plan_id":"cebpf4jnsgd1na2vs0mg"},{"bike_id":"f51a2336-2473-4c0d-a88d-8135c546be24","system_id":"levelo_inurba_marseille","lat":43.29188,"lon":5.39301,"is_reserved":false,"is_disabled":false,"rental_uris":{"android":"levelo://app?vid=f51a2336-2473-4c0d-a88d-8135c546be24","ios":"levelo://app?vid=f51a2336-2473-4c0d-a88d-8135c546be24"},"vehicle_type_id":"4","last_reported":1740215308,"current_range_meters":20800,"station_id":"ce4bh192rcd13ifvqdd0","pricing_plan_id":"cebpf4jnsgd1na2vs0mg"},{"bike_id":"ebd9fe44-86f3-42b1-abac-5e6005a4d501","system_id":"levelo_inurba_marseille","lat":43.31039,"lon":5.38362,"is_reserved":false,"is_disabled":false,"rental_uris":{"android":"levelo://app?vid=ebd9fe44-86f3-42b1-abac-5e6005a4d501","ios":"levelo://app?vid=ebd9fe44-86f3-42b1-abac-5e6005a4d501"},"vehicle_type_id":"4","last_reported":1740215308,"current_range_meters":20800,"station_id":"","pricing_plan_id":"cebpf4jnsgd1na2vs0mg"},{"bike_id":"8d5ef5c3-fcfa-413f-8cbf-48958d222a66","system_id":"levelo_inurba_marseille","lat":43.24381,"lon":5.37066,"is_reserved":false,"is_disabled":false,"rental_uris":{"android":"levelo://app?vid=8d5ef5c3-fcfa-413f-8cbf-48958d222a66","ios":"levelo://app?vid=8d5ef5c3-fcfa-413f-8cbf-48958d222a66"},"vehicle_type_id":"4","last_reported":1740215308,"current_range_meters":20800,"station_id":"ce4bhhh2rcd13ifvqfk0","pricing_plan_id":"cebpf4jnsgd1na2vs0mg"},{"bike_id":"eb354cf3-daf0-4f07-9e6f-1eb2682396af","system_id":"levelo_inurba_marseille","lat":43.28014,"lon":5.4003,"is_reserved":false,"is_disabled":false,"rental_uris":{"android":"levelo://app?vid=eb354cf3-daf0-4f07-9e6f-1eb2682396af","ios":"levelo://app?vid=eb354cf3-daf0-4f07-9e6f-1eb2682396af"},"vehicle_type_id":"4","last_reported":1740215308,"current_range_meters":20800,"station_id":"ce4bho92rcd13ifvqh4g","pricing_plan_id":"cebpf4jnsgd1na2vs0mg"},{"bike_id":"8840f590-6f9c-4be0-b0fb-9e54827eebe2","system_id":"levelo_inurba_marseille","lat":43.30121,"lon":5.39884,"is_reserved":false,"is_disabled":false,"rental_uris":{"android":"levelo://app?vid=8840f590-6f9c-4be0-b0fb-9e54827eebe2","ios":"levelo://app?vid=8840f590-6f9c-4be0-b0fb-9e54827eebe2"},"vehicle_type_id":"4","last_reported":1740215308,"current_range_meters":21600,"station_id":"ce4bh0h2rcd13ifvqd40","pricing_plan_id":"cebpf4jnsgd1na2vs0mg"},{"bike_id":"008eb46f-46d8-48c9-9b87-a0efe9bf8bcc","system_id":"levelo_inurba_marseille","lat":43.30875,"lon":5.37195,"is_reserved":false,"is_disabled":false,"rental_uris":{"android":"levelo://app?vid=008eb46f-46d8-48c9-9b87-a0efe9bf8bcc","ios":"levelo://app?vid=008eb46f-46d8-48c9-9b87-a0efe9bf8bcc"},"vehicle_type_id":"4","last_reported":1740215308,"current_range_meters":21600,"station_id":"ce4bguh2rcd13ifvqckg","pricing_plan_id":"cebpf4jnsgd1na2vs0mg"},{"bike_id":"c6968cb3-cc46-4fea-99dc-3661c5e1ca5e","system_id":"levelo_inurba_marseille","lat":43.23754,"lon":5.36428,"is_reserved":false,"is_disabled":true,"rental_uris":{"android":"levelo://app?vid=c6968cb3-cc46-4fea-99dc-3661c5e1ca5e","ios":"levelo://app?vid=c6968cb3-cc46-4fea-99dc-3661c5e1ca5e"},"vehicle_type_id":"4","last_reported":1740215308,"current_range_meters":21600,"station_id":"","pricing_plan_id":"cebpf4jnsgd1na2vs0mg"},{"bike_id":"c912131a-0f47-4003-b0be-9f8cf15bf894","system_id":"levelo_inurba_marseille","lat":43.26185,"lon":5.37916,"is_reserved":false,"is_disabled":true,"rental_uris":{"android":"levelo://app?vid=c912131a-0f47-4003-b0be-9f8cf15bf894","ios":"levelo://app?vid=c912131a-0f47-4003-b0be-9f8cf15bf894"},"vehicle_type_id":"4","last_reported":1740215308,"current_range_meters":21600,"station_id":"ce4bhjp2rcd13ifvqg90","pricing_plan_id":"cebpf4jnsgd1na2vs0mg"},{"bike_id":"7edad6f1-bb02-4747-8467-5494540e990b","system_id":"levelo_inurba_marseille","lat":43.25018,"lon":5.38915,"is_reserved":false,"is_disabled":false,"rental_uris":{"android":"levelo://app?vid=7edad6f1-bb02-4747-8467-5494540e990b","ios":"levelo://app?vid=7edad6f1-bb02-4747-8467-5494540e990b"},"vehicle_type_id":"4","last_reported":1740215308,"current_range_meters":21600,"station_id":"ce4bhgp2rcd13ifvqfd0","pricing_plan_id":"cebpf4jnsgd1na2vs0mg"},{"bike_id":"9f66b5af-45a1-4940-a3d3-a3e1551dc477","system_id":"levelo_inurba_marseille","lat":43.28727,"lon":5.39984,"is_reserved":false,"is_disabled":false,"rental_uris":{"android":"levelo://app?vid=9f66b5af-45a1-4940-a3d3-a3e1551dc477","ios":"levelo://app?vid=9f66b5af-45a1-4940-a3d3-a3e1551dc477"},"vehicle_type_id":"4","last_reported":1740215308,"current_range_meters":22000,"station_id":"ce4bho92rcd13ifvqh3g","pricing_plan_id":"cebpf4jnsgd1na2vs0mg"},{"bike_id":"adc821d8-ae95-4582-9e4d-7a82632a5289","system_id":"levelo_inurba_marseille","lat":43.24789,"lon":5.37472,"is_reserved":false,"is_disabled":false,"rental_uris":{"android":"levelo://app?vid=adc821d8-ae95-4582-9e4d-7a82632a5289","ios":"levelo://app?vid=adc821d8-ae95-4582-9e4d-7a82632a5289"},"vehicle_type_id":"4","last_reported":1740215308,"current_range_meters":22000,"station_id":"ce4bhgh2rcd13ifvqfb0","pricing_plan_id":"cebpf4jnsgd1na2vs0mg"},{"bike_id":"e00735e1-aa19-4af7-8dfb-8f1b8080f8de","system_id":"levelo_inurba_marseille","lat":43.27532,"lon":5.38481,"is_reserved":false,"is_disabled":false,"rental_uris":{"android":"levelo://app?vid=e00735e1-aa19-4af7-8dfb-8f1b8080f8de","ios":"levelo://app?vid=e00735e1-aa19-4af7-8dfb-8f1b8080f8de"},"vehicle_type_id":"4","last_reported":1740215308,"current_range_meters":22000,"station_id":"ce4bhh92rcd13ifvqfi0","pricing_plan_id":"cebpf4jnsgd1na2vs0mg"},{"bike_id":"6c6d2ca0-eaa4-4abe-a050-46692162ceab","system_id":"levelo_inurba_marseille","lat":43.29887,"lon":5.38854,"is_reserved":false,"is_disabled":false,"rental_uris":{"android":"levelo://app?vid=6c6d2ca0-eaa4-4abe-a050-46692162ceab","ios":"levelo://app?vid=6c6d2ca0-eaa4-4abe-a050-46692162ceab"},"vehicle_type_id":"4","last_reported":1740215308,"current_range_meters":22000,"station_id":"ce4bh392rcd13ifvqdl0","pricing_plan_id":"cebpf4jnsgd1na2vs0mg"},