{"last_updated":1757801267,"ttl":60,"version":"2.2","data":{"bikes":[{"bike_id":"0d5f76d9-c63d-4f13-9d2b-2a8b39aac158","system_id":"levelo_inurba_marseille","lat":43.26574,"lon":5.39009,"is_reserved":false,"is_disabled":false,"rental_uris":{"android":"levelo://app?vid=0d5f76d9-c63d-4f13-9d2b-2a8b39aac158","ios":"levelo://app?vid=0d5f76d9-c63d-4f13-9d2b-2a8b39aac158"},"vehicle_type_id":"4","last_reported":1757801267,"current_range_meters":2800,"station_id":"ce4bhe12rcd13ifvqf30","pricing_plan_id":"cebpf4jnsgd1na2vs0mg"},{"bike_id":"38b3287a-b0ad-4b08-b103-f6153367c864","system_id":"levelo_inurba_marseille","lat":43.2958,"lon":5.40507,"is_reserved":false,"is_disabled":false,"rental_uris":{"android":"levelo://app?vid=38b3287a-b0ad-4b08-b103-f6153367c864","ios":"levelo://app?vid=38b3287a-b0ad-4b08-b103-f6153367c864"},"vehicle_type_id":"4","last_reported":1757801267,"current_range_meters":2800,"station_id":"ce4bh0h2rcd13ifvqd60","pricing_plan_id":"cebpf4jnsgd1na2vs0mg"},{"bike_id":"37da0422-d37f-40ac-b96c-e515ad19e681","system_id":"levelo_inurba_marseille","lat":43.27347,"lon":5.36281,"is_reserved":false,"is_disabled":false,"rental_uris":{"android":"levelo://app?vid=37da0422-d37f-40ac-b96c-e515ad19e681","ios":"levelo://app?vid=37da0422-d37f-40ac-b96c-e515ad19e681"},"vehicle_type_id":"4","last_reported":1757801267,"current_range_meters":3200,"station_id":"ce4bhbh2rcd13ifvqeo0","pricing_plan_id":"cebpf4jnsgd1na2vs0mg"},{"bike_id":"8741aa08-fe30-4d9c-8964-071c97cbba0f","system_id":"levelo_inurba_marseille","lat":43.279177,"lon":5.395913,"is_reserved":false,"is_disabled":false,"rental_uris":{"android":"levelo://app?vid=8741aa08-fe30-4d9c-8964-071c97cbba0f","ios":"levelo://app?vid=8741aa08-fe30-4d9c-8964-071c97cbba0f"},"vehicle_type_id":"4","last_reported":1757801267,"current_range_meters":3200,"station_id":"ce4bhf92rcd13ifvqf40","pricing_plan_id":"cebpf4jnsgd1na2vs0mg"},{"bike_id":"8e823669-a05c-4f14-a05f-6373bb94f16b","system_id":"levelo_inurba_marseille","lat":43.307288,"lon":5.372792,"is_reserved":false,"is_disabled":false,"rental_uris":{"android":"levelo://app?vid=8e823669-a05c-4f14-a05f-6373bb94f16b","ios":"levelo://app?vid=8e823669-a05c-4f14-a05f-6373bb94f16b"},"vehicle_type_id":"4","last_reported":1757801267,"current_range_meters":3600,"station_id":"","pricing_plan_id":"cebpf4jnsgd1na2vs0mg"},{"bike_id":"efcbc95c-850b-4cc0-9dcc-09f914352431","system_id":"levelo_inurba_marseille","lat":43.2293,"lon":5.35368,"is_reserved":false,"is_disabled":false,"rental_uris":{"android":"levelo://app?vid=efcbc95c-850b-4cc0-9dcc-09f914352431","ios":"levelo://app?vid=efcbc95c-850b-4cc0-9dcc-09f914352431"},"vehicle_type_id":"4","last_reported":1757801267,"current_range_meters":3600,"station_id":"cpo3532slgdg3j2ikp40","pricing_plan_id":"cebpf4jnsgd1na2vs0mg"},{"bike_id":"3258e62d-d54e-423a-82f8-b3e66399dbec","system_id":"levelo_inurba_marseille","lat":43.29819,"lon":5.38085,"is_reserved":false,"is_disabled":true,"rental_uris":{"android":"levelo://app?vid=3258e62d-d54e-423a-82f8-b3e66399dbec","ios":"levelo://app?vid=3258e62d-d54e-423a-82f8-b3e66399dbec"},"vehicle_type_id":"4","last_reported":1757801267,"current_range_meters":3600,"station_id":"ce4bgip2rcd13ifvqbb0","pricing_plan_id":"cebpf4jnsgd1na2vs0mg"},{"bike_id":"af5d2a4f-90a5-4587-8db8-978f3afcf775","system_id":"levelo_inurba_marseille","lat":43.29265,"lon":5.37622,"is_reserved":false,"is_disabled":false,"rental_uris":{"android":"levelo://app?vid=af5d2a4f-90a5-4587-8db8-978f3afcf775","ios":"levelo://app?vid=af5d2a4f-90a5-4587-8db8-978f3afcf775"},"vehicle_type_id":"4","last_reported":1757801267,"current_range_meters":3600,"station_id":"ce4bgi12rcd13ifvqb80","pricing_plan_id":"cebpf4jnsgd1na2vs0mg"},{"bike_id":"e12d4f92-8df2-4171-88b8-b842344aa16f","system_id":"levelo_inurba_marseille","lat":43.291979,"lon":5.358276,"is_reserved":false,"is_disabled":false,"rental_uris":{"android":"levelo://app?vid=e12d4f92-8df2-4171-88b8-b842344aa16f","ios":"levelo://app?vid=e12d4f92-8df2-4171-88b8-b842344aa16f"},"vehicle_type_id":"4","last_reported":1757801267,"current_range_meters":3600,"station_id":"ce4bhb12rcd13ifvqel0","pricing_plan_id":"cebpf4jnsgd1na2vs0mg"},{"bike_id":"fe8d88d6-81c3-42a8-85bb-3d0aa4841db3","system_id":"levelo_inurba_marseille","lat":43.337444,"lon":5.374475,"is_reserved":false,"is_disabled":false,"rental_uris":{"android":"levelo://app?vid=fe8d88d6-81c3-42a8-85bb-3d0aa4841db3","ios":"levelo://app?vid=fe8d88d6-81c3-42a8-85bb-3d0aa4841db3"},"vehicle_type_id":"4","last_reported":1757801267,"current_range_meters":3600,"station_id":"","pricing_plan_id":"cebpf4jnsgd1na2vs0mg"},{"bike_id":"d1de2b7d-3583-4df3-8bfa-43eda5116068","system_id":"levelo_inurba_marseille","lat":43.3374,"lon":5.37468,"is_reserved":false,"is_disabled":false,"rental_uris":{"android":"levelo://app?vid=d1de2b7d-3583-4df3-8bfa-43eda5116068","ios":"levelo://app?vid=d1de2b7d-3583-4df3-8bfa-43eda5116068"},"vehicle_type_id":"4","last_reported":1757801267,"current_range_meters":3600,"station_id":"","pricing_plan_id":"cebpf4jnsgd1na2vs0mg"},{"bike_id":"d1208639-5703-4ac3-a303-6e72a5788218","system_id":"levelo_inurba_marseille","lat":43.33753,"lon":5.37475,"is_reserved":false,"is_disabled":false,"rental_uris":{"android":"levelo://app?vid=d1208639-5703-4ac3-a303-6e72a5788218","ios":"levelo://app?vid=d1208639-5703-4ac3-a303-6e72a5788218"},"vehicle_type_id":"4","last_reported":1757801267,"current_range_meters":3600,"station_id":"","pricing_plan_id":"cebpf4jnsgd1na2vs0mg"},{"bike_id":"999df056-799c-417e-807e-52608d0b797e","system_id":"levelo_inurba_marseille","lat":43.297101,"lon":5.377007,"is_reserved":false,"is_disabled":false,"rental_uris":{"android":"levelo://app?vid=999df056-799c-417e-807e-52608d0b797e","ios":"levelo://app?vid=999df056-799c-417e-807e-52608d0b797e"},"vehicle_type_id":"4","last_reported":1757801267,"current_range_meters":4000,"station_id":"","pricing_plan_id":"cebpf4jnsgd1na2vs0mg"},{"bike_id":"fe8ea19a-9452-430b-9391-4bd937dd3622","system_id":"levelo_inurba_marseille","lat":43.28172,"lon":5.3893,"is_reserved":false,"is_disabled":false,"rental_uris":{"android":"levelo://app?vid=fe8ea19a-9452-430b-9391-4bd937dd3622","ios":"levelo://app?vid=fe8ea19a-9452-430b-9391-4bd937dd3622"},"vehicle_type_id":"4","last_reported":1757801267,"current_range_meters":4000,"station_id":"","pricing_plan_id":"cebpf4jnsgd1na2vs0mg"},{"bike_id":"9c0d0cf6-9a2b-4ee3-a0b6-3510003e8699","system_id":"levelo_inurba_marseille","lat":43.30469,"lon":5.3791,"is_reserved":false,"is_disabled":false,"rental_uris":{"android":"levelo://app?vid=9c0d0cf6-9a2b-4ee3-a0b6-3510003e8699","ios":"levelo://app?vid=9c0d0cf6-9a2b-4ee3-a0b6-3510003e8699"},"vehicle_type_id":"4","last_reported":1757801267,"current_range_meters":4400,"station_id":"ce4bgup2rcd13ifvqcn0","pricing_plan_id":"cebpf4jnsgd1na2vs0mg"},{"bike_id":"8fb02c31-b078-44e9-b72b-5e66b5abfa9c","system_id":"levelo_inurba_marseille","lat":43.30476,"lon":5.37896,"is_reserved":false,"is_disabled":false,"rental_uris":{"android":"levelo://app?vid=8fb02c31-b078-44e9-b72b-5e66b5abfa9c","ios":"levelo://app?vid=8fb02c31-b078-44e9-b72b-5e66b5abfa9c"},"vehicle_type_id":"4","last_reported":1757801267,"current_range_meters":4400,"station_id":"ce4bgup2rcd13ifvqcn0","pricing_plan_id":"cebpf4jnsgd1na2vs0mg"},{"bike_id":"db6c295f-3532-411a-93e2-a3bbae022de2","system_id":"levelo_inurba_marseille","lat":43.2738,"lon":5.36242,"is_reserved":false,"is_disabled":false,"rental_uris":{"android":"levelo://app?vid=db6c295f-3532-411a-93e2-a3bbae022de2","ios":"levelo://app?vid=db6c295f-3532-411a-93e2-a3bbae022de2"},"vehicle_type_id":"4","last_reported":1757801267,"current_range_meters":4800,"station_id":"ce4bhbh2rcd13ifvqeo0","pricing_plan_id":"cebpf4jnsgd1na2vs0mg"},{"bike_id":"646961bf-46f3-4b7e-8767-02cd8b541df8","system_id":"levelo_inurba_marseille","lat":43.3045,"lon":5.37919,"is_reserved":false,"is_disabled":false,"rental_uris":{"android":"levelo://app?vid=646961bf-46f3-4b7e-8767-02cd8b541df8","ios":"levelo://app?vid=646961bf-46f3-4b7e-8767-02cd8b541df8"},"vehicle_type_id":"4","last_reported":1757801267,"current_range_meters":4800,"station_id":"","pricing_plan_id":"cebpf4jnsgd1na2vs0mg"},{"bike_id":"c39fad0d-ac6e-496e-a9c0-d06aafdb664f","system_id":"levelo_inurba_marseille","lat":43.31073,"lon":5.38356,"is_reserved":false,"is_disabled":true,"rental_uris":{"android":"levelo://app?vid=c39fad0d-ac6e-496e-a9c0-d06aafdb664f","ios":"levelo://app?vid=c39fad0d-ac6e-496e-a9c0-d06aafdb664f"},"vehicle_type_id":"4","last_reported":1757801267,"current_range_meters":4800,"station_id":"ce4bgv92rcd13ifvqcr0","pricing_plan_id":"cebpf4jnsgd1na2vs0mg"},{"bike_id":"6d8b2138-ebd1-46ad-b9f1-feaa80730e46","system_id":"levelo_inurba_marseille","lat":43.29924,"lon":5.37484,"is_reserved":false,"is_disabled":false,"rental_uris":{"android":"levelo://app?vid=6d8b2138-ebd1-46ad-b9f1-feaa80730e46","ios":"levelo://app?vid=6d8b2138-ebd1-46ad-b9f1-feaa80730e46"},"vehicle_type_id":"4","last_reported":1757801267,"current_range_meters":4800,"station_id":"ce4bgjh2rcd13ifvqbg0","pricing_plan_id":"cebpf4jnsgd1na2vs0mg"},{"bike_id":"f52d059a-0239-4182-8b59-0edd4b763a98","system_id":"levelo_inurba_marseille","lat":43.24403,"lon":5.37097,"is_reserved":false,"is_disabled":false,"rental_uris":{"android":"levelo://app?vid=f52d059a-0239-4182-8b59-0edd4b763a98","ios":"levelo://app?vid=f52d059a-0239-4182-8b59-0edd4b763a98"},"vehicle_type_id":"4","last_reported":1757801267,"current_range_meters":5600,"station_id":"","pricing_plan_id":"cebpf4jnsgd1na2vs0mg"},{"bike_id":"5044162e-6817-4aec-9a91-487c2fc824e7","system_id":"levelo_inurba_marseille","lat":43.30475,"lon":5.379,"is_reserved":false,"is_disabled":false,"rental_uris":{"android":"levelo://app?vid=5044162e-6817-4aec-9a91-487c2fc824e7","ios":"levelo://app?vid=5044162e-6817-4aec-9a91-487c2fc824e7"},"vehicle_type_id":"4","last_reported":1757801267,"current_range_meters":6000,"station_id":"","pricing_plan_id":"cebpf4jnsgd1na2vs0mg"},{"bike_id":"141081e1-2c1c-4fb1-9e43-afb07defefc8","system_id":"levelo_inurba_marseille","lat":43.30441,"lon":5.37896,"is_reserved":false,"is_disabled":false,"rental_uris":{"android":"levelo://app?vid=141081e1-2c1c-4fb1-9e43-afb07defefc8","ios":"levelo://app?vid=141081e1-2c1c-4fb1-9e43-afb07defefc8"},"vehicle_type_id":"4","last_reported":1757801267,"current_range_meters":6400,"station_id":"","pricing_plan_id":"cebpf4jnsgd1na2vs0mg"},{"bike_id":"60cb0aae-22ed-41bb-a1ca-a6dff6a1ed20","system_id":"levelo_inurba_marseille","lat":43.29249,"lon":5.37612,"is_reserved":false,"is_disabled":false,"rental_uris":{"android":"levelo://app?vid=60cb0aae-22ed-41bb-a1ca-a6dff6a1ed20","ios":"levelo://app?vid=60cb0aae-22ed-41bb-a1ca-a6dff6a1ed20"},"vehicle_type_id":"4","last_reported":1757801267,"current_range_meters":7200,"station_id":"ce4bgi12rcd13ifvqb80","pricing_plan_id":"cebpf4jnsgd1na2vs0mg"},{"bike_id":"dbbfb935-0bb0-4588-9598-d952a992d421","system_id":"levelo_inurba_marseille","lat":43.30922,"lon":5.37202,"is_reserved":false,"is_disabled":false,"rental_uris":{"android":"levelo://app?vid=dbbfb935-0bb0-4588-9598-d952a992d421","ios":"levelo://app?vid=dbbfb935-0bb0-4588-9598-d952a992d421"},"vehicle_type_id":"4","last_reported":1757801267,"current_range_meters":7200,"station_id":"ce4bguh2rcd13ifvqckg","pricing_plan_id":"cebpf4jnsgd1na2vs0mg"},{"bike_id":"84576817-ed97-460b-a615-c3aef51d3e89","system_id":"levelo_inurba_marseille","lat":43.297967,"lon":5.413825,"is_reserved":false,"is_disabled":false,"rental_uris":{"android":"levelo://app?vid=84576817-ed97-460b-a615-c3aef51d3e89","ios":"levelo://app?vid=84576817-ed97-460b-a615-c3aef51d3e89"},"vehicle_type_id":"4","last_reported":1757801267,"current_range_meters":7200,"station_id":"ce4bhp12rcd13ifvqh9g","pricing_plan_id":"cebpf4jnsgd1na2vs0mg"},{"bike_id":"972b4c5f-3a00-4bb2-9116-b81f2cecc9f2","system_id":"levelo_inurba_marseille","lat":43.33764,"lon":5.37483,"is_reserved":false,"is_disabled":false,"rental_uris":{"android":"levelo://app?vid=972b4c5f-3a00-4bb2-9116-b81f2cecc9f2","ios":"levelo://app?vid=972b4c5f-3a00-4bb2-9116-b81f2cecc9f2"},"vehicle_type_id":"4","last_reported":1757801267,"current_range_meters":7200,"station_id":"","pricing_plan_id":"cebpf4jnsgd1na2vs0mg"},{"bike_id":"f22c134c-16f6-40e2-bdc1-f020da33443c","system_id":"levelo_inurba_marseille","lat":43.29281,"lon":5.40115,"is_reserved":false,"is_disabled":false,"rental_uris":{"android":"levelo://app?vid=f22c134c-16f6-40e2-bdc1-f020da33443c","ios":"levelo://app?vid=f22c134c-16f6-40e2-bdc1-f020da33443c"},"vehicle_type_id":"4","last_reported":1757801267,"current_range_meters":7200,"station_id":"ce4bh312rcd13ifvqdk0","pricing_plan_id":"cebpf4jnsgd1na2vs0mg"},{"bike_id":"4be458a0-71fa-4c6d-b7f0-d556031429c8","system_id":"levelo_inurba_marseille","lat":43.3237,"lon":5.40607,"is_reserved":false,"is_disabled":false,"rental_uris":{"android":"levelo://app?vid=4be458a0-71fa-4c6d-b7f0-d556031429c8","ios":"levelo://app?vid=4be458a0-71fa-4c6d-b7f0-d556031429c8"},"vehicle_type_id":"4","last_reported":1757801267,"current_range_meters":8000,"station_id":"ce4bhq92rcd13ifvqhjg","pricing_plan_id":"cebpf4jnsgd1na2vs0mg"},{"bike_id":"6e59f3a2-8d5f-43b8-809a-186247e3e0d0","system_id":"levelo_inurba_marseille","lat":43.2318,"lon":5.39979,"is_reserved":false,"is_disabled":false,"rental_uris":{"android":"levelo://app?vid=6e59f3a2-8d5f-43b8-809a-186247e3e0d0","ios":"levelo://app?vid=6e59f3a2-8d5f-43b8-809a-186247e3e0d0"},"vehicle_type_id":"4","last_reported":1757801267,"current_range_meters":8000,"station_id":"ce4bhn12rcd13ifvqgqg","pricing_plan_id":"cebpf4jnsgd1na2vs0mg"},{"bike_id":"4ae8bb9e-2743-465f-be6d-fa3ee4c08db8","system_id":"levelo_inurba_marseille","lat":43.28715,"lon":5.37936,"is_reserved":false,"is_disabled":false,"rental_uris":{"android":"levelo://app?vid=4ae8bb9e-2743-465f-be6d-fa3ee4c08db8","ios":"levelo://app?vid=4ae8bb9e-2743-465f-be6d-fa3ee4c08db8"},"vehicle_type_id":"4","last_reported":1757801267,"current_range_meters":8000,"station_id":"ce4bh9p2rcd13ifvqec0","pricing_plan_id":"cebpf4jnsgd1na2vs0mg"},{"bike_id":"a3977072-5f91-4a68-b0d6-dc3cb909a337","system_id":"levelo_inurba_marseille","lat":43.33793,"lon":5.37494,"is_reserved":false,"is_disabled":false,"rental_uris":{"android":"levelo://app?vid=a3977072-5f91-4a68-b0d6-dc3cb909a337","ios":"levelo://app?vid=a3977072-5f91-4a68-b0d6-dc3cb909a337"},"vehicle_type_id":"4","last_reported":1757801267,"current_range_meters":8400,"station_id":"","pricing_plan_id":"cebpf4jnsgd1na2vs0mg"},{"bike_id":"202633c1-4070-4798-8b68-51f4eaee5281","system_id":"levelo_inurba_marseille","lat":43.2926,"lon":5.38304,"is_reserved":false,"is_disabled":false,"rental_uris":{"android":"levelo://app?vid=202633c1-4070-4798-8b68-51f4eaee5281","ios":"levelo://app?vid=202633c1-4070-4798-8b68-51f4eaee5281"},"vehicle_type_id":"4","last_reported":1757801267,"current_range_meters":8400,"station_id":"","pricing_plan_id":"cebpf4jnsgd1na2vs0mg"},{"bike_id":"eb07cad1-5656-40ae-b37b-45fdd748c6a0","system_id":"levelo_inurba_marseille","lat":43.2928,"lon":5.3763,"is_reserved":false,"is_disabled":false,"rental_uris":{"android":"levelo://app?vid=eb07cad1-5656-40ae-b37b-45fdd748c6a0","ios":"levelo://app?vid=eb07cad1-5656-40ae-b37b-45fdd748c6a0"},"vehicle_type_id":"4","last_reported":1757801267,"current_range_meters":8400,"station_id":"ce4bgi12rcd13ifvqb80","pricing_plan_id":"cebpf4jnsgd1na2vs0mg"},{"bike_id":"b7031249-fc27-4dcb-bde2-053009c62c02","system_id":"levelo_inurba_marseille","lat":43.24649,"lon":5.38887,"is_reserved":false,"is_disabled":false,"rental_uris":{"android":"levelo://app?vid=b7031249-fc27-4dcb-bde2-053009c62c02","ios":"levelo://app?vid=b7031249-fc27-4dcb-bde2-053009c62c02"},"vehicle_type_id":"4","last_reported":1757801267,"current_range_meters":8400,"station_id":"ce4bhg12rcd13ifvqf60","pricing_plan_id":"cebpf4jnsgd1na2vs0mg"},{"bike_id":"424b3806-22d3-4d0b-b382-5aa697a46841","system_id":"levelo_inurba_marseille","lat":43.27996,"lon":5.40008,"is_reserved":false,"is_disabled":false,"rental_uris":{"android":"levelo://app?vid=424b3806-22d3-4d0b-b382-5aa697a46841","ios":"levelo://app?vid=424b3806-22d3-4d0b-b382-5aa697a46841"},"vehicle_type_id":"4","last_reported":1757801267,"current_range_meters":8400,"station_id":"ce4bho92rcd13ifvqh4g","pricing_plan_id":"cebpf4jnsgd1na2vs0mg"},{"bike_id":"eaa220fb-5349-44c0-849a-e1e199bab0e0","system_id":"levelo_inurba_marseille","lat":43.312032,"lon":5.367326,"is_reserved":false,"is_disabled":true,"rental_uris":{"android":"levelo://app?vid=eaa220fb-5349-44c0-849a-e1e199bab0e0","ios":"levelo://app?vid=eaa220fb-5349-44c0-849a-e1e199bab0e0"},"vehicle_type_id":"4","last_reported":1757801267,"current_range_meters":8800,"station_id":"","pricing_plan_id":"cebpf4jnsgd1na2vs0mg"},{"bike_id":"d4ed95a6-1af1-427c-ada0-f013762b0d07","system_id":"levelo_inurba_marseille","lat":43.29054,"lon":5.35952,"is_reserved":false,"is_disabled":false,"rental_uris":{"android":"levelo://app?vid=d4ed95a6-1af1-427c-ada0-f013762b0d07","ios":"levelo://app?vid=d4ed95a6-1af1-427c-ada0-f013762b0d07"},"vehicle_type_id":"4","last_reported":1757801267,"current_range_meters":8800,"station_id":"ce4bha92rcd13ifvqeg0","pricing_plan_id":"cebpf4jnsgd1na2vs0mg"},{"bike_id":"775af279-8ac9-4585-9121-809be9b13265","system_id":"levelo_inurba_marseille","lat":43.337775,"lon":5.374412,"is_reserved":false,"is_disabled":false,"rental_uris":{"android":"levelo://app?vid=775af279-8ac9-4585-9121-809be9b13265","ios":"levelo://app?vid=775af279-8ac9-4585-9121-809be9b13265"},"vehicle_type_id":"4","last_reported":1757801267,"current_range_meters":8800,"station_id":"","pricing_plan_id":"cebpf4jnsgd1na2vs0mg"},{"bike_id":"ae2200e0-55fa-4d16-87bf-72ca65d67371","system_id":"levelo_inurba_marseille","lat":43.28406,"lon":5.38472,"is_reserved":false,"is_disabled":true,"rental_uris":{"android":"levelo://app?vid=ae2200e0-55fa-4d16-87bf-72ca65d67371","ios":"levelo://app?vid=ae2200e0-55fa-4d16-87bf-72ca65d67371"},"vehicle_type_id":"4","last_reported":1757801267,"current_range_meters":8800,"station_id":"","pricing_plan_id":"cebpf4jnsgd1na2vs0mg"},{"bike_id":"3bd595b7-af3b-43b1-8697-1bcb2a61af6f","system_id":"levelo_inurba_marseille","lat":43.27998,"lon":5.40005,"is_reserved":false,"is_disabled":true,"rental_uris":{"android":"levelo://app?vid=3bd595b7-af3b-43b1-8697-1bcb2a61af6f","ios":"levelo://app?vid=3bd595b7-af3b-43b1-8697-1bcb2a61af6f"},"vehicle_type_id":"4","last_reported":1757801267,"current_range_meters":8800,"station_id":"ce4bho92rcd13ifvqh4g","pricing_plan_id":"cebpf4jnsgd1na2vs0mg"},{"bike_id":"f541f467-1004-4eb8-94e8-87d5265fc500","system_id":"levelo_inurba_marseille","lat":43.26967,"lon":5.38638,"is_reserved":false,"is_disabled":false,"rental_uris":{"android":"levelo://app?vid=f541f467-1004-4eb8-94e8-87d5265fc500","ios":"levelo://app?vid=f541f467-1004-4eb8-94e8-87d5265fc500"},"vehicle_type_id":"4","last_reported":1757801267,"current_range_meters":8800,"station_id":"ce4bhh92rcd13ifvqfh0","pricing_plan_id":"cebpf4jnsgd1na2vs0mg"},{"bike_id":"cfb056af-5993-4f1c-8cff-63d991f2db6d","system_id":"levelo_inurba_marseille","lat":43.28397,"lon":5.37509,"is_reserved":false,"is_disabled":false,"rental_uris":{"android":"levelo://app?vid=cfb056af-5993-4f1c-8cff-63d991f2db6d","ios":"levelo://app?vid=cfb056af-5993-4f1c-8cff-63d991f2db6d"},"vehicle_type_id":"4","last_reported":1757801267,"current_range_meters":8800,"station_id":"ce4bh412rcd13ifvqds0","pricing_plan_id":"cebpf4jnsgd1na2vs0mg"},{"bike_id":"c1bd8245-f39d-49e6-a0bf-ffdb0805c910","system_id":"levelo_inurba_marseille","lat":43.24813,"lon":5.37456,"is_reserved":false,"is_disabled":false,"rental_uris":{"android":"levelo://app?vid=c1bd8245-f39d-49e6-a0bf-ffdb0805c910","ios":"levelo://app?vid=c1bd8245-f39d-49e6-a0bf-ffdb0805c910"},"vehicle_type_id":"4","last_reported":1757801267,"current_range_meters":9200,"station_id":"ce4bhgh2rcd13ifvqfb0","pricing_plan_id":"cebpf4jnsgd1na2vs0mg"},{"bike_id":"c5d0a267-63b8-45b1-8db4-f64d80554eb4","system_id":"levelo_inurba_marseille","lat":43.28615,"lon":5.37067,"is_reserved":false,"is_disabled":true,"rental_uris":{"android":"levelo://app?vid=c5d0a267-63b8-45b1-8db4-f64d80554eb4","ios":"levelo://app?vid=c5d0a267-63b8-45b1-8db4-f64d80554eb4"},"vehicle_type_id":"4","last_reported":1757801267,"current_range_meters":9200,"station_id":"ce4bht12rcd13ifvqi60","pricing_plan_id":"cebpf4jnsgd1na2vs0mg"},{"bike_id":"4266b374-d4bf-4fd2-bb94-51b2d7d40946","system_id":"levelo_inurba_marseille","lat":43.22556,"lon":5.41598,"is_reserved":false,"is_disabled":false,"rental_uris":{"android":"levelo://app?vid=4266b374-d4bf-4fd2-bb94-51b2d7d40946","ios":"levelo://app?vid=4266b374-d4bf-4fd2-bb94-51b2d7d40946"},"vehicle_type_id":"4","last_reported":1757801267,"current_range_meters":9200,"station_id":"st_d2o4gvlbi1j2169b742g","pricing_plan_id":"cebpf4jnsgd1na2vs0mg"},{"bike_id":"89724e0f-d6a6-4e81-9dc8-40ed9db09b04","system_id":"levelo_inurba_marseille","lat":43.28613,"lon":5.37071,"is_reserved":false,"is_disabled":false,"rental_uris":{"android":"levelo://app?vid=89724e0f-d6a6-4e81-9dc8-40ed9db09b04","ios":"levelo://app?vid=89724e0f-d6a6-4e81-9dc8-40ed9db09b04"},"vehicle_type_id":"4","last_reported":1757801267,"current_range_meters":9200,"station_id":"ce4bht12rcd13ifvqi60","pricing_plan_id":"cebpf4jnsgd1na2vs0mg"},{"bike_id":"8af6a516-2b57-41d8-8e16-782506b9684c","system_id":"levelo_inurba_marseille","lat":43.289391,"lon":5.366342,"is_reserved":false,"is_disabled":false,"rental_uris":{"android":"levelo://app?vid=8af6a516-2b57-41d8-8e16-782506b9684c","ios":"levelo://app?vid=8af6a516-2b57-41d8-8e16-782506b9684c"},"vehicle_type_id":"4","last_reported":1757801267,"current_range_meters":9600,"station_id":"ce4bhap2rcd13ifvqek0","pricing_plan_id":"cebpf4jnsgd1na2vs0mg"},{"bike_id":"c7e7fd69-f607-4002-8cfc-51b1eee21570","system_id":"levelo_inurba_marseille","lat":43.304568,"lon":5.379044,"is_reserved":false,"is_disabled":false,"rental_uris":{"android":"levelo://app?vid=c7e7fd69-f607-4002-8cfc-51b1eee21570","ios":"levelo://app?vid=c7e7fd69-f607-4002-8cfc-51b1eee21570"},"vehicle_type_id":"4","last_reported":1757801267,"current_range_meters":9600,"station_id":"ce4bgup2rcd13ifvqcn0","pricing_plan_id":"cebpf4jnsgd1na2vs0mg"},{"bike_id":"2bf800d6-5810-4583-9dbf-1aa58bacdde6","system_id":"levelo_inurba_marseille","lat":43.304597,"lon":5.379031,"is_reserved":false,"is_disabled":false,"rental_uris":{"android":"levelo://app?vid=2bf800d6-5810-4583-9dbf-1aa58bacdde6","ios":"levelo://app?vid=2bf800d6-5810-4583-9dbf-1aa58bacdde6"},"vehicle_type_id":"4","last_reported":1757801267,"current_range_meters":9600,"station_id":"","pricing_plan_id":"cebpf4jnsgd1na2vs0mg"},{"bike_id":"a24c4696-920b-4645-847f-87e0b46915a6","system_id":"levelo_inurba_marseille","lat":43.32429,"lon":5.42487,"is_reserved":false,"is_disabled":false,"rental_uris":{"android":"levelo://app?vid=a24c4696-920b-4645-847f-87e0b46915a6","ios":"levelo://app?vid=a24c4696-920b-4645-847f-87e0b46915a6"},"vehicle_type_id":"4","last_reported":1757801267,"current_range_meters":9600,"station_id":"","pricing_plan_id":"cebpf4jnsgd1na2vs0mg"},{"bike_id":"0eac0c05-dbf1-4c0b-af6d-53c5df91e290","system_id":"levelo_inurba_marseille","lat":43.2969,"lon":5.37132,"is_reserved":false,"is_disabled":false,"rental_uris":{"android":"levelo://app?vid=0eac0c05-dbf1-4c0b-af6d-53c5df91e290","ios":"levelo://app?vid=0eac0c05-dbf1-4c0b-af6d-53c5df91e290"},"vehicle_type_id":"4","last_reported":1757801267,"current_range_meters":9600,"station_id":"","pricing_plan_id":"cebpf4jnsgd1na2vs0mg"},{"bike_id":"f98e4b6a-35f9-4b35-8628-2a2e0768e728","system_id":"levelo_inurba_marseille","lat":43.239685,"lon":5.366272,"is_reserved":false,"is_disabled":false,"rental_uris":{"android":"levelo://app?vid=f98e4b6a-35f9-4b35-8628-2a2e0768e728","ios":"levelo://app?vid=f98e4b6a-35f9-4b35-8628-2a2e0768e728"},"vehicle_type_id":"4","last_reported":1757801267,"current_range_meters":9600,"station_id":"ce4bhi12rcd13ifvqfp0","pricing_plan_id":"cebpf4jnsgd1na2vs0mg"},{"bike_id":"b801dee3-8e38-479d-b7b6-f1f8a5a1b255","system_id":"levelo_inurba_marseille","lat":43.29256,"lon":5.38435,"is_reserved":false,"is_disabled":false,"rental_uris":{"android":"levelo://app?vid=b801dee3-8e38-479d-b7b6-f1f8a5a1b255","ios":"levelo://app?vid=b801dee3-8e38-479d-b7b6-f1f8a5a1b255"},"vehicle_type_id":"4","last_reported":1757801267,"current_range_meters":9600,"station_id":"ce4bh692rcd13ifvqea0","pricing_plan_id":"cebpf4jnsgd1na2vs0mg"},{"bike_id":"01ff4586-29c8-4333-b677-9a78ad9ba062","system_id":"levelo_inurba_marseille","lat":43.248101,"lon":5.374495,"is_reserved":false,"is_disabled":false,"rental_uris":{"android":"levelo://app?vid=01ff4586-29c8-4333-b677-9a78ad9ba062","ios":"levelo://app?vid=01ff4586-29c8-4333-b677-9a78ad9ba062"},"vehicle_type_id":"4","last_reported":1757801267,"current_range_meters":9600,"station_id":"ce4bhgh2rcd13ifvqfb0","pricing_plan_id":"cebpf4jnsgd1na2vs0mg"},{"bike_id":"71f23975-df19-4c8e-a1fd-40358f5edeef","system_id":"levelo_inurba_marseille","lat":43.24816,"lon":5.37451,"is_reserved":false,"is_disabled":false,"rental_uris":{"android":"levelo://app?vid=71f23975-df19-4c8e-a1fd-40358f5edeef","ios":"levelo://app?vid=71f23975-df19-4c8e-a1fd-40358f5edeef"},"vehicle_type_id":"4","last_reported":1757801267,"current_range_meters":9600,"station_id":"ce4bhgh2rcd13ifvqfb0","pricing_plan_id":"cebpf4jnsgd1na2vs0mg"},{"bike_id":"e8f1a34f-d97f-492d-a96a-630755e01276","system_id":"levelo_inurba_marseille","lat":43.27468,"lon":5.3942,"is_reserved":false,"is_disabled":false,"rental_uris":{"android":"levelo://app?vid=e8f1a34f-d97f-492d-a96a-630755e01276","ios":"levelo://app?vid=e8f1a34f-d97f-492d-a96a-630755e01276"},"vehicle_type_id":"4","last_reported":1757801267,"current_range_meters":10000,"station_id":"","pricing_plan_id":"cebpf4jnsgd1na2vs0mg"},{"bike_id":"03ca218a-c9b8-40d5-a6b3-75bc43b3437f","system_id":"levelo_inurba_marseille","lat":43.28624,"lon":5.37057,"is_reserved":false,"is_disabled":false,"rental_uris":{"android":"levelo://app?vid=03ca218a-c9b8-40d5-a6b3-75bc43b3437f","ios":"levelo://app?vid=03ca218a-c9b8-40d5-a6b3-75bc43b3437f"},"vehicle_type_id":"4","last_reported":1757801267,"current_range_meters":10000,"station_id":"ce4bht12rcd13ifvqi60","pricing_plan_id":"cebpf4jnsgd1na2vs0mg"},{"bike_id":"c445ab95-92a0-47cb-bf12-767d069705a5","system_id":"levelo_inurba_marseille","lat":43.24532,"lon":5.39508,"is_reserved":false,"is_disabled":false,"rental_uris":{"android":"levelo://app?vid=c445ab95-92a0-47cb-bf12-767d069705a5","ios":"levelo://app?vid=c445ab95-92a0-47cb-bf12-767d069705a5"},"vehicle_type_id":"4","last_reported":1757801267,"current_range_meters":10000,"station_id":"ce4bhlp2rcd13ifvqgjg","pricing_plan_id":"cebpf4jnsgd1na2vs0mg"},{"bike_id":"b775547e-235a-481e-8afc-efccca3fe4ae","system_id":"levelo_inurba_marseille","lat":43.29286,"lon":5.36848,"is_reserved":false,"is_disabled":false,"rental_uris":{"android":"levelo://app?vid=b775547e-235a-481e-8afc-efccca3fe4ae","ios":"levelo://app?vid=b775547e-235a-481e-8afc-efccca3fe4ae"},"vehicle_type_id":"4","last_reported":1757801267,"current_range_meters":10000,"station_id":"ce4bhbp2rcd13ifvqesg","pricing_plan_id":"cebpf4jnsgd1na2vs0mg"},{"bike_id":"0c78ed8a-2af8-4f2c-895d-0de884f1c9f2","system_id":"levelo_inurba_marseille","lat":43.29902,"lon":5.43654,"is_reserved":false,"is_disabled":false,"rental_uris":{"android":"levelo://app?vid=0c78ed8a-2af8-4f2c-895d-0de884f1c9f2","ios":"levelo://app?vid=0c78ed8a-2af8-4f2c-895d-0de884f1c9f2"},"vehicle_type_id":"4","last_reported":1757801267,"current_range_meters":10000,"station_id":"ce4bhpp2rcd13ifvqhfg","pricing_plan_id":"cebpf4jnsgd1na2vs0mg"},{"bike_id":"9ad57701-092b-4987-844d-5371986cdaba","system_id":"levelo_inurba_marseille","lat":43.23154,"lon":5.43716,"is_reserved":false,"is_disabled":false,"rental_uris":{"android":"levelo://app?vid=9ad57701-092b-4987-844d-5371986cdaba","ios":"levelo://app?vid=9ad57701-092b-4987-844d-5371986cdaba"},"vehicle_type_id":"4","last_reported":1757801267,"current_range_meters":10000,"station_id":"ce4bhmp2rcd13ifvqgog","pricing_plan_id":"cebpf4jnsgd1na2vs0mg"},{"bike_id":"84c8fb15-5b5b-46a3-b92a-7de6406f90b3","system_id":"levelo_inurba_marseille","lat":43.26792,"lon":5.39407,"is_reserved":false,"is_disabled":true,"rental_uris":{"android":"levelo://app?vid=84c8fb15-5b5b-46a3-b92a-7de6406f90b3","ios":"levelo://app?vid=84c8fb15-5b5b-46a3-b92a-7de6406f90b3"},"vehicle_type_id":"4","last_reported":1757801267,"current_range_meters":10800,"station_id":"ce4bhh12rcd13ifvqfg0","pricing_plan_id":"cebpf4jnsgd1na2vs0mg"},{"bike_id":"140f33b8-1102-4f7e-b0ef-d83c5cd8bb96","system_id":"levelo_inurba_marseille","lat":43.23212,"lon":5.35558,"is_reserved":false,"is_disabled":false,"rental_uris":{"android":"levelo://app?vid=140f33b8-1102-4f7e-b0ef-d83c5cd8bb96","ios":"levelo://app?vid=140f33b8-1102-4f7e-b0ef-d83c5cd8bb96"},"vehicle_type_id":"4","last_reported":1757801267,"current_range_meters":10800,"station_id":"ce4bhu92rcd13ifvqi70","pricing_plan_id":"cebpf4jnsgd1na2vs0mg"},{"bike_id":"758d64a8-5398-4a2b-8026-4ab6c1c375e2","system_id":"levelo_inurba_marseille","lat":43.29257,"lon":5.38459,"is_reserved":false,"is_disabled":false,"rental_uris":{"android":"levelo://app?vid=758d64a8-5398-4a2b-8026-4ab6c1c375e2","ios":"levelo://app?vid=758d64a8-5398-4a2b-8026-4ab6c1c375e2"},"vehicle_type_id":"4","last_reported":1757801267,"current_range_meters":10800,"station_id":"ce4bh692rcd13ifvqea0","pricing_plan_id":"cebpf4jnsgd1na2vs0mg"},{"bike_id":"72ecfdf4-24e1-4d21-b6f0-ea4846497a4f","system_id":"levelo_inurba_marseille","lat":43.28718,"lon":5.3998,"is_reserved":false,"is_disabled":false,"rental_uris":{"android":"levelo://app?vid=72ecfdf4-24e1-4d21-b6f0-ea4846497a4f","ios":"levelo://app?vid=72ecfdf4-24e1-4d21-b6f0-ea4846497a4f"},"vehicle_type_id":"4","last_reported":1757801267,"current_range_meters":10800,"station_id":"ce4bho92rcd13ifvqh3g","pricing_plan_id":"cebpf4jnsgd1na2vs0mg"},{"bike_id":"463345a6-2d4f-4448-8488-9cab1efda713","system_id":"levelo_inurba_marseille","lat":43.25426,"lon":5.40152,"is_reserved":false,"is_disabled":false,"rental_uris":{"android":"levelo://app?vid=463345a6-2d4f-4448-8488-9cab1efda713","ios":"levelo://app?vid=463345a6-2d4f-4448-8488-9cab1efda713"},"vehicle_type_id":"4","last_reported":1757801267,"current_range_meters":10800,"station_id":"","pricing_plan_id":"cebpf4jnsgd1na2vs0mg"},{"bike_id":"60433104-da84-4865-bf45-7d40a82aea18","system_id":"levelo_inurba_marseille","lat":43.284095,"lon":5.375205,"is_reserved":false,"is_disabled":false,"rental_uris":{"android":"levelo://app?vid=60433104-da84-4865-bf45-7d40a82aea18","ios":"levelo://app?vid=60433104-da84-4865-bf45-7d40a82aea18"},"vehicle_type_id":"4","last_reported":1757801267,"current_range_meters":11200,"station_id":"ce4bh412rcd13ifvqds0","pricing_plan_id":"cebpf4jnsgd1na2vs0mg"},{"bike_id":"26b69d0b-b5b9-460c-aa91-faf533b3f545","system_id":"levelo_inurba_marseille","lat":43.31722,"lon":5.43709,"is_reserved":false,"is_disabled":false,"rental_uris":{"android":"levelo://app?vid=26b69d0b-b5b9-460c-aa91-faf533b3f545","ios":"levelo://app?vid=26b69d0b-b5b9-460c-aa91-faf533b3f545"},"vehicle_type_id":"4","last_reported":1757801267,"current_range_meters":11200,"station_id":"ce4bhp92rcd13ifvqhcg","pricing_plan_id":"cebpf4jnsgd1na2vs0mg"},{"bike_id":"d5c98035-fc72-4062-a3ec-13203f68e8ed","system_id":"levelo_inurba_marseille","lat":43.2886,"lon":5.42505,"is_reserved":false,"is_disabled":false,"rental_uris":{"android":"levelo://app?vid=d5c98035-fc72-4062-a3ec-13203f68e8ed","ios":"levelo://app?vid=d5c98035-fc72-4062-a3ec-13203f68e8ed"},"vehicle_type_id":"4","last_reported":1757801267,"current_range_meters":11200,"station_id":"","pricing_plan_id":"cebpf4jnsgd1na2vs0mg"},{"bike_id":"614d1293-ce35-41ef-8610-6d9a83a36b80","system_id":"levelo_inurba_marseille","lat":43.29259,"lon":5.40905,"is_reserved":false,"is_disabled":false,"rental_uris":{"android":"levelo://app?vid=614d1293-ce35-41ef-8610-6d9a83a36b80","ios":"levelo://app?vid=614d1293-ce35-41ef-8610-6d9a83a36b80"},"vehicle_type_id":"4","last_reported":1757801267,"current_range_meters":11200,"station_id":"ce4bh192rcd13ifvqdc0","pricing_plan_id":"cebpf4jnsgd1na2vs0mg"},{"bike_id":"24b2b3b1-5235-442f-954d-0cd2cdec14cd","system_id":"levelo_inurba_marseille","lat":43.29267,"lon":5.38447,"is_reserved":false,"is_disabled":false,"rental_uris":{"android":"levelo://app?vid=24b2b3b1-5235-442f-954d-0cd2cdec14cd","ios":"levelo://app?vid=24b2b3b1-5235-442f-954d-0cd2cdec14cd"},"vehicle_type_id":"4","last_reported":1757801267,"current_range_meters":11200,"station_id":"ce4bh692rcd13ifvqea0","pricing_plan_id":"cebpf4jnsgd1na2vs0mg"},{"bike_id":"79af8d88-29e7-4fc5-b77f-c5e38cfe567e","system_id":"levelo_inurba_marseille","lat":43.28054,"lon":5.36964,"is_reserved":false,"is_disabled":false,"rental_uris":{"android":"levelo://app?vid=79af8d88-29e7-4fc5-b77f-c5e38cfe567e","ios":"levelo://app?vid=79af8d88-29e7-4fc5-b77f-c5e38cfe567e"},"vehicle_type_id":"4","last_reported":1757801267,"current_range_meters":11200,"station_id":"ce4bha12rcd13ifvqef0","pricing_plan_id":"cebpf4jnsgd1na2vs0mg"},{"bike_id":"4512c2c7-f6ea-48a6-8a48-abb3bc17e447","system_id":"levelo_inurba_marseille","lat":43.25588,"lon":5.38247,"is_reserved":false,"is_disabled":false,"rental_uris":{"android":"levelo://app?vid=4512c2c7-f6ea-48a6-8a48-abb3bc17e447","ios":"levelo://app?vid=4512c2c7-f6ea-48a6-8a48-abb3bc17e447"},"vehicle_type_id":"4","last_reported":1757801267,"current_range_meters":11200,"station_id":"ce4bhih2rcd13ifvqfs0","pricing_plan_id":"cebpf4jnsgd1na2vs0mg"},{"bike_id":"3bef69fe-5b53-4b5c-bb48-170285c21d79","system_id":"levelo_inurba_marseille","lat":43.25833,"lon":5.39431,"is_reserved":false,"is_disabled":false,"rental_uris":{"android":"levelo://app?vid=3bef69fe-5b53-4b5c-bb48-170285c21d79","ios":"levelo://app?vid=3bef69fe-5b53-4b5c-bb48-170285c21d79"},"vehicle_type_id":"4","last_reported":1757801267,"current_range_meters":11600,"station_id":"ce4bhip2rcd13ifvqft0","pricing_plan_id":"cebpf4jnsgd1na2vs0mg"},{"bike_id":"058b5f2a-5447-43d7-ade3-2c4d8ee5cb4c","system_id":"levelo_inurba_marseille","lat":43.30609,"lon":5.37209,"is_reserved":false,"is_disabled":false,"rental_uris":{"android":"levelo://app?vid=058b5f2a-5447-43d7-ade3-2c4d8ee5cb4c","ios":"levelo://app?vid=058b5f2a-5447-43d7-ade3-2c4d8ee5cb4c"},"vehicle_type_id":"4","last_reported":1757801267,"current_range_meters":11600,"station_id":"ce4bgqh2rcd13ifvqc4g","pricing_plan_id":"cebpf4jnsgd1na2vs0mg"},{"bike_id":"8c2c4ca1-e2d8-4cf6-94d6-963467695610","system_id":"levelo_inurba_marseille","lat":43.31106,"lon":5.38573,"is_reserved":false,"is_disabled":false,"rental_uris":{"android":"levelo://app?vid=8c2c4ca1-e2d8-4cf6-94d6-963467695610","ios":"levelo://app?vid=8c2c4ca1-e2d8-4cf6-94d6-963467695610"},"vehicle_type_id":"4","last_reported":1757801267,"current_range_meters":11600,"station_id":"","pricing_plan_id":"cebpf4jnsgd1na2vs0mg"},{"bike_id":"7551b6ea-c220-4ab0-ae49-87a7d4947d7b","system_id":"levelo_inurba_marseille","lat":43.29227,"lon":5.36071,"is_reserved":false,"is_disabled":false,"rental_uris":{"android":"levelo://app?vid=7551b6ea-c220-4ab0-ae49-87a7d4947d7b","ios":"levelo://app?vid=7551b6ea-c220-4ab0-ae49-87a7d4947d7b"},"vehicle_type_id":"4","last_reported":1757801267,"current_range_meters":11600,"station_id":"ce4bhbh2rcd13ifvqeqg","pricing_plan_id":"cebpf4jnsgd1na2vs0mg"},{"bike_id":"84be000e-b186-4e60-8aaa-b7a0f42a7175","system_id":"levelo_inurba_marseille","lat":43.337616,"lon":5.374353,"is_reserved":false,"is_disabled":false,"rental_uris":{"android":"levelo://app?vid=84be000e-b186-4e60-8aaa-b7a0f42a7175","ios":"levelo://app?vid=84be000e-b186-4e60-8aaa-b7a0f42a7175"},"vehicle_type_id":"4","last_reported":1757801267,"current_range_meters":11600,"station_id":"","pricing_plan_id":"cebpf4jnsgd1na2vs0mg"},{"bike_id":"9a24a4f4-41f7-4810-bda5-c96a460f72fc","system_id":"levelo_inurba_marseille","lat":43.275,"lon":5.42458,"is_reserved":false,"is_disabled":false,"rental_uris":{"android":"levelo://app?vid=9a24a4f4-41f7-4810-bda5-c96a460f72fc","ios":"levelo://app?vid=9a24a4f4-41f7-4810-bda5-c96a460f72fc"},"vehicle_type_id":"4","last_reported":1757801267,"current_range_meters":11600,"station_id":"ce4bhn92rcd13ifvqgrg","pricing_plan_id":"cebpf4jnsgd1na2vs0mg"},{"bike_id":"9a716b84-cf6c-4feb-8ca6-e44852bac3bd","system_id":"levelo_inurba_marseille","lat":43.2659,"lon":5.37263,"is_reserved":false,"is_disabled":false,"rental_uris":{"android":"levelo://app?vid=9a716b84-cf6c-4feb-8ca6-e44852bac3bd","ios":"levelo://app?vid=9a716b84-cf6c-4feb-8ca6-e44852bac3bd"},"vehicle_type_id":"4","last_reported":1757801267,"current_range_meters":11600,"station_id":"ce4bhg12rcd13ifvqf70","pricing_plan_id":"cebpf4jnsgd1na2vs0mg"},{"bike_id":"ebb82234-85ec-4de7-ac72-234d1e7175db","system_id":"levelo_inurba_marseille","lat":43.29611,"lon":5.38104,"is_reserved":false,"is_disabled":false,"rental_uris":{"android":"levelo://app?vid=ebb82234-85ec-4de7-ac72-234d1e7175db","ios":"levelo://app?vid=ebb82234-85ec-4de7-ac72-234d1e7175db"},"vehicle_type_id":"4","last_reported":1757801267,"current_range_meters":12000,"station_id":"ce4bgl12rcd13ifvqbo0","pricing_plan_id":"cebpf4jnsgd1na2vs0mg"},{"bike_id":"62f771b2-4873-460c-a103-d249fe08d9a3","system_id":"levelo_inurba_marseille","lat":43.28466,"lon":5.35894,"is_reserved":false,"is_disabled":true,"rental_uris":{"android":"levelo://app?vid=62f771b2-4873-460c-a103-d249fe08d9a3","ios":"levelo://app?vid=62f771b2-4873-460c-a103-d249fe08d9a3"},"vehicle_type_id":"4","last_reported":1757801267,"current_range_meters":12000,"station_id":"ce4bhah2rcd13ifvqei0","pricing_plan_id":"cebpf4jnsgd1na2vs0mg"},{"bike_id":"beb6189c-c21e-4836-b631-6b5c31a632d8","system_id":"levelo_inurba_marseille","lat":43.2259,"lon":5.4164,"is_reserved":false,"is_disabled":false,"rental_uris":{"android":"levelo://app?vid=beb6189c-c21e-4836-b631-6b5c31a632d8","ios":"levelo://app?vid=beb6189c-c21e-4836-b631-6b5c31a632d8"},"vehicle_type_id":"4","last_reported":1757801267,"current_range_meters":12000,"station_id":"st_d2o4gvlbi1j2169b742g","pricing_plan_id":"cebpf4jnsgd1na2vs0mg"},{"bike_id":"7f3513a0-d2b5-4796-9fcd-ad4f77918d2f","system_id":"levelo_inurba_marseille","lat":43.274948,"lon":5.424501,"is_reserved":false,"is_disabled":true,"rental_uris":{"android":"levelo://app?vid=7f3513a0-d2b5-4796-9fcd-ad4f77918d2f","ios":"levelo://app?vid=7f3513a0-d2b5-4796-9fcd-ad4f77918d2f"},"vehicle_type_id":"4","last_reported":1757801267,"current_range_meters":12000,"station_id":"ce4bhn92rcd13ifvqgrg","pricing_plan_id":"cebpf4jnsgd1na2vs0mg"},{"bike_id":"d5fe8587-d577-4927-9f03-bf5f1fa338f3","system_id":"levelo_inurba_marseille","lat":43.32589,"lon":5.37576,"is_reserved":false,"is_disabled":false,"rental_uris":{"android":"levelo://app?vid=d5fe8587-d577-4927-9f03-bf5f1fa338f3","ios":"levelo://app?vid=d5fe8587-d577-4927-9f03-bf5f1fa338f3"},"vehicle_type_id":"4","last_reported":1757801267,"current_range_meters":12000,"station_id":"","pricing_plan_id":"cebpf4jnsgd1na2vs0mg"},{"bike_id":"02dbb44c-70e3-4a7a-b86e-6159cc35ba47","system_id":"levelo_inurba_marseille","lat":43.29587,"lon":5.38689,"is_reserved":false,"is_disabled":false,"rental_uris":{"android":"levelo://app?vid=02dbb44c-70e3-4a7a-b86e-6159cc35ba47","ios":"levelo://app?vid=02dbb44c-70e3-4a7a-b86e-6159cc35ba47"},"vehicle_type_id":"4","last_reported":1757801267,"current_range_meters":12000,"station_id":"ce4bgih2rcd13ifvqba0","pricing_plan_id":"cebpf4jnsgd1na2vs0mg"},{"bike_id":"7970a715-5b02-4b3d-8748-3f1c4b7d6148","system_id":"levelo_inurba_marseille","lat":43.30762,"lon":5.37647,"is_reserved":false,"is_disabled":false,"rental_uris":{"android":"levelo://app?vid=7970a715-5b02-4b3d-8748-3f1c4b7d6148","ios":"levelo://app?vid=7970a715-5b02-4b3d-8748-3f1c4b7d6148"},"vehicle_type_id":"4","last_reported":1757801267,"current_range_meters":12000,"station_id":"ce4bgv92rcd13ifvqcq0","pricing_plan_id":"cebpf4jnsgd1na2vs0mg"},{"bike_id":"cbe6f866-1357-45a4-afbd-44c3352c1a8a","system_id":"levelo_inurba_marseille","lat":43.281154,"lon":5.378429,"is_reserved":false,"is_disabled":false,"rental_uris":{"android":"levelo://app?vid=cbe6f866-1357-45a4-afbd-44c3352c1a8a","ios":"levelo://app?vid=cbe6f866-1357-45a4-afbd-44c3352c1a8a"},"vehicle_type_id":"4","last_reported":1757801267,"current_range_meters":12400,"station_id":"ce4bha12rcd13ifvqee0","pricing_plan_id":"cebpf4jnsgd1na2vs0mg"},{"bike_id":"56b77b6e-5485-4b76-a29b-7ee23128432a","system_id":"levelo_inurba_marseille","lat":43.28424,"lon":5.37507,"is_reserved":false,"is_disabled":false,"rental_uris":{"android":"levelo://app?vid=56b77b6e-5485-4b76-a29b-7ee23128432a","ios":"levelo://app?vid=56b77b6e-5485-4b76-a29b-7ee23128432a"},"vehicle_type_id":"4","last_reported":1757801267,"current_range_meters":12400,"station_id":"ce4bh412rcd13ifvqds0","pricing_plan_id":"cebpf4jnsgd1na2vs0mg"},{"bike_id":"f8ffd399-b74b-428b-b8c5-652d37f4b22c","system_id":"levelo_inurba_marseille","lat":43.24959,"lon":5.4049,"is_reserved":false,"is_disabled":false,"rental_uris":{"android":"levelo://app?vid=f8ffd399-b74b-428b-b8c5-652d37f4b22c","ios":"levelo://app?vid=f8ffd399-b74b-428b-b8c5-652d37f4b22c"},"vehicle_type_id":"4","last_reported":1757801267,"current_range_meters":12400,"station_id":"st_d2ngiaodas8pm72gd1h0","pricing_plan_id":"cebpf4jnsgd1na2vs0mg"},{"bike_id":"6515536f-56de-4109-b7a1-24c742aed225","system_id":"levelo_inurba_marseille","lat":43.31997,"lon":5.37234,"is_reserved":false,"is_disabled":false,"rental_uris":{"android":"levelo://app?vid=6515536f-56de-4109-b7a1-24c742aed225","ios":"levelo://app?vid=6515536f-56de-4109-b7a1-24c742aed225"},"vehicle_type_id":"4","last_reported":1757801267,"current_range_meters":12400,"station_id":"","pricing_plan_id":"cebpf4jnsgd1na2vs0mg"},{"bike_id":"3510d789-ae1f-4c67-ae2b-5d51a86b5480","system_id":"levelo_inurba_marseille","lat":43.31119,"lon":5.37758,"is_reserved":false,"is_disabled":false,"rental_uris":{"android":"levelo://app?vid=3510d789-ae1f-4c67-ae2b-5d51a86b5480","ios":"levelo://app?vid=3510d789-ae1f-4c67-ae2b-5d51a86b5480"},"vehicle_type_id":"4","last_reported":1757801267,"current_range_meters":12400,"station_id":"ce4bgt92rcd13ifvqcg0","pricing_plan_id":"cebpf4jnsgd1na2vs0mg"},{"bike_id":"55d59e02-f5a5-4e1a-9360-556e842fa2a4","system_id":"levelo_inurba_marseille","lat":43.33764,"lon":5.37496,"is_reserved":false,"is_disabled":false,"rental_uris":{"android":"levelo://app?vid=55d59e02-f5a5-4e1a-9360-556e842fa2a4","ios":"levelo://app?vid=55d59e02-f5a5-4e1a-9360-556e842fa2a4"},"vehicle_type_id":"4","last_reported":1757801267,"current_range_meters":12400,"station_id":"","pricing_plan_id":"cebpf4jnsgd1na2vs0mg"},{"bike_id":"56ec43eb-35dc-4fbb-9dea-cadecd4a7884","system_id":"levelo_inurba_marseille","lat":43.29261,"lon":5.38457,"is_reserved":false,"is_disabled":false,"rental_uris":{"android":"levelo://app?vid=56ec43eb-35dc-4fbb-9dea-cadecd4a7884","ios":"levelo://app?vid=56ec43eb-35dc-4fbb-9dea-cadecd4a7884"},"vehicle_type_id":"4","last_reported":1757801267,"current_range_meters":12400,"station_id":"ce4bh692rcd13ifvqea0","pricing_plan_id":"cebpf4jnsgd1na2vs0mg"},{"bike_id":"d9c11a94-d122-4240-b95b-24fdee8810ac","system_id":"levelo_inurba_marseille","lat":43.2827,"lon":5.39912,"is_reserved":false,"is_disabled":false,"rental_uris":{"android":"levelo://app?vid=d9c11a94-d122-4240-b95b-24fdee8810ac","ios":"levelo://app?vid=d9c11a94-d122-4240-b95b-24fdee8810ac"},"vehicle_type_id":"4","last_reported":1757801267,"current_range_meters":12400,"station_id":"","pricing_plan_id":"cebpf4jnsgd1na2vs0mg"},{"bike_id":"2a7bc07a-c148-4a25-b2c5-5233e29560f5","system_id":"levelo_inurba_marseille","lat":43.28627,"lon":5.37058,"is_reserved":false,"is_disabled":false,"rental_uris":{"android":"levelo://app?vid=2a7bc07a-c148-4a25-b2c5-5233e29560f5","ios":"levelo://app?vid=2a7bc07a-c148-4a25-b2c5-5233e29560f5"},"vehicle_type_id":"4","last_reported":1757801267,"current_range_meters":12400,"station_id":"ce4bht12rcd13ifvqi60","pricing_plan_id":"cebpf4jnsgd1na2vs0mg"},{"bike_id":"371ef6d4-cdb5-46ff-96f3-1c72330225d0","system_id":"levelo_inurba_marseille","lat":43.279991,"lon":5.400056,"is_reserved":false,"is_disabled":false,"rental_uris":{"android":"levelo://app?vid=371ef6d4-cdb5-46ff-96f3-1c72330225d0","ios":"levelo://app?vid=371ef6d4-cdb5-46ff-96f3-1c72330225d0"},"vehicle_type_id":"4","last_reported":1757801267,"current_range_meters":12400,"station_id":"ce4bho92rcd13ifvqh4g","pricing_plan_id":"cebpf4jnsgd1na2vs0mg"},{"bike_id":"54756892-40fc-40da-862a-36f475f86070","system_id":"levelo_inurba_marseille","lat":43.296722,"lon":5.371496,"is_reserved":false,"is_disabled":false,"rental_uris":{"android":"levelo://app?vid=54756892-40fc-40da-862a-36f475f86070","ios":"levelo://app?vid=54756892-40fc-40da-862a-36f475f86070"},"vehicle_type_id":"4","last_reported":1757801267,"current_range_meters":12400,"station_id":"","pricing_plan_id":"cebpf4jnsgd1na2vs0mg"},{"bike_id":"723cd337-e865-411d-90f9-86be593e402a","system_id":"levelo_inurba_marseille","lat":43.29282,"lon":5.36847,"is_reserved":false,"is_disabled":false,"rental_uris":{"android":"levelo://app?vid=723cd337-e865-411d-90f9-86be593e402a","ios":"levelo://app?vid=723cd337-e865-411d-90f9-86be593e402a"},"vehicle_type_id":"4","last_reported":1757801267,"current_range_meters":12800,"station_id":"ce4bhbp2rcd13ifvqesg","pricing_plan_id":"cebpf4jnsgd1na2vs0mg"},{"bike_id":"079a2867-08a3-4e0a-a390-45417960dd7b","system_id":"levelo_inurba_marseille","lat":43.2397,"lon":5.36631,"is_reserved":false,"is_disabled":false,"rental_uris":{"android":"levelo://app?vid=079a2867-08a3-4e0a-a390-45417960dd7b","ios":"levelo://app?vid=079a2867-08a3-4e0a-a390-45417960dd7b"},"vehicle_type_id":"4","last_reported":1757801267,"current_range_meters":12800,"station_id":"ce4bhi12rcd13ifvqfp0","pricing_plan_id":"cebpf4jnsgd1na2vs0mg"},{"bike_id":"90559212-93fa-442f-8912-cc4b541708a6","system_id":"levelo_inurba_marseille","lat":43.2801,"lon":5.41672,"is_reserved":false,"is_disabled":false,"rental_uris":{"android":"levelo://app?vid=90559212-93fa-442f-8912-cc4b541708a6","ios":"levelo://app?vid=90559212-93fa-442f-8912-cc4b541708a6"},"vehicle_type_id":"4","last_reported":1757801267,"current_range_meters":12800,"station_id":"ce4bho12rcd13ifvqh1g","pricing_plan_id":"cebpf4jnsgd1na2vs0mg"},{"bike_id":"31195751-bbc1-4ea5-8068-c21d8881b649","system_id":"levelo_inurba_marseille","lat":43.24091,"lon":5.37663,"is_reserved":false,"is_disabled":false,"rental_uris":{"android":"levelo://app?vid=31195751-bbc1-4ea5-8068-c21d8881b649","ios":"levelo://app?vid=31195751-bbc1-4ea5-8068-c21d8881b649"},"vehicle_type_id":"4","last_reported":1757801267,"current_range_meters":13600,"station_id":"","pricing_plan_id":"cebpf4jnsgd1na2vs0mg"},{"bike_id":"939b9c08-d247-4e29-a963-e8d7b1f9aa03","system_id":"levelo_inurba_marseille","lat":43.28866,"lon":5.35856,"is_reserved":false,"is_disabled":false,"rental_uris":{"android":"levelo://app?vid=939b9c08-d247-4e29-a963-e8d7b1f9aa03","ios":"levelo://app?vid=939b9c08-d247-4e29-a963-e8d7b1f9aa03"},"vehicle_type_id":"4","last_reported":1757801267,"current_range_meters":13600,"station_id":"ce4bhb12rcd13ifvqem0","pricing_plan_id":"cebpf4jnsgd1na2vs0mg"},{"bike_id":"cd104b68-7370-4e88-ba9c-1edeee0f6c77","system_id":"levelo_inurba_marseille","lat":43.25242,"lon":5.42478,"is_reserved":false,"is_disabled":false,"rental_uris":{"android":"levelo://app?vid=cd104b68-7370-4e88-ba9c-1edeee0f6c77","ios":"levelo://app?vid=cd104b68-7370-4e88-ba9c-1edeee0f6c77"},"vehicle_type_id":"4","last_reported":1757801267,"current_range_meters":13600,"station_id":"","pricing_plan_id":"cebpf4jnsgd1na2vs0mg"},{"bike_id":"e9ee13b6-cdb7-464a-b41c-3f407be862de","system_id":"levelo_inurba_marseille","lat":43.21784,"lon":5.34597,"is_reserved":false,"is_disabled":false,"rental_uris":{"android":"levelo://app?vid=e9ee13b6-cdb7-464a-b41c-3f407be862de","ios":"levelo://app?vid=e9ee13b6-cdb7-464a-b41c-3f407be862de"},"vehicle_type_id":"4","last_reported":1757801267,"current_range_meters":13600,"station_id":"","pricing_plan_id":"cebpf4jnsgd1na2vs0mg"},{"bike_id":"b78ac129-94d4-4834-b56f-8eead43c1bd2","system_id":"levelo_inurba_marseille","lat":43.28266,"lon":5.35054,"is_reserved":false,"is_disabled":false,"rental_uris":{"android":"levelo://app?vid=b78ac129-94d4-4834-b56f-8eead43c1bd2","ios":"levelo://app?vid=b78ac129-94d4-4834-b56f-8eead43c1bd2"},"vehicle_type_id":"4","last_reported":1757801267,"current_range_meters":13600,"station_id":"ce4bhbp2rcd13ifvqerg","pricing_plan_id":"cebpf4jnsgd1na2vs0mg"},{"bike_id":"1eaf7d24-f23e-4e79-b6f5-17176bccc028","system_id":"levelo_inurba_marseille","lat":43.27998,"lon":5.38759,"is_reserved":false,"is_disabled":false,"rental_uris":{"android":"levelo://app?vid=1eaf7d24-f23e-4e79-b6f5-17176bccc028","ios":"levelo://app?vid=1eaf7d24-f23e-4e79-b6f5-17176bccc028"},"vehicle_type_id":"4","last_reported":1757801267,"current_range_meters":13600,"station_id":"ce4bhg12rcd13ifvqf80","pricing_plan_id":"cebpf4jnsgd1na2vs0mg"},{"bike_id":"0db12928-1d93-41a8-98cb-801855963904","system_id":"levelo_inurba_marseille","lat":43.30889,"lon":5.39634,"is_reserved":false,"is_disabled":false,"rental_uris":{"android":"levelo://app?vid=0db12928-1d93-41a8-98cb-801855963904","ios":"levelo://app?vid=0db12928-1d93-41a8-98cb-801855963904"},"vehicle_type_id":"4","last_reported":1757801267,"current_range_meters":13600,"station_id":"ce4bh012rcd13ifvqcv0","pricing_plan_id":"cebpf4jnsgd1na2vs0mg"},{"bike_id":"ee42c31a-b74b-4b2d-917a-cd50dc10c6ce","system_id":"levelo_inurba_marseille","lat":43.330545,"lon":5.390239,"is_reserved":false,"is_disabled":false,"rental_uris":{"android":"levelo://app?vid=ee42c31a-b74b-4b2d-917a-cd50dc10c6ce","ios":"levelo://app?vid=ee42c31a-b74b-4b2d-917a-cd50dc10c6ce"},"vehicle_type_id":"4","last_reported":1757801267,"current_range_meters":13600,"station_id":"ce4bhr92rcd13ifvqhrg","pricing_plan_id":"cebpf4jnsgd1na2vs0mg"},{"bike_id":"08dd149f-234d-4257-9742-8ea8a2f2658d","system_id":"levelo_inurba_marseille","lat":43.28436,"lon":5.3753,"is_reserved":false,"is_disabled":true,"rental_uris":{"android":"levelo://app?vid=08dd149f-234d-4257-9742-8ea8a2f2658d","ios":"levelo://app?vid=08dd149f-234d-4257-9742-8ea8a2f2658d"},"vehicle_type_id":"4","last_reported":1757801267,"current_range_meters":13600,"station_id":"ce4bh412rcd13ifvqds0","pricing_plan_id":"cebpf4jnsgd1na2vs0mg"},{"bike_id":"f07d1a34-6972-4c1d-8ed8-100dd0fc1e78","system_id":"levelo_inurba_marseille","lat":43.32985,"lon":5.39052,"is_reserved":false,"is_disabled":false,"rental_uris":{"android":"levelo://app?vid=f07d1a34-6972-4c1d-8ed8-100dd0fc1e78","ios":"levelo://app?vid=f07d1a34-6972-4c1d-8ed8-100dd0fc1e78"},"vehicle_type_id":"4","last_reported":1757801267,"current_range_meters":13600,"station_id":"ce4bhr92rcd13ifvqhrg","pricing_plan_id":"cebpf4jnsgd1na2vs0mg"},{"bike_id":"40207740-3997-48f7-a3a9-b19ccf0a0c3b","system_id":"levelo_inurba_marseille","lat":43.30412,"lon":5.41299,"is_reserved":false,"is_disabled":false,"rental_uris":{"android":"levelo://app?vid=40207740-3997-48f7-a3a9-b19ccf0a0c3b","ios":"levelo://app?vid=40207740-3997-48f7-a3a9-b19ccf0a0c3b"},"vehicle_type_id":"4","last_reported":1757801267,"current_range_meters":13600,"station_id":"ce4bhop2rcd13ifvqh8g","pricing_plan_id":"cebpf4jnsgd1na2vs0mg"},{"bike_id":"ee510f93-9bad-498c-af93-1bec8c5ad01b","system_id":"levelo_inurba_marseille","lat":43.25344,"lon":5.42163,"is_reserved":false,"is_disabled":false,"rental_uris":{"android":"levelo://app?vid=ee510f93-9bad-498c-af93-1bec8c5ad01b","ios":"levelo://app?vid=ee510f93-9bad-498c-af93-1bec8c5ad01b"},"vehicle_type_id":"4","last_reported":1757801267,"current_range_meters":14000,"station_id":"st_d2m65c5bi1j21697t3ng","pricing_plan_id":"cebpf4jnsgd1na2vs0mg"},{"bike_id":"86cd42f9-47ac-4f38-a6a9-88c12b1ddd7a","system_id":"levelo_inurba_marseille","lat":43.30543,"lon":5.38436,"is_reserved":false,"is_disabled":false,"rental_uris":{"android":"levelo://app?vid=86cd42f9-47ac-4f38-a6a9-88c12b1ddd7a","ios":"levelo://app?vid=86cd42f9-47ac-4f38-a6a9-88c12b1ddd7a"},"vehicle_type_id":"4","last_reported":1757801267,"current_range_meters":14000,"station_id":"ce4bgg92rcd13ifvqb30","pricing_plan_id":"cebpf4jnsgd1na2vs0mg"},{"bike_id":"fd023a40-d69c-4361-9109-4126162693f0","system_id":"levelo_inurba_marseille","lat":43.27773,"lon":5.37839,"is_reserved":false,"is_disabled":false,"rental_uris":{"android":"levelo://app?vid=fd023a40-d69c-4361-9109-4126162693f0","ios":"levelo://app?vid=fd023a40-d69c-4361-9109-4126162693f0"},"vehicle_type_id":"4","last_reported":1757801267,"current_range_meters":14000,"station_id":"","pricing_plan_id":"cebpf4jnsgd1na2vs0mg"},{"bike_id":"b5e6492f-c6f6-4862-a7a2-5eb9440d5281","system_id":"levelo_inurba_marseille","lat":43.28,"lon":5.40018,"is_reserved":false,"is_disabled":false,"rental_uris":{"android":"levelo://app?vid=b5e6492f-c6f6-4862-a7a2-5eb9440d5281","ios":"levelo://app?vid=b5e6492f-c6f6-4862-a7a2-5eb9440d5281"},"vehicle_type_id":"4","last_reported":1757801267,"current_range_meters":14000,"station_id":"ce4bho92rcd13ifvqh4g","pricing_plan_id":"cebpf4jnsgd1na2vs0mg"},{"bike_id":"da541ee4-0606-4ac0-9610-04082fe0389f","system_id":"levelo_inurba_marseille","lat":43.2738,"lon":5.36257,"is_reserved":false,"is_disabled":false,"rental_uris":{"android":"levelo://app?vid=da541ee4-0606-4ac0-9610-04082fe0389f","ios":"levelo://app?vid=da541ee4-0606-4ac0-9610-04082fe0389f"},"vehicle_type_id":"4","last_reported":1757801267,"current_range_meters":14000,"station_id":"ce4bhbh2rcd13ifvqeo0","pricing_plan_id":"cebpf4jnsgd1na2vs0mg"},{"bike_id":"c5cba6d7-e282-4417-a818-5fc0802dcb08","system_id":"levelo_inurba_marseille","lat":43.33761,"lon":5.3745,"is_reserved":false,"is_disabled":false,"rental_uris":{"android":"levelo://app?vid=c5cba6d7-e282-4417-a818-5fc0802dcb08","ios":"levelo://app?vid=c5cba6d7-e282-4417-a818-5fc0802dcb08"},"vehicle_type_id":"4","last_reported":1757801267,"current_range_meters":14000,"station_id":"","pricing_plan_id":"cebpf4jnsgd1na2vs0mg"},{"bike_id":"7108a4a4-23a1-4ea2-a599-54c778559313","system_id":"levelo_inurba_marseille","lat":43.26227,"lon":5.40461,"is_reserved":false,"is_disabled":false,"rental_uris":{"android":"levelo://app?vid=7108a4a4-23a1-4ea2-a599-54c778559313","ios":"levelo://app?vid=7108a4a4-23a1-4ea2-a599-54c778559313"},"vehicle_type_id":"4","last_reported":1757801267,"current_range_meters":14000,"station_id":"ce4bhmh2rcd13ifvqgmg","pricing_plan_id":"cebpf4jnsgd1na2vs0mg"},{"bike_id":"c3a99344-522f-4e4d-88cb-428e9b6723f2","system_id":"levelo_inurba_marseille","lat":43.28962,"lon":5.36418,"is_reserved":false,"is_disabled":false,"rental_uris":{"android":"levelo://app?vid=c3a99344-522f-4e4d-88cb-428e9b6723f2","ios":"levelo://app?vid=c3a99344-522f-4e4d-88cb-428e9b6723f2"},"vehicle_type_id":"4","last_reported":1757801267,"current_range_meters":14000,"station_id":"ce4bhc92rcd13ifvqetg","pricing_plan_id":"cebpf4jnsgd1na2vs0mg"},{"bike_id":"e7a329bd-ed66-4ac7-aaba-63f2810ddd86","system_id":"levelo_inurba_marseille","lat":43.31917,"lon":5.37203,"is_reserved":false,"is_disabled":false,"rental_uris":{"android":"levelo://app?vid=e7a329bd-ed66-4ac7-aaba-63f2810ddd86","ios":"levelo://app?vid=e7a329bd-ed66-4ac7-aaba-63f2810ddd86"},"vehicle_type_id":"4","last_reported":1757801267,"current_range_meters":14400,"station_id":"","pricing_plan_id":"cebpf4jnsgd1na2vs0mg"},{"bike_id":"12b9c958-ee1d-4a7e-b063-6648532a7910","system_id":"levelo_inurba_marseille","lat":43.30427,"lon":5.41287,"is_reserved":false,"is_disabled":false,"rental_uris":{"android":"levelo://app?vid=12b9c958-ee1d-4a7e-b063-6648532a7910","ios":"levelo://app?vid=12b9c958-ee1d-4a7e-b063-6648532a7910"},"vehicle_type_id":"4","last_reported":1757801267,"current_range_meters":14400,"station_id":"ce4bhop2rcd13ifvqh8g","pricing_plan_id":"cebpf4jnsgd1na2vs0mg"},{"bike_id":"3edab8b5-08ab-4bd7-a8e3-46e14fec2b69","system_id":"levelo_inurba_marseille","lat":43.22577,"lon":5.4162,"is_reserved":false,"is_disabled":false,"rental_uris":{"android":"levelo://app?vid=3edab8b5-08ab-4bd7-a8e3-46e14fec2b69","ios":"levelo://app?vid=3edab8b5-08ab-4bd7-a8e3-46e14fec2b69"},"vehicle_type_id":"4","last_reported":1757801267,"current_range_meters":14400,"station_id":"st_d2o4gvlbi1j2169b742g","pricing_plan_id":"cebpf4jnsgd1na2vs0mg"},{"bike_id":"1fd0839a-5871-4f14-8b02-5a5126ced4cd","system_id":"levelo_inurba_marseille","lat":43.231896,"lon":5.399874,"is_reserved":false,"is_disabled":false,"rental_uris":{"android":"levelo://app?vid=1fd0839a-5871-4f14-8b02-5a5126ced4cd","ios":"levelo://app?vid=1fd0839a-5871-4f14-8b02-5a5126ced4cd"},"vehicle_type_id":"4","last_reported":1757801267,"current_range_meters":14400,"station_id":"ce4bhn12rcd13ifvqgqg","pricing_plan_id":"cebpf4jnsgd1na2vs0mg"},{"bike_id":"9b511ded-4510-417f-ace2-ce489ad3687e","system_id":"levelo_inurba_marseille","lat":43.27939,"lon":5.41044,"is_reserved":false,"is_disabled":false,"rental_uris":{"android":"levelo://app?vid=9b511ded-4510-417f-ace2-ce489ad3687e","ios":"levelo://app?vid=9b511ded-4510-417f-ace2-ce489ad3687e"},"vehicle_type_id":"4","last_reported":1757801267,"current_range_meters":14400,"station_id":"ce4bhnp2rcd13ifvqh0g","pricing_plan_id":"cebpf4jnsgd1na2vs0mg"},{"bike_id":"31f4578e-18c6-48fb-9fec-123fce0578f9","system_id":"levelo_inurba_marseille","lat":43.30418,"lon":5.37908,"is_reserved":false,"is_disabled":false,"rental_uris":{"android":"levelo://app?vid=31f4578e-18c6-48fb-9fec-123fce0578f9","ios":"levelo://app?vid=31f4578e-18c6-48fb-9fec-123fce0578f9"},"vehicle_type_id":"4","last_reported":1757801267,"current_range_meters":14400,"station_id":"","pricing_plan_id":"cebpf4jnsgd1na2vs0mg"},{"bike_id":"c682ef70-00bc-4415-9b10-9a35bd5ddcc1","system_id":"levelo_inurba_marseille","lat":43.274929,"lon":5.424533,"is_reserved":false,"is_disabled":false,"rental_uris":{"android":"levelo://app?vid=c682ef70-00bc-4415-9b10-9a35bd5ddcc1","ios":"levelo://app?vid=c682ef70-00bc-4415-9b10-9a35bd5ddcc1"},"vehicle_type_id":"4","last_reported":1757801267,"current_range_meters":14800,"station_id":"ce4bhn92rcd13ifvqgrg","pricing_plan_id":"cebpf4jnsgd1na2vs0mg"},{"bike_id":"4d5d3a06-0cad-4430-a2e8-7ebfca2d588e","system_id":"levelo_inurba_marseille","lat":43.32666,"lon":5.40976,"is_reserved":false,"is_disabled":false,"rental_uris":{"android":"levelo://app?vid=4d5d3a06-0cad-4430-a2e8-7ebfca2d588e","ios":"levelo://app?vid=4d5d3a06-0cad-4430-a2e8-7ebfca2d588e"},"vehicle_type_id":"4","last_reported":1757801267,"current_range_meters":14800,"station_id":"ce4bhpp2rcd13ifvqhgg","pricing_plan_id":"cebpf4jnsgd1na2vs0mg"},{"bike_id":"0418ed23-d4c6-49db-b310-d4f985bd3bc3","system_id":"levelo_inurba_marseille","lat":43.321097,"lon":5.367737,"is_reserved":false,"is_disabled":false,"rental_uris":{"android":"levelo://app?vid=0418ed23-d4c6-49db-b310-d4f985bd3bc3","ios":"levelo://app?vid=0418ed23-d4c6-49db-b310-d4f985bd3bc3"},"vehicle_type_id":"4","last_reported":1757801267,"current_range_meters":14800,"station_id":"ce4bhrh2rcd13ifvqhug","pricing_plan_id":"cebpf4jnsgd1na2vs0mg"},{"bike_id":"acf73a32-2a24-4c4c-ab4d-3a2f20d1ea3a","system_id":"levelo_inurba_marseille","lat":43.27959,"lon":5.41048,"is_reserved":false,"is_disabled":false,"rental_uris":{"android":"levelo://app?vid=acf73a32-2a24-4c4c-ab4d-3a2f20d1ea3a","ios":"levelo://app?vid=acf73a32-2a24-4c4c-ab4d-3a2f20d1ea3a"},"vehicle_type_id":"4","last_reported":1757801267,"current_range_meters":14800,"station_id":"ce4bhnp2rcd13ifvqh0g","pricing_plan_id":"cebpf4jnsgd1na2vs0mg"},{"bike_id":"faea29e1-5c2e-4f80-843c-260e9849d9e7","system_id":"levelo_inurba_marseille","lat":43.281295,"lon":5.404997,"is_reserved":false,"is_disabled":false,"rental_uris":{"android":"levelo://app?vid=faea29e1-5c2e-4f80-843c-260e9849d9e7","ios":"levelo://app?vid=faea29e1-5c2e-4f80-843c-260e9849d9e7"},"vehicle_type_id":"4","last_reported":1757801267,"current_range_meters":14800,"station_id":"ce4bhnp2rcd13ifvqh0g","pricing_plan_id":"cebpf4jnsgd1na2vs0mg"},{"bike_id":"eb6388e2-4db9-4044-8ff3-82182642633a","system_id":"levelo_inurba_marseille","lat":43.23189,"lon":5.39986,"is_reserved":false,"is_disabled":false,"rental_uris":{"android":"levelo://app?vid=eb6388e2-4db9-4044-8ff3-82182642633a","ios":"levelo://app?vid=eb6388e2-4db9-4044-8ff3-82182642633a"},"vehicle_type_id":"4","last_reported":1757801267,"current_range_meters":14800,"station_id":"ce4bhn12rcd13ifvqgqg","pricing_plan_id":"cebpf4jnsgd1na2vs0mg"},{"bike_id":"c5a417ca-f819-44c2-9026-b312d259b072","system_id":"levelo_inurba_marseille","lat":43.231806,"lon":5.39989,"is_reserved":false,"is_disabled":false,"rental_uris":{"android":"levelo://app?vid=c5a417ca-f819-44c2-9026-b312d259b072","ios":"levelo://app?vid=c5a417ca-f819-44c2-9026-b312d259b072"},"vehicle_type_id":"4","last_reported":1757801267,"current_range_meters":14800,"station_id":"ce4bhn12rcd13ifvqgqg","pricing_plan_id":"cebpf4jnsgd1na2vs0mg"},{"bike_id":"9613ee4d-bd84-40ec-a183-9abb4af6a1b6","system_id":"levelo_inurba_marseille","lat":43.32369,"lon":5.36735,"is_reserved":false,"is_disabled":false,"rental_uris":{"android":"levelo://app?vid=9613ee4d-bd84-40ec-a183-9abb4af6a1b6","ios":"levelo://app?vid=9613ee4d-bd84-40ec-a183-9abb4af6a1b6"},"vehicle_type_id":"4","last_reported":1757801267,"current_range_meters":14800,"station_id":"ce4bhsh2rcd13ifvqi2g","pricing_plan_id":"cebpf4jnsgd1na2vs0mg"},{"bike_id":"d16230ff-2955-426b-a6aa-84f8e2e13648","system_id":"levelo_inurba_marseille","lat":43.28867,"lon":5.42522,"is_reserved":false,"is_disabled":false,"rental_uris":{"android":"levelo://app?vid=d16230ff-2955-426b-a6aa-84f8e2e13648","ios":"levelo://app?vid=d16230ff-2955-426b-a6aa-84f8e2e13648"},"vehicle_type_id":"4","last_reported":1757801267,"current_range_meters":14800,"station_id":"","pricing_plan_id":"cebpf4jnsgd1na2vs0mg"},{"bike_id":"379b11ff-5451-4d91-b506-5b6254405fd8","system_id":"levelo_inurba_marseille","lat":43.31073,"lon":5.38347,"is_reserved":false,"is_disabled":false,"rental_uris":{"android":"levelo://app?vid=379b11ff-5451-4d91-b506-5b6254405fd8","ios":"levelo://app?vid=379b11ff-5451-4d91-b506-5b6254405fd8"},"vehicle_type_id":"4","last_reported":1757801267,"current_range_meters":15200,"station_id":"ce4bgv92rcd13ifvqcr0","pricing_plan_id":"cebpf4jnsgd1na2vs0mg"},{"bike_id":"67931cda-2afa-4238-aa0f-12884538c2a1","system_id":"levelo_inurba_marseille","lat":43.295763,"lon":5.37525,"is_reserved":false,"is_disabled":false,"rental_uris":{"android":"levelo://app?vid=67931cda-2afa-4238-aa0f-12884538c2a1","ios":"levelo://app?vid=67931cda-2afa-4238-aa0f-12884538c2a1"},"vehicle_type_id":"4","last_reported":1757801267,"current_range_meters":15200,"station_id":"ce4bgh92rcd13ifvqb50","pricing_plan_id":"cebpf4jnsgd1na2vs0mg"},{"bike_id":"fcb57a89-2465-4424-8a01-03f702c794d8","system_id":"levelo_inurba_marseille","lat":43.2991,"lon":5.38129,"is_reserved":false,"is_disabled":false,"rental_uris":{"android":"levelo://app?vid=fcb57a89-2465-4424-8a01-03f702c794d8","ios":"levelo://app?vid=fcb57a89-2465-4424-8a01-03f702c794d8"},"vehicle_type_id":"4","last_reported":1757801267,"current_range_meters":15200,"station_id":"ce4bgj12rcd13ifvqbc0","pricing_plan_id":"cebpf4jnsgd1na2vs0mg"},{"bike_id":"3bc338fd-b3c5-4caa-b6e6-3c70a52689ba","system_id":"levelo_inurba_marseille","lat":43.31612,"lon":5.38941,"is_reserved":false,"is_disabled":false,"rental_uris":{"android":"levelo://app?vid=3bc338fd-b3c5-4caa-b6e6-3c70a52689ba","ios":"levelo://app?vid=3bc338fd-b3c5-4caa-b6e6-3c70a52689ba"},"vehicle_type_id":"4","last_reported":1757801267,"current_range_meters":15200,"station_id":"","pricing_plan_id":"cebpf4jnsgd1na2vs0mg"},{"bike_id":"1fa9cf8a-cbc2-4f66-a5af-49139eedcffa","system_id":"levelo_inurba_marseille","lat":43.3169,"lon":5.40478,"is_reserved":false,"is_disabled":false,"rental_uris":{"android":"levelo://app?vid=1fa9cf8a-cbc2-4f66-a5af-49139eedcffa","ios":"levelo://app?vid=1fa9cf8a-cbc2-4f66-a5af-49139eedcffa"},"vehicle_type_id":"4","last_reported":1757801267,"current_range_meters":16000,"station_id":"ce4bh012rcd13ifvqd00","pricing_plan_id":"cebpf4jnsgd1na2vs0mg"},{"bike_id":"ffab450d-4c81-4d44-8256-678a72cf8297","system_id":"levelo_inurba_marseille","lat":43.31696,"lon":5.40482,"is_reserved":false,"is_disabled":false,"rental_uris":{"android":"levelo://app?vid=ffab450d-4c81-4d44-8256-678a72cf8297","ios":"levelo://app?vid=ffab450d-4c81-4d44-8256-678a72cf8297"},"vehicle_type_id":"4","last_reported":1757801267,"current_range_meters":16000,"station_id":"ce4bh012rcd13ifvqd00","pricing_plan_id":"cebpf4jnsgd1na2vs0mg"},{"bike_id":"6488c0e2-f86d-4335-ab09-7d6138ab5514","system_id":"levelo_inurba_marseille","lat":43.29284,"lon":5.40115,"is_reserved":false,"is_disabled":false,"rental_uris":{"android":"levelo://app?vid=6488c0e2-f86d-4335-ab09-7d6138ab5514","ios":"levelo://app?vid=6488c0e2-f86d-4335-ab09-7d6138ab5514"},"vehicle_type_id":"4","last_reported":1757801267,"current_range_meters":16000,"station_id":"ce4bh312rcd13ifvqdk0","pricing_plan_id":"cebpf4jnsgd1na2vs0mg"},{"bike_id":"76044b47-22ff-4054-b180-0d72b52b8bee","system_id":"levelo_inurba_marseille","lat":43.24648,"lon":5.43136,"is_reserved":false,"is_disabled":false,"rental_uris":{"android":"levelo://app?vid=76044b47-22ff-4054-b180-0d72b52b8bee","ios":"levelo://app?vid=76044b47-22ff-4054-b180-0d72b52b8bee"},"vehicle_type_id":"4","last_reported":1757801267,"current_range_meters":16000,"station_id":"st_d2m6c4gdas8pm72e190g","pricing_plan_id":"cebpf4jnsgd1na2vs0mg"},{"bike_id":"654df5a8-46fd-4bb1-a78c-219e858dd01e","system_id":"levelo_inurba_marseille","lat":43.28877,"lon":5.36641,"is_reserved":false,"is_disabled":false,"rental_uris":{"android":"levelo://app?vid=654df5a8-46fd-4bb1-a78c-219e858dd01e","ios":"levelo://app?vid=654df5a8-46fd-4bb1-a78c-219e858dd01e"},"vehicle_type_id":"4","last_reported":1757801267,"current_range_meters":16000,"station_id":"ce4bhap2rcd13ifvqek0","pricing_plan_id":"cebpf4jnsgd1na2vs0mg"},{"bike_id":"80ceb157-0310-4e0c-8f74-2038636b6e24","system_id":"levelo_inurba_marseille","lat":43.23962,"lon":5.36643,"is_reserved":false,"is_disabled":false,"rental_uris":{"android":"levelo://app?vid=80ceb157-0310-4e0c-8f74-2038636b6e24","ios":"levelo://app?vid=80ceb157-0310-4e0c-8f74-2038636b6e24"},"vehicle_type_id":"4","last_reported":1757801267,"current_range_meters":16000,"station_id":"ce4bhi12rcd13ifvqfp0","pricing_plan_id":"cebpf4jnsgd1na2vs0mg"},{"bike_id":"95460cbd-17ab-4565-982a-640d24ee3c43","system_id":"levelo_inurba_marseille","lat":43.24807,"lon":5.37455,"is_reserved":false,"is_disabled":false,"rental_uris":{"android":"levelo://app?vid=95460cbd-17ab-4565-982a-640d24ee3c43","ios":"levelo://app?vid=95460cbd-17ab-4565-982a-640d24ee3c43"},"vehicle_type_id":"4","last_reported":1757801267,"current_range_meters":16000,"station_id":"ce4bhgh2rcd13ifvqfb0","pricing_plan_id":"cebpf4jnsgd1na2vs0mg"},{"bike_id":"085d1fc3-832e-4bb8-9dab-596c869e48fd","system_id":"levelo_inurba_marseille","lat":43.28216,"lon":5.39048,"is_reserved":false,"is_disabled":false,"rental_uris":{"android":"levelo://app?vid=085d1fc3-832e-4bb8-9dab-596c869e48fd","ios":"levelo://app?vid=085d1fc3-832e-4bb8-9dab-596c869e48fd"},"vehicle_type_id":"4","last_reported":1757801267,"current_range_meters":16400,"station_id":"ce4bhn92rcd13ifvqgsg","pricing_plan_id":"cebpf4jnsgd1na2vs0mg"},{"bike_id":"5476d906-b0c2-4d37-81e0-6fc56d7abe48","system_id":"levelo_inurba_marseille","lat":43.31715,"lon":5.37659,"is_reserved":false,"is_disabled":false,"rental_uris":{"android":"levelo://app?vid=5476d906-b0c2-4d37-81e0-6fc56d7abe48","ios":"levelo://app?vid=5476d906-b0c2-4d37-81e0-6fc56d7abe48"},"vehicle_type_id":"4","last_reported":1757801267,"current_range_meters":16400,"station_id":"","pricing_plan_id":"cebpf4jnsgd1na2vs0mg"},{"bike_id":"6568c71f-a4f1-489b-9945-19e914406612","system_id":"levelo_inurba_marseille","lat":43.25861,"lon":5.39896,"is_reserved":false,"is_disabled":false,"rental_uris":{"android":"levelo://app?vid=6568c71f-a4f1-489b-9945-19e914406612","ios":"levelo://app?vid=6568c71f-a4f1-489b-9945-19e914406612"},"vehicle_type_id":"4","last_reported":1757801267,"current_range_meters":16400,"station_id":"ce4bhl92rcd13ifvqghg","pricing_plan_id":"cebpf4jnsgd1na2vs0mg"},{"bike_id":"2f3eaba9-3f91-4a26-a414-0c3425ac3531","system_id":"levelo_inurba_marseille","lat":43.30146,"lon":5.39877,"is_reserved":false,"is_disabled":false,"rental_uris":{"android":"levelo://app?vid=2f3eaba9-3f91-4a26-a414-0c3425ac3531","ios":"levelo://app?vid=2f3eaba9-3f91-4a26-a414-0c3425ac3531"},"vehicle_type_id":"4","last_reported":1757801267,"current_range_meters":16400,"station_id":"","pricing_plan_id":"cebpf4jnsgd1na2vs0mg"},{"bike_id":"0db1212c-b38c-47f5-8e41-37749d8fc729","system_id":"levelo_inurba_marseille","lat":43.2899,"lon":5.38665,"is_reserved":false,"is_disabled":false,"rental_uris":{"android":"levelo://app?vid=0db1212c-b38c-47f5-8e41-37749d8fc729","ios":"levelo://app?vid=0db1212c-b38c-47f5-8e41-37749d8fc729"},"vehicle_type_id":"4","last_reported":1757801267,"current_range_meters":16400,"station_id":"","pricing_plan_id":"cebpf4jnsgd1na2vs0mg"},{"bike_id":"c75bfa20-483b-42f7-8a25-5f10e08a57b0","system_id":"levelo_inurba_marseille","lat":43.32216,"lon":5.36692,"is_reserved":false,"is_disabled":false,"rental_uris":{"android":"levelo://app?vid=c75bfa20-483b-42f7-8a25-5f10e08a57b0","ios":"levelo://app?vid=c75bfa20-483b-42f7-8a25-5f10e08a57b0"},"vehicle_type_id":"4","last_reported":1757801267,"current_range_meters":16400,"station_id":"","pricing_plan_id":"cebpf4jnsgd1na2vs0mg"},{"bike_id":"8531afdb-32d4-4c53-8b7d-1730982d0eec","system_id":"levelo_inurba_marseille","lat":43.21754,"lon":5.346,"is_reserved":false,"is_disabled":false,"rental_uris":{"android":"levelo://app?vid=8531afdb-32d4-4c53-8b7d-1730982d0eec","ios":"levelo://app?vid=8531afdb-32d4-4c53-8b7d-1730982d0eec"},"vehicle_type_id":"4","last_reported":1757801267,"current_range_meters":16800,"station_id":"st_cvj6r9ubvosntc0bgbag","pricing_plan_id":"cebpf4jnsgd1na2vs0mg"},{"bike_id":"2500752c-16d5-4447-b628-690ad7fdd253","system_id":"levelo_inurba_marseille","lat":43.21767,"lon":5.34614,"is_reserved":false,"is_disabled":false,"rental_uris":{"android":"levelo://app?vid=2500752c-16d5-4447-b628-690ad7fdd253","ios":"levelo://app?vid=2500752c-16d5-4447-b628-690ad7fdd253"},"vehicle_type_id":"4","last_reported":1757801267,"current_range_meters":16800,"station_id":"st_cvj6r9ubvosntc0bgbag","pricing_plan_id":"cebpf4jnsgd1na2vs0mg"},{"bike_id":"75c9525d-ef79-49f4-81a6-4ff385fc5a93","system_id":"levelo_inurba_marseille","lat":43.26968,"lon":5.3863,"is_reserved":false,"is_disabled":false,"rental_uris":{"android":"levelo://app?vid=75c9525d-ef79-49f4-81a6-4ff385fc5a93","ios":"levelo://app?vid=75c9525d-ef79-49f4-81a6-4ff385fc5a93"},"vehicle_type_id":"4","last_reported":1757801267,"current_range_meters":16800,"station_id":"ce4bhh92rcd13ifvqfh0","pricing_plan_id":"cebpf4jnsgd1na2vs0mg"},{"bike_id":"8ab60a89-bd14-40d7-b359-020ea126cfef","system_id":"levelo_inurba_marseille","lat":43.32376,"lon":5.36757,"is_reserved":false,"is_disabled":false,"rental_uris":{"android":"levelo://app?vid=8ab60a89-bd14-40d7-b359-020ea126cfef","ios":"levelo://app?vid=8ab60a89-bd14-40d7-b359-020ea126cfef"},"vehicle_type_id":"4","last_reported":1757801267,"current_range_meters":16800,"station_id":"ce4bhsh2rcd13ifvqi2g","pricing_plan_id":"cebpf4jnsgd1na2vs0mg"},{"bike_id":"b37d21d9-2cea-4209-9cd1-8c6dacc037d6","system_id":"levelo_inurba_marseille","lat":43.31995,"lon":5.38144,"is_reserved":false,"is_disabled":false,"rental_uris":{"android":"levelo://app?vid=b37d21d9-2cea-4209-9cd1-8c6dacc037d6","ios":"levelo://app?vid=b37d21d9-2cea-4209-9cd1-8c6dacc037d6"},"vehicle_type_id":"4","last_reported":1757801267,"current_range_meters":16800,"station_id":"ce4bhr12rcd13ifvqhpg","pricing_plan_id":"cebpf4jnsgd1na2vs0mg"},{"bike_id":"d1835cb7-e899-4398-9f30-62c2e5129cec","system_id":"levelo_inurba_marseille","lat":43.30461,"lon":5.37907,"is_reserved":false,"is_disabled":false,"rental_uris":{"android":"levelo://app?vid=d1835cb7-e899-4398-9f30-62c2e5129cec","ios":"levelo://app?vid=d1835cb7-e899-4398-9f30-62c2e5129cec"},"vehicle_type_id":"4","last_reported":1757801267,"current_range_meters":17200,"station_id":"","pricing_plan_id":"cebpf4jnsgd1na2vs0mg"},{"bike_id":"d9c4202c-de13-4428-8c40-40d90faf1618","system_id":"levelo_inurba_marseille","lat":43.31356,"lon":5.3707,"is_reserved":false,"is_disabled":false,"rental_uris":{"android":"levelo://app?vid=d9c4202c-de13-4428-8c40-40d90faf1618","ios":"levelo://app?vid=d9c4202c-de13-4428-8c40-40d90faf1618"},"vehicle_type_id":"4","last_reported":1757801267,"current_range_meters":17200,"station_id":"","pricing_plan_id":"cebpf4jnsgd1na2vs0mg"},{"bike_id":"0300ffac-6928-4d6e-b312-77d6d2614e64","system_id":"levelo_inurba_marseille","lat":43.29367,"lon":5.37826,"is_reserved":false,"is_disabled":false,"rental_uris":{"android":"levelo://app?vid=0300ffac-6928-4d6e-b312-77d6d2614e64","ios":"levelo://app?vid=0300ffac-6928-4d6e-b312-77d6d2614e64"},"vehicle_type_id":"4","last_reported":1757801267,"current_range_meters":17200,"station_id":"ce4bgjh2rcd13ifvqbf0","pricing_plan_id":"cebpf4jnsgd1na2vs0mg"},{"bike_id":"ef94e107-b5fd-44f7-a023-fb0854a2be56","system_id":"levelo_inurba_marseille","lat":43.28625,"lon":5.35088,"is_reserved":false,"is_disabled":false,"rental_uris":{"android":"levelo://app?vid=ef94e107-b5fd-44f7-a023-fb0854a2be56","ios":"levelo://app?vid=ef94e107-b5fd-44f7-a023-fb0854a2be56"},"vehicle_type_id":"4","last_reported":1757801267,"current_range_meters":17200,"station_id":"ce4bhch2rcd13ifvqeug","pricing_plan_id":"cebpf4jnsgd1na2vs0mg"},{"bike_id":"9b375725-f00a-4957-ace8-141249dff98f","system_id":"levelo_inurba_marseille","lat":43.29807,"lon":5.40403,"is_reserved":false,"is_disabled":false,"rental_uris":{"android":"levelo://app?vid=9b375725-f00a-4957-ace8-141249dff98f","ios":"levelo://app?vid=9b375725-f00a-4957-ace8-141249dff98f"},"vehicle_type_id":"4","last_reported":1757801267,"current_range_meters":17600,"station_id":"ce4bh112rcd13ifvqd90","pricing_plan_id":"cebpf4jnsgd1na2vs0mg"},{"bike_id":"84b56684-f6e8-402f-92ae-a14dec5b0703","system_id":"levelo_inurba_marseille","lat":43.28574,"lon":5.39497,"is_reserved":false,"is_disabled":false,"rental_uris":{"android":"levelo://app?vid=84b56684-f6e8-402f-92ae-a14dec5b0703","ios":"levelo://app?vid=84b56684-f6e8-402f-92ae-a14dec5b0703"},"vehicle_type_id":"4","last_reported":1757801267,"current_range_meters":17600,"station_id":"ce4bh292rcd13ifvqdg0","pricing_plan_id":"cebpf4jnsgd1na2vs0mg"},{"bike_id":"4d6e6605-7f16-44fa-a19a-c138ee7cb360","system_id":"levelo_inurba_marseille","lat":43.33799,"lon":5.37446,"is_reserved":false,"is_disabled":false,"rental_uris":{"android":"levelo://app?vid=4d6e6605-7f16-44fa-a19a-c138ee7cb360","ios":"levelo://app?vid=4d6e6605-7f16-44fa-a19a-c138ee7cb360"},"vehicle_type_id":"4","last_reported":1757801267,"current_range_meters":17600,"station_id":"","pricing_plan_id":"cebpf4jnsgd1na2vs0mg"},{"bike_id":"557537c1-5ff5-432b-b117-2a2e17734d6a","system_id":"levelo_inurba_marseille","lat":43.29263,"lon":5.40903,"is_reserved":false,"is_disabled":false,"rental_uris":{"android":"levelo://app?vid=557537c1-5ff5-432b-b117-2a2e17734d6a","ios":"levelo://app?vid=557537c1-5ff5-432b-b117-2a2e17734d6a"},"vehicle_type_id":"4","last_reported":1757801267,"current_range_meters":17600,"station_id":"ce4bh192rcd13ifvqdc0","pricing_plan_id":"cebpf4jnsgd1na2vs0mg"},{"bike_id":"8e3a9e83-812e-4b5d-8c7b-5119699e81be","system_id":"levelo_inurba_marseille","lat":43.31577,"lon":5.40573,"is_reserved":false,"is_disabled":false,"rental_uris":{"android":"levelo://app?vid=8e3a9e83-812e-4b5d-8c7b-5119699e81be","ios":"levelo://app?vid=8e3a9e83-812e-4b5d-8c7b-5119699e81be"},"vehicle_type_id":"4","last_reported":1757801267,"current_range_meters":17600,"station_id":"","pricing_plan_id":"cebpf4jnsgd1na2vs0mg"},{"bike_id":"e06d2e94-3ae2-4b4b-9d7e-05d3f806365a","system_id":"levelo_inurba_marseille","lat":43.25832,"lon":5.39438,"is_reserved":false,"is_disabled":false,"rental_uris":{"android":"levelo://app?vid=e06d2e94-3ae2-4b4b-9d7e-05d3f806365a","ios":"levelo://app?vid=e06d2e94-3ae2-4b4b-9d7e-05d3f806365a"},"vehicle_type_id":"4","last_reported":1757801267,"current_range_meters":17600,"station_id":"ce4bhip2rcd13ifvqft0","pricing_plan_id":"cebpf4jnsgd1na2vs0mg"},{"bike_id":"ba46a4b6-1b90-4c16-85ba-7e171043c85f","system_id":"levelo_inurba_marseille","lat":43.31722,"lon":5.43708,"is_reserved":false,"is_disabled":false,"rental_uris":{"android":"levelo://app?vid=ba46a4b6-1b90-4c16-85ba-7e171043c85f","ios":"levelo://app?vid=ba46a4b6-1b90-4c16-85ba-7e171043c85f"},"vehicle_type_id":"4","last_reported":1757801267,"current_range_meters":17600,"station_id":"ce4bhp92rcd13ifvqhcg","pricing_plan_id":"cebpf4jnsgd1na2vs0mg"},{"bike_id":"85830f5b-af01-4ca4-bb4f-8ea994897c61","system_id":"levelo_inurba_marseille","lat":43.30885,"lon":5.39651,"is_reserved":false,"is_disabled":false,"rental_uris":{"android":"levelo://app?vid=85830f5b-af01-4ca4-bb4f-8ea994897c61","ios":"levelo://app?vid=85830f5b-af01-4ca4-bb4f-8ea994897c61"},"vehicle_type_id":"4","last_reported":1757801267,"current_range_meters":18000,"station_id":"ce4bh012rcd13ifvqcv0","pricing_plan_id":"cebpf4jnsgd1na2vs0mg"},{"bike_id":"6e08fe94-e5e7-44e1-8a61-23b030122e1f","system_id":"levelo_inurba_marseille","lat":43.28355,"lon":5.38094,"is_reserved":false,"is_disabled":false,"rental_uris":{"android":"levelo://app?vid=6e08fe94-e5e7-44e1-8a61-23b030122e1f","ios":"levelo://app?vid=6e08fe94-e5e7-44e1-8a61-23b030122e1f"},"vehicle_type_id":"4","last_reported":1757801267,"current_range_meters":18000,"station_id":"ce4bh412rcd13ifvqdr0","pricing_plan_id":"cebpf4jnsgd1na2vs0mg"},{"bike_id":"75e7db24-f897-4b35-8b39-9345be8b7845","system_id":"levelo_inurba_marseille","lat":43.24824,"lon":5.37447,"is_reserved":false,"is_disabled":false,"rental_uris":{"android":"levelo://app?vid=75e7db24-f897-4b35-8b39-9345be8b7845","ios":"levelo://app?vid=75e7db24-f897-4b35-8b39-9345be8b7845"},"vehicle_type_id":"4","last_reported":1757801267,"current_range_meters":18000,"station_id":"ce4bhgh2rcd13ifvqfb0","pricing_plan_id":"cebpf4jnsgd1na2vs0mg"},{"bike_id":"ce88e275-e76f-4f30-bacb-8edbf4d10a80","system_id":"levelo_inurba_marseille","lat":43.33608,"lon":5.41029,"is_reserved":false,"is_disabled":false,"rental_uris":{"android":"levelo://app?vid=ce88e275-e76f-4f30-bacb-8edbf4d10a80","ios":"levelo://app?vid=ce88e275-e76f-4f30-bacb-8edbf4d10a80"},"vehicle_type_id":"4","last_reported":1757801267,"current_range_meters":18000,"station_id":"ce4bhqh2rcd13ifvqhmg","pricing_plan_id":"cebpf4jnsgd1na2vs0mg"},{"bike_id":"0e86bb32-32ee-4ee3-89d9-d69e86992199","system_id":"levelo_inurba_marseille","lat":43.31347,"lon":5.36709,"is_reserved":false,"is_disabled":false,"rental_uris":{"android":"levelo://app?vid=0e86bb32-32ee-4ee3-89d9-d69e86992199","ios":"levelo://app?vid=0e86bb32-32ee-4ee3-89d9-d69e86992199"},"vehicle_type_id":"4","last_reported":1757801267,"current_range_meters":18000,"station_id":"ce4bgr92rcd13ifvqc6g","pricing_plan_id":"cebpf4jnsgd1na2vs0mg"},{"bike_id":"d0a1739a-c22f-4203-9f71-a089f4b367e4","system_id":"levelo_inurba_marseille","lat":43.31974,"lon":5.38135,"is_reserved":false,"is_disabled":true,"rental_uris":{"android":"levelo://app?vid=d0a1739a-c22f-4203-9f71-a089f4b367e4","ios":"levelo://app?vid=d0a1739a-c22f-4203-9f71-a089f4b367e4"},"vehicle_type_id":"4","last_reported":1757801267,"current_range_meters":18800,"station_id":"ce4bhr12rcd13ifvqhpg","pricing_plan_id":"cebpf4jnsgd1na2vs0mg"},{"bike_id":"fb64495b-594a-489c-80d9-1d605cfa1325","system_id":"levelo_inurba_marseille","lat":43.31452,"lon":5.38522,"is_reserved":false,"is_disabled":false,"rental_uris":{"android":"levelo://app?vid=fb64495b-594a-489c-80d9-1d605cfa1325","ios":"levelo://app?vid=fb64495b-594a-489c-80d9-1d605cfa1325"},"vehicle_type_id":"4","last_reported":1757801267,"current_range_meters":18800,"station_id":"","pricing_plan_id":"cebpf4jnsgd1na2vs0mg"},{"bike_id":"e6107ec1-2f9e-4468-ad45-91788af5bbe6","system_id":"levelo_inurba_marseille","lat":43.28709,"lon":5.37385,"is_reserved":false,"is_disabled":false,"rental_uris":{"android":"levelo://app?vid=e6107ec1-2f9e-4468-ad45-91788af5bbe6","ios":"levelo://app?vid=e6107ec1-2f9e-4468-ad45-91788af5bbe6"},"vehicle_type_id":"4","last_reported":1757801267,"current_range_meters":18800,"station_id":"ce4bh3p2rcd13ifvqdq0","pricing_plan_id":"cebpf4jnsgd1na2vs0mg"},{"bike_id":"c79f98a5-b132-4d8b-b050-5e48074dc6fe","system_id":"levelo_inurba_marseille","lat":43.31696,"lon":5.40461,"is_reserved":false,"is_disabled":false,"rental_uris":{"android":"levelo://app?vid=c79f98a5-b132-4d8b-b050-5e48074dc6fe","ios":"levelo://app?vid=c79f98a5-b132-4d8b-b050-5e48074dc6fe"},"vehicle_type_id":"4","last_reported":1757801267,"current_range_meters":18800,"station_id":"ce4bh012rcd13ifvqd00","pricing_plan_id":"cebpf4jnsgd1na2vs0mg"},{"bike_id":"14e2496b-54f5-4a71-8a7b-f668d23f2674","system_id":"levelo_inurba_marseille","lat":43.25715,"lon":5.41113,"is_reserved":false,"is_disabled":false,"rental_uris":{"android":"levelo://app?vid=14e2496b-54f5-4a71-8a7b-f668d23f2674","ios":"levelo://app?vid=14e2496b-54f5-4a71-8a7b-f668d23f2674"},"vehicle_type_id":"4","last_reported":1757801267,"current_range_meters":18800,"station_id":"ce4bhkp2rcd13ifvqgd0","pricing_plan_id":"cebpf4jnsgd1na2vs0mg"},{"bike_id":"aab18e59-75e8-4668-8681-a9bc3040c93b","system_id":"levelo_inurba_marseille","lat":43.3137,"lon":5.38493,"is_reserved":false,"is_disabled":false,"rental_uris":{"android":"levelo://app?vid=aab18e59-75e8-4668-8681-a9bc3040c93b","ios":"levelo://app?vid=aab18e59-75e8-4668-8681-a9bc3040c93b"},"vehicle_type_id":"4","last_reported":1757801267,"current_range_meters":18800,"station_id":"ce4bgt92rcd13ifvqcf0","pricing_plan_id":"cebpf4jnsgd1na2vs0mg"},{"bike_id":"e6fa7d2b-58b5-484e-9a62-60fa1d286dc8","system_id":"levelo_inurba_marseille","lat":43.30156,"lon":5.38074,"is_reserved":false,"is_disabled":false,"rental_uris":{"android":"levelo://app?vid=e6fa7d2b-58b5-484e-9a62-60fa1d286dc8","ios":"levelo://app?vid=e6fa7d2b-58b5-484e-9a62-60fa1d286dc8"},"vehicle_type_id":"4","last_reported":1757801267,"current_range_meters":18800,"station_id":"ce4bgjp2rcd13ifvqbh0","pricing_plan_id":"cebpf4jnsgd1na2vs0mg"},{"bike_id":"16ef31c1-2e5b-4605-8b2a-c02c4f7600b2","system_id":"levelo_inurba_marseille","lat":43.24173,"lon":5.39749,"is_reserved":false,"is_disabled":false,"rental_uris":{"android":"levelo://app?vid=16ef31c1-2e5b-4605-8b2a-c02c4f7600b2","ios":"levelo://app?vid=16ef31c1-2e5b-4605-8b2a-c02c4f7600b2"},"vehicle_type_id":"4","last_reported":1757801267,"current_range_meters":18800,"station_id":"ce4bhn12rcd13ifvqgpg","pricing_plan_id":"cebpf4jnsgd1na2vs0mg"},{"bike_id":"4abcfd1f-d5ba-40bf-8216-a47803a52e59","system_id":"levelo_inurba_marseille","lat":43.24637,"lon":5.43141,"is_reserved":false,"is_disabled":false,"rental_uris":{"android":"levelo://app?vid=4abcfd1f-d5ba-40bf-8216-a47803a52e59","ios":"levelo://app?vid=4abcfd1f-d5ba-40bf-8216-a47803a52e59"},"vehicle_type_id":"4","last_reported":1757801267,"current_range_meters":18800,"station_id":"st_d2m6c4gdas8pm72e190g","pricing_plan_id":"cebpf4jnsgd1na2vs0mg"},{"bike_id":"b396b516-f74b-4bcc-8a26-7ebc584e55e5","system_id":"levelo_inurba_marseille","lat":43.23153,"lon":5.43712,"is_reserved":false,"is_disabled":false,"rental_uris":{"android":"levelo://app?vid=b396b516-f74b-4bcc-8a26-7ebc584e55e5","ios":"levelo://app?vid=b396b516-f74b-4bcc-8a26-7ebc584e55e5"},"vehicle_type_id":"4","last_reported":1757801267,"current_range_meters":19200,"station_id":"ce4bhmp2rcd13ifvqgog","pricing_plan_id":"cebpf4jnsgd1na2vs0mg"},{"bike_id":"950a5f0c-6122-4d8d-a42b-4763023d14f2","system_id":"levelo_inurba_marseille","lat":43.25494,"lon":5.37647,"is_reserved":false,"is_disabled":true,"rental_uris":{"android":"levelo://app?vid=950a5f0c-6122-4d8d-a42b-4763023d14f2","ios":"levelo://app?vid=950a5f0c-6122-4d8d-a42b-4763023d14f2"},"vehicle_type_id":"4","last_reported":1757801267,"current_range_meters":19200,"station_id":"ce4bhh12rcd13ifvqff0","pricing_plan_id":"cebpf4jnsgd1na2vs0mg"},{"bike_id":"c2d3632c-990c-4197-afd0-f548a8ca4536","system_id":"levelo_inurba_marseille","lat":43.31722,"lon":5.43673,"is_reserved":false,"is_disabled":false,"rental_uris":{"android":"levelo://app?vid=c2d3632c-990c-4197-afd0-f548a8ca4536","ios":"levelo://app?vid=c2d3632c-990c-4197-afd0-f548a8ca4536"},"vehicle_type_id":"4","last_reported":1757801267,"current_range_meters":19200,"station_id":"ce4bhp92rcd13ifvqhcg","pricing_plan_id":"cebpf4jnsgd1na2vs0mg"},{"bike_id":"b002a392-08fa-4b2e-b212-3e002cd96c5d","system_id":"levelo_inurba_marseille","lat":43.23981,"lon":5.36626,"is_reserved":false,"is_disabled":false,"rental_uris":{"android":"levelo://app?vid=b002a392-08fa-4b2e-b212-3e002cd96c5d","ios":"levelo://app?vid=b002a392-08fa-4b2e-b212-3e002cd96c5d"},"vehicle_type_id":"4","last_reported":1757801267,"current_range_meters":19200,"station_id":"ce4bhi12rcd13ifvqfp0","pricing_plan_id":"cebpf4jnsgd1na2vs0mg"},{"bike_id":"95251c11-6699-4aa0-8909-a444151e2dc9","system_id":"levelo_inurba_marseille","lat":43.23904,"lon":5.37958,"is_reserved":false,"is_disabled":false,"rental_uris":{"android":"levelo://app?vid=95251c11-6699-4aa0-8909-a444151e2dc9","ios":"levelo://app?vid=95251c11-6699-4aa0-8909-a444151e2dc9"},"vehicle_type_id":"4","last_reported":1757801267,"current_range_meters":19200,"station_id":"","pricing_plan_id":"cebpf4jnsgd1na2vs0mg"},{"bike_id":"b6e71227-cf24-477c-a6b4-dcaf891c7903","system_id":"levelo_inurba_marseille","lat":43.25607,"lon":5.38235,"is_reserved":false,"is_disabled":false,"rental_uris":{"android":"levelo://app?vid=b6e71227-cf24-477c-a6b4-dcaf891c7903","ios":"levelo://app?vid=b6e71227-cf24-477c-a6b4-dcaf891c7903"},"vehicle_type_id":"4","last_reported":1757801267,"current_range_meters":19200,"station_id":"ce4bhih2rcd13ifvqfs0","pricing_plan_id":"cebpf4jnsgd1na2vs0mg"},{"bike_id":"e73470b2-f46f-4f87-989f-53f8372e4317","system_id":"levelo_inurba_marseille","lat":43.33025,"lon":5.39385,"is_reserved":false,"is_disabled":false,"rental_uris":{"android":"levelo://app?vid=e73470b2-f46f-4f87-989f-53f8372e4317","ios":"levelo://app?vid=e73470b2-f46f-4f87-989f-53f8372e4317"},"vehicle_type_id":"4","last_reported":1757801267,"current_range_meters":19200,"station_id":"","pricing_plan_id":"cebpf4jnsgd1na2vs0mg"},{"bike_id":"3a30db7b-d1eb-42d4-9449-c377bfd998a0","system_id":"levelo_inurba_marseille","lat":43.3177,"lon":5.38988,"is_reserved":false,"is_disabled":false,"rental_uris":{"android":"levelo://app?vid=3a30db7b-d1eb-42d4-9449-c377bfd998a0","ios":"levelo://app?vid=3a30db7b-d1eb-42d4-9449-c377bfd998a0"},"vehicle_type_id":"4","last_reported":1757801267,"current_range_meters":19200,"station_id":"ce4bhqp2rcd13ifvqhng","pricing_plan_id":"cebpf4jnsgd1na2vs0mg"},{"bike_id":"e54a1e7f-72fe-4f72-999a-0b938621ab02","system_id":"levelo_inurba_marseille","lat":43.23158,"lon":5.43706,"is_reserved":false,"is_disabled":false,"rental_uris":{"android":"levelo://app?vid=e54a1e7f-72fe-4f72-999a-0b938621ab02","ios":"levelo://app?vid=e54a1e7f-72fe-4f72-999a-0b938621ab02"},"vehicle_type_id":"4","last_reported":1757801267,"current_range_meters":19200,"station_id":"ce4bhmp2rcd13ifvqgog","pricing_plan_id":"cebpf4jnsgd1na2vs0mg"},{"bike_id":"3970b1ae-b9ce-4046-bb45-e207423d2c07","system_id":"levelo_inurba_marseille","lat":43.24816,"lon":5.37451,"is_reserved":false,"is_disabled":false,"rental_uris":{"android":"levelo://app?vid=3970b1ae-b9ce-4046-bb45-e207423d2c07","ios":"levelo://app?vid=3970b1ae-b9ce-4046-bb45-e207423d2c07"},"vehicle_type_id":"4","last_reported":1757801267,"current_range_meters":19200,"station_id":"ce4bhgh2rcd13ifvqfb0","pricing_plan_id":"cebpf4jnsgd1na2vs0mg"},{"bike_id":"e684fe6c-171b-406d-bf61-1d0718677df1","system_id":"levelo_inurba_marseille","lat":43.30889,"lon":5.39653,"is_reserved":false,"is_disabled":false,"rental_uris":{"android":"levelo://app?vid=e684fe6c-171b-406d-bf61-1d0718677df1","ios":"levelo://app?vid=e684fe6c-171b-406d-bf61-1d0718677df1"},"vehicle_type_id":"4","last_reported":1757801267,"current_range_meters":19200,"station_id":"ce4bh012rcd13ifvqcv0","pricing_plan_id":"cebpf4jnsgd1na2vs0mg"},{"bike_id":"ed43e72d-36e8-4b15-8e00-06544f14ddf4","system_id":"levelo_inurba_marseille","lat":43.30616,"lon":5.37206,"is_reserved":false,"is_disabled":false,"rental_uris":{"android":"levelo://app?vid=ed43e72d-36e8-4b15-8e00-06544f14ddf4","ios":"levelo://app?vid=ed43e72d-36e8-4b15-8e00-06544f14ddf4"},"vehicle_type_id":"4","last_reported":1757801267,"current_range_meters":19200,"station_id":"ce4bgqh2rcd13ifvqc4g","pricing_plan_id":"cebpf4jnsgd1na2vs0mg"},{"bike_id":"d19d9979-4073-4ad7-9575-4b73fe3a9d3b","system_id":"levelo_inurba_marseille","lat":43.29205,"lon":5.39325,"is_reserved":false,"is_disabled":false,"rental_uris":{"android":"levelo://app?vid=d19d9979-4073-4ad7-9575-4b73fe3a9d3b","ios":"levelo://app?vid=d19d9979-4073-4ad7-9575-4b73fe3a9d3b"},"vehicle_type_id":"4","last_reported":1757801267,"current_range_meters":19600,"station_id":"ce4bh192rcd13ifvqdd0","pricing_plan_id":"cebpf4jnsgd1na2vs0mg"},{"bike_id":"2f3f8d43-a112-45e6-979c-f1c7564514ec","system_id":"levelo_inurba_marseille","lat":43.30458,"lon":5.379039,"is_reserved":false,"is_disabled":false,"rental_uris":{"android":"levelo://app?vid=2f3f8d43-a112-45e6-979c-f1c7564514ec","ios":"levelo://app?vid=2f3f8d43-a112-45e6-979c-f1c7564514ec"},"vehicle_type_id":"4","last_reported":1757801267,"current_range_meters":19600,"station_id":"ce4bgup2rcd13ifvqcn0","pricing_plan_id":"cebpf4jnsgd1na2vs0mg"},{"bike_id":"15c12f1b-150c-43be-9134-ac05fb9a1bef","system_id":"levelo_inurba_marseille","lat":43.290651,"lon":5.371583,"is_reserved":false,"is_disabled":true,"rental_uris":{"android":"levelo://app?vid=15c12f1b-150c-43be-9134-ac05fb9a1bef","ios":"levelo://app?vid=15c12f1b-150c-43be-9134-ac05fb9a1bef"},"vehicle_type_id":"4","last_reported":1757801267,"current_range_meters":19600,"station_id":"ce4bh5p2rcd13ifvqe4g","pricing_plan_id":"cebpf4jnsgd1na2vs0mg"},{"bike_id":"fc59cc99-c778-4d76-aabe-1a633232d6bf","system_id":"levelo_inurba_marseille","lat":43.24089,"lon":5.37754,"is_reserved":false,"is_disabled":false,"rental_uris":{"android":"levelo://app?vid=fc59cc99-c778-4d76-aabe-1a633232d6bf","ios":"levelo://app?vid=fc59cc99-c778-4d76-aabe-1a633232d6bf"},"vehicle_type_id":"4","last_reported":1757801267,"current_range_meters":19600,"station_id":"ce4bhnp2rcd13ifvqgvg","pricing_plan_id":"cebpf4jnsgd1na2vs0mg"},{"bike_id":"7a8906ba-d257-450e-913b-d7b4380843ca","system_id":"levelo_inurba_marseille","lat":43.28643,"lon":5.35105,"is_reserved":false,"is_disabled":false,"rental_uris":{"android":"levelo://app?vid=7a8906ba-d257-450e-913b-d7b4380843ca","ios":"levelo://app?vid=7a8906ba-d257-450e-913b-d7b4380843ca"},"vehicle_type_id":"4","last_reported":1757801267,"current_range_meters":19600,"station_id":"ce4bhch2rcd13ifvqeug","pricing_plan_id":"cebpf4jnsgd1na2vs0mg"},{"bike_id":"5a99ee1e-45f4-4641-890f-b103493481c0","system_id":"levelo_inurba_marseille","lat":43.31665,"lon":5.40497,"is_reserved":false,"is_disabled":false,"rental_uris":{"android":"levelo://app?vid=5a99ee1e-45f4-4641-890f-b103493481c0","ios":"levelo://app?vid=5a99ee1e-45f4-4641-890f-b103493481c0"},"vehicle_type_id":"4","last_reported":1757801267,"current_range_meters":19600,"station_id":"ce4bh012rcd13ifvqd00","pricing_plan_id":"cebpf4jnsgd1na2vs0mg"},{"bike_id":"c9f82b86-7ced-43c5-8bc4-fa83f1b9c33c","system_id":"levelo_inurba_marseille","lat":43.24673,"lon":5.38161,"is_reserved":false,"is_disabled":false,"rental_uris":{"android":"levelo://app?vid=c9f82b86-7ced-43c5-8bc4-fa83f1b9c33c","ios":"levelo://app?vid=c9f82b86-7ced-43c5-8bc4-fa83f1b9c33c"},"vehicle_type_id":"4","last_reported":1757801267,"current_range_meters":19600,"station_id":"ce4bhih2rcd13ifvqfr0","pricing_plan_id":"cebpf4jnsgd1na2vs0mg"},{"bike_id":"d218c5c8-561a-4a42-b2aa-19b6c9da74fb","system_id":"levelo_inurba_marseille","lat":43.31706,"lon":5.40468,"is_reserved":false,"is_disabled":false,"rental_uris":{"android":"levelo://app?vid=d218c5c8-561a-4a42-b2aa-19b6c9da74fb","ios":"levelo://app?vid=d218c5c8-561a-4a42-b2aa-19b6c9da74fb"},"vehicle_type_id":"4","last_reported":1757801267,"current_range_meters":19600,"station_id":"ce4bh012rcd13ifvqd00","pricing_plan_id":"cebpf4jnsgd1na2vs0mg"},{"bike_id":"777ff417-3a86-45a9-9277-be4920b499e5","system_id":"levelo_inurba_marseille","lat":43.24841,"lon":5.37432,"is_reserved":false,"is_disabled":false,"rental_uris":{"android":"levelo://app?vid=777ff417-3a86-45a9-9277-be4920b499e5","ios":"levelo://app?vid=777ff417-3a86-45a9-9277-be4920b499e5"},"vehicle_type_id":"4","last_reported":1757801267,"current_range_meters":19600,"station_id":"","pricing_plan_id":"cebpf4jnsgd1na2vs0mg"},{"bike_id":"d9a7c4bd-53f2-4cde-a7f4-552208dff846","system_id":"levelo_inurba_marseille","lat":43.25086,"lon":5.39509,"is_reserved":false,"is_disabled":false,"rental_uris":{"android":"levelo://app?vid=d9a7c4bd-53f2-4cde-a7f4-552208dff846","ios":"levelo://app?vid=d9a7c4bd-53f2-4cde-a7f4-552208dff846"},"vehicle_type_id":"4","last_reported":1757801267,"current_range_meters":19600,"station_id":"ce4bhm12rcd13ifvqgkg","pricing_plan_id":"cebpf4jnsgd1na2vs0mg"},{"bike_id":"2285a77d-e572-43a6-a219-f35b836d0546","system_id":"levelo_inurba_marseille","lat":43.28608,"lon":5.37063,"is_reserved":false,"is_disabled":false,"rental_uris":{"android":"levelo://app?vid=2285a77d-e572-43a6-a219-f35b836d0546","ios":"levelo://app?vid=2285a77d-e572-43a6-a219-f35b836d0546"},"vehicle_type_id":"4","last_reported":1757801267,"current_range_meters":19600,"station_id":"ce4bht12rcd13ifvqi60","pricing_plan_id":"cebpf4jnsgd1na2vs0mg"},{"bike_id":"762e62ba-2734-4025-8597-6a2e169b05d8","system_id":"levelo_inurba_marseille","lat":43.31092,"lon":5.37768,"is_reserved":false,"is_disabled":false,"rental_uris":{"android":"levelo://app?vid=762e62ba-2734-4025-8597-6a2e169b05d8","ios":"levelo://app?vid=762e62ba-2734-4025-8597-6a2e169b05d8"},"vehicle_type_id":"4","last_reported":1757801267,"current_range_meters":20000,"station_id":"ce4bgt92rcd13ifvqcg0","pricing_plan_id":"cebpf4jnsgd1na2vs0mg"},{"bike_id":"c522b571-f531-4a42-bfec-4bd9ad1cfe06","system_id":"levelo_inurba_marseille","lat":43.28857,"lon":5.35845,"is_reserved":false,"is_disabled":false,"rental_uris":{"android":"levelo://app?vid=c522b571-f531-4a42-bfec-4bd9ad1cfe06","ios":"levelo://app?vid=c522b571-f531-4a42-bfec-4bd9ad1cfe06"},"vehicle_type_id":"4","last_reported":1757801267,"current_range_meters":20000,"station_id":"ce4bhb12rcd13ifvqem0","pricing_plan_id":"cebpf4jnsgd1na2vs0mg"},{"bike_id":"175c8e73-b36d-466c-9a0e-cf702b6c036a","system_id":"levelo_inurba_marseille","lat":43.32385,"lon":5.38873,"is_reserved":false,"is_disabled":false,"rental_uris":{"android":"levelo://app?vid=175c8e73-b36d-466c-9a0e-cf702b6c036a","ios":"levelo://app?vid=175c8e73-b36d-466c-9a0e-cf702b6c036a"},"vehicle_type_id":"4","last_reported":1757801267,"current_range_meters":20000,"station_id":"ce4bhqp2rcd13ifvqhog","pricing_plan_id":"cebpf4jnsgd1na2vs0mg"},{"bike_id":"69d3b1e3-fe4c-4e62-a763-2cf00489c132","system_id":"levelo_inurba_marseille","lat":43.29294,"lon":5.40116,"is_reserved":false,"is_disabled":false,"rental_uris":{"android":"levelo://app?vid=69d3b1e3-fe4c-4e62-a763-2cf00489c132","ios":"levelo://app?vid=69d3b1e3-fe4c-4e62-a763-2cf00489c132"},"vehicle_type_id":"4","last_reported":1757801267,"current_range_meters":20000,"station_id":"ce4bh312rcd13ifvqdk0","pricing_plan_id":"cebpf4jnsgd1na2vs0mg"},{"bike_id":"a9e60db2-8d32-479f-8f95-3fceaf60eb63","system_id":"levelo_inurba_marseille","lat":43.292612,"lon":5.409124,"is_reserved":false,"is_disabled":false,"rental_uris":{"android":"levelo://app?vid=a9e60db2-8d32-479f-8f95-3fceaf60eb63","ios":"levelo://app?vid=a9e60db2-8d32-479f-8f95-3fceaf60eb63"},"vehicle_type_id":"4","last_reported":1757801267,"current_range_meters":20000,"station_id":"ce4bh192rcd13ifvqdc0","pricing_plan_id":"cebpf4jnsgd1na2vs0mg"},{"bike_id":"0bba1876-97de-4136-a6fe-cc9547e6fe55","system_id":"levelo_inurba_marseille","lat":43.29055,"lon":5.39977,"is_reserved":false,"is_disabled":true,"rental_uris":{"android":"levelo://app?vid=0bba1876-97de-4136-a6fe-cc9547e6fe55","ios":"levelo://app?vid=0bba1876-97de-4136-a6fe-cc9547e6fe55"},"vehicle_type_id":"4","last_reported":1757801267,"current_range_meters":20000,"station_id":"ce4bh392rcd13ifvqdm0","pricing_plan_id":"cebpf4jnsgd1na2vs0mg"},{"bike_id":"3f04ff50-ed3b-4de7-82cb-b7f0bf98a346","system_id":"levelo_inurba_marseille","lat":43.24836,"lon":5.37445,"is_reserved":false,"is_disabled":false,"rental_uris":{"android":"levelo://app?vid=3f04ff50-ed3b-4de7-82cb-b7f0bf98a346","ios":"levelo://app?vid=3f04ff50-ed3b-4de7-82cb-b7f0bf98a346"},"vehicle_type_id":"4","last_reported":1757801267,"current_range_meters":20400,"station_id":"","pricing_plan_id":"cebpf4jnsgd1na2vs0mg"},{"bike_id":"b0ab0859-f423-4140-863b-75f28e2bd622","system_id":"levelo_inurba_marseille","lat":43.32368,"lon":5.38881,"is_reserved":false,"is_disabled":false,"rental_uris":{"android":"levelo://app?vid=b0ab0859-f423-4140-863b-75f28e2bd622","ios":"levelo://app?vid=b0ab0859-f423-4140-863b-75f28e2bd622"},"vehicle_type_id":"4","last_reported":1757801267,"current_range_meters":20400,"station_id":"ce4bhqp2rcd13ifvqhog","pricing_plan_id":"cebpf4jnsgd1na2vs0mg"},{"bike_id":"ebc28d3f-48e0-4c19-84dd-0c3a04a1ca62","system_id":"levelo_inurba_marseille","lat":43.25847,"lon":5.39857,"is_reserved":false,"is_disabled":true,"rental_uris":{"android":"levelo://app?vid=ebc28d3f-48e0-4c19-84dd-0c3a04a1ca62","ios":"levelo://app?vid=ebc28d3f-48e0-4c19-84dd-0c3a04a1ca62"},"vehicle_type_id":"4","last_reported":1757801267,"current_range_meters":20400,"station_id":"ce4bhl92rcd13ifvqghg","pricing_plan_id":"cebpf4jnsgd1na2vs0mg"},{"bike_id":"322c1f5a-85db-4ef6-bcd4-1b5c417c8ee0","system_id":"levelo_inurba_marseille","lat":43.3377,"lon":5.37488,"is_reserved":false,"is_disabled":false,"rental_uris":{"android":"levelo://app?vid=322c1f5a-85db-4ef6-bcd4-1b5c417c8ee0","ios":"levelo://app?vid=322c1f5a-85db-4ef6-bcd4-1b5c417c8ee0"},"vehicle_type_id":"4","last_reported":1757801267,"current_range_meters":20400,"station_id":"","pricing_plan_id":"cebpf4jnsgd1na2vs0mg"},{"bike_id":"7d4a17e7-50b3-4f54-b98d-5ba8b8fae557","system_id":"levelo_inurba_marseille","lat":43.29201,"lon":5.3933,"is_reserved":false,"is_disabled":false,"rental_uris":{"android":"levelo://app?vid=7d4a17e7-50b3-4f54-b98d-5ba8b8fae557","ios":"levelo://app?vid=7d4a17e7-50b3-4f54-b98d-5ba8b8fae557"},"vehicle_type_id":"4","last_reported":1757801267,"current_range_meters":20400,"station_id":"ce4bh192rcd13ifvqdd0","pricing_plan_id":"cebpf4jnsgd1na2vs0mg"},{"bike_id":"7b161a2d-dc69-4afe-bae1-50be02c43729","system_id":"levelo_inurba_marseille","lat":43.33605,"lon":5.41028,"is_reserved":false,"is_disabled":false,"rental_uris":{"android":"levelo://app?vid=7b161a2d-dc69-4afe-bae1-50be02c43729","ios":"levelo://app?vid=7b161a2d-dc69-4afe-bae1-50be02c43729"},"vehicle_type_id":"4","last_reported":1757801267,"current_range_meters":20400,"station_id":"ce4bhqh2rcd13ifvqhmg","pricing_plan_id":"cebpf4jnsgd1na2vs0mg"},{"bike_id":"77250e8f-bfc8-49d8-b5bd-2735fcb34d57","system_id":"levelo_inurba_marseille","lat":43.29812,"lon":5.38184,"is_reserved":false,"is_disabled":false,"rental_uris":{"android":"levelo://app?vid=77250e8f-bfc8-49d8-b5bd-2735fcb34d57","ios":"levelo://app?vid=77250e8f-bfc8-49d8-b5bd-2735fcb34d57"},"vehicle_type_id":"4","last_reported":1757801267,"current_range_meters":20400,"station_id":"","pricing_plan_id":"cebpf4jnsgd1na2vs0mg"},{"bike_id":"7fc768e6-e314-4bf9-95ff-d049afd408a8","system_id":"levelo_inurba_marseille","lat":43.31067,"lon":5.38358,"is_reserved":false,"is_disabled":false,"rental_uris":{"android":"levelo://app?vid=7fc768e6-e314-4bf9-95ff-d049afd408a8","ios":"levelo://app?vid=7fc768e6-e314-4bf9-95ff-d049afd408a8"},"vehicle_type_id":"4","last_reported":1757801267,"current_range_meters":20400,"station_id":"ce4bgv92rcd13ifvqcr0","pricing_plan_id":"cebpf4jnsgd1na2vs0mg"},{"bike_id":"33ddbec5-b32a-4010-9268-ff1a4c3bc29f","system_id":"levelo_inurba_marseille","lat":43.26229,"lon":5.40451,"is_reserved":false,"is_disabled":false,"rental_uris":{"android":"levelo://app?vid=33ddbec5-b32a-4010-9268-ff1a4c3bc29f","ios":"levelo://app?vid=33ddbec5-b32a-4010-9268-ff1a4c3bc29f"},"vehicle_type_id":"4","last_reported":1757801267,"current_range_meters":20400,"station_id":"ce4bhmh2rcd13ifvqgmg","pricing_plan_id":"cebpf4jnsgd1na2vs0mg"},