{"last_updated":1774259543,"ttl":60,"version":"2.2","data":{"bikes":[{"bike_id":"d923587d-57b9-469a-9850-939c4afe7bba","system_id":"levelo_inurba_marseille","lat":43.29559,"lon":5.37503,"is_reserved":false,"is_disabled":false,"rental_uris":{"android":"levelo://app?vid=d923587d-57b9-469a-9850-939c4afe7bba","ios":"levelo://app?vid=d923587d-57b9-469a-9850-939c4afe7bba"},"vehicle_type_id":"4","last_reported":1774259543,"current_range_meters":2800,"station_id":"ce4bgh92rcd13ifvqb50","pricing_plan_id":"cebpf4jnsgd1na2vs0mg"},{"bike_id":"5487f2c1-c4a8-4daf-8490-88d7b84744cf","system_id":"levelo_inurba_marseille","lat":43.30302,"lon":5.36914,"is_reserved":false,"is_disabled":true,"rental_uris":{"android":"levelo://app?vid=5487f2c1-c4a8-4daf-8490-88d7b84744cf","ios":"levelo://app?vid=5487f2c1-c4a8-4daf-8490-88d7b84744cf"},"vehicle_type_id":"4","last_reported":1774259543,"current_range_meters":2800,"station_id":"ce4bgqh2rcd13ifvqc5g","pricing_plan_id":"cebpf4jnsgd1na2vs0mg"},{"bike_id":"9ac19f5a-2d91-49e2-9865-15d7ab4a9b38","system_id":"levelo_inurba_marseille","lat":43.23158,"lon":5.43721,"is_reserved":false,"is_disabled":false,"rental_uris":{"android":"levelo://app?vid=9ac19f5a-2d91-49e2-9865-15d7ab4a9b38","ios":"levelo://app?vid=9ac19f5a-2d91-49e2-9865-15d7ab4a9b38"},"vehicle_type_id":"4","last_reported":1774259543,"current_range_meters":2800,"station_id":"ce4bhmp2rcd13ifvqgog","pricing_plan_id":"cebpf4jnsgd1na2vs0mg"},{"bike_id":"40a9659e-1388-4837-adb3-788e41f31f89","system_id":"levelo_inurba_marseille","lat":43.25933,"lon":5.40886,"is_reserved":false,"is_disabled":false,"rental_uris":{"android":"levelo://app?vid=40a9659e-1388-4837-adb3-788e41f31f89","ios":"levelo://app?vid=40a9659e-1388-4837-adb3-788e41f31f89"},"vehicle_type_id":"4","last_reported":1774259543,"current_range_meters":2800,"station_id":"ce4bhm92rcd13ifvqglg","pricing_plan_id":"cebpf4jnsgd1na2vs0mg"},{"bike_id":"b84ed3d3-a1f2-4779-83a4-243d3e771c5d","system_id":"levelo_inurba_marseille","lat":43.28487,"lon":5.48392,"is_reserved":false,"is_disabled":false,"rental_uris":{"android":"levelo://app?vid=b84ed3d3-a1f2-4779-83a4-243d3e771c5d","ios":"levelo://app?vid=b84ed3d3-a1f2-4779-83a4-243d3e771c5d"},"vehicle_type_id":"4","last_reported":1774259543,"current_range_meters":2800,"station_id":"","pricing_plan_id":"cebpf4jnsgd1na2vs0mg"},{"bike_id":"2a95faca-d187-48cc-aa2a-ac67863a9ade","system_id":"levelo_inurba_marseille","lat":43.32136,"lon":5.36788,"is_reserved":false,"is_disabled":false,"rental_uris":{"android":"levelo://app?vid=2a95faca-d187-48cc-aa2a-ac67863a9ade","ios":"levelo://app?vid=2a95faca-d187-48cc-aa2a-ac67863a9ade"},"vehicle_type_id":"4","last_reported":1774259543,"current_range_meters":2800,"station_id":"ce4bhrh2rcd13ifvqhug","pricing_plan_id":"cebpf4jnsgd1na2vs0mg"},{"bike_id":"409b9423-1e52-4645-9748-8ec662e3a729","system_id":"levelo_inurba_marseille","lat":43.27224,"lon":5.39188,"is_reserved":false,"is_disabled":false,"rental_uris":{"android":"levelo://app?vid=409b9423-1e52-4645-9748-8ec662e3a729","ios":"levelo://app?vid=409b9423-1e52-4645-9748-8ec662e3a729"},"vehicle_type_id":"4","last_reported":1774259543,"current_range_meters":3200,"station_id":"ce4bhhp2rcd13ifvqfm0","pricing_plan_id":"cebpf4jnsgd1na2vs0mg"},{"bike_id":"8365a9e3-78e4-46f2-ab36-c01d0d656471","system_id":"levelo_inurba_marseille","lat":43.31499,"lon":5.37298,"is_reserved":false,"is_disabled":false,"rental_uris":{"android":"levelo://app?vid=8365a9e3-78e4-46f2-ab36-c01d0d656471","ios":"levelo://app?vid=8365a9e3-78e4-46f2-ab36-c01d0d656471"},"vehicle_type_id":"4","last_reported":1774259543,"current_range_meters":3200,"station_id":"ce4bgt12rcd13ifvqcd0","pricing_plan_id":"cebpf4jnsgd1na2vs0mg"},{"bike_id":"a4aa7422-2cdf-432a-9fe2-17bbe6006e36","system_id":"levelo_inurba_marseille","lat":43.25946,"lon":5.40889,"is_reserved":false,"is_disabled":false,"rental_uris":{"android":"levelo://app?vid=a4aa7422-2cdf-432a-9fe2-17bbe6006e36","ios":"levelo://app?vid=a4aa7422-2cdf-432a-9fe2-17bbe6006e36"},"vehicle_type_id":"4","last_reported":1774259543,"current_range_meters":3200,"station_id":"ce4bhm92rcd13ifvqglg","pricing_plan_id":"cebpf4jnsgd1na2vs0mg"},{"bike_id":"6c012d9f-7148-4e7c-9d03-ef4872115150","system_id":"levelo_inurba_marseille","lat":43.32579,"lon":5.37498,"is_reserved":false,"is_disabled":false,"rental_uris":{"android":"levelo://app?vid=6c012d9f-7148-4e7c-9d03-ef4872115150","ios":"levelo://app?vid=6c012d9f-7148-4e7c-9d03-ef4872115150"},"vehicle_type_id":"4","last_reported":1774259543,"current_range_meters":3200,"station_id":"","pricing_plan_id":"cebpf4jnsgd1na2vs0mg"},{"bike_id":"9fe250c2-5255-4b78-9351-e828815bc85d","system_id":"levelo_inurba_marseille","lat":43.21754,"lon":5.34601,"is_reserved":false,"is_disabled":false,"rental_uris":{"android":"levelo://app?vid=9fe250c2-5255-4b78-9351-e828815bc85d","ios":"levelo://app?vid=9fe250c2-5255-4b78-9351-e828815bc85d"},"vehicle_type_id":"4","last_reported":1774259543,"current_range_meters":3200,"station_id":"st_cvj6r9ubvosntc0bgbag","pricing_plan_id":"cebpf4jnsgd1na2vs0mg"},{"bike_id":"b74ca8d1-73b5-4326-86f3-ca099f3d3c7c","system_id":"levelo_inurba_marseille","lat":43.25576,"lon":5.38213,"is_reserved":false,"is_disabled":false,"rental_uris":{"android":"levelo://app?vid=b74ca8d1-73b5-4326-86f3-ca099f3d3c7c","ios":"levelo://app?vid=b74ca8d1-73b5-4326-86f3-ca099f3d3c7c"},"vehicle_type_id":"4","last_reported":1774259543,"current_range_meters":3200,"station_id":"ce4bhih2rcd13ifvqfs0","pricing_plan_id":"cebpf4jnsgd1na2vs0mg"},{"bike_id":"b115424b-c422-4c0c-8dc2-2058e36d95bf","system_id":"levelo_inurba_marseille","lat":43.30139,"lon":5.37414,"is_reserved":false,"is_disabled":false,"rental_uris":{"android":"levelo://app?vid=b115424b-c422-4c0c-8dc2-2058e36d95bf","ios":"levelo://app?vid=b115424b-c422-4c0c-8dc2-2058e36d95bf"},"vehicle_type_id":"4","last_reported":1774259543,"current_range_meters":3200,"station_id":"ce4bgs92rcd13ifvqcc0","pricing_plan_id":"cebpf4jnsgd1na2vs0mg"},{"bike_id":"a2c716b5-5ea8-433a-a645-09c193dba0e7","system_id":"levelo_inurba_marseille","lat":43.27379,"lon":5.36234,"is_reserved":false,"is_disabled":true,"rental_uris":{"android":"levelo://app?vid=a2c716b5-5ea8-433a-a645-09c193dba0e7","ios":"levelo://app?vid=a2c716b5-5ea8-433a-a645-09c193dba0e7"},"vehicle_type_id":"4","last_reported":1774259543,"current_range_meters":3600,"station_id":"ce4bhbh2rcd13ifvqeo0","pricing_plan_id":"cebpf4jnsgd1na2vs0mg"},{"bike_id":"51f131c4-ef31-4b4b-8c65-e146531127bd","system_id":"levelo_inurba_marseille","lat":43.2293,"lon":5.35386,"is_reserved":false,"is_disabled":false,"rental_uris":{"android":"levelo://app?vid=51f131c4-ef31-4b4b-8c65-e146531127bd","ios":"levelo://app?vid=51f131c4-ef31-4b4b-8c65-e146531127bd"},"vehicle_type_id":"4","last_reported":1774259543,"current_range_meters":3600,"station_id":"cpo3532slgdg3j2ikp40","pricing_plan_id":"cebpf4jnsgd1na2vs0mg"},{"bike_id":"4a08ea02-f339-41b8-9d8b-5268c800245e","system_id":"levelo_inurba_marseille","lat":43.24125,"lon":5.36833,"is_reserved":false,"is_disabled":false,"rental_uris":{"android":"levelo://app?vid=4a08ea02-f339-41b8-9d8b-5268c800245e","ios":"levelo://app?vid=4a08ea02-f339-41b8-9d8b-5268c800245e"},"vehicle_type_id":"4","last_reported":1774259543,"current_range_meters":3600,"station_id":"","pricing_plan_id":"cebpf4jnsgd1na2vs0mg"},{"bike_id":"be3c7827-08af-4504-95ed-25f44c48fdc4","system_id":"levelo_inurba_marseille","lat":43.25591,"lon":5.38256,"is_reserved":false,"is_disabled":false,"rental_uris":{"android":"levelo://app?vid=be3c7827-08af-4504-95ed-25f44c48fdc4","ios":"levelo://app?vid=be3c7827-08af-4504-95ed-25f44c48fdc4"},"vehicle_type_id":"4","last_reported":1774259543,"current_range_meters":3600,"station_id":"ce4bhih2rcd13ifvqfs0","pricing_plan_id":"cebpf4jnsgd1na2vs0mg"},{"bike_id":"deb4d43c-e639-4f91-a09a-8f7ec3cc3424","system_id":"levelo_inurba_marseille","lat":43.32092,"lon":5.36738,"is_reserved":false,"is_disabled":false,"rental_uris":{"android":"levelo://app?vid=deb4d43c-e639-4f91-a09a-8f7ec3cc3424","ios":"levelo://app?vid=deb4d43c-e639-4f91-a09a-8f7ec3cc3424"},"vehicle_type_id":"4","last_reported":1774259543,"current_range_meters":3600,"station_id":"ce4bhrh2rcd13ifvqhug","pricing_plan_id":"cebpf4jnsgd1na2vs0mg"},{"bike_id":"895b6d9a-f6b2-4744-8c30-184547b1b37e","system_id":"levelo_inurba_marseille","lat":43.28151,"lon":5.42641,"is_reserved":false,"is_disabled":false,"rental_uris":{"android":"levelo://app?vid=895b6d9a-f6b2-4744-8c30-184547b1b37e","ios":"levelo://app?vid=895b6d9a-f6b2-4744-8c30-184547b1b37e"},"vehicle_type_id":"4","last_reported":1774259543,"current_range_meters":4000,"station_id":"ce4bhnh2rcd13ifvqgug","pricing_plan_id":"cebpf4jnsgd1na2vs0mg"},{"bike_id":"05cba970-79c4-41f6-b1cb-52e36f228958","system_id":"levelo_inurba_marseille","lat":43.24181,"lon":5.36412,"is_reserved":false,"is_disabled":false,"rental_uris":{"android":"levelo://app?vid=05cba970-79c4-41f6-b1cb-52e36f228958","ios":"levelo://app?vid=05cba970-79c4-41f6-b1cb-52e36f228958"},"vehicle_type_id":"4","last_reported":1774259543,"current_range_meters":4000,"station_id":"cpo36qri1sfpv3e86is0","pricing_plan_id":"cebpf4jnsgd1na2vs0mg"},{"bike_id":"e84a625b-41e0-4533-82a4-cbfef9892d14","system_id":"levelo_inurba_marseille","lat":43.29308,"lon":5.36842,"is_reserved":false,"is_disabled":false,"rental_uris":{"android":"levelo://app?vid=e84a625b-41e0-4533-82a4-cbfef9892d14","ios":"levelo://app?vid=e84a625b-41e0-4533-82a4-cbfef9892d14"},"vehicle_type_id":"4","last_reported":1774259543,"current_range_meters":4000,"station_id":"ce4bhbp2rcd13ifvqesg","pricing_plan_id":"cebpf4jnsgd1na2vs0mg"},{"bike_id":"57d5ddfe-b0cd-49c8-aa47-fce2350232e5","system_id":"levelo_inurba_marseille","lat":43.23167,"lon":5.43702,"is_reserved":false,"is_disabled":false,"rental_uris":{"android":"levelo://app?vid=57d5ddfe-b0cd-49c8-aa47-fce2350232e5","ios":"levelo://app?vid=57d5ddfe-b0cd-49c8-aa47-fce2350232e5"},"vehicle_type_id":"4","last_reported":1774259543,"current_range_meters":4000,"station_id":"ce4bhmp2rcd13ifvqgog","pricing_plan_id":"cebpf4jnsgd1na2vs0mg"},{"bike_id":"259cfa92-d03c-4233-b3f1-e9c84b224ffe","system_id":"levelo_inurba_marseille","lat":43.25507,"lon":5.37654,"is_reserved":false,"is_disabled":false,"rental_uris":{"android":"levelo://app?vid=259cfa92-d03c-4233-b3f1-e9c84b224ffe","ios":"levelo://app?vid=259cfa92-d03c-4233-b3f1-e9c84b224ffe"},"vehicle_type_id":"4","last_reported":1774259543,"current_range_meters":4000,"station_id":"ce4bhh12rcd13ifvqff0","pricing_plan_id":"cebpf4jnsgd1na2vs0mg"},{"bike_id":"89884c11-0089-40c9-b4c8-cc026115fb44","system_id":"levelo_inurba_marseille","lat":43.2692,"lon":5.42063,"is_reserved":false,"is_disabled":false,"rental_uris":{"android":"levelo://app?vid=89884c11-0089-40c9-b4c8-cc026115fb44","ios":"levelo://app?vid=89884c11-0089-40c9-b4c8-cc026115fb44"},"vehicle_type_id":"4","last_reported":1774259543,"current_range_meters":4000,"station_id":"","pricing_plan_id":"cebpf4jnsgd1na2vs0mg"},{"bike_id":"100681a1-21de-4574-b388-62c1c3aa9a41","system_id":"levelo_inurba_marseille","lat":43.31167,"lon":5.38727,"is_reserved":false,"is_disabled":false,"rental_uris":{"android":"levelo://app?vid=100681a1-21de-4574-b388-62c1c3aa9a41","ios":"levelo://app?vid=100681a1-21de-4574-b388-62c1c3aa9a41"},"vehicle_type_id":"4","last_reported":1774259543,"current_range_meters":4000,"station_id":"ce4bgv12rcd13ifvqcp0","pricing_plan_id":"cebpf4jnsgd1na2vs0mg"},{"bike_id":"fe6a1d7b-3e85-40c8-be67-d894ed259894","system_id":"levelo_inurba_marseille","lat":43.25929,"lon":5.40902,"is_reserved":false,"is_disabled":false,"rental_uris":{"android":"levelo://app?vid=fe6a1d7b-3e85-40c8-be67-d894ed259894","ios":"levelo://app?vid=fe6a1d7b-3e85-40c8-be67-d894ed259894"},"vehicle_type_id":"4","last_reported":1774259543,"current_range_meters":4000,"station_id":"ce4bhm92rcd13ifvqglg","pricing_plan_id":"cebpf4jnsgd1na2vs0mg"},{"bike_id":"a46c1a3e-d474-4222-bd24-8cb832e27d76","system_id":"levelo_inurba_marseille","lat":43.29731,"lon":5.36431,"is_reserved":false,"is_disabled":false,"rental_uris":{"android":"levelo://app?vid=a46c1a3e-d474-4222-bd24-8cb832e27d76","ios":"levelo://app?vid=a46c1a3e-d474-4222-bd24-8cb832e27d76"},"vehicle_type_id":"4","last_reported":1774259543,"current_range_meters":4000,"station_id":"","pricing_plan_id":"cebpf4jnsgd1na2vs0mg"},{"bike_id":"31bd7248-6f7c-4307-a75e-2fde5d6d0a20","system_id":"levelo_inurba_marseille","lat":43.24187,"lon":5.39722,"is_reserved":false,"is_disabled":false,"rental_uris":{"android":"levelo://app?vid=31bd7248-6f7c-4307-a75e-2fde5d6d0a20","ios":"levelo://app?vid=31bd7248-6f7c-4307-a75e-2fde5d6d0a20"},"vehicle_type_id":"4","last_reported":1774259543,"current_range_meters":4400,"station_id":"ce4bhn12rcd13ifvqgpg","pricing_plan_id":"cebpf4jnsgd1na2vs0mg"},{"bike_id":"0f7c298a-a08e-4395-bfea-f985c0a19cba","system_id":"levelo_inurba_marseille","lat":43.23958,"lon":5.3664,"is_reserved":false,"is_disabled":true,"rental_uris":{"android":"levelo://app?vid=0f7c298a-a08e-4395-bfea-f985c0a19cba","ios":"levelo://app?vid=0f7c298a-a08e-4395-bfea-f985c0a19cba"},"vehicle_type_id":"4","last_reported":1774259543,"current_range_meters":4400,"station_id":"ce4bhi12rcd13ifvqfp0","pricing_plan_id":"cebpf4jnsgd1na2vs0mg"},{"bike_id":"ee3ff2c5-8eb9-460a-936f-029a2d3bd45f","system_id":"levelo_inurba_marseille","lat":43.28896,"lon":5.43344,"is_reserved":false,"is_disabled":false,"rental_uris":{"android":"levelo://app?vid=ee3ff2c5-8eb9-460a-936f-029a2d3bd45f","ios":"levelo://app?vid=ee3ff2c5-8eb9-460a-936f-029a2d3bd45f"},"vehicle_type_id":"4","last_reported":1774259543,"current_range_meters":4400,"station_id":"","pricing_plan_id":"cebpf4jnsgd1na2vs0mg"},{"bike_id":"01cfe32f-5b84-4dfe-b2cb-158eb4cdb5d6","system_id":"levelo_inurba_marseille","lat":43.24184,"lon":5.36382,"is_reserved":false,"is_disabled":false,"rental_uris":{"android":"levelo://app?vid=01cfe32f-5b84-4dfe-b2cb-158eb4cdb5d6","ios":"levelo://app?vid=01cfe32f-5b84-4dfe-b2cb-158eb4cdb5d6"},"vehicle_type_id":"4","last_reported":1774259543,"current_range_meters":4400,"station_id":"cpo36qri1sfpv3e86is0","pricing_plan_id":"cebpf4jnsgd1na2vs0mg"},{"bike_id":"00560f09-8ead-439c-a384-e1807bc0a84c","system_id":"levelo_inurba_marseille","lat":43.28478,"lon":5.48384,"is_reserved":false,"is_disabled":false,"rental_uris":{"android":"levelo://app?vid=00560f09-8ead-439c-a384-e1807bc0a84c","ios":"levelo://app?vid=00560f09-8ead-439c-a384-e1807bc0a84c"},"vehicle_type_id":"4","last_reported":1774259543,"current_range_meters":4400,"station_id":"","pricing_plan_id":"cebpf4jnsgd1na2vs0mg"},{"bike_id":"926980e7-6e9b-4c45-a007-9ac0bf89dc56","system_id":"levelo_inurba_marseille","lat":43.3157,"lon":5.44542,"is_reserved":false,"is_disabled":false,"rental_uris":{"android":"levelo://app?vid=926980e7-6e9b-4c45-a007-9ac0bf89dc56","ios":"levelo://app?vid=926980e7-6e9b-4c45-a007-9ac0bf89dc56"},"vehicle_type_id":"4","last_reported":1774259543,"current_range_meters":4400,"station_id":"","pricing_plan_id":"cebpf4jnsgd1na2vs0mg"},{"bike_id":"b07b35f6-6c38-4e4b-a09a-89a6e8c411c4","system_id":"levelo_inurba_marseille","lat":43.26678,"lon":5.38211,"is_reserved":false,"is_disabled":false,"rental_uris":{"android":"levelo://app?vid=b07b35f6-6c38-4e4b-a09a-89a6e8c411c4","ios":"levelo://app?vid=b07b35f6-6c38-4e4b-a09a-89a6e8c411c4"},"vehicle_type_id":"4","last_reported":1774259543,"current_range_meters":4400,"station_id":"ce4bhg92rcd13ifvqf90","pricing_plan_id":"cebpf4jnsgd1na2vs0mg"},{"bike_id":"b6268c65-bffd-4ff6-8ff4-f3366ef4aed7","system_id":"levelo_inurba_marseille","lat":43.29976,"lon":5.37158,"is_reserved":false,"is_disabled":false,"rental_uris":{"android":"levelo://app?vid=b6268c65-bffd-4ff6-8ff4-f3366ef4aed7","ios":"levelo://app?vid=b6268c65-bffd-4ff6-8ff4-f3366ef4aed7"},"vehicle_type_id":"4","last_reported":1774259543,"current_range_meters":4400,"station_id":"ce4bgr92rcd13ifvqc7g","pricing_plan_id":"cebpf4jnsgd1na2vs0mg"},{"bike_id":"08e2668f-4662-4e23-b00f-e4b6907f2fbe","system_id":"levelo_inurba_marseille","lat":43.32119,"lon":5.36775,"is_reserved":false,"is_disabled":false,"rental_uris":{"android":"levelo://app?vid=08e2668f-4662-4e23-b00f-e4b6907f2fbe","ios":"levelo://app?vid=08e2668f-4662-4e23-b00f-e4b6907f2fbe"},"vehicle_type_id":"4","last_reported":1774259543,"current_range_meters":4800,"station_id":"ce4bhrh2rcd13ifvqhug","pricing_plan_id":"cebpf4jnsgd1na2vs0mg"},{"bike_id":"b4391a28-ef69-456a-9daf-3a357aac299d","system_id":"levelo_inurba_marseille","lat":43.27965,"lon":5.41038,"is_reserved":false,"is_disabled":false,"rental_uris":{"android":"levelo://app?vid=b4391a28-ef69-456a-9daf-3a357aac299d","ios":"levelo://app?vid=b4391a28-ef69-456a-9daf-3a357aac299d"},"vehicle_type_id":"4","last_reported":1774259543,"current_range_meters":4800,"station_id":"ce4bhnp2rcd13ifvqh0g","pricing_plan_id":"cebpf4jnsgd1na2vs0mg"},{"bike_id":"6b9a049e-8215-4f2b-bde3-7b3338dba59e","system_id":"levelo_inurba_marseille","lat":43.23131,"lon":5.43687,"is_reserved":false,"is_disabled":false,"rental_uris":{"android":"levelo://app?vid=6b9a049e-8215-4f2b-bde3-7b3338dba59e","ios":"levelo://app?vid=6b9a049e-8215-4f2b-bde3-7b3338dba59e"},"vehicle_type_id":"4","last_reported":1774259543,"current_range_meters":4800,"station_id":"ce4bhmp2rcd13ifvqgog","pricing_plan_id":"cebpf4jnsgd1na2vs0mg"},{"bike_id":"1a1a7c55-ee9f-457e-9d2b-7662e3b1f44b","system_id":"levelo_inurba_marseille","lat":43.24628,"lon":5.435,"is_reserved":false,"is_disabled":true,"rental_uris":{"android":"levelo://app?vid=1a1a7c55-ee9f-457e-9d2b-7662e3b1f44b","ios":"levelo://app?vid=1a1a7c55-ee9f-457e-9d2b-7662e3b1f44b"},"vehicle_type_id":"4","last_reported":1774259543,"current_range_meters":5600,"station_id":"","pricing_plan_id":"cebpf4jnsgd1na2vs0mg"},{"bike_id":"25eb05d3-c1af-4697-9002-710802e7cc28","system_id":"levelo_inurba_marseille","lat":43.30539,"lon":5.3671,"is_reserved":false,"is_disabled":false,"rental_uris":{"android":"levelo://app?vid=25eb05d3-c1af-4697-9002-710802e7cc28","ios":"levelo://app?vid=25eb05d3-c1af-4697-9002-710802e7cc28"},"vehicle_type_id":"4","last_reported":1774259543,"current_range_meters":5600,"station_id":"ce4bgrp2rcd13ifvqc9g","pricing_plan_id":"cebpf4jnsgd1na2vs0mg"},{"bike_id":"ef11e25e-6a4b-4aa7-990e-95d6030e37f0","system_id":"levelo_inurba_marseille","lat":43.26497,"lon":5.39545,"is_reserved":false,"is_disabled":false,"rental_uris":{"android":"levelo://app?vid=ef11e25e-6a4b-4aa7-990e-95d6030e37f0","ios":"levelo://app?vid=ef11e25e-6a4b-4aa7-990e-95d6030e37f0"},"vehicle_type_id":"4","last_reported":1774259543,"current_range_meters":5600,"station_id":"ce4bhi12rcd13ifvqfq0","pricing_plan_id":"cebpf4jnsgd1na2vs0mg"},{"bike_id":"fa87ce26-5306-414f-98c9-1e3509ad90c0","system_id":"levelo_inurba_marseille","lat":43.24623,"lon":5.39313,"is_reserved":false,"is_disabled":false,"rental_uris":{"android":"levelo://app?vid=fa87ce26-5306-414f-98c9-1e3509ad90c0","ios":"levelo://app?vid=fa87ce26-5306-414f-98c9-1e3509ad90c0"},"vehicle_type_id":"4","last_reported":1774259543,"current_range_meters":5600,"station_id":"","pricing_plan_id":"cebpf4jnsgd1na2vs0mg"},{"bike_id":"661b2819-8097-434b-a0ea-67806e92a138","system_id":"levelo_inurba_marseille","lat":43.33553,"lon":5.37464,"is_reserved":false,"is_disabled":false,"rental_uris":{"android":"levelo://app?vid=661b2819-8097-434b-a0ea-67806e92a138","ios":"levelo://app?vid=661b2819-8097-434b-a0ea-67806e92a138"},"vehicle_type_id":"4","last_reported":1774259543,"current_range_meters":5600,"station_id":"st_d46tts09ee8s73dlu43g","pricing_plan_id":"cebpf4jnsgd1na2vs0mg"},{"bike_id":"0360abf6-c26e-48db-b5ad-eef701d56d92","system_id":"levelo_inurba_marseille","lat":43.29283,"lon":5.36853,"is_reserved":false,"is_disabled":false,"rental_uris":{"android":"levelo://app?vid=0360abf6-c26e-48db-b5ad-eef701d56d92","ios":"levelo://app?vid=0360abf6-c26e-48db-b5ad-eef701d56d92"},"vehicle_type_id":"4","last_reported":1774259543,"current_range_meters":6000,"station_id":"ce4bhbp2rcd13ifvqesg","pricing_plan_id":"cebpf4jnsgd1na2vs0mg"},{"bike_id":"852e3c3a-4453-46ff-a2b2-74a5435cf211","system_id":"levelo_inurba_marseille","lat":43.29577,"lon":5.3753,"is_reserved":false,"is_disabled":false,"rental_uris":{"android":"levelo://app?vid=852e3c3a-4453-46ff-a2b2-74a5435cf211","ios":"levelo://app?vid=852e3c3a-4453-46ff-a2b2-74a5435cf211"},"vehicle_type_id":"4","last_reported":1774259543,"current_range_meters":6000,"station_id":"ce4bgh92rcd13ifvqb50","pricing_plan_id":"cebpf4jnsgd1na2vs0mg"},{"bike_id":"b23e52e9-a876-459e-8724-e0215296ea00","system_id":"levelo_inurba_marseille","lat":43.28482,"lon":5.48393,"is_reserved":false,"is_disabled":true,"rental_uris":{"android":"levelo://app?vid=b23e52e9-a876-459e-8724-e0215296ea00","ios":"levelo://app?vid=b23e52e9-a876-459e-8724-e0215296ea00"},"vehicle_type_id":"4","last_reported":1774259543,"current_range_meters":6000,"station_id":"","pricing_plan_id":"cebpf4jnsgd1na2vs0mg"},{"bike_id":"5deb8dc6-6919-4738-b0a7-dc6990800975","system_id":"levelo_inurba_marseille","lat":43.30301,"lon":5.36891,"is_reserved":false,"is_disabled":false,"rental_uris":{"android":"levelo://app?vid=5deb8dc6-6919-4738-b0a7-dc6990800975","ios":"levelo://app?vid=5deb8dc6-6919-4738-b0a7-dc6990800975"},"vehicle_type_id":"4","last_reported":1774259543,"current_range_meters":6000,"station_id":"ce4bgqh2rcd13ifvqc5g","pricing_plan_id":"cebpf4jnsgd1na2vs0mg"},{"bike_id":"a2e76477-93e9-48dd-8270-48327ce43a17","system_id":"levelo_inurba_marseille","lat":43.29977,"lon":5.38486,"is_reserved":false,"is_disabled":false,"rental_uris":{"android":"levelo://app?vid=a2e76477-93e9-48dd-8270-48327ce43a17","ios":"levelo://app?vid=a2e76477-93e9-48dd-8270-48327ce43a17"},"vehicle_type_id":"4","last_reported":1774259543,"current_range_meters":6000,"station_id":"ce4bgj92rcd13ifvqbd0","pricing_plan_id":"cebpf4jnsgd1na2vs0mg"},{"bike_id":"af8d2a67-5765-4d25-9890-717868ce4def","system_id":"levelo_inurba_marseille","lat":43.26976,"lon":5.40278,"is_reserved":false,"is_disabled":false,"rental_uris":{"android":"levelo://app?vid=af8d2a67-5765-4d25-9890-717868ce4def","ios":"levelo://app?vid=af8d2a67-5765-4d25-9890-717868ce4def"},"vehicle_type_id":"4","last_reported":1774259543,"current_range_meters":6000,"station_id":"cjm6bp8fraef2m0cb0m0","pricing_plan_id":"cebpf4jnsgd1na2vs0mg"},{"bike_id":"5a3d3df4-d923-46fc-bdfe-9820e3b28092","system_id":"levelo_inurba_marseille","lat":43.27333,"lon":5.39094,"is_reserved":false,"is_disabled":true,"rental_uris":{"android":"levelo://app?vid=5a3d3df4-d923-46fc-bdfe-9820e3b28092","ios":"levelo://app?vid=5a3d3df4-d923-46fc-bdfe-9820e3b28092"},"vehicle_type_id":"4","last_reported":1774259543,"current_range_meters":6000,"station_id":"ce4bhgp2rcd13ifvqfe0","pricing_plan_id":"cebpf4jnsgd1na2vs0mg"},{"bike_id":"47e512d5-1878-4adf-80cb-1a328722cfab","system_id":"levelo_inurba_marseille","lat":43.313269,"lon":5.396816,"is_reserved":false,"is_disabled":false,"rental_uris":{"android":"levelo://app?vid=47e512d5-1878-4adf-80cb-1a328722cfab","ios":"levelo://app?vid=47e512d5-1878-4adf-80cb-1a328722cfab"},"vehicle_type_id":"4","last_reported":1774259543,"current_range_meters":6000,"station_id":"ce4bgvp2rcd13ifvqcu0","pricing_plan_id":"cebpf4jnsgd1na2vs0mg"},{"bike_id":"9c705451-c9d7-4f45-afc4-33edfeea06d0","system_id":"levelo_inurba_marseille","lat":43.28706,"lon":5.46681,"is_reserved":false,"is_disabled":false,"rental_uris":{"android":"levelo://app?vid=9c705451-c9d7-4f45-afc4-33edfeea06d0","ios":"levelo://app?vid=9c705451-c9d7-4f45-afc4-33edfeea06d0"},"vehicle_type_id":"4","last_reported":1774259543,"current_range_meters":6000,"station_id":"st_d6tc3vkotcvc738tfjhg","pricing_plan_id":"cebpf4jnsgd1na2vs0mg"},{"bike_id":"48d411e4-772b-45b0-bfb9-68ff0b412584","system_id":"levelo_inurba_marseille","lat":43.30268,"lon":5.37685,"is_reserved":false,"is_disabled":false,"rental_uris":{"android":"levelo://app?vid=48d411e4-772b-45b0-bfb9-68ff0b412584","ios":"levelo://app?vid=48d411e4-772b-45b0-bfb9-68ff0b412584"},"vehicle_type_id":"4","last_reported":1774259543,"current_range_meters":6000,"station_id":"ce4bguh2rcd13ifvqcj0","pricing_plan_id":"cebpf4jnsgd1na2vs0mg"},{"bike_id":"b7ba0e58-bef0-47a7-bd3b-64bf72ecf131","system_id":"levelo_inurba_marseille","lat":43.32959,"lon":5.36664,"is_reserved":false,"is_disabled":false,"rental_uris":{"android":"levelo://app?vid=b7ba0e58-bef0-47a7-bd3b-64bf72ecf131","ios":"levelo://app?vid=b7ba0e58-bef0-47a7-bd3b-64bf72ecf131"},"vehicle_type_id":"4","last_reported":1774259543,"current_range_meters":6000,"station_id":"","pricing_plan_id":"cebpf4jnsgd1na2vs0mg"},{"bike_id":"9453e579-87d8-475b-9a7d-0c3671abf86b","system_id":"levelo_inurba_marseille","lat":43.32112,"lon":5.3678,"is_reserved":false,"is_disabled":false,"rental_uris":{"android":"levelo://app?vid=9453e579-87d8-475b-9a7d-0c3671abf86b","ios":"levelo://app?vid=9453e579-87d8-475b-9a7d-0c3671abf86b"},"vehicle_type_id":"4","last_reported":1774259543,"current_range_meters":6400,"station_id":"ce4bhrh2rcd13ifvqhug","pricing_plan_id":"cebpf4jnsgd1na2vs0mg"},{"bike_id":"58a4b0d7-f43b-449e-8d2e-e05a79e437e2","system_id":"levelo_inurba_marseille","lat":43.292609,"lon":5.376234,"is_reserved":false,"is_disabled":false,"rental_uris":{"android":"levelo://app?vid=58a4b0d7-f43b-449e-8d2e-e05a79e437e2","ios":"levelo://app?vid=58a4b0d7-f43b-449e-8d2e-e05a79e437e2"},"vehicle_type_id":"4","last_reported":1774259543,"current_range_meters":6400,"station_id":"","pricing_plan_id":"cebpf4jnsgd1na2vs0mg"},{"bike_id":"6d276068-7407-44ec-804f-f7b759890081","system_id":"levelo_inurba_marseille","lat":43.31329,"lon":5.36719,"is_reserved":false,"is_disabled":false,"rental_uris":{"android":"levelo://app?vid=6d276068-7407-44ec-804f-f7b759890081","ios":"levelo://app?vid=6d276068-7407-44ec-804f-f7b759890081"},"vehicle_type_id":"4","last_reported":1774259543,"current_range_meters":6400,"station_id":"ce4bgr92rcd13ifvqc6g","pricing_plan_id":"cebpf4jnsgd1na2vs0mg"},{"bike_id":"5028ba17-7b50-45f3-93b1-269967ba3efd","system_id":"levelo_inurba_marseille","lat":43.26352,"lon":5.41072,"is_reserved":false,"is_disabled":false,"rental_uris":{"android":"levelo://app?vid=5028ba17-7b50-45f3-93b1-269967ba3efd","ios":"levelo://app?vid=5028ba17-7b50-45f3-93b1-269967ba3efd"},"vehicle_type_id":"4","last_reported":1774259543,"current_range_meters":6400,"station_id":"st_d4e5ca6na9uc73bfl5fg","pricing_plan_id":"cebpf4jnsgd1na2vs0mg"},{"bike_id":"6f3fdbf9-917f-421d-aa86-02187d7ba65c","system_id":"levelo_inurba_marseille","lat":43.28476,"lon":5.48399,"is_reserved":false,"is_disabled":false,"rental_uris":{"android":"levelo://app?vid=6f3fdbf9-917f-421d-aa86-02187d7ba65c","ios":"levelo://app?vid=6f3fdbf9-917f-421d-aa86-02187d7ba65c"},"vehicle_type_id":"4","last_reported":1774259543,"current_range_meters":6400,"station_id":"st_d3svhcjqgbts73a3dn0g","pricing_plan_id":"cebpf4jnsgd1na2vs0mg"},{"bike_id":"617f3e0b-0796-44d9-a757-00a3bec45be0","system_id":"levelo_inurba_marseille","lat":43.30621,"lon":5.37183,"is_reserved":false,"is_disabled":false,"rental_uris":{"android":"levelo://app?vid=617f3e0b-0796-44d9-a757-00a3bec45be0","ios":"levelo://app?vid=617f3e0b-0796-44d9-a757-00a3bec45be0"},"vehicle_type_id":"4","last_reported":1774259543,"current_range_meters":6400,"station_id":"ce4bgqh2rcd13ifvqc4g","pricing_plan_id":"cebpf4jnsgd1na2vs0mg"},{"bike_id":"11bb5a53-0116-4f22-8c60-badba7ab667b","system_id":"levelo_inurba_marseille","lat":43.23909,"lon":5.37475,"is_reserved":false,"is_disabled":true,"rental_uris":{"android":"levelo://app?vid=11bb5a53-0116-4f22-8c60-badba7ab667b","ios":"levelo://app?vid=11bb5a53-0116-4f22-8c60-badba7ab667b"},"vehicle_type_id":"4","last_reported":1774259543,"current_range_meters":6800,"station_id":"st_d6sm7csbq4hs73f8fpjg","pricing_plan_id":"cebpf4jnsgd1na2vs0mg"},{"bike_id":"c177e44f-a994-462a-b1ea-fc1ba55ad8e0","system_id":"levelo_inurba_marseille","lat":43.2391,"lon":5.37457,"is_reserved":false,"is_disabled":false,"rental_uris":{"android":"levelo://app?vid=c177e44f-a994-462a-b1ea-fc1ba55ad8e0","ios":"levelo://app?vid=c177e44f-a994-462a-b1ea-fc1ba55ad8e0"},"vehicle_type_id":"4","last_reported":1774259543,"current_range_meters":6800,"station_id":"st_d6sm7csbq4hs73f8fpjg","pricing_plan_id":"cebpf4jnsgd1na2vs0mg"},{"bike_id":"34f1844e-4256-4377-a9dc-53b1c8dd5fb9","system_id":"levelo_inurba_marseille","lat":43.29586,"lon":5.36741,"is_reserved":false,"is_disabled":false,"rental_uris":{"android":"levelo://app?vid=34f1844e-4256-4377-a9dc-53b1c8dd5fb9","ios":"levelo://app?vid=34f1844e-4256-4377-a9dc-53b1c8dd5fb9"},"vehicle_type_id":"4","last_reported":1774259543,"current_range_meters":6800,"station_id":"ce4bgph2rcd13ifvqc2g","pricing_plan_id":"cebpf4jnsgd1na2vs0mg"},{"bike_id":"32948d6b-d7cc-4b8d-8969-e2d868d9134d","system_id":"levelo_inurba_marseille","lat":43.33525,"lon":5.37448,"is_reserved":false,"is_disabled":false,"rental_uris":{"android":"levelo://app?vid=32948d6b-d7cc-4b8d-8969-e2d868d9134d","ios":"levelo://app?vid=32948d6b-d7cc-4b8d-8969-e2d868d9134d"},"vehicle_type_id":"4","last_reported":1774259543,"current_range_meters":6800,"station_id":"st_d46tts09ee8s73dlu43g","pricing_plan_id":"cebpf4jnsgd1na2vs0mg"},{"bike_id":"324b534a-5a66-48dd-a06b-a023356721c5","system_id":"levelo_inurba_marseille","lat":43.23891,"lon":5.37446,"is_reserved":false,"is_disabled":false,"rental_uris":{"android":"levelo://app?vid=324b534a-5a66-48dd-a06b-a023356721c5","ios":"levelo://app?vid=324b534a-5a66-48dd-a06b-a023356721c5"},"vehicle_type_id":"4","last_reported":1774259543,"current_range_meters":6800,"station_id":"st_d6sm7csbq4hs73f8fpjg","pricing_plan_id":"cebpf4jnsgd1na2vs0mg"},{"bike_id":"3eb2f1eb-3afb-4c52-a889-fba9ff58baff","system_id":"levelo_inurba_marseille","lat":43.29586,"lon":5.37497,"is_reserved":false,"is_disabled":false,"rental_uris":{"android":"levelo://app?vid=3eb2f1eb-3afb-4c52-a889-fba9ff58baff","ios":"levelo://app?vid=3eb2f1eb-3afb-4c52-a889-fba9ff58baff"},"vehicle_type_id":"4","last_reported":1774259543,"current_range_meters":6800,"station_id":"ce4bgh92rcd13ifvqb50","pricing_plan_id":"cebpf4jnsgd1na2vs0mg"},{"bike_id":"c014e25b-916c-4a5d-af7e-ac4159658caf","system_id":"levelo_inurba_marseille","lat":43.305483,"lon":5.367317,"is_reserved":false,"is_disabled":false,"rental_uris":{"android":"levelo://app?vid=c014e25b-916c-4a5d-af7e-ac4159658caf","ios":"levelo://app?vid=c014e25b-916c-4a5d-af7e-ac4159658caf"},"vehicle_type_id":"4","last_reported":1774259543,"current_range_meters":6800,"station_id":"st_d4a7ka997mjs738ck50g","pricing_plan_id":"cebpf4jnsgd1na2vs0mg"},{"bike_id":"4ccc0b17-89ea-410e-9cdf-1a801e6e586a","system_id":"levelo_inurba_marseille","lat":43.29701,"lon":5.36629,"is_reserved":false,"is_disabled":false,"rental_uris":{"android":"levelo://app?vid=4ccc0b17-89ea-410e-9cdf-1a801e6e586a","ios":"levelo://app?vid=4ccc0b17-89ea-410e-9cdf-1a801e6e586a"},"vehicle_type_id":"4","last_reported":1774259543,"current_range_meters":7200,"station_id":"ce4bgn12rcd13ifvqbt0","pricing_plan_id":"cebpf4jnsgd1na2vs0mg"},{"bike_id":"8310aa65-ac67-4592-b812-f63970cb0af3","system_id":"levelo_inurba_marseille","lat":43.32109,"lon":5.36772,"is_reserved":false,"is_disabled":false,"rental_uris":{"android":"levelo://app?vid=8310aa65-ac67-4592-b812-f63970cb0af3","ios":"levelo://app?vid=8310aa65-ac67-4592-b812-f63970cb0af3"},"vehicle_type_id":"4","last_reported":1774259543,"current_range_meters":7200,"station_id":"ce4bhrh2rcd13ifvqhug","pricing_plan_id":"cebpf4jnsgd1na2vs0mg"},{"bike_id":"1cb34757-0bff-4f1a-9192-1aa8e3e422a1","system_id":"levelo_inurba_marseille","lat":43.29627,"lon":5.36752,"is_reserved":false,"is_disabled":true,"rental_uris":{"android":"levelo://app?vid=1cb34757-0bff-4f1a-9192-1aa8e3e422a1","ios":"levelo://app?vid=1cb34757-0bff-4f1a-9192-1aa8e3e422a1"},"vehicle_type_id":"4","last_reported":1774259543,"current_range_meters":7200,"station_id":"","pricing_plan_id":"cebpf4jnsgd1na2vs0mg"},{"bike_id":"f9c57d50-832a-477c-9c7f-1e7c12d972b0","system_id":"levelo_inurba_marseille","lat":43.25117,"lon":5.3953,"is_reserved":false,"is_disabled":true,"rental_uris":{"android":"levelo://app?vid=f9c57d50-832a-477c-9c7f-1e7c12d972b0","ios":"levelo://app?vid=f9c57d50-832a-477c-9c7f-1e7c12d972b0"},"vehicle_type_id":"4","last_reported":1774259543,"current_range_meters":7200,"station_id":"ce4bhm12rcd13ifvqgkg","pricing_plan_id":"cebpf4jnsgd1na2vs0mg"},{"bike_id":"db2d4f75-af1b-4ae1-9908-2803268a523d","system_id":"levelo_inurba_marseille","lat":43.24546,"lon":5.39512,"is_reserved":false,"is_disabled":false,"rental_uris":{"android":"levelo://app?vid=db2d4f75-af1b-4ae1-9908-2803268a523d","ios":"levelo://app?vid=db2d4f75-af1b-4ae1-9908-2803268a523d"},"vehicle_type_id":"4","last_reported":1774259543,"current_range_meters":7200,"station_id":"ce4bhlp2rcd13ifvqgjg","pricing_plan_id":"cebpf4jnsgd1na2vs0mg"},{"bike_id":"0f88d6b7-883f-4b13-98ff-b1b3b7d422a5","system_id":"levelo_inurba_marseille","lat":43.2593,"lon":5.40917,"is_reserved":false,"is_disabled":true,"rental_uris":{"android":"levelo://app?vid=0f88d6b7-883f-4b13-98ff-b1b3b7d422a5","ios":"levelo://app?vid=0f88d6b7-883f-4b13-98ff-b1b3b7d422a5"},"vehicle_type_id":"4","last_reported":1774259543,"current_range_meters":7200,"station_id":"ce4bhm92rcd13ifvqglg","pricing_plan_id":"cebpf4jnsgd1na2vs0mg"},{"bike_id":"4a3f9282-9eb4-4064-9268-3f2f0c3a3be3","system_id":"levelo_inurba_marseille","lat":43.311202,"lon":5.377716,"is_reserved":false,"is_disabled":true,"rental_uris":{"android":"levelo://app?vid=4a3f9282-9eb4-4064-9268-3f2f0c3a3be3","ios":"levelo://app?vid=4a3f9282-9eb4-4064-9268-3f2f0c3a3be3"},"vehicle_type_id":"4","last_reported":1774259543,"current_range_meters":7200,"station_id":"ce4bgr92rcd13ifvqc6g","pricing_plan_id":"cebpf4jnsgd1na2vs0mg"},{"bike_id":"c02b37de-fbe5-405f-8d43-8dbb09d582de","system_id":"levelo_inurba_marseille","lat":43.29658,"lon":5.39786,"is_reserved":false,"is_disabled":false,"rental_uris":{"android":"levelo://app?vid=c02b37de-fbe5-405f-8d43-8dbb09d582de","ios":"levelo://app?vid=c02b37de-fbe5-405f-8d43-8dbb09d582de"},"vehicle_type_id":"4","last_reported":1774259543,"current_range_meters":7200,"station_id":"","pricing_plan_id":"cebpf4jnsgd1na2vs0mg"},{"bike_id":"462a1cdd-980f-4d75-accd-0f62886214c9","system_id":"levelo_inurba_marseille","lat":43.28205,"lon":5.40836,"is_reserved":false,"is_disabled":false,"rental_uris":{"android":"levelo://app?vid=462a1cdd-980f-4d75-accd-0f62886214c9","ios":"levelo://app?vid=462a1cdd-980f-4d75-accd-0f62886214c9"},"vehicle_type_id":"4","last_reported":1774259543,"current_range_meters":7200,"station_id":"","pricing_plan_id":"cebpf4jnsgd1na2vs0mg"},{"bike_id":"85d6ab11-5518-4ccd-91e4-dbdc93e9ebe9","system_id":"levelo_inurba_marseille","lat":43.28545,"lon":5.44091,"is_reserved":false,"is_disabled":false,"rental_uris":{"android":"levelo://app?vid=85d6ab11-5518-4ccd-91e4-dbdc93e9ebe9","ios":"levelo://app?vid=85d6ab11-5518-4ccd-91e4-dbdc93e9ebe9"},"vehicle_type_id":"4","last_reported":1774259543,"current_range_meters":7200,"station_id":"st_d3j3df2ikq2c7380ej80","pricing_plan_id":"cebpf4jnsgd1na2vs0mg"},{"bike_id":"19816687-f443-4a5d-b7aa-e3cfd2cb0259","system_id":"levelo_inurba_marseille","lat":43.31468,"lon":5.44542,"is_reserved":false,"is_disabled":false,"rental_uris":{"android":"levelo://app?vid=19816687-f443-4a5d-b7aa-e3cfd2cb0259","ios":"levelo://app?vid=19816687-f443-4a5d-b7aa-e3cfd2cb0259"},"vehicle_type_id":"4","last_reported":1774259543,"current_range_meters":8000,"station_id":"","pricing_plan_id":"cebpf4jnsgd1na2vs0mg"},{"bike_id":"7d0e7181-3a70-4370-9354-bef3948a92c8","system_id":"levelo_inurba_marseille","lat":43.29959,"lon":5.41327,"is_reserved":false,"is_disabled":false,"rental_uris":{"android":"levelo://app?vid=7d0e7181-3a70-4370-9354-bef3948a92c8","ios":"levelo://app?vid=7d0e7181-3a70-4370-9354-bef3948a92c8"},"vehicle_type_id":"4","last_reported":1774259543,"current_range_meters":8000,"station_id":"ce4bhp12rcd13ifvqh9g","pricing_plan_id":"cebpf4jnsgd1na2vs0mg"},{"bike_id":"5986e308-401d-4d25-8c0b-1810717c4afd","system_id":"levelo_inurba_marseille","lat":43.2705,"lon":5.40266,"is_reserved":false,"is_disabled":false,"rental_uris":{"android":"levelo://app?vid=5986e308-401d-4d25-8c0b-1810717c4afd","ios":"levelo://app?vid=5986e308-401d-4d25-8c0b-1810717c4afd"},"vehicle_type_id":"4","last_reported":1774259543,"current_range_meters":8000,"station_id":"ce4bhk92rcd13ifvqgc0","pricing_plan_id":"cebpf4jnsgd1na2vs0mg"},{"bike_id":"6d8d09fd-043e-40dd-92de-c6d036fa5ea9","system_id":"levelo_inurba_marseille","lat":43.2893,"lon":5.38394,"is_reserved":false,"is_disabled":true,"rental_uris":{"android":"levelo://app?vid=6d8d09fd-043e-40dd-92de-c6d036fa5ea9","ios":"levelo://app?vid=6d8d09fd-043e-40dd-92de-c6d036fa5ea9"},"vehicle_type_id":"4","last_reported":1774259543,"current_range_meters":8000,"station_id":"ce4bh612rcd13ifvqe6g","pricing_plan_id":"cebpf4jnsgd1na2vs0mg"},{"bike_id":"29f49a32-ba08-40ef-839e-89650b416d04","system_id":"levelo_inurba_marseille","lat":43.31018,"lon":5.3789,"is_reserved":false,"is_disabled":false,"rental_uris":{"android":"levelo://app?vid=29f49a32-ba08-40ef-839e-89650b416d04","ios":"levelo://app?vid=29f49a32-ba08-40ef-839e-89650b416d04"},"vehicle_type_id":"4","last_reported":1774259543,"current_range_meters":8000,"station_id":"","pricing_plan_id":"cebpf4jnsgd1na2vs0mg"},{"bike_id":"01408631-542f-4416-b793-8c09827eec32","system_id":"levelo_inurba_marseille","lat":43.29857,"lon":5.36278,"is_reserved":false,"is_disabled":false,"rental_uris":{"android":"levelo://app?vid=01408631-542f-4416-b793-8c09827eec32","ios":"levelo://app?vid=01408631-542f-4416-b793-8c09827eec32"},"vehicle_type_id":"4","last_reported":1774259543,"current_range_meters":8000,"station_id":"ce4bgpp2rcd13ifvqc3g","pricing_plan_id":"cebpf4jnsgd1na2vs0mg"},{"bike_id":"ffb98fb8-da98-43fb-9eac-ddb2ee1141c2","system_id":"levelo_inurba_marseille","lat":43.24638,"lon":5.41661,"is_reserved":false,"is_disabled":false,"rental_uris":{"android":"levelo://app?vid=ffb98fb8-da98-43fb-9eac-ddb2ee1141c2","ios":"levelo://app?vid=ffb98fb8-da98-43fb-9eac-ddb2ee1141c2"},"vehicle_type_id":"4","last_reported":1774259543,"current_range_meters":8000,"station_id":"","pricing_plan_id":"cebpf4jnsgd1na2vs0mg"},{"bike_id":"b044a4d1-3370-4e1e-b498-4fd04daa337d","system_id":"levelo_inurba_marseille","lat":43.25323,"lon":5.42166,"is_reserved":false,"is_disabled":true,"rental_uris":{"android":"levelo://app?vid=b044a4d1-3370-4e1e-b498-4fd04daa337d","ios":"levelo://app?vid=b044a4d1-3370-4e1e-b498-4fd04daa337d"},"vehicle_type_id":"4","last_reported":1774259543,"current_range_meters":8000,"station_id":"st_d2m65c5bi1j21697t3ng","pricing_plan_id":"cebpf4jnsgd1na2vs0mg"},{"bike_id":"b450cfd0-7a28-4a35-975e-2aa17abd244b","system_id":"levelo_inurba_marseille","lat":43.32063,"lon":5.41573,"is_reserved":false,"is_disabled":false,"rental_uris":{"android":"levelo://app?vid=b450cfd0-7a28-4a35-975e-2aa17abd244b","ios":"levelo://app?vid=b450cfd0-7a28-4a35-975e-2aa17abd244b"},"vehicle_type_id":"4","last_reported":1774259543,"current_range_meters":8000,"station_id":"ce4bhq92rcd13ifvqhkg","pricing_plan_id":"cebpf4jnsgd1na2vs0mg"},{"bike_id":"bafc255f-f570-4b03-a1ea-14f1ea1a31cf","system_id":"levelo_inurba_marseille","lat":43.31325,"lon":5.36912,"is_reserved":false,"is_disabled":false,"rental_uris":{"android":"levelo://app?vid=bafc255f-f570-4b03-a1ea-14f1ea1a31cf","ios":"levelo://app?vid=bafc255f-f570-4b03-a1ea-14f1ea1a31cf"},"vehicle_type_id":"4","last_reported":1774259543,"current_range_meters":8000,"station_id":"","pricing_plan_id":"cebpf4jnsgd1na2vs0mg"},{"bike_id":"efc0a0af-be66-4cb2-ac5a-8462289738e0","system_id":"levelo_inurba_marseille","lat":43.30148,"lon":5.37387,"is_reserved":false,"is_disabled":false,"rental_uris":{"android":"levelo://app?vid=efc0a0af-be66-4cb2-ac5a-8462289738e0","ios":"levelo://app?vid=efc0a0af-be66-4cb2-ac5a-8462289738e0"},"vehicle_type_id":"4","last_reported":1774259543,"current_range_meters":8000,"station_id":"ce4bgs92rcd13ifvqcc0","pricing_plan_id":"cebpf4jnsgd1na2vs0mg"},{"bike_id":"67e67001-80d5-4cc7-aa6f-c499ffe5f745","system_id":"levelo_inurba_marseille","lat":43.27989,"lon":5.40003,"is_reserved":false,"is_disabled":true,"rental_uris":{"android":"levelo://app?vid=67e67001-80d5-4cc7-aa6f-c499ffe5f745","ios":"levelo://app?vid=67e67001-80d5-4cc7-aa6f-c499ffe5f745"},"vehicle_type_id":"4","last_reported":1774259543,"current_range_meters":8000,"station_id":"ce4bho92rcd13ifvqh4g","pricing_plan_id":"cebpf4jnsgd1na2vs0mg"},{"bike_id":"ad21c532-5cad-4447-bcad-7b36c46cde3c","system_id":"levelo_inurba_marseille","lat":43.3057,"lon":5.36702,"is_reserved":false,"is_disabled":false,"rental_uris":{"android":"levelo://app?vid=ad21c532-5cad-4447-bcad-7b36c46cde3c","ios":"levelo://app?vid=ad21c532-5cad-4447-bcad-7b36c46cde3c"},"vehicle_type_id":"4","last_reported":1774259543,"current_range_meters":8000,"station_id":"ce4bgrp2rcd13ifvqc9g","pricing_plan_id":"cebpf4jnsgd1na2vs0mg"},{"bike_id":"aa237c62-8f60-457a-9efa-b3fbcb7af5f7","system_id":"levelo_inurba_marseille","lat":43.27493,"lon":5.41603,"is_reserved":false,"is_disabled":false,"rental_uris":{"android":"levelo://app?vid=aa237c62-8f60-457a-9efa-b3fbcb7af5f7","ios":"levelo://app?vid=aa237c62-8f60-457a-9efa-b3fbcb7af5f7"},"vehicle_type_id":"4","last_reported":1774259543,"current_range_meters":8400,"station_id":"st_d6im8g6chgec73a5pndg","pricing_plan_id":"cebpf4jnsgd1na2vs0mg"},{"bike_id":"8c1c8195-ea4b-4bdc-adcb-ba3b3fad322f","system_id":"levelo_inurba_marseille","lat":43.28697,"lon":5.46678,"is_reserved":false,"is_disabled":false,"rental_uris":{"android":"levelo://app?vid=8c1c8195-ea4b-4bdc-adcb-ba3b3fad322f","ios":"levelo://app?vid=8c1c8195-ea4b-4bdc-adcb-ba3b3fad322f"},"vehicle_type_id":"4","last_reported":1774259543,"current_range_meters":8400,"station_id":"st_d6tc3vkotcvc738tfjhg","pricing_plan_id":"cebpf4jnsgd1na2vs0mg"},{"bike_id":"975f548d-0a44-425e-8b97-3d3cfd22ac27","system_id":"levelo_inurba_marseille","lat":43.30172,"lon":5.37397,"is_reserved":false,"is_disabled":false,"rental_uris":{"android":"levelo://app?vid=975f548d-0a44-425e-8b97-3d3cfd22ac27","ios":"levelo://app?vid=975f548d-0a44-425e-8b97-3d3cfd22ac27"},"vehicle_type_id":"4","last_reported":1774259543,"current_range_meters":8400,"station_id":"ce4bgs92rcd13ifvqcc0","pricing_plan_id":"cebpf4jnsgd1na2vs0mg"},{"bike_id":"b9b8140a-3f40-4142-9fbe-f8ad688546b9","system_id":"levelo_inurba_marseille","lat":43.27063,"lon":5.38305,"is_reserved":false,"is_disabled":false,"rental_uris":{"android":"levelo://app?vid=b9b8140a-3f40-4142-9fbe-f8ad688546b9","ios":"levelo://app?vid=b9b8140a-3f40-4142-9fbe-f8ad688546b9"},"vehicle_type_id":"4","last_reported":1774259543,"current_range_meters":8400,"station_id":"st_d3n2fo6cfp8s73cte1j0","pricing_plan_id":"cebpf4jnsgd1na2vs0mg"},{"bike_id":"ef53ff66-b7cf-46a5-8431-99904003abc5","system_id":"levelo_inurba_marseille","lat":43.23779,"lon":5.36633,"is_reserved":false,"is_disabled":false,"rental_uris":{"android":"levelo://app?vid=ef53ff66-b7cf-46a5-8431-99904003abc5","ios":"levelo://app?vid=ef53ff66-b7cf-46a5-8431-99904003abc5"},"vehicle_type_id":"4","last_reported":1774259543,"current_range_meters":8400,"station_id":"st_d3nk18o9ro0c73en2l3g","pricing_plan_id":"cebpf4jnsgd1na2vs0mg"},{"bike_id":"f554888c-9515-430c-b3e9-327a4cc15db0","system_id":"levelo_inurba_marseille","lat":43.2964,"lon":5.42423,"is_reserved":false,"is_disabled":false,"rental_uris":{"android":"levelo://app?vid=f554888c-9515-430c-b3e9-327a4cc15db0","ios":"levelo://app?vid=f554888c-9515-430c-b3e9-327a4cc15db0"},"vehicle_type_id":"4","last_reported":1774259543,"current_range_meters":8400,"station_id":"","pricing_plan_id":"cebpf4jnsgd1na2vs0mg"},{"bike_id":"30ea8ffa-7dab-4d0d-97d4-3c18b3190ed3","system_id":"levelo_inurba_marseille","lat":43.25827,"lon":5.39433,"is_reserved":false,"is_disabled":false,"rental_uris":{"android":"levelo://app?vid=30ea8ffa-7dab-4d0d-97d4-3c18b3190ed3","ios":"levelo://app?vid=30ea8ffa-7dab-4d0d-97d4-3c18b3190ed3"},"vehicle_type_id":"4","last_reported":1774259543,"current_range_meters":8400,"station_id":"ce4bhip2rcd13ifvqft0","pricing_plan_id":"cebpf4jnsgd1na2vs0mg"},{"bike_id":"6979a6fb-10a0-43cf-8c47-6569f8ddef35","system_id":"levelo_inurba_marseille","lat":43.32092,"lon":5.36764,"is_reserved":false,"is_disabled":false,"rental_uris":{"android":"levelo://app?vid=6979a6fb-10a0-43cf-8c47-6569f8ddef35","ios":"levelo://app?vid=6979a6fb-10a0-43cf-8c47-6569f8ddef35"},"vehicle_type_id":"4","last_reported":1774259543,"current_range_meters":8400,"station_id":"ce4bhrh2rcd13ifvqhug","pricing_plan_id":"cebpf4jnsgd1na2vs0mg"},{"bike_id":"94a7d212-cb4b-4d03-b8cf-3e716b7a60a4","system_id":"levelo_inurba_marseille","lat":43.2893,"lon":5.36631,"is_reserved":false,"is_disabled":false,"rental_uris":{"android":"levelo://app?vid=94a7d212-cb4b-4d03-b8cf-3e716b7a60a4","ios":"levelo://app?vid=94a7d212-cb4b-4d03-b8cf-3e716b7a60a4"},"vehicle_type_id":"4","last_reported":1774259543,"current_range_meters":8400,"station_id":"ce4bhap2rcd13ifvqek0","pricing_plan_id":"cebpf4jnsgd1na2vs0mg"},{"bike_id":"ea1c3464-d728-428d-9262-05cd474f3e90","system_id":"levelo_inurba_marseille","lat":43.30469,"lon":5.37907,"is_reserved":false,"is_disabled":false,"rental_uris":{"android":"levelo://app?vid=ea1c3464-d728-428d-9262-05cd474f3e90","ios":"levelo://app?vid=ea1c3464-d728-428d-9262-05cd474f3e90"},"vehicle_type_id":"4","last_reported":1774259543,"current_range_meters":8800,"station_id":"ce4bgup2rcd13ifvqcn0","pricing_plan_id":"cebpf4jnsgd1na2vs0mg"},{"bike_id":"7d57cb77-2191-40c3-b57a-baa532486115","system_id":"levelo_inurba_marseille","lat":43.26569,"lon":5.38993,"is_reserved":false,"is_disabled":true,"rental_uris":{"android":"levelo://app?vid=7d57cb77-2191-40c3-b57a-baa532486115","ios":"levelo://app?vid=7d57cb77-2191-40c3-b57a-baa532486115"},"vehicle_type_id":"4","last_reported":1774259543,"current_range_meters":8800,"station_id":"ce4bhe12rcd13ifvqf30","pricing_plan_id":"cebpf4jnsgd1na2vs0mg"},{"bike_id":"6a361988-483c-4fea-b668-fae45fefb959","system_id":"levelo_inurba_marseille","lat":43.32101,"lon":5.36748,"is_reserved":false,"is_disabled":false,"rental_uris":{"android":"levelo://app?vid=6a361988-483c-4fea-b668-fae45fefb959","ios":"levelo://app?vid=6a361988-483c-4fea-b668-fae45fefb959"},"vehicle_type_id":"4","last_reported":1774259543,"current_range_meters":8800,"station_id":"ce4bhrh2rcd13ifvqhug","pricing_plan_id":"cebpf4jnsgd1na2vs0mg"},{"bike_id":"a9fcd02c-7b6b-4ad8-a39d-d88606ee3ac0","system_id":"levelo_inurba_marseille","lat":43.24997,"lon":5.38915,"is_reserved":false,"is_disabled":true,"rental_uris":{"android":"levelo://app?vid=a9fcd02c-7b6b-4ad8-a39d-d88606ee3ac0","ios":"levelo://app?vid=a9fcd02c-7b6b-4ad8-a39d-d88606ee3ac0"},"vehicle_type_id":"4","last_reported":1774259543,"current_range_meters":8800,"station_id":"ce4bhgp2rcd13ifvqfd0","pricing_plan_id":"cebpf4jnsgd1na2vs0mg"},{"bike_id":"1d0f3067-7ca2-4fbd-8b40-b921c6748a4a","system_id":"levelo_inurba_marseille","lat":43.28474,"lon":5.48387,"is_reserved":false,"is_disabled":false,"rental_uris":{"android":"levelo://app?vid=1d0f3067-7ca2-4fbd-8b40-b921c6748a4a","ios":"levelo://app?vid=1d0f3067-7ca2-4fbd-8b40-b921c6748a4a"},"vehicle_type_id":"4","last_reported":1774259543,"current_range_meters":8800,"station_id":"","pricing_plan_id":"cebpf4jnsgd1na2vs0mg"},{"bike_id":"976e595c-88b1-4f7c-a5b9-8ef6bed8c12a","system_id":"levelo_inurba_marseille","lat":43.26374,"lon":5.41072,"is_reserved":false,"is_disabled":false,"rental_uris":{"android":"levelo://app?vid=976e595c-88b1-4f7c-a5b9-8ef6bed8c12a","ios":"levelo://app?vid=976e595c-88b1-4f7c-a5b9-8ef6bed8c12a"},"vehicle_type_id":"4","last_reported":1774259543,"current_range_meters":8800,"station_id":"st_d4e5ca6na9uc73bfl5fg","pricing_plan_id":"cebpf4jnsgd1na2vs0mg"},{"bike_id":"d1c30872-9b01-4883-88db-d4e8a37fb7cc","system_id":"levelo_inurba_marseille","lat":43.33602,"lon":5.41005,"is_reserved":false,"is_disabled":false,"rental_uris":{"android":"levelo://app?vid=d1c30872-9b01-4883-88db-d4e8a37fb7cc","ios":"levelo://app?vid=d1c30872-9b01-4883-88db-d4e8a37fb7cc"},"vehicle_type_id":"4","last_reported":1774259543,"current_range_meters":8800,"station_id":"ce4bhqh2rcd13ifvqhmg","pricing_plan_id":"cebpf4jnsgd1na2vs0mg"},{"bike_id":"bbb20be4-a4e3-4756-bf9e-de6efa0abbb9","system_id":"levelo_inurba_marseille","lat":43.29227,"lon":5.42597,"is_reserved":false,"is_disabled":false,"rental_uris":{"android":"levelo://app?vid=bbb20be4-a4e3-4756-bf9e-de6efa0abbb9","ios":"levelo://app?vid=bbb20be4-a4e3-4756-bf9e-de6efa0abbb9"},"vehicle_type_id":"4","last_reported":1774259543,"current_range_meters":8800,"station_id":"","pricing_plan_id":"cebpf4jnsgd1na2vs0mg"},{"bike_id":"16bbeb22-0cd7-4868-bd10-6b421b5f52a3","system_id":"levelo_inurba_marseille","lat":43.29574,"lon":5.37516,"is_reserved":false,"is_disabled":false,"rental_uris":{"android":"levelo://app?vid=16bbeb22-0cd7-4868-bd10-6b421b5f52a3","ios":"levelo://app?vid=16bbeb22-0cd7-4868-bd10-6b421b5f52a3"},"vehicle_type_id":"4","last_reported":1774259543,"current_range_meters":8800,"station_id":"ce4bgh92rcd13ifvqb50","pricing_plan_id":"cebpf4jnsgd1na2vs0mg"},{"bike_id":"c7c87456-485a-46b2-9023-455fd6be6b40","system_id":"levelo_inurba_marseille","lat":43.28358,"lon":5.38633,"is_reserved":false,"is_disabled":false,"rental_uris":{"android":"levelo://app?vid=c7c87456-485a-46b2-9023-455fd6be6b40","ios":"levelo://app?vid=c7c87456-485a-46b2-9023-455fd6be6b40"},"vehicle_type_id":"4","last_reported":1774259543,"current_range_meters":8800,"station_id":"ce4bh492rcd13ifvqdvg","pricing_plan_id":"cebpf4jnsgd1na2vs0mg"},{"bike_id":"c0ede030-ab9a-4615-a9c7-01479ac5ac50","system_id":"levelo_inurba_marseille","lat":43.26704,"lon":5.38252,"is_reserved":false,"is_disabled":true,"rental_uris":{"android":"levelo://app?vid=c0ede030-ab9a-4615-a9c7-01479ac5ac50","ios":"levelo://app?vid=c0ede030-ab9a-4615-a9c7-01479ac5ac50"},"vehicle_type_id":"4","last_reported":1774259543,"current_range_meters":8800,"station_id":"ce4bhg92rcd13ifvqf90","pricing_plan_id":"cebpf4jnsgd1na2vs0mg"},{"bike_id":"a48b6e35-2dba-4c8c-aed8-93640b7bae2c","system_id":"levelo_inurba_marseille","lat":43.31333,"lon":5.36691,"is_reserved":false,"is_disabled":false,"rental_uris":{"android":"levelo://app?vid=a48b6e35-2dba-4c8c-aed8-93640b7bae2c","ios":"levelo://app?vid=a48b6e35-2dba-4c8c-aed8-93640b7bae2c"},"vehicle_type_id":"4","last_reported":1774259543,"current_range_meters":8800,"station_id":"ce4bgr92rcd13ifvqc6g","pricing_plan_id":"cebpf4jnsgd1na2vs0mg"},{"bike_id":"edaa494a-4360-47b4-975b-ccf6d6b743ca","system_id":"levelo_inurba_marseille","lat":43.29603,"lon":5.36553,"is_reserved":false,"is_disabled":false,"rental_uris":{"android":"levelo://app?vid=edaa494a-4360-47b4-975b-ccf6d6b743ca","ios":"levelo://app?vid=edaa494a-4360-47b4-975b-ccf6d6b743ca"},"vehicle_type_id":"4","last_reported":1774259543,"current_range_meters":8800,"station_id":"","pricing_plan_id":"cebpf4jnsgd1na2vs0mg"},{"bike_id":"f296ef7e-e416-4a83-9798-13f85ea2dbd4","system_id":"levelo_inurba_marseille","lat":43.24082,"lon":5.37754,"is_reserved":false,"is_disabled":false,"rental_uris":{"android":"levelo://app?vid=f296ef7e-e416-4a83-9798-13f85ea2dbd4","ios":"levelo://app?vid=f296ef7e-e416-4a83-9798-13f85ea2dbd4"},"vehicle_type_id":"4","last_reported":1774259543,"current_range_meters":8800,"station_id":"ce4bhnp2rcd13ifvqgvg","pricing_plan_id":"cebpf4jnsgd1na2vs0mg"},{"bike_id":"dc4338ee-efeb-4b27-905c-a93d68ba89e8","system_id":"levelo_inurba_marseille","lat":43.25912,"lon":5.40901,"is_reserved":false,"is_disabled":false,"rental_uris":{"android":"levelo://app?vid=dc4338ee-efeb-4b27-905c-a93d68ba89e8","ios":"levelo://app?vid=dc4338ee-efeb-4b27-905c-a93d68ba89e8"},"vehicle_type_id":"4","last_reported":1774259543,"current_range_meters":8800,"station_id":"ce4bhm92rcd13ifvqglg","pricing_plan_id":"cebpf4jnsgd1na2vs0mg"},{"bike_id":"87cab354-e36c-4dc9-949d-1832434988fa","system_id":"levelo_inurba_marseille","lat":43.31297,"lon":5.38424,"is_reserved":false,"is_disabled":false,"rental_uris":{"android":"levelo://app?vid=87cab354-e36c-4dc9-949d-1832434988fa","ios":"levelo://app?vid=87cab354-e36c-4dc9-949d-1832434988fa"},"vehicle_type_id":"4","last_reported":1774259543,"current_range_meters":8800,"station_id":"","pricing_plan_id":"cebpf4jnsgd1na2vs0mg"},{"bike_id":"fcade1c8-56bf-46fe-a2c2-d4e3b3dbceae","system_id":"levelo_inurba_marseille","lat":43.31238,"lon":5.36743,"is_reserved":false,"is_disabled":false,"rental_uris":{"android":"levelo://app?vid=fcade1c8-56bf-46fe-a2c2-d4e3b3dbceae","ios":"levelo://app?vid=fcade1c8-56bf-46fe-a2c2-d4e3b3dbceae"},"vehicle_type_id":"4","last_reported":1774259543,"current_range_meters":8800,"station_id":"","pricing_plan_id":"cebpf4jnsgd1na2vs0mg"},{"bike_id":"4d88734a-162e-4307-92a3-61e5ee7aa63f","system_id":"levelo_inurba_marseille","lat":43.29205,"lon":5.42586,"is_reserved":false,"is_disabled":false,"rental_uris":{"android":"levelo://app?vid=4d88734a-162e-4307-92a3-61e5ee7aa63f","ios":"levelo://app?vid=4d88734a-162e-4307-92a3-61e5ee7aa63f"},"vehicle_type_id":"4","last_reported":1774259543,"current_range_meters":8800,"station_id":"","pricing_plan_id":"cebpf4jnsgd1na2vs0mg"},{"bike_id":"d89b1915-483d-4d09-b44a-47b8df915eef","system_id":"levelo_inurba_marseille","lat":43.23097,"lon":5.35484,"is_reserved":false,"is_disabled":false,"rental_uris":{"android":"levelo://app?vid=d89b1915-483d-4d09-b44a-47b8df915eef","ios":"levelo://app?vid=d89b1915-483d-4d09-b44a-47b8df915eef"},"vehicle_type_id":"4","last_reported":1774259543,"current_range_meters":8800,"station_id":"","pricing_plan_id":"cebpf4jnsgd1na2vs0mg"},{"bike_id":"c1af2eca-cb1d-451f-a2e9-025bc5e4557d","system_id":"levelo_inurba_marseille","lat":43.302,"lon":5.366,"is_reserved":false,"is_disabled":false,"rental_uris":{"android":"levelo://app?vid=c1af2eca-cb1d-451f-a2e9-025bc5e4557d","ios":"levelo://app?vid=c1af2eca-cb1d-451f-a2e9-025bc5e4557d"},"vehicle_type_id":"4","last_reported":1774259543,"current_range_meters":8800,"station_id":"ce4bgrh2rcd13ifvqc8g","pricing_plan_id":"cebpf4jnsgd1na2vs0mg"},{"bike_id":"62e6ad63-f8ab-424d-a647-4590518900b9","system_id":"levelo_inurba_marseille","lat":43.26693,"lon":5.38278,"is_reserved":false,"is_disabled":false,"rental_uris":{"android":"levelo://app?vid=62e6ad63-f8ab-424d-a647-4590518900b9","ios":"levelo://app?vid=62e6ad63-f8ab-424d-a647-4590518900b9"},"vehicle_type_id":"4","last_reported":1774259543,"current_range_meters":9200,"station_id":"ce4bhg92rcd13ifvqf90","pricing_plan_id":"cebpf4jnsgd1na2vs0mg"},{"bike_id":"e41c893a-4032-48f3-bf3a-8efcbfe1465c","system_id":"levelo_inurba_marseille","lat":43.25825,"lon":5.39449,"is_reserved":false,"is_disabled":true,"rental_uris":{"android":"levelo://app?vid=e41c893a-4032-48f3-bf3a-8efcbfe1465c","ios":"levelo://app?vid=e41c893a-4032-48f3-bf3a-8efcbfe1465c"},"vehicle_type_id":"4","last_reported":1774259543,"current_range_meters":9200,"station_id":"ce4bhip2rcd13ifvqft0","pricing_plan_id":"cebpf4jnsgd1na2vs0mg"},{"bike_id":"26f9c7bd-cb61-4618-986b-99c99fccfe3b","system_id":"levelo_inurba_marseille","lat":43.29283,"lon":5.36841,"is_reserved":false,"is_disabled":false,"rental_uris":{"android":"levelo://app?vid=26f9c7bd-cb61-4618-986b-99c99fccfe3b","ios":"levelo://app?vid=26f9c7bd-cb61-4618-986b-99c99fccfe3b"},"vehicle_type_id":"4","last_reported":1774259543,"current_range_meters":9200,"station_id":"ce4bhbp2rcd13ifvqesg","pricing_plan_id":"cebpf4jnsgd1na2vs0mg"},{"bike_id":"5cca4b32-612b-471f-a02d-66912cbe70ff","system_id":"levelo_inurba_marseille","lat":43.21189,"lon":5.35079,"is_reserved":false,"is_disabled":true,"rental_uris":{"android":"levelo://app?vid=5cca4b32-612b-471f-a02d-66912cbe70ff","ios":"levelo://app?vid=5cca4b32-612b-471f-a02d-66912cbe70ff"},"vehicle_type_id":"4","last_reported":1774259543,"current_range_meters":9200,"station_id":"st_cvj6sg6p6f1abm77japg","pricing_plan_id":"cebpf4jnsgd1na2vs0mg"},{"bike_id":"72999db3-62c4-4d6b-9c7f-3129997c7dc6","system_id":"levelo_inurba_marseille","lat":43.28142,"lon":5.40942,"is_reserved":false,"is_disabled":false,"rental_uris":{"android":"levelo://app?vid=72999db3-62c4-4d6b-9c7f-3129997c7dc6","ios":"levelo://app?vid=72999db3-62c4-4d6b-9c7f-3129997c7dc6"},"vehicle_type_id":"4","last_reported":1774259543,"current_range_meters":9200,"station_id":"","pricing_plan_id":"cebpf4jnsgd1na2vs0mg"},{"bike_id":"193bce28-fa90-4f40-bbcb-d2de6628a478","system_id":"levelo_inurba_marseille","lat":43.30423,"lon":5.37856,"is_reserved":false,"is_disabled":false,"rental_uris":{"android":"levelo://app?vid=193bce28-fa90-4f40-bbcb-d2de6628a478","ios":"levelo://app?vid=193bce28-fa90-4f40-bbcb-d2de6628a478"},"vehicle_type_id":"4","last_reported":1774259543,"current_range_meters":9200,"station_id":"","pricing_plan_id":"cebpf4jnsgd1na2vs0mg"},{"bike_id":"3447cb79-bcea-4e0e-a6e2-fb4871ba01b4","system_id":"levelo_inurba_marseille","lat":43.24722,"lon":5.39231,"is_reserved":false,"is_disabled":false,"rental_uris":{"android":"levelo://app?vid=3447cb79-bcea-4e0e-a6e2-fb4871ba01b4","ios":"levelo://app?vid=3447cb79-bcea-4e0e-a6e2-fb4871ba01b4"},"vehicle_type_id":"4","last_reported":1774259543,"current_range_meters":9200,"station_id":"","pricing_plan_id":"cebpf4jnsgd1na2vs0mg"},{"bike_id":"f8d0e758-5091-45e9-bd28-eedbdac016a8","system_id":"levelo_inurba_marseille","lat":43.31222,"lon":5.36852,"is_reserved":false,"is_disabled":false,"rental_uris":{"android":"levelo://app?vid=f8d0e758-5091-45e9-bd28-eedbdac016a8","ios":"levelo://app?vid=f8d0e758-5091-45e9-bd28-eedbdac016a8"},"vehicle_type_id":"4","last_reported":1774259543,"current_range_meters":9200,"station_id":"ce4bgl92rcd13ifvqbq0","pricing_plan_id":"cebpf4jnsgd1na2vs0mg"},{"bike_id":"f910acab-e234-4475-91c9-ec3fea6d1bf3","system_id":"levelo_inurba_marseille","lat":43.29893,"lon":5.43655,"is_reserved":false,"is_disabled":false,"rental_uris":{"android":"levelo://app?vid=f910acab-e234-4475-91c9-ec3fea6d1bf3","ios":"levelo://app?vid=f910acab-e234-4475-91c9-ec3fea6d1bf3"},"vehicle_type_id":"4","last_reported":1774259543,"current_range_meters":9600,"station_id":"ce4bhpp2rcd13ifvqhfg","pricing_plan_id":"cebpf4jnsgd1na2vs0mg"},{"bike_id":"0209d106-1ff2-473b-a452-9536b05c02ee","system_id":"levelo_inurba_marseille","lat":43.24985,"lon":5.38911,"is_reserved":false,"is_disabled":false,"rental_uris":{"android":"levelo://app?vid=0209d106-1ff2-473b-a452-9536b05c02ee","ios":"levelo://app?vid=0209d106-1ff2-473b-a452-9536b05c02ee"},"vehicle_type_id":"4","last_reported":1774259543,"current_range_meters":9600,"station_id":"ce4bhgp2rcd13ifvqfd0","pricing_plan_id":"cebpf4jnsgd1na2vs0mg"},{"bike_id":"daa92092-fa3c-40dd-873e-1bdb49edd140","system_id":"levelo_inurba_marseille","lat":43.31127,"lon":5.37764,"is_reserved":false,"is_disabled":false,"rental_uris":{"android":"levelo://app?vid=daa92092-fa3c-40dd-873e-1bdb49edd140","ios":"levelo://app?vid=daa92092-fa3c-40dd-873e-1bdb49edd140"},"vehicle_type_id":"4","last_reported":1774259543,"current_range_meters":9600,"station_id":"ce4bgt92rcd13ifvqcg0","pricing_plan_id":"cebpf4jnsgd1na2vs0mg"},{"bike_id":"113bdd0b-34d4-40b5-8f93-c39528d91365","system_id":"levelo_inurba_marseille","lat":43.29584,"lon":5.37502,"is_reserved":false,"is_disabled":false,"rental_uris":{"android":"levelo://app?vid=113bdd0b-34d4-40b5-8f93-c39528d91365","ios":"levelo://app?vid=113bdd0b-34d4-40b5-8f93-c39528d91365"},"vehicle_type_id":"4","last_reported":1774259543,"current_range_meters":9600,"station_id":"ce4bgh92rcd13ifvqb50","pricing_plan_id":"cebpf4jnsgd1na2vs0mg"},{"bike_id":"c7045a16-a6f7-48b9-9bd0-539ac386e9b7","system_id":"levelo_inurba_marseille","lat":43.29526,"lon":5.38542,"is_reserved":false,"is_disabled":false,"rental_uris":{"android":"levelo://app?vid=c7045a16-a6f7-48b9-9bd0-539ac386e9b7","ios":"levelo://app?vid=c7045a16-a6f7-48b9-9bd0-539ac386e9b7"},"vehicle_type_id":"4","last_reported":1774259543,"current_range_meters":9600,"station_id":"ce4bgih2rcd13ifvqba0","pricing_plan_id":"cebpf4jnsgd1na2vs0mg"},{"bike_id":"a02254bd-c448-428c-84b3-b84d0f3bfc68","system_id":"levelo_inurba_marseille","lat":43.24185,"lon":5.36404,"is_reserved":false,"is_disabled":false,"rental_uris":{"android":"levelo://app?vid=a02254bd-c448-428c-84b3-b84d0f3bfc68","ios":"levelo://app?vid=a02254bd-c448-428c-84b3-b84d0f3bfc68"},"vehicle_type_id":"4","last_reported":1774259543,"current_range_meters":9600,"station_id":"cpo36qri1sfpv3e86is0","pricing_plan_id":"cebpf4jnsgd1na2vs0mg"},{"bike_id":"ec1f0639-98bb-4301-bf6a-13e89c5e2ccc","system_id":"levelo_inurba_marseille","lat":43.31347,"lon":5.36739,"is_reserved":false,"is_disabled":false,"rental_uris":{"android":"levelo://app?vid=ec1f0639-98bb-4301-bf6a-13e89c5e2ccc","ios":"levelo://app?vid=ec1f0639-98bb-4301-bf6a-13e89c5e2ccc"},"vehicle_type_id":"4","last_reported":1774259543,"current_range_meters":9600,"station_id":"ce4bgr92rcd13ifvqc6g","pricing_plan_id":"cebpf4jnsgd1na2vs0mg"},{"bike_id":"823ce9da-d856-4f2e-ad32-95cc89d2c5cd","system_id":"levelo_inurba_marseille","lat":43.29614,"lon":5.37728,"is_reserved":false,"is_disabled":true,"rental_uris":{"android":"levelo://app?vid=823ce9da-d856-4f2e-ad32-95cc89d2c5cd","ios":"levelo://app?vid=823ce9da-d856-4f2e-ad32-95cc89d2c5cd"},"vehicle_type_id":"4","last_reported":1774259543,"current_range_meters":10000,"station_id":"ce4bgi92rcd13ifvqb90","pricing_plan_id":"cebpf4jnsgd1na2vs0mg"},{"bike_id":"67848c75-4172-4111-b1c5-e28e5d5a11e6","system_id":"levelo_inurba_marseille","lat":43.30959,"lon":5.39089,"is_reserved":false,"is_disabled":false,"rental_uris":{"android":"levelo://app?vid=67848c75-4172-4111-b1c5-e28e5d5a11e6","ios":"levelo://app?vid=67848c75-4172-4111-b1c5-e28e5d5a11e6"},"vehicle_type_id":"4","last_reported":1774259543,"current_range_meters":10000,"station_id":"","pricing_plan_id":"cebpf4jnsgd1na2vs0mg"},{"bike_id":"6421968e-f213-4684-9a04-75e8f728c12c","system_id":"levelo_inurba_marseille","lat":43.27488,"lon":5.42453,"is_reserved":false,"is_disabled":false,"rental_uris":{"android":"levelo://app?vid=6421968e-f213-4684-9a04-75e8f728c12c","ios":"levelo://app?vid=6421968e-f213-4684-9a04-75e8f728c12c"},"vehicle_type_id":"4","last_reported":1774259543,"current_range_meters":10000,"station_id":"","pricing_plan_id":"cebpf4jnsgd1na2vs0mg"},{"bike_id":"13d81c3e-583d-4170-96b6-142a87e2f0b0","system_id":"levelo_inurba_marseille","lat":43.28499,"lon":5.48392,"is_reserved":false,"is_disabled":false,"rental_uris":{"android":"levelo://app?vid=13d81c3e-583d-4170-96b6-142a87e2f0b0","ios":"levelo://app?vid=13d81c3e-583d-4170-96b6-142a87e2f0b0"},"vehicle_type_id":"4","last_reported":1774259543,"current_range_meters":10000,"station_id":"st_d3svhcjqgbts73a3dn0g","pricing_plan_id":"cebpf4jnsgd1na2vs0mg"},{"bike_id":"f577e5fa-5741-42e2-8662-b438831a8137","system_id":"levelo_inurba_marseille","lat":43.24656,"lon":5.38892,"is_reserved":false,"is_disabled":false,"rental_uris":{"android":"levelo://app?vid=f577e5fa-5741-42e2-8662-b438831a8137","ios":"levelo://app?vid=f577e5fa-5741-42e2-8662-b438831a8137"},"vehicle_type_id":"4","last_reported":1774259543,"current_range_meters":10000,"station_id":"ce4bhg12rcd13ifvqf60","pricing_plan_id":"cebpf4jnsgd1na2vs0mg"},{"bike_id":"ec96a519-7590-4811-b590-59ad03b7daed","system_id":"levelo_inurba_marseille","lat":43.25939,"lon":5.40897,"is_reserved":false,"is_disabled":false,"rental_uris":{"android":"levelo://app?vid=ec96a519-7590-4811-b590-59ad03b7daed","ios":"levelo://app?vid=ec96a519-7590-4811-b590-59ad03b7daed"},"vehicle_type_id":"4","last_reported":1774259543,"current_range_meters":10000,"station_id":"ce4bhm92rcd13ifvqglg","pricing_plan_id":"cebpf4jnsgd1na2vs0mg"},{"bike_id":"7e03e45c-d69c-4371-8267-aa26cde43729","system_id":"levelo_inurba_marseille","lat":43.25574,"lon":5.38223,"is_reserved":false,"is_disabled":true,"rental_uris":{"android":"levelo://app?vid=7e03e45c-d69c-4371-8267-aa26cde43729","ios":"levelo://app?vid=7e03e45c-d69c-4371-8267-aa26cde43729"},"vehicle_type_id":"4","last_reported":1774259543,"current_range_meters":10000,"station_id":"ce4bhih2rcd13ifvqfs0","pricing_plan_id":"cebpf4jnsgd1na2vs0mg"},{"bike_id":"6711ca2b-9a4e-46b1-892e-1007cc2a656e","system_id":"levelo_inurba_marseille","lat":43.28539,"lon":5.44124,"is_reserved":false,"is_disabled":false,"rental_uris":{"android":"levelo://app?vid=6711ca2b-9a4e-46b1-892e-1007cc2a656e","ios":"levelo://app?vid=6711ca2b-9a4e-46b1-892e-1007cc2a656e"},"vehicle_type_id":"4","last_reported":1774259543,"current_range_meters":10000,"station_id":"st_d3j3df2ikq2c7380ej80","pricing_plan_id":"cebpf4jnsgd1na2vs0mg"},{"bike_id":"64ed6c0a-02aa-4593-8b54-115654139549","system_id":"levelo_inurba_marseille","lat":43.27219,"lon":5.39183,"is_reserved":false,"is_disabled":false,"rental_uris":{"android":"levelo://app?vid=64ed6c0a-02aa-4593-8b54-115654139549","ios":"levelo://app?vid=64ed6c0a-02aa-4593-8b54-115654139549"},"vehicle_type_id":"4","last_reported":1774259543,"current_range_meters":10000,"station_id":"ce4bhhp2rcd13ifvqfm0","pricing_plan_id":"cebpf4jnsgd1na2vs0mg"},{"bike_id":"295d2fa8-4106-478d-8168-0961e395cea1","system_id":"levelo_inurba_marseille","lat":43.26789,"lon":5.39423,"is_reserved":false,"is_disabled":true,"rental_uris":{"android":"levelo://app?vid=295d2fa8-4106-478d-8168-0961e395cea1","ios":"levelo://app?vid=295d2fa8-4106-478d-8168-0961e395cea1"},"vehicle_type_id":"4","last_reported":1774259543,"current_range_meters":10000,"station_id":"ce4bhh12rcd13ifvqfg0","pricing_plan_id":"cebpf4jnsgd1na2vs0mg"},{"bike_id":"301d2ddd-8d0e-4858-b628-0981a10864f9","system_id":"levelo_inurba_marseille","lat":43.30534,"lon":5.36708,"is_reserved":false,"is_disabled":false,"rental_uris":{"android":"levelo://app?vid=301d2ddd-8d0e-4858-b628-0981a10864f9","ios":"levelo://app?vid=301d2ddd-8d0e-4858-b628-0981a10864f9"},"vehicle_type_id":"4","last_reported":1774259543,"current_range_meters":10800,"station_id":"ce4bgrp2rcd13ifvqc9g","pricing_plan_id":"cebpf4jnsgd1na2vs0mg"},{"bike_id":"cb6f9d55-044f-4b41-a0c4-e3da4e421b9e","system_id":"levelo_inurba_marseille","lat":43.27063,"lon":5.40247,"is_reserved":false,"is_disabled":false,"rental_uris":{"android":"levelo://app?vid=cb6f9d55-044f-4b41-a0c4-e3da4e421b9e","ios":"levelo://app?vid=cb6f9d55-044f-4b41-a0c4-e3da4e421b9e"},"vehicle_type_id":"4","last_reported":1774259543,"current_range_meters":10800,"station_id":"ce4bhk92rcd13ifvqgc0","pricing_plan_id":"cebpf4jnsgd1na2vs0mg"},{"bike_id":"b4bd60d6-d657-4d29-a6ad-eb404614cc16","system_id":"levelo_inurba_marseille","lat":43.2873,"lon":5.35178,"is_reserved":false,"is_disabled":false,"rental_uris":{"android":"levelo://app?vid=b4bd60d6-d657-4d29-a6ad-eb404614cc16","ios":"levelo://app?vid=b4bd60d6-d657-4d29-a6ad-eb404614cc16"},"vehicle_type_id":"4","last_reported":1774259543,"current_range_meters":10800,"station_id":"","pricing_plan_id":"cebpf4jnsgd1na2vs0mg"},{"bike_id":"8db2cf9d-2a14-485a-8b25-cd8ac8776499","system_id":"levelo_inurba_marseille","lat":43.27972,"lon":5.4167,"is_reserved":false,"is_disabled":false,"rental_uris":{"android":"levelo://app?vid=8db2cf9d-2a14-485a-8b25-cd8ac8776499","ios":"levelo://app?vid=8db2cf9d-2a14-485a-8b25-cd8ac8776499"},"vehicle_type_id":"4","last_reported":1774259543,"current_range_meters":10800,"station_id":"ce4bho12rcd13ifvqh1g","pricing_plan_id":"cebpf4jnsgd1na2vs0mg"},{"bike_id":"393232f6-7270-4082-9173-56dcdbfbd5a4","system_id":"levelo_inurba_marseille","lat":43.29165,"lon":5.37153,"is_reserved":false,"is_disabled":false,"rental_uris":{"android":"levelo://app?vid=393232f6-7270-4082-9173-56dcdbfbd5a4","ios":"levelo://app?vid=393232f6-7270-4082-9173-56dcdbfbd5a4"},"vehicle_type_id":"4","last_reported":1774259543,"current_range_meters":10800,"station_id":"ce4bha92rcd13ifvqeh0","pricing_plan_id":"cebpf4jnsgd1na2vs0mg"},{"bike_id":"34626e01-cc86-4c92-b6b2-0a10b25993e7","system_id":"levelo_inurba_marseille","lat":43.2866,"lon":5.35076,"is_reserved":false,"is_disabled":true,"rental_uris":{"android":"levelo://app?vid=34626e01-cc86-4c92-b6b2-0a10b25993e7","ios":"levelo://app?vid=34626e01-cc86-4c92-b6b2-0a10b25993e7"},"vehicle_type_id":"4","last_reported":1774259543,"current_range_meters":10800,"station_id":"ce4bhch2rcd13ifvqeug","pricing_plan_id":"cebpf4jnsgd1na2vs0mg"},{"bike_id":"8112e75c-8a75-4054-a1d8-35a40991c946","system_id":"levelo_inurba_marseille","lat":43.29525,"lon":5.39022,"is_reserved":false,"is_disabled":false,"rental_uris":{"android":"levelo://app?vid=8112e75c-8a75-4054-a1d8-35a40991c946","ios":"levelo://app?vid=8112e75c-8a75-4054-a1d8-35a40991c946"},"vehicle_type_id":"4","last_reported":1774259543,"current_range_meters":10800,"station_id":"ce4bh3p2rcd13ifvqdp0","pricing_plan_id":"cebpf4jnsgd1na2vs0mg"},{"bike_id":"aaa1d136-1c1c-44f1-bc66-e2e631aac66d","system_id":"levelo_inurba_marseille","lat":43.23169,"lon":5.4371,"is_reserved":false,"is_disabled":false,"rental_uris":{"android":"levelo://app?vid=aaa1d136-1c1c-44f1-bc66-e2e631aac66d","ios":"levelo://app?vid=aaa1d136-1c1c-44f1-bc66-e2e631aac66d"},"vehicle_type_id":"4","last_reported":1774259543,"current_range_meters":10800,"station_id":"ce4bhmp2rcd13ifvqgog","pricing_plan_id":"cebpf4jnsgd1na2vs0mg"},{"bike_id":"ea9db53e-585d-4dba-bc07-44d7ca1d660f","system_id":"levelo_inurba_marseille","lat":43.24096,"lon":5.37758,"is_reserved":false,"is_disabled":false,"rental_uris":{"android":"levelo://app?vid=ea9db53e-585d-4dba-bc07-44d7ca1d660f","ios":"levelo://app?vid=ea9db53e-585d-4dba-bc07-44d7ca1d660f"},"vehicle_type_id":"4","last_reported":1774259543,"current_range_meters":10800,"station_id":"ce4bhnp2rcd13ifvqgvg","pricing_plan_id":"cebpf4jnsgd1na2vs0mg"},{"bike_id":"a79c45b1-79f1-44cc-8779-97834666c50b","system_id":"levelo_inurba_marseille","lat":43.26932,"lon":5.38924,"is_reserved":false,"is_disabled":false,"rental_uris":{"android":"levelo://app?vid=a79c45b1-79f1-44cc-8779-97834666c50b","ios":"levelo://app?vid=a79c45b1-79f1-44cc-8779-97834666c50b"},"vehicle_type_id":"4","last_reported":1774259543,"current_range_meters":10800,"station_id":"ce4bhhh2rcd13ifvqfl0","pricing_plan_id":"cebpf4jnsgd1na2vs0mg"},{"bike_id":"4dff7f75-9dd0-46fc-b3b7-8ff5fb0ae744","system_id":"levelo_inurba_marseille","lat":43.31362,"lon":5.36684,"is_reserved":false,"is_disabled":false,"rental_uris":{"android":"levelo://app?vid=4dff7f75-9dd0-46fc-b3b7-8ff5fb0ae744","ios":"levelo://app?vid=4dff7f75-9dd0-46fc-b3b7-8ff5fb0ae744"},"vehicle_type_id":"4","last_reported":1774259543,"current_range_meters":10800,"station_id":"ce4bgr92rcd13ifvqc6g","pricing_plan_id":"cebpf4jnsgd1na2vs0mg"},{"bike_id":"40906df4-17dd-4d9f-ac1f-0880c5eb117e","system_id":"levelo_inurba_marseille","lat":43.32362,"lon":5.36766,"is_reserved":false,"is_disabled":false,"rental_uris":{"android":"levelo://app?vid=40906df4-17dd-4d9f-ac1f-0880c5eb117e","ios":"levelo://app?vid=40906df4-17dd-4d9f-ac1f-0880c5eb117e"},"vehicle_type_id":"4","last_reported":1774259543,"current_range_meters":11200,"station_id":"ce4bhsh2rcd13ifvqi2g","pricing_plan_id":"cebpf4jnsgd1na2vs0mg"},{"bike_id":"a14d2edd-85c5-4116-8db5-355e3fb2ddbe","system_id":"levelo_inurba_marseille","lat":43.33561,"lon":5.37453,"is_reserved":false,"is_disabled":false,"rental_uris":{"android":"levelo://app?vid=a14d2edd-85c5-4116-8db5-355e3fb2ddbe","ios":"levelo://app?vid=a14d2edd-85c5-4116-8db5-355e3fb2ddbe"},"vehicle_type_id":"4","last_reported":1774259543,"current_range_meters":11200,"station_id":"st_d46tts09ee8s73dlu43g","pricing_plan_id":"cebpf4jnsgd1na2vs0mg"},{"bike_id":"efe811b6-5e10-4e8c-9e59-a484522fb832","system_id":"levelo_inurba_marseille","lat":43.25588,"lon":5.38225,"is_reserved":false,"is_disabled":false,"rental_uris":{"android":"levelo://app?vid=efe811b6-5e10-4e8c-9e59-a484522fb832","ios":"levelo://app?vid=efe811b6-5e10-4e8c-9e59-a484522fb832"},"vehicle_type_id":"4","last_reported":1774259543,"current_range_meters":11200,"station_id":"ce4bhih2rcd13ifvqfs0","pricing_plan_id":"cebpf4jnsgd1na2vs0mg"},{"bike_id":"445a363e-6635-4c6f-9d9b-6ed1d223c4e8","system_id":"levelo_inurba_marseille","lat":43.29555,"lon":5.43876,"is_reserved":false,"is_disabled":false,"rental_uris":{"android":"levelo://app?vid=445a363e-6635-4c6f-9d9b-6ed1d223c4e8","ios":"levelo://app?vid=445a363e-6635-4c6f-9d9b-6ed1d223c4e8"},"vehicle_type_id":"4","last_reported":1774259543,"current_range_meters":11200,"station_id":"","pricing_plan_id":"cebpf4jnsgd1na2vs0mg"},{"bike_id":"ba3022d7-e9b1-41e9-87b5-e8d444428181","system_id":"levelo_inurba_marseille","lat":43.29986,"lon":5.3717,"is_reserved":false,"is_disabled":false,"rental_uris":{"android":"levelo://app?vid=ba3022d7-e9b1-41e9-87b5-e8d444428181","ios":"levelo://app?vid=ba3022d7-e9b1-41e9-87b5-e8d444428181"},"vehicle_type_id":"4","last_reported":1774259543,"current_range_meters":11200,"station_id":"ce4bgr92rcd13ifvqc7g","pricing_plan_id":"cebpf4jnsgd1na2vs0mg"},{"bike_id":"75b06567-8e7a-4151-aa58-9f3383278dcd","system_id":"levelo_inurba_marseille","lat":43.30163,"lon":5.38076,"is_reserved":false,"is_disabled":false,"rental_uris":{"android":"levelo://app?vid=75b06567-8e7a-4151-aa58-9f3383278dcd","ios":"levelo://app?vid=75b06567-8e7a-4151-aa58-9f3383278dcd"},"vehicle_type_id":"4","last_reported":1774259543,"current_range_meters":11200,"station_id":"ce4bgjp2rcd13ifvqbh0","pricing_plan_id":"cebpf4jnsgd1na2vs0mg"},{"bike_id":"4ce98637-072f-4197-bd69-11f207a88eab","system_id":"levelo_inurba_marseille","lat":43.28496,"lon":5.47279,"is_reserved":false,"is_disabled":false,"rental_uris":{"android":"levelo://app?vid=4ce98637-072f-4197-bd69-11f207a88eab","ios":"levelo://app?vid=4ce98637-072f-4197-bd69-11f207a88eab"},"vehicle_type_id":"4","last_reported":1774259543,"current_range_meters":11200,"station_id":"","pricing_plan_id":"cebpf4jnsgd1na2vs0mg"},{"bike_id":"bc8433fb-2ae3-4f65-a681-78d9ea89d90e","system_id":"levelo_inurba_marseille","lat":43.23924,"lon":5.37462,"is_reserved":false,"is_disabled":true,"rental_uris":{"android":"levelo://app?vid=bc8433fb-2ae3-4f65-a681-78d9ea89d90e","ios":"levelo://app?vid=bc8433fb-2ae3-4f65-a681-78d9ea89d90e"},"vehicle_type_id":"4","last_reported":1774259543,"current_range_meters":11200,"station_id":"st_d6sm7csbq4hs73f8fpjg","pricing_plan_id":"cebpf4jnsgd1na2vs0mg"},{"bike_id":"22198e4c-05a9-4135-822e-fed3eb0a0767","system_id":"levelo_inurba_marseille","lat":43.2401,"lon":5.36258,"is_reserved":false,"is_disabled":false,"rental_uris":{"android":"levelo://app?vid=22198e4c-05a9-4135-822e-fed3eb0a0767","ios":"levelo://app?vid=22198e4c-05a9-4135-822e-fed3eb0a0767"},"vehicle_type_id":"4","last_reported":1774259543,"current_range_meters":11200,"station_id":"","pricing_plan_id":"cebpf4jnsgd1na2vs0mg"},{"bike_id":"f3dccb27-25f8-415f-8a8c-207408b72398","system_id":"levelo_inurba_marseille","lat":43.32064,"lon":5.36761,"is_reserved":false,"is_disabled":false,"rental_uris":{"android":"levelo://app?vid=f3dccb27-25f8-415f-8a8c-207408b72398","ios":"levelo://app?vid=f3dccb27-25f8-415f-8a8c-207408b72398"},"vehicle_type_id":"4","last_reported":1774259543,"current_range_meters":11200,"station_id":"ce4bhrh2rcd13ifvqhug","pricing_plan_id":"cebpf4jnsgd1na2vs0mg"},{"bike_id":"af7c1f9c-314f-45cf-a27e-b868a4e0f9c3","system_id":"levelo_inurba_marseille","lat":43.26565,"lon":5.39051,"is_reserved":false,"is_disabled":true,"rental_uris":{"android":"levelo://app?vid=af7c1f9c-314f-45cf-a27e-b868a4e0f9c3","ios":"levelo://app?vid=af7c1f9c-314f-45cf-a27e-b868a4e0f9c3"},"vehicle_type_id":"4","last_reported":1774259543,"current_range_meters":11200,"station_id":"ce4bhe12rcd13ifvqf30","pricing_plan_id":"cebpf4jnsgd1na2vs0mg"},{"bike_id":"4a4c5b02-3826-46bf-ab56-d7070d2a92cf","system_id":"levelo_inurba_marseille","lat":43.27204,"lon":5.3919,"is_reserved":false,"is_disabled":true,"rental_uris":{"android":"levelo://app?vid=4a4c5b02-3826-46bf-ab56-d7070d2a92cf","ios":"levelo://app?vid=4a4c5b02-3826-46bf-ab56-d7070d2a92cf"},"vehicle_type_id":"4","last_reported":1774259543,"current_range_meters":11200,"station_id":"ce4bhhp2rcd13ifvqfm0","pricing_plan_id":"cebpf4jnsgd1na2vs0mg"},{"bike_id":"8d8566de-f03a-4e5e-aa8c-ad2e3c17ab03","system_id":"levelo_inurba_marseille","lat":43.31554,"lon":5.373,"is_reserved":false,"is_disabled":false,"rental_uris":{"android":"levelo://app?vid=8d8566de-f03a-4e5e-aa8c-ad2e3c17ab03","ios":"levelo://app?vid=8d8566de-f03a-4e5e-aa8c-ad2e3c17ab03"},"vehicle_type_id":"4","last_reported":1774259543,"current_range_meters":11200,"station_id":"","pricing_plan_id":"cebpf4jnsgd1na2vs0mg"},{"bike_id":"1206b80d-08df-4dbc-999c-48aabe775d89","system_id":"levelo_inurba_marseille","lat":43.30307,"lon":5.44973,"is_reserved":false,"is_disabled":false,"rental_uris":{"android":"levelo://app?vid=1206b80d-08df-4dbc-999c-48aabe775d89","ios":"levelo://app?vid=1206b80d-08df-4dbc-999c-48aabe775d89"},"vehicle_type_id":"4","last_reported":1774259543,"current_range_meters":11200,"station_id":"","pricing_plan_id":"cebpf4jnsgd1na2vs0mg"},{"bike_id":"2ad78ba9-fa9c-45b1-9aaa-5aa50345ef16","system_id":"levelo_inurba_marseille","lat":43.25959,"lon":5.40892,"is_reserved":false,"is_disabled":false,"rental_uris":{"android":"levelo://app?vid=2ad78ba9-fa9c-45b1-9aaa-5aa50345ef16","ios":"levelo://app?vid=2ad78ba9-fa9c-45b1-9aaa-5aa50345ef16"},"vehicle_type_id":"4","last_reported":1774259543,"current_range_meters":11200,"station_id":"ce4bhm92rcd13ifvqglg","pricing_plan_id":"cebpf4jnsgd1na2vs0mg"},{"bike_id":"0532bc68-6e09-4402-b669-047c6d5ea80b","system_id":"levelo_inurba_marseille","lat":43.3051,"lon":5.36732,"is_reserved":false,"is_disabled":false,"rental_uris":{"android":"levelo://app?vid=0532bc68-6e09-4402-b669-047c6d5ea80b","ios":"levelo://app?vid=0532bc68-6e09-4402-b669-047c6d5ea80b"},"vehicle_type_id":"4","last_reported":1774259543,"current_range_meters":11600,"station_id":"ce4bgrp2rcd13ifvqc9g","pricing_plan_id":"cebpf4jnsgd1na2vs0mg"},{"bike_id":"2f5b6265-483e-47d4-831c-32860cec290b","system_id":"levelo_inurba_marseille","lat":43.29572,"lon":5.42278,"is_reserved":false,"is_disabled":false,"rental_uris":{"android":"levelo://app?vid=2f5b6265-483e-47d4-831c-32860cec290b","ios":"levelo://app?vid=2f5b6265-483e-47d4-831c-32860cec290b"},"vehicle_type_id":"4","last_reported":1774259543,"current_range_meters":11600,"station_id":"ce4bhph2rcd13ifvqhdg","pricing_plan_id":"cebpf4jnsgd1na2vs0mg"},{"bike_id":"0fd033e4-5a1d-40d1-a80c-98a43294da01","system_id":"levelo_inurba_marseille","lat":43.23834,"lon":5.36655,"is_reserved":false,"is_disabled":true,"rental_uris":{"android":"levelo://app?vid=0fd033e4-5a1d-40d1-a80c-98a43294da01","ios":"levelo://app?vid=0fd033e4-5a1d-40d1-a80c-98a43294da01"},"vehicle_type_id":"4","last_reported":1774259543,"current_range_meters":11600,"station_id":"st_d3nk18o9ro0c73en2l3g","pricing_plan_id":"cebpf4jnsgd1na2vs0mg"},{"bike_id":"70e7de8a-8674-4302-bb71-fec3580816d0","system_id":"levelo_inurba_marseille","lat":43.31885,"lon":5.40697,"is_reserved":false,"is_disabled":false,"rental_uris":{"android":"levelo://app?vid=70e7de8a-8674-4302-bb71-fec3580816d0","ios":"levelo://app?vid=70e7de8a-8674-4302-bb71-fec3580816d0"},"vehicle_type_id":"4","last_reported":1774259543,"current_range_meters":11600,"station_id":"ce4bhq12rcd13ifvqhig","pricing_plan_id":"cebpf4jnsgd1na2vs0mg"},{"bike_id":"e56ca87f-9a62-4945-851d-08427ea44054","system_id":"levelo_inurba_marseille","lat":43.2733,"lon":5.39059,"is_reserved":false,"is_disabled":false,"rental_uris":{"android":"levelo://app?vid=e56ca87f-9a62-4945-851d-08427ea44054","ios":"levelo://app?vid=e56ca87f-9a62-4945-851d-08427ea44054"},"vehicle_type_id":"4","last_reported":1774259543,"current_range_meters":11600,"station_id":"ce4bhgp2rcd13ifvqfe0","pricing_plan_id":"cebpf4jnsgd1na2vs0mg"},{"bike_id":"03de066e-76f7-4061-86fd-4299f0e7442e","system_id":"levelo_inurba_marseille","lat":43.23133,"lon":5.43689,"is_reserved":false,"is_disabled":false,"rental_uris":{"android":"levelo://app?vid=03de066e-76f7-4061-86fd-4299f0e7442e","ios":"levelo://app?vid=03de066e-76f7-4061-86fd-4299f0e7442e"},"vehicle_type_id":"4","last_reported":1774259543,"current_range_meters":11600,"station_id":"ce4bhmp2rcd13ifvqgog","pricing_plan_id":"cebpf4jnsgd1na2vs0mg"},{"bike_id":"49fb7aa9-b687-4c02-8d9f-0863cc1498c9","system_id":"levelo_inurba_marseille","lat":43.29917,"lon":5.37469,"is_reserved":false,"is_disabled":false,"rental_uris":{"android":"levelo://app?vid=49fb7aa9-b687-4c02-8d9f-0863cc1498c9","ios":"levelo://app?vid=49fb7aa9-b687-4c02-8d9f-0863cc1498c9"},"vehicle_type_id":"4","last_reported":1774259543,"current_range_meters":11600,"station_id":"ce4bgjh2rcd13ifvqbg0","pricing_plan_id":"cebpf4jnsgd1na2vs0mg"},{"bike_id":"c72b7fd2-e680-4892-b230-2090babbdf59","system_id":"levelo_inurba_marseille","lat":43.31406,"lon":5.40404,"is_reserved":false,"is_disabled":false,"rental_uris":{"android":"levelo://app?vid=c72b7fd2-e680-4892-b230-2090babbdf59","ios":"levelo://app?vid=c72b7fd2-e680-4892-b230-2090babbdf59"},"vehicle_type_id":"4","last_reported":1774259543,"current_range_meters":11600,"station_id":"","pricing_plan_id":"cebpf4jnsgd1na2vs0mg"},{"bike_id":"43bd9f61-7579-47d3-86b0-f7694257f2c4","system_id":"levelo_inurba_marseille","lat":43.23385,"lon":5.41236,"is_reserved":false,"is_disabled":false,"rental_uris":{"android":"levelo://app?vid=43bd9f61-7579-47d3-86b0-f7694257f2c4","ios":"levelo://app?vid=43bd9f61-7579-47d3-86b0-f7694257f2c4"},"vehicle_type_id":"4","last_reported":1774259543,"current_range_meters":11600,"station_id":"","pricing_plan_id":"cebpf4jnsgd1na2vs0mg"},{"bike_id":"0e2f4137-e82a-401c-945f-6a1c7c098239","system_id":"levelo_inurba_marseille","lat":43.29618,"lon":5.37142,"is_reserved":false,"is_disabled":false,"rental_uris":{"android":"levelo://app?vid=0e2f4137-e82a-401c-945f-6a1c7c098239","ios":"levelo://app?vid=0e2f4137-e82a-401c-945f-6a1c7c098239"},"vehicle_type_id":"4","last_reported":1774259543,"current_range_meters":12000,"station_id":"ce4bgnh2rcd13ifvqc0g","pricing_plan_id":"cebpf4jnsgd1na2vs0mg"},{"bike_id":"b75036ac-d81d-4bfd-a9c8-a051a6ff39fe","system_id":"levelo_inurba_marseille","lat":43.28529,"lon":5.44126,"is_reserved":false,"is_disabled":false,"rental_uris":{"android":"levelo://app?vid=b75036ac-d81d-4bfd-a9c8-a051a6ff39fe","ios":"levelo://app?vid=b75036ac-d81d-4bfd-a9c8-a051a6ff39fe"},"vehicle_type_id":"4","last_reported":1774259543,"current_range_meters":12000,"station_id":"st_d3j3df2ikq2c7380ej80","pricing_plan_id":"cebpf4jnsgd1na2vs0mg"},{"bike_id":"66a43d55-32c7-48fb-b013-3d7574d12857","system_id":"levelo_inurba_marseille","lat":43.25022,"lon":5.38905,"is_reserved":false,"is_disabled":true,"rental_uris":{"android":"levelo://app?vid=66a43d55-32c7-48fb-b013-3d7574d12857","ios":"levelo://app?vid=66a43d55-32c7-48fb-b013-3d7574d12857"},"vehicle_type_id":"4","last_reported":1774259543,"current_range_meters":12000,"station_id":"ce4bhgp2rcd13ifvqfd0","pricing_plan_id":"cebpf4jnsgd1na2vs0mg"},{"bike_id":"17b6291a-b600-49d3-9437-0d985b9a42cc","system_id":"levelo_inurba_marseille","lat":43.30293,"lon":5.36905,"is_reserved":false,"is_disabled":false,"rental_uris":{"android":"levelo://app?vid=17b6291a-b600-49d3-9437-0d985b9a42cc","ios":"levelo://app?vid=17b6291a-b600-49d3-9437-0d985b9a42cc"},"vehicle_type_id":"4","last_reported":1774259543,"current_range_meters":12000,"station_id":"ce4bgqh2rcd13ifvqc5g","pricing_plan_id":"cebpf4jnsgd1na2vs0mg"},{"bike_id":"22a24422-8367-44e3-afc2-fd1672c2c7f5","system_id":"levelo_inurba_marseille","lat":43.28487,"lon":5.48395,"is_reserved":false,"is_disabled":false,"rental_uris":{"android":"levelo://app?vid=22a24422-8367-44e3-afc2-fd1672c2c7f5","ios":"levelo://app?vid=22a24422-8367-44e3-afc2-fd1672c2c7f5"},"vehicle_type_id":"4","last_reported":1774259543,"current_range_meters":12000,"station_id":"","pricing_plan_id":"cebpf4jnsgd1na2vs0mg"},{"bike_id":"e31321df-f6b6-4085-b6cd-45ac0acd08d8","system_id":"levelo_inurba_marseille","lat":43.29847,"lon":5.36272,"is_reserved":false,"is_disabled":false,"rental_uris":{"android":"levelo://app?vid=e31321df-f6b6-4085-b6cd-45ac0acd08d8","ios":"levelo://app?vid=e31321df-f6b6-4085-b6cd-45ac0acd08d8"},"vehicle_type_id":"4","last_reported":1774259543,"current_range_meters":12000,"station_id":"ce4bgpp2rcd13ifvqc3g","pricing_plan_id":"cebpf4jnsgd1na2vs0mg"},{"bike_id":"cbe143e8-3e8d-46c8-8239-3389a4661d28","system_id":"levelo_inurba_marseille","lat":43.30345,"lon":5.36958,"is_reserved":false,"is_disabled":false,"rental_uris":{"android":"levelo://app?vid=cbe143e8-3e8d-46c8-8239-3389a4661d28","ios":"levelo://app?vid=cbe143e8-3e8d-46c8-8239-3389a4661d28"},"vehicle_type_id":"4","last_reported":1774259543,"current_range_meters":12000,"station_id":"","pricing_plan_id":"cebpf4jnsgd1na2vs0mg"},{"bike_id":"779d26ca-01b0-47aa-bf29-f397cd73698c","system_id":"levelo_inurba_marseille","lat":43.31683,"lon":5.4048,"is_reserved":false,"is_disabled":false,"rental_uris":{"android":"levelo://app?vid=779d26ca-01b0-47aa-bf29-f397cd73698c","ios":"levelo://app?vid=779d26ca-01b0-47aa-bf29-f397cd73698c"},"vehicle_type_id":"4","last_reported":1774259543,"current_range_meters":12000,"station_id":"ce4bh012rcd13ifvqd00","pricing_plan_id":"cebpf4jnsgd1na2vs0mg"},{"bike_id":"75d3faa8-0304-4eca-9bc0-30a99e6e4a5e","system_id":"levelo_inurba_marseille","lat":43.22536,"lon":5.34839,"is_reserved":false,"is_disabled":true,"rental_uris":{"android":"levelo://app?vid=75d3faa8-0304-4eca-9bc0-30a99e6e4a5e","ios":"levelo://app?vid=75d3faa8-0304-4eca-9bc0-30a99e6e4a5e"},"vehicle_type_id":"4","last_reported":1774259543,"current_range_meters":12000,"station_id":"st_cvj5dfep6f1abm77gieg","pricing_plan_id":"cebpf4jnsgd1na2vs0mg"},{"bike_id":"0b249954-2a09-4d2f-ae8d-6a87dd39f614","system_id":"levelo_inurba_marseille","lat":43.276142,"lon":5.361008,"is_reserved":false,"is_disabled":false,"rental_uris":{"android":"levelo://app?vid=0b249954-2a09-4d2f-ae8d-6a87dd39f614","ios":"levelo://app?vid=0b249954-2a09-4d2f-ae8d-6a87dd39f614"},"vehicle_type_id":"4","last_reported":1774259543,"current_range_meters":12000,"station_id":"ce4bgj92rcd13ifvqbe0","pricing_plan_id":"cebpf4jnsgd1na2vs0mg"},{"bike_id":"e4739c25-dd1d-43da-9941-56dfa51da56f","system_id":"levelo_inurba_marseille","lat":43.24468,"lon":5.42531,"is_reserved":false,"is_disabled":false,"rental_uris":{"android":"levelo://app?vid=e4739c25-dd1d-43da-9941-56dfa51da56f","ios":"levelo://app?vid=e4739c25-dd1d-43da-9941-56dfa51da56f"},"vehicle_type_id":"4","last_reported":1774259543,"current_range_meters":12400,"station_id":"st_d4a3vfp97mjs738cd8kg","pricing_plan_id":"cebpf4jnsgd1na2vs0mg"},{"bike_id":"992d461f-8839-4086-b27a-9edc1d38b03d","system_id":"levelo_inurba_marseille","lat":43.33555,"lon":5.37461,"is_reserved":false,"is_disabled":false,"rental_uris":{"android":"levelo://app?vid=992d461f-8839-4086-b27a-9edc1d38b03d","ios":"levelo://app?vid=992d461f-8839-4086-b27a-9edc1d38b03d"},"vehicle_type_id":"4","last_reported":1774259543,"current_range_meters":12400,"station_id":"st_d46tts09ee8s73dlu43g","pricing_plan_id":"cebpf4jnsgd1na2vs0mg"},{"bike_id":"5b04a8eb-740f-490b-a007-53c597dc6ddc","system_id":"levelo_inurba_marseille","lat":43.30505,"lon":5.36606,"is_reserved":false,"is_disabled":false,"rental_uris":{"android":"levelo://app?vid=5b04a8eb-740f-490b-a007-53c597dc6ddc","ios":"levelo://app?vid=5b04a8eb-740f-490b-a007-53c597dc6ddc"},"vehicle_type_id":"4","last_reported":1774259543,"current_range_meters":12400,"station_id":"","pricing_plan_id":"cebpf4jnsgd1na2vs0mg"},{"bike_id":"6b8acac9-ccf3-4647-89ff-89fbb46b6df8","system_id":"levelo_inurba_marseille","lat":43.30348,"lon":5.45078,"is_reserved":false,"is_disabled":false,"rental_uris":{"android":"levelo://app?vid=6b8acac9-ccf3-4647-89ff-89fbb46b6df8","ios":"levelo://app?vid=6b8acac9-ccf3-4647-89ff-89fbb46b6df8"},"vehicle_type_id":"4","last_reported":1774259543,"current_range_meters":12400,"station_id":"","pricing_plan_id":"cebpf4jnsgd1na2vs0mg"},{"bike_id":"6bc21be0-7735-4095-bdcc-5e5feccd13f4","system_id":"levelo_inurba_marseille","lat":43.31203,"lon":5.36902,"is_reserved":false,"is_disabled":false,"rental_uris":{"android":"levelo://app?vid=6bc21be0-7735-4095-bdcc-5e5feccd13f4","ios":"levelo://app?vid=6bc21be0-7735-4095-bdcc-5e5feccd13f4"},"vehicle_type_id":"4","last_reported":1774259543,"current_range_meters":12400,"station_id":"ce4bgl92rcd13ifvqbq0","pricing_plan_id":"cebpf4jnsgd1na2vs0mg"},{"bike_id":"66071a2b-b2ee-4a77-b65d-976f06c79310","system_id":"levelo_inurba_marseille","lat":43.26357,"lon":5.41054,"is_reserved":false,"is_disabled":false,"rental_uris":{"android":"levelo://app?vid=66071a2b-b2ee-4a77-b65d-976f06c79310","ios":"levelo://app?vid=66071a2b-b2ee-4a77-b65d-976f06c79310"},"vehicle_type_id":"4","last_reported":1774259543,"current_range_meters":12400,"station_id":"st_d4e5ca6na9uc73bfl5fg","pricing_plan_id":"cebpf4jnsgd1na2vs0mg"},{"bike_id":"96e579ec-159d-4d4a-81b0-fe699969cb15","system_id":"levelo_inurba_marseille","lat":43.27635,"lon":5.36117,"is_reserved":false,"is_disabled":true,"rental_uris":{"android":"levelo://app?vid=96e579ec-159d-4d4a-81b0-fe699969cb15","ios":"levelo://app?vid=96e579ec-159d-4d4a-81b0-fe699969cb15"},"vehicle_type_id":"4","last_reported":1774259543,"current_range_meters":12400,"station_id":"ce4bgj92rcd13ifvqbe0","pricing_plan_id":"cebpf4jnsgd1na2vs0mg"},{"bike_id":"4bc7cf12-4563-4afe-a4a9-1cf6a78b14f0","system_id":"levelo_inurba_marseille","lat":43.28061,"lon":5.39645,"is_reserved":false,"is_disabled":false,"rental_uris":{"android":"levelo://app?vid=4bc7cf12-4563-4afe-a4a9-1cf6a78b14f0","ios":"levelo://app?vid=4bc7cf12-4563-4afe-a4a9-1cf6a78b14f0"},"vehicle_type_id":"4","last_reported":1774259543,"current_range_meters":12400,"station_id":"ce4bho12rcd13ifvqh2g","pricing_plan_id":"cebpf4jnsgd1na2vs0mg"},{"bike_id":"81177794-fc04-4a8b-9118-1d10baf47541","system_id":"levelo_inurba_marseille","lat":43.29585,"lon":5.37487,"is_reserved":false,"is_disabled":false,"rental_uris":{"android":"levelo://app?vid=81177794-fc04-4a8b-9118-1d10baf47541","ios":"levelo://app?vid=81177794-fc04-4a8b-9118-1d10baf47541"},"vehicle_type_id":"4","last_reported":1774259543,"current_range_meters":12400,"station_id":"ce4bgh92rcd13ifvqb50","pricing_plan_id":"cebpf4jnsgd1na2vs0mg"},{"bike_id":"f7f1894c-daf2-4259-865f-2e81d02f8cdf","system_id":"levelo_inurba_marseille","lat":43.30154,"lon":5.38076,"is_reserved":false,"is_disabled":false,"rental_uris":{"android":"levelo://app?vid=f7f1894c-daf2-4259-865f-2e81d02f8cdf","ios":"levelo://app?vid=f7f1894c-daf2-4259-865f-2e81d02f8cdf"},"vehicle_type_id":"4","last_reported":1774259543,"current_range_meters":12400,"station_id":"ce4bgjp2rcd13ifvqbh0","pricing_plan_id":"cebpf4jnsgd1na2vs0mg"},{"bike_id":"0bcb9796-5e30-4f8c-bcc3-4720686e9d6d","system_id":"levelo_inurba_marseille","lat":43.26554,"lon":5.3727,"is_reserved":false,"is_disabled":false,"rental_uris":{"android":"levelo://app?vid=0bcb9796-5e30-4f8c-bcc3-4720686e9d6d","ios":"levelo://app?vid=0bcb9796-5e30-4f8c-bcc3-4720686e9d6d"},"vehicle_type_id":"4","last_reported":1774259543,"current_range_meters":12400,"station_id":"ce4bhg12rcd13ifvqf70","pricing_plan_id":"cebpf4jnsgd1na2vs0mg"},{"bike_id":"5ea3522f-86cd-4d0b-819f-55f4f1a36db9","system_id":"levelo_inurba_marseille","lat":43.2902,"lon":5.37553,"is_reserved":false,"is_disabled":false,"rental_uris":{"android":"levelo://app?vid=5ea3522f-86cd-4d0b-819f-55f4f1a36db9","ios":"levelo://app?vid=5ea3522f-86cd-4d0b-819f-55f4f1a36db9"},"vehicle_type_id":"4","last_reported":1774259543,"current_range_meters":12400,"station_id":"ce4bh692rcd13ifvqe90","pricing_plan_id":"cebpf4jnsgd1na2vs0mg"},{"bike_id":"12fa34e7-96ae-4548-9aaa-c6d3e3fe6ed1","system_id":"levelo_inurba_marseille","lat":43.29914,"lon":5.37474,"is_reserved":false,"is_disabled":false,"rental_uris":{"android":"levelo://app?vid=12fa34e7-96ae-4548-9aaa-c6d3e3fe6ed1","ios":"levelo://app?vid=12fa34e7-96ae-4548-9aaa-c6d3e3fe6ed1"},"vehicle_type_id":"4","last_reported":1774259543,"current_range_meters":12400,"station_id":"ce4bgjh2rcd13ifvqbg0","pricing_plan_id":"cebpf4jnsgd1na2vs0mg"},{"bike_id":"18f25b74-ebab-486a-b432-3c03e3ef09ee","system_id":"levelo_inurba_marseille","lat":43.2849,"lon":5.48396,"is_reserved":false,"is_disabled":false,"rental_uris":{"android":"levelo://app?vid=18f25b74-ebab-486a-b432-3c03e3ef09ee","ios":"levelo://app?vid=18f25b74-ebab-486a-b432-3c03e3ef09ee"},"vehicle_type_id":"4","last_reported":1774259543,"current_range_meters":12400,"station_id":"","pricing_plan_id":"cebpf4jnsgd1na2vs0mg"},{"bike_id":"5016f481-c4f2-49ee-b195-5a686f3fce52","system_id":"levelo_inurba_marseille","lat":43.288522,"lon":5.358479,"is_reserved":false,"is_disabled":true,"rental_uris":{"android":"levelo://app?vid=5016f481-c4f2-49ee-b195-5a686f3fce52","ios":"levelo://app?vid=5016f481-c4f2-49ee-b195-5a686f3fce52"},"vehicle_type_id":"4","last_reported":1774259543,"current_range_meters":12800,"station_id":"","pricing_plan_id":"cebpf4jnsgd1na2vs0mg"},{"bike_id":"fdd8bf84-b2fe-4508-9572-06ea662fa5ac","system_id":"levelo_inurba_marseille","lat":43.28474,"lon":5.48404,"is_reserved":false,"is_disabled":false,"rental_uris":{"android":"levelo://app?vid=fdd8bf84-b2fe-4508-9572-06ea662fa5ac","ios":"levelo://app?vid=fdd8bf84-b2fe-4508-9572-06ea662fa5ac"},"vehicle_type_id":"4","last_reported":1774259543,"current_range_meters":12800,"station_id":"","pricing_plan_id":"cebpf4jnsgd1na2vs0mg"},{"bike_id":"62c0eda8-c666-40c1-b62d-71242266f316","system_id":"levelo_inurba_marseille","lat":43.28472,"lon":5.3918,"is_reserved":false,"is_disabled":true,"rental_uris":{"android":"levelo://app?vid=62c0eda8-c666-40c1-b62d-71242266f316","ios":"levelo://app?vid=62c0eda8-c666-40c1-b62d-71242266f316"},"vehicle_type_id":"4","last_reported":1774259543,"current_range_meters":12800,"station_id":"ce4bhoh2rcd13ifvqh5g","pricing_plan_id":"cebpf4jnsgd1na2vs0mg"},{"bike_id":"c14243a1-d4ae-4053-9d61-7f0dadff5ad5","system_id":"levelo_inurba_marseille","lat":43.2814,"lon":5.42645,"is_reserved":false,"is_disabled":false,"rental_uris":{"android":"levelo://app?vid=c14243a1-d4ae-4053-9d61-7f0dadff5ad5","ios":"levelo://app?vid=c14243a1-d4ae-4053-9d61-7f0dadff5ad5"},"vehicle_type_id":"4","last_reported":1774259543,"current_range_meters":12800,"station_id":"ce4bhnh2rcd13ifvqgug","pricing_plan_id":"cebpf4jnsgd1na2vs0mg"},{"bike_id":"412d3d15-59d9-42dc-9486-1e507b2096dc","system_id":"levelo_inurba_marseille","lat":43.27678,"lon":5.38871,"is_reserved":false,"is_disabled":false,"rental_uris":{"android":"levelo://app?vid=412d3d15-59d9-42dc-9486-1e507b2096dc","ios":"levelo://app?vid=412d3d15-59d9-42dc-9486-1e507b2096dc"},"vehicle_type_id":"4","last_reported":1774259543,"current_range_meters":12800,"station_id":"ce4bhi12rcd13ifvqfo0","pricing_plan_id":"cebpf4jnsgd1na2vs0mg"},{"bike_id":"9de7daed-cdb7-48e4-b077-5a43c5e59fb6","system_id":"levelo_inurba_marseille","lat":43.27072,"lon":5.42271,"is_reserved":false,"is_disabled":false,"rental_uris":{"android":"levelo://app?vid=9de7daed-cdb7-48e4-b077-5a43c5e59fb6","ios":"levelo://app?vid=9de7daed-cdb7-48e4-b077-5a43c5e59fb6"},"vehicle_type_id":"4","last_reported":1774259543,"current_range_meters":12800,"station_id":"ce4bhk92rcd13ifvqgb0","pricing_plan_id":"cebpf4jnsgd1na2vs0mg"},{"bike_id":"2d04b8fe-81f5-4f60-9ece-d11e6301f2d4","system_id":"levelo_inurba_marseille","lat":43.31344,"lon":5.36719,"is_reserved":false,"is_disabled":false,"rental_uris":{"android":"levelo://app?vid=2d04b8fe-81f5-4f60-9ece-d11e6301f2d4","ios":"levelo://app?vid=2d04b8fe-81f5-4f60-9ece-d11e6301f2d4"},"vehicle_type_id":"4","last_reported":1774259543,"current_range_meters":12800,"station_id":"ce4bgr92rcd13ifvqc6g","pricing_plan_id":"cebpf4jnsgd1na2vs0mg"},{"bike_id":"d8697872-e884-425a-8c11-57f8ae2606bc","system_id":"levelo_inurba_marseille","lat":43.23174,"lon":5.39934,"is_reserved":false,"is_disabled":false,"rental_uris":{"android":"levelo://app?vid=d8697872-e884-425a-8c11-57f8ae2606bc","ios":"levelo://app?vid=d8697872-e884-425a-8c11-57f8ae2606bc"},"vehicle_type_id":"4","last_reported":1774259543,"current_range_meters":12800,"station_id":"","pricing_plan_id":"cebpf4jnsgd1na2vs0mg"},{"bike_id":"263c6668-bba1-43cc-8727-742e3b633d6c","system_id":"levelo_inurba_marseille","lat":43.28537,"lon":5.38418,"is_reserved":false,"is_disabled":false,"rental_uris":{"android":"levelo://app?vid=263c6668-bba1-43cc-8727-742e3b633d6c","ios":"levelo://app?vid=263c6668-bba1-43cc-8727-742e3b633d6c"},"vehicle_type_id":"4","last_reported":1774259543,"current_range_meters":12800,"station_id":"","pricing_plan_id":"cebpf4jnsgd1na2vs0mg"},{"bike_id":"b6e35e59-3bb9-4d3b-bfc5-f59fe7140af2","system_id":"levelo_inurba_marseille","lat":43.29703,"lon":5.37281,"is_reserved":false,"is_disabled":false,"rental_uris":{"android":"levelo://app?vid=b6e35e59-3bb9-4d3b-bfc5-f59fe7140af2","ios":"levelo://app?vid=b6e35e59-3bb9-4d3b-bfc5-f59fe7140af2"},"vehicle_type_id":"4","last_reported":1774259543,"current_range_meters":13600,"station_id":"ce4bgk12rcd13ifvqbj0","pricing_plan_id":"cebpf4jnsgd1na2vs0mg"},{"bike_id":"b8d7a02a-f8e6-461d-88a3-e73fba899271","system_id":"levelo_inurba_marseille","lat":43.21746,"lon":5.34613,"is_reserved":false,"is_disabled":true,"rental_uris":{"android":"levelo://app?vid=b8d7a02a-f8e6-461d-88a3-e73fba899271","ios":"levelo://app?vid=b8d7a02a-f8e6-461d-88a3-e73fba899271"},"vehicle_type_id":"4","last_reported":1774259543,"current_range_meters":13600,"station_id":"st_cvj6r9ubvosntc0bgbag","pricing_plan_id":"cebpf4jnsgd1na2vs0mg"},{"bike_id":"96c604cf-95fa-4003-bdbd-ae5192c5241f","system_id":"levelo_inurba_marseille","lat":43.26683,"lon":5.38272,"is_reserved":false,"is_disabled":false,"rental_uris":{"android":"levelo://app?vid=96c604cf-95fa-4003-bdbd-ae5192c5241f","ios":"levelo://app?vid=96c604cf-95fa-4003-bdbd-ae5192c5241f"},"vehicle_type_id":"4","last_reported":1774259543,"current_range_meters":13600,"station_id":"ce4bhg92rcd13ifvqf90","pricing_plan_id":"cebpf4jnsgd1na2vs0mg"},{"bike_id":"a47f1f2a-4209-412a-b494-65c233f6ed6e","system_id":"levelo_inurba_marseille","lat":43.290426,"lon":5.375339,"is_reserved":false,"is_disabled":false,"rental_uris":{"android":"levelo://app?vid=a47f1f2a-4209-412a-b494-65c233f6ed6e","ios":"levelo://app?vid=a47f1f2a-4209-412a-b494-65c233f6ed6e"},"vehicle_type_id":"4","last_reported":1774259543,"current_range_meters":13600,"station_id":"ce4bh5p2rcd13ifvqe4g","pricing_plan_id":"cebpf4jnsgd1na2vs0mg"},{"bike_id":"d76222bb-2939-4d7c-9d5e-c7eaa7d2f516","system_id":"levelo_inurba_marseille","lat":43.30607,"lon":5.37249,"is_reserved":false,"is_disabled":false,"rental_uris":{"android":"levelo://app?vid=d76222bb-2939-4d7c-9d5e-c7eaa7d2f516","ios":"levelo://app?vid=d76222bb-2939-4d7c-9d5e-c7eaa7d2f516"},"vehicle_type_id":"4","last_reported":1774259543,"current_range_meters":13600,"station_id":"ce4bgqh2rcd13ifvqc4g","pricing_plan_id":"cebpf4jnsgd1na2vs0mg"},{"bike_id":"489b1f47-9bf9-4f10-90f5-3b4dff230700","system_id":"levelo_inurba_marseille","lat":43.23785,"lon":5.36634,"is_reserved":false,"is_disabled":false,"rental_uris":{"android":"levelo://app?vid=489b1f47-9bf9-4f10-90f5-3b4dff230700","ios":"levelo://app?vid=489b1f47-9bf9-4f10-90f5-3b4dff230700"},"vehicle_type_id":"4","last_reported":1774259543,"current_range_meters":13600,"station_id":"st_d3nk18o9ro0c73en2l3g","pricing_plan_id":"cebpf4jnsgd1na2vs0mg"},{"bike_id":"26108a37-c467-4811-a0c3-d12e7c8355fb","system_id":"levelo_inurba_marseille","lat":43.25829,"lon":5.39439,"is_reserved":false,"is_disabled":true,"rental_uris":{"android":"levelo://app?vid=26108a37-c467-4811-a0c3-d12e7c8355fb","ios":"levelo://app?vid=26108a37-c467-4811-a0c3-d12e7c8355fb"},"vehicle_type_id":"4","last_reported":1774259543,"current_range_meters":13600,"station_id":"ce4bhip2rcd13ifvqft0","pricing_plan_id":"cebpf4jnsgd1na2vs0mg"},{"bike_id":"0fde2b56-b68c-4da9-b43c-c230f1eb4159","system_id":"levelo_inurba_marseille","lat":43.30301,"lon":5.39201,"is_reserved":false,"is_disabled":true,"rental_uris":{"android":"levelo://app?vid=0fde2b56-b68c-4da9-b43c-c230f1eb4159","ios":"levelo://app?vid=0fde2b56-b68c-4da9-b43c-c230f1eb4159"},"vehicle_type_id":"4","last_reported":1774259543,"current_range_meters":14000,"station_id":"ce4bgkh2rcd13ifvqbk0","pricing_plan_id":"cebpf4jnsgd1na2vs0mg"},{"bike_id":"2b48529e-0125-4313-852e-f217d772b710","system_id":"levelo_inurba_marseille","lat":43.30553,"lon":5.367,"is_reserved":false,"is_disabled":false,"rental_uris":{"android":"levelo://app?vid=2b48529e-0125-4313-852e-f217d772b710","ios":"levelo://app?vid=2b48529e-0125-4313-852e-f217d772b710"},"vehicle_type_id":"4","last_reported":1774259543,"current_range_meters":14000,"station_id":"ce4bgrp2rcd13ifvqc9g","pricing_plan_id":"cebpf4jnsgd1na2vs0mg"},