{"last_updated":1752185413,"ttl":60,"version":"2.2","data":{"bikes":[{"bike_id":"b6fee853-523d-431d-8fc6-9defb8cb4a0a","system_id":"levelo_inurba_marseille","lat":43.24817,"lon":5.37475,"is_reserved":false,"is_disabled":true,"rental_uris":{"android":"levelo://app?vid=b6fee853-523d-431d-8fc6-9defb8cb4a0a","ios":"levelo://app?vid=b6fee853-523d-431d-8fc6-9defb8cb4a0a"},"vehicle_type_id":"4","last_reported":1752185413,"current_range_meters":2800,"station_id":"ce4bhgh2rcd13ifvqfb0","pricing_plan_id":"cebpf4jnsgd1na2vs0mg"},{"bike_id":"a74f74ec-7ecf-4cce-99bd-246edf95423f","system_id":"levelo_inurba_marseille","lat":43.229356,"lon":5.35376,"is_reserved":false,"is_disabled":false,"rental_uris":{"android":"levelo://app?vid=a74f74ec-7ecf-4cce-99bd-246edf95423f","ios":"levelo://app?vid=a74f74ec-7ecf-4cce-99bd-246edf95423f"},"vehicle_type_id":"4","last_reported":1752185413,"current_range_meters":2800,"station_id":"cpo3532slgdg3j2ikp40","pricing_plan_id":"cebpf4jnsgd1na2vs0mg"},{"bike_id":"86ca3a8a-7a97-4586-9d46-547dd2b30242","system_id":"levelo_inurba_marseille","lat":43.307387,"lon":5.400555,"is_reserved":false,"is_disabled":false,"rental_uris":{"android":"levelo://app?vid=86ca3a8a-7a97-4586-9d46-547dd2b30242","ios":"levelo://app?vid=86ca3a8a-7a97-4586-9d46-547dd2b30242"},"vehicle_type_id":"4","last_reported":1752185413,"current_range_meters":3200,"station_id":"ce4bgvp2rcd13ifvqct0","pricing_plan_id":"cebpf4jnsgd1na2vs0mg"},{"bike_id":"a9f972f2-84ae-4cf4-b150-407567637fb5","system_id":"levelo_inurba_marseille","lat":43.33605,"lon":5.41036,"is_reserved":false,"is_disabled":false,"rental_uris":{"android":"levelo://app?vid=a9f972f2-84ae-4cf4-b150-407567637fb5","ios":"levelo://app?vid=a9f972f2-84ae-4cf4-b150-407567637fb5"},"vehicle_type_id":"4","last_reported":1752185413,"current_range_meters":3200,"station_id":"ce4bhqh2rcd13ifvqhmg","pricing_plan_id":"cebpf4jnsgd1na2vs0mg"},{"bike_id":"54a89fe4-39f9-4905-8197-aac3d82eda4f","system_id":"levelo_inurba_marseille","lat":43.29258,"lon":5.38442,"is_reserved":false,"is_disabled":false,"rental_uris":{"android":"levelo://app?vid=54a89fe4-39f9-4905-8197-aac3d82eda4f","ios":"levelo://app?vid=54a89fe4-39f9-4905-8197-aac3d82eda4f"},"vehicle_type_id":"4","last_reported":1752185413,"current_range_meters":3600,"station_id":"ce4bh692rcd13ifvqea0","pricing_plan_id":"cebpf4jnsgd1na2vs0mg"},{"bike_id":"86b8a447-ee68-4056-b835-0951679959cb","system_id":"levelo_inurba_marseille","lat":43.29292,"lon":5.37452,"is_reserved":false,"is_disabled":false,"rental_uris":{"android":"levelo://app?vid=86b8a447-ee68-4056-b835-0951679959cb","ios":"levelo://app?vid=86b8a447-ee68-4056-b835-0951679959cb"},"vehicle_type_id":"4","last_reported":1752185413,"current_range_meters":3600,"station_id":"ce4bgi12rcd13ifvqb70","pricing_plan_id":"cebpf4jnsgd1na2vs0mg"},{"bike_id":"ff73f5b9-9235-4610-b135-8d25d5930e4d","system_id":"levelo_inurba_marseille","lat":43.26195,"lon":5.37466,"is_reserved":false,"is_disabled":true,"rental_uris":{"android":"levelo://app?vid=ff73f5b9-9235-4610-b135-8d25d5930e4d","ios":"levelo://app?vid=ff73f5b9-9235-4610-b135-8d25d5930e4d"},"vehicle_type_id":"4","last_reported":1752185413,"current_range_meters":3600,"station_id":"ce4bhgp2rcd13ifvqfc0","pricing_plan_id":"cebpf4jnsgd1na2vs0mg"},{"bike_id":"b8d6bf6b-ecbb-4c40-8ce7-0169ef070b49","system_id":"levelo_inurba_marseille","lat":43.29599,"lon":5.37335,"is_reserved":false,"is_disabled":false,"rental_uris":{"android":"levelo://app?vid=b8d6bf6b-ecbb-4c40-8ce7-0169ef070b49","ios":"levelo://app?vid=b8d6bf6b-ecbb-4c40-8ce7-0169ef070b49"},"vehicle_type_id":"4","last_reported":1752185413,"current_range_meters":4400,"station_id":"","pricing_plan_id":"cebpf4jnsgd1na2vs0mg"},{"bike_id":"ec4ab4bc-9875-4b0f-8000-a698aff90c89","system_id":"levelo_inurba_marseille","lat":43.29279,"lon":5.40117,"is_reserved":false,"is_disabled":false,"rental_uris":{"android":"levelo://app?vid=ec4ab4bc-9875-4b0f-8000-a698aff90c89","ios":"levelo://app?vid=ec4ab4bc-9875-4b0f-8000-a698aff90c89"},"vehicle_type_id":"4","last_reported":1752185413,"current_range_meters":4400,"station_id":"ce4bh312rcd13ifvqdk0","pricing_plan_id":"cebpf4jnsgd1na2vs0mg"},{"bike_id":"159fe00e-1605-4a3a-a906-ef8dcd52b1db","system_id":"levelo_inurba_marseille","lat":43.3087,"lon":5.37359,"is_reserved":false,"is_disabled":false,"rental_uris":{"android":"levelo://app?vid=159fe00e-1605-4a3a-a906-ef8dcd52b1db","ios":"levelo://app?vid=159fe00e-1605-4a3a-a906-ef8dcd52b1db"},"vehicle_type_id":"4","last_reported":1752185413,"current_range_meters":4800,"station_id":"","pricing_plan_id":"cebpf4jnsgd1na2vs0mg"},{"bike_id":"104ce6ad-9b05-48b1-9a0a-7b14e56e192b","system_id":"levelo_inurba_marseille","lat":43.29582,"lon":5.37426,"is_reserved":false,"is_disabled":false,"rental_uris":{"android":"levelo://app?vid=104ce6ad-9b05-48b1-9a0a-7b14e56e192b","ios":"levelo://app?vid=104ce6ad-9b05-48b1-9a0a-7b14e56e192b"},"vehicle_type_id":"4","last_reported":1752185413,"current_range_meters":4800,"station_id":"","pricing_plan_id":"cebpf4jnsgd1na2vs0mg"},{"bike_id":"22fb730c-8f54-4e04-acfa-850319ec172b","system_id":"levelo_inurba_marseille","lat":43.29961,"lon":5.38504,"is_reserved":false,"is_disabled":false,"rental_uris":{"android":"levelo://app?vid=22fb730c-8f54-4e04-acfa-850319ec172b","ios":"levelo://app?vid=22fb730c-8f54-4e04-acfa-850319ec172b"},"vehicle_type_id":"4","last_reported":1752185413,"current_range_meters":5600,"station_id":"ce4bgj92rcd13ifvqbd0","pricing_plan_id":"cebpf4jnsgd1na2vs0mg"},{"bike_id":"864830cd-471c-4ae8-8ff1-495934107509","system_id":"levelo_inurba_marseille","lat":43.31894,"lon":5.40737,"is_reserved":false,"is_disabled":true,"rental_uris":{"android":"levelo://app?vid=864830cd-471c-4ae8-8ff1-495934107509","ios":"levelo://app?vid=864830cd-471c-4ae8-8ff1-495934107509"},"vehicle_type_id":"4","last_reported":1752185413,"current_range_meters":5600,"station_id":"ce4bhq12rcd13ifvqhig","pricing_plan_id":"cebpf4jnsgd1na2vs0mg"},{"bike_id":"14d679c8-795a-43aa-8fe7-eedd326861e0","system_id":"levelo_inurba_marseille","lat":43.29273,"lon":5.36833,"is_reserved":false,"is_disabled":false,"rental_uris":{"android":"levelo://app?vid=14d679c8-795a-43aa-8fe7-eedd326861e0","ios":"levelo://app?vid=14d679c8-795a-43aa-8fe7-eedd326861e0"},"vehicle_type_id":"4","last_reported":1752185413,"current_range_meters":5600,"station_id":"ce4bhbp2rcd13ifvqesg","pricing_plan_id":"cebpf4jnsgd1na2vs0mg"},{"bike_id":"2968909c-8e9d-4fe9-9a49-4e30fdb09600","system_id":"levelo_inurba_marseille","lat":43.29277,"lon":5.40156,"is_reserved":false,"is_disabled":false,"rental_uris":{"android":"levelo://app?vid=2968909c-8e9d-4fe9-9a49-4e30fdb09600","ios":"levelo://app?vid=2968909c-8e9d-4fe9-9a49-4e30fdb09600"},"vehicle_type_id":"4","last_reported":1752185413,"current_range_meters":5600,"station_id":"ce4bh312rcd13ifvqdk0","pricing_plan_id":"cebpf4jnsgd1na2vs0mg"},{"bike_id":"6befab8a-444a-446e-b227-4c9f49a7666e","system_id":"levelo_inurba_marseille","lat":43.2895,"lon":5.36406,"is_reserved":false,"is_disabled":false,"rental_uris":{"android":"levelo://app?vid=6befab8a-444a-446e-b227-4c9f49a7666e","ios":"levelo://app?vid=6befab8a-444a-446e-b227-4c9f49a7666e"},"vehicle_type_id":"4","last_reported":1752185413,"current_range_meters":6000,"station_id":"ce4bhc92rcd13ifvqetg","pricing_plan_id":"cebpf4jnsgd1na2vs0mg"},{"bike_id":"7a9b8104-e2b5-406c-963a-d5d42cd4c078","system_id":"levelo_inurba_marseille","lat":43.31486,"lon":5.37311,"is_reserved":false,"is_disabled":false,"rental_uris":{"android":"levelo://app?vid=7a9b8104-e2b5-406c-963a-d5d42cd4c078","ios":"levelo://app?vid=7a9b8104-e2b5-406c-963a-d5d42cd4c078"},"vehicle_type_id":"4","last_reported":1752185413,"current_range_meters":6000,"station_id":"ce4bgt12rcd13ifvqcd0","pricing_plan_id":"cebpf4jnsgd1na2vs0mg"},{"bike_id":"0a0790cf-50a8-48f4-bdbf-28c908058f24","system_id":"levelo_inurba_marseille","lat":43.27069,"lon":5.42278,"is_reserved":false,"is_disabled":false,"rental_uris":{"android":"levelo://app?vid=0a0790cf-50a8-48f4-bdbf-28c908058f24","ios":"levelo://app?vid=0a0790cf-50a8-48f4-bdbf-28c908058f24"},"vehicle_type_id":"4","last_reported":1752185413,"current_range_meters":6000,"station_id":"ce4bhk92rcd13ifvqgb0","pricing_plan_id":"cebpf4jnsgd1na2vs0mg"},{"bike_id":"07c0bc21-a285-4cd4-82cc-f0c7262a8550","system_id":"levelo_inurba_marseille","lat":43.28702,"lon":5.3739,"is_reserved":false,"is_disabled":false,"rental_uris":{"android":"levelo://app?vid=07c0bc21-a285-4cd4-82cc-f0c7262a8550","ios":"levelo://app?vid=07c0bc21-a285-4cd4-82cc-f0c7262a8550"},"vehicle_type_id":"4","last_reported":1752185413,"current_range_meters":6000,"station_id":"ce4bh3p2rcd13ifvqdq0","pricing_plan_id":"cebpf4jnsgd1na2vs0mg"},{"bike_id":"a53bb7a3-c84d-4213-98ee-c5447cf35e00","system_id":"levelo_inurba_marseille","lat":43.288852,"lon":5.382202,"is_reserved":false,"is_disabled":false,"rental_uris":{"android":"levelo://app?vid=a53bb7a3-c84d-4213-98ee-c5447cf35e00","ios":"levelo://app?vid=a53bb7a3-c84d-4213-98ee-c5447cf35e00"},"vehicle_type_id":"4","last_reported":1752185413,"current_range_meters":6000,"station_id":"ce4bh492rcd13ifvqdug","pricing_plan_id":"cebpf4jnsgd1na2vs0mg"},{"bike_id":"3eee9d32-968a-421d-844d-8568f33f5405","system_id":"levelo_inurba_marseille","lat":43.2656,"lon":5.39019,"is_reserved":false,"is_disabled":false,"rental_uris":{"android":"levelo://app?vid=3eee9d32-968a-421d-844d-8568f33f5405","ios":"levelo://app?vid=3eee9d32-968a-421d-844d-8568f33f5405"},"vehicle_type_id":"4","last_reported":1752185413,"current_range_meters":6800,"station_id":"ce4bhe12rcd13ifvqf30","pricing_plan_id":"cebpf4jnsgd1na2vs0mg"},{"bike_id":"3c0bd8bb-de5a-4cf5-8371-4297aa79c7a0","system_id":"levelo_inurba_marseille","lat":43.305411,"lon":5.384138,"is_reserved":false,"is_disabled":false,"rental_uris":{"android":"levelo://app?vid=3c0bd8bb-de5a-4cf5-8371-4297aa79c7a0","ios":"levelo://app?vid=3c0bd8bb-de5a-4cf5-8371-4297aa79c7a0"},"vehicle_type_id":"4","last_reported":1752185413,"current_range_meters":7200,"station_id":"ce4bgg92rcd13ifvqb30","pricing_plan_id":"cebpf4jnsgd1na2vs0mg"},{"bike_id":"3313538f-1e10-451e-84f4-4513ae23e2e7","system_id":"levelo_inurba_marseille","lat":43.27908,"lon":5.39577,"is_reserved":false,"is_disabled":false,"rental_uris":{"android":"levelo://app?vid=3313538f-1e10-451e-84f4-4513ae23e2e7","ios":"levelo://app?vid=3313538f-1e10-451e-84f4-4513ae23e2e7"},"vehicle_type_id":"4","last_reported":1752185413,"current_range_meters":7200,"station_id":"ce4bhf92rcd13ifvqf40","pricing_plan_id":"cebpf4jnsgd1na2vs0mg"},{"bike_id":"2bd2509c-8e69-46fb-904c-1c65a6340b60","system_id":"levelo_inurba_marseille","lat":43.21734,"lon":5.3462,"is_reserved":false,"is_disabled":true,"rental_uris":{"android":"levelo://app?vid=2bd2509c-8e69-46fb-904c-1c65a6340b60","ios":"levelo://app?vid=2bd2509c-8e69-46fb-904c-1c65a6340b60"},"vehicle_type_id":"4","last_reported":1752185413,"current_range_meters":7200,"station_id":"st_cvj6r9ubvosntc0bgbag","pricing_plan_id":"cebpf4jnsgd1na2vs0mg"},{"bike_id":"ba480b1d-fbef-4d54-9bb0-c2fa8b787212","system_id":"levelo_inurba_marseille","lat":43.21169,"lon":5.3509,"is_reserved":false,"is_disabled":false,"rental_uris":{"android":"levelo://app?vid=ba480b1d-fbef-4d54-9bb0-c2fa8b787212","ios":"levelo://app?vid=ba480b1d-fbef-4d54-9bb0-c2fa8b787212"},"vehicle_type_id":"4","last_reported":1752185413,"current_range_meters":8000,"station_id":"st_cvj6sg6p6f1abm77japg","pricing_plan_id":"cebpf4jnsgd1na2vs0mg"},{"bike_id":"b4f0af24-1970-4cb2-abb4-e9f7f09fa10a","system_id":"levelo_inurba_marseille","lat":43.303243,"lon":5.404351,"is_reserved":false,"is_disabled":false,"rental_uris":{"android":"levelo://app?vid=b4f0af24-1970-4cb2-abb4-e9f7f09fa10a","ios":"levelo://app?vid=b4f0af24-1970-4cb2-abb4-e9f7f09fa10a"},"vehicle_type_id":"4","last_reported":1752185413,"current_range_meters":8000,"station_id":"ce4bh012rcd13ifvqd10","pricing_plan_id":"cebpf4jnsgd1na2vs0mg"},{"bike_id":"3108e78c-759c-4d11-b361-5abb833e983c","system_id":"levelo_inurba_marseille","lat":43.28862,"lon":5.39417,"is_reserved":false,"is_disabled":false,"rental_uris":{"android":"levelo://app?vid=3108e78c-759c-4d11-b361-5abb833e983c","ios":"levelo://app?vid=3108e78c-759c-4d11-b361-5abb833e983c"},"vehicle_type_id":"4","last_reported":1752185413,"current_range_meters":8000,"station_id":"","pricing_plan_id":"cebpf4jnsgd1na2vs0mg"},{"bike_id":"eafc6bbb-ae9a-4952-bdb6-ae2a3954572f","system_id":"levelo_inurba_marseille","lat":43.32333,"lon":5.40623,"is_reserved":false,"is_disabled":false,"rental_uris":{"android":"levelo://app?vid=eafc6bbb-ae9a-4952-bdb6-ae2a3954572f","ios":"levelo://app?vid=eafc6bbb-ae9a-4952-bdb6-ae2a3954572f"},"vehicle_type_id":"4","last_reported":1752185413,"current_range_meters":8000,"station_id":"ce4bhq92rcd13ifvqhjg","pricing_plan_id":"cebpf4jnsgd1na2vs0mg"},{"bike_id":"997bab41-dd0b-47b9-afad-d6cc16b94645","system_id":"levelo_inurba_marseille","lat":43.29574,"lon":5.3812,"is_reserved":false,"is_disabled":false,"rental_uris":{"android":"levelo://app?vid=997bab41-dd0b-47b9-afad-d6cc16b94645","ios":"levelo://app?vid=997bab41-dd0b-47b9-afad-d6cc16b94645"},"vehicle_type_id":"4","last_reported":1752185413,"current_range_meters":8000,"station_id":"ce4bgl12rcd13ifvqbo0","pricing_plan_id":"cebpf4jnsgd1na2vs0mg"},{"bike_id":"e86f96e5-f2aa-4d72-829c-c868b674b3a0","system_id":"levelo_inurba_marseille","lat":43.23156,"lon":5.43737,"is_reserved":false,"is_disabled":false,"rental_uris":{"android":"levelo://app?vid=e86f96e5-f2aa-4d72-829c-c868b674b3a0","ios":"levelo://app?vid=e86f96e5-f2aa-4d72-829c-c868b674b3a0"},"vehicle_type_id":"4","last_reported":1752185413,"current_range_meters":8000,"station_id":"ce4bhmp2rcd13ifvqgog","pricing_plan_id":"cebpf4jnsgd1na2vs0mg"},{"bike_id":"ab458291-07d4-4e29-b6fb-6c09a091780b","system_id":"levelo_inurba_marseille","lat":43.30286,"lon":5.39214,"is_reserved":false,"is_disabled":false,"rental_uris":{"android":"levelo://app?vid=ab458291-07d4-4e29-b6fb-6c09a091780b","ios":"levelo://app?vid=ab458291-07d4-4e29-b6fb-6c09a091780b"},"vehicle_type_id":"4","last_reported":1752185413,"current_range_meters":8000,"station_id":"ce4bgkh2rcd13ifvqbk0","pricing_plan_id":"cebpf4jnsgd1na2vs0mg"},{"bike_id":"4c8d2804-6d9d-4d5f-ab9a-d361e732ccb7","system_id":"levelo_inurba_marseille","lat":43.28488,"lon":5.38582,"is_reserved":false,"is_disabled":false,"rental_uris":{"android":"levelo://app?vid=4c8d2804-6d9d-4d5f-ab9a-d361e732ccb7","ios":"levelo://app?vid=4c8d2804-6d9d-4d5f-ab9a-d361e732ccb7"},"vehicle_type_id":"4","last_reported":1752185413,"current_range_meters":8400,"station_id":"ce4bh8p2rcd13ifvqeb0","pricing_plan_id":"cebpf4jnsgd1na2vs0mg"},{"bike_id":"b6539aed-93bc-441d-9a9c-165136323394","system_id":"levelo_inurba_marseille","lat":43.27837,"lon":5.39212,"is_reserved":false,"is_disabled":false,"rental_uris":{"android":"levelo://app?vid=b6539aed-93bc-441d-9a9c-165136323394","ios":"levelo://app?vid=b6539aed-93bc-441d-9a9c-165136323394"},"vehicle_type_id":"4","last_reported":1752185413,"current_range_meters":8000,"station_id":"ce4bhjp2rcd13ifvqga0","pricing_plan_id":"cebpf4jnsgd1na2vs0mg"},{"bike_id":"311503ae-4643-4dd6-97a0-450f82109f95","system_id":"levelo_inurba_marseille","lat":43.28658,"lon":5.3635,"is_reserved":false,"is_disabled":false,"rental_uris":{"android":"levelo://app?vid=311503ae-4643-4dd6-97a0-450f82109f95","ios":"levelo://app?vid=311503ae-4643-4dd6-97a0-450f82109f95"},"vehicle_type_id":"4","last_reported":1752185413,"current_range_meters":8400,"station_id":"ce4bhah2rcd13ifvqej0","pricing_plan_id":"cebpf4jnsgd1na2vs0mg"},{"bike_id":"21ae54b9-7375-4101-b8a7-bff9d6e1fa32","system_id":"levelo_inurba_marseille","lat":43.29992,"lon":5.37629,"is_reserved":false,"is_disabled":false,"rental_uris":{"android":"levelo://app?vid=21ae54b9-7375-4101-b8a7-bff9d6e1fa32","ios":"levelo://app?vid=21ae54b9-7375-4101-b8a7-bff9d6e1fa32"},"vehicle_type_id":"4","last_reported":1752185413,"current_range_meters":8800,"station_id":"","pricing_plan_id":"cebpf4jnsgd1na2vs0mg"},{"bike_id":"f66de5d1-522c-4fbe-b3c1-9a76f59c1793","system_id":"levelo_inurba_marseille","lat":43.30318,"lon":5.40439,"is_reserved":false,"is_disabled":false,"rental_uris":{"android":"levelo://app?vid=f66de5d1-522c-4fbe-b3c1-9a76f59c1793","ios":"levelo://app?vid=f66de5d1-522c-4fbe-b3c1-9a76f59c1793"},"vehicle_type_id":"4","last_reported":1752185413,"current_range_meters":8800,"station_id":"ce4bh012rcd13ifvqd10","pricing_plan_id":"cebpf4jnsgd1na2vs0mg"},{"bike_id":"2718afb2-6db4-4e71-be44-28b343084a46","system_id":"levelo_inurba_marseille","lat":43.31711,"lon":5.3775,"is_reserved":false,"is_disabled":false,"rental_uris":{"android":"levelo://app?vid=2718afb2-6db4-4e71-be44-28b343084a46","ios":"levelo://app?vid=2718afb2-6db4-4e71-be44-28b343084a46"},"vehicle_type_id":"4","last_reported":1752185413,"current_range_meters":8800,"station_id":"ce4bgth2rcd13ifvqch0","pricing_plan_id":"cebpf4jnsgd1na2vs0mg"},{"bike_id":"56d4fdaf-ae4c-4003-8a74-738d4b9be60f","system_id":"levelo_inurba_marseille","lat":43.287203,"lon":5.400006,"is_reserved":false,"is_disabled":true,"rental_uris":{"android":"levelo://app?vid=56d4fdaf-ae4c-4003-8a74-738d4b9be60f","ios":"levelo://app?vid=56d4fdaf-ae4c-4003-8a74-738d4b9be60f"},"vehicle_type_id":"4","last_reported":1752185413,"current_range_meters":8800,"station_id":"ce4bho92rcd13ifvqh3g","pricing_plan_id":"cebpf4jnsgd1na2vs0mg"},{"bike_id":"efb7db7f-886c-4052-8fea-084085cdb162","system_id":"levelo_inurba_marseille","lat":43.33603,"lon":5.40967,"is_reserved":false,"is_disabled":false,"rental_uris":{"android":"levelo://app?vid=efb7db7f-886c-4052-8fea-084085cdb162","ios":"levelo://app?vid=efb7db7f-886c-4052-8fea-084085cdb162"},"vehicle_type_id":"4","last_reported":1752185413,"current_range_meters":8800,"station_id":"","pricing_plan_id":"cebpf4jnsgd1na2vs0mg"},{"bike_id":"6e5c2657-ccb8-4153-8b94-2143bc427a03","system_id":"levelo_inurba_marseille","lat":43.22494,"lon":5.34791,"is_reserved":false,"is_disabled":false,"rental_uris":{"android":"levelo://app?vid=6e5c2657-ccb8-4153-8b94-2143bc427a03","ios":"levelo://app?vid=6e5c2657-ccb8-4153-8b94-2143bc427a03"},"vehicle_type_id":"4","last_reported":1752185413,"current_range_meters":8800,"station_id":"st_cvj5dfep6f1abm77gieg","pricing_plan_id":"cebpf4jnsgd1na2vs0mg"},{"bike_id":"7c2cbaa8-479c-4334-8d5f-ae80df701263","system_id":"levelo_inurba_marseille","lat":43.29961,"lon":5.38498,"is_reserved":false,"is_disabled":false,"rental_uris":{"android":"levelo://app?vid=7c2cbaa8-479c-4334-8d5f-ae80df701263","ios":"levelo://app?vid=7c2cbaa8-479c-4334-8d5f-ae80df701263"},"vehicle_type_id":"4","last_reported":1752185413,"current_range_meters":8800,"station_id":"ce4bgj92rcd13ifvqbd0","pricing_plan_id":"cebpf4jnsgd1na2vs0mg"},{"bike_id":"2a3b510a-2dd9-48bf-9477-dc291faf8f79","system_id":"levelo_inurba_marseille","lat":43.28706,"lon":5.39998,"is_reserved":false,"is_disabled":false,"rental_uris":{"android":"levelo://app?vid=2a3b510a-2dd9-48bf-9477-dc291faf8f79","ios":"levelo://app?vid=2a3b510a-2dd9-48bf-9477-dc291faf8f79"},"vehicle_type_id":"4","last_reported":1752185413,"current_range_meters":8800,"station_id":"ce4bho92rcd13ifvqh3g","pricing_plan_id":"cebpf4jnsgd1na2vs0mg"},{"bike_id":"8e1930d6-13f0-4508-b2b9-30284cbaf781","system_id":"levelo_inurba_marseille","lat":43.29697,"lon":5.36615,"is_reserved":false,"is_disabled":true,"rental_uris":{"android":"levelo://app?vid=8e1930d6-13f0-4508-b2b9-30284cbaf781","ios":"levelo://app?vid=8e1930d6-13f0-4508-b2b9-30284cbaf781"},"vehicle_type_id":"4","last_reported":1752185413,"current_range_meters":8800,"station_id":"ce4bgn12rcd13ifvqbt0","pricing_plan_id":"cebpf4jnsgd1na2vs0mg"},{"bike_id":"b757ffbb-2b71-4330-9f60-5f8a9d46d16e","system_id":"levelo_inurba_marseille","lat":43.29646,"lon":5.37098,"is_reserved":false,"is_disabled":false,"rental_uris":{"android":"levelo://app?vid=b757ffbb-2b71-4330-9f60-5f8a9d46d16e","ios":"levelo://app?vid=b757ffbb-2b71-4330-9f60-5f8a9d46d16e"},"vehicle_type_id":"4","last_reported":1752185413,"current_range_meters":9200,"station_id":"","pricing_plan_id":"cebpf4jnsgd1na2vs0mg"},{"bike_id":"b2caa530-bb19-4cc6-a6bd-61e3e1d7432e","system_id":"levelo_inurba_marseille","lat":43.33763,"lon":5.37461,"is_reserved":false,"is_disabled":false,"rental_uris":{"android":"levelo://app?vid=b2caa530-bb19-4cc6-a6bd-61e3e1d7432e","ios":"levelo://app?vid=b2caa530-bb19-4cc6-a6bd-61e3e1d7432e"},"vehicle_type_id":"4","last_reported":1752185413,"current_range_meters":9200,"station_id":"","pricing_plan_id":"cebpf4jnsgd1na2vs0mg"},{"bike_id":"d13ab47a-5a0f-4d73-8a05-a726af522374","system_id":"levelo_inurba_marseille","lat":43.30884,"lon":5.38074,"is_reserved":false,"is_disabled":false,"rental_uris":{"android":"levelo://app?vid=d13ab47a-5a0f-4d73-8a05-a726af522374","ios":"levelo://app?vid=d13ab47a-5a0f-4d73-8a05-a726af522374"},"vehicle_type_id":"4","last_reported":1752185413,"current_range_meters":8800,"station_id":"ce4bh312rcd13ifvqdj0","pricing_plan_id":"cebpf4jnsgd1na2vs0mg"},{"bike_id":"3fa237c3-0bb1-4729-8be2-774c8281df94","system_id":"levelo_inurba_marseille","lat":43.30781,"lon":5.37646,"is_reserved":false,"is_disabled":false,"rental_uris":{"android":"levelo://app?vid=3fa237c3-0bb1-4729-8be2-774c8281df94","ios":"levelo://app?vid=3fa237c3-0bb1-4729-8be2-774c8281df94"},"vehicle_type_id":"4","last_reported":1752185413,"current_range_meters":9200,"station_id":"ce4bgv92rcd13ifvqcq0","pricing_plan_id":"cebpf4jnsgd1na2vs0mg"},{"bike_id":"1e8e5fc4-1d81-419c-bb6b-508f86b979e4","system_id":"levelo_inurba_marseille","lat":43.306046,"lon":5.372315,"is_reserved":false,"is_disabled":true,"rental_uris":{"android":"levelo://app?vid=1e8e5fc4-1d81-419c-bb6b-508f86b979e4","ios":"levelo://app?vid=1e8e5fc4-1d81-419c-bb6b-508f86b979e4"},"vehicle_type_id":"4","last_reported":1752185413,"current_range_meters":9600,"station_id":"ce4bgqh2rcd13ifvqc4g","pricing_plan_id":"cebpf4jnsgd1na2vs0mg"},{"bike_id":"a9524206-af51-4935-a95e-0c63060cc0e1","system_id":"levelo_inurba_marseille","lat":43.29022,"lon":5.38641,"is_reserved":false,"is_disabled":true,"rental_uris":{"android":"levelo://app?vid=a9524206-af51-4935-a95e-0c63060cc0e1","ios":"levelo://app?vid=a9524206-af51-4935-a95e-0c63060cc0e1"},"vehicle_type_id":"4","last_reported":1752185413,"current_range_meters":9600,"station_id":"ce4bh4p2rcd13ifvqe0g","pricing_plan_id":"cebpf4jnsgd1na2vs0mg"},{"bike_id":"833f97ec-e704-4051-ab3b-2e9eb58f71d0","system_id":"levelo_inurba_marseille","lat":43.30268,"lon":5.37556,"is_reserved":false,"is_disabled":false,"rental_uris":{"android":"levelo://app?vid=833f97ec-e704-4051-ab3b-2e9eb58f71d0","ios":"levelo://app?vid=833f97ec-e704-4051-ab3b-2e9eb58f71d0"},"vehicle_type_id":"4","last_reported":1752185413,"current_range_meters":9600,"station_id":"","pricing_plan_id":"cebpf4jnsgd1na2vs0mg"},{"bike_id":"7d3f24c3-d4d8-45e6-aab9-4dc9dd80551b","system_id":"levelo_inurba_marseille","lat":43.29522,"lon":5.39045,"is_reserved":false,"is_disabled":false,"rental_uris":{"android":"levelo://app?vid=7d3f24c3-d4d8-45e6-aab9-4dc9dd80551b","ios":"levelo://app?vid=7d3f24c3-d4d8-45e6-aab9-4dc9dd80551b"},"vehicle_type_id":"4","last_reported":1752185413,"current_range_meters":9600,"station_id":"ce4bh3p2rcd13ifvqdp0","pricing_plan_id":"cebpf4jnsgd1na2vs0mg"},{"bike_id":"0b7dfa40-eb7e-4957-8b8a-6eb66f86ced9","system_id":"levelo_inurba_marseille","lat":43.29781,"lon":5.39345,"is_reserved":false,"is_disabled":false,"rental_uris":{"android":"levelo://app?vid=0b7dfa40-eb7e-4957-8b8a-6eb66f86ced9","ios":"levelo://app?vid=0b7dfa40-eb7e-4957-8b8a-6eb66f86ced9"},"vehicle_type_id":"4","last_reported":1752185413,"current_range_meters":9600,"station_id":"chh1huq6cuj3fo74tm60","pricing_plan_id":"cebpf4jnsgd1na2vs0mg"},{"bike_id":"06b24a6e-0b45-4e03-aba7-08e3c175d4c8","system_id":"levelo_inurba_marseille","lat":43.28934,"lon":5.36642,"is_reserved":false,"is_disabled":false,"rental_uris":{"android":"levelo://app?vid=06b24a6e-0b45-4e03-aba7-08e3c175d4c8","ios":"levelo://app?vid=06b24a6e-0b45-4e03-aba7-08e3c175d4c8"},"vehicle_type_id":"4","last_reported":1752185413,"current_range_meters":9600,"station_id":"ce4bhap2rcd13ifvqek0","pricing_plan_id":"cebpf4jnsgd1na2vs0mg"},{"bike_id":"292a7bbd-04a1-45b6-b833-4f27a695e5d3","system_id":"levelo_inurba_marseille","lat":43.28701,"lon":5.39989,"is_reserved":false,"is_disabled":false,"rental_uris":{"android":"levelo://app?vid=292a7bbd-04a1-45b6-b833-4f27a695e5d3","ios":"levelo://app?vid=292a7bbd-04a1-45b6-b833-4f27a695e5d3"},"vehicle_type_id":"4","last_reported":1752185413,"current_range_meters":10000,"station_id":"ce4bho92rcd13ifvqh3g","pricing_plan_id":"cebpf4jnsgd1na2vs0mg"},{"bike_id":"7c62ad67-1ca5-47af-a06f-570a871bd8d2","system_id":"levelo_inurba_marseille","lat":43.29876,"lon":5.39735,"is_reserved":false,"is_disabled":false,"rental_uris":{"android":"levelo://app?vid=7c62ad67-1ca5-47af-a06f-570a871bd8d2","ios":"levelo://app?vid=7c62ad67-1ca5-47af-a06f-570a871bd8d2"},"vehicle_type_id":"4","last_reported":1752185413,"current_range_meters":10000,"station_id":"ce4bh0h2rcd13ifvqd50","pricing_plan_id":"cebpf4jnsgd1na2vs0mg"},{"bike_id":"4514f205-47ce-407a-a46e-7b68bddcfef2","system_id":"levelo_inurba_marseille","lat":43.2885,"lon":5.39305,"is_reserved":false,"is_disabled":true,"rental_uris":{"android":"levelo://app?vid=4514f205-47ce-407a-a46e-7b68bddcfef2","ios":"levelo://app?vid=4514f205-47ce-407a-a46e-7b68bddcfef2"},"vehicle_type_id":"4","last_reported":1752185413,"current_range_meters":10000,"station_id":"ce4bh2p2rcd13ifvqdi0","pricing_plan_id":"cebpf4jnsgd1na2vs0mg"},{"bike_id":"52d88166-71f3-4f74-aaa5-57426b762d6e","system_id":"levelo_inurba_marseille","lat":43.30944,"lon":5.39046,"is_reserved":false,"is_disabled":true,"rental_uris":{"android":"levelo://app?vid=52d88166-71f3-4f74-aaa5-57426b762d6e","ios":"levelo://app?vid=52d88166-71f3-4f74-aaa5-57426b762d6e"},"vehicle_type_id":"4","last_reported":1752185413,"current_range_meters":10000,"station_id":"ce4bgup2rcd13ifvqco0","pricing_plan_id":"cebpf4jnsgd1na2vs0mg"},{"bike_id":"fbb9f4ed-43f9-4543-bc90-722b2fcdfe7f","system_id":"levelo_inurba_marseille","lat":43.26554,"lon":5.37282,"is_reserved":false,"is_disabled":false,"rental_uris":{"android":"levelo://app?vid=fbb9f4ed-43f9-4543-bc90-722b2fcdfe7f","ios":"levelo://app?vid=fbb9f4ed-43f9-4543-bc90-722b2fcdfe7f"},"vehicle_type_id":"4","last_reported":1752185413,"current_range_meters":10000,"station_id":"ce4bhg12rcd13ifvqf70","pricing_plan_id":"cebpf4jnsgd1na2vs0mg"},{"bike_id":"6787417e-eb76-4bc4-8941-39a4da49c1ed","system_id":"levelo_inurba_marseille","lat":43.2892,"lon":5.38405,"is_reserved":false,"is_disabled":false,"rental_uris":{"android":"levelo://app?vid=6787417e-eb76-4bc4-8941-39a4da49c1ed","ios":"levelo://app?vid=6787417e-eb76-4bc4-8941-39a4da49c1ed"},"vehicle_type_id":"4","last_reported":1752185413,"current_range_meters":10800,"station_id":"ce4bh612rcd13ifvqe6g","pricing_plan_id":"cebpf4jnsgd1na2vs0mg"},{"bike_id":"749988cd-60e0-4407-98b8-e4ba4b1ba789","system_id":"levelo_inurba_marseille","lat":43.29281,"lon":5.4012,"is_reserved":false,"is_disabled":false,"rental_uris":{"android":"levelo://app?vid=749988cd-60e0-4407-98b8-e4ba4b1ba789","ios":"levelo://app?vid=749988cd-60e0-4407-98b8-e4ba4b1ba789"},"vehicle_type_id":"4","last_reported":1752185413,"current_range_meters":10800,"station_id":"ce4bh312rcd13ifvqdk0","pricing_plan_id":"cebpf4jnsgd1na2vs0mg"},{"bike_id":"95ed45be-0cbe-4ada-ab9b-3d6fe6e0c22e","system_id":"levelo_inurba_marseille","lat":43.27617,"lon":5.36106,"is_reserved":false,"is_disabled":true,"rental_uris":{"android":"levelo://app?vid=95ed45be-0cbe-4ada-ab9b-3d6fe6e0c22e","ios":"levelo://app?vid=95ed45be-0cbe-4ada-ab9b-3d6fe6e0c22e"},"vehicle_type_id":"4","last_reported":1752185413,"current_range_meters":10800,"station_id":"ce4bgj92rcd13ifvqbe0","pricing_plan_id":"cebpf4jnsgd1na2vs0mg"},{"bike_id":"75a09d9b-347a-4c64-aea1-aedcd9b900c9","system_id":"levelo_inurba_marseille","lat":43.2994,"lon":5.37577,"is_reserved":false,"is_disabled":false,"rental_uris":{"android":"levelo://app?vid=75a09d9b-347a-4c64-aea1-aedcd9b900c9","ios":"levelo://app?vid=75a09d9b-347a-4c64-aea1-aedcd9b900c9"},"vehicle_type_id":"4","last_reported":1752185413,"current_range_meters":10800,"station_id":"","pricing_plan_id":"cebpf4jnsgd1na2vs0mg"},{"bike_id":"0e9ceaa7-0ec2-4607-aba1-6c15c77ca6ba","system_id":"levelo_inurba_marseille","lat":43.29569,"lon":5.39979,"is_reserved":false,"is_disabled":false,"rental_uris":{"android":"levelo://app?vid=0e9ceaa7-0ec2-4607-aba1-6c15c77ca6ba","ios":"levelo://app?vid=0e9ceaa7-0ec2-4607-aba1-6c15c77ca6ba"},"vehicle_type_id":"4","last_reported":1752185413,"current_range_meters":11200,"station_id":"ce4bh312rcd13ifvqdj0","pricing_plan_id":"cebpf4jnsgd1na2vs0mg"},{"bike_id":"aec6c9b3-3924-452b-8d60-e43088435fc4","system_id":"levelo_inurba_marseille","lat":43.296162,"lon":5.376945,"is_reserved":false,"is_disabled":false,"rental_uris":{"android":"levelo://app?vid=aec6c9b3-3924-452b-8d60-e43088435fc4","ios":"levelo://app?vid=aec6c9b3-3924-452b-8d60-e43088435fc4"},"vehicle_type_id":"4","last_reported":1752185413,"current_range_meters":11200,"station_id":"","pricing_plan_id":"cebpf4jnsgd1na2vs0mg"},{"bike_id":"d61582ec-f7e2-4a83-afe2-89057d21e060","system_id":"levelo_inurba_marseille","lat":43.25109,"lon":5.40323,"is_reserved":false,"is_disabled":false,"rental_uris":{"android":"levelo://app?vid=d61582ec-f7e2-4a83-afe2-89057d21e060","ios":"levelo://app?vid=d61582ec-f7e2-4a83-afe2-89057d21e060"},"vehicle_type_id":"4","last_reported":1752185413,"current_range_meters":11200,"station_id":"ce4bhlh2rcd13ifvqgig","pricing_plan_id":"cebpf4jnsgd1na2vs0mg"},{"bike_id":"22d2044a-dac3-4fa2-8d52-edd65304e387","system_id":"levelo_inurba_marseille","lat":43.3013,"lon":5.39875,"is_reserved":false,"is_disabled":false,"rental_uris":{"android":"levelo://app?vid=22d2044a-dac3-4fa2-8d52-edd65304e387","ios":"levelo://app?vid=22d2044a-dac3-4fa2-8d52-edd65304e387"},"vehicle_type_id":"4","last_reported":1752185413,"current_range_meters":11200,"station_id":"ce4bh0h2rcd13ifvqd40","pricing_plan_id":"cebpf4jnsgd1na2vs0mg"},{"bike_id":"4d1ce4c1-0dda-4d98-9199-8cf8f421d7b8","system_id":"levelo_inurba_marseille","lat":43.28848,"lon":5.39309,"is_reserved":false,"is_disabled":false,"rental_uris":{"android":"levelo://app?vid=4d1ce4c1-0dda-4d98-9199-8cf8f421d7b8","ios":"levelo://app?vid=4d1ce4c1-0dda-4d98-9199-8cf8f421d7b8"},"vehicle_type_id":"4","last_reported":1752185413,"current_range_meters":11200,"station_id":"ce4bh2p2rcd13ifvqdi0","pricing_plan_id":"cebpf4jnsgd1na2vs0mg"},{"bike_id":"e204274b-73ad-4c6f-862d-8af730ce2e2b","system_id":"levelo_inurba_marseille","lat":43.29581,"lon":5.42296,"is_reserved":false,"is_disabled":false,"rental_uris":{"android":"levelo://app?vid=e204274b-73ad-4c6f-862d-8af730ce2e2b","ios":"levelo://app?vid=e204274b-73ad-4c6f-862d-8af730ce2e2b"},"vehicle_type_id":"4","last_reported":1752185413,"current_range_meters":11200,"station_id":"ce4bhph2rcd13ifvqhdg","pricing_plan_id":"cebpf4jnsgd1na2vs0mg"},{"bike_id":"0c3ef97b-97eb-4273-8688-c44e748d207b","system_id":"levelo_inurba_marseille","lat":43.34932,"lon":5.39924,"is_reserved":false,"is_disabled":false,"rental_uris":{"android":"levelo://app?vid=0c3ef97b-97eb-4273-8688-c44e748d207b","ios":"levelo://app?vid=0c3ef97b-97eb-4273-8688-c44e748d207b"},"vehicle_type_id":"4","last_reported":1752185413,"current_range_meters":11600,"station_id":"","pricing_plan_id":"cebpf4jnsgd1na2vs0mg"},{"bike_id":"9e84f726-bca4-4be5-89aa-118290d5b915","system_id":"levelo_inurba_marseille","lat":43.31362,"lon":5.38514,"is_reserved":false,"is_disabled":false,"rental_uris":{"android":"levelo://app?vid=9e84f726-bca4-4be5-89aa-118290d5b915","ios":"levelo://app?vid=9e84f726-bca4-4be5-89aa-118290d5b915"},"vehicle_type_id":"4","last_reported":1752185413,"current_range_meters":11600,"station_id":"ce4bgt92rcd13ifvqcf0","pricing_plan_id":"cebpf4jnsgd1na2vs0mg"},{"bike_id":"d4fef870-f3df-418c-b45a-632453acc9ad","system_id":"levelo_inurba_marseille","lat":43.22497,"lon":5.34785,"is_reserved":false,"is_disabled":false,"rental_uris":{"android":"levelo://app?vid=d4fef870-f3df-418c-b45a-632453acc9ad","ios":"levelo://app?vid=d4fef870-f3df-418c-b45a-632453acc9ad"},"vehicle_type_id":"4","last_reported":1752185413,"current_range_meters":11600,"station_id":"st_cvj5dfep6f1abm77gieg","pricing_plan_id":"cebpf4jnsgd1na2vs0mg"},{"bike_id":"feaa7e3a-cbe4-4489-be11-8a12d7eec173","system_id":"levelo_inurba_marseille","lat":43.25156,"lon":5.42493,"is_reserved":false,"is_disabled":false,"rental_uris":{"android":"levelo://app?vid=feaa7e3a-cbe4-4489-be11-8a12d7eec173","ios":"levelo://app?vid=feaa7e3a-cbe4-4489-be11-8a12d7eec173"},"vehicle_type_id":"4","last_reported":1752185413,"current_range_meters":11600,"station_id":"","pricing_plan_id":"cebpf4jnsgd1na2vs0mg"},{"bike_id":"617e783f-a9d7-4849-ad46-77a5a2df45f2","system_id":"levelo_inurba_marseille","lat":43.29566,"lon":5.37507,"is_reserved":false,"is_disabled":true,"rental_uris":{"android":"levelo://app?vid=617e783f-a9d7-4849-ad46-77a5a2df45f2","ios":"levelo://app?vid=617e783f-a9d7-4849-ad46-77a5a2df45f2"},"vehicle_type_id":"4","last_reported":1752185413,"current_range_meters":12000,"station_id":"ce4bgh92rcd13ifvqb50","pricing_plan_id":"cebpf4jnsgd1na2vs0mg"},{"bike_id":"7a857438-decf-4393-b0be-21e524007d2f","system_id":"levelo_inurba_marseille","lat":43.28401,"lon":5.37514,"is_reserved":false,"is_disabled":false,"rental_uris":{"android":"levelo://app?vid=7a857438-decf-4393-b0be-21e524007d2f","ios":"levelo://app?vid=7a857438-decf-4393-b0be-21e524007d2f"},"vehicle_type_id":"4","last_reported":1752185413,"current_range_meters":12000,"station_id":"ce4bh412rcd13ifvqds0","pricing_plan_id":"cebpf4jnsgd1na2vs0mg"},{"bike_id":"d6c31952-2ba1-4aaa-8ac6-df214607add1","system_id":"levelo_inurba_marseille","lat":43.29527,"lon":5.38562,"is_reserved":false,"is_disabled":false,"rental_uris":{"android":"levelo://app?vid=d6c31952-2ba1-4aaa-8ac6-df214607add1","ios":"levelo://app?vid=d6c31952-2ba1-4aaa-8ac6-df214607add1"},"vehicle_type_id":"4","last_reported":1752185413,"current_range_meters":12000,"station_id":"ce4bgih2rcd13ifvqba0","pricing_plan_id":"cebpf4jnsgd1na2vs0mg"},{"bike_id":"73fe94e8-74f9-41f0-85e9-7d8c52adf2fc","system_id":"levelo_inurba_marseille","lat":43.212685,"lon":5.352885,"is_reserved":false,"is_disabled":false,"rental_uris":{"android":"levelo://app?vid=73fe94e8-74f9-41f0-85e9-7d8c52adf2fc","ios":"levelo://app?vid=73fe94e8-74f9-41f0-85e9-7d8c52adf2fc"},"vehicle_type_id":"4","last_reported":1752185413,"current_range_meters":12000,"station_id":"","pricing_plan_id":"cebpf4jnsgd1na2vs0mg"},{"bike_id":"fa1301bd-2b82-4370-ac64-3a865e539776","system_id":"levelo_inurba_marseille","lat":43.28544,"lon":5.40438,"is_reserved":false,"is_disabled":false,"rental_uris":{"android":"levelo://app?vid=fa1301bd-2b82-4370-ac64-3a865e539776","ios":"levelo://app?vid=fa1301bd-2b82-4370-ac64-3a865e539776"},"vehicle_type_id":"4","last_reported":1752185413,"current_range_meters":12000,"station_id":"","pricing_plan_id":"cebpf4jnsgd1na2vs0mg"},{"bike_id":"1e7ab05b-c404-41f4-9b5a-d178d4cad647","system_id":"levelo_inurba_marseille","lat":43.29096,"lon":5.38149,"is_reserved":false,"is_disabled":false,"rental_uris":{"android":"levelo://app?vid=1e7ab05b-c404-41f4-9b5a-d178d4cad647","ios":"levelo://app?vid=1e7ab05b-c404-41f4-9b5a-d178d4cad647"},"vehicle_type_id":"4","last_reported":1752185413,"current_range_meters":12000,"station_id":"ce4bh512rcd13ifvqe2g","pricing_plan_id":"cebpf4jnsgd1na2vs0mg"},{"bike_id":"327c05a0-88d6-46d5-829f-37056c043786","system_id":"levelo_inurba_marseille","lat":43.30111,"lon":5.3986,"is_reserved":false,"is_disabled":true,"rental_uris":{"android":"levelo://app?vid=327c05a0-88d6-46d5-829f-37056c043786","ios":"levelo://app?vid=327c05a0-88d6-46d5-829f-37056c043786"},"vehicle_type_id":"4","last_reported":1752185413,"current_range_meters":12000,"station_id":"ce4bh0h2rcd13ifvqd40","pricing_plan_id":"cebpf4jnsgd1na2vs0mg"},{"bike_id":"f7681846-16dd-419f-a112-a6048a44d446","system_id":"levelo_inurba_marseille","lat":43.30078,"lon":5.38167,"is_reserved":false,"is_disabled":false,"rental_uris":{"android":"levelo://app?vid=f7681846-16dd-419f-a112-a6048a44d446","ios":"levelo://app?vid=f7681846-16dd-419f-a112-a6048a44d446"},"vehicle_type_id":"4","last_reported":1752185413,"current_range_meters":12400,"station_id":"","pricing_plan_id":"cebpf4jnsgd1na2vs0mg"},{"bike_id":"1f6319d1-76b6-4064-a557-5b53d02eec91","system_id":"levelo_inurba_marseille","lat":43.27998,"lon":5.40021,"is_reserved":false,"is_disabled":false,"rental_uris":{"android":"levelo://app?vid=1f6319d1-76b6-4064-a557-5b53d02eec91","ios":"levelo://app?vid=1f6319d1-76b6-4064-a557-5b53d02eec91"},"vehicle_type_id":"4","last_reported":1752185413,"current_range_meters":12000,"station_id":"ce4bho92rcd13ifvqh4g","pricing_plan_id":"cebpf4jnsgd1na2vs0mg"},{"bike_id":"351f047f-d7d8-416b-9bab-8f1a9ad4f50b","system_id":"levelo_inurba_marseille","lat":43.292584,"lon":5.36846,"is_reserved":false,"is_disabled":false,"rental_uris":{"android":"levelo://app?vid=351f047f-d7d8-416b-9bab-8f1a9ad4f50b","ios":"levelo://app?vid=351f047f-d7d8-416b-9bab-8f1a9ad4f50b"},"vehicle_type_id":"4","last_reported":1752185413,"current_range_meters":12000,"station_id":"","pricing_plan_id":"cebpf4jnsgd1na2vs0mg"},{"bike_id":"f373e4a8-33e3-4f72-ae8e-e7ab386910f4","system_id":"levelo_inurba_marseille","lat":43.22509,"lon":5.34784,"is_reserved":false,"is_disabled":false,"rental_uris":{"android":"levelo://app?vid=f373e4a8-33e3-4f72-ae8e-e7ab386910f4","ios":"levelo://app?vid=f373e4a8-33e3-4f72-ae8e-e7ab386910f4"},"vehicle_type_id":"4","last_reported":1752185413,"current_range_meters":12400,"station_id":"st_cvj5dfep6f1abm77gieg","pricing_plan_id":"cebpf4jnsgd1na2vs0mg"},{"bike_id":"927c9645-6e6a-41fd-9387-e46554372747","system_id":"levelo_inurba_marseille","lat":43.28512,"lon":5.3843,"is_reserved":false,"is_disabled":false,"rental_uris":{"android":"levelo://app?vid=927c9645-6e6a-41fd-9387-e46554372747","ios":"levelo://app?vid=927c9645-6e6a-41fd-9387-e46554372747"},"vehicle_type_id":"4","last_reported":1752185413,"current_range_meters":12400,"station_id":"ce4bh512rcd13ifvqe3g","pricing_plan_id":"cebpf4jnsgd1na2vs0mg"},{"bike_id":"6a6e40a5-ed7d-44b3-a62e-9ce8ff29d236","system_id":"levelo_inurba_marseille","lat":43.304624,"lon":5.379066,"is_reserved":false,"is_disabled":false,"rental_uris":{"android":"levelo://app?vid=6a6e40a5-ed7d-44b3-a62e-9ce8ff29d236","ios":"levelo://app?vid=6a6e40a5-ed7d-44b3-a62e-9ce8ff29d236"},"vehicle_type_id":"4","last_reported":1752185413,"current_range_meters":12400,"station_id":"ce4bgup2rcd13ifvqcn0","pricing_plan_id":"cebpf4jnsgd1na2vs0mg"},{"bike_id":"604df45e-c404-4de8-8549-f91be407adf4","system_id":"levelo_inurba_marseille","lat":43.3233,"lon":5.4063,"is_reserved":false,"is_disabled":false,"rental_uris":{"android":"levelo://app?vid=604df45e-c404-4de8-8549-f91be407adf4","ios":"levelo://app?vid=604df45e-c404-4de8-8549-f91be407adf4"},"vehicle_type_id":"4","last_reported":1752185413,"current_range_meters":12400,"station_id":"ce4bhq92rcd13ifvqhjg","pricing_plan_id":"cebpf4jnsgd1na2vs0mg"},{"bike_id":"bf5f34d1-9a54-4334-8371-03f24f9a7583","system_id":"levelo_inurba_marseille","lat":43.24806,"lon":5.3746,"is_reserved":false,"is_disabled":false,"rental_uris":{"android":"levelo://app?vid=bf5f34d1-9a54-4334-8371-03f24f9a7583","ios":"levelo://app?vid=bf5f34d1-9a54-4334-8371-03f24f9a7583"},"vehicle_type_id":"4","last_reported":1752185413,"current_range_meters":12400,"station_id":"ce4bhgh2rcd13ifvqfb0","pricing_plan_id":"cebpf4jnsgd1na2vs0mg"},{"bike_id":"aea762a6-d2ea-4079-85f2-074aadc31e60","system_id":"levelo_inurba_marseille","lat":43.30425,"lon":5.38892,"is_reserved":false,"is_disabled":false,"rental_uris":{"android":"levelo://app?vid=aea762a6-d2ea-4079-85f2-074aadc31e60","ios":"levelo://app?vid=aea762a6-d2ea-4079-85f2-074aadc31e60"},"vehicle_type_id":"4","last_reported":1752185413,"current_range_meters":12000,"station_id":"ce4bgk12rcd13ifvqbi0","pricing_plan_id":"cebpf4jnsgd1na2vs0mg"},{"bike_id":"ddb9be4f-f3f8-43f9-aa75-a62ae12dac83","system_id":"levelo_inurba_marseille","lat":43.29059,"lon":5.39928,"is_reserved":false,"is_disabled":true,"rental_uris":{"android":"levelo://app?vid=ddb9be4f-f3f8-43f9-aa75-a62ae12dac83","ios":"levelo://app?vid=ddb9be4f-f3f8-43f9-aa75-a62ae12dac83"},"vehicle_type_id":"4","last_reported":1752185413,"current_range_meters":12800,"station_id":"ce4bh392rcd13ifvqdm0","pricing_plan_id":"cebpf4jnsgd1na2vs0mg"},{"bike_id":"d738154a-b7a8-47ee-b4de-b37e92312c88","system_id":"levelo_inurba_marseille","lat":43.26177,"lon":5.37049,"is_reserved":false,"is_disabled":false,"rental_uris":{"android":"levelo://app?vid=d738154a-b7a8-47ee-b4de-b37e92312c88","ios":"levelo://app?vid=d738154a-b7a8-47ee-b4de-b37e92312c88"},"vehicle_type_id":"4","last_reported":1752185413,"current_range_meters":12800,"station_id":"","pricing_plan_id":"cebpf4jnsgd1na2vs0mg"},{"bike_id":"e755442d-8544-4152-b94a-842e80ebaddd","system_id":"levelo_inurba_marseille","lat":43.24775,"lon":5.37484,"is_reserved":false,"is_disabled":true,"rental_uris":{"android":"levelo://app?vid=e755442d-8544-4152-b94a-842e80ebaddd","ios":"levelo://app?vid=e755442d-8544-4152-b94a-842e80ebaddd"},"vehicle_type_id":"4","last_reported":1752185413,"current_range_meters":12800,"station_id":"ce4bhgh2rcd13ifvqfb0","pricing_plan_id":"cebpf4jnsgd1na2vs0mg"},{"bike_id":"5ea3e4f2-2765-4cfb-9e82-487f230f57ce","system_id":"levelo_inurba_marseille","lat":43.26498,"lon":5.39539,"is_reserved":false,"is_disabled":false,"rental_uris":{"android":"levelo://app?vid=5ea3e4f2-2765-4cfb-9e82-487f230f57ce","ios":"levelo://app?vid=5ea3e4f2-2765-4cfb-9e82-487f230f57ce"},"vehicle_type_id":"4","last_reported":1752185413,"current_range_meters":12800,"station_id":"ce4bhi12rcd13ifvqfq0","pricing_plan_id":"cebpf4jnsgd1na2vs0mg"},{"bike_id":"b3d60eb0-7aa4-4c31-880d-886f21433e0c","system_id":"levelo_inurba_marseille","lat":43.3166,"lon":5.40494,"is_reserved":false,"is_disabled":false,"rental_uris":{"android":"levelo://app?vid=b3d60eb0-7aa4-4c31-880d-886f21433e0c","ios":"levelo://app?vid=b3d60eb0-7aa4-4c31-880d-886f21433e0c"},"vehicle_type_id":"4","last_reported":1752185413,"current_range_meters":12800,"station_id":"ce4bh012rcd13ifvqd00","pricing_plan_id":"cebpf4jnsgd1na2vs0mg"},{"bike_id":"5e3de7c8-3182-4a73-8e5c-d4ae2028ef6e","system_id":"levelo_inurba_marseille","lat":43.21752,"lon":5.34619,"is_reserved":false,"is_disabled":false,"rental_uris":{"android":"levelo://app?vid=5e3de7c8-3182-4a73-8e5c-d4ae2028ef6e","ios":"levelo://app?vid=5e3de7c8-3182-4a73-8e5c-d4ae2028ef6e"},"vehicle_type_id":"4","last_reported":1752185413,"current_range_meters":12800,"station_id":"","pricing_plan_id":"cebpf4jnsgd1na2vs0mg"},{"bike_id":"d3e8264f-5e78-41b8-b5b0-557e389e6623","system_id":"levelo_inurba_marseille","lat":43.31371,"lon":5.37159,"is_reserved":false,"is_disabled":false,"rental_uris":{"android":"levelo://app?vid=d3e8264f-5e78-41b8-b5b0-557e389e6623","ios":"levelo://app?vid=d3e8264f-5e78-41b8-b5b0-557e389e6623"},"vehicle_type_id":"4","last_reported":1752185413,"current_range_meters":12800,"station_id":"","pricing_plan_id":"cebpf4jnsgd1na2vs0mg"},{"bike_id":"42ef8611-73c8-4df7-a7ad-baca20c60809","system_id":"levelo_inurba_marseille","lat":43.30171,"lon":5.36616,"is_reserved":false,"is_disabled":false,"rental_uris":{"android":"levelo://app?vid=42ef8611-73c8-4df7-a7ad-baca20c60809","ios":"levelo://app?vid=42ef8611-73c8-4df7-a7ad-baca20c60809"},"vehicle_type_id":"4","last_reported":1752185413,"current_range_meters":12800,"station_id":"ce4bgrh2rcd13ifvqc8g","pricing_plan_id":"cebpf4jnsgd1na2vs0mg"},{"bike_id":"9b419ca3-81ad-41d0-b7f4-b40b4c3017d2","system_id":"levelo_inurba_marseille","lat":43.28723,"lon":5.36092,"is_reserved":false,"is_disabled":false,"rental_uris":{"android":"levelo://app?vid=9b419ca3-81ad-41d0-b7f4-b40b4c3017d2","ios":"levelo://app?vid=9b419ca3-81ad-41d0-b7f4-b40b4c3017d2"},"vehicle_type_id":"4","last_reported":1752185413,"current_range_meters":13600,"station_id":"cki0cbj6b192h4jlfktg","pricing_plan_id":"cebpf4jnsgd1na2vs0mg"},{"bike_id":"99aedd7f-b8c7-4995-b806-4ad855a814ec","system_id":"levelo_inurba_marseille","lat":43.2924,"lon":5.40904,"is_reserved":false,"is_disabled":false,"rental_uris":{"android":"levelo://app?vid=99aedd7f-b8c7-4995-b806-4ad855a814ec","ios":"levelo://app?vid=99aedd7f-b8c7-4995-b806-4ad855a814ec"},"vehicle_type_id":"4","last_reported":1752185413,"current_range_meters":13600,"station_id":"ce4bh192rcd13ifvqdc0","pricing_plan_id":"cebpf4jnsgd1na2vs0mg"},{"bike_id":"670fa610-3814-46d0-a5c0-9377a9a0541b","system_id":"levelo_inurba_marseille","lat":43.28848,"lon":5.39325,"is_reserved":false,"is_disabled":false,"rental_uris":{"android":"levelo://app?vid=670fa610-3814-46d0-a5c0-9377a9a0541b","ios":"levelo://app?vid=670fa610-3814-46d0-a5c0-9377a9a0541b"},"vehicle_type_id":"4","last_reported":1752185413,"current_range_meters":13600,"station_id":"ce4bh2p2rcd13ifvqdi0","pricing_plan_id":"cebpf4jnsgd1na2vs0mg"},{"bike_id":"a009a68a-efaf-4649-bcc3-790a117d22c2","system_id":"levelo_inurba_marseille","lat":43.28697,"lon":5.39983,"is_reserved":false,"is_disabled":false,"rental_uris":{"android":"levelo://app?vid=a009a68a-efaf-4649-bcc3-790a117d22c2","ios":"levelo://app?vid=a009a68a-efaf-4649-bcc3-790a117d22c2"},"vehicle_type_id":"4","last_reported":1752185413,"current_range_meters":13600,"station_id":"ce4bho92rcd13ifvqh3g","pricing_plan_id":"cebpf4jnsgd1na2vs0mg"},{"bike_id":"832c19ed-d1fa-4bad-86a8-04cdcc81cb09","system_id":"levelo_inurba_marseille","lat":43.27171,"lon":5.40994,"is_reserved":false,"is_disabled":false,"rental_uris":{"android":"levelo://app?vid=832c19ed-d1fa-4bad-86a8-04cdcc81cb09","ios":"levelo://app?vid=832c19ed-d1fa-4bad-86a8-04cdcc81cb09"},"vehicle_type_id":"4","last_reported":1752185413,"current_range_meters":13600,"station_id":"ce4bhl12rcd13ifvqgf0","pricing_plan_id":"cebpf4jnsgd1na2vs0mg"},{"bike_id":"6fa0df8f-9ff1-40c3-a15b-344b5a0d383b","system_id":"levelo_inurba_marseille","lat":43.32351,"lon":5.36756,"is_reserved":false,"is_disabled":false,"rental_uris":{"android":"levelo://app?vid=6fa0df8f-9ff1-40c3-a15b-344b5a0d383b","ios":"levelo://app?vid=6fa0df8f-9ff1-40c3-a15b-344b5a0d383b"},"vehicle_type_id":"4","last_reported":1752185413,"current_range_meters":13600,"station_id":"ce4bhsh2rcd13ifvqi2g","pricing_plan_id":"cebpf4jnsgd1na2vs0mg"},{"bike_id":"7f2f2937-2eee-42a3-a8a8-eaa2c470af40","system_id":"levelo_inurba_marseille","lat":43.29231,"lon":5.38477,"is_reserved":false,"is_disabled":false,"rental_uris":{"android":"levelo://app?vid=7f2f2937-2eee-42a3-a8a8-eaa2c470af40","ios":"levelo://app?vid=7f2f2937-2eee-42a3-a8a8-eaa2c470af40"},"vehicle_type_id":"4","last_reported":1752185413,"current_range_meters":13600,"station_id":"","pricing_plan_id":"cebpf4jnsgd1na2vs0mg"},{"bike_id":"b2ec9c3e-6575-40fd-b4ce-966c9776d017","system_id":"levelo_inurba_marseille","lat":43.29966,"lon":5.38497,"is_reserved":false,"is_disabled":false,"rental_uris":{"android":"levelo://app?vid=b2ec9c3e-6575-40fd-b4ce-966c9776d017","ios":"levelo://app?vid=b2ec9c3e-6575-40fd-b4ce-966c9776d017"},"vehicle_type_id":"4","last_reported":1752185413,"current_range_meters":13600,"station_id":"ce4bgj92rcd13ifvqbd0","pricing_plan_id":"cebpf4jnsgd1na2vs0mg"},{"bike_id":"b311a9c4-4879-4647-a827-13e5e61c676a","system_id":"levelo_inurba_marseille","lat":43.290995,"lon":5.381395,"is_reserved":false,"is_disabled":false,"rental_uris":{"android":"levelo://app?vid=b311a9c4-4879-4647-a827-13e5e61c676a","ios":"levelo://app?vid=b311a9c4-4879-4647-a827-13e5e61c676a"},"vehicle_type_id":"4","last_reported":1752185413,"current_range_meters":13600,"station_id":"ce4bh512rcd13ifvqe2g","pricing_plan_id":"cebpf4jnsgd1na2vs0mg"},{"bike_id":"9f5e74ce-2459-4c6f-a171-f6d1e8a1ed83","system_id":"levelo_inurba_marseille","lat":43.31862,"lon":5.37555,"is_reserved":false,"is_disabled":false,"rental_uris":{"android":"levelo://app?vid=9f5e74ce-2459-4c6f-a171-f6d1e8a1ed83","ios":"levelo://app?vid=9f5e74ce-2459-4c6f-a171-f6d1e8a1ed83"},"vehicle_type_id":"4","last_reported":1752185413,"current_range_meters":13600,"station_id":"","pricing_plan_id":"cebpf4jnsgd1na2vs0mg"},{"bike_id":"2594e65f-dea1-4a23-9d41-fd36c7c261a9","system_id":"levelo_inurba_marseille","lat":43.29534,"lon":5.38531,"is_reserved":false,"is_disabled":false,"rental_uris":{"android":"levelo://app?vid=2594e65f-dea1-4a23-9d41-fd36c7c261a9","ios":"levelo://app?vid=2594e65f-dea1-4a23-9d41-fd36c7c261a9"},"vehicle_type_id":"4","last_reported":1752185413,"current_range_meters":13600,"station_id":"ce4bgih2rcd13ifvqba0","pricing_plan_id":"cebpf4jnsgd1na2vs0mg"},{"bike_id":"f4d8afa1-8f4d-42c0-b795-8a2d2ea9a8de","system_id":"levelo_inurba_marseille","lat":43.27843,"lon":5.40735,"is_reserved":false,"is_disabled":false,"rental_uris":{"android":"levelo://app?vid=f4d8afa1-8f4d-42c0-b795-8a2d2ea9a8de","ios":"levelo://app?vid=f4d8afa1-8f4d-42c0-b795-8a2d2ea9a8de"},"vehicle_type_id":"4","last_reported":1752185413,"current_range_meters":13600,"station_id":"ce4bhnh2rcd13ifvqgtg","pricing_plan_id":"cebpf4jnsgd1na2vs0mg"},{"bike_id":"9170c84f-1e08-4a38-9a8d-99eea069f295","system_id":"levelo_inurba_marseille","lat":43.26946,"lon":5.402563,"is_reserved":false,"is_disabled":false,"rental_uris":{"android":"levelo://app?vid=9170c84f-1e08-4a38-9a8d-99eea069f295","ios":"levelo://app?vid=9170c84f-1e08-4a38-9a8d-99eea069f295"},"vehicle_type_id":"4","last_reported":1752185413,"current_range_meters":14000,"station_id":"cjm6bp8fraef2m0cb0m0","pricing_plan_id":"cebpf4jnsgd1na2vs0mg"},{"bike_id":"279239b3-c162-41b2-ba5e-9ac60a7989aa","system_id":"levelo_inurba_marseille","lat":43.2707,"lon":5.42286,"is_reserved":false,"is_disabled":false,"rental_uris":{"android":"levelo://app?vid=279239b3-c162-41b2-ba5e-9ac60a7989aa","ios":"levelo://app?vid=279239b3-c162-41b2-ba5e-9ac60a7989aa"},"vehicle_type_id":"4","last_reported":1752185413,"current_range_meters":14000,"station_id":"ce4bhk92rcd13ifvqgb0","pricing_plan_id":"cebpf4jnsgd1na2vs0mg"},{"bike_id":"d2f1f261-251b-428b-a8f1-1ccee2ca30cf","system_id":"levelo_inurba_marseille","lat":43.27833,"lon":5.37918,"is_reserved":false,"is_disabled":false,"rental_uris":{"android":"levelo://app?vid=d2f1f261-251b-428b-a8f1-1ccee2ca30cf","ios":"levelo://app?vid=d2f1f261-251b-428b-a8f1-1ccee2ca30cf"},"vehicle_type_id":"4","last_reported":1752185413,"current_range_meters":14000,"station_id":"","pricing_plan_id":"cebpf4jnsgd1na2vs0mg"},{"bike_id":"cb0890e8-3c02-4962-99e3-73812f6ce8d5","system_id":"levelo_inurba_marseille","lat":43.2954,"lon":5.42297,"is_reserved":false,"is_disabled":false,"rental_uris":{"android":"levelo://app?vid=cb0890e8-3c02-4962-99e3-73812f6ce8d5","ios":"levelo://app?vid=cb0890e8-3c02-4962-99e3-73812f6ce8d5"},"vehicle_type_id":"4","last_reported":1752185413,"current_range_meters":14000,"station_id":"ce4bhph2rcd13ifvqhdg","pricing_plan_id":"cebpf4jnsgd1na2vs0mg"},{"bike_id":"1118a94d-9059-40a5-a38a-f57a9d078769","system_id":"levelo_inurba_marseille","lat":43.26221,"lon":5.40469,"is_reserved":false,"is_disabled":false,"rental_uris":{"android":"levelo://app?vid=1118a94d-9059-40a5-a38a-f57a9d078769","ios":"levelo://app?vid=1118a94d-9059-40a5-a38a-f57a9d078769"},"vehicle_type_id":"4","last_reported":1752185413,"current_range_meters":14000,"station_id":"ce4bhmh2rcd13ifvqgmg","pricing_plan_id":"cebpf4jnsgd1na2vs0mg"},{"bike_id":"14bac858-e8cd-4a81-82e6-9dfd6bd0c0d8","system_id":"levelo_inurba_marseille","lat":43.30592,"lon":5.37237,"is_reserved":false,"is_disabled":false,"rental_uris":{"android":"levelo://app?vid=14bac858-e8cd-4a81-82e6-9dfd6bd0c0d8","ios":"levelo://app?vid=14bac858-e8cd-4a81-82e6-9dfd6bd0c0d8"},"vehicle_type_id":"4","last_reported":1752185413,"current_range_meters":13600,"station_id":"ce4bgqh2rcd13ifvqc4g","pricing_plan_id":"cebpf4jnsgd1na2vs0mg"},{"bike_id":"02531485-2ac4-456b-a216-436aea5642f9","system_id":"levelo_inurba_marseille","lat":43.30937,"lon":5.40145,"is_reserved":false,"is_disabled":false,"rental_uris":{"android":"levelo://app?vid=02531485-2ac4-456b-a216-436aea5642f9","ios":"levelo://app?vid=02531485-2ac4-456b-a216-436aea5642f9"},"vehicle_type_id":"4","last_reported":1752185413,"current_range_meters":14400,"station_id":"ce4bgvp2rcd13ifvqct0","pricing_plan_id":"cebpf4jnsgd1na2vs0mg"},{"bike_id":"a9d0e90e-5580-4c3f-8be7-735c1fba2a85","system_id":"levelo_inurba_marseille","lat":43.24177,"lon":5.39736,"is_reserved":false,"is_disabled":false,"rental_uris":{"android":"levelo://app?vid=a9d0e90e-5580-4c3f-8be7-735c1fba2a85","ios":"levelo://app?vid=a9d0e90e-5580-4c3f-8be7-735c1fba2a85"},"vehicle_type_id":"4","last_reported":1752185413,"current_range_meters":14400,"station_id":"ce4bhn12rcd13ifvqgpg","pricing_plan_id":"cebpf4jnsgd1na2vs0mg"},{"bike_id":"5a7b57ef-a00d-4d19-853c-d49c119db95f","system_id":"levelo_inurba_marseille","lat":43.24566,"lon":5.3734,"is_reserved":false,"is_disabled":false,"rental_uris":{"android":"levelo://app?vid=5a7b57ef-a00d-4d19-853c-d49c119db95f","ios":"levelo://app?vid=5a7b57ef-a00d-4d19-853c-d49c119db95f"},"vehicle_type_id":"4","last_reported":1752185413,"current_range_meters":14400,"station_id":"","pricing_plan_id":"cebpf4jnsgd1na2vs0mg"},{"bike_id":"77a895c0-f47c-4ec3-a855-a3289edee2ca","system_id":"levelo_inurba_marseille","lat":43.27835,"lon":5.39198,"is_reserved":false,"is_disabled":true,"rental_uris":{"android":"levelo://app?vid=77a895c0-f47c-4ec3-a855-a3289edee2ca","ios":"levelo://app?vid=77a895c0-f47c-4ec3-a855-a3289edee2ca"},"vehicle_type_id":"4","last_reported":1752185413,"current_range_meters":14400,"station_id":"ce4bhjp2rcd13ifvqga0","pricing_plan_id":"cebpf4jnsgd1na2vs0mg"},{"bike_id":"c1985a59-e9b6-44ee-b888-e5dc75f883bd","system_id":"levelo_inurba_marseille","lat":43.30646,"lon":5.40105,"is_reserved":false,"is_disabled":false,"rental_uris":{"android":"levelo://app?vid=c1985a59-e9b6-44ee-b888-e5dc75f883bd","ios":"levelo://app?vid=c1985a59-e9b6-44ee-b888-e5dc75f883bd"},"vehicle_type_id":"4","last_reported":1752185413,"current_range_meters":14400,"station_id":"ce4bh112rcd13ifvqda0","pricing_plan_id":"cebpf4jnsgd1na2vs0mg"},{"bike_id":"634afcae-4ecb-4b16-a584-e181a1b4368d","system_id":"levelo_inurba_marseille","lat":43.30134,"lon":5.38783,"is_reserved":false,"is_disabled":false,"rental_uris":{"android":"levelo://app?vid=634afcae-4ecb-4b16-a584-e181a1b4368d","ios":"levelo://app?vid=634afcae-4ecb-4b16-a584-e181a1b4368d"},"vehicle_type_id":"4","last_reported":1752185413,"current_range_meters":14400,"station_id":"ce4bghh2rcd13ifvqb60","pricing_plan_id":"cebpf4jnsgd1na2vs0mg"},{"bike_id":"d9da2231-3b6e-4f0d-8355-f289b148675d","system_id":"levelo_inurba_marseille","lat":43.30255,"lon":5.40081,"is_reserved":false,"is_disabled":false,"rental_uris":{"android":"levelo://app?vid=d9da2231-3b6e-4f0d-8355-f289b148675d","ios":"levelo://app?vid=d9da2231-3b6e-4f0d-8355-f289b148675d"},"vehicle_type_id":"4","last_reported":1752185413,"current_range_meters":14400,"station_id":"ce4bgvh2rcd13ifvqcs0","pricing_plan_id":"cebpf4jnsgd1na2vs0mg"},{"bike_id":"4e209b0c-855f-4b51-8120-2faef8673853","system_id":"levelo_inurba_marseille","lat":43.30603,"lon":5.36878,"is_reserved":false,"is_disabled":false,"rental_uris":{"android":"levelo://app?vid=4e209b0c-855f-4b51-8120-2faef8673853","ios":"levelo://app?vid=4e209b0c-855f-4b51-8120-2faef8673853"},"vehicle_type_id":"4","last_reported":1752185413,"current_range_meters":14400,"station_id":"","pricing_plan_id":"cebpf4jnsgd1na2vs0mg"},{"bike_id":"981c4761-fe8e-430f-bdc3-4c0152aafa3d","system_id":"levelo_inurba_marseille","lat":43.31483,"lon":5.37315,"is_reserved":false,"is_disabled":false,"rental_uris":{"android":"levelo://app?vid=981c4761-fe8e-430f-bdc3-4c0152aafa3d","ios":"levelo://app?vid=981c4761-fe8e-430f-bdc3-4c0152aafa3d"},"vehicle_type_id":"4","last_reported":1752185413,"current_range_meters":14800,"station_id":"ce4bgt12rcd13ifvqcd0","pricing_plan_id":"cebpf4jnsgd1na2vs0mg"},{"bike_id":"92f85761-f34e-44c8-94ab-fd886bab6ab1","system_id":"levelo_inurba_marseille","lat":43.29964,"lon":5.38509,"is_reserved":false,"is_disabled":false,"rental_uris":{"android":"levelo://app?vid=92f85761-f34e-44c8-94ab-fd886bab6ab1","ios":"levelo://app?vid=92f85761-f34e-44c8-94ab-fd886bab6ab1"},"vehicle_type_id":"4","last_reported":1752185413,"current_range_meters":14800,"station_id":"ce4bgj92rcd13ifvqbd0","pricing_plan_id":"cebpf4jnsgd1na2vs0mg"},{"bike_id":"8330a68f-2f6e-4337-9657-35d7d87c04ca","system_id":"levelo_inurba_marseille","lat":43.25451,"lon":5.37946,"is_reserved":false,"is_disabled":false,"rental_uris":{"android":"levelo://app?vid=8330a68f-2f6e-4337-9657-35d7d87c04ca","ios":"levelo://app?vid=8330a68f-2f6e-4337-9657-35d7d87c04ca"},"vehicle_type_id":"4","last_reported":1752185413,"current_range_meters":14800,"station_id":"","pricing_plan_id":"cebpf4jnsgd1na2vs0mg"},{"bike_id":"bdc0682a-661f-4de7-aa88-ec2c35948793","system_id":"levelo_inurba_marseille","lat":43.30874,"lon":5.39656,"is_reserved":false,"is_disabled":false,"rental_uris":{"android":"levelo://app?vid=bdc0682a-661f-4de7-aa88-ec2c35948793","ios":"levelo://app?vid=bdc0682a-661f-4de7-aa88-ec2c35948793"},"vehicle_type_id":"4","last_reported":1752185413,"current_range_meters":14800,"station_id":"ce4bh012rcd13ifvqcv0","pricing_plan_id":"cebpf4jnsgd1na2vs0mg"},{"bike_id":"6e7887bb-44ee-43b9-b212-289a1ce3d45d","system_id":"levelo_inurba_marseille","lat":43.30933,"lon":5.40141,"is_reserved":false,"is_disabled":false,"rental_uris":{"android":"levelo://app?vid=6e7887bb-44ee-43b9-b212-289a1ce3d45d","ios":"levelo://app?vid=6e7887bb-44ee-43b9-b212-289a1ce3d45d"},"vehicle_type_id":"4","last_reported":1752185413,"current_range_meters":14800,"station_id":"ce4bgvp2rcd13ifvqct0","pricing_plan_id":"cebpf4jnsgd1na2vs0mg"},{"bike_id":"b842d059-27fe-4429-89c7-250a43e69f81","system_id":"levelo_inurba_marseille","lat":43.28711,"lon":5.37971,"is_reserved":false,"is_disabled":true,"rental_uris":{"android":"levelo://app?vid=b842d059-27fe-4429-89c7-250a43e69f81","ios":"levelo://app?vid=b842d059-27fe-4429-89c7-250a43e69f81"},"vehicle_type_id":"4","last_reported":1752185413,"current_range_meters":14800,"station_id":"ce4bh9p2rcd13ifvqec0","pricing_plan_id":"cebpf4jnsgd1na2vs0mg"},{"bike_id":"fa87fcb5-aacb-41a1-a789-0296bbd02085","system_id":"levelo_inurba_marseille","lat":43.24582,"lon":5.37375,"is_reserved":false,"is_disabled":false,"rental_uris":{"android":"levelo://app?vid=fa87fcb5-aacb-41a1-a789-0296bbd02085","ios":"levelo://app?vid=fa87fcb5-aacb-41a1-a789-0296bbd02085"},"vehicle_type_id":"4","last_reported":1752185413,"current_range_meters":14800,"station_id":"","pricing_plan_id":"cebpf4jnsgd1na2vs0mg"},{"bike_id":"eb808631-7f2b-4efe-a9e5-541032677921","system_id":"levelo_inurba_marseille","lat":43.23187,"lon":5.3559,"is_reserved":false,"is_disabled":false,"rental_uris":{"android":"levelo://app?vid=eb808631-7f2b-4efe-a9e5-541032677921","ios":"levelo://app?vid=eb808631-7f2b-4efe-a9e5-541032677921"},"vehicle_type_id":"4","last_reported":1752185413,"current_range_meters":14800,"station_id":"ce4bhu92rcd13ifvqi70","pricing_plan_id":"cebpf4jnsgd1na2vs0mg"},{"bike_id":"12a0a7d5-bd16-4db6-9d97-49b871905ee5","system_id":"levelo_inurba_marseille","lat":43.29441,"lon":5.39752,"is_reserved":false,"is_disabled":false,"rental_uris":{"android":"levelo://app?vid=12a0a7d5-bd16-4db6-9d97-49b871905ee5","ios":"levelo://app?vid=12a0a7d5-bd16-4db6-9d97-49b871905ee5"},"vehicle_type_id":"4","last_reported":1752185413,"current_range_meters":15200,"station_id":"ce4bh3h2rcd13ifvqdo0","pricing_plan_id":"cebpf4jnsgd1na2vs0mg"},{"bike_id":"6994c34f-7b9e-4588-9c5d-f80e030067a1","system_id":"levelo_inurba_marseille","lat":43.32362,"lon":5.38908,"is_reserved":false,"is_disabled":false,"rental_uris":{"android":"levelo://app?vid=6994c34f-7b9e-4588-9c5d-f80e030067a1","ios":"levelo://app?vid=6994c34f-7b9e-4588-9c5d-f80e030067a1"},"vehicle_type_id":"4","last_reported":1752185413,"current_range_meters":15200,"station_id":"ce4bhqp2rcd13ifvqhog","pricing_plan_id":"cebpf4jnsgd1na2vs0mg"},{"bike_id":"ee1ac907-8623-4d00-ac01-d41dd90be9fe","system_id":"levelo_inurba_marseille","lat":43.21194,"lon":5.350732,"is_reserved":false,"is_disabled":false,"rental_uris":{"android":"levelo://app?vid=ee1ac907-8623-4d00-ac01-d41dd90be9fe","ios":"levelo://app?vid=ee1ac907-8623-4d00-ac01-d41dd90be9fe"},"vehicle_type_id":"4","last_reported":1752185413,"current_range_meters":15200,"station_id":"st_cvj6sg6p6f1abm77japg","pricing_plan_id":"cebpf4jnsgd1na2vs0mg"},{"bike_id":"7527d36a-ff6f-43f3-a3ae-1cdf18d96888","system_id":"levelo_inurba_marseille","lat":43.23178,"lon":5.39993,"is_reserved":false,"is_disabled":false,"rental_uris":{"android":"levelo://app?vid=7527d36a-ff6f-43f3-a3ae-1cdf18d96888","ios":"levelo://app?vid=7527d36a-ff6f-43f3-a3ae-1cdf18d96888"},"vehicle_type_id":"4","last_reported":1752185413,"current_range_meters":15200,"station_id":"ce4bhn12rcd13ifvqgqg","pricing_plan_id":"cebpf4jnsgd1na2vs0mg"},{"bike_id":"1746d397-612f-47c9-94f0-ae0e40fad68b","system_id":"levelo_inurba_marseille","lat":43.2395,"lon":5.36616,"is_reserved":false,"is_disabled":true,"rental_uris":{"android":"levelo://app?vid=1746d397-612f-47c9-94f0-ae0e40fad68b","ios":"levelo://app?vid=1746d397-612f-47c9-94f0-ae0e40fad68b"},"vehicle_type_id":"4","last_reported":1752185413,"current_range_meters":15200,"station_id":"ce4bhi12rcd13ifvqfp0","pricing_plan_id":"cebpf4jnsgd1na2vs0mg"},{"bike_id":"a5a6c2c1-2d48-4581-8647-6eab6c0bbb54","system_id":"levelo_inurba_marseille","lat":43.26317,"lon":5.37413,"is_reserved":false,"is_disabled":false,"rental_uris":{"android":"levelo://app?vid=a5a6c2c1-2d48-4581-8647-6eab6c0bbb54","ios":"levelo://app?vid=a5a6c2c1-2d48-4581-8647-6eab6c0bbb54"},"vehicle_type_id":"4","last_reported":1752185413,"current_range_meters":16000,"station_id":"","pricing_plan_id":"cebpf4jnsgd1na2vs0mg"},{"bike_id":"585b801e-88b9-440e-897a-864ee0a6b543","system_id":"levelo_inurba_marseille","lat":43.32653,"lon":5.41009,"is_reserved":false,"is_disabled":false,"rental_uris":{"android":"levelo://app?vid=585b801e-88b9-440e-897a-864ee0a6b543","ios":"levelo://app?vid=585b801e-88b9-440e-897a-864ee0a6b543"},"vehicle_type_id":"4","last_reported":1752185413,"current_range_meters":16000,"station_id":"ce4bhpp2rcd13ifvqhgg","pricing_plan_id":"cebpf4jnsgd1na2vs0mg"},{"bike_id":"5017c449-38fe-4160-848e-225e9c2e04c7","system_id":"levelo_inurba_marseille","lat":43.28053,"lon":5.40776,"is_reserved":false,"is_disabled":false,"rental_uris":{"android":"levelo://app?vid=5017c449-38fe-4160-848e-225e9c2e04c7","ios":"levelo://app?vid=5017c449-38fe-4160-848e-225e9c2e04c7"},"vehicle_type_id":"4","last_reported":1752185413,"current_range_meters":16000,"station_id":"","pricing_plan_id":"cebpf4jnsgd1na2vs0mg"},{"bike_id":"9a38b8ae-de57-4388-9942-2cd602d3a5ea","system_id":"levelo_inurba_marseille","lat":43.29564,"lon":5.42322,"is_reserved":false,"is_disabled":false,"rental_uris":{"android":"levelo://app?vid=9a38b8ae-de57-4388-9942-2cd602d3a5ea","ios":"levelo://app?vid=9a38b8ae-de57-4388-9942-2cd602d3a5ea"},"vehicle_type_id":"4","last_reported":1752185413,"current_range_meters":16000,"station_id":"ce4bhph2rcd13ifvqhdg","pricing_plan_id":"cebpf4jnsgd1na2vs0mg"},{"bike_id":"24b17f7b-dff1-4936-b27a-7c2c6813a894","system_id":"levelo_inurba_marseille","lat":43.245848,"lon":5.373771,"is_reserved":false,"is_disabled":false,"rental_uris":{"android":"levelo://app?vid=24b17f7b-dff1-4936-b27a-7c2c6813a894","ios":"levelo://app?vid=24b17f7b-dff1-4936-b27a-7c2c6813a894"},"vehicle_type_id":"4","last_reported":1752185413,"current_range_meters":16000,"station_id":"","pricing_plan_id":"cebpf4jnsgd1na2vs0mg"},{"bike_id":"8f89e4f3-495a-4317-bd6d-37a19186d65b","system_id":"levelo_inurba_marseille","lat":43.33711,"lon":5.39185,"is_reserved":false,"is_disabled":false,"rental_uris":{"android":"levelo://app?vid=8f89e4f3-495a-4317-bd6d-37a19186d65b","ios":"levelo://app?vid=8f89e4f3-495a-4317-bd6d-37a19186d65b"},"vehicle_type_id":"4","last_reported":1752185413,"current_range_meters":16000,"station_id":"ce4bhr92rcd13ifvqhsg","pricing_plan_id":"cebpf4jnsgd1na2vs0mg"},{"bike_id":"26b61381-69af-4581-b785-026ae3a97024","system_id":"levelo_inurba_marseille","lat":43.3172,"lon":5.42396,"is_reserved":false,"is_disabled":false,"rental_uris":{"android":"levelo://app?vid=26b61381-69af-4581-b785-026ae3a97024","ios":"levelo://app?vid=26b61381-69af-4581-b785-026ae3a97024"},"vehicle_type_id":"4","last_reported":1752185413,"current_range_meters":16000,"station_id":"ce4bhp92rcd13ifvqhbg","pricing_plan_id":"cebpf4jnsgd1na2vs0mg"},{"bike_id":"67a1c8bb-4e10-4d4c-8446-8fe730f54574","system_id":"levelo_inurba_marseille","lat":43.29421,"lon":5.38633,"is_reserved":false,"is_disabled":true,"rental_uris":{"android":"levelo://app?vid=67a1c8bb-4e10-4d4c-8446-8fe730f54574","ios":"levelo://app?vid=67a1c8bb-4e10-4d4c-8446-8fe730f54574"},"vehicle_type_id":"4","last_reported":1752185413,"current_range_meters":16400,"station_id":"ce4bh2h2rcd13ifvqdh0","pricing_plan_id":"cebpf4jnsgd1na2vs0mg"},{"bike_id":"040661d2-d8d2-4426-a85e-0e7aaf33ba5f","system_id":"levelo_inurba_marseille","lat":43.3059,"lon":5.39358,"is_reserved":false,"is_disabled":false,"rental_uris":{"android":"levelo://app?vid=040661d2-d8d2-4426-a85e-0e7aaf33ba5f","ios":"levelo://app?vid=040661d2-d8d2-4426-a85e-0e7aaf33ba5f"},"vehicle_type_id":"4","last_reported":1752185413,"current_range_meters":16400,"station_id":"ce4bh0p2rcd13ifvqd80","pricing_plan_id":"cebpf4jnsgd1na2vs0mg"},{"bike_id":"f6051ecb-40ed-4213-9fd5-ba7d19beb122","system_id":"levelo_inurba_marseille","lat":43.29259,"lon":5.38438,"is_reserved":false,"is_disabled":false,"rental_uris":{"android":"levelo://app?vid=f6051ecb-40ed-4213-9fd5-ba7d19beb122","ios":"levelo://app?vid=f6051ecb-40ed-4213-9fd5-ba7d19beb122"},"vehicle_type_id":"4","last_reported":1752185413,"current_range_meters":16400,"station_id":"ce4bh692rcd13ifvqea0","pricing_plan_id":"cebpf4jnsgd1na2vs0mg"},{"bike_id":"4018485f-3d49-463e-bed7-d890e4ff7869","system_id":"levelo_inurba_marseille","lat":43.290307,"lon":5.386516,"is_reserved":false,"is_disabled":true,"rental_uris":{"android":"levelo://app?vid=4018485f-3d49-463e-bed7-d890e4ff7869","ios":"levelo://app?vid=4018485f-3d49-463e-bed7-d890e4ff7869"},"vehicle_type_id":"4","last_reported":1752185413,"current_range_meters":16400,"station_id":"ce4bh4p2rcd13ifvqe0g","pricing_plan_id":"cebpf4jnsgd1na2vs0mg"},{"bike_id":"20298669-51c1-4292-ad92-d0fa61c941d3","system_id":"levelo_inurba_marseille","lat":43.23166,"lon":5.43721,"is_reserved":false,"is_disabled":true,"rental_uris":{"android":"levelo://app?vid=20298669-51c1-4292-ad92-d0fa61c941d3","ios":"levelo://app?vid=20298669-51c1-4292-ad92-d0fa61c941d3"},"vehicle_type_id":"4","last_reported":1752185413,"current_range_meters":16400,"station_id":"ce4bhmp2rcd13ifvqgog","pricing_plan_id":"cebpf4jnsgd1na2vs0mg"},{"bike_id":"d880ab5e-2e05-422c-92f7-6ad356dc3397","system_id":"levelo_inurba_marseille","lat":43.27554,"lon":5.38428,"is_reserved":false,"is_disabled":false,"rental_uris":{"android":"levelo://app?vid=d880ab5e-2e05-422c-92f7-6ad356dc3397","ios":"levelo://app?vid=d880ab5e-2e05-422c-92f7-6ad356dc3397"},"vehicle_type_id":"4","last_reported":1752185413,"current_range_meters":16400,"station_id":"ce4bhh92rcd13ifvqfi0","pricing_plan_id":"cebpf4jnsgd1na2vs0mg"},{"bike_id":"6737467a-fe5d-470c-a191-2df05ebbb3bb","system_id":"levelo_inurba_marseille","lat":43.2253,"lon":5.34796,"is_reserved":false,"is_disabled":false,"rental_uris":{"android":"levelo://app?vid=6737467a-fe5d-470c-a191-2df05ebbb3bb","ios":"levelo://app?vid=6737467a-fe5d-470c-a191-2df05ebbb3bb"},"vehicle_type_id":"4","last_reported":1752185413,"current_range_meters":16400,"station_id":"st_cvj5dfep6f1abm77gieg","pricing_plan_id":"cebpf4jnsgd1na2vs0mg"},{"bike_id":"ab4d382b-f79f-4b1b-ae31-19d2e6028151","system_id":"levelo_inurba_marseille","lat":43.312042,"lon":5.387519,"is_reserved":false,"is_disabled":false,"rental_uris":{"android":"levelo://app?vid=ab4d382b-f79f-4b1b-ae31-19d2e6028151","ios":"levelo://app?vid=ab4d382b-f79f-4b1b-ae31-19d2e6028151"},"vehicle_type_id":"4","last_reported":1752185413,"current_range_meters":16400,"station_id":"ce4bgup2rcd13ifvqco0","pricing_plan_id":"cebpf4jnsgd1na2vs0mg"},{"bike_id":"29a0a180-d29f-4a4e-a71b-d1d9d42cb217","system_id":"levelo_inurba_marseille","lat":43.211972,"lon":5.350836,"is_reserved":false,"is_disabled":false,"rental_uris":{"android":"levelo://app?vid=29a0a180-d29f-4a4e-a71b-d1d9d42cb217","ios":"levelo://app?vid=29a0a180-d29f-4a4e-a71b-d1d9d42cb217"},"vehicle_type_id":"4","last_reported":1752185413,"current_range_meters":16400,"station_id":"st_cvj6sg6p6f1abm77japg","pricing_plan_id":"cebpf4jnsgd1na2vs0mg"},{"bike_id":"c07bd1cf-f3fd-4a08-8e34-5b31f9155f97","system_id":"levelo_inurba_marseille","lat":43.312744,"lon":5.401806,"is_reserved":false,"is_disabled":false,"rental_uris":{"android":"levelo://app?vid=c07bd1cf-f3fd-4a08-8e34-5b31f9155f97","ios":"levelo://app?vid=c07bd1cf-f3fd-4a08-8e34-5b31f9155f97"},"vehicle_type_id":"4","last_reported":1752185413,"current_range_meters":16400,"station_id":"","pricing_plan_id":"cebpf4jnsgd1na2vs0mg"},{"bike_id":"4d4b9e28-a4f6-4d45-ac6b-64a63a768bd8","system_id":"levelo_inurba_marseille","lat":43.31514,"lon":5.37417,"is_reserved":false,"is_disabled":false,"rental_uris":{"android":"levelo://app?vid=4d4b9e28-a4f6-4d45-ac6b-64a63a768bd8","ios":"levelo://app?vid=4d4b9e28-a4f6-4d45-ac6b-64a63a768bd8"},"vehicle_type_id":"4","last_reported":1752185413,"current_range_meters":16800,"station_id":"","pricing_plan_id":"cebpf4jnsgd1na2vs0mg"},{"bike_id":"c8b16325-224a-4cd2-961f-c6ee8ae06d34","system_id":"levelo_inurba_marseille","lat":43.30427,"lon":5.38894,"is_reserved":false,"is_disabled":false,"rental_uris":{"android":"levelo://app?vid=c8b16325-224a-4cd2-961f-c6ee8ae06d34","ios":"levelo://app?vid=c8b16325-224a-4cd2-961f-c6ee8ae06d34"},"vehicle_type_id":"4","last_reported":1752185413,"current_range_meters":16800,"station_id":"ce4bgk12rcd13ifvqbi0","pricing_plan_id":"cebpf4jnsgd1na2vs0mg"},{"bike_id":"c3c5b26c-e834-4db6-994b-52abb31f20f1","system_id":"levelo_inurba_marseille","lat":43.24078,"lon":5.37776,"is_reserved":false,"is_disabled":false,"rental_uris":{"android":"levelo://app?vid=c3c5b26c-e834-4db6-994b-52abb31f20f1","ios":"levelo://app?vid=c3c5b26c-e834-4db6-994b-52abb31f20f1"},"vehicle_type_id":"4","last_reported":1752185413,"current_range_meters":16800,"station_id":"ce4bhnp2rcd13ifvqgvg","pricing_plan_id":"cebpf4jnsgd1na2vs0mg"},{"bike_id":"b0706c88-76b8-459e-9a2a-cd712e793e6b","system_id":"levelo_inurba_marseille","lat":43.30305,"lon":5.36893,"is_reserved":false,"is_disabled":false,"rental_uris":{"android":"levelo://app?vid=b0706c88-76b8-459e-9a2a-cd712e793e6b","ios":"levelo://app?vid=b0706c88-76b8-459e-9a2a-cd712e793e6b"},"vehicle_type_id":"4","last_reported":1752185413,"current_range_meters":16800,"station_id":"ce4bgqh2rcd13ifvqc5g","pricing_plan_id":"cebpf4jnsgd1na2vs0mg"},{"bike_id":"c17bc1e5-ceeb-4417-9f00-95d20df1aa8a","system_id":"levelo_inurba_marseille","lat":43.2903,"lon":5.39965,"is_reserved":false,"is_disabled":false,"rental_uris":{"android":"levelo://app?vid=c17bc1e5-ceeb-4417-9f00-95d20df1aa8a","ios":"levelo://app?vid=c17bc1e5-ceeb-4417-9f00-95d20df1aa8a"},"vehicle_type_id":"4","last_reported":1752185413,"current_range_meters":16800,"station_id":"ce4bh392rcd13ifvqdm0","pricing_plan_id":"cebpf4jnsgd1na2vs0mg"},{"bike_id":"2c702aa4-2ac5-4550-b697-5b3cdcd314b3","system_id":"levelo_inurba_marseille","lat":43.32054,"lon":5.41565,"is_reserved":false,"is_disabled":false,"rental_uris":{"android":"levelo://app?vid=2c702aa4-2ac5-4550-b697-5b3cdcd314b3","ios":"levelo://app?vid=2c702aa4-2ac5-4550-b697-5b3cdcd314b3"},"vehicle_type_id":"4","last_reported":1752185413,"current_range_meters":16800,"station_id":"ce4bhq92rcd13ifvqhkg","pricing_plan_id":"cebpf4jnsgd1na2vs0mg"},{"bike_id":"94a5cd01-5b5d-43df-9407-d4e869322f96","system_id":"levelo_inurba_marseille","lat":43.30469,"lon":5.3791,"is_reserved":false,"is_disabled":false,"rental_uris":{"android":"levelo://app?vid=94a5cd01-5b5d-43df-9407-d4e869322f96","ios":"levelo://app?vid=94a5cd01-5b5d-43df-9407-d4e869322f96"},"vehicle_type_id":"4","last_reported":1752185413,"current_range_meters":16800,"station_id":"ce4bgup2rcd13ifvqcn0","pricing_plan_id":"cebpf4jnsgd1na2vs0mg"},{"bike_id":"d849a247-c2c0-4619-bac8-f5a6994e0014","system_id":"levelo_inurba_marseille","lat":43.32058,"lon":5.41567,"is_reserved":false,"is_disabled":true,"rental_uris":{"android":"levelo://app?vid=d849a247-c2c0-4619-bac8-f5a6994e0014","ios":"levelo://app?vid=d849a247-c2c0-4619-bac8-f5a6994e0014"},"vehicle_type_id":"4","last_reported":1752185413,"current_range_meters":16800,"station_id":"ce4bhq92rcd13ifvqhkg","pricing_plan_id":"cebpf4jnsgd1na2vs0mg"},{"bike_id":"bb9da400-736b-4ec7-bded-6cb490327942","system_id":"levelo_inurba_marseille","lat":43.29088,"lon":5.38119,"is_reserved":false,"is_disabled":false,"rental_uris":{"android":"levelo://app?vid=bb9da400-736b-4ec7-bded-6cb490327942","ios":"levelo://app?vid=bb9da400-736b-4ec7-bded-6cb490327942"},"vehicle_type_id":"4","last_reported":1752185413,"current_range_meters":16800,"station_id":"ce4bh512rcd13ifvqe2g","pricing_plan_id":"cebpf4jnsgd1na2vs0mg"},{"bike_id":"a240857e-c6f8-4cf0-901e-ed8d4adbdc04","system_id":"levelo_inurba_marseille","lat":43.28486,"lon":5.38456,"is_reserved":false,"is_disabled":false,"rental_uris":{"android":"levelo://app?vid=a240857e-c6f8-4cf0-901e-ed8d4adbdc04","ios":"levelo://app?vid=a240857e-c6f8-4cf0-901e-ed8d4adbdc04"},"vehicle_type_id":"4","last_reported":1752185413,"current_range_meters":16800,"station_id":"ce4bh512rcd13ifvqe3g","pricing_plan_id":"cebpf4jnsgd1na2vs0mg"},{"bike_id":"eda871fa-b580-43fd-b274-b442e5f2f857","system_id":"levelo_inurba_marseille","lat":43.30422,"lon":5.38887,"is_reserved":false,"is_disabled":false,"rental_uris":{"android":"levelo://app?vid=eda871fa-b580-43fd-b274-b442e5f2f857","ios":"levelo://app?vid=eda871fa-b580-43fd-b274-b442e5f2f857"},"vehicle_type_id":"4","last_reported":1752185413,"current_range_meters":16800,"station_id":"ce4bgk12rcd13ifvqbi0","pricing_plan_id":"cebpf4jnsgd1na2vs0mg"},{"bike_id":"708d5aef-7ccb-4746-a259-8a843a1e1bc6","system_id":"levelo_inurba_marseille","lat":43.29252,"lon":5.38445,"is_reserved":false,"is_disabled":false,"rental_uris":{"android":"levelo://app?vid=708d5aef-7ccb-4746-a259-8a843a1e1bc6","ios":"levelo://app?vid=708d5aef-7ccb-4746-a259-8a843a1e1bc6"},"vehicle_type_id":"4","last_reported":1752185413,"current_range_meters":17200,"station_id":"ce4bh692rcd13ifvqea0","pricing_plan_id":"cebpf4jnsgd1na2vs0mg"},{"bike_id":"f086528f-f0be-4b14-8b3f-7d93ea0437ec","system_id":"levelo_inurba_marseille","lat":43.29037,"lon":5.3991,"is_reserved":false,"is_disabled":false,"rental_uris":{"android":"levelo://app?vid=f086528f-f0be-4b14-8b3f-7d93ea0437ec","ios":"levelo://app?vid=f086528f-f0be-4b14-8b3f-7d93ea0437ec"},"vehicle_type_id":"4","last_reported":1752185413,"current_range_meters":17200,"station_id":"ce4bh392rcd13ifvqdm0","pricing_plan_id":"cebpf4jnsgd1na2vs0mg"},{"bike_id":"595e9351-a7ce-45de-8995-771f7d9fe86e","system_id":"levelo_inurba_marseille","lat":43.309243,"lon":5.378088,"is_reserved":false,"is_disabled":false,"rental_uris":{"android":"levelo://app?vid=595e9351-a7ce-45de-8995-771f7d9fe86e","ios":"levelo://app?vid=595e9351-a7ce-45de-8995-771f7d9fe86e"},"vehicle_type_id":"4","last_reported":1752185413,"current_range_meters":17200,"station_id":"","pricing_plan_id":"cebpf4jnsgd1na2vs0mg"},{"bike_id":"6e44525d-ed45-445a-a877-081b94eb5813","system_id":"levelo_inurba_marseille","lat":43.303545,"lon":5.418774,"is_reserved":false,"is_disabled":true,"rental_uris":{"android":"levelo://app?vid=6e44525d-ed45-445a-a877-081b94eb5813","ios":"levelo://app?vid=6e44525d-ed45-445a-a877-081b94eb5813"},"vehicle_type_id":"4","last_reported":1752185413,"current_range_meters":17200,"station_id":"ce4bhop2rcd13ifvqh7g","pricing_plan_id":"cebpf4jnsgd1na2vs0mg"},{"bike_id":"9d4f14f9-e9e1-4507-8658-c8951cc4b985","system_id":"levelo_inurba_marseille","lat":43.284742,"lon":5.384104,"is_reserved":false,"is_disabled":false,"rental_uris":{"android":"levelo://app?vid=9d4f14f9-e9e1-4507-8658-c8951cc4b985","ios":"levelo://app?vid=9d4f14f9-e9e1-4507-8658-c8951cc4b985"},"vehicle_type_id":"4","last_reported":1752185413,"current_range_meters":17200,"station_id":"ce4bh512rcd13ifvqe3g","pricing_plan_id":"cebpf4jnsgd1na2vs0mg"},{"bike_id":"1886c21f-8bb0-49ec-9e4c-223d502e3248","system_id":"levelo_inurba_marseille","lat":43.29262,"lon":5.38433,"is_reserved":false,"is_disabled":false,"rental_uris":{"android":"levelo://app?vid=1886c21f-8bb0-49ec-9e4c-223d502e3248","ios":"levelo://app?vid=1886c21f-8bb0-49ec-9e4c-223d502e3248"},"vehicle_type_id":"4","last_reported":1752185413,"current_range_meters":17200,"station_id":"ce4bh692rcd13ifvqea0","pricing_plan_id":"cebpf4jnsgd1na2vs0mg"},{"bike_id":"c33a8479-32de-47b3-8d5d-8f80ddc62359","system_id":"levelo_inurba_marseille","lat":43.30127,"lon":5.3744,"is_reserved":false,"is_disabled":false,"rental_uris":{"android":"levelo://app?vid=c33a8479-32de-47b3-8d5d-8f80ddc62359","ios":"levelo://app?vid=c33a8479-32de-47b3-8d5d-8f80ddc62359"},"vehicle_type_id":"4","last_reported":1752185413,"current_range_meters":16800,"station_id":"ce4bgs92rcd13ifvqcc0","pricing_plan_id":"cebpf4jnsgd1na2vs0mg"},{"bike_id":"c98912b4-fd03-4c32-b74a-ce27d1ffe165","system_id":"levelo_inurba_marseille","lat":43.30806,"lon":5.38141,"is_reserved":false,"is_disabled":false,"rental_uris":{"android":"levelo://app?vid=c98912b4-fd03-4c32-b74a-ce27d1ffe165","ios":"levelo://app?vid=c98912b4-fd03-4c32-b74a-ce27d1ffe165"},"vehicle_type_id":"4","last_reported":1752185413,"current_range_meters":17200,"station_id":"ce4bgt12rcd13ifvqce0","pricing_plan_id":"cebpf4jnsgd1na2vs0mg"},{"bike_id":"90bc1451-ed8f-4f1a-807c-2488b3557cb8","system_id":"levelo_inurba_marseille","lat":43.30631,"lon":5.40084,"is_reserved":false,"is_disabled":false,"rental_uris":{"android":"levelo://app?vid=90bc1451-ed8f-4f1a-807c-2488b3557cb8","ios":"levelo://app?vid=90bc1451-ed8f-4f1a-807c-2488b3557cb8"},"vehicle_type_id":"4","last_reported":1752185413,"current_range_meters":17200,"station_id":"ce4bh112rcd13ifvqda0","pricing_plan_id":"cebpf4jnsgd1na2vs0mg"},{"bike_id":"6d560513-0d60-40ac-99e0-c6ffa83c1805","system_id":"levelo_inurba_marseille","lat":43.28484,"lon":5.38439,"is_reserved":false,"is_disabled":false,"rental_uris":{"android":"levelo://app?vid=6d560513-0d60-40ac-99e0-c6ffa83c1805","ios":"levelo://app?vid=6d560513-0d60-40ac-99e0-c6ffa83c1805"},"vehicle_type_id":"4","last_reported":1752185413,"current_range_meters":17200,"station_id":"ce4bh512rcd13ifvqe3g","pricing_plan_id":"cebpf4jnsgd1na2vs0mg"},{"bike_id":"8b440aeb-3c8b-4650-9f24-9c9b62dd74de","system_id":"levelo_inurba_marseille","lat":43.21213,"lon":5.35087,"is_reserved":false,"is_disabled":false,"rental_uris":{"android":"levelo://app?vid=8b440aeb-3c8b-4650-9f24-9c9b62dd74de","ios":"levelo://app?vid=8b440aeb-3c8b-4650-9f24-9c9b62dd74de"},"vehicle_type_id":"4","last_reported":1752185413,"current_range_meters":17200,"station_id":"st_cvj6sg6p6f1abm77japg","pricing_plan_id":"cebpf4jnsgd1na2vs0mg"},{"bike_id":"5423e7d5-07f9-4264-9d42-219884898d7f","system_id":"levelo_inurba_marseille","lat":43.24178,"lon":5.36379,"is_reserved":false,"is_disabled":false,"rental_uris":{"android":"levelo://app?vid=5423e7d5-07f9-4264-9d42-219884898d7f","ios":"levelo://app?vid=5423e7d5-07f9-4264-9d42-219884898d7f"},"vehicle_type_id":"4","last_reported":1752185413,"current_range_meters":17200,"station_id":"cpo36qri1sfpv3e86is0","pricing_plan_id":"cebpf4jnsgd1na2vs0mg"},{"bike_id":"544ec108-796d-413d-8a7c-7e4ffa805fe3","system_id":"levelo_inurba_marseille","lat":43.27347,"lon":5.39315,"is_reserved":false,"is_disabled":false,"rental_uris":{"android":"levelo://app?vid=544ec108-796d-413d-8a7c-7e4ffa805fe3","ios":"levelo://app?vid=544ec108-796d-413d-8a7c-7e4ffa805fe3"},"vehicle_type_id":"4","last_reported":1752185413,"current_range_meters":17200,"station_id":"","pricing_plan_id":"cebpf4jnsgd1na2vs0mg"},{"bike_id":"e3a75ee9-c614-467b-8cc2-f813bcef2ab1","system_id":"levelo_inurba_marseille","lat":43.33743,"lon":5.3919,"is_reserved":false,"is_disabled":false,"rental_uris":{"android":"levelo://app?vid=e3a75ee9-c614-467b-8cc2-f813bcef2ab1","ios":"levelo://app?vid=e3a75ee9-c614-467b-8cc2-f813bcef2ab1"},"vehicle_type_id":"4","last_reported":1752185413,"current_range_meters":17200,"station_id":"ce4bhr92rcd13ifvqhsg","pricing_plan_id":"cebpf4jnsgd1na2vs0mg"},{"bike_id":"cd3ad621-81d5-486b-8d9d-ec2d2d715d0a","system_id":"levelo_inurba_marseille","lat":43.30331,"lon":5.40437,"is_reserved":false,"is_disabled":false,"rental_uris":{"android":"levelo://app?vid=cd3ad621-81d5-486b-8d9d-ec2d2d715d0a","ios":"levelo://app?vid=cd3ad621-81d5-486b-8d9d-ec2d2d715d0a"},"vehicle_type_id":"4","last_reported":1752185413,"current_range_meters":17200,"station_id":"ce4bh012rcd13ifvqd10","pricing_plan_id":"cebpf4jnsgd1na2vs0mg"},{"bike_id":"05bb55a1-4ebc-4f7e-9df5-1ccd2ed2b3c8","system_id":"levelo_inurba_marseille","lat":43.292608,"lon":5.384445,"is_reserved":false,"is_disabled":false,"rental_uris":{"android":"levelo://app?vid=05bb55a1-4ebc-4f7e-9df5-1ccd2ed2b3c8","ios":"levelo://app?vid=05bb55a1-4ebc-4f7e-9df5-1ccd2ed2b3c8"},"vehicle_type_id":"4","last_reported":1752185413,"current_range_meters":17200,"station_id":"ce4bh692rcd13ifvqea0","pricing_plan_id":"cebpf4jnsgd1na2vs0mg"},{"bike_id":"a0fe9171-08e5-471f-8208-1d011ad5b924","system_id":"levelo_inurba_marseille","lat":43.29287,"lon":5.40122,"is_reserved":false,"is_disabled":false,"rental_uris":{"android":"levelo://app?vid=a0fe9171-08e5-471f-8208-1d011ad5b924","ios":"levelo://app?vid=a0fe9171-08e5-471f-8208-1d011ad5b924"},"vehicle_type_id":"4","last_reported":1752185413,"current_range_meters":17200,"station_id":"ce4bh312rcd13ifvqdk0","pricing_plan_id":"cebpf4jnsgd1na2vs0mg"},{"bike_id":"a27c01d4-977b-4bc7-a2ef-e89407d4dbd5","system_id":"levelo_inurba_marseille","lat":43.31061,"lon":5.38352,"is_reserved":false,"is_disabled":false,"rental_uris":{"android":"levelo://app?vid=a27c01d4-977b-4bc7-a2ef-e89407d4dbd5","ios":"levelo://app?vid=a27c01d4-977b-4bc7-a2ef-e89407d4dbd5"},"vehicle_type_id":"4","last_reported":1752185413,"current_range_meters":17200,"station_id":"ce4bgv92rcd13ifvqcr0","pricing_plan_id":"cebpf4jnsgd1na2vs0mg"},{"bike_id":"479b69d4-3376-4ae6-bc74-41dcf16b0474","system_id":"levelo_inurba_marseille","lat":43.22517,"lon":5.34808,"is_reserved":false,"is_disabled":false,"rental_uris":{"android":"levelo://app?vid=479b69d4-3376-4ae6-bc74-41dcf16b0474","ios":"levelo://app?vid=479b69d4-3376-4ae6-bc74-41dcf16b0474"},"vehicle_type_id":"4","last_reported":1752185413,"current_range_meters":17600,"station_id":"st_cvj5dfep6f1abm77gieg","pricing_plan_id":"cebpf4jnsgd1na2vs0mg"},{"bike_id":"36d841ea-e6f4-4ff1-8465-d05e720a58e5","system_id":"levelo_inurba_marseille","lat":43.28704,"lon":5.40024,"is_reserved":false,"is_disabled":true,"rental_uris":{"android":"levelo://app?vid=36d841ea-e6f4-4ff1-8465-d05e720a58e5","ios":"levelo://app?vid=36d841ea-e6f4-4ff1-8465-d05e720a58e5"},"vehicle_type_id":"4","last_reported":1752185413,"current_range_meters":17600,"station_id":"ce4bho92rcd13ifvqh3g","pricing_plan_id":"cebpf4jnsgd1na2vs0mg"},{"bike_id":"6d9b6e94-bfbc-43fd-940e-be4afa4e2561","system_id":"levelo_inurba_marseille","lat":43.29444,"lon":5.38684,"is_reserved":false,"is_disabled":false,"rental_uris":{"android":"levelo://app?vid=6d9b6e94-bfbc-43fd-940e-be4afa4e2561","ios":"levelo://app?vid=6d9b6e94-bfbc-43fd-940e-be4afa4e2561"},"vehicle_type_id":"4","last_reported":1752185413,"current_range_meters":17600,"station_id":"","pricing_plan_id":"cebpf4jnsgd1na2vs0mg"},{"bike_id":"46e76d63-dcce-4084-828e-9cffe437f4b6","system_id":"levelo_inurba_marseille","lat":43.2871,"lon":5.37962,"is_reserved":false,"is_disabled":false,"rental_uris":{"android":"levelo://app?vid=46e76d63-dcce-4084-828e-9cffe437f4b6","ios":"levelo://app?vid=46e76d63-dcce-4084-828e-9cffe437f4b6"},"vehicle_type_id":"4","last_reported":1752185413,"current_range_meters":17600,"station_id":"ce4bh9p2rcd13ifvqec0","pricing_plan_id":"cebpf4jnsgd1na2vs0mg"},{"bike_id":"2850cfd5-2110-4cbb-b6a3-2e06e17c78e6","system_id":"levelo_inurba_marseille","lat":43.25496,"lon":5.37627,"is_reserved":false,"is_disabled":true,"rental_uris":{"android":"levelo://app?vid=2850cfd5-2110-4cbb-b6a3-2e06e17c78e6","ios":"levelo://app?vid=2850cfd5-2110-4cbb-b6a3-2e06e17c78e6"},"vehicle_type_id":"4","last_reported":1752185413,"current_range_meters":17600,"station_id":"ce4bhh12rcd13ifvqff0","pricing_plan_id":"cebpf4jnsgd1na2vs0mg"},{"bike_id":"1b3e4cd1-a210-41bb-9494-a81d6a8a9c94","system_id":"levelo_inurba_marseille","lat":43.28475,"lon":5.38414,"is_reserved":false,"is_disabled":false,"rental_uris":{"android":"levelo://app?vid=1b3e4cd1-a210-41bb-9494-a81d6a8a9c94","ios":"levelo://app?vid=1b3e4cd1-a210-41bb-9494-a81d6a8a9c94"},"vehicle_type_id":"4","last_reported":1752185413,"current_range_meters":17600,"station_id":"ce4bh512rcd13ifvqe3g","pricing_plan_id":"cebpf4jnsgd1na2vs0mg"},{"bike_id":"bd69f1e7-b901-41a0-b2c9-aee4bd027443","system_id":"levelo_inurba_marseille","lat":43.21184,"lon":5.3509,"is_reserved":false,"is_disabled":false,"rental_uris":{"android":"levelo://app?vid=bd69f1e7-b901-41a0-b2c9-aee4bd027443","ios":"levelo://app?vid=bd69f1e7-b901-41a0-b2c9-aee4bd027443"},"vehicle_type_id":"4","last_reported":1752185413,"current_range_meters":17600,"station_id":"st_cvj6sg6p6f1abm77japg","pricing_plan_id":"cebpf4jnsgd1na2vs0mg"},{"bike_id":"e4305185-970a-44d5-a2ab-e44f01101e3c","system_id":"levelo_inurba_marseille","lat":43.27838,"lon":5.39211,"is_reserved":false,"is_disabled":false,"rental_uris":{"android":"levelo://app?vid=e4305185-970a-44d5-a2ab-e44f01101e3c","ios":"levelo://app?vid=e4305185-970a-44d5-a2ab-e44f01101e3c"},"vehicle_type_id":"4","last_reported":1752185413,"current_range_meters":17600,"station_id":"ce4bhjp2rcd13ifvqga0","pricing_plan_id":"cebpf4jnsgd1na2vs0mg"},{"bike_id":"03d285ad-fd72-47fb-9975-6f1db5bfd76f","system_id":"levelo_inurba_marseille","lat":43.29889,"lon":5.39792,"is_reserved":false,"is_disabled":true,"rental_uris":{"android":"levelo://app?vid=03d285ad-fd72-47fb-9975-6f1db5bfd76f","ios":"levelo://app?vid=03d285ad-fd72-47fb-9975-6f1db5bfd76f"},"vehicle_type_id":"4","last_reported":1752185413,"current_range_meters":17600,"station_id":"ce4bh0h2rcd13ifvqd50","pricing_plan_id":"cebpf4jnsgd1na2vs0mg"},{"bike_id":"5086513f-38b2-4d32-bf7b-ef747c2370bc","system_id":"levelo_inurba_marseille","lat":43.27917,"lon":5.39602,"is_reserved":false,"is_disabled":false,"rental_uris":{"android":"levelo://app?vid=5086513f-38b2-4d32-bf7b-ef747c2370bc","ios":"levelo://app?vid=5086513f-38b2-4d32-bf7b-ef747c2370bc"},"vehicle_type_id":"4","last_reported":1752185413,"current_range_meters":17600,"station_id":"ce4bhf92rcd13ifvqf40","pricing_plan_id":"cebpf4jnsgd1na2vs0mg"},{"bike_id":"79a1cb76-49ab-4aa5-a186-84db0a2014fd","system_id":"levelo_inurba_marseille","lat":43.29024,"lon":5.38641,"is_reserved":false,"is_disabled":false,"rental_uris":{"android":"levelo://app?vid=79a1cb76-49ab-4aa5-a186-84db0a2014fd","ios":"levelo://app?vid=79a1cb76-49ab-4aa5-a186-84db0a2014fd"},"vehicle_type_id":"4","last_reported":1752185413,"current_range_meters":17600,"station_id":"ce4bh4p2rcd13ifvqe0g","pricing_plan_id":"cebpf4jnsgd1na2vs0mg"},{"bike_id":"095d4470-a0f7-4e45-8733-8dd81e9d0d6f","system_id":"levelo_inurba_marseille","lat":43.27835,"lon":5.39211,"is_reserved":false,"is_disabled":false,"rental_uris":{"android":"levelo://app?vid=095d4470-a0f7-4e45-8733-8dd81e9d0d6f","ios":"levelo://app?vid=095d4470-a0f7-4e45-8733-8dd81e9d0d6f"},"vehicle_type_id":"4","last_reported":1752185413,"current_range_meters":18000,"station_id":"ce4bhjp2rcd13ifvqga0","pricing_plan_id":"cebpf4jnsgd1na2vs0mg"},{"bike_id":"1932e7f1-1af5-4b75-a7d5-0dd5b2b8d1dd","system_id":"levelo_inurba_marseille","lat":43.2997,"lon":5.37171,"is_reserved":false,"is_disabled":false,"rental_uris":{"android":"levelo://app?vid=1932e7f1-1af5-4b75-a7d5-0dd5b2b8d1dd","ios":"levelo://app?vid=1932e7f1-1af5-4b75-a7d5-0dd5b2b8d1dd"},"vehicle_type_id":"4","last_reported":1752185413,"current_range_meters":18000,"station_id":"ce4bgr92rcd13ifvqc7g","pricing_plan_id":"cebpf4jnsgd1na2vs0mg"},{"bike_id":"96f82260-718a-4e3a-9802-28ac9d732e83","system_id":"levelo_inurba_marseille","lat":43.26161,"lon":5.37468,"is_reserved":false,"is_disabled":false,"rental_uris":{"android":"levelo://app?vid=96f82260-718a-4e3a-9802-28ac9d732e83","ios":"levelo://app?vid=96f82260-718a-4e3a-9802-28ac9d732e83"},"vehicle_type_id":"4","last_reported":1752185413,"current_range_meters":18000,"station_id":"","pricing_plan_id":"cebpf4jnsgd1na2vs0mg"},{"bike_id":"dd9dd406-d5cf-445f-9be1-e4f31555fce0","system_id":"levelo_inurba_marseille","lat":43.30942,"lon":5.39053,"is_reserved":false,"is_disabled":false,"rental_uris":{"android":"levelo://app?vid=dd9dd406-d5cf-445f-9be1-e4f31555fce0","ios":"levelo://app?vid=dd9dd406-d5cf-445f-9be1-e4f31555fce0"},"vehicle_type_id":"4","last_reported":1752185413,"current_range_meters":18000,"station_id":"ce4bgup2rcd13ifvqco0","pricing_plan_id":"cebpf4jnsgd1na2vs0mg"},{"bike_id":"3a018df6-f07f-4996-a08e-f8489eb39ec1","system_id":"levelo_inurba_marseille","lat":43.29787,"lon":5.39345,"is_reserved":false,"is_disabled":false,"rental_uris":{"android":"levelo://app?vid=3a018df6-f07f-4996-a08e-f8489eb39ec1","ios":"levelo://app?vid=3a018df6-f07f-4996-a08e-f8489eb39ec1"},"vehicle_type_id":"4","last_reported":1752185413,"current_range_meters":18000,"station_id":"chh1huq6cuj3fo74tm60","pricing_plan_id":"cebpf4jnsgd1na2vs0mg"},{"bike_id":"530fdaa0-3dcf-48bd-ae6d-18f67ca1c283","system_id":"levelo_inurba_marseille","lat":43.297111,"lon":5.366155,"is_reserved":false,"is_disabled":false,"rental_uris":{"android":"levelo://app?vid=530fdaa0-3dcf-48bd-ae6d-18f67ca1c283","ios":"levelo://app?vid=530fdaa0-3dcf-48bd-ae6d-18f67ca1c283"},"vehicle_type_id":"4","last_reported":1752185413,"current_range_meters":18000,"station_id":"","pricing_plan_id":"cebpf4jnsgd1na2vs0mg"},{"bike_id":"cb8db05c-7ef4-4fcf-b321-cdc13d7cccad","system_id":"levelo_inurba_marseille","lat":43.29086,"lon":5.35605,"is_reserved":false,"is_disabled":false,"rental_uris":{"android":"levelo://app?vid=cb8db05c-7ef4-4fcf-b321-cdc13d7cccad","ios":"levelo://app?vid=cb8db05c-7ef4-4fcf-b321-cdc13d7cccad"},"vehicle_type_id":"4","last_reported":1752185413,"current_range_meters":18000,"station_id":"","pricing_plan_id":"cebpf4jnsgd1na2vs0mg"},{"bike_id":"647a1903-1834-4730-b34e-6397917620f0","system_id":"levelo_inurba_marseille","lat":43.31673,"lon":5.37023,"is_reserved":false,"is_disabled":false,"rental_uris":{"android":"levelo://app?vid=647a1903-1834-4730-b34e-6397917620f0","ios":"levelo://app?vid=647a1903-1834-4730-b34e-6397917620f0"},"vehicle_type_id":"4","last_reported":1752185413,"current_range_meters":18000,"station_id":"","pricing_plan_id":"cebpf4jnsgd1na2vs0mg"},{"bike_id":"7d072cd5-d97c-4678-ac17-47d5194a4b89","system_id":"levelo_inurba_marseille","lat":43.28712,"lon":5.37937,"is_reserved":false,"is_disabled":false,"rental_uris":{"android":"levelo://app?vid=7d072cd5-d97c-4678-ac17-47d5194a4b89","ios":"levelo://app?vid=7d072cd5-d97c-4678-ac17-47d5194a4b89"},"vehicle_type_id":"4","last_reported":1752185413,"current_range_meters":18000,"station_id":"ce4bh9p2rcd13ifvqec0","pricing_plan_id":"cebpf4jnsgd1na2vs0mg"},{"bike_id":"ecec5a70-47e2-4076-ac88-b63310387724","system_id":"levelo_inurba_marseille","lat":43.21746,"lon":5.34607,"is_reserved":false,"is_disabled":false,"rental_uris":{"android":"levelo://app?vid=ecec5a70-47e2-4076-ac88-b63310387724","ios":"levelo://app?vid=ecec5a70-47e2-4076-ac88-b63310387724"},"vehicle_type_id":"4","last_reported":1752185413,"current_range_meters":18000,"station_id":"st_cvj6r9ubvosntc0bgbag","pricing_plan_id":"cebpf4jnsgd1na2vs0mg"},{"bike_id":"771cc6e0-ef22-42ed-b555-a60680b9ea53","system_id":"levelo_inurba_marseille","lat":43.30188,"lon":5.36622,"is_reserved":false,"is_disabled":false,"rental_uris":{"android":"levelo://app?vid=771cc6e0-ef22-42ed-b555-a60680b9ea53","ios":"levelo://app?vid=771cc6e0-ef22-42ed-b555-a60680b9ea53"},"vehicle_type_id":"4","last_reported":1752185413,"current_range_meters":18000,"station_id":"ce4bgrh2rcd13ifvqc8g","pricing_plan_id":"cebpf4jnsgd1na2vs0mg"},{"bike_id":"40f98dd1-8972-4238-9e54-a72bf2db8794","system_id":"levelo_inurba_marseille","lat":43.29256,"lon":5.40903,"is_reserved":false,"is_disabled":false,"rental_uris":{"android":"levelo://app?vid=40f98dd1-8972-4238-9e54-a72bf2db8794","ios":"levelo://app?vid=40f98dd1-8972-4238-9e54-a72bf2db8794"},"vehicle_type_id":"4","last_reported":1752185413,"current_range_meters":18000,"station_id":"ce4bh192rcd13ifvqdc0","pricing_plan_id":"cebpf4jnsgd1na2vs0mg"},{"bike_id":"377e7382-3d72-46f7-96d1-aa278ef63eeb","system_id":"levelo_inurba_marseille","lat":43.29104,"lon":5.3814,"is_reserved":false,"is_disabled":false,"rental_uris":{"android":"levelo://app?vid=377e7382-3d72-46f7-96d1-aa278ef63eeb","ios":"levelo://app?vid=377e7382-3d72-46f7-96d1-aa278ef63eeb"},"vehicle_type_id":"4","last_reported":1752185413,"current_range_meters":18000,"station_id":"ce4bh512rcd13ifvqe2g","pricing_plan_id":"cebpf4jnsgd1na2vs0mg"},{"bike_id":"1448f298-93ea-4bfd-b8a2-07fc5ea58412","system_id":"levelo_inurba_marseille","lat":43.30777,"lon":5.37657,"is_reserved":false,"is_disabled":true,"rental_uris":{"android":"levelo://app?vid=1448f298-93ea-4bfd-b8a2-07fc5ea58412","ios":"levelo://app?vid=1448f298-93ea-4bfd-b8a2-07fc5ea58412"},"vehicle_type_id":"4","last_reported":1752185413,"current_range_meters":18800,"station_id":"ce4bgv92rcd13ifvqcq0","pricing_plan_id":"cebpf4jnsgd1na2vs0mg"},{"bike_id":"ce4c243c-89f2-4d19-9fcb-5ce4c089db94","system_id":"levelo_inurba_marseille","lat":43.28439,"lon":5.37501,"is_reserved":false,"is_disabled":true,"rental_uris":{"android":"levelo://app?vid=ce4c243c-89f2-4d19-9fcb-5ce4c089db94","ios":"levelo://app?vid=ce4c243c-89f2-4d19-9fcb-5ce4c089db94"},"vehicle_type_id":"4","last_reported":1752185413,"current_range_meters":18800,"station_id":"ce4bh412rcd13ifvqds0","pricing_plan_id":"cebpf4jnsgd1na2vs0mg"},{"bike_id":"0ab3f00c-4b54-424c-8e6d-e6b4e5865f8f","system_id":"levelo_inurba_marseille","lat":43.29627,"lon":5.40619,"is_reserved":false,"is_disabled":false,"rental_uris":{"android":"levelo://app?vid=0ab3f00c-4b54-424c-8e6d-e6b4e5865f8f","ios":"levelo://app?vid=0ab3f00c-4b54-424c-8e6d-e6b4e5865f8f"},"vehicle_type_id":"4","last_reported":1752185413,"current_range_meters":18800,"station_id":"ce4bh0h2rcd13ifvqd60","pricing_plan_id":"cebpf4jnsgd1na2vs0mg"},{"bike_id":"0926eaf4-c1f2-4f0c-be2b-9a668eac3c90","system_id":"levelo_inurba_marseille","lat":43.30425,"lon":5.39746,"is_reserved":false,"is_disabled":false,"rental_uris":{"android":"levelo://app?vid=0926eaf4-c1f2-4f0c-be2b-9a668eac3c90","ios":"levelo://app?vid=0926eaf4-c1f2-4f0c-be2b-9a668eac3c90"},"vehicle_type_id":"4","last_reported":1752185413,"current_range_meters":18800,"station_id":"ce4bh092rcd13ifvqd20","pricing_plan_id":"cebpf4jnsgd1na2vs0mg"},{"bike_id":"0fbd7a72-ca86-42ff-8a07-da02c490ab3f","system_id":"levelo_inurba_marseille","lat":43.29998,"lon":5.38522,"is_reserved":false,"is_disabled":false,"rental_uris":{"android":"levelo://app?vid=0fbd7a72-ca86-42ff-8a07-da02c490ab3f","ios":"levelo://app?vid=0fbd7a72-ca86-42ff-8a07-da02c490ab3f"},"vehicle_type_id":"4","last_reported":1752185413,"current_range_meters":18800,"station_id":"ce4bgj92rcd13ifvqbd0","pricing_plan_id":"cebpf4jnsgd1na2vs0mg"},{"bike_id":"5a1ebe51-0feb-4bc8-bfb6-f899fcb73b87","system_id":"levelo_inurba_marseille","lat":43.29199,"lon":5.358004,"is_reserved":false,"is_disabled":true,"rental_uris":{"android":"levelo://app?vid=5a1ebe51-0feb-4bc8-bfb6-f899fcb73b87","ios":"levelo://app?vid=5a1ebe51-0feb-4bc8-bfb6-f899fcb73b87"},"vehicle_type_id":"4","last_reported":1752185413,"current_range_meters":18800,"station_id":"","pricing_plan_id":"cebpf4jnsgd1na2vs0mg"},{"bike_id":"dafa5a87-b26d-4379-9a6b-1f02133b78a6","system_id":"levelo_inurba_marseille","lat":43.21176,"lon":5.35085,"is_reserved":false,"is_disabled":false,"rental_uris":{"android":"levelo://app?vid=dafa5a87-b26d-4379-9a6b-1f02133b78a6","ios":"levelo://app?vid=dafa5a87-b26d-4379-9a6b-1f02133b78a6"},"vehicle_type_id":"4","last_reported":1752185413,"current_range_meters":18800,"station_id":"st_cvj6sg6p6f1abm77japg","pricing_plan_id":"cebpf4jnsgd1na2vs0mg"},{"bike_id":"37b84a38-055a-4a6e-a56a-8ff3d0c1b2ec","system_id":"levelo_inurba_marseille","lat":43.21162,"lon":5.35066,"is_reserved":false,"is_disabled":false,"rental_uris":{"android":"levelo://app?vid=37b84a38-055a-4a6e-a56a-8ff3d0c1b2ec","ios":"levelo://app?vid=37b84a38-055a-4a6e-a56a-8ff3d0c1b2ec"},"vehicle_type_id":"4","last_reported":1752185413,"current_range_meters":18800,"station_id":"st_cvj6sg6p6f1abm77japg","pricing_plan_id":"cebpf4jnsgd1na2vs0mg"},{"bike_id":"bc96be83-896e-4b0b-8fcd-32dae23ac414","system_id":"levelo_inurba_marseille","lat":43.30247,"lon":5.40064,"is_reserved":false,"is_disabled":false,"rental_uris":{"android":"levelo://app?vid=bc96be83-896e-4b0b-8fcd-32dae23ac414","ios":"levelo://app?vid=bc96be83-896e-4b0b-8fcd-32dae23ac414"},"vehicle_type_id":"4","last_reported":1752185413,"current_range_meters":18800,"station_id":"ce4bgvh2rcd13ifvqcs0","pricing_plan_id":"cebpf4jnsgd1na2vs0mg"},{"bike_id":"aadccec2-4001-475e-95b9-852074588860","system_id":"levelo_inurba_marseille","lat":43.27895,"lon":5.38001,"is_reserved":false,"is_disabled":false,"rental_uris":{"android":"levelo://app?vid=aadccec2-4001-475e-95b9-852074588860","ios":"levelo://app?vid=aadccec2-4001-475e-95b9-852074588860"},"vehicle_type_id":"4","last_reported":1752185413,"current_range_meters":18800,"station_id":"ce4bhf92rcd13ifvqf50","pricing_plan_id":"cebpf4jnsgd1na2vs0mg"},{"bike_id":"b9eb5564-9455-4132-8628-60ec261aa7ff","system_id":"levelo_inurba_marseille","lat":43.31344,"lon":5.36715,"is_reserved":false,"is_disabled":false,"rental_uris":{"android":"levelo://app?vid=b9eb5564-9455-4132-8628-60ec261aa7ff","ios":"levelo://app?vid=b9eb5564-9455-4132-8628-60ec261aa7ff"},"vehicle_type_id":"4","last_reported":1752185413,"current_range_meters":19200,"station_id":"ce4bgr92rcd13ifvqc6g","pricing_plan_id":"cebpf4jnsgd1na2vs0mg"},{"bike_id":"8c86db8a-b071-4f94-a307-47751753d783","system_id":"levelo_inurba_marseille","lat":43.28409,"lon":5.37519,"is_reserved":false,"is_disabled":false,"rental_uris":{"android":"levelo://app?vid=8c86db8a-b071-4f94-a307-47751753d783","ios":"levelo://app?vid=8c86db8a-b071-4f94-a307-47751753d783"},"vehicle_type_id":"4","last_reported":1752185413,"current_range_meters":19200,"station_id":"ce4bh412rcd13ifvqds0","pricing_plan_id":"cebpf4jnsgd1na2vs0mg"},{"bike_id":"e9fd0cf8-573b-4177-88a6-f1faf33e8aca","system_id":"levelo_inurba_marseille","lat":43.290067,"lon":5.356147,"is_reserved":false,"is_disabled":true,"rental_uris":{"android":"levelo://app?vid=e9fd0cf8-573b-4177-88a6-f1faf33e8aca","ios":"levelo://app?vid=e9fd0cf8-573b-4177-88a6-f1faf33e8aca"},"vehicle_type_id":"4","last_reported":1752185413,"current_range_meters":19200,"station_id":"ce4bhb92rcd13ifvqen0","pricing_plan_id":"cebpf4jnsgd1na2vs0mg"},{"bike_id":"43b90c82-97e0-4fa7-8b67-2448f07d529e","system_id":"levelo_inurba_marseille","lat":43.21186,"lon":5.35076,"is_reserved":false,"is_disabled":false,"rental_uris":{"android":"levelo://app?vid=43b90c82-97e0-4fa7-8b67-2448f07d529e","ios":"levelo://app?vid=43b90c82-97e0-4fa7-8b67-2448f07d529e"},"vehicle_type_id":"4","last_reported":1752185413,"current_range_meters":19200,"station_id":"","pricing_plan_id":"cebpf4jnsgd1na2vs0mg"},{"bike_id":"6716c55d-4bf2-482f-a7e8-f26f1e7bfe5b","system_id":"levelo_inurba_marseille","lat":43.2988,"lon":5.38136,"is_reserved":false,"is_disabled":false,"rental_uris":{"android":"levelo://app?vid=6716c55d-4bf2-482f-a7e8-f26f1e7bfe5b","ios":"levelo://app?vid=6716c55d-4bf2-482f-a7e8-f26f1e7bfe5b"},"vehicle_type_id":"4","last_reported":1752185413,"current_range_meters":19200,"station_id":"ce4bgj12rcd13ifvqbc0","pricing_plan_id":"cebpf4jnsgd1na2vs0mg"},