{"last_updated":1777152420,"ttl":60,"version":"2.2","data":{"bikes":[{"bike_id":"35f763f0-2040-4017-9c4b-1f9f4cbf81cc","system_id":"levelo_inurba_marseille","lat":43.29714,"lon":5.36624,"is_reserved":false,"is_disabled":true,"rental_uris":{"android":"levelo://app?vid=35f763f0-2040-4017-9c4b-1f9f4cbf81cc","ios":"levelo://app?vid=35f763f0-2040-4017-9c4b-1f9f4cbf81cc"},"vehicle_type_id":"4","last_reported":1777152421,"current_range_meters":2800,"station_id":"ce4bgn12rcd13ifvqbt0","pricing_plan_id":"cebpf4jnsgd1na2vs0mg"},{"bike_id":"c35ef435-7351-4292-8bd0-8be9078d3a7d","system_id":"levelo_inurba_marseille","lat":43.30961,"lon":5.39049,"is_reserved":false,"is_disabled":true,"rental_uris":{"android":"levelo://app?vid=c35ef435-7351-4292-8bd0-8be9078d3a7d","ios":"levelo://app?vid=c35ef435-7351-4292-8bd0-8be9078d3a7d"},"vehicle_type_id":"4","last_reported":1777152421,"current_range_meters":2800,"station_id":"ce4bgup2rcd13ifvqco0","pricing_plan_id":"cebpf4jnsgd1na2vs0mg"},{"bike_id":"168b5534-ff13-4dc9-af35-5eae8b61ed60","system_id":"levelo_inurba_marseille","lat":43.2256,"lon":5.41628,"is_reserved":false,"is_disabled":false,"rental_uris":{"android":"levelo://app?vid=168b5534-ff13-4dc9-af35-5eae8b61ed60","ios":"levelo://app?vid=168b5534-ff13-4dc9-af35-5eae8b61ed60"},"vehicle_type_id":"4","last_reported":1777152421,"current_range_meters":2800,"station_id":"st_d2o4gvlbi1j2169b742g","pricing_plan_id":"cebpf4jnsgd1na2vs0mg"},{"bike_id":"b38d89b8-c3c9-4fae-b6f2-09980d89f2e9","system_id":"levelo_inurba_marseille","lat":43.2848,"lon":5.48397,"is_reserved":false,"is_disabled":false,"rental_uris":{"android":"levelo://app?vid=b38d89b8-c3c9-4fae-b6f2-09980d89f2e9","ios":"levelo://app?vid=b38d89b8-c3c9-4fae-b6f2-09980d89f2e9"},"vehicle_type_id":"4","last_reported":1777152421,"current_range_meters":2800,"station_id":"","pricing_plan_id":"cebpf4jnsgd1na2vs0mg"},{"bike_id":"616ae45d-d641-4a69-8d81-2261107b5285","system_id":"levelo_inurba_marseille","lat":43.23964,"lon":5.36622,"is_reserved":false,"is_disabled":false,"rental_uris":{"android":"levelo://app?vid=616ae45d-d641-4a69-8d81-2261107b5285","ios":"levelo://app?vid=616ae45d-d641-4a69-8d81-2261107b5285"},"vehicle_type_id":"4","last_reported":1777152421,"current_range_meters":2800,"station_id":"ce4bhi12rcd13ifvqfp0","pricing_plan_id":"cebpf4jnsgd1na2vs0mg"},{"bike_id":"d9229160-379f-4259-9a92-893aff1d40c9","system_id":"levelo_inurba_marseille","lat":43.32477,"lon":5.36573,"is_reserved":false,"is_disabled":false,"rental_uris":{"android":"levelo://app?vid=d9229160-379f-4259-9a92-893aff1d40c9","ios":"levelo://app?vid=d9229160-379f-4259-9a92-893aff1d40c9"},"vehicle_type_id":"4","last_reported":1777152421,"current_range_meters":2800,"station_id":"ce4bhs12rcd13ifvqhvg","pricing_plan_id":"cebpf4jnsgd1na2vs0mg"},{"bike_id":"05fc231b-c398-4e00-a1ad-8667138b69ec","system_id":"levelo_inurba_marseille","lat":43.29496,"lon":5.43306,"is_reserved":false,"is_disabled":false,"rental_uris":{"android":"levelo://app?vid=05fc231b-c398-4e00-a1ad-8667138b69ec","ios":"levelo://app?vid=05fc231b-c398-4e00-a1ad-8667138b69ec"},"vehicle_type_id":"4","last_reported":1777152421,"current_range_meters":2800,"station_id":"st_d3j5ugp08ojc73fj9d10","pricing_plan_id":"cebpf4jnsgd1na2vs0mg"},{"bike_id":"55e67142-2d7a-4e40-91bb-c3ae1f909e4a","system_id":"levelo_inurba_marseille","lat":43.29254,"lon":5.3844,"is_reserved":false,"is_disabled":false,"rental_uris":{"android":"levelo://app?vid=55e67142-2d7a-4e40-91bb-c3ae1f909e4a","ios":"levelo://app?vid=55e67142-2d7a-4e40-91bb-c3ae1f909e4a"},"vehicle_type_id":"4","last_reported":1777152421,"current_range_meters":2800,"station_id":"ce4bh692rcd13ifvqea0","pricing_plan_id":"cebpf4jnsgd1na2vs0mg"},{"bike_id":"5f8cdfbc-37c6-486e-8a09-9620e14e43ce","system_id":"levelo_inurba_marseille","lat":43.23907,"lon":5.37466,"is_reserved":false,"is_disabled":true,"rental_uris":{"android":"levelo://app?vid=5f8cdfbc-37c6-486e-8a09-9620e14e43ce","ios":"levelo://app?vid=5f8cdfbc-37c6-486e-8a09-9620e14e43ce"},"vehicle_type_id":"4","last_reported":1777152421,"current_range_meters":2800,"station_id":"st_d6sm7csbq4hs73f8fpjg","pricing_plan_id":"cebpf4jnsgd1na2vs0mg"},{"bike_id":"30ae163a-44ad-49ad-bf51-c1f54df5559c","system_id":"levelo_inurba_marseille","lat":43.28894,"lon":5.42541,"is_reserved":false,"is_disabled":false,"rental_uris":{"android":"levelo://app?vid=30ae163a-44ad-49ad-bf51-c1f54df5559c","ios":"levelo://app?vid=30ae163a-44ad-49ad-bf51-c1f54df5559c"},"vehicle_type_id":"4","last_reported":1777152421,"current_range_meters":2800,"station_id":"st_d3b462108ojc7389ooeg","pricing_plan_id":"cebpf4jnsgd1na2vs0mg"},{"bike_id":"01cc38eb-420b-4f54-b5bf-e23efb2a175c","system_id":"levelo_inurba_marseille","lat":43.29533,"lon":5.4331,"is_reserved":false,"is_disabled":false,"rental_uris":{"android":"levelo://app?vid=01cc38eb-420b-4f54-b5bf-e23efb2a175c","ios":"levelo://app?vid=01cc38eb-420b-4f54-b5bf-e23efb2a175c"},"vehicle_type_id":"4","last_reported":1777152421,"current_range_meters":2800,"station_id":"st_d3j5ugp08ojc73fj9d10","pricing_plan_id":"cebpf4jnsgd1na2vs0mg"},{"bike_id":"24b354a2-30e7-4b1b-beab-a761a56440e9","system_id":"levelo_inurba_marseille","lat":43.25511,"lon":5.37637,"is_reserved":false,"is_disabled":false,"rental_uris":{"android":"levelo://app?vid=24b354a2-30e7-4b1b-beab-a761a56440e9","ios":"levelo://app?vid=24b354a2-30e7-4b1b-beab-a761a56440e9"},"vehicle_type_id":"4","last_reported":1777152421,"current_range_meters":3200,"station_id":"ce4bhh12rcd13ifvqff0","pricing_plan_id":"cebpf4jnsgd1na2vs0mg"},{"bike_id":"c2cdc790-af50-4e5e-97f2-5f74d9ff8142","system_id":"levelo_inurba_marseille","lat":43.2985,"lon":5.36279,"is_reserved":false,"is_disabled":false,"rental_uris":{"android":"levelo://app?vid=c2cdc790-af50-4e5e-97f2-5f74d9ff8142","ios":"levelo://app?vid=c2cdc790-af50-4e5e-97f2-5f74d9ff8142"},"vehicle_type_id":"4","last_reported":1777152421,"current_range_meters":3200,"station_id":"","pricing_plan_id":"cebpf4jnsgd1na2vs0mg"},{"bike_id":"cd691c0c-5e8f-48a4-a7de-ac20375323d8","system_id":"levelo_inurba_marseille","lat":43.303,"lon":5.39169,"is_reserved":false,"is_disabled":false,"rental_uris":{"android":"levelo://app?vid=cd691c0c-5e8f-48a4-a7de-ac20375323d8","ios":"levelo://app?vid=cd691c0c-5e8f-48a4-a7de-ac20375323d8"},"vehicle_type_id":"4","last_reported":1777152421,"current_range_meters":3200,"station_id":"ce4bgkh2rcd13ifvqbk0","pricing_plan_id":"cebpf4jnsgd1na2vs0mg"},{"bike_id":"783bed0f-7002-4e4e-bf5c-232cd016f514","system_id":"levelo_inurba_marseille","lat":43.31086,"lon":5.42431,"is_reserved":false,"is_disabled":false,"rental_uris":{"android":"levelo://app?vid=783bed0f-7002-4e4e-bf5c-232cd016f514","ios":"levelo://app?vid=783bed0f-7002-4e4e-bf5c-232cd016f514"},"vehicle_type_id":"4","last_reported":1777152421,"current_range_meters":3200,"station_id":"ce4bhp92rcd13ifvqhag","pricing_plan_id":"cebpf4jnsgd1na2vs0mg"},{"bike_id":"7ab9e9d2-55c6-492f-8e60-126c7a6965ab","system_id":"levelo_inurba_marseille","lat":43.27967,"lon":5.37042,"is_reserved":false,"is_disabled":false,"rental_uris":{"android":"levelo://app?vid=7ab9e9d2-55c6-492f-8e60-126c7a6965ab","ios":"levelo://app?vid=7ab9e9d2-55c6-492f-8e60-126c7a6965ab"},"vehicle_type_id":"4","last_reported":1777152421,"current_range_meters":3200,"station_id":"","pricing_plan_id":"cebpf4jnsgd1na2vs0mg"},{"bike_id":"75525d3f-e50a-493e-ad5c-35eb3b83e487","system_id":"levelo_inurba_marseille","lat":43.31989,"lon":5.38158,"is_reserved":false,"is_disabled":false,"rental_uris":{"android":"levelo://app?vid=75525d3f-e50a-493e-ad5c-35eb3b83e487","ios":"levelo://app?vid=75525d3f-e50a-493e-ad5c-35eb3b83e487"},"vehicle_type_id":"4","last_reported":1777152421,"current_range_meters":3200,"station_id":"ce4bhr12rcd13ifvqhpg","pricing_plan_id":"cebpf4jnsgd1na2vs0mg"},{"bike_id":"4af5f932-71ad-4954-ac3b-fecb2a352994","system_id":"levelo_inurba_marseille","lat":43.32405,"lon":5.36757,"is_reserved":false,"is_disabled":false,"rental_uris":{"android":"levelo://app?vid=4af5f932-71ad-4954-ac3b-fecb2a352994","ios":"levelo://app?vid=4af5f932-71ad-4954-ac3b-fecb2a352994"},"vehicle_type_id":"4","last_reported":1777152421,"current_range_meters":3600,"station_id":"","pricing_plan_id":"cebpf4jnsgd1na2vs0mg"},{"bike_id":"2dc12f69-7af1-4c96-a98f-ec8941f18184","system_id":"levelo_inurba_marseille","lat":43.24819,"lon":5.37452,"is_reserved":false,"is_disabled":false,"rental_uris":{"android":"levelo://app?vid=2dc12f69-7af1-4c96-a98f-ec8941f18184","ios":"levelo://app?vid=2dc12f69-7af1-4c96-a98f-ec8941f18184"},"vehicle_type_id":"4","last_reported":1777152421,"current_range_meters":3600,"station_id":"ce4bhgh2rcd13ifvqfb0","pricing_plan_id":"cebpf4jnsgd1na2vs0mg"},{"bike_id":"1370c3f0-6074-43de-a93b-f7f87c829b3b","system_id":"levelo_inurba_marseille","lat":43.2912,"lon":5.39985,"is_reserved":false,"is_disabled":false,"rental_uris":{"android":"levelo://app?vid=1370c3f0-6074-43de-a93b-f7f87c829b3b","ios":"levelo://app?vid=1370c3f0-6074-43de-a93b-f7f87c829b3b"},"vehicle_type_id":"4","last_reported":1777152421,"current_range_meters":3600,"station_id":"","pricing_plan_id":"cebpf4jnsgd1na2vs0mg"},{"bike_id":"1087d835-64df-4e82-b29d-f5cfd2618cef","system_id":"levelo_inurba_marseille","lat":43.2931,"lon":5.37169,"is_reserved":false,"is_disabled":false,"rental_uris":{"android":"levelo://app?vid=1087d835-64df-4e82-b29d-f5cfd2618cef","ios":"levelo://app?vid=1087d835-64df-4e82-b29d-f5cfd2618cef"},"vehicle_type_id":"4","last_reported":1777152421,"current_range_meters":3600,"station_id":"ce4bgh92rcd13ifvqb40","pricing_plan_id":"cebpf4jnsgd1na2vs0mg"},{"bike_id":"2819c843-5932-40f6-8bae-f669751e2d4f","system_id":"levelo_inurba_marseille","lat":43.24814,"lon":5.37457,"is_reserved":false,"is_disabled":false,"rental_uris":{"android":"levelo://app?vid=2819c843-5932-40f6-8bae-f669751e2d4f","ios":"levelo://app?vid=2819c843-5932-40f6-8bae-f669751e2d4f"},"vehicle_type_id":"4","last_reported":1777152421,"current_range_meters":3600,"station_id":"ce4bhgh2rcd13ifvqfb0","pricing_plan_id":"cebpf4jnsgd1na2vs0mg"},{"bike_id":"4d5b4915-5fc0-4782-a3a4-e445cc2cf470","system_id":"levelo_inurba_marseille","lat":43.29871,"lon":5.42101,"is_reserved":false,"is_disabled":false,"rental_uris":{"android":"levelo://app?vid=4d5b4915-5fc0-4782-a3a4-e445cc2cf470","ios":"levelo://app?vid=4d5b4915-5fc0-4782-a3a4-e445cc2cf470"},"vehicle_type_id":"4","last_reported":1777152421,"current_range_meters":3600,"station_id":"st_d6tc004otcvc738tfe70","pricing_plan_id":"cebpf4jnsgd1na2vs0mg"},{"bike_id":"3874d9c1-2389-452d-b5e6-f947c8b93eae","system_id":"levelo_inurba_marseille","lat":43.24816,"lon":5.37453,"is_reserved":false,"is_disabled":false,"rental_uris":{"android":"levelo://app?vid=3874d9c1-2389-452d-b5e6-f947c8b93eae","ios":"levelo://app?vid=3874d9c1-2389-452d-b5e6-f947c8b93eae"},"vehicle_type_id":"4","last_reported":1777152421,"current_range_meters":3600,"station_id":"ce4bhgh2rcd13ifvqfb0","pricing_plan_id":"cebpf4jnsgd1na2vs0mg"},{"bike_id":"c7ac0306-6afc-4781-8692-f962ddfe1a23","system_id":"levelo_inurba_marseille","lat":43.32352,"lon":5.36758,"is_reserved":false,"is_disabled":false,"rental_uris":{"android":"levelo://app?vid=c7ac0306-6afc-4781-8692-f962ddfe1a23","ios":"levelo://app?vid=c7ac0306-6afc-4781-8692-f962ddfe1a23"},"vehicle_type_id":"4","last_reported":1777152421,"current_range_meters":3600,"station_id":"ce4bhsh2rcd13ifvqi2g","pricing_plan_id":"cebpf4jnsgd1na2vs0mg"},{"bike_id":"e0b2eaa7-8916-4723-a416-cd7c59fb6f32","system_id":"levelo_inurba_marseille","lat":43.29346,"lon":5.37443,"is_reserved":false,"is_disabled":false,"rental_uris":{"android":"levelo://app?vid=e0b2eaa7-8916-4723-a416-cd7c59fb6f32","ios":"levelo://app?vid=e0b2eaa7-8916-4723-a416-cd7c59fb6f32"},"vehicle_type_id":"4","last_reported":1777152421,"current_range_meters":3600,"station_id":"","pricing_plan_id":"cebpf4jnsgd1na2vs0mg"},{"bike_id":"f8b71621-9ee0-4284-b9b2-be8fa047ba8a","system_id":"levelo_inurba_marseille","lat":43.30127,"lon":5.43122,"is_reserved":false,"is_disabled":false,"rental_uris":{"android":"levelo://app?vid=f8b71621-9ee0-4284-b9b2-be8fa047ba8a","ios":"levelo://app?vid=f8b71621-9ee0-4284-b9b2-be8fa047ba8a"},"vehicle_type_id":"4","last_reported":1777152421,"current_range_meters":3600,"station_id":"st_d3js3co5814s73ftftug","pricing_plan_id":"cebpf4jnsgd1na2vs0mg"},{"bike_id":"0e17a7c5-83b0-410b-aede-cf7863dd9254","system_id":"levelo_inurba_marseille","lat":43.25588,"lon":5.38237,"is_reserved":false,"is_disabled":false,"rental_uris":{"android":"levelo://app?vid=0e17a7c5-83b0-410b-aede-cf7863dd9254","ios":"levelo://app?vid=0e17a7c5-83b0-410b-aede-cf7863dd9254"},"vehicle_type_id":"4","last_reported":1777152421,"current_range_meters":4000,"station_id":"ce4bhih2rcd13ifvqfs0","pricing_plan_id":"cebpf4jnsgd1na2vs0mg"},{"bike_id":"5951d7e7-1807-428d-a52f-8f8e002a49ff","system_id":"levelo_inurba_marseille","lat":43.29686,"lon":5.37296,"is_reserved":false,"is_disabled":false,"rental_uris":{"android":"levelo://app?vid=5951d7e7-1807-428d-a52f-8f8e002a49ff","ios":"levelo://app?vid=5951d7e7-1807-428d-a52f-8f8e002a49ff"},"vehicle_type_id":"4","last_reported":1777152421,"current_range_meters":4000,"station_id":"ce4bgk12rcd13ifvqbj0","pricing_plan_id":"cebpf4jnsgd1na2vs0mg"},{"bike_id":"38cefda9-7cce-4e87-b758-bb391bf5fcee","system_id":"levelo_inurba_marseille","lat":43.24821,"lon":5.37453,"is_reserved":false,"is_disabled":false,"rental_uris":{"android":"levelo://app?vid=38cefda9-7cce-4e87-b758-bb391bf5fcee","ios":"levelo://app?vid=38cefda9-7cce-4e87-b758-bb391bf5fcee"},"vehicle_type_id":"4","last_reported":1777152421,"current_range_meters":4000,"station_id":"ce4bhgh2rcd13ifvqfb0","pricing_plan_id":"cebpf4jnsgd1na2vs0mg"},{"bike_id":"1d368fe1-0c8f-4a40-864c-b54082c58fa1","system_id":"levelo_inurba_marseille","lat":43.33542,"lon":5.37467,"is_reserved":false,"is_disabled":false,"rental_uris":{"android":"levelo://app?vid=1d368fe1-0c8f-4a40-864c-b54082c58fa1","ios":"levelo://app?vid=1d368fe1-0c8f-4a40-864c-b54082c58fa1"},"vehicle_type_id":"4","last_reported":1777152421,"current_range_meters":4000,"station_id":"st_d46tts09ee8s73dlu43g","pricing_plan_id":"cebpf4jnsgd1na2vs0mg"},{"bike_id":"0fb20b22-105a-49c6-b3c4-7ef833992223","system_id":"levelo_inurba_marseille","lat":43.31695,"lon":5.40423,"is_reserved":false,"is_disabled":false,"rental_uris":{"android":"levelo://app?vid=0fb20b22-105a-49c6-b3c4-7ef833992223","ios":"levelo://app?vid=0fb20b22-105a-49c6-b3c4-7ef833992223"},"vehicle_type_id":"4","last_reported":1777152421,"current_range_meters":4000,"station_id":"ce4bh012rcd13ifvqd00","pricing_plan_id":"cebpf4jnsgd1na2vs0mg"},{"bike_id":"09dca68d-a96e-4c7c-8c93-084a9274aaf6","system_id":"levelo_inurba_marseille","lat":43.22526,"lon":5.34827,"is_reserved":false,"is_disabled":false,"rental_uris":{"android":"levelo://app?vid=09dca68d-a96e-4c7c-8c93-084a9274aaf6","ios":"levelo://app?vid=09dca68d-a96e-4c7c-8c93-084a9274aaf6"},"vehicle_type_id":"4","last_reported":1777152421,"current_range_meters":4000,"station_id":"st_cvj5dfep6f1abm77gieg","pricing_plan_id":"cebpf4jnsgd1na2vs0mg"},{"bike_id":"a87dda68-9918-4173-88ea-81b550ac3f36","system_id":"levelo_inurba_marseille","lat":43.284852,"lon":5.359369,"is_reserved":false,"is_disabled":false,"rental_uris":{"android":"levelo://app?vid=a87dda68-9918-4173-88ea-81b550ac3f36","ios":"levelo://app?vid=a87dda68-9918-4173-88ea-81b550ac3f36"},"vehicle_type_id":"4","last_reported":1777152421,"current_range_meters":4000,"station_id":"ce4bhah2rcd13ifvqei0","pricing_plan_id":"cebpf4jnsgd1na2vs0mg"},{"bike_id":"2378e1f0-5689-4487-9679-7d71c7865159","system_id":"levelo_inurba_marseille","lat":43.2582,"lon":5.39433,"is_reserved":false,"is_disabled":false,"rental_uris":{"android":"levelo://app?vid=2378e1f0-5689-4487-9679-7d71c7865159","ios":"levelo://app?vid=2378e1f0-5689-4487-9679-7d71c7865159"},"vehicle_type_id":"4","last_reported":1777152421,"current_range_meters":4000,"station_id":"ce4bhip2rcd13ifvqft0","pricing_plan_id":"cebpf4jnsgd1na2vs0mg"},{"bike_id":"261b4d20-3fce-4a9a-b1df-f7d9447249df","system_id":"levelo_inurba_marseille","lat":43.28478,"lon":5.48393,"is_reserved":false,"is_disabled":false,"rental_uris":{"android":"levelo://app?vid=261b4d20-3fce-4a9a-b1df-f7d9447249df","ios":"levelo://app?vid=261b4d20-3fce-4a9a-b1df-f7d9447249df"},"vehicle_type_id":"4","last_reported":1777152421,"current_range_meters":4000,"station_id":"st_d3svhcjqgbts73a3dn0g","pricing_plan_id":"cebpf4jnsgd1na2vs0mg"},{"bike_id":"5a325797-c624-450f-b8f8-5e9336dedc17","system_id":"levelo_inurba_marseille","lat":43.28373,"lon":5.38637,"is_reserved":false,"is_disabled":false,"rental_uris":{"android":"levelo://app?vid=5a325797-c624-450f-b8f8-5e9336dedc17","ios":"levelo://app?vid=5a325797-c624-450f-b8f8-5e9336dedc17"},"vehicle_type_id":"4","last_reported":1777152421,"current_range_meters":4000,"station_id":"ce4bh492rcd13ifvqdvg","pricing_plan_id":"cebpf4jnsgd1na2vs0mg"},{"bike_id":"931d703e-4043-4cf3-8b49-a4394f33276a","system_id":"levelo_inurba_marseille","lat":43.27815,"lon":5.40724,"is_reserved":false,"is_disabled":false,"rental_uris":{"android":"levelo://app?vid=931d703e-4043-4cf3-8b49-a4394f33276a","ios":"levelo://app?vid=931d703e-4043-4cf3-8b49-a4394f33276a"},"vehicle_type_id":"4","last_reported":1777152421,"current_range_meters":4000,"station_id":"ce4bhnh2rcd13ifvqgtg","pricing_plan_id":"cebpf4jnsgd1na2vs0mg"},{"bike_id":"284bb20f-7bbf-450c-9c94-2dc57069e2bf","system_id":"levelo_inurba_marseille","lat":43.27085,"lon":5.42275,"is_reserved":false,"is_disabled":false,"rental_uris":{"android":"levelo://app?vid=284bb20f-7bbf-450c-9c94-2dc57069e2bf","ios":"levelo://app?vid=284bb20f-7bbf-450c-9c94-2dc57069e2bf"},"vehicle_type_id":"4","last_reported":1777152421,"current_range_meters":4000,"station_id":"ce4bhk92rcd13ifvqgb0","pricing_plan_id":"cebpf4jnsgd1na2vs0mg"},{"bike_id":"e243155c-2775-42d9-9d4e-ad6e7e6fab95","system_id":"levelo_inurba_marseille","lat":43.23894,"lon":5.37441,"is_reserved":false,"is_disabled":false,"rental_uris":{"android":"levelo://app?vid=e243155c-2775-42d9-9d4e-ad6e7e6fab95","ios":"levelo://app?vid=e243155c-2775-42d9-9d4e-ad6e7e6fab95"},"vehicle_type_id":"4","last_reported":1777152421,"current_range_meters":4000,"station_id":"","pricing_plan_id":"cebpf4jnsgd1na2vs0mg"},{"bike_id":"cd394fc1-8567-452f-a574-58bdc7beb124","system_id":"levelo_inurba_marseille","lat":43.30547,"lon":5.3654,"is_reserved":false,"is_disabled":false,"rental_uris":{"android":"levelo://app?vid=cd394fc1-8567-452f-a574-58bdc7beb124","ios":"levelo://app?vid=cd394fc1-8567-452f-a574-58bdc7beb124"},"vehicle_type_id":"4","last_reported":1777152421,"current_range_meters":4400,"station_id":"ce4bgs12rcd13ifvqcag","pricing_plan_id":"cebpf4jnsgd1na2vs0mg"},{"bike_id":"8c8d3a1e-3e2c-407c-b8ad-af868cc54226","system_id":"levelo_inurba_marseille","lat":43.294882,"lon":5.393907,"is_reserved":false,"is_disabled":false,"rental_uris":{"android":"levelo://app?vid=8c8d3a1e-3e2c-407c-b8ad-af868cc54226","ios":"levelo://app?vid=8c8d3a1e-3e2c-407c-b8ad-af868cc54226"},"vehicle_type_id":"4","last_reported":1777152421,"current_range_meters":4400,"station_id":"","pricing_plan_id":"cebpf4jnsgd1na2vs0mg"},{"bike_id":"229e4557-384d-4a68-9d9c-a426b264692f","system_id":"levelo_inurba_marseille","lat":43.26029,"lon":5.3754,"is_reserved":false,"is_disabled":false,"rental_uris":{"android":"levelo://app?vid=229e4557-384d-4a68-9d9c-a426b264692f","ios":"levelo://app?vid=229e4557-384d-4a68-9d9c-a426b264692f"},"vehicle_type_id":"4","last_reported":1777152421,"current_range_meters":4400,"station_id":"ce4bhgh2rcd13ifvqfa0","pricing_plan_id":"cebpf4jnsgd1na2vs0mg"},{"bike_id":"a3dee876-3af2-46d4-9131-1dd0997e500a","system_id":"levelo_inurba_marseille","lat":43.24421,"lon":5.37032,"is_reserved":false,"is_disabled":true,"rental_uris":{"android":"levelo://app?vid=a3dee876-3af2-46d4-9131-1dd0997e500a","ios":"levelo://app?vid=a3dee876-3af2-46d4-9131-1dd0997e500a"},"vehicle_type_id":"4","last_reported":1777152421,"current_range_meters":4400,"station_id":"ce4bhhh2rcd13ifvqfk0","pricing_plan_id":"cebpf4jnsgd1na2vs0mg"},{"bike_id":"5dbbbcee-6007-424c-a26c-7e4be3d067ad","system_id":"levelo_inurba_marseille","lat":43.24667,"lon":5.3816,"is_reserved":false,"is_disabled":false,"rental_uris":{"android":"levelo://app?vid=5dbbbcee-6007-424c-a26c-7e4be3d067ad","ios":"levelo://app?vid=5dbbbcee-6007-424c-a26c-7e4be3d067ad"},"vehicle_type_id":"4","last_reported":1777152421,"current_range_meters":4400,"station_id":"ce4bhih2rcd13ifvqfr0","pricing_plan_id":"cebpf4jnsgd1na2vs0mg"},{"bike_id":"62a20b6e-e98d-4cc9-b298-e865d7184b00","system_id":"levelo_inurba_marseille","lat":43.25553,"lon":5.37614,"is_reserved":false,"is_disabled":false,"rental_uris":{"android":"levelo://app?vid=62a20b6e-e98d-4cc9-b298-e865d7184b00","ios":"levelo://app?vid=62a20b6e-e98d-4cc9-b298-e865d7184b00"},"vehicle_type_id":"4","last_reported":1777152421,"current_range_meters":4400,"station_id":"","pricing_plan_id":"cebpf4jnsgd1na2vs0mg"},{"bike_id":"6b498e23-233c-44e7-bdf2-4e8481886ee3","system_id":"levelo_inurba_marseille","lat":43.25496,"lon":5.376426,"is_reserved":false,"is_disabled":false,"rental_uris":{"android":"levelo://app?vid=6b498e23-233c-44e7-bdf2-4e8481886ee3","ios":"levelo://app?vid=6b498e23-233c-44e7-bdf2-4e8481886ee3"},"vehicle_type_id":"4","last_reported":1777152421,"current_range_meters":4400,"station_id":"","pricing_plan_id":"cebpf4jnsgd1na2vs0mg"},{"bike_id":"9e736a24-151b-4861-9d3c-68515cd11e0f","system_id":"levelo_inurba_marseille","lat":43.32087,"lon":5.36776,"is_reserved":false,"is_disabled":false,"rental_uris":{"android":"levelo://app?vid=9e736a24-151b-4861-9d3c-68515cd11e0f","ios":"levelo://app?vid=9e736a24-151b-4861-9d3c-68515cd11e0f"},"vehicle_type_id":"4","last_reported":1777152421,"current_range_meters":4400,"station_id":"ce4bhrh2rcd13ifvqhug","pricing_plan_id":"cebpf4jnsgd1na2vs0mg"},{"bike_id":"8574e85b-d617-4b7c-ab85-2e8b8acc803d","system_id":"levelo_inurba_marseille","lat":43.31897,"lon":5.40723,"is_reserved":false,"is_disabled":false,"rental_uris":{"android":"levelo://app?vid=8574e85b-d617-4b7c-ab85-2e8b8acc803d","ios":"levelo://app?vid=8574e85b-d617-4b7c-ab85-2e8b8acc803d"},"vehicle_type_id":"4","last_reported":1777152421,"current_range_meters":4400,"station_id":"ce4bhq12rcd13ifvqhig","pricing_plan_id":"cebpf4jnsgd1na2vs0mg"},{"bike_id":"5e5d4e4b-0a64-4c38-b136-030f74f3d6a8","system_id":"levelo_inurba_marseille","lat":43.29529,"lon":5.38523,"is_reserved":false,"is_disabled":false,"rental_uris":{"android":"levelo://app?vid=5e5d4e4b-0a64-4c38-b136-030f74f3d6a8","ios":"levelo://app?vid=5e5d4e4b-0a64-4c38-b136-030f74f3d6a8"},"vehicle_type_id":"4","last_reported":1777152421,"current_range_meters":4800,"station_id":"ce4bgih2rcd13ifvqba0","pricing_plan_id":"cebpf4jnsgd1na2vs0mg"},{"bike_id":"0ce641a1-ca62-4f05-b894-4a72f77b98f2","system_id":"levelo_inurba_marseille","lat":43.32341,"lon":5.36729,"is_reserved":false,"is_disabled":false,"rental_uris":{"android":"levelo://app?vid=0ce641a1-ca62-4f05-b894-4a72f77b98f2","ios":"levelo://app?vid=0ce641a1-ca62-4f05-b894-4a72f77b98f2"},"vehicle_type_id":"4","last_reported":1777152421,"current_range_meters":4800,"station_id":"ce4bhsh2rcd13ifvqi2g","pricing_plan_id":"cebpf4jnsgd1na2vs0mg"},{"bike_id":"797253f7-9e44-4f79-a87c-300c0f9b90fb","system_id":"levelo_inurba_marseille","lat":43.29975,"lon":5.38528,"is_reserved":false,"is_disabled":false,"rental_uris":{"android":"levelo://app?vid=797253f7-9e44-4f79-a87c-300c0f9b90fb","ios":"levelo://app?vid=797253f7-9e44-4f79-a87c-300c0f9b90fb"},"vehicle_type_id":"4","last_reported":1777152421,"current_range_meters":4800,"station_id":"ce4bgj92rcd13ifvqbd0","pricing_plan_id":"cebpf4jnsgd1na2vs0mg"},{"bike_id":"f645e30b-5616-45b3-a17d-faf4a49d971d","system_id":"levelo_inurba_marseille","lat":43.31,"lon":5.37533,"is_reserved":false,"is_disabled":false,"rental_uris":{"android":"levelo://app?vid=f645e30b-5616-45b3-a17d-faf4a49d971d","ios":"levelo://app?vid=f645e30b-5616-45b3-a17d-faf4a49d971d"},"vehicle_type_id":"4","last_reported":1777152421,"current_range_meters":4800,"station_id":"","pricing_plan_id":"cebpf4jnsgd1na2vs0mg"},{"bike_id":"45ad0d0e-efdd-4c05-bbcd-19b309dc3892","system_id":"levelo_inurba_marseille","lat":43.27997,"lon":5.4165,"is_reserved":false,"is_disabled":false,"rental_uris":{"android":"levelo://app?vid=45ad0d0e-efdd-4c05-bbcd-19b309dc3892","ios":"levelo://app?vid=45ad0d0e-efdd-4c05-bbcd-19b309dc3892"},"vehicle_type_id":"4","last_reported":1777152421,"current_range_meters":4800,"station_id":"ce4bho12rcd13ifvqh1g","pricing_plan_id":"cebpf4jnsgd1na2vs0mg"},{"bike_id":"75471a09-e4ee-4438-b4e9-ebcc3c66f359","system_id":"levelo_inurba_marseille","lat":43.21202,"lon":5.35069,"is_reserved":false,"is_disabled":false,"rental_uris":{"android":"levelo://app?vid=75471a09-e4ee-4438-b4e9-ebcc3c66f359","ios":"levelo://app?vid=75471a09-e4ee-4438-b4e9-ebcc3c66f359"},"vehicle_type_id":"4","last_reported":1777152421,"current_range_meters":4800,"station_id":"st_cvj6sg6p6f1abm77japg","pricing_plan_id":"cebpf4jnsgd1na2vs0mg"},{"bike_id":"021c3599-d960-4255-bf18-8b3b47549997","system_id":"levelo_inurba_marseille","lat":43.30204,"lon":5.43072,"is_reserved":false,"is_disabled":false,"rental_uris":{"android":"levelo://app?vid=021c3599-d960-4255-bf18-8b3b47549997","ios":"levelo://app?vid=021c3599-d960-4255-bf18-8b3b47549997"},"vehicle_type_id":"4","last_reported":1777152421,"current_range_meters":4800,"station_id":"","pricing_plan_id":"cebpf4jnsgd1na2vs0mg"},{"bike_id":"128521d5-883e-4bf6-af47-0bc59aee3e65","system_id":"levelo_inurba_marseille","lat":43.25351,"lon":5.42182,"is_reserved":false,"is_disabled":false,"rental_uris":{"android":"levelo://app?vid=128521d5-883e-4bf6-af47-0bc59aee3e65","ios":"levelo://app?vid=128521d5-883e-4bf6-af47-0bc59aee3e65"},"vehicle_type_id":"4","last_reported":1777152421,"current_range_meters":4800,"station_id":"st_d2m65c5bi1j21697t3ng","pricing_plan_id":"cebpf4jnsgd1na2vs0mg"},{"bike_id":"c6e7d3cb-7e19-483f-a191-0c88543be223","system_id":"levelo_inurba_marseille","lat":43.30101,"lon":5.39051,"is_reserved":false,"is_disabled":false,"rental_uris":{"android":"levelo://app?vid=c6e7d3cb-7e19-483f-a191-0c88543be223","ios":"levelo://app?vid=c6e7d3cb-7e19-483f-a191-0c88543be223"},"vehicle_type_id":"4","last_reported":1777152421,"current_range_meters":4800,"station_id":"ce4bh192rcd13ifvqdb0","pricing_plan_id":"cebpf4jnsgd1na2vs0mg"},{"bike_id":"f13cbeb5-e880-445e-bdac-edb536f92a53","system_id":"levelo_inurba_marseille","lat":43.284119,"lon":5.375065,"is_reserved":false,"is_disabled":false,"rental_uris":{"android":"levelo://app?vid=f13cbeb5-e880-445e-bdac-edb536f92a53","ios":"levelo://app?vid=f13cbeb5-e880-445e-bdac-edb536f92a53"},"vehicle_type_id":"4","last_reported":1777152421,"current_range_meters":4800,"station_id":"ce4bh412rcd13ifvqds0","pricing_plan_id":"cebpf4jnsgd1na2vs0mg"},{"bike_id":"4f81052a-376c-4dec-a1c7-95196629e642","system_id":"levelo_inurba_marseille","lat":43.30947,"lon":5.39035,"is_reserved":false,"is_disabled":false,"rental_uris":{"android":"levelo://app?vid=4f81052a-376c-4dec-a1c7-95196629e642","ios":"levelo://app?vid=4f81052a-376c-4dec-a1c7-95196629e642"},"vehicle_type_id":"4","last_reported":1777152421,"current_range_meters":4800,"station_id":"ce4bgup2rcd13ifvqco0","pricing_plan_id":"cebpf4jnsgd1na2vs0mg"},{"bike_id":"318b0f19-64fa-4af9-92a2-6b5d9e2e4a7b","system_id":"levelo_inurba_marseille","lat":43.21214,"lon":5.35063,"is_reserved":false,"is_disabled":false,"rental_uris":{"android":"levelo://app?vid=318b0f19-64fa-4af9-92a2-6b5d9e2e4a7b","ios":"levelo://app?vid=318b0f19-64fa-4af9-92a2-6b5d9e2e4a7b"},"vehicle_type_id":"4","last_reported":1777152421,"current_range_meters":4800,"station_id":"st_cvj6sg6p6f1abm77japg","pricing_plan_id":"cebpf4jnsgd1na2vs0mg"},{"bike_id":"26588d92-9c0a-4e9d-9c77-864123119f50","system_id":"levelo_inurba_marseille","lat":43.24387,"lon":5.37058,"is_reserved":false,"is_disabled":false,"rental_uris":{"android":"levelo://app?vid=26588d92-9c0a-4e9d-9c77-864123119f50","ios":"levelo://app?vid=26588d92-9c0a-4e9d-9c77-864123119f50"},"vehicle_type_id":"4","last_reported":1777152421,"current_range_meters":4800,"station_id":"ce4bhhh2rcd13ifvqfk0","pricing_plan_id":"cebpf4jnsgd1na2vs0mg"},{"bike_id":"5091d3df-140a-4a96-ba1e-f44ab742c57b","system_id":"levelo_inurba_marseille","lat":43.23196,"lon":5.39981,"is_reserved":false,"is_disabled":true,"rental_uris":{"android":"levelo://app?vid=5091d3df-140a-4a96-ba1e-f44ab742c57b","ios":"levelo://app?vid=5091d3df-140a-4a96-ba1e-f44ab742c57b"},"vehicle_type_id":"4","last_reported":1777152421,"current_range_meters":4800,"station_id":"ce4bhn12rcd13ifvqgqg","pricing_plan_id":"cebpf4jnsgd1na2vs0mg"},{"bike_id":"36083d0d-36eb-4ce6-bb81-4eee378f0183","system_id":"levelo_inurba_marseille","lat":43.30208,"lon":5.39446,"is_reserved":false,"is_disabled":false,"rental_uris":{"android":"levelo://app?vid=36083d0d-36eb-4ce6-bb81-4eee378f0183","ios":"levelo://app?vid=36083d0d-36eb-4ce6-bb81-4eee378f0183"},"vehicle_type_id":"4","last_reported":1777152421,"current_range_meters":4800,"station_id":"ce4bh0p2rcd13ifvqd70","pricing_plan_id":"cebpf4jnsgd1na2vs0mg"},{"bike_id":"54dd0309-49d2-49f6-bbb2-520a1e5622f4","system_id":"levelo_inurba_marseille","lat":43.24188,"lon":5.36394,"is_reserved":false,"is_disabled":false,"rental_uris":{"android":"levelo://app?vid=54dd0309-49d2-49f6-bbb2-520a1e5622f4","ios":"levelo://app?vid=54dd0309-49d2-49f6-bbb2-520a1e5622f4"},"vehicle_type_id":"4","last_reported":1777152421,"current_range_meters":5600,"station_id":"cpo36qri1sfpv3e86is0","pricing_plan_id":"cebpf4jnsgd1na2vs0mg"},{"bike_id":"c0126e79-e455-4033-aa6f-9cd2537e8b04","system_id":"levelo_inurba_marseille","lat":43.28718,"lon":5.46683,"is_reserved":false,"is_disabled":false,"rental_uris":{"android":"levelo://app?vid=c0126e79-e455-4033-aa6f-9cd2537e8b04","ios":"levelo://app?vid=c0126e79-e455-4033-aa6f-9cd2537e8b04"},"vehicle_type_id":"4","last_reported":1777152421,"current_range_meters":5600,"station_id":"st_d6tc3vkotcvc738tfjhg","pricing_plan_id":"cebpf4jnsgd1na2vs0mg"},{"bike_id":"d70320f1-5e83-436f-822f-c8457a777236","system_id":"levelo_inurba_marseille","lat":43.26236,"lon":5.40448,"is_reserved":false,"is_disabled":false,"rental_uris":{"android":"levelo://app?vid=d70320f1-5e83-436f-822f-c8457a777236","ios":"levelo://app?vid=d70320f1-5e83-436f-822f-c8457a777236"},"vehicle_type_id":"4","last_reported":1777152421,"current_range_meters":5600,"station_id":"ce4bhmh2rcd13ifvqgmg","pricing_plan_id":"cebpf4jnsgd1na2vs0mg"},{"bike_id":"6fc400a6-f028-4b49-86c7-01a37f0c4d06","system_id":"levelo_inurba_marseille","lat":43.29617,"lon":5.37713,"is_reserved":false,"is_disabled":false,"rental_uris":{"android":"levelo://app?vid=6fc400a6-f028-4b49-86c7-01a37f0c4d06","ios":"levelo://app?vid=6fc400a6-f028-4b49-86c7-01a37f0c4d06"},"vehicle_type_id":"4","last_reported":1777152421,"current_range_meters":5600,"station_id":"ce4bgi92rcd13ifvqb90","pricing_plan_id":"cebpf4jnsgd1na2vs0mg"},{"bike_id":"9bcb5bad-dbb2-431c-9005-5d79941461cd","system_id":"levelo_inurba_marseille","lat":43.24419,"lon":5.37063,"is_reserved":false,"is_disabled":false,"rental_uris":{"android":"levelo://app?vid=9bcb5bad-dbb2-431c-9005-5d79941461cd","ios":"levelo://app?vid=9bcb5bad-dbb2-431c-9005-5d79941461cd"},"vehicle_type_id":"4","last_reported":1777152421,"current_range_meters":5600,"station_id":"ce4bhhh2rcd13ifvqfk0","pricing_plan_id":"cebpf4jnsgd1na2vs0mg"},{"bike_id":"3c21f0ef-7f78-49a9-8bbf-12a3b7f18f2e","system_id":"levelo_inurba_marseille","lat":43.27494,"lon":5.42467,"is_reserved":false,"is_disabled":false,"rental_uris":{"android":"levelo://app?vid=3c21f0ef-7f78-49a9-8bbf-12a3b7f18f2e","ios":"levelo://app?vid=3c21f0ef-7f78-49a9-8bbf-12a3b7f18f2e"},"vehicle_type_id":"4","last_reported":1777152421,"current_range_meters":5600,"station_id":"ce4bhn92rcd13ifvqgrg","pricing_plan_id":"cebpf4jnsgd1na2vs0mg"},{"bike_id":"5d7b6c7d-f22f-484b-83d6-21f3ffbc3000","system_id":"levelo_inurba_marseille","lat":43.29505,"lon":5.37441,"is_reserved":false,"is_disabled":false,"rental_uris":{"android":"levelo://app?vid=5d7b6c7d-f22f-484b-83d6-21f3ffbc3000","ios":"levelo://app?vid=5d7b6c7d-f22f-484b-83d6-21f3ffbc3000"},"vehicle_type_id":"4","last_reported":1777152421,"current_range_meters":5600,"station_id":"","pricing_plan_id":"cebpf4jnsgd1na2vs0mg"},{"bike_id":"8bb46b33-a5fc-4d6e-b210-c3fa60de6a89","system_id":"levelo_inurba_marseille","lat":43.25524,"lon":5.37621,"is_reserved":false,"is_disabled":false,"rental_uris":{"android":"levelo://app?vid=8bb46b33-a5fc-4d6e-b210-c3fa60de6a89","ios":"levelo://app?vid=8bb46b33-a5fc-4d6e-b210-c3fa60de6a89"},"vehicle_type_id":"4","last_reported":1777152421,"current_range_meters":5600,"station_id":"ce4bhh12rcd13ifvqff0","pricing_plan_id":"cebpf4jnsgd1na2vs0mg"},{"bike_id":"724d0869-017c-4e7e-9911-705be0df09b1","system_id":"levelo_inurba_marseille","lat":43.24609,"lon":5.41841,"is_reserved":false,"is_disabled":false,"rental_uris":{"android":"levelo://app?vid=724d0869-017c-4e7e-9911-705be0df09b1","ios":"levelo://app?vid=724d0869-017c-4e7e-9911-705be0df09b1"},"vehicle_type_id":"4","last_reported":1777152421,"current_range_meters":5600,"station_id":"","pricing_plan_id":"cebpf4jnsgd1na2vs0mg"},{"bike_id":"3ed46481-d0f3-4a06-aa3b-b4f6f86755ef","system_id":"levelo_inurba_marseille","lat":43.30946,"lon":5.39052,"is_reserved":false,"is_disabled":false,"rental_uris":{"android":"levelo://app?vid=3ed46481-d0f3-4a06-aa3b-b4f6f86755ef","ios":"levelo://app?vid=3ed46481-d0f3-4a06-aa3b-b4f6f86755ef"},"vehicle_type_id":"4","last_reported":1777152421,"current_range_meters":5600,"station_id":"ce4bgup2rcd13ifvqco0","pricing_plan_id":"cebpf4jnsgd1na2vs0mg"},{"bike_id":"e5708470-62e9-4d64-a45f-a0cac4d1b2a0","system_id":"levelo_inurba_marseille","lat":43.262094,"lon":5.374404,"is_reserved":false,"is_disabled":true,"rental_uris":{"android":"levelo://app?vid=e5708470-62e9-4d64-a45f-a0cac4d1b2a0","ios":"levelo://app?vid=e5708470-62e9-4d64-a45f-a0cac4d1b2a0"},"vehicle_type_id":"4","last_reported":1777152421,"current_range_meters":5600,"station_id":"ce4bhgp2rcd13ifvqfc0","pricing_plan_id":"cebpf4jnsgd1na2vs0mg"},{"bike_id":"34ebc112-b959-4399-a8b5-b5d2ea0c49f3","system_id":"levelo_inurba_marseille","lat":43.27063,"lon":5.42266,"is_reserved":false,"is_disabled":false,"rental_uris":{"android":"levelo://app?vid=34ebc112-b959-4399-a8b5-b5d2ea0c49f3","ios":"levelo://app?vid=34ebc112-b959-4399-a8b5-b5d2ea0c49f3"},"vehicle_type_id":"4","last_reported":1777152421,"current_range_meters":5600,"station_id":"ce4bhk92rcd13ifvqgb0","pricing_plan_id":"cebpf4jnsgd1na2vs0mg"},{"bike_id":"c639e9dd-379a-46f8-b469-b2b3bc25eac4","system_id":"levelo_inurba_marseille","lat":43.29008,"lon":5.3561,"is_reserved":false,"is_disabled":true,"rental_uris":{"android":"levelo://app?vid=c639e9dd-379a-46f8-b469-b2b3bc25eac4","ios":"levelo://app?vid=c639e9dd-379a-46f8-b469-b2b3bc25eac4"},"vehicle_type_id":"4","last_reported":1777152421,"current_range_meters":6000,"station_id":"ce4bhb92rcd13ifvqen0","pricing_plan_id":"cebpf4jnsgd1na2vs0mg"},{"bike_id":"4bbbb14a-8fcc-43d3-a29a-3f8be7e2f321","system_id":"levelo_inurba_marseille","lat":43.29351,"lon":5.37205,"is_reserved":false,"is_disabled":false,"rental_uris":{"android":"levelo://app?vid=4bbbb14a-8fcc-43d3-a29a-3f8be7e2f321","ios":"levelo://app?vid=4bbbb14a-8fcc-43d3-a29a-3f8be7e2f321"},"vehicle_type_id":"4","last_reported":1777152421,"current_range_meters":6000,"station_id":"","pricing_plan_id":"cebpf4jnsgd1na2vs0mg"},{"bike_id":"8d087c60-78e6-40f1-847c-41984b3a6f63","system_id":"levelo_inurba_marseille","lat":43.24812,"lon":5.37457,"is_reserved":false,"is_disabled":false,"rental_uris":{"android":"levelo://app?vid=8d087c60-78e6-40f1-847c-41984b3a6f63","ios":"levelo://app?vid=8d087c60-78e6-40f1-847c-41984b3a6f63"},"vehicle_type_id":"4","last_reported":1777152421,"current_range_meters":6000,"station_id":"ce4bhgh2rcd13ifvqfb0","pricing_plan_id":"cebpf4jnsgd1na2vs0mg"},{"bike_id":"90610949-5042-40f1-8252-076aeddd7d81","system_id":"levelo_inurba_marseille","lat":43.31905,"lon":5.36806,"is_reserved":false,"is_disabled":false,"rental_uris":{"android":"levelo://app?vid=90610949-5042-40f1-8252-076aeddd7d81","ios":"levelo://app?vid=90610949-5042-40f1-8252-076aeddd7d81"},"vehicle_type_id":"4","last_reported":1777152421,"current_range_meters":6000,"station_id":"st_d6o2h0d0559c73evc1b0","pricing_plan_id":"cebpf4jnsgd1na2vs0mg"},{"bike_id":"15815817-f529-4745-88e8-c2811e1eae5e","system_id":"levelo_inurba_marseille","lat":43.31275,"lon":5.4017,"is_reserved":false,"is_disabled":false,"rental_uris":{"android":"levelo://app?vid=15815817-f529-4745-88e8-c2811e1eae5e","ios":"levelo://app?vid=15815817-f529-4745-88e8-c2811e1eae5e"},"vehicle_type_id":"4","last_reported":1777152421,"current_range_meters":6000,"station_id":"ce4bh092rcd13ifvqd30","pricing_plan_id":"cebpf4jnsgd1na2vs0mg"},{"bike_id":"47cdfd85-c850-4193-aaa5-b5a23a2b2f3d","system_id":"levelo_inurba_marseille","lat":43.31096,"lon":5.37235,"is_reserved":false,"is_disabled":false,"rental_uris":{"android":"levelo://app?vid=47cdfd85-c850-4193-aaa5-b5a23a2b2f3d","ios":"levelo://app?vid=47cdfd85-c850-4193-aaa5-b5a23a2b2f3d"},"vehicle_type_id":"4","last_reported":1777152421,"current_range_meters":6000,"station_id":"st_d4kl2rp97mjs73e7tdfg","pricing_plan_id":"cebpf4jnsgd1na2vs0mg"},{"bike_id":"085eefc3-42b6-4e5f-8fa3-5e096f60ac23","system_id":"levelo_inurba_marseille","lat":43.21765,"lon":5.34585,"is_reserved":false,"is_disabled":true,"rental_uris":{"android":"levelo://app?vid=085eefc3-42b6-4e5f-8fa3-5e096f60ac23","ios":"levelo://app?vid=085eefc3-42b6-4e5f-8fa3-5e096f60ac23"},"vehicle_type_id":"4","last_reported":1777152421,"current_range_meters":6000,"station_id":"st_cvj6r9ubvosntc0bgbag","pricing_plan_id":"cebpf4jnsgd1na2vs0mg"},{"bike_id":"b7808ecd-7c49-495a-ae8b-eadddd23df3d","system_id":"levelo_inurba_marseille","lat":43.29081,"lon":5.37139,"is_reserved":false,"is_disabled":false,"rental_uris":{"android":"levelo://app?vid=b7808ecd-7c49-495a-ae8b-eadddd23df3d","ios":"levelo://app?vid=b7808ecd-7c49-495a-ae8b-eadddd23df3d"},"vehicle_type_id":"4","last_reported":1777152421,"current_range_meters":6000,"station_id":"ce4bh5p2rcd13ifvqe4g","pricing_plan_id":"cebpf4jnsgd1na2vs0mg"},{"bike_id":"5764bbec-ad28-443f-ba05-86ed46bc41bf","system_id":"levelo_inurba_marseille","lat":43.24821,"lon":5.37452,"is_reserved":false,"is_disabled":false,"rental_uris":{"android":"levelo://app?vid=5764bbec-ad28-443f-ba05-86ed46bc41bf","ios":"levelo://app?vid=5764bbec-ad28-443f-ba05-86ed46bc41bf"},"vehicle_type_id":"4","last_reported":1777152421,"current_range_meters":6000,"station_id":"ce4bhgh2rcd13ifvqfb0","pricing_plan_id":"cebpf4jnsgd1na2vs0mg"},{"bike_id":"ab6f758a-3eca-407e-a136-980b0d3ef21b","system_id":"levelo_inurba_marseille","lat":43.29888,"lon":5.39733,"is_reserved":false,"is_disabled":false,"rental_uris":{"android":"levelo://app?vid=ab6f758a-3eca-407e-a136-980b0d3ef21b","ios":"levelo://app?vid=ab6f758a-3eca-407e-a136-980b0d3ef21b"},"vehicle_type_id":"4","last_reported":1777152421,"current_range_meters":6000,"station_id":"ce4bh0h2rcd13ifvqd50","pricing_plan_id":"cebpf4jnsgd1na2vs0mg"},{"bike_id":"19ff4eed-d868-49ba-8ac7-6dffa475f466","system_id":"levelo_inurba_marseille","lat":43.27815,"lon":5.40713,"is_reserved":false,"is_disabled":false,"rental_uris":{"android":"levelo://app?vid=19ff4eed-d868-49ba-8ac7-6dffa475f466","ios":"levelo://app?vid=19ff4eed-d868-49ba-8ac7-6dffa475f466"},"vehicle_type_id":"4","last_reported":1777152421,"current_range_meters":6000,"station_id":"ce4bhnh2rcd13ifvqgtg","pricing_plan_id":"cebpf4jnsgd1na2vs0mg"},{"bike_id":"8af7cc4d-787c-4a52-85ef-58bed94c7550","system_id":"levelo_inurba_marseille","lat":43.26221,"lon":5.4047,"is_reserved":false,"is_disabled":false,"rental_uris":{"android":"levelo://app?vid=8af7cc4d-787c-4a52-85ef-58bed94c7550","ios":"levelo://app?vid=8af7cc4d-787c-4a52-85ef-58bed94c7550"},"vehicle_type_id":"4","last_reported":1777152421,"current_range_meters":6000,"station_id":"ce4bhmh2rcd13ifvqgmg","pricing_plan_id":"cebpf4jnsgd1na2vs0mg"},{"bike_id":"10bb4a5e-62f2-4fcd-822a-1a307592fd7c","system_id":"levelo_inurba_marseille","lat":43.29532,"lon":5.38531,"is_reserved":false,"is_disabled":false,"rental_uris":{"android":"levelo://app?vid=10bb4a5e-62f2-4fcd-822a-1a307592fd7c","ios":"levelo://app?vid=10bb4a5e-62f2-4fcd-822a-1a307592fd7c"},"vehicle_type_id":"4","last_reported":1777152421,"current_range_meters":6000,"station_id":"","pricing_plan_id":"cebpf4jnsgd1na2vs0mg"},{"bike_id":"56365307-f337-4264-b14d-be5d1ec17d1e","system_id":"levelo_inurba_marseille","lat":43.28934,"lon":5.38387,"is_reserved":false,"is_disabled":false,"rental_uris":{"android":"levelo://app?vid=56365307-f337-4264-b14d-be5d1ec17d1e","ios":"levelo://app?vid=56365307-f337-4264-b14d-be5d1ec17d1e"},"vehicle_type_id":"4","last_reported":1777152421,"current_range_meters":6000,"station_id":"","pricing_plan_id":"cebpf4jnsgd1na2vs0mg"},{"bike_id":"8d715502-1f4d-495a-aba7-e255ad4122f8","system_id":"levelo_inurba_marseille","lat":43.23959,"lon":5.36624,"is_reserved":false,"is_disabled":false,"rental_uris":{"android":"levelo://app?vid=8d715502-1f4d-495a-aba7-e255ad4122f8","ios":"levelo://app?vid=8d715502-1f4d-495a-aba7-e255ad4122f8"},"vehicle_type_id":"4","last_reported":1777152421,"current_range_meters":6400,"station_id":"ce4bhi12rcd13ifvqfp0","pricing_plan_id":"cebpf4jnsgd1na2vs0mg"},{"bike_id":"a18a394f-a610-42d7-b58a-6d9e4023733d","system_id":"levelo_inurba_marseille","lat":43.30629,"lon":5.39422,"is_reserved":false,"is_disabled":false,"rental_uris":{"android":"levelo://app?vid=a18a394f-a610-42d7-b58a-6d9e4023733d","ios":"levelo://app?vid=a18a394f-a610-42d7-b58a-6d9e4023733d"},"vehicle_type_id":"4","last_reported":1777152421,"current_range_meters":6400,"station_id":"","pricing_plan_id":"cebpf4jnsgd1na2vs0mg"},{"bike_id":"faedee46-044d-4f0e-84eb-c55362974bd0","system_id":"levelo_inurba_marseille","lat":43.28939,"lon":5.38384,"is_reserved":false,"is_disabled":false,"rental_uris":{"android":"levelo://app?vid=faedee46-044d-4f0e-84eb-c55362974bd0","ios":"levelo://app?vid=faedee46-044d-4f0e-84eb-c55362974bd0"},"vehicle_type_id":"4","last_reported":1777152421,"current_range_meters":6400,"station_id":"ce4bh612rcd13ifvqe6g","pricing_plan_id":"cebpf4jnsgd1na2vs0mg"},{"bike_id":"7f7dc920-b5bb-4258-8744-84d61769b0cb","system_id":"levelo_inurba_marseille","lat":43.26194,"lon":5.37447,"is_reserved":false,"is_disabled":false,"rental_uris":{"android":"levelo://app?vid=7f7dc920-b5bb-4258-8744-84d61769b0cb","ios":"levelo://app?vid=7f7dc920-b5bb-4258-8744-84d61769b0cb"},"vehicle_type_id":"4","last_reported":1777152421,"current_range_meters":6400,"station_id":"ce4bhgp2rcd13ifvqfc0","pricing_plan_id":"cebpf4jnsgd1na2vs0mg"},{"bike_id":"36fe2575-22d8-45fc-b110-398032622606","system_id":"levelo_inurba_marseille","lat":43.28476,"lon":5.38426,"is_reserved":false,"is_disabled":true,"rental_uris":{"android":"levelo://app?vid=36fe2575-22d8-45fc-b110-398032622606","ios":"levelo://app?vid=36fe2575-22d8-45fc-b110-398032622606"},"vehicle_type_id":"4","last_reported":1777152421,"current_range_meters":6400,"station_id":"ce4bh512rcd13ifvqe3g","pricing_plan_id":"cebpf4jnsgd1na2vs0mg"},{"bike_id":"f45c6cef-0c24-46b7-81bc-53822d8483bd","system_id":"levelo_inurba_marseille","lat":43.31371,"lon":5.38502,"is_reserved":false,"is_disabled":false,"rental_uris":{"android":"levelo://app?vid=f45c6cef-0c24-46b7-81bc-53822d8483bd","ios":"levelo://app?vid=f45c6cef-0c24-46b7-81bc-53822d8483bd"},"vehicle_type_id":"4","last_reported":1777152421,"current_range_meters":6400,"station_id":"ce4bgt92rcd13ifvqcf0","pricing_plan_id":"cebpf4jnsgd1na2vs0mg"},{"bike_id":"26e0dd1a-6bd2-4e67-8cf2-08eb21d2ed24","system_id":"levelo_inurba_marseille","lat":43.26566,"lon":5.39019,"is_reserved":false,"is_disabled":false,"rental_uris":{"android":"levelo://app?vid=26e0dd1a-6bd2-4e67-8cf2-08eb21d2ed24","ios":"levelo://app?vid=26e0dd1a-6bd2-4e67-8cf2-08eb21d2ed24"},"vehicle_type_id":"4","last_reported":1777152421,"current_range_meters":6400,"station_id":"ce4bhe12rcd13ifvqf30","pricing_plan_id":"cebpf4jnsgd1na2vs0mg"},{"bike_id":"687eded6-7cbf-424a-a2f5-5eb1f4a08786","system_id":"levelo_inurba_marseille","lat":43.31372,"lon":5.38494,"is_reserved":false,"is_disabled":false,"rental_uris":{"android":"levelo://app?vid=687eded6-7cbf-424a-a2f5-5eb1f4a08786","ios":"levelo://app?vid=687eded6-7cbf-424a-a2f5-5eb1f4a08786"},"vehicle_type_id":"4","last_reported":1777152421,"current_range_meters":6400,"station_id":"ce4bgt92rcd13ifvqcf0","pricing_plan_id":"cebpf4jnsgd1na2vs0mg"},{"bike_id":"c0c5f549-d55a-40a7-bb49-6eb0b1139cc6","system_id":"levelo_inurba_marseille","lat":43.31292,"lon":5.37136,"is_reserved":false,"is_disabled":false,"rental_uris":{"android":"levelo://app?vid=c0c5f549-d55a-40a7-bb49-6eb0b1139cc6","ios":"levelo://app?vid=c0c5f549-d55a-40a7-bb49-6eb0b1139cc6"},"vehicle_type_id":"4","last_reported":1777152421,"current_range_meters":6400,"station_id":"","pricing_plan_id":"cebpf4jnsgd1na2vs0mg"},{"bike_id":"40d69b45-a292-4d7d-b8e6-837b8b5a9d0c","system_id":"levelo_inurba_marseille","lat":43.28475,"lon":5.48403,"is_reserved":false,"is_disabled":false,"rental_uris":{"android":"levelo://app?vid=40d69b45-a292-4d7d-b8e6-837b8b5a9d0c","ios":"levelo://app?vid=40d69b45-a292-4d7d-b8e6-837b8b5a9d0c"},"vehicle_type_id":"4","last_reported":1777152421,"current_range_meters":6400,"station_id":"","pricing_plan_id":"cebpf4jnsgd1na2vs0mg"},{"bike_id":"eb0288d9-38ae-4722-9f4e-75d6415e3ba3","system_id":"levelo_inurba_marseille","lat":43.25576,"lon":5.38232,"is_reserved":false,"is_disabled":false,"rental_uris":{"android":"levelo://app?vid=eb0288d9-38ae-4722-9f4e-75d6415e3ba3","ios":"levelo://app?vid=eb0288d9-38ae-4722-9f4e-75d6415e3ba3"},"vehicle_type_id":"4","last_reported":1777152421,"current_range_meters":6400,"station_id":"ce4bhih2rcd13ifvqfs0","pricing_plan_id":"cebpf4jnsgd1na2vs0mg"},{"bike_id":"541dbded-315f-4ca8-ac49-47fcb4294bb7","system_id":"levelo_inurba_marseille","lat":43.33539,"lon":5.37443,"is_reserved":false,"is_disabled":false,"rental_uris":{"android":"levelo://app?vid=541dbded-315f-4ca8-ac49-47fcb4294bb7","ios":"levelo://app?vid=541dbded-315f-4ca8-ac49-47fcb4294bb7"},"vehicle_type_id":"4","last_reported":1777152421,"current_range_meters":6400,"station_id":"st_d46tts09ee8s73dlu43g","pricing_plan_id":"cebpf4jnsgd1na2vs0mg"},{"bike_id":"28dc652e-391e-4daa-a243-946582e83158","system_id":"levelo_inurba_marseille","lat":43.31711,"lon":5.40461,"is_reserved":false,"is_disabled":false,"rental_uris":{"android":"levelo://app?vid=28dc652e-391e-4daa-a243-946582e83158","ios":"levelo://app?vid=28dc652e-391e-4daa-a243-946582e83158"},"vehicle_type_id":"4","last_reported":1777152421,"current_range_meters":6400,"station_id":"ce4bh012rcd13ifvqd00","pricing_plan_id":"cebpf4jnsgd1na2vs0mg"},{"bike_id":"ef7b612f-5668-4d93-9a53-f3506ef86315","system_id":"levelo_inurba_marseille","lat":43.24074,"lon":5.37758,"is_reserved":false,"is_disabled":false,"rental_uris":{"android":"levelo://app?vid=ef7b612f-5668-4d93-9a53-f3506ef86315","ios":"levelo://app?vid=ef7b612f-5668-4d93-9a53-f3506ef86315"},"vehicle_type_id":"4","last_reported":1777152421,"current_range_meters":6400,"station_id":"ce4bhnp2rcd13ifvqgvg","pricing_plan_id":"cebpf4jnsgd1na2vs0mg"},{"bike_id":"eb5c38b4-1d6a-4d57-9de5-c245898af933","system_id":"levelo_inurba_marseille","lat":43.30298,"lon":5.39196,"is_reserved":false,"is_disabled":false,"rental_uris":{"android":"levelo://app?vid=eb5c38b4-1d6a-4d57-9de5-c245898af933","ios":"levelo://app?vid=eb5c38b4-1d6a-4d57-9de5-c245898af933"},"vehicle_type_id":"4","last_reported":1777152421,"current_range_meters":6400,"station_id":"ce4bgkh2rcd13ifvqbk0","pricing_plan_id":"cebpf4jnsgd1na2vs0mg"},{"bike_id":"408ef33a-f995-4732-9be5-641e135ce6e4","system_id":"levelo_inurba_marseille","lat":43.30599,"lon":5.39359,"is_reserved":false,"is_disabled":false,"rental_uris":{"android":"levelo://app?vid=408ef33a-f995-4732-9be5-641e135ce6e4","ios":"levelo://app?vid=408ef33a-f995-4732-9be5-641e135ce6e4"},"vehicle_type_id":"4","last_reported":1777152421,"current_range_meters":6400,"station_id":"ce4bh0p2rcd13ifvqd80","pricing_plan_id":"cebpf4jnsgd1na2vs0mg"},{"bike_id":"b4bdbbf6-d5f4-4109-8782-59121f3e35b9","system_id":"levelo_inurba_marseille","lat":43.27966,"lon":5.38752,"is_reserved":false,"is_disabled":false,"rental_uris":{"android":"levelo://app?vid=b4bdbbf6-d5f4-4109-8782-59121f3e35b9","ios":"levelo://app?vid=b4bdbbf6-d5f4-4109-8782-59121f3e35b9"},"vehicle_type_id":"4","last_reported":1777152421,"current_range_meters":6400,"station_id":"ce4bhg12rcd13ifvqf80","pricing_plan_id":"cebpf4jnsgd1na2vs0mg"},{"bike_id":"4e09535f-a46c-4fd9-8c4a-595683209474","system_id":"levelo_inurba_marseille","lat":43.23987,"lon":5.36621,"is_reserved":false,"is_disabled":false,"rental_uris":{"android":"levelo://app?vid=4e09535f-a46c-4fd9-8c4a-595683209474","ios":"levelo://app?vid=4e09535f-a46c-4fd9-8c4a-595683209474"},"vehicle_type_id":"4","last_reported":1777152421,"current_range_meters":6800,"station_id":"ce4bhi12rcd13ifvqfp0","pricing_plan_id":"cebpf4jnsgd1na2vs0mg"},{"bike_id":"27cd71a7-0940-4415-a67f-21597fbf1cd9","system_id":"levelo_inurba_marseille","lat":43.34873,"lon":5.37371,"is_reserved":false,"is_disabled":false,"rental_uris":{"android":"levelo://app?vid=27cd71a7-0940-4415-a67f-21597fbf1cd9","ios":"levelo://app?vid=27cd71a7-0940-4415-a67f-21597fbf1cd9"},"vehicle_type_id":"4","last_reported":1777152421,"current_range_meters":6800,"station_id":"","pricing_plan_id":"cebpf4jnsgd1na2vs0mg"},{"bike_id":"ae19bca4-b0db-49a1-a37b-0edc9e6fdd1a","system_id":"levelo_inurba_marseille","lat":43.29207,"lon":5.39308,"is_reserved":false,"is_disabled":false,"rental_uris":{"android":"levelo://app?vid=ae19bca4-b0db-49a1-a37b-0edc9e6fdd1a","ios":"levelo://app?vid=ae19bca4-b0db-49a1-a37b-0edc9e6fdd1a"},"vehicle_type_id":"4","last_reported":1777152421,"current_range_meters":6800,"station_id":"ce4bh192rcd13ifvqdd0","pricing_plan_id":"cebpf4jnsgd1na2vs0mg"},{"bike_id":"67b9edf3-8aed-4121-b2b4-5426a86e0899","system_id":"levelo_inurba_marseille","lat":43.29972,"lon":5.37176,"is_reserved":false,"is_disabled":false,"rental_uris":{"android":"levelo://app?vid=67b9edf3-8aed-4121-b2b4-5426a86e0899","ios":"levelo://app?vid=67b9edf3-8aed-4121-b2b4-5426a86e0899"},"vehicle_type_id":"4","last_reported":1777152421,"current_range_meters":6800,"station_id":"ce4bgr92rcd13ifvqc7g","pricing_plan_id":"cebpf4jnsgd1na2vs0mg"},{"bike_id":"e5bab3d4-51df-40f4-acb7-898a38cfd436","system_id":"levelo_inurba_marseille","lat":43.21185,"lon":5.35065,"is_reserved":false,"is_disabled":false,"rental_uris":{"android":"levelo://app?vid=e5bab3d4-51df-40f4-acb7-898a38cfd436","ios":"levelo://app?vid=e5bab3d4-51df-40f4-acb7-898a38cfd436"},"vehicle_type_id":"4","last_reported":1777152421,"current_range_meters":6800,"station_id":"st_cvj6sg6p6f1abm77japg","pricing_plan_id":"cebpf4jnsgd1na2vs0mg"},{"bike_id":"548e4a82-32b2-49d2-a8d0-a6b1676f8a48","system_id":"levelo_inurba_marseille","lat":43.32472,"lon":5.36556,"is_reserved":false,"is_disabled":false,"rental_uris":{"android":"levelo://app?vid=548e4a82-32b2-49d2-a8d0-a6b1676f8a48","ios":"levelo://app?vid=548e4a82-32b2-49d2-a8d0-a6b1676f8a48"},"vehicle_type_id":"4","last_reported":1777152421,"current_range_meters":6800,"station_id":"ce4bhs12rcd13ifvqhvg","pricing_plan_id":"cebpf4jnsgd1na2vs0mg"},{"bike_id":"67fbfeb1-1dbe-466b-93b6-53ea7bb383b4","system_id":"levelo_inurba_marseille","lat":43.29449,"lon":5.37913,"is_reserved":false,"is_disabled":false,"rental_uris":{"android":"levelo://app?vid=67fbfeb1-1dbe-466b-93b6-53ea7bb383b4","ios":"levelo://app?vid=67fbfeb1-1dbe-466b-93b6-53ea7bb383b4"},"vehicle_type_id":"4","last_reported":1777152421,"current_range_meters":6800,"station_id":"","pricing_plan_id":"cebpf4jnsgd1na2vs0mg"},{"bike_id":"475140f4-b583-4984-8b03-5ba0e4640098","system_id":"levelo_inurba_marseille","lat":43.29529,"lon":5.38545,"is_reserved":false,"is_disabled":false,"rental_uris":{"android":"levelo://app?vid=475140f4-b583-4984-8b03-5ba0e4640098","ios":"levelo://app?vid=475140f4-b583-4984-8b03-5ba0e4640098"},"vehicle_type_id":"4","last_reported":1777152421,"current_range_meters":6800,"station_id":"ce4bgih2rcd13ifvqba0","pricing_plan_id":"cebpf4jnsgd1na2vs0mg"},{"bike_id":"84dfe045-882d-4364-b784-1b8f3b032718","system_id":"levelo_inurba_marseille","lat":43.29318,"lon":5.37178,"is_reserved":false,"is_disabled":false,"rental_uris":{"android":"levelo://app?vid=84dfe045-882d-4364-b784-1b8f3b032718","ios":"levelo://app?vid=84dfe045-882d-4364-b784-1b8f3b032718"},"vehicle_type_id":"4","last_reported":1777152421,"current_range_meters":6800,"station_id":"ce4bgh92rcd13ifvqb40","pricing_plan_id":"cebpf4jnsgd1na2vs0mg"},{"bike_id":"7f14f307-ed9b-4bde-a995-2c9126a5e681","system_id":"levelo_inurba_marseille","lat":43.30456,"lon":5.37905,"is_reserved":false,"is_disabled":true,"rental_uris":{"android":"levelo://app?vid=7f14f307-ed9b-4bde-a995-2c9126a5e681","ios":"levelo://app?vid=7f14f307-ed9b-4bde-a995-2c9126a5e681"},"vehicle_type_id":"4","last_reported":1777152421,"current_range_meters":6800,"station_id":"ce4bgup2rcd13ifvqcn0","pricing_plan_id":"cebpf4jnsgd1na2vs0mg"},{"bike_id":"5e9dd8bd-c336-4145-931e-48777f76060b","system_id":"levelo_inurba_marseille","lat":43.30542,"lon":5.38436,"is_reserved":false,"is_disabled":false,"rental_uris":{"android":"levelo://app?vid=5e9dd8bd-c336-4145-931e-48777f76060b","ios":"levelo://app?vid=5e9dd8bd-c336-4145-931e-48777f76060b"},"vehicle_type_id":"4","last_reported":1777152421,"current_range_meters":6800,"station_id":"ce4bgg92rcd13ifvqb30","pricing_plan_id":"cebpf4jnsgd1na2vs0mg"},{"bike_id":"00cadce8-7903-4092-8b5c-5695ce27b5b2","system_id":"levelo_inurba_marseille","lat":43.29531,"lon":5.38557,"is_reserved":false,"is_disabled":true,"rental_uris":{"android":"levelo://app?vid=00cadce8-7903-4092-8b5c-5695ce27b5b2","ios":"levelo://app?vid=00cadce8-7903-4092-8b5c-5695ce27b5b2"},"vehicle_type_id":"4","last_reported":1777152421,"current_range_meters":6800,"station_id":"ce4bgih2rcd13ifvqba0","pricing_plan_id":"cebpf4jnsgd1na2vs0mg"},{"bike_id":"3cc37908-32a6-4dbb-bca1-e1b546196cc1","system_id":"levelo_inurba_marseille","lat":43.29247,"lon":5.38442,"is_reserved":false,"is_disabled":false,"rental_uris":{"android":"levelo://app?vid=3cc37908-32a6-4dbb-bca1-e1b546196cc1","ios":"levelo://app?vid=3cc37908-32a6-4dbb-bca1-e1b546196cc1"},"vehicle_type_id":"4","last_reported":1777152421,"current_range_meters":6800,"station_id":"ce4bh692rcd13ifvqea0","pricing_plan_id":"cebpf4jnsgd1na2vs0mg"},{"bike_id":"3deb095f-0346-4d9f-aae1-8d59d80b3d6e","system_id":"levelo_inurba_marseille","lat":43.24409,"lon":5.37086,"is_reserved":false,"is_disabled":false,"rental_uris":{"android":"levelo://app?vid=3deb095f-0346-4d9f-aae1-8d59d80b3d6e","ios":"levelo://app?vid=3deb095f-0346-4d9f-aae1-8d59d80b3d6e"},"vehicle_type_id":"4","last_reported":1777152421,"current_range_meters":6800,"station_id":"ce4bhhh2rcd13ifvqfk0","pricing_plan_id":"cebpf4jnsgd1na2vs0mg"},{"bike_id":"90fac789-06e9-4c33-94b9-e82543e03c21","system_id":"levelo_inurba_marseille","lat":43.22569,"lon":5.4162,"is_reserved":false,"is_disabled":true,"rental_uris":{"android":"levelo://app?vid=90fac789-06e9-4c33-94b9-e82543e03c21","ios":"levelo://app?vid=90fac789-06e9-4c33-94b9-e82543e03c21"},"vehicle_type_id":"4","last_reported":1777152421,"current_range_meters":6800,"station_id":"st_d2o4gvlbi1j2169b742g","pricing_plan_id":"cebpf4jnsgd1na2vs0mg"},{"bike_id":"0852722a-7690-41d8-85ee-3e7c6221932f","system_id":"levelo_inurba_marseille","lat":43.24558,"lon":5.39523,"is_reserved":false,"is_disabled":false,"rental_uris":{"android":"levelo://app?vid=0852722a-7690-41d8-85ee-3e7c6221932f","ios":"levelo://app?vid=0852722a-7690-41d8-85ee-3e7c6221932f"},"vehicle_type_id":"4","last_reported":1777152421,"current_range_meters":6800,"station_id":"ce4bhlp2rcd13ifvqgjg","pricing_plan_id":"cebpf4jnsgd1na2vs0mg"},{"bike_id":"55ab88c6-7693-4f53-b061-009fb06e1411","system_id":"levelo_inurba_marseille","lat":43.29529,"lon":5.38543,"is_reserved":false,"is_disabled":false,"rental_uris":{"android":"levelo://app?vid=55ab88c6-7693-4f53-b061-009fb06e1411","ios":"levelo://app?vid=55ab88c6-7693-4f53-b061-009fb06e1411"},"vehicle_type_id":"4","last_reported":1777152421,"current_range_meters":6800,"station_id":"ce4bgih2rcd13ifvqba0","pricing_plan_id":"cebpf4jnsgd1na2vs0mg"},{"bike_id":"452a27a7-4742-4a75-a90f-adbec51bbe80","system_id":"levelo_inurba_marseille","lat":43.30888,"lon":5.39636,"is_reserved":false,"is_disabled":false,"rental_uris":{"android":"levelo://app?vid=452a27a7-4742-4a75-a90f-adbec51bbe80","ios":"levelo://app?vid=452a27a7-4742-4a75-a90f-adbec51bbe80"},"vehicle_type_id":"4","last_reported":1777152421,"current_range_meters":6800,"station_id":"ce4bh012rcd13ifvqcv0","pricing_plan_id":"cebpf4jnsgd1na2vs0mg"},{"bike_id":"a9fede3f-8571-4c94-a0d6-ea7d5bf6cfe5","system_id":"levelo_inurba_marseille","lat":43.27998,"lon":5.41665,"is_reserved":false,"is_disabled":false,"rental_uris":{"android":"levelo://app?vid=a9fede3f-8571-4c94-a0d6-ea7d5bf6cfe5","ios":"levelo://app?vid=a9fede3f-8571-4c94-a0d6-ea7d5bf6cfe5"},"vehicle_type_id":"4","last_reported":1777152421,"current_range_meters":6800,"station_id":"ce4bho12rcd13ifvqh1g","pricing_plan_id":"cebpf4jnsgd1na2vs0mg"},{"bike_id":"e150a8cf-4efe-40af-9467-f24e18330374","system_id":"levelo_inurba_marseille","lat":43.25514,"lon":5.37649,"is_reserved":false,"is_disabled":false,"rental_uris":{"android":"levelo://app?vid=e150a8cf-4efe-40af-9467-f24e18330374","ios":"levelo://app?vid=e150a8cf-4efe-40af-9467-f24e18330374"},"vehicle_type_id":"4","last_reported":1777152421,"current_range_meters":6800,"station_id":"ce4bhh12rcd13ifvqff0","pricing_plan_id":"cebpf4jnsgd1na2vs0mg"},{"bike_id":"5060822a-4c8e-49ee-9c0f-a6329f8c6486","system_id":"levelo_inurba_marseille","lat":43.29795,"lon":5.38102,"is_reserved":false,"is_disabled":false,"rental_uris":{"android":"levelo://app?vid=5060822a-4c8e-49ee-9c0f-a6329f8c6486","ios":"levelo://app?vid=5060822a-4c8e-49ee-9c0f-a6329f8c6486"},"vehicle_type_id":"4","last_reported":1777152421,"current_range_meters":6800,"station_id":"ce4bgip2rcd13ifvqbb0","pricing_plan_id":"cebpf4jnsgd1na2vs0mg"},{"bike_id":"c2810576-67c9-4731-86bb-40c8e2d9b72e","system_id":"levelo_inurba_marseille","lat":43.30953,"lon":5.3903,"is_reserved":false,"is_disabled":false,"rental_uris":{"android":"levelo://app?vid=c2810576-67c9-4731-86bb-40c8e2d9b72e","ios":"levelo://app?vid=c2810576-67c9-4731-86bb-40c8e2d9b72e"},"vehicle_type_id":"4","last_reported":1777152421,"current_range_meters":7200,"station_id":"ce4bgup2rcd13ifvqco0","pricing_plan_id":"cebpf4jnsgd1na2vs0mg"},{"bike_id":"413e4623-e4a6-44c0-8fe0-f06c3e224af8","system_id":"levelo_inurba_marseille","lat":43.31904,"lon":5.36813,"is_reserved":false,"is_disabled":false,"rental_uris":{"android":"levelo://app?vid=413e4623-e4a6-44c0-8fe0-f06c3e224af8","ios":"levelo://app?vid=413e4623-e4a6-44c0-8fe0-f06c3e224af8"},"vehicle_type_id":"4","last_reported":1777152421,"current_range_meters":7200,"station_id":"st_d6o2h0d0559c73evc1b0","pricing_plan_id":"cebpf4jnsgd1na2vs0mg"},{"bike_id":"0cd2fd7c-6402-466e-aa1b-fa186d7a7ed3","system_id":"levelo_inurba_marseille","lat":43.33194,"lon":5.37792,"is_reserved":false,"is_disabled":false,"rental_uris":{"android":"levelo://app?vid=0cd2fd7c-6402-466e-aa1b-fa186d7a7ed3","ios":"levelo://app?vid=0cd2fd7c-6402-466e-aa1b-fa186d7a7ed3"},"vehicle_type_id":"4","last_reported":1777152421,"current_range_meters":7200,"station_id":"","pricing_plan_id":"cebpf4jnsgd1na2vs0mg"},{"bike_id":"cd5ae753-0ce4-45ab-886c-3f79fabdb3b1","system_id":"levelo_inurba_marseille","lat":43.24858,"lon":5.37431,"is_reserved":false,"is_disabled":false,"rental_uris":{"android":"levelo://app?vid=cd5ae753-0ce4-45ab-886c-3f79fabdb3b1","ios":"levelo://app?vid=cd5ae753-0ce4-45ab-886c-3f79fabdb3b1"},"vehicle_type_id":"4","last_reported":1777152421,"current_range_meters":7200,"station_id":"","pricing_plan_id":"cebpf4jnsgd1na2vs0mg"},{"bike_id":"044ce3d4-5f89-49a7-a22e-6dad240318c7","system_id":"levelo_inurba_marseille","lat":43.31294,"lon":5.40161,"is_reserved":false,"is_disabled":false,"rental_uris":{"android":"levelo://app?vid=044ce3d4-5f89-49a7-a22e-6dad240318c7","ios":"levelo://app?vid=044ce3d4-5f89-49a7-a22e-6dad240318c7"},"vehicle_type_id":"4","last_reported":1777152421,"current_range_meters":7200,"station_id":"ce4bh092rcd13ifvqd30","pricing_plan_id":"cebpf4jnsgd1na2vs0mg"},{"bike_id":"a03ce919-3949-4c06-bbb8-c0f13ba943b2","system_id":"levelo_inurba_marseille","lat":43.25521,"lon":5.37659,"is_reserved":false,"is_disabled":true,"rental_uris":{"android":"levelo://app?vid=a03ce919-3949-4c06-bbb8-c0f13ba943b2","ios":"levelo://app?vid=a03ce919-3949-4c06-bbb8-c0f13ba943b2"},"vehicle_type_id":"4","last_reported":1777152421,"current_range_meters":7200,"station_id":"ce4bhh12rcd13ifvqff0","pricing_plan_id":"cebpf4jnsgd1na2vs0mg"},{"bike_id":"5825174c-c54d-48a7-9e86-0435e1df6c1c","system_id":"levelo_inurba_marseille","lat":43.29189,"lon":5.39321,"is_reserved":false,"is_disabled":false,"rental_uris":{"android":"levelo://app?vid=5825174c-c54d-48a7-9e86-0435e1df6c1c","ios":"levelo://app?vid=5825174c-c54d-48a7-9e86-0435e1df6c1c"},"vehicle_type_id":"4","last_reported":1777152421,"current_range_meters":7200,"station_id":"ce4bh192rcd13ifvqdd0","pricing_plan_id":"cebpf4jnsgd1na2vs0mg"},{"bike_id":"24b1e72c-f65f-474b-8680-2c9dab77bcf2","system_id":"levelo_inurba_marseille","lat":43.2904,"lon":5.39965,"is_reserved":false,"is_disabled":false,"rental_uris":{"android":"levelo://app?vid=24b1e72c-f65f-474b-8680-2c9dab77bcf2","ios":"levelo://app?vid=24b1e72c-f65f-474b-8680-2c9dab77bcf2"},"vehicle_type_id":"4","last_reported":1777152421,"current_range_meters":7200,"station_id":"ce4bh392rcd13ifvqdm0","pricing_plan_id":"cebpf4jnsgd1na2vs0mg"},{"bike_id":"17fe3f56-b486-40dd-ac6a-710ede14c97d","system_id":"levelo_inurba_marseille","lat":43.314869,"lon":5.373029,"is_reserved":false,"is_disabled":false,"rental_uris":{"android":"levelo://app?vid=17fe3f56-b486-40dd-ac6a-710ede14c97d","ios":"levelo://app?vid=17fe3f56-b486-40dd-ac6a-710ede14c97d"},"vehicle_type_id":"4","last_reported":1777152421,"current_range_meters":7200,"station_id":"","pricing_plan_id":"cebpf4jnsgd1na2vs0mg"},{"bike_id":"a4b333a0-7fa7-42c6-a7d4-7b2b56a0efa1","system_id":"levelo_inurba_marseille","lat":43.29025,"lon":5.38612,"is_reserved":false,"is_disabled":false,"rental_uris":{"android":"levelo://app?vid=a4b333a0-7fa7-42c6-a7d4-7b2b56a0efa1","ios":"levelo://app?vid=a4b333a0-7fa7-42c6-a7d4-7b2b56a0efa1"},"vehicle_type_id":"4","last_reported":1777152421,"current_range_meters":7200,"station_id":"ce4bh4p2rcd13ifvqe0g","pricing_plan_id":"cebpf4jnsgd1na2vs0mg"},{"bike_id":"06558e5b-846f-4e20-b375-c8972d75dc5a","system_id":"levelo_inurba_marseille","lat":43.27344,"lon":5.43137,"is_reserved":false,"is_disabled":false,"rental_uris":{"android":"levelo://app?vid=06558e5b-846f-4e20-b375-c8972d75dc5a","ios":"levelo://app?vid=06558e5b-846f-4e20-b375-c8972d75dc5a"},"vehicle_type_id":"4","last_reported":1777152421,"current_range_meters":7200,"station_id":"","pricing_plan_id":"cebpf4jnsgd1na2vs0mg"},{"bike_id":"d1d5c7cf-8e64-4123-ad8a-ccd792fc4d10","system_id":"levelo_inurba_marseille","lat":43.29365,"lon":5.39856,"is_reserved":false,"is_disabled":false,"rental_uris":{"android":"levelo://app?vid=d1d5c7cf-8e64-4123-ad8a-ccd792fc4d10","ios":"levelo://app?vid=d1d5c7cf-8e64-4123-ad8a-ccd792fc4d10"},"vehicle_type_id":"4","last_reported":1777152421,"current_range_meters":7200,"station_id":"","pricing_plan_id":"cebpf4jnsgd1na2vs0mg"},{"bike_id":"648bc781-8e68-4ccd-aedc-987a153e904f","system_id":"levelo_inurba_marseille","lat":43.29265,"lon":5.38457,"is_reserved":false,"is_disabled":false,"rental_uris":{"android":"levelo://app?vid=648bc781-8e68-4ccd-aedc-987a153e904f","ios":"levelo://app?vid=648bc781-8e68-4ccd-aedc-987a153e904f"},"vehicle_type_id":"4","last_reported":1777152421,"current_range_meters":7200,"station_id":"ce4bh692rcd13ifvqea0","pricing_plan_id":"cebpf4jnsgd1na2vs0mg"},{"bike_id":"73b29586-6035-4b17-8f89-10c778399a16","system_id":"levelo_inurba_marseille","lat":43.32003,"lon":5.3817,"is_reserved":false,"is_disabled":false,"rental_uris":{"android":"levelo://app?vid=73b29586-6035-4b17-8f89-10c778399a16","ios":"levelo://app?vid=73b29586-6035-4b17-8f89-10c778399a16"},"vehicle_type_id":"4","last_reported":1777152421,"current_range_meters":7200,"station_id":"ce4bhr12rcd13ifvqhpg","pricing_plan_id":"cebpf4jnsgd1na2vs0mg"},{"bike_id":"8d1cc07a-c87d-4a7b-8797-cd61ba104d31","system_id":"levelo_inurba_marseille","lat":43.29542,"lon":5.39019,"is_reserved":false,"is_disabled":true,"rental_uris":{"android":"levelo://app?vid=8d1cc07a-c87d-4a7b-8797-cd61ba104d31","ios":"levelo://app?vid=8d1cc07a-c87d-4a7b-8797-cd61ba104d31"},"vehicle_type_id":"4","last_reported":1777152421,"current_range_meters":7200,"station_id":"ce4bh3p2rcd13ifvqdp0","pricing_plan_id":"cebpf4jnsgd1na2vs0mg"},{"bike_id":"a8efdf94-3910-4fe8-9ec0-bdf906b9c60c","system_id":"levelo_inurba_marseille","lat":43.30961,"lon":5.39029,"is_reserved":false,"is_disabled":false,"rental_uris":{"android":"levelo://app?vid=a8efdf94-3910-4fe8-9ec0-bdf906b9c60c","ios":"levelo://app?vid=a8efdf94-3910-4fe8-9ec0-bdf906b9c60c"},"vehicle_type_id":"4","last_reported":1777152421,"current_range_meters":7200,"station_id":"ce4bgup2rcd13ifvqco0","pricing_plan_id":"cebpf4jnsgd1na2vs0mg"},{"bike_id":"3ba1478b-abeb-4ad1-83b7-36b5bf0ef775","system_id":"levelo_inurba_marseille","lat":43.29524,"lon":5.38533,"is_reserved":false,"is_disabled":false,"rental_uris":{"android":"levelo://app?vid=3ba1478b-abeb-4ad1-83b7-36b5bf0ef775","ios":"levelo://app?vid=3ba1478b-abeb-4ad1-83b7-36b5bf0ef775"},"vehicle_type_id":"4","last_reported":1777152421,"current_range_meters":7200,"station_id":"ce4bgih2rcd13ifvqba0","pricing_plan_id":"cebpf4jnsgd1na2vs0mg"},{"bike_id":"4504a775-1946-4aac-92b5-5d484d4b09a6","system_id":"levelo_inurba_marseille","lat":43.29521,"lon":5.3903,"is_reserved":false,"is_disabled":false,"rental_uris":{"android":"levelo://app?vid=4504a775-1946-4aac-92b5-5d484d4b09a6","ios":"levelo://app?vid=4504a775-1946-4aac-92b5-5d484d4b09a6"},"vehicle_type_id":"4","last_reported":1777152421,"current_range_meters":7200,"station_id":"ce4bh3p2rcd13ifvqdp0","pricing_plan_id":"cebpf4jnsgd1na2vs0mg"},{"bike_id":"f59c1d5f-cb00-4b2b-85d7-e7937af76e14","system_id":"levelo_inurba_marseille","lat":43.29531,"lon":5.38551,"is_reserved":false,"is_disabled":false,"rental_uris":{"android":"levelo://app?vid=f59c1d5f-cb00-4b2b-85d7-e7937af76e14","ios":"levelo://app?vid=f59c1d5f-cb00-4b2b-85d7-e7937af76e14"},"vehicle_type_id":"4","last_reported":1777152421,"current_range_meters":7200,"station_id":"ce4bgih2rcd13ifvqba0","pricing_plan_id":"cebpf4jnsgd1na2vs0mg"},{"bike_id":"1a53a67e-9022-4580-83c0-fc3f72c9ef8d","system_id":"levelo_inurba_marseille","lat":43.29582,"lon":5.38092,"is_reserved":false,"is_disabled":false,"rental_uris":{"android":"levelo://app?vid=1a53a67e-9022-4580-83c0-fc3f72c9ef8d","ios":"levelo://app?vid=1a53a67e-9022-4580-83c0-fc3f72c9ef8d"},"vehicle_type_id":"4","last_reported":1777152421,"current_range_meters":7200,"station_id":"ce4bgl12rcd13ifvqbo0","pricing_plan_id":"cebpf4jnsgd1na2vs0mg"},{"bike_id":"ace34436-51fe-4536-a1f6-cfa009f56977","system_id":"levelo_inurba_marseille","lat":43.33544,"lon":5.37459,"is_reserved":false,"is_disabled":false,"rental_uris":{"android":"levelo://app?vid=ace34436-51fe-4536-a1f6-cfa009f56977","ios":"levelo://app?vid=ace34436-51fe-4536-a1f6-cfa009f56977"},"vehicle_type_id":"4","last_reported":1777152421,"current_range_meters":8000,"station_id":"st_d46tts09ee8s73dlu43g","pricing_plan_id":"cebpf4jnsgd1na2vs0mg"},{"bike_id":"5687bcf3-d7dc-457c-91e4-c37491638fcd","system_id":"levelo_inurba_marseille","lat":43.24174,"lon":5.36384,"is_reserved":false,"is_disabled":false,"rental_uris":{"android":"levelo://app?vid=5687bcf3-d7dc-457c-91e4-c37491638fcd","ios":"levelo://app?vid=5687bcf3-d7dc-457c-91e4-c37491638fcd"},"vehicle_type_id":"4","last_reported":1777152421,"current_range_meters":8000,"station_id":"cpo36qri1sfpv3e86is0","pricing_plan_id":"cebpf4jnsgd1na2vs0mg"},{"bike_id":"70c7e508-dee8-4c48-84ef-dd92c8416275","system_id":"levelo_inurba_marseille","lat":43.24198,"lon":5.3636,"is_reserved":false,"is_disabled":false,"rental_uris":{"android":"levelo://app?vid=70c7e508-dee8-4c48-84ef-dd92c8416275","ios":"levelo://app?vid=70c7e508-dee8-4c48-84ef-dd92c8416275"},"vehicle_type_id":"4","last_reported":1777152421,"current_range_meters":8000,"station_id":"cpo36qri1sfpv3e86is0","pricing_plan_id":"cebpf4jnsgd1na2vs0mg"},{"bike_id":"81df374b-78e5-4afd-9272-8119b942b935","system_id":"levelo_inurba_marseille","lat":43.24164,"lon":5.36392,"is_reserved":false,"is_disabled":false,"rental_uris":{"android":"levelo://app?vid=81df374b-78e5-4afd-9272-8119b942b935","ios":"levelo://app?vid=81df374b-78e5-4afd-9272-8119b942b935"},"vehicle_type_id":"4","last_reported":1777152421,"current_range_meters":8000,"station_id":"cpo36qri1sfpv3e86is0","pricing_plan_id":"cebpf4jnsgd1na2vs0mg"},{"bike_id":"9cee4e90-2861-42ab-8f88-f2f3c8ba8048","system_id":"levelo_inurba_marseille","lat":43.31531,"lon":5.38033,"is_reserved":false,"is_disabled":false,"rental_uris":{"android":"levelo://app?vid=9cee4e90-2861-42ab-8f88-f2f3c8ba8048","ios":"levelo://app?vid=9cee4e90-2861-42ab-8f88-f2f3c8ba8048"},"vehicle_type_id":"4","last_reported":1777152421,"current_range_meters":8000,"station_id":"ce4bhsp2rcd13ifvqi50","pricing_plan_id":"cebpf4jnsgd1na2vs0mg"},{"bike_id":"2ac72f42-4414-46dd-8ec4-bd5b970d98e0","system_id":"levelo_inurba_marseille","lat":43.30923,"lon":5.38927,"is_reserved":false,"is_disabled":false,"rental_uris":{"android":"levelo://app?vid=2ac72f42-4414-46dd-8ec4-bd5b970d98e0","ios":"levelo://app?vid=2ac72f42-4414-46dd-8ec4-bd5b970d98e0"},"vehicle_type_id":"4","last_reported":1777152421,"current_range_meters":8000,"station_id":"","pricing_plan_id":"cebpf4jnsgd1na2vs0mg"},{"bike_id":"fea5a28c-0167-4a62-9062-e629ed9b3e8f","system_id":"levelo_inurba_marseille","lat":43.28488,"lon":5.48398,"is_reserved":false,"is_disabled":false,"rental_uris":{"android":"levelo://app?vid=fea5a28c-0167-4a62-9062-e629ed9b3e8f","ios":"levelo://app?vid=fea5a28c-0167-4a62-9062-e629ed9b3e8f"},"vehicle_type_id":"4","last_reported":1777152421,"current_range_meters":8000,"station_id":"st_d3svhcjqgbts73a3dn0g","pricing_plan_id":"cebpf4jnsgd1na2vs0mg"},{"bike_id":"8fa7c344-2e50-49d2-87cf-995429d14c4d","system_id":"levelo_inurba_marseille","lat":43.28686,"lon":5.38644,"is_reserved":false,"is_disabled":false,"rental_uris":{"android":"levelo://app?vid=8fa7c344-2e50-49d2-87cf-995429d14c4d","ios":"levelo://app?vid=8fa7c344-2e50-49d2-87cf-995429d14c4d"},"vehicle_type_id":"4","last_reported":1777152421,"current_range_meters":8000,"station_id":"ce4bh492rcd13ifvqdug","pricing_plan_id":"cebpf4jnsgd1na2vs0mg"},{"bike_id":"250b483d-f282-4a3d-9707-02b9afde3f7e","system_id":"levelo_inurba_marseille","lat":43.292,"lon":5.3932,"is_reserved":false,"is_disabled":false,"rental_uris":{"android":"levelo://app?vid=250b483d-f282-4a3d-9707-02b9afde3f7e","ios":"levelo://app?vid=250b483d-f282-4a3d-9707-02b9afde3f7e"},"vehicle_type_id":"4","last_reported":1777152421,"current_range_meters":8000,"station_id":"ce4bh192rcd13ifvqdd0","pricing_plan_id":"cebpf4jnsgd1na2vs0mg"},{"bike_id":"2b011dfd-b31a-42cc-be3f-96f7ba6133ca","system_id":"levelo_inurba_marseille","lat":43.30946,"lon":5.39021,"is_reserved":false,"is_disabled":false,"rental_uris":{"android":"levelo://app?vid=2b011dfd-b31a-42cc-be3f-96f7ba6133ca","ios":"levelo://app?vid=2b011dfd-b31a-42cc-be3f-96f7ba6133ca"},"vehicle_type_id":"4","last_reported":1777152421,"current_range_meters":8000,"station_id":"ce4bgup2rcd13ifvqco0","pricing_plan_id":"cebpf4jnsgd1na2vs0mg"},{"bike_id":"0e385029-f21e-4196-be6e-7feb5fd87d07","system_id":"levelo_inurba_marseille","lat":43.31906,"lon":5.3681,"is_reserved":false,"is_disabled":false,"rental_uris":{"android":"levelo://app?vid=0e385029-f21e-4196-be6e-7feb5fd87d07","ios":"levelo://app?vid=0e385029-f21e-4196-be6e-7feb5fd87d07"},"vehicle_type_id":"4","last_reported":1777152421,"current_range_meters":8000,"station_id":"st_d6o2h0d0559c73evc1b0","pricing_plan_id":"cebpf4jnsgd1na2vs0mg"},{"bike_id":"c56120d4-f47e-4ef5-9b26-6a85ea57d7ac","system_id":"levelo_inurba_marseille","lat":43.28455,"lon":5.35885,"is_reserved":false,"is_disabled":false,"rental_uris":{"android":"levelo://app?vid=c56120d4-f47e-4ef5-9b26-6a85ea57d7ac","ios":"levelo://app?vid=c56120d4-f47e-4ef5-9b26-6a85ea57d7ac"},"vehicle_type_id":"4","last_reported":1777152421,"current_range_meters":8000,"station_id":"ce4bhah2rcd13ifvqei0","pricing_plan_id":"cebpf4jnsgd1na2vs0mg"},{"bike_id":"05a33fd5-e436-4ad0-a907-865e546c41d5","system_id":"levelo_inurba_marseille","lat":43.22554,"lon":5.41613,"is_reserved":false,"is_disabled":true,"rental_uris":{"android":"levelo://app?vid=05a33fd5-e436-4ad0-a907-865e546c41d5","ios":"levelo://app?vid=05a33fd5-e436-4ad0-a907-865e546c41d5"},"vehicle_type_id":"4","last_reported":1777152421,"current_range_meters":8000,"station_id":"","pricing_plan_id":"cebpf4jnsgd1na2vs0mg"},{"bike_id":"84c8a771-33c9-421f-a5d6-bf9791123e26","system_id":"levelo_inurba_marseille","lat":43.31988,"lon":5.38142,"is_reserved":false,"is_disabled":false,"rental_uris":{"android":"levelo://app?vid=84c8a771-33c9-421f-a5d6-bf9791123e26","ios":"levelo://app?vid=84c8a771-33c9-421f-a5d6-bf9791123e26"},"vehicle_type_id":"4","last_reported":1777152421,"current_range_meters":8400,"station_id":"ce4bhr12rcd13ifvqhpg","pricing_plan_id":"cebpf4jnsgd1na2vs0mg"},{"bike_id":"bfa7c1d6-71d5-4139-8708-a911840c9801","system_id":"levelo_inurba_marseille","lat":43.2849,"lon":5.38535,"is_reserved":false,"is_disabled":true,"rental_uris":{"android":"levelo://app?vid=bfa7c1d6-71d5-4139-8708-a911840c9801","ios":"levelo://app?vid=bfa7c1d6-71d5-4139-8708-a911840c9801"},"vehicle_type_id":"4","last_reported":1777152421,"current_range_meters":8400,"station_id":"ce4bh8p2rcd13ifvqeb0","pricing_plan_id":"cebpf4jnsgd1na2vs0mg"},{"bike_id":"9a7c39d8-ef30-4694-b180-b6fe0a089530","system_id":"levelo_inurba_marseille","lat":43.30149,"lon":5.43104,"is_reserved":false,"is_disabled":false,"rental_uris":{"android":"levelo://app?vid=9a7c39d8-ef30-4694-b180-b6fe0a089530","ios":"levelo://app?vid=9a7c39d8-ef30-4694-b180-b6fe0a089530"},"vehicle_type_id":"4","last_reported":1777152421,"current_range_meters":8400,"station_id":"st_d3js3co5814s73ftftug","pricing_plan_id":"cebpf4jnsgd1na2vs0mg"},{"bike_id":"cdd270f0-5f2f-4bbf-9ea6-e320df8433a0","system_id":"levelo_inurba_marseille","lat":43.29878,"lon":5.389,"is_reserved":false,"is_disabled":false,"rental_uris":{"android":"levelo://app?vid=cdd270f0-5f2f-4bbf-9ea6-e320df8433a0","ios":"levelo://app?vid=cdd270f0-5f2f-4bbf-9ea6-e320df8433a0"},"vehicle_type_id":"4","last_reported":1777152421,"current_range_meters":8400,"station_id":"ce4bh392rcd13ifvqdl0","pricing_plan_id":"cebpf4jnsgd1na2vs0mg"},{"bike_id":"e7760414-c99e-4edb-8d77-254918982c51","system_id":"levelo_inurba_marseille","lat":43.280813,"lon":5.396654,"is_reserved":false,"is_disabled":false,"rental_uris":{"android":"levelo://app?vid=e7760414-c99e-4edb-8d77-254918982c51","ios":"levelo://app?vid=e7760414-c99e-4edb-8d77-254918982c51"},"vehicle_type_id":"4","last_reported":1777152421,"current_range_meters":8400,"station_id":"ce4bho12rcd13ifvqh2g","pricing_plan_id":"cebpf4jnsgd1na2vs0mg"},{"bike_id":"bf79c585-92c4-4180-bf4d-de82ff559306","system_id":"levelo_inurba_marseille","lat":43.30594,"lon":5.39373,"is_reserved":false,"is_disabled":false,"rental_uris":{"android":"levelo://app?vid=bf79c585-92c4-4180-bf4d-de82ff559306","ios":"levelo://app?vid=bf79c585-92c4-4180-bf4d-de82ff559306"},"vehicle_type_id":"4","last_reported":1777152421,"current_range_meters":8400,"station_id":"ce4bh0p2rcd13ifvqd80","pricing_plan_id":"cebpf4jnsgd1na2vs0mg"},{"bike_id":"70578acc-b935-4f77-be23-bcde1db99b26","system_id":"levelo_inurba_marseille","lat":43.29794,"lon":5.38155,"is_reserved":false,"is_disabled":false,"rental_uris":{"android":"levelo://app?vid=70578acc-b935-4f77-be23-bcde1db99b26","ios":"levelo://app?vid=70578acc-b935-4f77-be23-bcde1db99b26"},"vehicle_type_id":"4","last_reported":1777152421,"current_range_meters":8400,"station_id":"ce4bgip2rcd13ifvqbb0","pricing_plan_id":"cebpf4jnsgd1na2vs0mg"},{"bike_id":"62bde582-a935-433c-991e-650c3253ecca","system_id":"levelo_inurba_marseille","lat":43.29262,"lon":5.38443,"is_reserved":false,"is_disabled":false,"rental_uris":{"android":"levelo://app?vid=62bde582-a935-433c-991e-650c3253ecca","ios":"levelo://app?vid=62bde582-a935-433c-991e-650c3253ecca"},"vehicle_type_id":"4","last_reported":1777152421,"current_range_meters":8400,"station_id":"ce4bh692rcd13ifvqea0","pricing_plan_id":"cebpf4jnsgd1na2vs0mg"},{"bike_id":"9a179763-1687-4b2b-8886-1b18924799ad","system_id":"levelo_inurba_marseille","lat":43.25873,"lon":5.39899,"is_reserved":false,"is_disabled":false,"rental_uris":{"android":"levelo://app?vid=9a179763-1687-4b2b-8886-1b18924799ad","ios":"levelo://app?vid=9a179763-1687-4b2b-8886-1b18924799ad"},"vehicle_type_id":"4","last_reported":1777152421,"current_range_meters":8400,"station_id":"ce4bhl92rcd13ifvqghg","pricing_plan_id":"cebpf4jnsgd1na2vs0mg"},{"bike_id":"43df043b-1577-46da-b387-d2a85f0af5d9","system_id":"levelo_inurba_marseille","lat":43.28944,"lon":5.3663,"is_reserved":false,"is_disabled":false,"rental_uris":{"android":"levelo://app?vid=43df043b-1577-46da-b387-d2a85f0af5d9","ios":"levelo://app?vid=43df043b-1577-46da-b387-d2a85f0af5d9"},"vehicle_type_id":"4","last_reported":1777152421,"current_range_meters":8400,"station_id":"ce4bhap2rcd13ifvqek0","pricing_plan_id":"cebpf4jnsgd1na2vs0mg"},{"bike_id":"e6e0181d-d51b-42d7-93b1-7e8f4d00629c","system_id":"levelo_inurba_marseille","lat":43.29836,"lon":5.42023,"is_reserved":false,"is_disabled":true,"rental_uris":{"android":"levelo://app?vid=e6e0181d-d51b-42d7-93b1-7e8f4d00629c","ios":"levelo://app?vid=e6e0181d-d51b-42d7-93b1-7e8f4d00629c"},"vehicle_type_id":"4","last_reported":1777152421,"current_range_meters":8400,"station_id":"","pricing_plan_id":"cebpf4jnsgd1na2vs0mg"},{"bike_id":"ad0386ba-88a1-4a34-a4ab-f5c9d2b3d961","system_id":"levelo_inurba_marseille","lat":43.3054,"lon":5.3672,"is_reserved":false,"is_disabled":false,"rental_uris":{"android":"levelo://app?vid=ad0386ba-88a1-4a34-a4ab-f5c9d2b3d961","ios":"levelo://app?vid=ad0386ba-88a1-4a34-a4ab-f5c9d2b3d961"},"vehicle_type_id":"4","last_reported":1777152421,"current_range_meters":8400,"station_id":"ce4bgrp2rcd13ifvqc9g","pricing_plan_id":"cebpf4jnsgd1na2vs0mg"},{"bike_id":"8d2b2cb4-a80f-43a0-810d-5e93ddc5e42e","system_id":"levelo_inurba_marseille","lat":43.28109,"lon":5.37849,"is_reserved":false,"is_disabled":false,"rental_uris":{"android":"levelo://app?vid=8d2b2cb4-a80f-43a0-810d-5e93ddc5e42e","ios":"levelo://app?vid=8d2b2cb4-a80f-43a0-810d-5e93ddc5e42e"},"vehicle_type_id":"4","last_reported":1777152421,"current_range_meters":8400,"station_id":"ce4bha12rcd13ifvqee0","pricing_plan_id":"cebpf4jnsgd1na2vs0mg"},{"bike_id":"d635b6a9-26d7-4024-944b-3b30f7178297","system_id":"levelo_inurba_marseille","lat":43.24038,"lon":5.36251,"is_reserved":false,"is_disabled":false,"rental_uris":{"android":"levelo://app?vid=d635b6a9-26d7-4024-944b-3b30f7178297","ios":"levelo://app?vid=d635b6a9-26d7-4024-944b-3b30f7178297"},"vehicle_type_id":"4","last_reported":1777152421,"current_range_meters":8400,"station_id":"","pricing_plan_id":"cebpf4jnsgd1na2vs0mg"},{"bike_id":"e79bde01-2f2e-4687-9114-2908a926683e","system_id":"levelo_inurba_marseille","lat":43.3354,"lon":5.37475,"is_reserved":false,"is_disabled":false,"rental_uris":{"android":"levelo://app?vid=e79bde01-2f2e-4687-9114-2908a926683e","ios":"levelo://app?vid=e79bde01-2f2e-4687-9114-2908a926683e"},"vehicle_type_id":"4","last_reported":1777152421,"current_range_meters":8400,"station_id":"st_d46tts09ee8s73dlu43g","pricing_plan_id":"cebpf4jnsgd1na2vs0mg"},{"bike_id":"45cd9781-7f1f-41b5-bb2f-c8bfe3433986","system_id":"levelo_inurba_marseille","lat":43.29519,"lon":5.38544,"is_reserved":false,"is_disabled":false,"rental_uris":{"android":"levelo://app?vid=45cd9781-7f1f-41b5-bb2f-c8bfe3433986","ios":"levelo://app?vid=45cd9781-7f1f-41b5-bb2f-c8bfe3433986"},"vehicle_type_id":"4","last_reported":1777152421,"current_range_meters":8400,"station_id":"ce4bgih2rcd13ifvqba0","pricing_plan_id":"cebpf4jnsgd1na2vs0mg"},{"bike_id":"0fb5bdad-cf89-4b49-8199-c24f462ae13f","system_id":"levelo_inurba_marseille","lat":43.29875,"lon":5.38924,"is_reserved":false,"is_disabled":false,"rental_uris":{"android":"levelo://app?vid=0fb5bdad-cf89-4b49-8199-c24f462ae13f","ios":"levelo://app?vid=0fb5bdad-cf89-4b49-8199-c24f462ae13f"},"vehicle_type_id":"4","last_reported":1777152421,"current_range_meters":8400,"station_id":"ce4bh392rcd13ifvqdl0","pricing_plan_id":"cebpf4jnsgd1na2vs0mg"},{"bike_id":"81267a70-c2a7-4e63-b4b8-c0d50cfcbfe1","system_id":"levelo_inurba_marseille","lat":43.27375,"lon":5.36258,"is_reserved":false,"is_disabled":false,"rental_uris":{"android":"levelo://app?vid=81267a70-c2a7-4e63-b4b8-c0d50cfcbfe1","ios":"levelo://app?vid=81267a70-c2a7-4e63-b4b8-c0d50cfcbfe1"},"vehicle_type_id":"4","last_reported":1777152421,"current_range_meters":8400,"station_id":"ce4bhbh2rcd13ifvqeo0","pricing_plan_id":"cebpf4jnsgd1na2vs0mg"},{"bike_id":"f33c6c9d-346a-4c73-9b31-f3ca6fe92254","system_id":"levelo_inurba_marseille","lat":43.29599,"lon":5.37712,"is_reserved":false,"is_disabled":true,"rental_uris":{"android":"levelo://app?vid=f33c6c9d-346a-4c73-9b31-f3ca6fe92254","ios":"levelo://app?vid=f33c6c9d-346a-4c73-9b31-f3ca6fe92254"},"vehicle_type_id":"4","last_reported":1777152421,"current_range_meters":8400,"station_id":"ce4bgi92rcd13ifvqb90","pricing_plan_id":"cebpf4jnsgd1na2vs0mg"},{"bike_id":"867e4efb-03e8-466f-a027-d873140a375d","system_id":"levelo_inurba_marseille","lat":43.24821,"lon":5.3746,"is_reserved":false,"is_disabled":false,"rental_uris":{"android":"levelo://app?vid=867e4efb-03e8-466f-a027-d873140a375d","ios":"levelo://app?vid=867e4efb-03e8-466f-a027-d873140a375d"},"vehicle_type_id":"4","last_reported":1777152421,"current_range_meters":8400,"station_id":"ce4bhgh2rcd13ifvqfb0","pricing_plan_id":"cebpf4jnsgd1na2vs0mg"},{"bike_id":"5fdff1d7-b2d7-4e39-ad7f-00ed09411d1d","system_id":"levelo_inurba_marseille","lat":43.28526,"lon":5.48362,"is_reserved":false,"is_disabled":false,"rental_uris":{"android":"levelo://app?vid=5fdff1d7-b2d7-4e39-ad7f-00ed09411d1d","ios":"levelo://app?vid=5fdff1d7-b2d7-4e39-ad7f-00ed09411d1d"},"vehicle_type_id":"4","last_reported":1777152421,"current_range_meters":8800,"station_id":"st_d3svhcjqgbts73a3dn0g","pricing_plan_id":"cebpf4jnsgd1na2vs0mg"},{"bike_id":"ebe14430-f2d8-411d-9873-e6bf000e24ed","system_id":"levelo_inurba_marseille","lat":43.29592,"lon":5.38081,"is_reserved":false,"is_disabled":false,"rental_uris":{"android":"levelo://app?vid=ebe14430-f2d8-411d-9873-e6bf000e24ed","ios":"levelo://app?vid=ebe14430-f2d8-411d-9873-e6bf000e24ed"},"vehicle_type_id":"4","last_reported":1777152421,"current_range_meters":8800,"station_id":"ce4bgl12rcd13ifvqbo0","pricing_plan_id":"cebpf4jnsgd1na2vs0mg"},{"bike_id":"757fdfcb-45d7-4c45-8e18-f9ab346e8260","system_id":"levelo_inurba_marseille","lat":43.24626,"lon":5.39831,"is_reserved":false,"is_disabled":false,"rental_uris":{"android":"levelo://app?vid=757fdfcb-45d7-4c45-8e18-f9ab346e8260","ios":"levelo://app?vid=757fdfcb-45d7-4c45-8e18-f9ab346e8260"},"vehicle_type_id":"4","last_reported":1777152421,"current_range_meters":8800,"station_id":"","pricing_plan_id":"cebpf4jnsgd1na2vs0mg"},{"bike_id":"f3121592-9e16-4c43-87b9-7b7a53cd3086","system_id":"levelo_inurba_marseille","lat":43.29253,"lon":5.38436,"is_reserved":false,"is_disabled":false,"rental_uris":{"android":"levelo://app?vid=f3121592-9e16-4c43-87b9-7b7a53cd3086","ios":"levelo://app?vid=f3121592-9e16-4c43-87b9-7b7a53cd3086"},"vehicle_type_id":"4","last_reported":1777152421,"current_range_meters":8800,"station_id":"ce4bh692rcd13ifvqea0","pricing_plan_id":"cebpf4jnsgd1na2vs0mg"},{"bike_id":"6b60b3c8-da35-492c-9411-418199a97ad7","system_id":"levelo_inurba_marseille","lat":43.28484,"lon":5.48386,"is_reserved":false,"is_disabled":false,"rental_uris":{"android":"levelo://app?vid=6b60b3c8-da35-492c-9411-418199a97ad7","ios":"levelo://app?vid=6b60b3c8-da35-492c-9411-418199a97ad7"},"vehicle_type_id":"4","last_reported":1777152421,"current_range_meters":8800,"station_id":"","pricing_plan_id":"cebpf4jnsgd1na2vs0mg"},{"bike_id":"a8f6a395-f3d0-4eae-9bed-61bd91606632","system_id":"levelo_inurba_marseille","lat":43.30957,"lon":5.39038,"is_reserved":false,"is_disabled":false,"rental_uris":{"android":"levelo://app?vid=a8f6a395-f3d0-4eae-9bed-61bd91606632","ios":"levelo://app?vid=a8f6a395-f3d0-4eae-9bed-61bd91606632"},"vehicle_type_id":"4","last_reported":1777152421,"current_range_meters":8800,"station_id":"ce4bgup2rcd13ifvqco0","pricing_plan_id":"cebpf4jnsgd1na2vs0mg"},{"bike_id":"f54ccc15-12bb-43a9-bcae-01eb62b17984","system_id":"levelo_inurba_marseille","lat":43.24805,"lon":5.37468,"is_reserved":false,"is_disabled":false,"rental_uris":{"android":"levelo://app?vid=f54ccc15-12bb-43a9-bcae-01eb62b17984","ios":"levelo://app?vid=f54ccc15-12bb-43a9-bcae-01eb62b17984"},"vehicle_type_id":"4","last_reported":1777152421,"current_range_meters":8800,"station_id":"ce4bhgh2rcd13ifvqfb0","pricing_plan_id":"cebpf4jnsgd1na2vs0mg"},{"bike_id":"fb350924-3b39-4197-a891-8208914eef37","system_id":"levelo_inurba_marseille","lat":43.24813,"lon":5.3746,"is_reserved":false,"is_disabled":false,"rental_uris":{"android":"levelo://app?vid=fb350924-3b39-4197-a891-8208914eef37","ios":"levelo://app?vid=fb350924-3b39-4197-a891-8208914eef37"},"vehicle_type_id":"4","last_reported":1777152421,"current_range_meters":8800,"station_id":"ce4bhgh2rcd13ifvqfb0","pricing_plan_id":"cebpf4jnsgd1na2vs0mg"},{"bike_id":"d0d29561-5aac-4540-9fd8-4ef61a6610e0","system_id":"levelo_inurba_marseille","lat":43.29227,"lon":5.36037,"is_reserved":false,"is_disabled":true,"rental_uris":{"android":"levelo://app?vid=d0d29561-5aac-4540-9fd8-4ef61a6610e0","ios":"levelo://app?vid=d0d29561-5aac-4540-9fd8-4ef61a6610e0"},"vehicle_type_id":"4","last_reported":1777152421,"current_range_meters":8800,"station_id":"ce4bhbh2rcd13ifvqeqg","pricing_plan_id":"cebpf4jnsgd1na2vs0mg"},{"bike_id":"fda983b3-301e-40f3-bb07-e5c67ab620e4","system_id":"levelo_inurba_marseille","lat":43.25077,"lon":5.40435,"is_reserved":false,"is_disabled":false,"rental_uris":{"android":"levelo://app?vid=fda983b3-301e-40f3-bb07-e5c67ab620e4","ios":"levelo://app?vid=fda983b3-301e-40f3-bb07-e5c67ab620e4"},"vehicle_type_id":"4","last_reported":1777152421,"current_range_meters":8800,"station_id":"","pricing_plan_id":"cebpf4jnsgd1na2vs0mg"},{"bike_id":"b7166d00-058e-4f8a-ac08-8d7664362d9a","system_id":"levelo_inurba_marseille","lat":43.26557,"lon":5.37294,"is_reserved":false,"is_disabled":true,"rental_uris":{"android":"levelo://app?vid=b7166d00-058e-4f8a-ac08-8d7664362d9a","ios":"levelo://app?vid=b7166d00-058e-4f8a-ac08-8d7664362d9a"},"vehicle_type_id":"4","last_reported":1777152421,"current_range_meters":8800,"station_id":"ce4bhg12rcd13ifvqf70","pricing_plan_id":"cebpf4jnsgd1na2vs0mg"},{"bike_id":"d782dfc4-caf2-41b3-955e-54342948ea4f","system_id":"levelo_inurba_marseille","lat":43.29262,"lon":5.38441,"is_reserved":false,"is_disabled":false,"rental_uris":{"android":"levelo://app?vid=d782dfc4-caf2-41b3-955e-54342948ea4f","ios":"levelo://app?vid=d782dfc4-caf2-41b3-955e-54342948ea4f"},"vehicle_type_id":"4","last_reported":1777152421,"current_range_meters":8800,"station_id":"ce4bh692rcd13ifvqea0","pricing_plan_id":"cebpf4jnsgd1na2vs0mg"},{"bike_id":"488bf401-74f7-4dcc-8384-b9d2ae512400","system_id":"levelo_inurba_marseille","lat":43.28002,"lon":5.38719,"is_reserved":false,"is_disabled":false,"rental_uris":{"android":"levelo://app?vid=488bf401-74f7-4dcc-8384-b9d2ae512400","ios":"levelo://app?vid=488bf401-74f7-4dcc-8384-b9d2ae512400"},"vehicle_type_id":"4","last_reported":1777152421,"current_range_meters":8800,"station_id":"ce4bhg12rcd13ifvqf80","pricing_plan_id":"cebpf4jnsgd1na2vs0mg"},{"bike_id":"833d7be3-421b-4c5f-bc44-1a51dc01aed7","system_id":"levelo_inurba_marseille","lat":43.29689,"lon":5.37281,"is_reserved":false,"is_disabled":true,"rental_uris":{"android":"levelo://app?vid=833d7be3-421b-4c5f-bc44-1a51dc01aed7","ios":"levelo://app?vid=833d7be3-421b-4c5f-bc44-1a51dc01aed7"},"vehicle_type_id":"4","last_reported":1777152421,"current_range_meters":8800,"station_id":"ce4bgk12rcd13ifvqbj0","pricing_plan_id":"cebpf4jnsgd1na2vs0mg"},{"bike_id":"5e2c924d-4925-4620-9644-807ef3bda283","system_id":"levelo_inurba_marseille","lat":43.31367,"lon":5.38492,"is_reserved":false,"is_disabled":false,"rental_uris":{"android":"levelo://app?vid=5e2c924d-4925-4620-9644-807ef3bda283","ios":"levelo://app?vid=5e2c924d-4925-4620-9644-807ef3bda283"},"vehicle_type_id":"4","last_reported":1777152421,"current_range_meters":8800,"station_id":"ce4bgt92rcd13ifvqcf0","pricing_plan_id":"cebpf4jnsgd1na2vs0mg"},{"bike_id":"c59be3d3-cf96-4d7a-8c29-fb9caa097bc9","system_id":"levelo_inurba_marseille","lat":43.30956,"lon":5.39036,"is_reserved":false,"is_disabled":false,"rental_uris":{"android":"levelo://app?vid=c59be3d3-cf96-4d7a-8c29-fb9caa097bc9","ios":"levelo://app?vid=c59be3d3-cf96-4d7a-8c29-fb9caa097bc9"},"vehicle_type_id":"4","last_reported":1777152421,"current_range_meters":8800,"station_id":"ce4bgup2rcd13ifvqco0","pricing_plan_id":"cebpf4jnsgd1na2vs0mg"},{"bike_id":"566d96b8-5e9f-424c-a211-21ad768be894","system_id":"levelo_inurba_marseille","lat":43.2853,"lon":5.44072,"is_reserved":false,"is_disabled":false,"rental_uris":{"android":"levelo://app?vid=566d96b8-5e9f-424c-a211-21ad768be894","ios":"levelo://app?vid=566d96b8-5e9f-424c-a211-21ad768be894"},"vehicle_type_id":"4","last_reported":1777152421,"current_range_meters":9200,"station_id":"st_d3j3df2ikq2c7380ej80","pricing_plan_id":"cebpf4jnsgd1na2vs0mg"},{"bike_id":"bee91535-8fd4-46d9-82b4-d1ffaa22017e","system_id":"levelo_inurba_marseille","lat":43.2836,"lon":5.38131,"is_reserved":false,"is_disabled":true,"rental_uris":{"android":"levelo://app?vid=bee91535-8fd4-46d9-82b4-d1ffaa22017e","ios":"levelo://app?vid=bee91535-8fd4-46d9-82b4-d1ffaa22017e"},"vehicle_type_id":"4","last_reported":1777152421,"current_range_meters":9200,"station_id":"ce4bh412rcd13ifvqdr0","pricing_plan_id":"cebpf4jnsgd1na2vs0mg"},{"bike_id":"d84dad1f-3355-427c-a81e-a3f872caa973","system_id":"levelo_inurba_marseille","lat":43.28707,"lon":5.46682,"is_reserved":false,"is_disabled":false,"rental_uris":{"android":"levelo://app?vid=d84dad1f-3355-427c-a81e-a3f872caa973","ios":"levelo://app?vid=d84dad1f-3355-427c-a81e-a3f872caa973"},"vehicle_type_id":"4","last_reported":1777152421,"current_range_meters":9200,"station_id":"st_d6tc3vkotcvc738tfjhg","pricing_plan_id":"cebpf4jnsgd1na2vs0mg"},{"bike_id":"f1986b7d-1c9a-4323-bf87-5e9576d20808","system_id":"levelo_inurba_marseille","lat":43.30947,"lon":5.3903,"is_reserved":false,"is_disabled":false,"rental_uris":{"android":"levelo://app?vid=f1986b7d-1c9a-4323-bf87-5e9576d20808","ios":"levelo://app?vid=f1986b7d-1c9a-4323-bf87-5e9576d20808"},"vehicle_type_id":"4","last_reported":1777152421,"current_range_meters":9200,"station_id":"ce4bgup2rcd13ifvqco0","pricing_plan_id":"cebpf4jnsgd1na2vs0mg"},{"bike_id":"26d26955-b302-4311-88a8-057f7b19117a","system_id":"levelo_inurba_marseille","lat":43.29652,"lon":5.36063,"is_reserved":false,"is_disabled":false,"rental_uris":{"android":"levelo://app?vid=26d26955-b302-4311-88a8-057f7b19117a","ios":"levelo://app?vid=26d26955-b302-4311-88a8-057f7b19117a"},"vehicle_type_id":"4","last_reported":1777152421,"current_range_meters":9200,"station_id":"","pricing_plan_id":"cebpf4jnsgd1na2vs0mg"},{"bike_id":"1fa7c290-baf4-43ed-aa99-7181dabef99e","system_id":"levelo_inurba_marseille","lat":43.33549,"lon":5.37457,"is_reserved":false,"is_disabled":false,"rental_uris":{"android":"levelo://app?vid=1fa7c290-baf4-43ed-aa99-7181dabef99e","ios":"levelo://app?vid=1fa7c290-baf4-43ed-aa99-7181dabef99e"},"vehicle_type_id":"4","last_reported":1777152421,"current_range_meters":9200,"station_id":"st_d46tts09ee8s73dlu43g","pricing_plan_id":"cebpf4jnsgd1na2vs0mg"},{"bike_id":"bb7e8b34-29dc-4233-a471-666210872040","system_id":"levelo_inurba_marseille","lat":43.28932,"lon":5.36631,"is_reserved":false,"is_disabled":true,"rental_uris":{"android":"levelo://app?vid=bb7e8b34-29dc-4233-a471-666210872040","ios":"levelo://app?vid=bb7e8b34-29dc-4233-a471-666210872040"},"vehicle_type_id":"4","last_reported":1777152421,"current_range_meters":9200,"station_id":"ce4bhap2rcd13ifvqek0","pricing_plan_id":"cebpf4jnsgd1na2vs0mg"},{"bike_id":"b88e78bf-d930-4595-a07d-749e043ddd96","system_id":"levelo_inurba_marseille","lat":43.31119,"lon":5.37757,"is_reserved":false,"is_disabled":false,"rental_uris":{"android":"levelo://app?vid=b88e78bf-d930-4595-a07d-749e043ddd96","ios":"levelo://app?vid=b88e78bf-d930-4595-a07d-749e043ddd96"},"vehicle_type_id":"4","last_reported":1777152421,"current_range_meters":9200,"station_id":"ce4bgt92rcd13ifvqcg0","pricing_plan_id":"cebpf4jnsgd1na2vs0mg"},{"bike_id":"20f503f9-18b5-45a4-99e5-ca711997be2b","system_id":"levelo_inurba_marseille","lat":43.29537,"lon":5.38539,"is_reserved":false,"is_disabled":false,"rental_uris":{"android":"levelo://app?vid=20f503f9-18b5-45a4-99e5-ca711997be2b","ios":"levelo://app?vid=20f503f9-18b5-45a4-99e5-ca711997be2b"},"vehicle_type_id":"4","last_reported":1777152421,"current_range_meters":9200,"station_id":"ce4bgih2rcd13ifvqba0","pricing_plan_id":"cebpf4jnsgd1na2vs0mg"},{"bike_id":"55e9dfb8-f7df-4d8f-b365-78d583eb7580","system_id":"levelo_inurba_marseille","lat":43.29313,"lon":5.37159,"is_reserved":false,"is_disabled":false,"rental_uris":{"android":"levelo://app?vid=55e9dfb8-f7df-4d8f-b365-78d583eb7580","ios":"levelo://app?vid=55e9dfb8-f7df-4d8f-b365-78d583eb7580"},"vehicle_type_id":"4","last_reported":1777152421,"current_range_meters":9200,"station_id":"ce4bgh92rcd13ifvqb40","pricing_plan_id":"cebpf4jnsgd1na2vs0mg"},{"bike_id":"1b29a20c-4f44-47dd-b788-8946c2e7b1b5","system_id":"levelo_inurba_marseille","lat":43.31197,"lon":5.38725,"is_reserved":false,"is_disabled":false,"rental_uris":{"android":"levelo://app?vid=1b29a20c-4f44-47dd-b788-8946c2e7b1b5","ios":"levelo://app?vid=1b29a20c-4f44-47dd-b788-8946c2e7b1b5"},"vehicle_type_id":"4","last_reported":1777152421,"current_range_meters":9200,"station_id":"ce4bgv12rcd13ifvqcp0","pricing_plan_id":"cebpf4jnsgd1na2vs0mg"},{"bike_id":"9a379160-5370-465d-860e-01e07373ee69","system_id":"levelo_inurba_marseille","lat":43.29521,"lon":5.38544,"is_reserved":false,"is_disabled":false,"rental_uris":{"android":"levelo://app?vid=9a379160-5370-465d-860e-01e07373ee69","ios":"levelo://app?vid=9a379160-5370-465d-860e-01e07373ee69"},"vehicle_type_id":"4","last_reported":1777152421,"current_range_meters":9200,"station_id":"ce4bgih2rcd13ifvqba0","pricing_plan_id":"cebpf4jnsgd1na2vs0mg"},{"bike_id":"a5d1c5f8-e551-41de-b7f3-a52119a1050b","system_id":"levelo_inurba_marseille","lat":43.27813,"lon":5.37453,"is_reserved":false,"is_disabled":false,"rental_uris":{"android":"levelo://app?vid=a5d1c5f8-e551-41de-b7f3-a52119a1050b","ios":"levelo://app?vid=a5d1c5f8-e551-41de-b7f3-a52119a1050b"},"vehicle_type_id":"4","last_reported":1777152421,"current_range_meters":9200,"station_id":"","pricing_plan_id":"cebpf4jnsgd1na2vs0mg"},{"bike_id":"b17c1ac0-f48c-400d-9117-104a71e5c6f7","system_id":"levelo_inurba_marseille","lat":43.29071,"lon":5.37089,"is_reserved":false,"is_disabled":false,"rental_uris":{"android":"levelo://app?vid=b17c1ac0-f48c-400d-9117-104a71e5c6f7","ios":"levelo://app?vid=b17c1ac0-f48c-400d-9117-104a71e5c6f7"},"vehicle_type_id":"4","last_reported":1777152421,"current_range_meters":9200,"station_id":"ce4bh5p2rcd13ifvqe4g","pricing_plan_id":"cebpf4jnsgd1na2vs0mg"},{"bike_id":"a8e6feee-20fc-4cb0-9f28-e27747009831","system_id":"levelo_inurba_marseille","lat":43.30945,"lon":5.3905,"is_reserved":false,"is_disabled":false,"rental_uris":{"android":"levelo://app?vid=a8e6feee-20fc-4cb0-9f28-e27747009831","ios":"levelo://app?vid=a8e6feee-20fc-4cb0-9f28-e27747009831"},"vehicle_type_id":"4","last_reported":1777152421,"current_range_meters":9200,"station_id":"ce4bgup2rcd13ifvqco0","pricing_plan_id":"cebpf4jnsgd1na2vs0mg"},{"bike_id":"9096d725-a365-4ad7-8ff9-a7f2a5190902","system_id":"levelo_inurba_marseille","lat":43.26941,"lon":5.38645,"is_reserved":false,"is_disabled":true,"rental_uris":{"android":"levelo://app?vid=9096d725-a365-4ad7-8ff9-a7f2a5190902","ios":"levelo://app?vid=9096d725-a365-4ad7-8ff9-a7f2a5190902"},"vehicle_type_id":"4","last_reported":1777152421,"current_range_meters":9200,"station_id":"ce4bhh92rcd13ifvqfh0","pricing_plan_id":"cebpf4jnsgd1na2vs0mg"},{"bike_id":"4b49ab9b-eeca-4117-b1e9-4b53277a58b0","system_id":"levelo_inurba_marseille","lat":43.232,"lon":5.35549,"is_reserved":false,"is_disabled":true,"rental_uris":{"android":"levelo://app?vid=4b49ab9b-eeca-4117-b1e9-4b53277a58b0","ios":"levelo://app?vid=4b49ab9b-eeca-4117-b1e9-4b53277a58b0"},"vehicle_type_id":"4","last_reported":1777152421,"current_range_meters":9200,"station_id":"ce4bhu92rcd13ifvqi70","pricing_plan_id":"cebpf4jnsgd1na2vs0mg"},{"bike_id":"ce656807-7275-418e-b16d-f10c6bd9c2f2","system_id":"levelo_inurba_marseille","lat":43.27578,"lon":5.38426,"is_reserved":false,"is_disabled":false,"rental_uris":{"android":"levelo://app?vid=ce656807-7275-418e-b16d-f10c6bd9c2f2","ios":"levelo://app?vid=ce656807-7275-418e-b16d-f10c6bd9c2f2"},"vehicle_type_id":"4","last_reported":1777152421,"current_range_meters":9200,"station_id":"ce4bhh92rcd13ifvqfi0","pricing_plan_id":"cebpf4jnsgd1na2vs0mg"},{"bike_id":"f7716b3d-5dc6-4c1f-94ea-dd8b69d23a22","system_id":"levelo_inurba_marseille","lat":43.27489,"lon":5.43542,"is_reserved":false,"is_disabled":false,"rental_uris":{"android":"levelo://app?vid=f7716b3d-5dc6-4c1f-94ea-dd8b69d23a22","ios":"levelo://app?vid=f7716b3d-5dc6-4c1f-94ea-dd8b69d23a22"},"vehicle_type_id":"4","last_reported":1777152421,"current_range_meters":9200,"station_id":"","pricing_plan_id":"cebpf4jnsgd1na2vs0mg"},{"bike_id":"da408a69-0042-4d19-a181-e69fb817a4c3","system_id":"levelo_inurba_marseille","lat":43.28406,"lon":5.37513,"is_reserved":false,"is_disabled":false,"rental_uris":{"android":"levelo://app?vid=da408a69-0042-4d19-a181-e69fb817a4c3","ios":"levelo://app?vid=da408a69-0042-4d19-a181-e69fb817a4c3"},"vehicle_type_id":"4","last_reported":1777152421,"current_range_meters":9200,"station_id":"ce4bh412rcd13ifvqds0","pricing_plan_id":"cebpf4jnsgd1na2vs0mg"},{"bike_id":"2adb3f11-4ac7-43c6-b235-f35a9f24ecb7","system_id":"levelo_inurba_marseille","lat":43.24812,"lon":5.37452,"is_reserved":false,"is_disabled":false,"rental_uris":{"android":"levelo://app?vid=2adb3f11-4ac7-43c6-b235-f35a9f24ecb7","ios":"levelo://app?vid=2adb3f11-4ac7-43c6-b235-f35a9f24ecb7"},"vehicle_type_id":"4","last_reported":1777152421,"current_range_meters":9200,"station_id":"ce4bhgh2rcd13ifvqfb0","pricing_plan_id":"cebpf4jnsgd1na2vs0mg"},{"bike_id":"80021212-dba6-417e-988a-d6d170a5b1df","system_id":"levelo_inurba_marseille","lat":43.29853,"lon":5.36282,"is_reserved":false,"is_disabled":false,"rental_uris":{"android":"levelo://app?vid=80021212-dba6-417e-988a-d6d170a5b1df","ios":"levelo://app?vid=80021212-dba6-417e-988a-d6d170a5b1df"},"vehicle_type_id":"4","last_reported":1777152421,"current_range_meters":9600,"station_id":"","pricing_plan_id":"cebpf4jnsgd1na2vs0mg"},{"bike_id":"9ed79d15-8163-4691-940c-f05eced27ce3","system_id":"levelo_inurba_marseille","lat":43.29551,"lon":5.39984,"is_reserved":false,"is_disabled":false,"rental_uris":{"android":"levelo://app?vid=9ed79d15-8163-4691-940c-f05eced27ce3","ios":"levelo://app?vid=9ed79d15-8163-4691-940c-f05eced27ce3"},"vehicle_type_id":"4","last_reported":1777152421,"current_range_meters":9600,"station_id":"ce4bh312rcd13ifvqdj0","pricing_plan_id":"cebpf4jnsgd1na2vs0mg"},{"bike_id":"494fd0fc-3b39-4504-a26b-321afbf22977","system_id":"levelo_inurba_marseille","lat":43.23859,"lon":5.38542,"is_reserved":false,"is_disabled":false,"rental_uris":{"android":"levelo://app?vid=494fd0fc-3b39-4504-a26b-321afbf22977","ios":"levelo://app?vid=494fd0fc-3b39-4504-a26b-321afbf22977"},