{"last_updated":1777413329,"ttl":60,"version":"2.2","data":{"bikes":[{"bike_id":"b0fc715f-4a35-4272-9e2a-b10f7b105dc9","system_id":"levelo_inurba_marseille","lat":43.29362,"lon":5.44548,"is_reserved":false,"is_disabled":false,"rental_uris":{"android":"levelo://app?vid=b0fc715f-4a35-4272-9e2a-b10f7b105dc9","ios":"levelo://app?vid=b0fc715f-4a35-4272-9e2a-b10f7b105dc9"},"vehicle_type_id":"4","last_reported":1777413330,"current_range_meters":2800,"station_id":"","pricing_plan_id":"cebpf4jnsgd1na2vs0mg"},{"bike_id":"da45e3de-d5ad-4586-b082-12d75f525406","system_id":"levelo_inurba_marseille","lat":43.32671,"lon":5.40988,"is_reserved":false,"is_disabled":false,"rental_uris":{"android":"levelo://app?vid=da45e3de-d5ad-4586-b082-12d75f525406","ios":"levelo://app?vid=da45e3de-d5ad-4586-b082-12d75f525406"},"vehicle_type_id":"4","last_reported":1777413330,"current_range_meters":2800,"station_id":"ce4bhpp2rcd13ifvqhgg","pricing_plan_id":"cebpf4jnsgd1na2vs0mg"},{"bike_id":"62928f4c-8098-451f-ba82-afa1cd7fcf62","system_id":"levelo_inurba_marseille","lat":43.31495,"lon":5.37307,"is_reserved":false,"is_disabled":false,"rental_uris":{"android":"levelo://app?vid=62928f4c-8098-451f-ba82-afa1cd7fcf62","ios":"levelo://app?vid=62928f4c-8098-451f-ba82-afa1cd7fcf62"},"vehicle_type_id":"4","last_reported":1777413330,"current_range_meters":2800,"station_id":"ce4bgt12rcd13ifvqcd0","pricing_plan_id":"cebpf4jnsgd1na2vs0mg"},{"bike_id":"4762e09b-59b8-41ab-9c32-7fa1853bb9b6","system_id":"levelo_inurba_marseille","lat":43.25471,"lon":5.41627,"is_reserved":false,"is_disabled":false,"rental_uris":{"android":"levelo://app?vid=4762e09b-59b8-41ab-9c32-7fa1853bb9b6","ios":"levelo://app?vid=4762e09b-59b8-41ab-9c32-7fa1853bb9b6"},"vehicle_type_id":"4","last_reported":1777413330,"current_range_meters":2800,"station_id":"","pricing_plan_id":"cebpf4jnsgd1na2vs0mg"},{"bike_id":"a7860fc9-f86a-49b2-9133-80ebae293c68","system_id":"levelo_inurba_marseille","lat":43.251051,"lon":5.403159,"is_reserved":false,"is_disabled":false,"rental_uris":{"android":"levelo://app?vid=a7860fc9-f86a-49b2-9133-80ebae293c68","ios":"levelo://app?vid=a7860fc9-f86a-49b2-9133-80ebae293c68"},"vehicle_type_id":"4","last_reported":1777413330,"current_range_meters":2800,"station_id":"ce4bhlh2rcd13ifvqgig","pricing_plan_id":"cebpf4jnsgd1na2vs0mg"},{"bike_id":"18cd8e51-dd4a-4686-a624-b5605e8c1286","system_id":"levelo_inurba_marseille","lat":43.29582,"lon":5.36671,"is_reserved":false,"is_disabled":true,"rental_uris":{"android":"levelo://app?vid=18cd8e51-dd4a-4686-a624-b5605e8c1286","ios":"levelo://app?vid=18cd8e51-dd4a-4686-a624-b5605e8c1286"},"vehicle_type_id":"4","last_reported":1777413330,"current_range_meters":3200,"station_id":"","pricing_plan_id":"cebpf4jnsgd1na2vs0mg"},{"bike_id":"f7883914-8a35-41a7-8add-6f343728cd33","system_id":"levelo_inurba_marseille","lat":43.2448,"lon":5.42531,"is_reserved":false,"is_disabled":false,"rental_uris":{"android":"levelo://app?vid=f7883914-8a35-41a7-8add-6f343728cd33","ios":"levelo://app?vid=f7883914-8a35-41a7-8add-6f343728cd33"},"vehicle_type_id":"4","last_reported":1777413330,"current_range_meters":3200,"station_id":"st_d4a3vfp97mjs738cd8kg","pricing_plan_id":"cebpf4jnsgd1na2vs0mg"},{"bike_id":"e2ddbd69-54a9-4195-b691-b17861f53caf","system_id":"levelo_inurba_marseille","lat":43.24806,"lon":5.37412,"is_reserved":false,"is_disabled":false,"rental_uris":{"android":"levelo://app?vid=e2ddbd69-54a9-4195-b691-b17861f53caf","ios":"levelo://app?vid=e2ddbd69-54a9-4195-b691-b17861f53caf"},"vehicle_type_id":"4","last_reported":1777413330,"current_range_meters":3200,"station_id":"ce4bhgh2rcd13ifvqfb0","pricing_plan_id":"cebpf4jnsgd1na2vs0mg"},{"bike_id":"8ac0bd5f-2f2a-4833-ada5-2e9beded5ddb","system_id":"levelo_inurba_marseille","lat":43.31496,"lon":5.39121,"is_reserved":false,"is_disabled":false,"rental_uris":{"android":"levelo://app?vid=8ac0bd5f-2f2a-4833-ada5-2e9beded5ddb","ios":"levelo://app?vid=8ac0bd5f-2f2a-4833-ada5-2e9beded5ddb"},"vehicle_type_id":"4","last_reported":1777413330,"current_range_meters":3200,"station_id":"","pricing_plan_id":"cebpf4jnsgd1na2vs0mg"},{"bike_id":"139ab125-3cce-4dc8-9b09-1fa656552044","system_id":"levelo_inurba_marseille","lat":43.25112,"lon":5.40322,"is_reserved":false,"is_disabled":false,"rental_uris":{"android":"levelo://app?vid=139ab125-3cce-4dc8-9b09-1fa656552044","ios":"levelo://app?vid=139ab125-3cce-4dc8-9b09-1fa656552044"},"vehicle_type_id":"4","last_reported":1777413330,"current_range_meters":3200,"station_id":"ce4bhlh2rcd13ifvqgig","pricing_plan_id":"cebpf4jnsgd1na2vs0mg"},{"bike_id":"1627e8c7-34e4-4fa7-9841-49a61eaf6bda","system_id":"levelo_inurba_marseille","lat":43.27921,"lon":5.39599,"is_reserved":false,"is_disabled":false,"rental_uris":{"android":"levelo://app?vid=1627e8c7-34e4-4fa7-9841-49a61eaf6bda","ios":"levelo://app?vid=1627e8c7-34e4-4fa7-9841-49a61eaf6bda"},"vehicle_type_id":"4","last_reported":1777413330,"current_range_meters":3200,"station_id":"ce4bhf92rcd13ifvqf40","pricing_plan_id":"cebpf4jnsgd1na2vs0mg"},{"bike_id":"b9500117-5a1d-4f32-8c19-77295f782f5b","system_id":"levelo_inurba_marseille","lat":43.29021,"lon":5.35602,"is_reserved":false,"is_disabled":false,"rental_uris":{"android":"levelo://app?vid=b9500117-5a1d-4f32-8c19-77295f782f5b","ios":"levelo://app?vid=b9500117-5a1d-4f32-8c19-77295f782f5b"},"vehicle_type_id":"4","last_reported":1777413330,"current_range_meters":3200,"station_id":"ce4bhb92rcd13ifvqen0","pricing_plan_id":"cebpf4jnsgd1na2vs0mg"},{"bike_id":"87cc790b-60cd-436a-82f4-3796eb0e0cc9","system_id":"levelo_inurba_marseille","lat":43.29165,"lon":5.43562,"is_reserved":false,"is_disabled":false,"rental_uris":{"android":"levelo://app?vid=87cc790b-60cd-436a-82f4-3796eb0e0cc9","ios":"levelo://app?vid=87cc790b-60cd-436a-82f4-3796eb0e0cc9"},"vehicle_type_id":"4","last_reported":1777413330,"current_range_meters":3200,"station_id":"","pricing_plan_id":"cebpf4jnsgd1na2vs0mg"},{"bike_id":"f447fec5-f118-42c2-be2c-8ef32b6d20a2","system_id":"levelo_inurba_marseille","lat":43.25963,"lon":5.41685,"is_reserved":false,"is_disabled":false,"rental_uris":{"android":"levelo://app?vid=f447fec5-f118-42c2-be2c-8ef32b6d20a2","ios":"levelo://app?vid=f447fec5-f118-42c2-be2c-8ef32b6d20a2"},"vehicle_type_id":"4","last_reported":1777413330,"current_range_meters":3600,"station_id":"","pricing_plan_id":"cebpf4jnsgd1na2vs0mg"},{"bike_id":"c36ccb79-3fa9-4437-b9ce-62330112ebf7","system_id":"levelo_inurba_marseille","lat":43.24818,"lon":5.37435,"is_reserved":false,"is_disabled":false,"rental_uris":{"android":"levelo://app?vid=c36ccb79-3fa9-4437-b9ce-62330112ebf7","ios":"levelo://app?vid=c36ccb79-3fa9-4437-b9ce-62330112ebf7"},"vehicle_type_id":"4","last_reported":1777413330,"current_range_meters":3600,"station_id":"ce4bhgh2rcd13ifvqfb0","pricing_plan_id":"cebpf4jnsgd1na2vs0mg"},{"bike_id":"14869599-ab60-4e86-8f2c-d0b35d29b95e","system_id":"levelo_inurba_marseille","lat":43.25619,"lon":5.41866,"is_reserved":false,"is_disabled":false,"rental_uris":{"android":"levelo://app?vid=14869599-ab60-4e86-8f2c-d0b35d29b95e","ios":"levelo://app?vid=14869599-ab60-4e86-8f2c-d0b35d29b95e"},"vehicle_type_id":"4","last_reported":1777413330,"current_range_meters":3600,"station_id":"","pricing_plan_id":"cebpf4jnsgd1na2vs0mg"},{"bike_id":"28c8fa8e-5903-4839-97e8-7f308c921d99","system_id":"levelo_inurba_marseille","lat":43.31758,"lon":5.39013,"is_reserved":false,"is_disabled":false,"rental_uris":{"android":"levelo://app?vid=28c8fa8e-5903-4839-97e8-7f308c921d99","ios":"levelo://app?vid=28c8fa8e-5903-4839-97e8-7f308c921d99"},"vehicle_type_id":"4","last_reported":1777413330,"current_range_meters":3600,"station_id":"ce4bhqp2rcd13ifvqhng","pricing_plan_id":"cebpf4jnsgd1na2vs0mg"},{"bike_id":"e5cd69c7-9379-4379-93b8-62cf25a54177","system_id":"levelo_inurba_marseille","lat":43.337497,"lon":5.374492,"is_reserved":false,"is_disabled":false,"rental_uris":{"android":"levelo://app?vid=e5cd69c7-9379-4379-93b8-62cf25a54177","ios":"levelo://app?vid=e5cd69c7-9379-4379-93b8-62cf25a54177"},"vehicle_type_id":"4","last_reported":1777413330,"current_range_meters":3600,"station_id":"","pricing_plan_id":"cebpf4jnsgd1na2vs0mg"},{"bike_id":"ac22394e-74ad-49d7-8ce2-7a9e4a1edbca","system_id":"levelo_inurba_marseille","lat":43.30125,"lon":5.43111,"is_reserved":false,"is_disabled":false,"rental_uris":{"android":"levelo://app?vid=ac22394e-74ad-49d7-8ce2-7a9e4a1edbca","ios":"levelo://app?vid=ac22394e-74ad-49d7-8ce2-7a9e4a1edbca"},"vehicle_type_id":"4","last_reported":1777413330,"current_range_meters":3600,"station_id":"st_d3js3co5814s73ftftug","pricing_plan_id":"cebpf4jnsgd1na2vs0mg"},{"bike_id":"61d474b4-ea3e-4a92-b855-ef28dc371f02","system_id":"levelo_inurba_marseille","lat":43.32055,"lon":5.41549,"is_reserved":false,"is_disabled":false,"rental_uris":{"android":"levelo://app?vid=61d474b4-ea3e-4a92-b855-ef28dc371f02","ios":"levelo://app?vid=61d474b4-ea3e-4a92-b855-ef28dc371f02"},"vehicle_type_id":"4","last_reported":1777413330,"current_range_meters":3600,"station_id":"ce4bhq92rcd13ifvqhkg","pricing_plan_id":"cebpf4jnsgd1na2vs0mg"},{"bike_id":"0ba5c473-448e-4959-962b-1ceda7557f74","system_id":"levelo_inurba_marseille","lat":43.29761,"lon":5.4276,"is_reserved":false,"is_disabled":true,"rental_uris":{"android":"levelo://app?vid=0ba5c473-448e-4959-962b-1ceda7557f74","ios":"levelo://app?vid=0ba5c473-448e-4959-962b-1ceda7557f74"},"vehicle_type_id":"4","last_reported":1777413330,"current_range_meters":3600,"station_id":"st_d3md5207bmas73dh9klg","pricing_plan_id":"cebpf4jnsgd1na2vs0mg"},{"bike_id":"c658f009-bae2-4ba4-a0cc-484db7ff8698","system_id":"levelo_inurba_marseille","lat":43.28234,"lon":5.40605,"is_reserved":false,"is_disabled":false,"rental_uris":{"android":"levelo://app?vid=c658f009-bae2-4ba4-a0cc-484db7ff8698","ios":"levelo://app?vid=c658f009-bae2-4ba4-a0cc-484db7ff8698"},"vehicle_type_id":"4","last_reported":1777413330,"current_range_meters":3600,"station_id":"","pricing_plan_id":"cebpf4jnsgd1na2vs0mg"},{"bike_id":"bd994e79-30c5-4529-a688-c995282e2a42","system_id":"levelo_inurba_marseille","lat":43.30255,"lon":5.40059,"is_reserved":false,"is_disabled":false,"rental_uris":{"android":"levelo://app?vid=bd994e79-30c5-4529-a688-c995282e2a42","ios":"levelo://app?vid=bd994e79-30c5-4529-a688-c995282e2a42"},"vehicle_type_id":"4","last_reported":1777413330,"current_range_meters":3600,"station_id":"ce4bgvh2rcd13ifvqcs0","pricing_plan_id":"cebpf4jnsgd1na2vs0mg"},{"bike_id":"a985dfeb-d4b1-4c2e-afbc-5933c3265e0b","system_id":"levelo_inurba_marseille","lat":43.2862,"lon":5.35102,"is_reserved":false,"is_disabled":false,"rental_uris":{"android":"levelo://app?vid=a985dfeb-d4b1-4c2e-afbc-5933c3265e0b","ios":"levelo://app?vid=a985dfeb-d4b1-4c2e-afbc-5933c3265e0b"},"vehicle_type_id":"4","last_reported":1777413330,"current_range_meters":4000,"station_id":"ce4bhch2rcd13ifvqeug","pricing_plan_id":"cebpf4jnsgd1na2vs0mg"},{"bike_id":"74929e98-c2e0-43cc-b447-0901251d01cb","system_id":"levelo_inurba_marseille","lat":43.2549,"lon":5.37677,"is_reserved":false,"is_disabled":true,"rental_uris":{"android":"levelo://app?vid=74929e98-c2e0-43cc-b447-0901251d01cb","ios":"levelo://app?vid=74929e98-c2e0-43cc-b447-0901251d01cb"},"vehicle_type_id":"4","last_reported":1777413330,"current_range_meters":4000,"station_id":"ce4bhh12rcd13ifvqff0","pricing_plan_id":"cebpf4jnsgd1na2vs0mg"},{"bike_id":"ced9ef8f-cc56-494d-a5d6-cc473fa1940f","system_id":"levelo_inurba_marseille","lat":43.2318,"lon":5.40008,"is_reserved":false,"is_disabled":false,"rental_uris":{"android":"levelo://app?vid=ced9ef8f-cc56-494d-a5d6-cc473fa1940f","ios":"levelo://app?vid=ced9ef8f-cc56-494d-a5d6-cc473fa1940f"},"vehicle_type_id":"4","last_reported":1777413330,"current_range_meters":4000,"station_id":"ce4bhn12rcd13ifvqgqg","pricing_plan_id":"cebpf4jnsgd1na2vs0mg"},{"bike_id":"cc68fed6-437b-4f02-934a-f8fb98275413","system_id":"levelo_inurba_marseille","lat":43.24784,"lon":5.37425,"is_reserved":false,"is_disabled":false,"rental_uris":{"android":"levelo://app?vid=cc68fed6-437b-4f02-934a-f8fb98275413","ios":"levelo://app?vid=cc68fed6-437b-4f02-934a-f8fb98275413"},"vehicle_type_id":"4","last_reported":1777413330,"current_range_meters":4000,"station_id":"ce4bhgh2rcd13ifvqfb0","pricing_plan_id":"cebpf4jnsgd1na2vs0mg"},{"bike_id":"d4a1637e-a775-45af-b60d-a5684440f967","system_id":"levelo_inurba_marseille","lat":43.31279,"lon":5.40174,"is_reserved":false,"is_disabled":false,"rental_uris":{"android":"levelo://app?vid=d4a1637e-a775-45af-b60d-a5684440f967","ios":"levelo://app?vid=d4a1637e-a775-45af-b60d-a5684440f967"},"vehicle_type_id":"4","last_reported":1777413330,"current_range_meters":4000,"station_id":"ce4bh092rcd13ifvqd30","pricing_plan_id":"cebpf4jnsgd1na2vs0mg"},{"bike_id":"18332f58-81f7-4eda-a375-56b548be15d5","system_id":"levelo_inurba_marseille","lat":43.30647,"lon":5.40092,"is_reserved":false,"is_disabled":false,"rental_uris":{"android":"levelo://app?vid=18332f58-81f7-4eda-a375-56b548be15d5","ios":"levelo://app?vid=18332f58-81f7-4eda-a375-56b548be15d5"},"vehicle_type_id":"4","last_reported":1777413330,"current_range_meters":4400,"station_id":"ce4bh112rcd13ifvqda0","pricing_plan_id":"cebpf4jnsgd1na2vs0mg"},{"bike_id":"1b179618-6ee8-445e-839f-c72e291e8e14","system_id":"levelo_inurba_marseille","lat":43.2944,"lon":5.39747,"is_reserved":false,"is_disabled":false,"rental_uris":{"android":"levelo://app?vid=1b179618-6ee8-445e-839f-c72e291e8e14","ios":"levelo://app?vid=1b179618-6ee8-445e-839f-c72e291e8e14"},"vehicle_type_id":"4","last_reported":1777413330,"current_range_meters":4400,"station_id":"ce4bh3h2rcd13ifvqdo0","pricing_plan_id":"cebpf4jnsgd1na2vs0mg"},{"bike_id":"04e12462-8d7e-420c-a899-3da03ebacc10","system_id":"levelo_inurba_marseille","lat":43.28944,"lon":5.36622,"is_reserved":false,"is_disabled":false,"rental_uris":{"android":"levelo://app?vid=04e12462-8d7e-420c-a899-3da03ebacc10","ios":"levelo://app?vid=04e12462-8d7e-420c-a899-3da03ebacc10"},"vehicle_type_id":"4","last_reported":1777413330,"current_range_meters":4400,"station_id":"ce4bhap2rcd13ifvqek0","pricing_plan_id":"cebpf4jnsgd1na2vs0mg"},{"bike_id":"4a0c3f88-7d02-4319-82cb-95be064595bb","system_id":"levelo_inurba_marseille","lat":43.29489,"lon":5.43298,"is_reserved":false,"is_disabled":false,"rental_uris":{"android":"levelo://app?vid=4a0c3f88-7d02-4319-82cb-95be064595bb","ios":"levelo://app?vid=4a0c3f88-7d02-4319-82cb-95be064595bb"},"vehicle_type_id":"4","last_reported":1777413330,"current_range_meters":4400,"station_id":"st_d3j5ugp08ojc73fj9d10","pricing_plan_id":"cebpf4jnsgd1na2vs0mg"},{"bike_id":"b7b9a583-86eb-40d9-b9c4-c333feceb670","system_id":"levelo_inurba_marseille","lat":43.30134,"lon":5.38769,"is_reserved":false,"is_disabled":true,"rental_uris":{"android":"levelo://app?vid=b7b9a583-86eb-40d9-b9c4-c333feceb670","ios":"levelo://app?vid=b7b9a583-86eb-40d9-b9c4-c333feceb670"},"vehicle_type_id":"4","last_reported":1777413330,"current_range_meters":4400,"station_id":"ce4bghh2rcd13ifvqb60","pricing_plan_id":"cebpf4jnsgd1na2vs0mg"},{"bike_id":"ae987c10-ec52-4089-8ab4-892c787c36e9","system_id":"levelo_inurba_marseille","lat":43.26229,"lon":5.38755,"is_reserved":false,"is_disabled":true,"rental_uris":{"android":"levelo://app?vid=ae987c10-ec52-4089-8ab4-892c787c36e9","ios":"levelo://app?vid=ae987c10-ec52-4089-8ab4-892c787c36e9"},"vehicle_type_id":"4","last_reported":1777413330,"current_range_meters":4400,"station_id":"","pricing_plan_id":"cebpf4jnsgd1na2vs0mg"},{"bike_id":"f6ebec0c-6132-4184-b4b4-5ef9d4d7f62b","system_id":"levelo_inurba_marseille","lat":43.286632,"lon":5.363589,"is_reserved":false,"is_disabled":false,"rental_uris":{"android":"levelo://app?vid=f6ebec0c-6132-4184-b4b4-5ef9d4d7f62b","ios":"levelo://app?vid=f6ebec0c-6132-4184-b4b4-5ef9d4d7f62b"},"vehicle_type_id":"4","last_reported":1777413330,"current_range_meters":4400,"station_id":"ce4bhah2rcd13ifvqej0","pricing_plan_id":"cebpf4jnsgd1na2vs0mg"},{"bike_id":"bb14d922-2204-4233-9a92-1ff7406803cf","system_id":"levelo_inurba_marseille","lat":43.28459,"lon":5.35869,"is_reserved":false,"is_disabled":false,"rental_uris":{"android":"levelo://app?vid=bb14d922-2204-4233-9a92-1ff7406803cf","ios":"levelo://app?vid=bb14d922-2204-4233-9a92-1ff7406803cf"},"vehicle_type_id":"4","last_reported":1777413330,"current_range_meters":4400,"station_id":"ce4bhah2rcd13ifvqei0","pricing_plan_id":"cebpf4jnsgd1na2vs0mg"},{"bike_id":"ccc21232-3417-4b2c-9ffd-38a28d0cebe2","system_id":"levelo_inurba_marseille","lat":43.29045,"lon":5.37572,"is_reserved":false,"is_disabled":false,"rental_uris":{"android":"levelo://app?vid=ccc21232-3417-4b2c-9ffd-38a28d0cebe2","ios":"levelo://app?vid=ccc21232-3417-4b2c-9ffd-38a28d0cebe2"},"vehicle_type_id":"4","last_reported":1777413330,"current_range_meters":4800,"station_id":"ce4bh692rcd13ifvqe90","pricing_plan_id":"cebpf4jnsgd1na2vs0mg"},{"bike_id":"f28956fb-b430-439e-95c9-b3413e830f4d","system_id":"levelo_inurba_marseille","lat":43.2466,"lon":5.38159,"is_reserved":false,"is_disabled":false,"rental_uris":{"android":"levelo://app?vid=f28956fb-b430-439e-95c9-b3413e830f4d","ios":"levelo://app?vid=f28956fb-b430-439e-95c9-b3413e830f4d"},"vehicle_type_id":"4","last_reported":1777413330,"current_range_meters":4800,"station_id":"ce4bhih2rcd13ifvqfr0","pricing_plan_id":"cebpf4jnsgd1na2vs0mg"},{"bike_id":"2096ee48-f326-404a-abdb-d88acfa8683f","system_id":"levelo_inurba_marseille","lat":43.25114,"lon":5.4032,"is_reserved":false,"is_disabled":false,"rental_uris":{"android":"levelo://app?vid=2096ee48-f326-404a-abdb-d88acfa8683f","ios":"levelo://app?vid=2096ee48-f326-404a-abdb-d88acfa8683f"},"vehicle_type_id":"4","last_reported":1777413330,"current_range_meters":4800,"station_id":"ce4bhlh2rcd13ifvqgig","pricing_plan_id":"cebpf4jnsgd1na2vs0mg"},{"bike_id":"2b2662f1-d28b-44f2-b2c8-61c6569e4c3d","system_id":"levelo_inurba_marseille","lat":43.29254,"lon":5.4014,"is_reserved":false,"is_disabled":true,"rental_uris":{"android":"levelo://app?vid=2b2662f1-d28b-44f2-b2c8-61c6569e4c3d","ios":"levelo://app?vid=2b2662f1-d28b-44f2-b2c8-61c6569e4c3d"},"vehicle_type_id":"4","last_reported":1777413330,"current_range_meters":4800,"station_id":"ce4bh312rcd13ifvqdk0","pricing_plan_id":"cebpf4jnsgd1na2vs0mg"},{"bike_id":"5dd1d47f-e52c-4fb9-9ce9-571b6fdfd5e9","system_id":"levelo_inurba_marseille","lat":43.32007,"lon":5.38129,"is_reserved":false,"is_disabled":false,"rental_uris":{"android":"levelo://app?vid=5dd1d47f-e52c-4fb9-9ce9-571b6fdfd5e9","ios":"levelo://app?vid=5dd1d47f-e52c-4fb9-9ce9-571b6fdfd5e9"},"vehicle_type_id":"4","last_reported":1777413330,"current_range_meters":4800,"station_id":"ce4bhr12rcd13ifvqhpg","pricing_plan_id":"cebpf4jnsgd1na2vs0mg"},{"bike_id":"afde96ac-1493-4085-af72-e5da568a87fd","system_id":"levelo_inurba_marseille","lat":43.28491,"lon":5.48379,"is_reserved":false,"is_disabled":false,"rental_uris":{"android":"levelo://app?vid=afde96ac-1493-4085-af72-e5da568a87fd","ios":"levelo://app?vid=afde96ac-1493-4085-af72-e5da568a87fd"},"vehicle_type_id":"4","last_reported":1777413330,"current_range_meters":4800,"station_id":"st_d3svhcjqgbts73a3dn0g","pricing_plan_id":"cebpf4jnsgd1na2vs0mg"},{"bike_id":"dc4f256b-dad1-4b0e-b0aa-70815278bacb","system_id":"levelo_inurba_marseille","lat":43.28967,"lon":5.39318,"is_reserved":false,"is_disabled":false,"rental_uris":{"android":"levelo://app?vid=dc4f256b-dad1-4b0e-b0aa-70815278bacb","ios":"levelo://app?vid=dc4f256b-dad1-4b0e-b0aa-70815278bacb"},"vehicle_type_id":"4","last_reported":1777413330,"current_range_meters":4800,"station_id":"","pricing_plan_id":"cebpf4jnsgd1na2vs0mg"},{"bike_id":"37888167-35f6-4373-8d98-504db35dd984","system_id":"levelo_inurba_marseille","lat":43.28044,"lon":5.3694,"is_reserved":false,"is_disabled":false,"rental_uris":{"android":"levelo://app?vid=37888167-35f6-4373-8d98-504db35dd984","ios":"levelo://app?vid=37888167-35f6-4373-8d98-504db35dd984"},"vehicle_type_id":"4","last_reported":1777413330,"current_range_meters":4800,"station_id":"ce4bha12rcd13ifvqef0","pricing_plan_id":"cebpf4jnsgd1na2vs0mg"},{"bike_id":"3eea26ba-fc00-43b5-9592-4e9eca827077","system_id":"levelo_inurba_marseille","lat":43.30362,"lon":5.41877,"is_reserved":false,"is_disabled":false,"rental_uris":{"android":"levelo://app?vid=3eea26ba-fc00-43b5-9592-4e9eca827077","ios":"levelo://app?vid=3eea26ba-fc00-43b5-9592-4e9eca827077"},"vehicle_type_id":"4","last_reported":1777413330,"current_range_meters":4800,"station_id":"ce4bhop2rcd13ifvqh7g","pricing_plan_id":"cebpf4jnsgd1na2vs0mg"},{"bike_id":"5367fafd-42a5-4c52-bd35-5d85953af91c","system_id":"levelo_inurba_marseille","lat":43.3145,"lon":5.37379,"is_reserved":false,"is_disabled":true,"rental_uris":{"android":"levelo://app?vid=5367fafd-42a5-4c52-bd35-5d85953af91c","ios":"levelo://app?vid=5367fafd-42a5-4c52-bd35-5d85953af91c"},"vehicle_type_id":"4","last_reported":1777413330,"current_range_meters":5600,"station_id":"","pricing_plan_id":"cebpf4jnsgd1na2vs0mg"},{"bike_id":"27cd71a7-0940-4415-a67f-21597fbf1cd9","system_id":"levelo_inurba_marseille","lat":43.34534,"lon":5.37787,"is_reserved":false,"is_disabled":true,"rental_uris":{"android":"levelo://app?vid=27cd71a7-0940-4415-a67f-21597fbf1cd9","ios":"levelo://app?vid=27cd71a7-0940-4415-a67f-21597fbf1cd9"},"vehicle_type_id":"4","last_reported":1777413330,"current_range_meters":5600,"station_id":"","pricing_plan_id":"cebpf4jnsgd1na2vs0mg"},{"bike_id":"94b1d427-102e-4c64-aa76-0c93e226150f","system_id":"levelo_inurba_marseille","lat":43.28474,"lon":5.484,"is_reserved":false,"is_disabled":false,"rental_uris":{"android":"levelo://app?vid=94b1d427-102e-4c64-aa76-0c93e226150f","ios":"levelo://app?vid=94b1d427-102e-4c64-aa76-0c93e226150f"},"vehicle_type_id":"4","last_reported":1777413330,"current_range_meters":5600,"station_id":"st_d3svhcjqgbts73a3dn0g","pricing_plan_id":"cebpf4jnsgd1na2vs0mg"},{"bike_id":"bdf457fa-3aa5-4438-906e-72d136f86bcb","system_id":"levelo_inurba_marseille","lat":43.31061,"lon":5.37177,"is_reserved":false,"is_disabled":false,"rental_uris":{"android":"levelo://app?vid=bdf457fa-3aa5-4438-906e-72d136f86bcb","ios":"levelo://app?vid=bdf457fa-3aa5-4438-906e-72d136f86bcb"},"vehicle_type_id":"4","last_reported":1777413330,"current_range_meters":5600,"station_id":"st_d4kl2rp97mjs73e7tdfg","pricing_plan_id":"cebpf4jnsgd1na2vs0mg"},{"bike_id":"ec248166-4493-4f0c-97f2-9f8af3538b8d","system_id":"levelo_inurba_marseille","lat":43.29731,"lon":5.36586,"is_reserved":false,"is_disabled":false,"rental_uris":{"android":"levelo://app?vid=ec248166-4493-4f0c-97f2-9f8af3538b8d","ios":"levelo://app?vid=ec248166-4493-4f0c-97f2-9f8af3538b8d"},"vehicle_type_id":"4","last_reported":1777413330,"current_range_meters":5600,"station_id":"ce4bgn12rcd13ifvqbt0","pricing_plan_id":"cebpf4jnsgd1na2vs0mg"},{"bike_id":"7fe95aa7-d496-427a-8c95-ca07d89d28d7","system_id":"levelo_inurba_marseille","lat":43.24952,"lon":5.4049,"is_reserved":false,"is_disabled":false,"rental_uris":{"android":"levelo://app?vid=7fe95aa7-d496-427a-8c95-ca07d89d28d7","ios":"levelo://app?vid=7fe95aa7-d496-427a-8c95-ca07d89d28d7"},"vehicle_type_id":"4","last_reported":1777413330,"current_range_meters":5600,"station_id":"st_d2ngiaodas8pm72gd1h0","pricing_plan_id":"cebpf4jnsgd1na2vs0mg"},{"bike_id":"61381c34-ecbf-4530-a99e-914a6e7ef9de","system_id":"levelo_inurba_marseille","lat":43.30936,"lon":5.4013,"is_reserved":false,"is_disabled":false,"rental_uris":{"android":"levelo://app?vid=61381c34-ecbf-4530-a99e-914a6e7ef9de","ios":"levelo://app?vid=61381c34-ecbf-4530-a99e-914a6e7ef9de"},"vehicle_type_id":"4","last_reported":1777413330,"current_range_meters":5600,"station_id":"ce4bgvp2rcd13ifvqct0","pricing_plan_id":"cebpf4jnsgd1na2vs0mg"},{"bike_id":"987eda33-b3ad-4fac-a63c-0e3ff496e921","system_id":"levelo_inurba_marseille","lat":43.32364,"lon":5.36748,"is_reserved":false,"is_disabled":false,"rental_uris":{"android":"levelo://app?vid=987eda33-b3ad-4fac-a63c-0e3ff496e921","ios":"levelo://app?vid=987eda33-b3ad-4fac-a63c-0e3ff496e921"},"vehicle_type_id":"4","last_reported":1777413330,"current_range_meters":5600,"station_id":"ce4bhsh2rcd13ifvqi2g","pricing_plan_id":"cebpf4jnsgd1na2vs0mg"},{"bike_id":"92b0e79d-5118-4cdc-a154-ad1d52d847b8","system_id":"levelo_inurba_marseille","lat":43.29608,"lon":5.36065,"is_reserved":false,"is_disabled":false,"rental_uris":{"android":"levelo://app?vid=92b0e79d-5118-4cdc-a154-ad1d52d847b8","ios":"levelo://app?vid=92b0e79d-5118-4cdc-a154-ad1d52d847b8"},"vehicle_type_id":"4","last_reported":1777413330,"current_range_meters":5600,"station_id":"","pricing_plan_id":"cebpf4jnsgd1na2vs0mg"},{"bike_id":"2f6eb83e-be0e-45c8-babd-e734747c077f","system_id":"levelo_inurba_marseille","lat":43.29008,"lon":5.35607,"is_reserved":false,"is_disabled":false,"rental_uris":{"android":"levelo://app?vid=2f6eb83e-be0e-45c8-babd-e734747c077f","ios":"levelo://app?vid=2f6eb83e-be0e-45c8-babd-e734747c077f"},"vehicle_type_id":"4","last_reported":1777413330,"current_range_meters":5600,"station_id":"ce4bhb92rcd13ifvqen0","pricing_plan_id":"cebpf4jnsgd1na2vs0mg"},{"bike_id":"eec401be-82ad-4f63-b0db-33abd6b577d0","system_id":"levelo_inurba_marseille","lat":43.3013,"lon":5.43116,"is_reserved":false,"is_disabled":false,"rental_uris":{"android":"levelo://app?vid=eec401be-82ad-4f63-b0db-33abd6b577d0","ios":"levelo://app?vid=eec401be-82ad-4f63-b0db-33abd6b577d0"},"vehicle_type_id":"4","last_reported":1777413330,"current_range_meters":5600,"station_id":"st_d3js3co5814s73ftftug","pricing_plan_id":"cebpf4jnsgd1na2vs0mg"},{"bike_id":"33910e7c-efbd-45e2-adb8-47a6f5b3834b","system_id":"levelo_inurba_marseille","lat":43.26225,"lon":5.40426,"is_reserved":false,"is_disabled":false,"rental_uris":{"android":"levelo://app?vid=33910e7c-efbd-45e2-adb8-47a6f5b3834b","ios":"levelo://app?vid=33910e7c-efbd-45e2-adb8-47a6f5b3834b"},"vehicle_type_id":"4","last_reported":1777413330,"current_range_meters":5600,"station_id":"ce4bhmh2rcd13ifvqgmg","pricing_plan_id":"cebpf4jnsgd1na2vs0mg"},{"bike_id":"31cd8ed9-e8f2-45cd-be7c-f8860664bfd2","system_id":"levelo_inurba_marseille","lat":43.30608,"lon":5.37183,"is_reserved":false,"is_disabled":false,"rental_uris":{"android":"levelo://app?vid=31cd8ed9-e8f2-45cd-be7c-f8860664bfd2","ios":"levelo://app?vid=31cd8ed9-e8f2-45cd-be7c-f8860664bfd2"},"vehicle_type_id":"4","last_reported":1777413330,"current_range_meters":6000,"station_id":"ce4bgqh2rcd13ifvqc4g","pricing_plan_id":"cebpf4jnsgd1na2vs0mg"},{"bike_id":"591f6c8b-3d34-4d3b-b1b2-c443b79414b9","system_id":"levelo_inurba_marseille","lat":43.28975,"lon":5.3664,"is_reserved":false,"is_disabled":false,"rental_uris":{"android":"levelo://app?vid=591f6c8b-3d34-4d3b-b1b2-c443b79414b9","ios":"levelo://app?vid=591f6c8b-3d34-4d3b-b1b2-c443b79414b9"},"vehicle_type_id":"4","last_reported":1777413330,"current_range_meters":6000,"station_id":"","pricing_plan_id":"cebpf4jnsgd1na2vs0mg"},{"bike_id":"40d58886-f9c3-4163-8c06-ee6310545b15","system_id":"levelo_inurba_marseille","lat":43.2953,"lon":5.3904,"is_reserved":false,"is_disabled":false,"rental_uris":{"android":"levelo://app?vid=40d58886-f9c3-4163-8c06-ee6310545b15","ios":"levelo://app?vid=40d58886-f9c3-4163-8c06-ee6310545b15"},"vehicle_type_id":"4","last_reported":1777413330,"current_range_meters":6000,"station_id":"ce4bh3p2rcd13ifvqdp0","pricing_plan_id":"cebpf4jnsgd1na2vs0mg"},{"bike_id":"d2276d1c-4dd8-4805-b674-72347073e05f","system_id":"levelo_inurba_marseille","lat":43.28871,"lon":5.42518,"is_reserved":false,"is_disabled":false,"rental_uris":{"android":"levelo://app?vid=d2276d1c-4dd8-4805-b674-72347073e05f","ios":"levelo://app?vid=d2276d1c-4dd8-4805-b674-72347073e05f"},"vehicle_type_id":"4","last_reported":1777413330,"current_range_meters":6000,"station_id":"st_d3b462108ojc7389ooeg","pricing_plan_id":"cebpf4jnsgd1na2vs0mg"},{"bike_id":"6c9e3478-c8a0-478e-a75b-8210e99a855c","system_id":"levelo_inurba_marseille","lat":43.28554,"lon":5.39503,"is_reserved":false,"is_disabled":false,"rental_uris":{"android":"levelo://app?vid=6c9e3478-c8a0-478e-a75b-8210e99a855c","ios":"levelo://app?vid=6c9e3478-c8a0-478e-a75b-8210e99a855c"},"vehicle_type_id":"4","last_reported":1777413330,"current_range_meters":6000,"station_id":"ce4bh292rcd13ifvqdg0","pricing_plan_id":"cebpf4jnsgd1na2vs0mg"},{"bike_id":"c1147df9-36e6-4a23-aaa8-3a6820abcf8d","system_id":"levelo_inurba_marseille","lat":43.2495,"lon":5.40486,"is_reserved":false,"is_disabled":false,"rental_uris":{"android":"levelo://app?vid=c1147df9-36e6-4a23-aaa8-3a6820abcf8d","ios":"levelo://app?vid=c1147df9-36e6-4a23-aaa8-3a6820abcf8d"},"vehicle_type_id":"4","last_reported":1777413330,"current_range_meters":6000,"station_id":"st_d2ngiaodas8pm72gd1h0","pricing_plan_id":"cebpf4jnsgd1na2vs0mg"},{"bike_id":"a1bc6aec-32eb-4ed7-95ac-b3fcbe6dcbe6","system_id":"levelo_inurba_marseille","lat":43.25099,"lon":5.4029,"is_reserved":false,"is_disabled":false,"rental_uris":{"android":"levelo://app?vid=a1bc6aec-32eb-4ed7-95ac-b3fcbe6dcbe6","ios":"levelo://app?vid=a1bc6aec-32eb-4ed7-95ac-b3fcbe6dcbe6"},"vehicle_type_id":"4","last_reported":1777413330,"current_range_meters":6000,"station_id":"ce4bhlh2rcd13ifvqgig","pricing_plan_id":"cebpf4jnsgd1na2vs0mg"},{"bike_id":"8b4e6bd3-1e82-4277-a45a-3a8abaa4e3ab","system_id":"levelo_inurba_marseille","lat":43.28488,"lon":5.48368,"is_reserved":false,"is_disabled":false,"rental_uris":{"android":"levelo://app?vid=8b4e6bd3-1e82-4277-a45a-3a8abaa4e3ab","ios":"levelo://app?vid=8b4e6bd3-1e82-4277-a45a-3a8abaa4e3ab"},"vehicle_type_id":"4","last_reported":1777413330,"current_range_meters":6000,"station_id":"","pricing_plan_id":"cebpf4jnsgd1na2vs0mg"},{"bike_id":"cf144bc9-5663-4f27-a7b2-bf9f2ef3a31c","system_id":"levelo_inurba_marseille","lat":43.30887,"lon":5.39654,"is_reserved":false,"is_disabled":false,"rental_uris":{"android":"levelo://app?vid=cf144bc9-5663-4f27-a7b2-bf9f2ef3a31c","ios":"levelo://app?vid=cf144bc9-5663-4f27-a7b2-bf9f2ef3a31c"},"vehicle_type_id":"4","last_reported":1777413330,"current_range_meters":6000,"station_id":"ce4bh012rcd13ifvqcv0","pricing_plan_id":"cebpf4jnsgd1na2vs0mg"},{"bike_id":"a73bfeef-4213-427d-af18-4a5d4cb8ea49","system_id":"levelo_inurba_marseille","lat":43.29524,"lon":5.38533,"is_reserved":false,"is_disabled":false,"rental_uris":{"android":"levelo://app?vid=a73bfeef-4213-427d-af18-4a5d4cb8ea49","ios":"levelo://app?vid=a73bfeef-4213-427d-af18-4a5d4cb8ea49"},"vehicle_type_id":"4","last_reported":1777413330,"current_range_meters":6000,"station_id":"ce4bgih2rcd13ifvqba0","pricing_plan_id":"cebpf4jnsgd1na2vs0mg"},{"bike_id":"4aaef327-8f47-4a1e-af20-362a0536f0bb","system_id":"levelo_inurba_marseille","lat":43.2884,"lon":5.39318,"is_reserved":false,"is_disabled":false,"rental_uris":{"android":"levelo://app?vid=4aaef327-8f47-4a1e-af20-362a0536f0bb","ios":"levelo://app?vid=4aaef327-8f47-4a1e-af20-362a0536f0bb"},"vehicle_type_id":"4","last_reported":1777413330,"current_range_meters":6000,"station_id":"ce4bh2p2rcd13ifvqdi0","pricing_plan_id":"cebpf4jnsgd1na2vs0mg"},{"bike_id":"c1fdc55c-a85b-4b94-b56b-911a03a5712c","system_id":"levelo_inurba_marseille","lat":43.27425,"lon":5.39416,"is_reserved":false,"is_disabled":true,"rental_uris":{"android":"levelo://app?vid=c1fdc55c-a85b-4b94-b56b-911a03a5712c","ios":"levelo://app?vid=c1fdc55c-a85b-4b94-b56b-911a03a5712c"},"vehicle_type_id":"4","last_reported":1777413330,"current_range_meters":6400,"station_id":"ce4bhdp2rcd13ifvqf20","pricing_plan_id":"cebpf4jnsgd1na2vs0mg"},{"bike_id":"6c105401-d057-4b6f-a53e-ebd13a27c00d","system_id":"levelo_inurba_marseille","lat":43.2978,"lon":5.39346,"is_reserved":false,"is_disabled":false,"rental_uris":{"android":"levelo://app?vid=6c105401-d057-4b6f-a53e-ebd13a27c00d","ios":"levelo://app?vid=6c105401-d057-4b6f-a53e-ebd13a27c00d"},"vehicle_type_id":"4","last_reported":1777413330,"current_range_meters":6400,"station_id":"chh1huq6cuj3fo74tm60","pricing_plan_id":"cebpf4jnsgd1na2vs0mg"},{"bike_id":"bcd67e65-43b0-4b23-bb5c-0bdd7484ac57","system_id":"levelo_inurba_marseille","lat":43.33173,"lon":5.37785,"is_reserved":false,"is_disabled":false,"rental_uris":{"android":"levelo://app?vid=bcd67e65-43b0-4b23-bb5c-0bdd7484ac57","ios":"levelo://app?vid=bcd67e65-43b0-4b23-bb5c-0bdd7484ac57"},"vehicle_type_id":"4","last_reported":1777413330,"current_range_meters":6400,"station_id":"","pricing_plan_id":"cebpf4jnsgd1na2vs0mg"},{"bike_id":"483d7726-c1a7-45cb-91b4-0864cc4af5d2","system_id":"levelo_inurba_marseille","lat":43.26826,"lon":5.39659,"is_reserved":false,"is_disabled":false,"rental_uris":{"android":"levelo://app?vid=483d7726-c1a7-45cb-91b4-0864cc4af5d2","ios":"levelo://app?vid=483d7726-c1a7-45cb-91b4-0864cc4af5d2"},"vehicle_type_id":"4","last_reported":1777413330,"current_range_meters":6400,"station_id":"","pricing_plan_id":"cebpf4jnsgd1na2vs0mg"},{"bike_id":"72c4ccb8-9c06-4f24-9811-df6eccbecf29","system_id":"levelo_inurba_marseille","lat":43.24964,"lon":5.40492,"is_reserved":false,"is_disabled":false,"rental_uris":{"android":"levelo://app?vid=72c4ccb8-9c06-4f24-9811-df6eccbecf29","ios":"levelo://app?vid=72c4ccb8-9c06-4f24-9811-df6eccbecf29"},"vehicle_type_id":"4","last_reported":1777413330,"current_range_meters":6400,"station_id":"st_d2ngiaodas8pm72gd1h0","pricing_plan_id":"cebpf4jnsgd1na2vs0mg"},{"bike_id":"1bf6bc57-f8be-4912-882e-8fb7d21ff70a","system_id":"levelo_inurba_marseille","lat":43.28932,"lon":5.38361,"is_reserved":false,"is_disabled":true,"rental_uris":{"android":"levelo://app?vid=1bf6bc57-f8be-4912-882e-8fb7d21ff70a","ios":"levelo://app?vid=1bf6bc57-f8be-4912-882e-8fb7d21ff70a"},"vehicle_type_id":"4","last_reported":1777413330,"current_range_meters":6400,"station_id":"ce4bh612rcd13ifvqe6g","pricing_plan_id":"cebpf4jnsgd1na2vs0mg"},{"bike_id":"963ad63d-bb00-4266-b1cc-ea4a169ad0ab","system_id":"levelo_inurba_marseille","lat":43.23181,"lon":5.39987,"is_reserved":false,"is_disabled":false,"rental_uris":{"android":"levelo://app?vid=963ad63d-bb00-4266-b1cc-ea4a169ad0ab","ios":"levelo://app?vid=963ad63d-bb00-4266-b1cc-ea4a169ad0ab"},"vehicle_type_id":"4","last_reported":1777413330,"current_range_meters":6400,"station_id":"ce4bhn12rcd13ifvqgqg","pricing_plan_id":"cebpf4jnsgd1na2vs0mg"},{"bike_id":"caf769a5-cf49-4920-ba8e-464de389b8d9","system_id":"levelo_inurba_marseille","lat":43.31355,"lon":5.38479,"is_reserved":false,"is_disabled":false,"rental_uris":{"android":"levelo://app?vid=caf769a5-cf49-4920-ba8e-464de389b8d9","ios":"levelo://app?vid=caf769a5-cf49-4920-ba8e-464de389b8d9"},"vehicle_type_id":"4","last_reported":1777413330,"current_range_meters":6400,"station_id":"ce4bgt92rcd13ifvqcf0","pricing_plan_id":"cebpf4jnsgd1na2vs0mg"},{"bike_id":"f95871d4-60e9-45b7-92ae-ea38e312f818","system_id":"levelo_inurba_marseille","lat":43.29531,"lon":5.3854,"is_reserved":false,"is_disabled":false,"rental_uris":{"android":"levelo://app?vid=f95871d4-60e9-45b7-92ae-ea38e312f818","ios":"levelo://app?vid=f95871d4-60e9-45b7-92ae-ea38e312f818"},"vehicle_type_id":"4","last_reported":1777413330,"current_range_meters":6400,"station_id":"ce4bgih2rcd13ifvqba0","pricing_plan_id":"cebpf4jnsgd1na2vs0mg"},{"bike_id":"76907408-a8ff-4688-9cbf-66e48bb415e8","system_id":"levelo_inurba_marseille","lat":43.28721,"lon":5.46674,"is_reserved":false,"is_disabled":false,"rental_uris":{"android":"levelo://app?vid=76907408-a8ff-4688-9cbf-66e48bb415e8","ios":"levelo://app?vid=76907408-a8ff-4688-9cbf-66e48bb415e8"},"vehicle_type_id":"4","last_reported":1777413330,"current_range_meters":6400,"station_id":"st_d6tc3vkotcvc738tfjhg","pricing_plan_id":"cebpf4jnsgd1na2vs0mg"},{"bike_id":"0df1968f-d06e-4046-b1ee-6ab1930362fd","system_id":"levelo_inurba_marseille","lat":43.29568,"lon":5.399915,"is_reserved":false,"is_disabled":false,"rental_uris":{"android":"levelo://app?vid=0df1968f-d06e-4046-b1ee-6ab1930362fd","ios":"levelo://app?vid=0df1968f-d06e-4046-b1ee-6ab1930362fd"},"vehicle_type_id":"4","last_reported":1777413330,"current_range_meters":6400,"station_id":"ce4bh312rcd13ifvqdj0","pricing_plan_id":"cebpf4jnsgd1na2vs0mg"},{"bike_id":"057b63d0-a98f-4cee-a884-9b5569ace36b","system_id":"levelo_inurba_marseille","lat":43.281,"lon":5.39686,"is_reserved":false,"is_disabled":false,"rental_uris":{"android":"levelo://app?vid=057b63d0-a98f-4cee-a884-9b5569ace36b","ios":"levelo://app?vid=057b63d0-a98f-4cee-a884-9b5569ace36b"},"vehicle_type_id":"4","last_reported":1777413330,"current_range_meters":6400,"station_id":"ce4bho12rcd13ifvqh2g","pricing_plan_id":"cebpf4jnsgd1na2vs0mg"},{"bike_id":"f13c1412-9987-4b53-aa5c-79a6ecb2ba2d","system_id":"levelo_inurba_marseille","lat":43.32392,"lon":5.36774,"is_reserved":false,"is_disabled":false,"rental_uris":{"android":"levelo://app?vid=f13c1412-9987-4b53-aa5c-79a6ecb2ba2d","ios":"levelo://app?vid=f13c1412-9987-4b53-aa5c-79a6ecb2ba2d"},"vehicle_type_id":"4","last_reported":1777413330,"current_range_meters":6400,"station_id":"","pricing_plan_id":"cebpf4jnsgd1na2vs0mg"},{"bike_id":"6d51d5c1-cb8c-4445-8648-508008832bb4","system_id":"levelo_inurba_marseille","lat":43.29414,"lon":5.38207,"is_reserved":false,"is_disabled":false,"rental_uris":{"android":"levelo://app?vid=6d51d5c1-cb8c-4445-8648-508008832bb4","ios":"levelo://app?vid=6d51d5c1-cb8c-4445-8648-508008832bb4"},"vehicle_type_id":"4","last_reported":1777413330,"current_range_meters":6400,"station_id":"","pricing_plan_id":"cebpf4jnsgd1na2vs0mg"},{"bike_id":"d1982d5d-2b50-4f23-adfc-8fd8d9a0a2f7","system_id":"levelo_inurba_marseille","lat":43.30973,"lon":5.40096,"is_reserved":false,"is_disabled":false,"rental_uris":{"android":"levelo://app?vid=d1982d5d-2b50-4f23-adfc-8fd8d9a0a2f7","ios":"levelo://app?vid=d1982d5d-2b50-4f23-adfc-8fd8d9a0a2f7"},"vehicle_type_id":"4","last_reported":1777413330,"current_range_meters":6400,"station_id":"ce4bgvp2rcd13ifvqct0","pricing_plan_id":"cebpf4jnsgd1na2vs0mg"},{"bike_id":"9f543810-4dfb-4951-9c10-acd2d2940820","system_id":"levelo_inurba_marseille","lat":43.2855,"lon":5.39466,"is_reserved":false,"is_disabled":true,"rental_uris":{"android":"levelo://app?vid=9f543810-4dfb-4951-9c10-acd2d2940820","ios":"levelo://app?vid=9f543810-4dfb-4951-9c10-acd2d2940820"},"vehicle_type_id":"4","last_reported":1777413330,"current_range_meters":6400,"station_id":"ce4bh292rcd13ifvqdg0","pricing_plan_id":"cebpf4jnsgd1na2vs0mg"},{"bike_id":"4541a58b-5803-4873-8531-8182c7674429","system_id":"levelo_inurba_marseille","lat":43.28478,"lon":5.48403,"is_reserved":false,"is_disabled":false,"rental_uris":{"android":"levelo://app?vid=4541a58b-5803-4873-8531-8182c7674429","ios":"levelo://app?vid=4541a58b-5803-4873-8531-8182c7674429"},"vehicle_type_id":"4","last_reported":1777413330,"current_range_meters":6800,"station_id":"st_d3svhcjqgbts73a3dn0g","pricing_plan_id":"cebpf4jnsgd1na2vs0mg"},{"bike_id":"e1d26622-7491-4fdf-a6f0-77cbc7cac2ef","system_id":"levelo_inurba_marseille","lat":43.24177,"lon":5.36394,"is_reserved":false,"is_disabled":true,"rental_uris":{"android":"levelo://app?vid=e1d26622-7491-4fdf-a6f0-77cbc7cac2ef","ios":"levelo://app?vid=e1d26622-7491-4fdf-a6f0-77cbc7cac2ef"},"vehicle_type_id":"4","last_reported":1777413330,"current_range_meters":6800,"station_id":"cpo36qri1sfpv3e86is0","pricing_plan_id":"cebpf4jnsgd1na2vs0mg"},{"bike_id":"96fb4076-24fd-4954-8e89-0fd78f3c00e6","system_id":"levelo_inurba_marseille","lat":43.30908,"lon":5.36844,"is_reserved":false,"is_disabled":false,"rental_uris":{"android":"levelo://app?vid=96fb4076-24fd-4954-8e89-0fd78f3c00e6","ios":"levelo://app?vid=96fb4076-24fd-4954-8e89-0fd78f3c00e6"},"vehicle_type_id":"4","last_reported":1777413330,"current_range_meters":6800,"station_id":"ce4bgn92rcd13ifvqbvg","pricing_plan_id":"cebpf4jnsgd1na2vs0mg"},{"bike_id":"11effbb2-3489-4e85-aec9-0e018fcdcc03","system_id":"levelo_inurba_marseille","lat":43.23193,"lon":5.3556,"is_reserved":false,"is_disabled":false,"rental_uris":{"android":"levelo://app?vid=11effbb2-3489-4e85-aec9-0e018fcdcc03","ios":"levelo://app?vid=11effbb2-3489-4e85-aec9-0e018fcdcc03"},"vehicle_type_id":"4","last_reported":1777413330,"current_range_meters":6800,"station_id":"ce4bhu92rcd13ifvqi70","pricing_plan_id":"cebpf4jnsgd1na2vs0mg"},{"bike_id":"ffbffd47-0143-4030-b45c-3f1330f54185","system_id":"levelo_inurba_marseille","lat":43.27986,"lon":5.41651,"is_reserved":false,"is_disabled":false,"rental_uris":{"android":"levelo://app?vid=ffbffd47-0143-4030-b45c-3f1330f54185","ios":"levelo://app?vid=ffbffd47-0143-4030-b45c-3f1330f54185"},"vehicle_type_id":"4","last_reported":1777413330,"current_range_meters":6800,"station_id":"ce4bho12rcd13ifvqh1g","pricing_plan_id":"cebpf4jnsgd1na2vs0mg"},{"bike_id":"e03a9553-f014-4591-84d1-bb481db182e5","system_id":"levelo_inurba_marseille","lat":43.28694,"lon":5.46664,"is_reserved":false,"is_disabled":false,"rental_uris":{"android":"levelo://app?vid=e03a9553-f014-4591-84d1-bb481db182e5","ios":"levelo://app?vid=e03a9553-f014-4591-84d1-bb481db182e5"},"vehicle_type_id":"4","last_reported":1777413330,"current_range_meters":6800,"station_id":"st_d6tc3vkotcvc738tfjhg","pricing_plan_id":"cebpf4jnsgd1na2vs0mg"},{"bike_id":"3448f64f-25ad-410b-a27b-4b83a46a169b","system_id":"levelo_inurba_marseille","lat":43.2872,"lon":5.37917,"is_reserved":false,"is_disabled":false,"rental_uris":{"android":"levelo://app?vid=3448f64f-25ad-410b-a27b-4b83a46a169b","ios":"levelo://app?vid=3448f64f-25ad-410b-a27b-4b83a46a169b"},"vehicle_type_id":"4","last_reported":1777413330,"current_range_meters":6800,"station_id":"ce4bh9p2rcd13ifvqec0","pricing_plan_id":"cebpf4jnsgd1na2vs0mg"},{"bike_id":"4bb1465b-4606-43ac-93d7-c06153f58726","system_id":"levelo_inurba_marseille","lat":43.28456,"lon":5.35894,"is_reserved":false,"is_disabled":false,"rental_uris":{"android":"levelo://app?vid=4bb1465b-4606-43ac-93d7-c06153f58726","ios":"levelo://app?vid=4bb1465b-4606-43ac-93d7-c06153f58726"},"vehicle_type_id":"4","last_reported":1777413330,"current_range_meters":6800,"station_id":"ce4bhah2rcd13ifvqei0","pricing_plan_id":"cebpf4jnsgd1na2vs0mg"},{"bike_id":"550b61bf-024e-4f9e-9492-2a8f7afeae1e","system_id":"levelo_inurba_marseille","lat":43.30856,"lon":5.40447,"is_reserved":false,"is_disabled":false,"rental_uris":{"android":"levelo://app?vid=550b61bf-024e-4f9e-9492-2a8f7afeae1e","ios":"levelo://app?vid=550b61bf-024e-4f9e-9492-2a8f7afeae1e"},"vehicle_type_id":"4","last_reported":1777413330,"current_range_meters":6800,"station_id":"","pricing_plan_id":"cebpf4jnsgd1na2vs0mg"},{"bike_id":"1e50c851-896e-44dc-a13c-da834270707c","system_id":"levelo_inurba_marseille","lat":43.2767,"lon":5.3892,"is_reserved":false,"is_disabled":true,"rental_uris":{"android":"levelo://app?vid=1e50c851-896e-44dc-a13c-da834270707c","ios":"levelo://app?vid=1e50c851-896e-44dc-a13c-da834270707c"},"vehicle_type_id":"4","last_reported":1777413330,"current_range_meters":6800,"station_id":"ce4bhi12rcd13ifvqfo0","pricing_plan_id":"cebpf4jnsgd1na2vs0mg"},{"bike_id":"3cb8d3b9-6c4e-4b6e-a876-c1f4d17036dc","system_id":"levelo_inurba_marseille","lat":43.25339,"lon":5.4217,"is_reserved":false,"is_disabled":false,"rental_uris":{"android":"levelo://app?vid=3cb8d3b9-6c4e-4b6e-a876-c1f4d17036dc","ios":"levelo://app?vid=3cb8d3b9-6c4e-4b6e-a876-c1f4d17036dc"},"vehicle_type_id":"4","last_reported":1777413330,"current_range_meters":6800,"station_id":"st_d2m65c5bi1j21697t3ng","pricing_plan_id":"cebpf4jnsgd1na2vs0mg"},{"bike_id":"b1b02246-22ea-48ef-bf03-02ba7ea06573","system_id":"levelo_inurba_marseille","lat":43.25821,"lon":5.39404,"is_reserved":false,"is_disabled":false,"rental_uris":{"android":"levelo://app?vid=b1b02246-22ea-48ef-bf03-02ba7ea06573","ios":"levelo://app?vid=b1b02246-22ea-48ef-bf03-02ba7ea06573"},"vehicle_type_id":"4","last_reported":1777413330,"current_range_meters":6800,"station_id":"ce4bhip2rcd13ifvqft0","pricing_plan_id":"cebpf4jnsgd1na2vs0mg"},{"bike_id":"870cf028-d317-4365-88b3-cfc8b2733cc6","system_id":"levelo_inurba_marseille","lat":43.28705,"lon":5.46694,"is_reserved":false,"is_disabled":false,"rental_uris":{"android":"levelo://app?vid=870cf028-d317-4365-88b3-cfc8b2733cc6","ios":"levelo://app?vid=870cf028-d317-4365-88b3-cfc8b2733cc6"},"vehicle_type_id":"4","last_reported":1777413330,"current_range_meters":7200,"station_id":"st_d6tc3vkotcvc738tfjhg","pricing_plan_id":"cebpf4jnsgd1na2vs0mg"},{"bike_id":"0af2bdc7-ba7f-4124-a2da-7600aed05e11","system_id":"levelo_inurba_marseille","lat":43.30781,"lon":5.37641,"is_reserved":false,"is_disabled":false,"rental_uris":{"android":"levelo://app?vid=0af2bdc7-ba7f-4124-a2da-7600aed05e11","ios":"levelo://app?vid=0af2bdc7-ba7f-4124-a2da-7600aed05e11"},"vehicle_type_id":"4","last_reported":1777413330,"current_range_meters":7200,"station_id":"ce4bgv92rcd13ifvqcq0","pricing_plan_id":"cebpf4jnsgd1na2vs0mg"},{"bike_id":"e116e98a-e7c1-4e2d-9ae3-1a759c33b548","system_id":"levelo_inurba_marseille","lat":43.337444,"lon":5.374475,"is_reserved":false,"is_disabled":false,"rental_uris":{"android":"levelo://app?vid=e116e98a-e7c1-4e2d-9ae3-1a759c33b548","ios":"levelo://app?vid=e116e98a-e7c1-4e2d-9ae3-1a759c33b548"},"vehicle_type_id":"4","last_reported":1777413330,"current_range_meters":7200,"station_id":"ce4bgop2rcd13ifvqc1g","pricing_plan_id":"cebpf4jnsgd1na2vs0mg"},{"bike_id":"fceb4850-6c24-4b20-9118-090928fd1a6b","system_id":"levelo_inurba_marseille","lat":43.3008,"lon":5.39864,"is_reserved":false,"is_disabled":false,"rental_uris":{"android":"levelo://app?vid=fceb4850-6c24-4b20-9118-090928fd1a6b","ios":"levelo://app?vid=fceb4850-6c24-4b20-9118-090928fd1a6b"},"vehicle_type_id":"4","last_reported":1777413330,"current_range_meters":7200,"station_id":"ce4bh0h2rcd13ifvqd40","pricing_plan_id":"cebpf4jnsgd1na2vs0mg"},{"bike_id":"dabc5e28-b9df-4b1a-affa-f2e365a8b45b","system_id":"levelo_inurba_marseille","lat":43.32111,"lon":5.36759,"is_reserved":false,"is_disabled":false,"rental_uris":{"android":"levelo://app?vid=dabc5e28-b9df-4b1a-affa-f2e365a8b45b","ios":"levelo://app?vid=dabc5e28-b9df-4b1a-affa-f2e365a8b45b"},"vehicle_type_id":"4","last_reported":1777413330,"current_range_meters":7200,"station_id":"ce4bhrh2rcd13ifvqhug","pricing_plan_id":"cebpf4jnsgd1na2vs0mg"},{"bike_id":"3daee897-890e-4b98-94c3-e7003ca61ad2","system_id":"levelo_inurba_marseille","lat":43.27562,"lon":5.3841,"is_reserved":false,"is_disabled":false,"rental_uris":{"android":"levelo://app?vid=3daee897-890e-4b98-94c3-e7003ca61ad2","ios":"levelo://app?vid=3daee897-890e-4b98-94c3-e7003ca61ad2"},"vehicle_type_id":"4","last_reported":1777413330,"current_range_meters":7200,"station_id":"ce4bhh92rcd13ifvqfi0","pricing_plan_id":"cebpf4jnsgd1na2vs0mg"},{"bike_id":"6f0bc305-06a2-4289-a052-6ae32c46d2c5","system_id":"levelo_inurba_marseille","lat":43.27853,"lon":5.39215,"is_reserved":false,"is_disabled":false,"rental_uris":{"android":"levelo://app?vid=6f0bc305-06a2-4289-a052-6ae32c46d2c5","ios":"levelo://app?vid=6f0bc305-06a2-4289-a052-6ae32c46d2c5"},"vehicle_type_id":"4","last_reported":1777413330,"current_range_meters":7200,"station_id":"ce4bhjp2rcd13ifvqga0","pricing_plan_id":"cebpf4jnsgd1na2vs0mg"},{"bike_id":"720aaca0-7381-4ad3-a448-e3b6ce6e25fe","system_id":"levelo_inurba_marseille","lat":43.29578,"lon":5.39963,"is_reserved":false,"is_disabled":false,"rental_uris":{"android":"levelo://app?vid=720aaca0-7381-4ad3-a448-e3b6ce6e25fe","ios":"levelo://app?vid=720aaca0-7381-4ad3-a448-e3b6ce6e25fe"},"vehicle_type_id":"4","last_reported":1777413330,"current_range_meters":7200,"station_id":"ce4bh312rcd13ifvqdj0","pricing_plan_id":"cebpf4jnsgd1na2vs0mg"},{"bike_id":"3ab70a5f-aebb-46c8-816c-44946693cbbe","system_id":"levelo_inurba_marseille","lat":43.27984,"lon":5.41673,"is_reserved":false,"is_disabled":false,"rental_uris":{"android":"levelo://app?vid=3ab70a5f-aebb-46c8-816c-44946693cbbe","ios":"levelo://app?vid=3ab70a5f-aebb-46c8-816c-44946693cbbe"},"vehicle_type_id":"4","last_reported":1777413330,"current_range_meters":7200,"station_id":"ce4bho12rcd13ifvqh1g","pricing_plan_id":"cebpf4jnsgd1na2vs0mg"},{"bike_id":"d3bd480c-f6ce-4231-a1d5-20e54cb8851a","system_id":"levelo_inurba_marseille","lat":43.2963,"lon":5.37138,"is_reserved":false,"is_disabled":true,"rental_uris":{"android":"levelo://app?vid=d3bd480c-f6ce-4231-a1d5-20e54cb8851a","ios":"levelo://app?vid=d3bd480c-f6ce-4231-a1d5-20e54cb8851a"},"vehicle_type_id":"4","last_reported":1777413330,"current_range_meters":7200,"station_id":"ce4bgnh2rcd13ifvqc0g","pricing_plan_id":"cebpf4jnsgd1na2vs0mg"},{"bike_id":"27cbbdc8-76be-4943-abdc-2247bea40f15","system_id":"levelo_inurba_marseille","lat":43.28408,"lon":5.34964,"is_reserved":false,"is_disabled":false,"rental_uris":{"android":"levelo://app?vid=27cbbdc8-76be-4943-abdc-2247bea40f15","ios":"levelo://app?vid=27cbbdc8-76be-4943-abdc-2247bea40f15"},"vehicle_type_id":"4","last_reported":1777413330,"current_range_meters":7200,"station_id":"ce4bhbh2rcd13ifvqepg","pricing_plan_id":"cebpf4jnsgd1na2vs0mg"},{"bike_id":"e2605e88-9f7b-49cc-8a63-119a038d9512","system_id":"levelo_inurba_marseille","lat":43.25635,"lon":5.38555,"is_reserved":false,"is_disabled":false,"rental_uris":{"android":"levelo://app?vid=e2605e88-9f7b-49cc-8a63-119a038d9512","ios":"levelo://app?vid=e2605e88-9f7b-49cc-8a63-119a038d9512"},"vehicle_type_id":"4","last_reported":1777413330,"current_range_meters":7200,"station_id":"","pricing_plan_id":"cebpf4jnsgd1na2vs0mg"},{"bike_id":"c61342a3-6e47-42a6-94c5-1445c14a9a04","system_id":"levelo_inurba_marseille","lat":43.28859,"lon":5.39295,"is_reserved":false,"is_disabled":false,"rental_uris":{"android":"levelo://app?vid=c61342a3-6e47-42a6-94c5-1445c14a9a04","ios":"levelo://app?vid=c61342a3-6e47-42a6-94c5-1445c14a9a04"},"vehicle_type_id":"4","last_reported":1777413330,"current_range_meters":7200,"station_id":"ce4bh2p2rcd13ifvqdi0","pricing_plan_id":"cebpf4jnsgd1na2vs0mg"},{"bike_id":"b4b00c12-5cb8-4ac6-a93b-068684e57e20","system_id":"levelo_inurba_marseille","lat":43.29712,"lon":5.39312,"is_reserved":false,"is_disabled":false,"rental_uris":{"android":"levelo://app?vid=b4b00c12-5cb8-4ac6-a93b-068684e57e20","ios":"levelo://app?vid=b4b00c12-5cb8-4ac6-a93b-068684e57e20"},"vehicle_type_id":"4","last_reported":1777413330,"current_range_meters":7200,"station_id":"","pricing_plan_id":"cebpf4jnsgd1na2vs0mg"},{"bike_id":"8ddf78e6-7053-4f51-a052-cbf410efa6bf","system_id":"levelo_inurba_marseille","lat":43.31242,"lon":5.36851,"is_reserved":false,"is_disabled":false,"rental_uris":{"android":"levelo://app?vid=8ddf78e6-7053-4f51-a052-cbf410efa6bf","ios":"levelo://app?vid=8ddf78e6-7053-4f51-a052-cbf410efa6bf"},"vehicle_type_id":"4","last_reported":1777413330,"current_range_meters":7200,"station_id":"ce4bgl92rcd13ifvqbq0","pricing_plan_id":"cebpf4jnsgd1na2vs0mg"},{"bike_id":"a2b05a2c-c09b-4781-8dc2-188e794d958e","system_id":"levelo_inurba_marseille","lat":43.26573,"lon":5.40331,"is_reserved":false,"is_disabled":false,"rental_uris":{"android":"levelo://app?vid=a2b05a2c-c09b-4781-8dc2-188e794d958e","ios":"levelo://app?vid=a2b05a2c-c09b-4781-8dc2-188e794d958e"},"vehicle_type_id":"4","last_reported":1777413330,"current_range_meters":7200,"station_id":"ce4bhmp2rcd13ifvqgng","pricing_plan_id":"cebpf4jnsgd1na2vs0mg"},{"bike_id":"0d514707-b6af-4ac5-b05c-97857a4fbdc5","system_id":"levelo_inurba_marseille","lat":43.31333,"lon":5.39686,"is_reserved":false,"is_disabled":false,"rental_uris":{"android":"levelo://app?vid=0d514707-b6af-4ac5-b05c-97857a4fbdc5","ios":"levelo://app?vid=0d514707-b6af-4ac5-b05c-97857a4fbdc5"},"vehicle_type_id":"4","last_reported":1777413330,"current_range_meters":7200,"station_id":"ce4bgvp2rcd13ifvqcu0","pricing_plan_id":"cebpf4jnsgd1na2vs0mg"},{"bike_id":"414603da-e13d-45bd-8030-553c0bac536f","system_id":"levelo_inurba_marseille","lat":43.29023,"lon":5.35629,"is_reserved":false,"is_disabled":false,"rental_uris":{"android":"levelo://app?vid=414603da-e13d-45bd-8030-553c0bac536f","ios":"levelo://app?vid=414603da-e13d-45bd-8030-553c0bac536f"},"vehicle_type_id":"4","last_reported":1777413330,"current_range_meters":7200,"station_id":"ce4bhb92rcd13ifvqen0","pricing_plan_id":"cebpf4jnsgd1na2vs0mg"},{"bike_id":"ccc64b12-fba8-4953-9e4c-789c15629674","system_id":"levelo_inurba_marseille","lat":43.23202,"lon":5.35079,"is_reserved":false,"is_disabled":false,"rental_uris":{"android":"levelo://app?vid=ccc64b12-fba8-4953-9e4c-789c15629674","ios":"levelo://app?vid=ccc64b12-fba8-4953-9e4c-789c15629674"},"vehicle_type_id":"4","last_reported":1777413330,"current_range_meters":7200,"station_id":"","pricing_plan_id":"cebpf4jnsgd1na2vs0mg"},{"bike_id":"534b97ea-f6d0-46ed-8cfc-c8717ec6a1bf","system_id":"levelo_inurba_marseille","lat":43.27833,"lon":5.39207,"is_reserved":false,"is_disabled":false,"rental_uris":{"android":"levelo://app?vid=534b97ea-f6d0-46ed-8cfc-c8717ec6a1bf","ios":"levelo://app?vid=534b97ea-f6d0-46ed-8cfc-c8717ec6a1bf"},"vehicle_type_id":"4","last_reported":1777413330,"current_range_meters":7200,"station_id":"ce4bhjp2rcd13ifvqga0","pricing_plan_id":"cebpf4jnsgd1na2vs0mg"},{"bike_id":"577d831a-2437-48dc-a66e-f419a7aec33b","system_id":"levelo_inurba_marseille","lat":43.29574,"lon":5.3997,"is_reserved":false,"is_disabled":false,"rental_uris":{"android":"levelo://app?vid=577d831a-2437-48dc-a66e-f419a7aec33b","ios":"levelo://app?vid=577d831a-2437-48dc-a66e-f419a7aec33b"},"vehicle_type_id":"4","last_reported":1777413330,"current_range_meters":7200,"station_id":"ce4bh312rcd13ifvqdj0","pricing_plan_id":"cebpf4jnsgd1na2vs0mg"},{"bike_id":"50c4339f-5975-4c82-bc5e-236ccac21304","system_id":"levelo_inurba_marseille","lat":43.31362,"lon":5.38479,"is_reserved":false,"is_disabled":false,"rental_uris":{"android":"levelo://app?vid=50c4339f-5975-4c82-bc5e-236ccac21304","ios":"levelo://app?vid=50c4339f-5975-4c82-bc5e-236ccac21304"},"vehicle_type_id":"4","last_reported":1777413330,"current_range_meters":7200,"station_id":"ce4bgt92rcd13ifvqcf0","pricing_plan_id":"cebpf4jnsgd1na2vs0mg"},{"bike_id":"85f3b9c2-6b48-4feb-b43a-7411008343ed","system_id":"levelo_inurba_marseille","lat":43.29585,"lon":5.36742,"is_reserved":false,"is_disabled":false,"rental_uris":{"android":"levelo://app?vid=85f3b9c2-6b48-4feb-b43a-7411008343ed","ios":"levelo://app?vid=85f3b9c2-6b48-4feb-b43a-7411008343ed"},"vehicle_type_id":"4","last_reported":1777413330,"current_range_meters":7200,"station_id":"ce4bgph2rcd13ifvqc2g","pricing_plan_id":"cebpf4jnsgd1na2vs0mg"},{"bike_id":"fadbd9a5-2a49-4734-8db0-528994d97e40","system_id":"levelo_inurba_marseille","lat":43.29272,"lon":5.38362,"is_reserved":false,"is_disabled":false,"rental_uris":{"android":"levelo://app?vid=fadbd9a5-2a49-4734-8db0-528994d97e40","ios":"levelo://app?vid=fadbd9a5-2a49-4734-8db0-528994d97e40"},"vehicle_type_id":"4","last_reported":1777413330,"current_range_meters":7200,"station_id":"","pricing_plan_id":"cebpf4jnsgd1na2vs0mg"},{"bike_id":"57f90bd9-fa9d-42c1-93a4-bc60e7acd42f","system_id":"levelo_inurba_marseille","lat":43.26607,"lon":5.37262,"is_reserved":false,"is_disabled":false,"rental_uris":{"android":"levelo://app?vid=57f90bd9-fa9d-42c1-93a4-bc60e7acd42f","ios":"levelo://app?vid=57f90bd9-fa9d-42c1-93a4-bc60e7acd42f"},"vehicle_type_id":"4","last_reported":1777413330,"current_range_meters":7200,"station_id":"ce4bhg12rcd13ifvqf70","pricing_plan_id":"cebpf4jnsgd1na2vs0mg"},{"bike_id":"01c578b5-d3ac-4295-8963-0b85678912d1","system_id":"levelo_inurba_marseille","lat":43.28415,"lon":5.3751,"is_reserved":false,"is_disabled":false,"rental_uris":{"android":"levelo://app?vid=01c578b5-d3ac-4295-8963-0b85678912d1","ios":"levelo://app?vid=01c578b5-d3ac-4295-8963-0b85678912d1"},"vehicle_type_id":"4","last_reported":1777413330,"current_range_meters":7200,"station_id":"ce4bh412rcd13ifvqds0","pricing_plan_id":"cebpf4jnsgd1na2vs0mg"},{"bike_id":"3cabb206-107f-465e-b3d6-d79024127c12","system_id":"levelo_inurba_marseille","lat":43.28459,"lon":5.35889,"is_reserved":false,"is_disabled":false,"rental_uris":{"android":"levelo://app?vid=3cabb206-107f-465e-b3d6-d79024127c12","ios":"levelo://app?vid=3cabb206-107f-465e-b3d6-d79024127c12"},"vehicle_type_id":"4","last_reported":1777413330,"current_range_meters":7200,"station_id":"ce4bhah2rcd13ifvqei0","pricing_plan_id":"cebpf4jnsgd1na2vs0mg"},{"bike_id":"e273aded-cde3-4bd0-9604-d92f02fb844d","system_id":"levelo_inurba_marseille","lat":43.30416,"lon":5.3889,"is_reserved":false,"is_disabled":false,"rental_uris":{"android":"levelo://app?vid=e273aded-cde3-4bd0-9604-d92f02fb844d","ios":"levelo://app?vid=e273aded-cde3-4bd0-9604-d92f02fb844d"},"vehicle_type_id":"4","last_reported":1777413330,"current_range_meters":7200,"station_id":"ce4bgk12rcd13ifvqbi0","pricing_plan_id":"cebpf4jnsgd1na2vs0mg"},{"bike_id":"3437955b-1d01-472d-a152-fed8f08dcf0a","system_id":"levelo_inurba_marseille","lat":43.28421,"lon":5.37504,"is_reserved":false,"is_disabled":false,"rental_uris":{"android":"levelo://app?vid=3437955b-1d01-472d-a152-fed8f08dcf0a","ios":"levelo://app?vid=3437955b-1d01-472d-a152-fed8f08dcf0a"},"vehicle_type_id":"4","last_reported":1777413330,"current_range_meters":7200,"station_id":"ce4bh412rcd13ifvqds0","pricing_plan_id":"cebpf4jnsgd1na2vs0mg"},{"bike_id":"475b56ab-fd61-45ae-be40-05696313ed1d","system_id":"levelo_inurba_marseille","lat":43.29415,"lon":5.40179,"is_reserved":false,"is_disabled":true,"rental_uris":{"android":"levelo://app?vid=475b56ab-fd61-45ae-be40-05696313ed1d","ios":"levelo://app?vid=475b56ab-fd61-45ae-be40-05696313ed1d"},"vehicle_type_id":"4","last_reported":1777413330,"current_range_meters":7200,"station_id":"","pricing_plan_id":"cebpf4jnsgd1na2vs0mg"},{"bike_id":"dcccaf40-3159-4149-92e2-805cd9f81ade","system_id":"levelo_inurba_marseille","lat":43.29318,"lon":5.37485,"is_reserved":false,"is_disabled":false,"rental_uris":{"android":"levelo://app?vid=dcccaf40-3159-4149-92e2-805cd9f81ade","ios":"levelo://app?vid=dcccaf40-3159-4149-92e2-805cd9f81ade"},"vehicle_type_id":"4","last_reported":1777413330,"current_range_meters":7200,"station_id":"ce4bgi12rcd13ifvqb70","pricing_plan_id":"cebpf4jnsgd1na2vs0mg"},{"bike_id":"b9c0ca4a-61af-4a0b-994f-7b554a71a91c","system_id":"levelo_inurba_marseille","lat":43.32341,"lon":5.3672,"is_reserved":false,"is_disabled":false,"rental_uris":{"android":"levelo://app?vid=b9c0ca4a-61af-4a0b-994f-7b554a71a91c","ios":"levelo://app?vid=b9c0ca4a-61af-4a0b-994f-7b554a71a91c"},"vehicle_type_id":"4","last_reported":1777413330,"current_range_meters":8000,"station_id":"ce4bhsh2rcd13ifvqi2g","pricing_plan_id":"cebpf4jnsgd1na2vs0mg"},{"bike_id":"f876cb19-0749-40f4-8bd3-e18d1d5c19e4","system_id":"levelo_inurba_marseille","lat":43.31288,"lon":5.4016,"is_reserved":false,"is_disabled":false,"rental_uris":{"android":"levelo://app?vid=f876cb19-0749-40f4-8bd3-e18d1d5c19e4","ios":"levelo://app?vid=f876cb19-0749-40f4-8bd3-e18d1d5c19e4"},"vehicle_type_id":"4","last_reported":1777413330,"current_range_meters":8000,"station_id":"ce4bh092rcd13ifvqd30","pricing_plan_id":"cebpf4jnsgd1na2vs0mg"},{"bike_id":"1673f501-eaa7-4558-954b-d52abde6661f","system_id":"levelo_inurba_marseille","lat":43.28483,"lon":5.35864,"is_reserved":false,"is_disabled":false,"rental_uris":{"android":"levelo://app?vid=1673f501-eaa7-4558-954b-d52abde6661f","ios":"levelo://app?vid=1673f501-eaa7-4558-954b-d52abde6661f"},"vehicle_type_id":"4","last_reported":1777413330,"current_range_meters":8000,"station_id":"ce4bhah2rcd13ifvqei0","pricing_plan_id":"cebpf4jnsgd1na2vs0mg"},{"bike_id":"23b9edcd-305b-48b3-b42b-c5b2d1a2cdca","system_id":"levelo_inurba_marseille","lat":43.27044,"lon":5.38635,"is_reserved":false,"is_disabled":false,"rental_uris":{"android":"levelo://app?vid=23b9edcd-305b-48b3-b42b-c5b2d1a2cdca","ios":"levelo://app?vid=23b9edcd-305b-48b3-b42b-c5b2d1a2cdca"},"vehicle_type_id":"4","last_reported":1777413330,"current_range_meters":8000,"station_id":"","pricing_plan_id":"cebpf4jnsgd1na2vs0mg"},{"bike_id":"fe46bf29-5444-450b-8138-3e7925b5ab62","system_id":"levelo_inurba_marseille","lat":43.29029,"lon":5.38635,"is_reserved":false,"is_disabled":false,"rental_uris":{"android":"levelo://app?vid=fe46bf29-5444-450b-8138-3e7925b5ab62","ios":"levelo://app?vid=fe46bf29-5444-450b-8138-3e7925b5ab62"},"vehicle_type_id":"4","last_reported":1777413330,"current_range_meters":8000,"station_id":"ce4bh4p2rcd13ifvqe0g","pricing_plan_id":"cebpf4jnsgd1na2vs0mg"},{"bike_id":"64caf656-9c5b-4754-be7e-5471268d2436","system_id":"levelo_inurba_marseille","lat":43.2901,"lon":5.38609,"is_reserved":false,"is_disabled":true,"rental_uris":{"android":"levelo://app?vid=64caf656-9c5b-4754-be7e-5471268d2436","ios":"levelo://app?vid=64caf656-9c5b-4754-be7e-5471268d2436"},"vehicle_type_id":"4","last_reported":1777413330,"current_range_meters":8000,"station_id":"ce4bh4p2rcd13ifvqe0g","pricing_plan_id":"cebpf4jnsgd1na2vs0mg"},{"bike_id":"f3253984-8723-496b-b1f9-f2af0dda8d75","system_id":"levelo_inurba_marseille","lat":43.30888,"lon":5.39623,"is_reserved":false,"is_disabled":false,"rental_uris":{"android":"levelo://app?vid=f3253984-8723-496b-b1f9-f2af0dda8d75","ios":"levelo://app?vid=f3253984-8723-496b-b1f9-f2af0dda8d75"},"vehicle_type_id":"4","last_reported":1777413330,"current_range_meters":8000,"station_id":"ce4bh012rcd13ifvqcv0","pricing_plan_id":"cebpf4jnsgd1na2vs0mg"},{"bike_id":"19156f03-ab0b-41c7-9a42-bb1ae8fd0140","system_id":"levelo_inurba_marseille","lat":43.31321,"lon":5.39681,"is_reserved":false,"is_disabled":false,"rental_uris":{"android":"levelo://app?vid=19156f03-ab0b-41c7-9a42-bb1ae8fd0140","ios":"levelo://app?vid=19156f03-ab0b-41c7-9a42-bb1ae8fd0140"},"vehicle_type_id":"4","last_reported":1777413330,"current_range_meters":8000,"station_id":"ce4bgvp2rcd13ifvqcu0","pricing_plan_id":"cebpf4jnsgd1na2vs0mg"},{"bike_id":"2122bcc0-2ad5-42d2-bbe3-29d4151dc388","system_id":"levelo_inurba_marseille","lat":43.30317,"lon":5.40439,"is_reserved":false,"is_disabled":false,"rental_uris":{"android":"levelo://app?vid=2122bcc0-2ad5-42d2-bbe3-29d4151dc388","ios":"levelo://app?vid=2122bcc0-2ad5-42d2-bbe3-29d4151dc388"},"vehicle_type_id":"4","last_reported":1777413330,"current_range_meters":8000,"station_id":"ce4bh012rcd13ifvqd10","pricing_plan_id":"cebpf4jnsgd1na2vs0mg"},{"bike_id":"5cf5cac4-304b-4407-a8e5-357d3ab6bc0b","system_id":"levelo_inurba_marseille","lat":43.23896,"lon":5.37464,"is_reserved":false,"is_disabled":true,"rental_uris":{"android":"levelo://app?vid=5cf5cac4-304b-4407-a8e5-357d3ab6bc0b","ios":"levelo://app?vid=5cf5cac4-304b-4407-a8e5-357d3ab6bc0b"},"vehicle_type_id":"4","last_reported":1777413330,"current_range_meters":8000,"station_id":"st_d6sm7csbq4hs73f8fpjg","pricing_plan_id":"cebpf4jnsgd1na2vs0mg"},{"bike_id":"ef809088-19f7-4902-a559-51469dadba8c","system_id":"levelo_inurba_marseille","lat":43.27073,"lon":5.3897,"is_reserved":false,"is_disabled":false,"rental_uris":{"android":"levelo://app?vid=ef809088-19f7-4902-a559-51469dadba8c","ios":"levelo://app?vid=ef809088-19f7-4902-a559-51469dadba8c"},"vehicle_type_id":"4","last_reported":1777413330,"current_range_meters":8000,"station_id":"","pricing_plan_id":"cebpf4jnsgd1na2vs0mg"},{"bike_id":"f11e3633-986d-40f4-8b5f-6b5e41220dfc","system_id":"levelo_inurba_marseille","lat":43.31913,"lon":5.36813,"is_reserved":false,"is_disabled":false,"rental_uris":{"android":"levelo://app?vid=f11e3633-986d-40f4-8b5f-6b5e41220dfc","ios":"levelo://app?vid=f11e3633-986d-40f4-8b5f-6b5e41220dfc"},"vehicle_type_id":"4","last_reported":1777413330,"current_range_meters":8000,"station_id":"st_d6o2h0d0559c73evc1b0","pricing_plan_id":"cebpf4jnsgd1na2vs0mg"},{"bike_id":"dc43e202-478a-41a8-a645-53ffaec9b791","system_id":"levelo_inurba_marseille","lat":43.2925,"lon":5.409,"is_reserved":false,"is_disabled":false,"rental_uris":{"android":"levelo://app?vid=dc43e202-478a-41a8-a645-53ffaec9b791","ios":"levelo://app?vid=dc43e202-478a-41a8-a645-53ffaec9b791"},"vehicle_type_id":"4","last_reported":1777413330,"current_range_meters":8000,"station_id":"ce4bh192rcd13ifvqdc0","pricing_plan_id":"cebpf4jnsgd1na2vs0mg"},{"bike_id":"ef3a68ef-5b94-411a-921f-f7cda00ffdfc","system_id":"levelo_inurba_marseille","lat":43.29492,"lon":5.39016,"is_reserved":false,"is_disabled":false,"rental_uris":{"android":"levelo://app?vid=ef3a68ef-5b94-411a-921f-f7cda00ffdfc","ios":"levelo://app?vid=ef3a68ef-5b94-411a-921f-f7cda00ffdfc"},"vehicle_type_id":"4","last_reported":1777413330,"current_range_meters":8000,"station_id":"ce4bh3p2rcd13ifvqdp0","pricing_plan_id":"cebpf4jnsgd1na2vs0mg"},{"bike_id":"a737d892-66f6-4cdf-9919-272e1c73c5b2","system_id":"levelo_inurba_marseille","lat":43.30896,"lon":5.39657,"is_reserved":false,"is_disabled":false,"rental_uris":{"android":"levelo://app?vid=a737d892-66f6-4cdf-9919-272e1c73c5b2","ios":"levelo://app?vid=a737d892-66f6-4cdf-9919-272e1c73c5b2"},"vehicle_type_id":"4","last_reported":1777413330,"current_range_meters":8000,"station_id":"ce4bh012rcd13ifvqcv0","pricing_plan_id":"cebpf4jnsgd1na2vs0mg"},{"bike_id":"525129d8-a7e9-4d3a-94c3-9737193fe89b","system_id":"levelo_inurba_marseille","lat":43.32656,"lon":5.40999,"is_reserved":false,"is_disabled":false,"rental_uris":{"android":"levelo://app?vid=525129d8-a7e9-4d3a-94c3-9737193fe89b","ios":"levelo://app?vid=525129d8-a7e9-4d3a-94c3-9737193fe89b"},"vehicle_type_id":"4","last_reported":1777413330,"current_range_meters":8000,"station_id":"ce4bhpp2rcd13ifvqhgg","pricing_plan_id":"cebpf4jnsgd1na2vs0mg"},{"bike_id":"0aa77637-d7e3-499b-846d-09967e25c470","system_id":"levelo_inurba_marseille","lat":43.26203,"lon":5.37974,"is_reserved":false,"is_disabled":false,"rental_uris":{"android":"levelo://app?vid=0aa77637-d7e3-499b-846d-09967e25c470","ios":"levelo://app?vid=0aa77637-d7e3-499b-846d-09967e25c470"},"vehicle_type_id":"4","last_reported":1777413330,"current_range_meters":8000,"station_id":"ce4bhjp2rcd13ifvqg90","pricing_plan_id":"cebpf4jnsgd1na2vs0mg"},{"bike_id":"fd9a7039-4e51-4a41-8d94-a62cfc47c861","system_id":"levelo_inurba_marseille","lat":43.26501,"lon":5.39516,"is_reserved":false,"is_disabled":false,"rental_uris":{"android":"levelo://app?vid=fd9a7039-4e51-4a41-8d94-a62cfc47c861","ios":"levelo://app?vid=fd9a7039-4e51-4a41-8d94-a62cfc47c861"},"vehicle_type_id":"4","last_reported":1777413330,"current_range_meters":8000,"station_id":"ce4bhi12rcd13ifvqfq0","pricing_plan_id":"cebpf4jnsgd1na2vs0mg"},{"bike_id":"d4d191c1-1e42-44ce-acaa-f4fdd3a7ce8e","system_id":"levelo_inurba_marseille","lat":43.28498,"lon":5.38525,"is_reserved":false,"is_disabled":false,"rental_uris":{"android":"levelo://app?vid=d4d191c1-1e42-44ce-acaa-f4fdd3a7ce8e","ios":"levelo://app?vid=d4d191c1-1e42-44ce-acaa-f4fdd3a7ce8e"},"vehicle_type_id":"4","last_reported":1777413330,"current_range_meters":8400,"station_id":"ce4bh8p2rcd13ifvqeb0","pricing_plan_id":"cebpf4jnsgd1na2vs0mg"},{"bike_id":"de1b4f6f-6b9d-4fc7-894f-85b3adf5ba9d","system_id":"levelo_inurba_marseille","lat":43.2756,"lon":5.38398,"is_reserved":false,"is_disabled":true,"rental_uris":{"android":"levelo://app?vid=de1b4f6f-6b9d-4fc7-894f-85b3adf5ba9d","ios":"levelo://app?vid=de1b4f6f-6b9d-4fc7-894f-85b3adf5ba9d"},"vehicle_type_id":"4","last_reported":1777413330,"current_range_meters":8400,"station_id":"ce4bhh92rcd13ifvqfi0","pricing_plan_id":"cebpf4jnsgd1na2vs0mg"},{"bike_id":"c4360509-c690-49c4-8c8f-02bf5217fee1","system_id":"levelo_inurba_marseille","lat":43.295306,"lon":5.39031,"is_reserved":false,"is_disabled":false,"rental_uris":{"android":"levelo://app?vid=c4360509-c690-49c4-8c8f-02bf5217fee1","ios":"levelo://app?vid=c4360509-c690-49c4-8c8f-02bf5217fee1"},"vehicle_type_id":"4","last_reported":1777413330,"current_range_meters":8400,"station_id":"ce4bh3p2rcd13ifvqdp0","pricing_plan_id":"cebpf4jnsgd1na2vs0mg"},{"bike_id":"6737b6c6-75ae-4970-baf2-1a244729e21f","system_id":"levelo_inurba_marseille","lat":43.29871,"lon":5.39731,"is_reserved":false,"is_disabled":false,"rental_uris":{"android":"levelo://app?vid=6737b6c6-75ae-4970-baf2-1a244729e21f","ios":"levelo://app?vid=6737b6c6-75ae-4970-baf2-1a244729e21f"},"vehicle_type_id":"4","last_reported":1777413330,"current_range_meters":8400,"station_id":"ce4bh0h2rcd13ifvqd50","pricing_plan_id":"cebpf4jnsgd1na2vs0mg"},{"bike_id":"ee5bca21-2a39-4c24-aced-c94d2451e251","system_id":"levelo_inurba_marseille","lat":43.27987,"lon":5.41649,"is_reserved":false,"is_disabled":false,"rental_uris":{"android":"levelo://app?vid=ee5bca21-2a39-4c24-aced-c94d2451e251","ios":"levelo://app?vid=ee5bca21-2a39-4c24-aced-c94d2451e251"},"vehicle_type_id":"4","last_reported":1777413330,"current_range_meters":8400,"station_id":"ce4bho12rcd13ifvqh1g","pricing_plan_id":"cebpf4jnsgd1na2vs0mg"},{"bike_id":"a8bdb7a5-dc75-490e-ae03-5d793618d9ad","system_id":"levelo_inurba_marseille","lat":43.25832,"lon":5.3942,"is_reserved":false,"is_disabled":false,"rental_uris":{"android":"levelo://app?vid=a8bdb7a5-dc75-490e-ae03-5d793618d9ad","ios":"levelo://app?vid=a8bdb7a5-dc75-490e-ae03-5d793618d9ad"},"vehicle_type_id":"4","last_reported":1777413330,"current_range_meters":8400,"station_id":"ce4bhip2rcd13ifvqft0","pricing_plan_id":"cebpf4jnsgd1na2vs0mg"},{"bike_id":"e255e009-8723-4c49-a399-36d62fb85847","system_id":"levelo_inurba_marseille","lat":43.289705,"lon":5.378328,"is_reserved":false,"is_disabled":false,"rental_uris":{"android":"levelo://app?vid=e255e009-8723-4c49-a399-36d62fb85847","ios":"levelo://app?vid=e255e009-8723-4c49-a399-36d62fb85847"},"vehicle_type_id":"4","last_reported":1777413330,"current_range_meters":8400,"station_id":"ce4bh9p2rcd13ifvqed0","pricing_plan_id":"cebpf4jnsgd1na2vs0mg"},{"bike_id":"2a9f517f-dc7e-442a-8a6e-b3ad6200cb4e","system_id":"levelo_inurba_marseille","lat":43.33561,"lon":5.37456,"is_reserved":false,"is_disabled":false,"rental_uris":{"android":"levelo://app?vid=2a9f517f-dc7e-442a-8a6e-b3ad6200cb4e","ios":"levelo://app?vid=2a9f517f-dc7e-442a-8a6e-b3ad6200cb4e"},"vehicle_type_id":"4","last_reported":1777413330,"current_range_meters":8400,"station_id":"st_d46tts09ee8s73dlu43g","pricing_plan_id":"cebpf4jnsgd1na2vs0mg"},{"bike_id":"97101e97-9dc1-46b9-aa51-c662f292853d","system_id":"levelo_inurba_marseille","lat":43.28144,"lon":5.42656,"is_reserved":false,"is_disabled":false,"rental_uris":{"android":"levelo://app?vid=97101e97-9dc1-46b9-aa51-c662f292853d","ios":"levelo://app?vid=97101e97-9dc1-46b9-aa51-c662f292853d"},"vehicle_type_id":"4","last_reported":1777413330,"current_range_meters":8400,"station_id":"ce4bhnh2rcd13ifvqgug","pricing_plan_id":"cebpf4jnsgd1na2vs0mg"},{"bike_id":"0256971e-927a-4136-bafd-665aafac7fc7","system_id":"levelo_inurba_marseille","lat":43.21757,"lon":5.34599,"is_reserved":false,"is_disabled":true,"rental_uris":{"android":"levelo://app?vid=0256971e-927a-4136-bafd-665aafac7fc7","ios":"levelo://app?vid=0256971e-927a-4136-bafd-665aafac7fc7"},"vehicle_type_id":"4","last_reported":1777413330,"current_range_meters":8400,"station_id":"st_cvj6r9ubvosntc0bgbag","pricing_plan_id":"cebpf4jnsgd1na2vs0mg"},{"bike_id":"6f2719a6-e990-4c38-a5fb-6fe88070ce3b","system_id":"levelo_inurba_marseille","lat":43.30214,"lon":5.36615,"is_reserved":false,"is_disabled":false,"rental_uris":{"android":"levelo://app?vid=6f2719a6-e990-4c38-a5fb-6fe88070ce3b","ios":"levelo://app?vid=6f2719a6-e990-4c38-a5fb-6fe88070ce3b"},"vehicle_type_id":"4","last_reported":1777413330,"current_range_meters":8400,"station_id":"ce4bgrh2rcd13ifvqc8g","pricing_plan_id":"cebpf4jnsgd1na2vs0mg"},{"bike_id":"5a082d0b-9dcd-4b27-b749-e7a082c3a4b6","system_id":"levelo_inurba_marseille","lat":43.25154,"lon":5.40462,"is_reserved":false,"is_disabled":false,"rental_uris":{"android":"levelo://app?vid=5a082d0b-9dcd-4b27-b749-e7a082c3a4b6","ios":"levelo://app?vid=5a082d0b-9dcd-4b27-b749-e7a082c3a4b6"},"vehicle_type_id":"4","last_reported":1777413330,"current_range_meters":8400,"station_id":"","pricing_plan_id":"cebpf4jnsgd1na2vs0mg"},{"bike_id":"45c0bc4b-4663-481f-b521-f578afe2151d","system_id":"levelo_inurba_marseille","lat":43.28716,"lon":5.3792,"is_reserved":false,"is_disabled":false,"rental_uris":{"android":"levelo://app?vid=45c0bc4b-4663-481f-b521-f578afe2151d","ios":"levelo://app?vid=45c0bc4b-4663-481f-b521-f578afe2151d"},"vehicle_type_id":"4","last_reported":1777413330,"current_range_meters":8400,"station_id":"ce4bh9p2rcd13ifvqec0","pricing_plan_id":"cebpf4jnsgd1na2vs0mg"},{"bike_id":"f85937b2-0ec4-4bc0-9c45-454acbb4424f","system_id":"levelo_inurba_marseille","lat":43.24961,"lon":5.40492,"is_reserved":false,"is_disabled":false,"rental_uris":{"android":"levelo://app?vid=f85937b2-0ec4-4bc0-9c45-454acbb4424f","ios":"levelo://app?vid=f85937b2-0ec4-4bc0-9c45-454acbb4424f"},"vehicle_type_id":"4","last_reported":1777413330,"current_range_meters":8400,"station_id":"st_d2ngiaodas8pm72gd1h0","pricing_plan_id":"cebpf4jnsgd1na2vs0mg"},{"bike_id":"14015fc9-b839-4138-b4d5-9a2f5afbe521","system_id":"levelo_inurba_marseille","lat":43.29203,"lon":5.42632,"is_reserved":false,"is_disabled":false,"rental_uris":{"android":"levelo://app?vid=14015fc9-b839-4138-b4d5-9a2f5afbe521","ios":"levelo://app?vid=14015fc9-b839-4138-b4d5-9a2f5afbe521"},"vehicle_type_id":"4","last_reported":1777413330,"current_range_meters":8400,"station_id":"","pricing_plan_id":"cebpf4jnsgd1na2vs0mg"},{"bike_id":"a097e494-0d3f-4dd7-be79-ea70422940dc","system_id":"levelo_inurba_marseille","lat":43.30883,"lon":5.39617,"is_reserved":false,"is_disabled":false,"rental_uris":{"android":"levelo://app?vid=a097e494-0d3f-4dd7-be79-ea70422940dc","ios":"levelo://app?vid=a097e494-0d3f-4dd7-be79-ea70422940dc"},"vehicle_type_id":"4","last_reported":1777413330,"current_range_meters":8400,"station_id":"ce4bh012rcd13ifvqcv0","pricing_plan_id":"cebpf4jnsgd1na2vs0mg"},{"bike_id":"37970c61-7528-4352-a724-5c9197d918a1","system_id":"levelo_inurba_marseille","lat":43.24688,"lon":5.38113,"is_reserved":false,"is_disabled":false,"rental_uris":{"android":"levelo://app?vid=37970c61-7528-4352-a724-5c9197d918a1","ios":"levelo://app?vid=37970c61-7528-4352-a724-5c9197d918a1"},"vehicle_type_id":"4","last_reported":1777413330,"current_range_meters":8400,"station_id":"ce4bhih2rcd13ifvqfr0","pricing_plan_id":"cebpf4jnsgd1na2vs0mg"},{"bike_id":"c1edb402-7c06-4cd6-8cc7-15e21ad51dc8","system_id":"levelo_inurba_marseille","lat":43.24182,"lon":5.39731,"is_reserved":false,"is_disabled":false,"rental_uris":{"android":"levelo://app?vid=c1edb402-7c06-4cd6-8cc7-15e21ad51dc8","ios":"levelo://app?vid=c1edb402-7c06-4cd6-8cc7-15e21ad51dc8"},"vehicle_type_id":"4","last_reported":1777413330,"current_range_meters":8400,"station_id":"ce4bhn12rcd13ifvqgpg","pricing_plan_id":"cebpf4jnsgd1na2vs0mg"},{"bike_id":"159f0344-33aa-4474-b32d-fa8eef2e2f62","system_id":"levelo_inurba_marseille","lat":43.29488,"lon":5.43313,"is_reserved":false,"is_disabled":false,"rental_uris":{"android":"levelo://app?vid=159f0344-33aa-4474-b32d-fa8eef2e2f62","ios":"levelo://app?vid=159f0344-33aa-4474-b32d-fa8eef2e2f62"},"vehicle_type_id":"4","last_reported":1777413330,"current_range_meters":8400,"station_id":"st_d3j5ugp08ojc73fj9d10","pricing_plan_id":"cebpf4jnsgd1na2vs0mg"},{"bike_id":"22f07e39-16f3-42f3-9b1a-06a4c964ff00","system_id":"levelo_inurba_marseille","lat":43.30879,"lon":5.39638,"is_reserved":false,"is_disabled":false,"rental_uris":{"android":"levelo://app?vid=22f07e39-16f3-42f3-9b1a-06a4c964ff00","ios":"levelo://app?vid=22f07e39-16f3-42f3-9b1a-06a4c964ff00"},"vehicle_type_id":"4","last_reported":1777413330,"current_range_meters":8400,"station_id":"ce4bh012rcd13ifvqcv0","pricing_plan_id":"cebpf4jnsgd1na2vs0mg"},{"bike_id":"19dd03a6-b1a1-47cc-b99c-5d809d7a7a39","system_id":"levelo_inurba_marseille","lat":43.28362,"lon":5.38611,"is_reserved":false,"is_disabled":false,"rental_uris":{"android":"levelo://app?vid=19dd03a6-b1a1-47cc-b99c-5d809d7a7a39","ios":"levelo://app?vid=19dd03a6-b1a1-47cc-b99c-5d809d7a7a39"},"vehicle_type_id":"4","last_reported":1777413330,"current_range_meters":8400,"station_id":"ce4bh492rcd13ifvqdvg","pricing_plan_id":"cebpf4jnsgd1na2vs0mg"},{"bike_id":"6fa445d0-494c-4062-944f-f47660cfab7e","system_id":"levelo_inurba_marseille","lat":43.27687,"lon":5.3891,"is_reserved":false,"is_disabled":false,"rental_uris":{"android":"levelo://app?vid=6fa445d0-494c-4062-944f-f47660cfab7e","ios":"levelo://app?vid=6fa445d0-494c-4062-944f-f47660cfab7e"},"vehicle_type_id":"4","last_reported":1777413330,"current_range_meters":8800,"station_id":"ce4bhi12rcd13ifvqfo0","pricing_plan_id":"cebpf4jnsgd1na2vs0mg"},{"bike_id":"4dbe00ec-feb8-4193-848e-b5324775416c","system_id":"levelo_inurba_marseille","lat":43.28423,"lon":5.34983,"is_reserved":false,"is_disabled":false,"rental_uris":{"android":"levelo://app?vid=4dbe00ec-feb8-4193-848e-b5324775416c","ios":"levelo://app?vid=4dbe00ec-feb8-4193-848e-b5324775416c"},"vehicle_type_id":"4","last_reported":1777413330,"current_range_meters":8800,"station_id":"ce4bhbh2rcd13ifvqepg","pricing_plan_id":"cebpf4jnsgd1na2vs0mg"},{"bike_id":"5f2b664d-3299-4b97-a16c-944e74430601","system_id":"levelo_inurba_marseille","lat":43.2929,"lon":5.36388,"is_reserved":false,"is_disabled":false,"rental_uris":{"android":"levelo://app?vid=5f2b664d-3299-4b97-a16c-944e74430601","ios":"levelo://app?vid=5f2b664d-3299-4b97-a16c-944e74430601"},"vehicle_type_id":"4","last_reported":1777413330,"current_range_meters":8800,"station_id":"","pricing_plan_id":"cebpf4jnsgd1na2vs0mg"},{"bike_id":"4f81a05a-97e9-44ec-a51e-366c3977229f","system_id":"levelo_inurba_marseille","lat":43.31331,"lon":5.39696,"is_reserved":false,"is_disabled":false,"rental_uris":{"android":"levelo://app?vid=4f81a05a-97e9-44ec-a51e-366c3977229f","ios":"levelo://app?vid=4f81a05a-97e9-44ec-a51e-366c3977229f"},"vehicle_type_id":"4","last_reported":1777413330,"current_range_meters":8800,"station_id":"ce4bgvp2rcd13ifvqcu0","pricing_plan_id":"cebpf4jnsgd1na2vs0mg"},{"bike_id":"31a4a3fb-bfc0-42d4-ab1c-5c02b71555b4","system_id":"levelo_inurba_marseille","lat":43.28646,"lon":5.40613,"is_reserved":false,"is_disabled":false,"rental_uris":{"android":"levelo://app?vid=31a4a3fb-bfc0-42d4-ab1c-5c02b71555b4","ios":"levelo://app?vid=31a4a3fb-bfc0-42d4-ab1c-5c02b71555b4"},"vehicle_type_id":"4","last_reported":1777413330,"current_range_meters":8800,"station_id":"","pricing_plan_id":"cebpf4jnsgd1na2vs0mg"},{"bike_id":"c5d87c94-f8c8-47f4-ae84-ea0b6e6ae165","system_id":"levelo_inurba_marseille","lat":43.26261,"lon":5.38881,"is_reserved":false,"is_disabled":false,"rental_uris":{"android":"levelo://app?vid=c5d87c94-f8c8-47f4-ae84-ea0b6e6ae165","ios":"levelo://app?vid=c5d87c94-f8c8-47f4-ae84-ea0b6e6ae165"},"vehicle_type_id":"4","last_reported":1777413330,"current_range_meters":8800,"station_id":"","pricing_plan_id":"cebpf4jnsgd1na2vs0mg"},{"bike_id":"541d7dc3-a505-4aa7-8f89-509de917dfa3","system_id":"levelo_inurba_marseille","lat":43.28354,"lon":5.38626,"is_reserved":false,"is_disabled":false,"rental_uris":{"android":"levelo://app?vid=541d7dc3-a505-4aa7-8f89-509de917dfa3","ios":"levelo://app?vid=541d7dc3-a505-4aa7-8f89-509de917dfa3"},"vehicle_type_id":"4","last_reported":1777413330,"current_range_meters":8800,"station_id":"ce4bh492rcd13ifvqdvg","pricing_plan_id":"cebpf4jnsgd1na2vs0mg"},{"bike_id":"c46d8a22-772b-40f4-a01d-512476bc1bbf","system_id":"levelo_inurba_marseille","lat":43.24958,"lon":5.40482,"is_reserved":false,"is_disabled":false,"rental_uris":{"android":"levelo://app?vid=c46d8a22-772b-40f4-a01d-512476bc1bbf","ios":"levelo://app?vid=c46d8a22-772b-40f4-a01d-512476bc1bbf"},"vehicle_type_id":"4","last_reported":1777413330,"current_range_meters":8800,"station_id":"st_d2ngiaodas8pm72gd1h0","pricing_plan_id":"cebpf4jnsgd1na2vs0mg"},{"bike_id":"fa0be4e3-794e-4642-86a6-bef2eb311dbf","system_id":"levelo_inurba_marseille","lat":43.30788,"lon":5.37649,"is_reserved":false,"is_disabled":false,"rental_uris":{"android":"levelo://app?vid=fa0be4e3-794e-4642-86a6-bef2eb311dbf","ios":"levelo://app?vid=fa0be4e3-794e-4642-86a6-bef2eb311dbf"},"vehicle_type_id":"4","last_reported":1777413330,"current_range_meters":8800,"station_id":"ce4bgv92rcd13ifvqcq0","pricing_plan_id":"cebpf4jnsgd1na2vs0mg"},{"bike_id":"bdc41e24-a1e8-4226-8547-f9d277f894f2","system_id":"levelo_inurba_marseille","lat":43.28076,"lon":5.39635,"is_reserved":false,"is_disabled":false,"rental_uris":{"android":"levelo://app?vid=bdc41e24-a1e8-4226-8547-f9d277f894f2","ios":"levelo://app?vid=bdc41e24-a1e8-4226-8547-f9d277f894f2"},"vehicle_type_id":"4","last_reported":1777413330,"current_range_meters":8800,"station_id":"ce4bho12rcd13ifvqh2g","pricing_plan_id":"cebpf4jnsgd1na2vs0mg"},{"bike_id":"2c0808ca-959e-46d2-bd7d-5fa523a2fa9a","system_id":"levelo_inurba_marseille","lat":43.3064,"lon":5.43648,"is_reserved":false,"is_disabled":false,"rental_uris":{"android":"levelo://app?vid=2c0808ca-959e-46d2-bd7d-5fa523a2fa9a","ios":"levelo://app?vid=2c0808ca-959e-46d2-bd7d-5fa523a2fa9a"},"vehicle_type_id":"4","last_reported":1777413330,"current_range_meters":8800,"station_id":"","pricing_plan_id":"cebpf4jnsgd1na2vs0mg"},{"bike_id":"55bac593-352e-4642-8639-19fe2b8d6c00","system_id":"levelo_inurba_marseille","lat":43.27636,"lon":5.35822,"is_reserved":false,"is_disabled":false,"rental_uris":{"android":"levelo://app?vid=55bac593-352e-4642-8639-19fe2b8d6c00","ios":"levelo://app?vid=55bac593-352e-4642-8639-19fe2b8d6c00"},"vehicle_type_id":"4","last_reported":1777413330,"current_range_meters":8800,"station_id":"","pricing_plan_id":"cebpf4jnsgd1na2vs0mg"},{"bike_id":"e1bfb3b6-25b1-478e-a2d9-d38c60c7866f","system_id":"levelo_inurba_marseille","lat":43.30238,"lon":5.40061,"is_reserved":false,"is_disabled":false,"rental_uris":{"android":"levelo://app?vid=e1bfb3b6-25b1-478e-a2d9-d38c60c7866f","ios":"levelo://app?vid=e1bfb3b6-25b1-478e-a2d9-d38c60c7866f"},"vehicle_type_id":"4","last_reported":1777413330,"current_range_meters":8800,"station_id":"ce4bgvh2rcd13ifvqcs0","pricing_plan_id":"cebpf4jnsgd1na2vs0mg"},{"bike_id":"d2598843-e05e-47d7-8331-32836a619318","system_id":"levelo_inurba_marseille","lat":43.29787,"lon":5.39329,"is_reserved":false,"is_disabled":false,"rental_uris":{"android":"levelo://app?vid=d2598843-e05e-47d7-8331-32836a619318","ios":"levelo://app?vid=d2598843-e05e-47d7-8331-32836a619318"},"vehicle_type_id":"4","last_reported":1777413330,"current_range_meters":8800,"station_id":"chh1huq6cuj3fo74tm60","pricing_plan_id":"cebpf4jnsgd1na2vs0mg"},{"bike_id":"bd94bc60-9f42-49d8-b356-f62ba9512bc6","system_id":"levelo_inurba_marseille","lat":43.2646,"lon":5.39984,"is_reserved":false,"is_disabled":false,"rental_uris":{"android":"levelo://app?vid=bd94bc60-9f42-49d8-b356-f62ba9512bc6","ios":"levelo://app?vid=bd94bc60-9f42-49d8-b356-f62ba9512bc6"},"vehicle_type_id":"4","last_reported":1777413330,"current_range_meters":8800,"station_id":"","pricing_plan_id":"cebpf4jnsgd1na2vs0mg"},{"bike_id":"fb48eb95-a721-45e3-a917-4c0e5102e02d","system_id":"levelo_inurba_marseille","lat":43.23201,"lon":5.35539,"is_reserved":false,"is_disabled":false,"rental_uris":{"android":"levelo://app?vid=fb48eb95-a721-45e3-a917-4c0e5102e02d","ios":"levelo://app?vid=fb48eb95-a721-45e3-a917-4c0e5102e02d"},"vehicle_type_id":"4","last_reported":1777413330,"current_range_meters":8800,"station_id":"ce4bhu92rcd13ifvqi70","pricing_plan_id":"cebpf4jnsgd1na2vs0mg"},{"bike_id":"5e197578-e13f-44b4-9a21-b9f34c9f44ad","system_id":"levelo_inurba_marseille","lat":43.31153,"lon":5.3877,"is_reserved":false,"is_disabled":false,"rental_uris":{"android":"levelo://app?vid=5e197578-e13f-44b4-9a21-b9f34c9f44ad","ios":"levelo://app?vid=5e197578-e13f-44b4-9a21-b9f34c9f44ad"},"vehicle_type_id":"4","last_reported":1777413330,"current_range_meters":9200,"station_id":"ce4bgv12rcd13ifvqcp0","pricing_plan_id":"cebpf4jnsgd1na2vs0mg"},{"bike_id":"8c2ebc41-7bef-4c6d-91ac-124371586248","system_id":"levelo_inurba_marseille","lat":43.25592,"lon":5.38225,"is_reserved":false,"is_disabled":false,"rental_uris":{"android":"levelo://app?vid=8c2ebc41-7bef-4c6d-91ac-124371586248","ios":"levelo://app?vid=8c2ebc41-7bef-4c6d-91ac-124371586248"},"vehicle_type_id":"4","last_reported":1777413330,"current_range_meters":9200,"station_id":"ce4bhih2rcd13ifvqfs0","pricing_plan_id":"cebpf4jnsgd1na2vs0mg"},{"bike_id":"aa1c53b3-e875-48f6-8f11-5585989ab701","system_id":"levelo_inurba_marseille","lat":43.29197,"lon":5.39315,"is_reserved":false,"is_disabled":true,"rental_uris":{"android":"levelo://app?vid=aa1c53b3-e875-48f6-8f11-5585989ab701","ios":"levelo://app?vid=aa1c53b3-e875-48f6-8f11-5585989ab701"},"vehicle_type_id":"4","last_reported":1777413330,"current_range_meters":9200,"station_id":"ce4bh192rcd13ifvqdd0","pricing_plan_id":"cebpf4jnsgd1na2vs0mg"},{"bike_id":"ad016942-5b0b-44b8-ac1c-1b7068118d02","system_id":"levelo_inurba_marseille","lat":43.23195,"lon":5.3555,"is_reserved":false,"is_disabled":false,"rental_uris":{"android":"levelo://app?vid=ad016942-5b0b-44b8-ac1c-1b7068118d02","ios":"levelo://app?vid=ad016942-5b0b-44b8-ac1c-1b7068118d02"},"vehicle_type_id":"4","last_reported":1777413330,"current_range_meters":9200,"station_id":"ce4bhu92rcd13ifvqi70","pricing_plan_id":"cebpf4jnsgd1na2vs0mg"},{"bike_id":"1bb8344f-1db0-45ef-ad3e-3af45d1f5a9f","system_id":"levelo_inurba_marseille","lat":43.2573,"lon":5.38705,"is_reserved":false,"is_disabled":false,"rental_uris":{"android":"levelo://app?vid=1bb8344f-1db0-45ef-ad3e-3af45d1f5a9f","ios":"levelo://app?vid=1bb8344f-1db0-45ef-ad3e-3af45d1f5a9f"},"vehicle_type_id":"4","last_reported":1777413330,"current_range_meters":9200,"station_id":"","pricing_plan_id":"cebpf4jnsgd1na2vs0mg"},{"bike_id":"3d629aa3-896b-404c-8ce1-01df00b063ac","system_id":"levelo_inurba_marseille","lat":43.29661,"lon":5.40613,"is_reserved":false,"is_disabled":true,"rental_uris":{"android":"levelo://app?vid=3d629aa3-896b-404c-8ce1-01df00b063ac","ios":"levelo://app?vid=3d629aa3-896b-404c-8ce1-01df00b063ac"},"vehicle_type_id":"4","last_reported":1777413330,"current_range_meters":9200,"station_id":"ce4bh0h2rcd13ifvqd60","pricing_plan_id":"cebpf4jnsgd1na2vs0mg"},{"bike_id":"ef2f410f-463c-4127-8f21-3ae500dd4eda","system_id":"levelo_inurba_marseille","lat":43.28413,"lon":5.37532,"is_reserved":false,"is_disabled":true,"rental_uris":{"android":"levelo://app?vid=ef2f410f-463c-4127-8f21-3ae500dd4eda","ios":"levelo://app?vid=ef2f410f-463c-4127-8f21-3ae500dd4eda"},"vehicle_type_id":"4","last_reported":1777413330,"current_range_meters":9200,"station_id":"ce4bh412rcd13ifvqds0","pricing_plan_id":"cebpf4jnsgd1na2vs0mg"},{"bike_id":"65e71f25-1791-4448-98e3-dcdf2357b321","system_id":"levelo_inurba_marseille","lat":43.31362,"lon":5.38494,"is_reserved":false,"is_disabled":false,"rental_uris":{"android":"levelo://app?vid=65e71f25-1791-4448-98e3-dcdf2357b321","ios":"levelo://app?vid=65e71f25-1791-4448-98e3-dcdf2357b321"},"vehicle_type_id":"4","last_reported":1777413330,"current_range_meters":9200,"station_id":"ce4bgt92rcd13ifvqcf0","pricing_plan_id":"cebpf4jnsgd1na2vs0mg"},{"bike_id":"ae021663-2e05-40c8-b86d-c1c36d30e619","system_id":"levelo_inurba_marseille","lat":43.28952,"lon":5.36604,"is_reserved":false,"is_disabled":false,"rental_uris":{"android":"levelo://app?vid=ae021663-2e05-40c8-b86d-c1c36d30e619","ios":"levelo://app?vid=ae021663-2e05-40c8-b86d-c1c36d30e619"},"vehicle_type_id":"4","last_reported":1777413330,"current_range_meters":9200,"station_id":"ce4bhap2rcd13ifvqek0","pricing_plan_id":"cebpf4jnsgd1na2vs0mg"},{"bike_id":"b91f4f99-7987-40ea-afbb-1e1af65ec675","system_id":"levelo_inurba_marseille","lat":43.29455,"lon":5.40901,"is_reserved":false,"is_disabled":false,"rental_uris":{"android":"levelo://app?vid=b91f4f99-7987-40ea-afbb-1e1af65ec675","ios":"levelo://app?vid=b91f4f99-7987-40ea-afbb-1e1af65ec675"},"vehicle_type_id":"4","last_reported":1777413330,"current_range_meters":9200,"station_id":"","pricing_plan_id":"cebpf4jnsgd1na2vs0mg"},{"bike_id":"93aec1e8-3638-4b33-9655-abb546bbd353","system_id":"levelo_inurba_marseille","lat":43.29776,"lon":5.37094,"is_reserved":false,"is_disabled":false,"rental_uris":{"android":"levelo://app?vid=93aec1e8-3638-4b33-9655-abb546bbd353","ios":"levelo://app?vid=93aec1e8-3638-4b33-9655-abb546bbd353"},"vehicle_type_id":"4","last_reported":1777413330,"current_range_meters":9200,"station_id":"ce4bgop2rcd13ifvqc1g","pricing_plan_id":"cebpf4jnsgd1na2vs0mg"},{"bike_id":"c85c91e2-66da-4a43-9e23-cf30af0dea18","system_id":"levelo_inurba_marseille","lat":43.28711,"lon":5.39986,"is_reserved":false,"is_disabled":false,"rental_uris":{"android":"levelo://app?vid=c85c91e2-66da-4a43-9e23-cf30af0dea18","ios":"levelo://app?vid=c85c91e2-66da-4a43-9e23-cf30af0dea18"},"vehicle_type_id":"4","last_reported":1777413330,"current_range_meters":9200,"station_id":"ce4bho92rcd13ifvqh3g","pricing_plan_id":"cebpf4jnsgd1na2vs0mg"},{"bike_id":"56be734f-b967-4311-896c-533bda99afe8","system_id":"levelo_inurba_marseille","lat":43.28478,"lon":5.35843,"is_reserved":false,"is_disabled":false,"rental_uris":{"android":"levelo://app?vid=56be734f-b967-4311-896c-533bda99afe8","ios":"levelo://app?vid=56be734f-b967-4311-896c-533bda99afe8"},"vehicle_type_id":"4","last_reported":1777413330,"current_range_meters":9200,"station_id":"ce4bhah2rcd13ifvqei0","pricing_plan_id":"cebpf4jnsgd1na2vs0mg"},{"bike_id":"077fd9d6-fd31-4538-9468-c9995c699e08","system_id":"levelo_inurba_marseille","lat":43.29821,"lon":5.39194,"is_reserved":false,"is_disabled":false,"rental_uris":{"android":"levelo://app?vid=077fd9d6-fd31-4538-9468-c9995c699e08","ios":"levelo://app?vid=077fd9d6-fd31-4538-9468-c9995c699e08"},"vehicle_type_id":"4","last_reported":1777413330,"current_range_meters":9200,"station_id":"","pricing_plan_id":"cebpf4jnsgd1na2vs0mg"},{"bike_id":"13a19b64-2305-48b9-97ca-f768ee4bbad0","system_id":"levelo_inurba_marseille","lat":43.27987,"lon":5.41681,"is_reserved":false,"is_disabled":false,"rental_uris":{"android":"levelo://app?vid=13a19b64-2305-48b9-97ca-f768ee4bbad0","ios":"levelo://app?vid=13a19b64-2305-48b9-97ca-f768ee4bbad0"},"vehicle_type_id":"4","last_reported":1777413330,"current_range_meters":9200,"station_id":"ce4bho12rcd13ifvqh1g","pricing_plan_id":"cebpf4jnsgd1na2vs0mg"},{"bike_id":"e86fde7f-f309-4c5c-9613-864f1a66fd8e","system_id":"levelo_inurba_marseille","lat":43.28923,"lon":5.42459,"is_reserved":false,"is_disabled":false,"rental_uris":{"android":"levelo://app?vid=e86fde7f-f309-4c5c-9613-864f1a66fd8e","ios":"levelo://app?vid=e86fde7f-f309-4c5c-9613-864f1a66fd8e"},"vehicle_type_id":"4","last_reported":1777413330,"current_range_meters":9200,"station_id":"","pricing_plan_id":"cebpf4jnsgd1na2vs0mg"},{"bike_id":"ea36c9e8-58b8-4f79-a3ce-b396281d3b24","system_id":"levelo_inurba_marseille","lat":43.305074,"lon":5.380769,"is_reserved":false,"is_disabled":false,"rental_uris":{"android":"levelo://app?vid=ea36c9e8-58b8-4f79-a3ce-b396281d3b24","ios":"levelo://app?vid=ea36c9e8-58b8-4f79-a3ce-b396281d3b24"},"vehicle_type_id":"4","last_reported":1777413330,"current_range_meters":9200,"station_id":"","pricing_plan_id":"cebpf4jnsgd1na2vs0mg"},{"bike_id":"b5592bc3-7c5d-4ba9-b1ae-b173928aef8c","system_id":"levelo_inurba_marseille","lat":43.28505,"lon":5.48371,"is_reserved":false,"is_disabled":false,"rental_uris":{"android":"levelo://app?vid=b5592bc3-7c5d-4ba9-b1ae-b173928aef8c","ios":"levelo://app?vid=b5592bc3-7c5d-4ba9-b1ae-b173928aef8c"},"vehicle_type_id":"4","last_reported":1777413330,"current_range_meters":9600,"station_id":"","pricing_plan_id":"cebpf4jnsgd1na2vs0mg"},{"bike_id":"ce5dc1f5-63eb-4e58-9a11-607a1a76f928","system_id":"levelo_inurba_marseille","lat":43.28488,"lon":5.35854,"is_reserved":false,"is_disabled":false,"rental_uris":{"android":"levelo://app?vid=ce5dc1f5-63eb-4e58-9a11-607a1a76f928","ios":"levelo://app?vid=ce5dc1f5-63eb-4e58-9a11-607a1a76f928"},"vehicle_type_id":"4","last_reported":1777413330,"current_range_meters":9600,"station_id":"ce4bhah2rcd13ifvqei0","pricing_plan_id":"cebpf4jnsgd1na2vs0mg"},{"bike_id":"abfe3038-441e-4245-b0b4-d038f9714ddd","system_id":"levelo_inurba_marseille","lat":43.31174,"lon":5.38706,"is_reserved":false,"is_disabled":false,"rental_uris":{"android":"levelo://app?vid=abfe3038-441e-4245-b0b4-d038f9714ddd","ios":"levelo://app?vid=abfe3038-441e-4245-b0b4-d038f9714ddd"},"vehicle_type_id":"4","last_reported":1777413330,"current_range_meters":9600,"station_id":"ce4bgv12rcd13ifvqcp0","pricing_plan_id":"cebpf4jnsgd1na2vs0mg"},{"bike_id":"5d330f93-e3ac-4b2c-b309-ba2a98bd8dd7","system_id":"levelo_inurba_marseille","lat":43.29546,"lon":5.3853,"is_reserved":false,"is_disabled":false,"rental_uris":{"android":"levelo://app?vid=5d330f93-e3ac-4b2c-b309-ba2a98bd8dd7","ios":"levelo://app?vid=5d330f93-e3ac-4b2c-b309-ba2a98bd8dd7"},"vehicle_type_id":"4","last_reported":1777413330,"current_range_meters":9600,"station_id":"ce4bgih2rcd13ifvqba0","pricing_plan_id":"cebpf4jnsgd1na2vs0mg"},{"bike_id":"146883f7-ce79-4e13-8aa4-fa49231b74ec","system_id":"levelo_inurba_marseille","lat":43.28464,"lon":5.39185,"is_reserved":false,"is_disabled":false,"rental_uris":{"android":"levelo://app?vid=146883f7-ce79-4e13-8aa4-fa49231b74ec","ios":"levelo://app?vid=146883f7-ce79-4e13-8aa4-fa49231b74ec"},"vehicle_type_id":"4","last_reported":1777413330,"current_range_meters":9600,"station_id":"ce4bhoh2rcd13ifvqh5g","pricing_plan_id":"cebpf4jnsgd1na2vs0mg"},{"bike_id":"148b7b12-4a96-4e51-a8ef-5b0a545de8d0","system_id":"levelo_inurba_marseille","lat":43.25877,"lon":5.40523,"is_reserved":false,"is_disabled":false,"rental_uris":{"android":"levelo://app?vid=148b7b12-4a96-4e51-a8ef-5b0a545de8d0","ios":"levelo://app?vid=148b7b12-4a96-4e51-a8ef-5b0a545de8d0"},"vehicle_type_id":"4","last_reported":1777413330,"current_range_meters":9600,"station_id":"","pricing_plan_id":"cebpf4jnsgd1na2vs0mg"},{"bike_id":"b0cd3801-d5d8-4737-b521-479255b64fe1","system_id":"levelo_inurba_marseille","lat":43.2924,"lon":5.40898,"is_reserved":false,"is_disabled":false,"rental_uris":{"android":"levelo://app?vid=b0cd3801-d5d8-4737-b521-479255b64fe1","ios":"levelo://app?vid=b0cd3801-d5d8-4737-b521-479255b64fe1"},"vehicle_type_id":"4","last_reported":1777413330,"current_range_meters":9600,"station_id":"ce4bh192rcd13ifvqdc0","pricing_plan_id":"cebpf4jnsgd1na2vs0mg"},{"bike_id":"acc57406-75de-43a2-a6ec-d941193f0be0","system_id":"levelo_inurba_marseille","lat":43.32339,"lon":5.36725,"is_reserved":false,"is_disabled":false,"rental_uris":{"android":"levelo://app?vid=acc57406-75de-43a2-a6ec-d941193f0be0","ios":"levelo://app?vid=acc57406-75de-43a2-a6ec-d941193f0be0"},"vehicle_type_id":"4","last_reported":1777413330,"current_range_meters":9600,"station_id":"ce4bhsh2rcd13ifvqi2g","pricing_plan_id":"cebpf4jnsgd1na2vs0mg"},{"bike_id":"5f107878-7c17-41a5-9872-6ef4a2ca2028","system_id":"levelo_inurba_marseille","lat":43.30251,"lon":5.4005,"is_reserved":false,"is_disabled":false,"rental_uris":{"android":"levelo://app?vid=5f107878-7c17-41a5-9872-6ef4a2ca2028","ios":"levelo://app?vid=5f107878-7c17-41a5-9872-6ef4a2ca2028"},"vehicle_type_id":"4","last_reported":1777413330,"current_range_meters":9600,"station_id":"ce4bgvh2rcd13ifvqcs0","pricing_plan_id":"cebpf4jnsgd1na2vs0mg"},{"bike_id":"1db36569-05af-4df6-af5c-4b35c5cda7c9","system_id":"levelo_inurba_marseille","lat":43.2945,"lon":5.37071,"is_reserved":false,"is_disabled":false,"rental_uris":{"android":"levelo://app?vid=1db36569-05af-4df6-af5c-4b35c5cda7c9","ios":"levelo://app?vid=1db36569-05af-4df6-af5c-4b35c5cda7c9"},"vehicle_type_id":"4","last_reported":1777413330,"current_range_meters":9600,"station_id":"","pricing_plan_id":"cebpf4jnsgd1na2vs0mg"},{"bike_id":"87e25f35-2d83-40b5-9491-e5fcf313d252","system_id":"levelo_inurba_marseille","lat":43.23386,"lon":5.41214,"is_reserved":false,"is_disabled":false,"rental_uris":{"android":"levelo://app?vid=87e25f35-2d83-40b5-9491-e5fcf313d252","ios":"levelo://app?vid=87e25f35-2d83-40b5-9491-e5fcf313d252"},"vehicle_type_id":"4","last_reported":1777413330,"current_range_meters":9600,"station_id":"st_d75pvndhf9lc73cqq3eg","pricing_plan_id":"cebpf4jnsgd1na2vs0mg"},{"bike_id":"a6f69edd-7f92-46ec-b19d-2c3242dfd28a","system_id":"levelo_inurba_marseille","lat":43.30331,"lon":5.41838,"is_reserved":false,"is_disabled":true,"rental_uris":{"android":"levelo://app?vid=a6f69edd-7f92-46ec-b19d-2c3242dfd28a","ios":"levelo://app?vid=a6f69edd-7f92-46ec-b19d-2c3242dfd28a"},"vehicle_type_id":"4","last_reported":1777413330,"current_range_meters":9600,"station_id":"ce4bhop2rcd13ifvqh7g","pricing_plan_id":"cebpf4jnsgd1na2vs0mg"},{"bike_id":"e5f9afbb-eeaa-4f62-871a-cf997b5d0fb4","system_id":"levelo_inurba_marseille","lat":43.29774,"lon":5.39324,"is_reserved":false,"is_disabled":false,"rental_uris":{"android":"levelo://app?vid=e5f9afbb-eeaa-4f62-871a-cf997b5d0fb4","ios":"levelo://app?vid=e5f9afbb-eeaa-4f62-871a-cf997b5d0fb4"},"vehicle_type_id":"4","last_reported":1777413330,"current_range_meters":9600,"station_id":"chh1huq6cuj3fo74tm60","pricing_plan_id":"cebpf4jnsgd1na2vs0mg"},{"bike_id":"048a68d1-6711-41d0-be9e-af5bf924f0f8","system_id":"levelo_inurba_marseille","lat":43.29986,"lon":5.37182,"is_reserved":false,"is_disabled":false,"rental_uris":{"android":"levelo://app?vid=048a68d1-6711-41d0-be9e-af5bf924f0f8","ios":"levelo://app?vid=048a68d1-6711-41d0-be9e-af5bf924f0f8"},"vehicle_type_id":"4","last_reported":1777413330,"current_range_meters":9600,"station_id":"ce4bgr92rcd13ifvqc7g","pricing_plan_id":"cebpf4jnsgd1na2vs0mg"},{"bike_id":"196939d7-8120-4fa4-8a8f-be34c3561853","system_id":"levelo_inurba_marseille","lat":43.31906,"lon":5.36801,"is_reserved":false,"is_disabled":false,"rental_uris":{"android":"levelo://app?vid=196939d7-8120-4fa4-8a8f-be34c3561853","ios":"levelo://app?vid=196939d7-8120-4fa4-8a8f-be34c3561853"},"vehicle_type_id":"4","last_reported":1777413330,"current_range_meters":9600,"station_id":"st_d6o2h0d0559c73evc1b0","pricing_plan_id":"cebpf4jnsgd1na2vs0mg"},{"bike_id":"08bd000e-a8e7-49e5-a8ba-a55ddd60e8db","system_id":"levelo_inurba_marseille","lat":43.28954,"lon":5.36628,"is_reserved":false,"is_disabled":false,"rental_uris":{"android":"levelo://app?vid=08bd000e-a8e7-49e5-a8ba-a55ddd60e8db","ios":"levelo://app?vid=08bd000e-a8e7-49e5-a8ba-a55ddd60e8db"},"vehicle_type_id":"4","last_reported":1777413330,"current_range_meters":9600,"station_id":"ce4bhap2rcd13ifvqek0","pricing_plan_id":"cebpf4jnsgd1na2vs0mg"},{"bike_id":"5826704d-6185-4f02-be08-714b7a62d291","system_id":"levelo_inurba_marseille","lat":43.25335,"lon":5.42172,"is_reserved":false,"is_disabled":false,"rental_uris":{"android":"levelo://app?vid=5826704d-6185-4f02-be08-714b7a62d291","ios":"levelo://app?vid=5826704d-6185-4f02-be08-714b7a62d291"},"vehicle_type_id":"4","last_reported":1777413330,"current_range_meters":10000,"station_id":"st_d2m65c5bi1j21697t3ng","pricing_plan_id":"cebpf4jnsgd1na2vs0mg"},{"bike_id":"9bb32684-44d0-4ee7-af01-0d2039251656","system_id":"levelo_inurba_marseille","lat":43.31688,"lon":5.40466,"is_reserved":false,"is_disabled":false,"rental_uris":{"android":"levelo://app?vid=9bb32684-44d0-4ee7-af01-0d2039251656","ios":"levelo://app?vid=9bb32684-44d0-4ee7-af01-0d2039251656"},"vehicle_type_id":"4","last_reported":1777413330,"current_range_meters":10000,"station_id":"ce4bh012rcd13ifvqd00","pricing_plan_id":"cebpf4jnsgd1na2vs0mg"},{"bike_id":"f33eabf6-f119-4069-8314-c37f3c8df3c6","system_id":"levelo_inurba_marseille","lat":43.30423,"lon":5.41289,"is_reserved":false,"is_disabled":false,"rental_uris":{"android":"levelo://app?vid=f33eabf6-f119-4069-8314-c37f3c8df3c6","ios":"levelo://app?vid=f33eabf6-f119-4069-8314-c37f3c8df3c6"},"vehicle_type_id":"4","last_reported":1777413330,"current_range_meters":10000,"station_id":"ce4bhop2rcd13ifvqh8g","pricing_plan_id":"cebpf4jnsgd1na2vs0mg"},{"bike_id":"8e895859-042e-47e7-9ca8-83e0c06497e4","system_id":"levelo_inurba_marseille","lat":43.30315,"lon":5.36914,"is_reserved":false,"is_disabled":true,"rental_uris":{"android":"levelo://app?vid=8e895859-042e-47e7-9ca8-83e0c06497e4","ios":"levelo://app?vid=8e895859-042e-47e7-9ca8-83e0c06497e4"},"vehicle_type_id":"4","last_reported":1777413330,"current_range_meters":10000,"station_id":"ce4bgqh2rcd13ifvqc5g","pricing_plan_id":"cebpf4jnsgd1na2vs0mg"},{"bike_id":"0438d68d-b4c6-4b23-a7e1-82657231ebe9","system_id":"levelo_inurba_marseille","lat":43.28481,"lon":5.48386,"is_reserved":false,"is_disabled":false,"rental_uris":{"android":"levelo://app?vid=0438d68d-b4c6-4b23-a7e1-82657231ebe9","ios":"levelo://app?vid=0438d68d-b4c6-4b23-a7e1-82657231ebe9"},"vehicle_type_id":"4","last_reported":1777413330,"current_range_meters":10000,"station_id":"","pricing_plan_id":"cebpf4jnsgd1na2vs0mg"},{"bike_id":"ef9a8310-64b5-4a88-a0ac-f0e5fde25620","system_id":"levelo_inurba_marseille","lat":43.28262,"lon":5.35054,"is_reserved":false,"is_disabled":false,"rental_uris":{"android":"levelo://app?vid=ef9a8310-64b5-4a88-a0ac-f0e5fde25620","ios":"levelo://app?vid=ef9a8310-64b5-4a88-a0ac-f0e5fde25620"},"vehicle_type_id":"4","last_reported":1777413330,"current_range_meters":10000,"station_id":"ce4bhbp2rcd13ifvqerg","pricing_plan_id":"cebpf4jnsgd1na2vs0mg"},