{"last_updated":1679767662,"ttl":30,"version":"2.2","data":{"bikes":[{"bike_id":"af201f06-24f3-44b6-91fe-8bacd65ce586","system_id":"levelo_inurba_marseille","lat":43.309076,"lon":5.368465,"is_reserved":false,"is_disabled":false,"rental_uris":{"android":"levelo://app?vid=af201f06-24f3-44b6-91fe-8bacd65ce586","ios":"levelo://app?vid=af201f06-24f3-44b6-91fe-8bacd65ce586"},"vehicle_type_id":"4","last_reported":1679767663,"current_range_meters":0,"station_id":"ce4bgn92rcd13ifvqbvg","pricing_plan_id":"free"},{"bike_id":"98aeb24b-ae56-48b0-85d2-1b644dcd1912","system_id":"levelo_inurba_marseille","lat":43.309076,"lon":5.368465,"is_reserved":false,"is_disabled":false,"rental_uris":{"android":"levelo://app?vid=98aeb24b-ae56-48b0-85d2-1b644dcd1912","ios":"levelo://app?vid=98aeb24b-ae56-48b0-85d2-1b644dcd1912"},"vehicle_type_id":"4","last_reported":1679767663,"current_range_meters":16400,"station_id":"ce4bgn92rcd13ifvqbvg","pricing_plan_id":"free"},{"bike_id":"f283ee2e-d84d-4b39-a022-840c3da5c22c","system_id":"levelo_inurba_marseille","lat":43.309082,"lon":5.368522,"is_reserved":false,"is_disabled":false,"rental_uris":{"android":"levelo://app?vid=f283ee2e-d84d-4b39-a022-840c3da5c22c","ios":"levelo://app?vid=f283ee2e-d84d-4b39-a022-840c3da5c22c"},"vehicle_type_id":"4","last_reported":1679767663,"current_range_meters":20400,"station_id":"ce4bgn92rcd13ifvqbvg","pricing_plan_id":"free"},{"bike_id":"e576f5f6-2127-47c3-a6a9-a19dff083840","system_id":"levelo_inurba_marseille","lat":43.309076,"lon":5.368465,"is_reserved":false,"is_disabled":false,"rental_uris":{"android":"levelo://app?vid=e576f5f6-2127-47c3-a6a9-a19dff083840","ios":"levelo://app?vid=e576f5f6-2127-47c3-a6a9-a19dff083840"},"vehicle_type_id":"4","last_reported":1679767663,"current_range_meters":10800,"station_id":"ce4bgn92rcd13ifvqbvg","pricing_plan_id":"free"},{"bike_id":"25a90fac-8452-4594-850a-5f5899a01be3","system_id":"levelo_inurba_marseille","lat":43.314811,"lon":5.373103,"is_reserved":false,"is_disabled":false,"rental_uris":{"android":"levelo://app?vid=25a90fac-8452-4594-850a-5f5899a01be3","ios":"levelo://app?vid=25a90fac-8452-4594-850a-5f5899a01be3"},"vehicle_type_id":"4","last_reported":1679767663,"current_range_meters":6800,"station_id":"ce4bgt12rcd13ifvqcd0","pricing_plan_id":"free"},{"bike_id":"8f42eccd-0ca6-45e9-88a5-4f07a993507f","system_id":"levelo_inurba_marseille","lat":43.314811,"lon":5.373103,"is_reserved":false,"is_disabled":false,"rental_uris":{"android":"levelo://app?vid=8f42eccd-0ca6-45e9-88a5-4f07a993507f","ios":"levelo://app?vid=8f42eccd-0ca6-45e9-88a5-4f07a993507f"},"vehicle_type_id":"4","last_reported":1679767663,"current_range_meters":14000,"station_id":"ce4bgt12rcd13ifvqcd0","pricing_plan_id":"free"},{"bike_id":"e501c56f-691d-42ca-a1eb-4b4f2e6b242d","system_id":"levelo_inurba_marseille","lat":43.314811,"lon":5.373103,"is_reserved":false,"is_disabled":false,"rental_uris":{"android":"levelo://app?vid=e501c56f-691d-42ca-a1eb-4b4f2e6b242d","ios":"levelo://app?vid=e501c56f-691d-42ca-a1eb-4b4f2e6b242d"},"vehicle_type_id":"4","last_reported":1679767663,"current_range_meters":28400,"station_id":"ce4bgt12rcd13ifvqcd0","pricing_plan_id":"free"},{"bike_id":"ab1f6e72-a35a-4d81-85f7-f57bf574415f","system_id":"levelo_inurba_marseille","lat":43.314811,"lon":5.373103,"is_reserved":false,"is_disabled":false,"rental_uris":{"android":"levelo://app?vid=ab1f6e72-a35a-4d81-85f7-f57bf574415f","ios":"levelo://app?vid=ab1f6e72-a35a-4d81-85f7-f57bf574415f"},"vehicle_type_id":"4","last_reported":1679767663,"current_range_meters":3200,"station_id":"ce4bgt12rcd13ifvqcd0","pricing_plan_id":"free"},{"bike_id":"725c9b4c-1e76-4f9c-b772-3f5e1485591d","system_id":"levelo_inurba_marseille","lat":43.316184,"lon":5.373121,"is_reserved":false,"is_disabled":false,"rental_uris":{"android":"levelo://app?vid=725c9b4c-1e76-4f9c-b772-3f5e1485591d","ios":"levelo://app?vid=725c9b4c-1e76-4f9c-b772-3f5e1485591d"},"vehicle_type_id":"4","last_reported":1679767663,"current_range_meters":0,"station_id":"","pricing_plan_id":"free"},{"bike_id":"02fd6113-6db0-4436-bf0e-515f45145472","system_id":"levelo_inurba_marseille","lat":43.30542,"lon":5.36706,"is_reserved":false,"is_disabled":false,"rental_uris":{"android":"levelo://app?vid=02fd6113-6db0-4436-bf0e-515f45145472","ios":"levelo://app?vid=02fd6113-6db0-4436-bf0e-515f45145472"},"vehicle_type_id":"4","last_reported":1679767663,"current_range_meters":0,"station_id":"","pricing_plan_id":"free"},{"bike_id":"65743b68-b450-425e-952b-a4c59f7d0760","system_id":"levelo_inurba_marseille","lat":43.30526,"lon":5.36705,"is_reserved":false,"is_disabled":false,"rental_uris":{"android":"levelo://app?vid=65743b68-b450-425e-952b-a4c59f7d0760","ios":"levelo://app?vid=65743b68-b450-425e-952b-a4c59f7d0760"},"vehicle_type_id":"4","last_reported":1679767663,"current_range_meters":26400,"station_id":"","pricing_plan_id":"free"},{"bike_id":"97672526-88d4-4476-b6e6-b0f8931dc487","system_id":"levelo_inurba_marseille","lat":43.305989,"lon":5.37225,"is_reserved":false,"is_disabled":false,"rental_uris":{"android":"levelo://app?vid=97672526-88d4-4476-b6e6-b0f8931dc487","ios":"levelo://app?vid=97672526-88d4-4476-b6e6-b0f8931dc487"},"vehicle_type_id":"4","last_reported":1679767663,"current_range_meters":3600,"station_id":"ce4bgqh2rcd13ifvqc4g","pricing_plan_id":"free"},{"bike_id":"f67d047f-66c6-4ca6-a152-79d6e5ef76de","system_id":"levelo_inurba_marseille","lat":43.30602,"lon":5.37221,"is_reserved":false,"is_disabled":false,"rental_uris":{"android":"levelo://app?vid=f67d047f-66c6-4ca6-a152-79d6e5ef76de","ios":"levelo://app?vid=f67d047f-66c6-4ca6-a152-79d6e5ef76de"},"vehicle_type_id":"4","last_reported":1679767663,"current_range_meters":0,"station_id":"","pricing_plan_id":"free"},{"bike_id":"529bc313-b0bc-4b2d-be76-820591d98d91","system_id":"levelo_inurba_marseille","lat":43.308012,"lon":5.381511,"is_reserved":false,"is_disabled":false,"rental_uris":{"android":"levelo://app?vid=529bc313-b0bc-4b2d-be76-820591d98d91","ios":"levelo://app?vid=529bc313-b0bc-4b2d-be76-820591d98d91"},"vehicle_type_id":"4","last_reported":1679767663,"current_range_meters":18800,"station_id":"ce4bgt12rcd13ifvqce0","pricing_plan_id":"free"},{"bike_id":"8fa0e4f5-6b36-4b37-b59c-983bdf451573","system_id":"levelo_inurba_marseille","lat":43.308012,"lon":5.381511,"is_reserved":false,"is_disabled":false,"rental_uris":{"android":"levelo://app?vid=8fa0e4f5-6b36-4b37-b59c-983bdf451573","ios":"levelo://app?vid=8fa0e4f5-6b36-4b37-b59c-983bdf451573"},"vehicle_type_id":"4","last_reported":1679767663,"current_range_meters":18000,"station_id":"ce4bgt12rcd13ifvqce0","pricing_plan_id":"free"},{"bike_id":"ba1c5df8-87f6-4220-ad82-8cf57cf5675f","system_id":"levelo_inurba_marseille","lat":43.304668,"lon":5.37902,"is_reserved":false,"is_disabled":false,"rental_uris":{"android":"levelo://app?vid=ba1c5df8-87f6-4220-ad82-8cf57cf5675f","ios":"levelo://app?vid=ba1c5df8-87f6-4220-ad82-8cf57cf5675f"},"vehicle_type_id":"4","last_reported":1679767663,"current_range_meters":8400,"station_id":"ce4bgup2rcd13ifvqcn0","pricing_plan_id":"free"},{"bike_id":"c8deb4b9-19f1-4df6-91de-b97f3559b004","system_id":"levelo_inurba_marseille","lat":43.304606,"lon":5.379026,"is_reserved":false,"is_disabled":false,"rental_uris":{"android":"levelo://app?vid=c8deb4b9-19f1-4df6-91de-b97f3559b004","ios":"levelo://app?vid=c8deb4b9-19f1-4df6-91de-b97f3559b004"},"vehicle_type_id":"4","last_reported":1679767663,"current_range_meters":17600,"station_id":"ce4bgup2rcd13ifvqcn0","pricing_plan_id":"free"},{"bike_id":"f5ed5d49-0055-48ec-9eb6-1001544b0df3","system_id":"levelo_inurba_marseille","lat":43.304606,"lon":5.379026,"is_reserved":false,"is_disabled":false,"rental_uris":{"android":"levelo://app?vid=f5ed5d49-0055-48ec-9eb6-1001544b0df3","ios":"levelo://app?vid=f5ed5d49-0055-48ec-9eb6-1001544b0df3"},"vehicle_type_id":"4","last_reported":1679767663,"current_range_meters":27200,"station_id":"ce4bgup2rcd13ifvqcn0","pricing_plan_id":"free"},{"bike_id":"db5a8bac-1744-468c-9f16-31fa68a938c8","system_id":"levelo_inurba_marseille","lat":43.304606,"lon":5.379026,"is_reserved":false,"is_disabled":false,"rental_uris":{"android":"levelo://app?vid=db5a8bac-1744-468c-9f16-31fa68a938c8","ios":"levelo://app?vid=db5a8bac-1744-468c-9f16-31fa68a938c8"},"vehicle_type_id":"4","last_reported":1679767663,"current_range_meters":0,"station_id":"ce4bgup2rcd13ifvqcn0","pricing_plan_id":"free"},{"bike_id":"a0a79dfe-5669-4b67-ae66-2b3914c30215","system_id":"levelo_inurba_marseille","lat":43.313571,"lon":5.384829,"is_reserved":false,"is_disabled":false,"rental_uris":{"android":"levelo://app?vid=a0a79dfe-5669-4b67-ae66-2b3914c30215","ios":"levelo://app?vid=a0a79dfe-5669-4b67-ae66-2b3914c30215"},"vehicle_type_id":"4","last_reported":1679767663,"current_range_meters":8400,"station_id":"ce4bgt92rcd13ifvqcf0","pricing_plan_id":"free"},{"bike_id":"895903d5-4eb6-45f4-a1c4-39861767de75","system_id":"levelo_inurba_marseille","lat":43.313571,"lon":5.384829,"is_reserved":false,"is_disabled":false,"rental_uris":{"android":"levelo://app?vid=895903d5-4eb6-45f4-a1c4-39861767de75","ios":"levelo://app?vid=895903d5-4eb6-45f4-a1c4-39861767de75"},"vehicle_type_id":"4","last_reported":1679767663,"current_range_meters":26000,"station_id":"ce4bgt92rcd13ifvqcf0","pricing_plan_id":"free"},{"bike_id":"aea1c399-7550-4199-9851-4e19aa42914e","system_id":"levelo_inurba_marseille","lat":43.313571,"lon":5.384829,"is_reserved":false,"is_disabled":false,"rental_uris":{"android":"levelo://app?vid=aea1c399-7550-4199-9851-4e19aa42914e","ios":"levelo://app?vid=aea1c399-7550-4199-9851-4e19aa42914e"},"vehicle_type_id":"4","last_reported":1679767663,"current_range_meters":1600,"station_id":"ce4bgt92rcd13ifvqcf0","pricing_plan_id":"free"},{"bike_id":"44dc3fe1-c383-437a-83b9-a75b28cc17c6","system_id":"levelo_inurba_marseille","lat":43.299814,"lon":5.370158,"is_reserved":false,"is_disabled":false,"rental_uris":{"android":"levelo://app?vid=44dc3fe1-c383-437a-83b9-a75b28cc17c6","ios":"levelo://app?vid=44dc3fe1-c383-437a-83b9-a75b28cc17c6"},"vehicle_type_id":"4","last_reported":1679767663,"current_range_meters":20800,"station_id":"","pricing_plan_id":"free"},{"bike_id":"3a5a40c0-e990-4984-8658-2aa42b99efdd","system_id":"levelo_inurba_marseille","lat":43.313571,"lon":5.384829,"is_reserved":false,"is_disabled":false,"rental_uris":{"android":"levelo://app?vid=3a5a40c0-e990-4984-8658-2aa42b99efdd","ios":"levelo://app?vid=3a5a40c0-e990-4984-8658-2aa42b99efdd"},"vehicle_type_id":"4","last_reported":1679767663,"current_range_meters":0,"station_id":"ce4bgt92rcd13ifvqcf0","pricing_plan_id":"free"},{"bike_id":"7ead484f-7500-4daa-916a-b35d97045ec7","system_id":"levelo_inurba_marseille","lat":43.314277,"lon":5.38549,"is_reserved":false,"is_disabled":false,"rental_uris":{"android":"levelo://app?vid=7ead484f-7500-4daa-916a-b35d97045ec7","ios":"levelo://app?vid=7ead484f-7500-4daa-916a-b35d97045ec7"},"vehicle_type_id":"4","last_reported":1679767663,"current_range_meters":12400,"station_id":"","pricing_plan_id":"free"},{"bike_id":"02bcddb4-2ac1-4732-8692-d52b62741547","system_id":"levelo_inurba_marseille","lat":43.328371,"lon":5.366912,"is_reserved":false,"is_disabled":false,"rental_uris":{"android":"levelo://app?vid=02bcddb4-2ac1-4732-8692-d52b62741547","ios":"levelo://app?vid=02bcddb4-2ac1-4732-8692-d52b62741547"},"vehicle_type_id":"4","last_reported":1679767663,"current_range_meters":10800,"station_id":"ce4bhs92rcd13ifvqi0g","pricing_plan_id":"free"},{"bike_id":"46ec08da-033e-4746-bfce-6bb94c218da8","system_id":"levelo_inurba_marseille","lat":43.328371,"lon":5.366912,"is_reserved":false,"is_disabled":false,"rental_uris":{"android":"levelo://app?vid=46ec08da-033e-4746-bfce-6bb94c218da8","ios":"levelo://app?vid=46ec08da-033e-4746-bfce-6bb94c218da8"},"vehicle_type_id":"4","last_reported":1679767663,"current_range_meters":10400,"station_id":"ce4bhs92rcd13ifvqi0g","pricing_plan_id":"free"},{"bike_id":"1335a769-2175-4dda-9f50-e34e548792e1","system_id":"levelo_inurba_marseille","lat":43.29677,"lon":5.37286,"is_reserved":false,"is_disabled":false,"rental_uris":{"android":"levelo://app?vid=1335a769-2175-4dda-9f50-e34e548792e1","ios":"levelo://app?vid=1335a769-2175-4dda-9f50-e34e548792e1"},"vehicle_type_id":"4","last_reported":1679767663,"current_range_meters":14800,"station_id":"","pricing_plan_id":"free"},{"bike_id":"e9cee5f3-03c7-454b-994d-62d0102c4965","system_id":"levelo_inurba_marseille","lat":43.300315,"lon":5.382228,"is_reserved":false,"is_disabled":false,"rental_uris":{"android":"levelo://app?vid=e9cee5f3-03c7-454b-994d-62d0102c4965","ios":"levelo://app?vid=e9cee5f3-03c7-454b-994d-62d0102c4965"},"vehicle_type_id":"4","last_reported":1679767663,"current_range_meters":0,"station_id":"","pricing_plan_id":"free"},{"bike_id":"2cb1a040-c334-49bc-929e-e50b1295578d","system_id":"levelo_inurba_marseille","lat":43.29573,"lon":5.367355,"is_reserved":false,"is_disabled":false,"rental_uris":{"android":"levelo://app?vid=2cb1a040-c334-49bc-929e-e50b1295578d","ios":"levelo://app?vid=2cb1a040-c334-49bc-929e-e50b1295578d"},"vehicle_type_id":"4","last_reported":1679767663,"current_range_meters":7200,"station_id":"ce4bgph2rcd13ifvqc2g","pricing_plan_id":"free"},{"bike_id":"694d119c-0b74-49e4-b6a4-5f75c2bb5f83","system_id":"levelo_inurba_marseille","lat":43.309589,"lon":5.390258,"is_reserved":false,"is_disabled":false,"rental_uris":{"android":"levelo://app?vid=694d119c-0b74-49e4-b6a4-5f75c2bb5f83","ios":"levelo://app?vid=694d119c-0b74-49e4-b6a4-5f75c2bb5f83"},"vehicle_type_id":"4","last_reported":1679767663,"current_range_meters":22000,"station_id":"ce4bgup2rcd13ifvqco0","pricing_plan_id":"free"},{"bike_id":"91d6d603-4493-46ad-a3c6-44ca636a8db1","system_id":"levelo_inurba_marseille","lat":43.295748,"lon":5.37522,"is_reserved":false,"is_disabled":false,"rental_uris":{"android":"levelo://app?vid=91d6d603-4493-46ad-a3c6-44ca636a8db1","ios":"levelo://app?vid=91d6d603-4493-46ad-a3c6-44ca636a8db1"},"vehicle_type_id":"4","last_reported":1679767663,"current_range_meters":5200,"station_id":"ce4bgh92rcd13ifvqb50","pricing_plan_id":"free"},{"bike_id":"05d6af4e-b843-4fee-bfe2-0a2c6610b0e5","system_id":"levelo_inurba_marseille","lat":43.298037,"lon":5.381066,"is_reserved":false,"is_disabled":false,"rental_uris":{"android":"levelo://app?vid=05d6af4e-b843-4fee-bfe2-0a2c6610b0e5","ios":"levelo://app?vid=05d6af4e-b843-4fee-bfe2-0a2c6610b0e5"},"vehicle_type_id":"4","last_reported":1679767663,"current_range_meters":1600,"station_id":"ce4bgip2rcd13ifvqbb0","pricing_plan_id":"free"},{"bike_id":"223ca7d0-a372-47ed-848f-6a813a915e91","system_id":"levelo_inurba_marseille","lat":43.295748,"lon":5.37522,"is_reserved":false,"is_disabled":false,"rental_uris":{"android":"levelo://app?vid=223ca7d0-a372-47ed-848f-6a813a915e91","ios":"levelo://app?vid=223ca7d0-a372-47ed-848f-6a813a915e91"},"vehicle_type_id":"4","last_reported":1679767663,"current_range_meters":12800,"station_id":"ce4bgh92rcd13ifvqb50","pricing_plan_id":"free"},{"bike_id":"8a99e95f-2d8c-40e2-8609-5adb12ba06ef","system_id":"levelo_inurba_marseille","lat":43.298226,"lon":5.382271,"is_reserved":false,"is_disabled":false,"rental_uris":{"android":"levelo://app?vid=8a99e95f-2d8c-40e2-8609-5adb12ba06ef","ios":"levelo://app?vid=8a99e95f-2d8c-40e2-8609-5adb12ba06ef"},"vehicle_type_id":"4","last_reported":1679767663,"current_range_meters":0,"station_id":"","pricing_plan_id":"free"},{"bike_id":"b46f169e-cc1b-4c5c-82f8-26d0fe889cfa","system_id":"levelo_inurba_marseille","lat":43.29971,"lon":5.38504,"is_reserved":false,"is_disabled":false,"rental_uris":{"android":"levelo://app?vid=b46f169e-cc1b-4c5c-82f8-26d0fe889cfa","ios":"levelo://app?vid=b46f169e-cc1b-4c5c-82f8-26d0fe889cfa"},"vehicle_type_id":"4","last_reported":1679767663,"current_range_meters":0,"station_id":"ce4bgj92rcd13ifvqbd0","pricing_plan_id":"free"},{"bike_id":"6e5a8a93-f476-4170-a257-20def07505a7","system_id":"levelo_inurba_marseille","lat":43.32367,"lon":5.388836,"is_reserved":false,"is_disabled":false,"rental_uris":{"android":"levelo://app?vid=6e5a8a93-f476-4170-a257-20def07505a7","ios":"levelo://app?vid=6e5a8a93-f476-4170-a257-20def07505a7"},"vehicle_type_id":"4","last_reported":1679767663,"current_range_meters":24800,"station_id":"ce4bhqp2rcd13ifvqhog","pricing_plan_id":"free"},{"bike_id":"e5f2c853-8abc-4fc7-b1e0-564047687d20","system_id":"levelo_inurba_marseille","lat":43.32367,"lon":5.388836,"is_reserved":false,"is_disabled":false,"rental_uris":{"android":"levelo://app?vid=e5f2c853-8abc-4fc7-b1e0-564047687d20","ios":"levelo://app?vid=e5f2c853-8abc-4fc7-b1e0-564047687d20"},"vehicle_type_id":"4","last_reported":1679767663,"current_range_meters":19200,"station_id":"ce4bhqp2rcd13ifvqhog","pricing_plan_id":"free"},{"bike_id":"eed9353d-078b-4dc3-844f-3f1fcec375b4","system_id":"levelo_inurba_marseille","lat":43.32367,"lon":5.388836,"is_reserved":false,"is_disabled":false,"rental_uris":{"android":"levelo://app?vid=eed9353d-078b-4dc3-844f-3f1fcec375b4","ios":"levelo://app?vid=eed9353d-078b-4dc3-844f-3f1fcec375b4"},"vehicle_type_id":"4","last_reported":1679767663,"current_range_meters":20800,"station_id":"ce4bhqp2rcd13ifvqhog","pricing_plan_id":"free"},{"bike_id":"b6ab2382-7a5d-4c80-86dc-badbbd907a3a","system_id":"levelo_inurba_marseille","lat":43.32367,"lon":5.388836,"is_reserved":false,"is_disabled":false,"rental_uris":{"android":"levelo://app?vid=b6ab2382-7a5d-4c80-86dc-badbbd907a3a","ios":"levelo://app?vid=b6ab2382-7a5d-4c80-86dc-badbbd907a3a"},"vehicle_type_id":"4","last_reported":1679767663,"current_range_meters":15200,"station_id":"ce4bhqp2rcd13ifvqhog","pricing_plan_id":"free"},{"bike_id":"c4e1b493-c33b-474f-a6b6-ba6eb85ae651","system_id":"levelo_inurba_marseille","lat":43.32367,"lon":5.388836,"is_reserved":false,"is_disabled":false,"rental_uris":{"android":"levelo://app?vid=c4e1b493-c33b-474f-a6b6-ba6eb85ae651","ios":"levelo://app?vid=c4e1b493-c33b-474f-a6b6-ba6eb85ae651"},"vehicle_type_id":"4","last_reported":1679767663,"current_range_meters":20000,"station_id":"ce4bhqp2rcd13ifvqhog","pricing_plan_id":"free"},{"bike_id":"cca1d9a4-d805-48dc-9312-89886ba9ac56","system_id":"levelo_inurba_marseille","lat":43.32367,"lon":5.388836,"is_reserved":false,"is_disabled":false,"rental_uris":{"android":"levelo://app?vid=cca1d9a4-d805-48dc-9312-89886ba9ac56","ios":"levelo://app?vid=cca1d9a4-d805-48dc-9312-89886ba9ac56"},"vehicle_type_id":"4","last_reported":1679767663,"current_range_meters":28400,"station_id":"ce4bhqp2rcd13ifvqhog","pricing_plan_id":"free"},{"bike_id":"02f0cfac-abe3-46f4-bdcd-4aaca272ad99","system_id":"levelo_inurba_marseille","lat":43.32367,"lon":5.388836,"is_reserved":false,"is_disabled":false,"rental_uris":{"android":"levelo://app?vid=02f0cfac-abe3-46f4-bdcd-4aaca272ad99","ios":"levelo://app?vid=02f0cfac-abe3-46f4-bdcd-4aaca272ad99"},"vehicle_type_id":"4","last_reported":1679767663,"current_range_meters":12400,"station_id":"ce4bhqp2rcd13ifvqhog","pricing_plan_id":"free"},{"bike_id":"36159d83-91bd-471b-855d-2319ec0dd914","system_id":"levelo_inurba_marseille","lat":43.32367,"lon":5.388836,"is_reserved":false,"is_disabled":false,"rental_uris":{"android":"levelo://app?vid=36159d83-91bd-471b-855d-2319ec0dd914","ios":"levelo://app?vid=36159d83-91bd-471b-855d-2319ec0dd914"},"vehicle_type_id":"4","last_reported":1679767663,"current_range_meters":27200,"station_id":"ce4bhqp2rcd13ifvqhog","pricing_plan_id":"free"},{"bike_id":"6ab326a2-8d1c-4649-bc08-808f37df73cf","system_id":"levelo_inurba_marseille","lat":43.32367,"lon":5.388836,"is_reserved":false,"is_disabled":false,"rental_uris":{"android":"levelo://app?vid=6ab326a2-8d1c-4649-bc08-808f37df73cf","ios":"levelo://app?vid=6ab326a2-8d1c-4649-bc08-808f37df73cf"},"vehicle_type_id":"4","last_reported":1679767663,"current_range_meters":21600,"station_id":"ce4bhqp2rcd13ifvqhog","pricing_plan_id":"free"},{"bike_id":"a85336d5-2876-41e7-a04d-13cb2c8a8109","system_id":"levelo_inurba_marseille","lat":43.32367,"lon":5.388836,"is_reserved":false,"is_disabled":false,"rental_uris":{"android":"levelo://app?vid=a85336d5-2876-41e7-a04d-13cb2c8a8109","ios":"levelo://app?vid=a85336d5-2876-41e7-a04d-13cb2c8a8109"},"vehicle_type_id":"4","last_reported":1679767663,"current_range_meters":24800,"station_id":"ce4bhqp2rcd13ifvqhog","pricing_plan_id":"free"},{"bike_id":"05acc85a-4684-4475-9b82-b27ac008d895","system_id":"levelo_inurba_marseille","lat":43.32367,"lon":5.388836,"is_reserved":false,"is_disabled":false,"rental_uris":{"android":"levelo://app?vid=05acc85a-4684-4475-9b82-b27ac008d895","ios":"levelo://app?vid=05acc85a-4684-4475-9b82-b27ac008d895"},"vehicle_type_id":"4","last_reported":1679767663,"current_range_meters":16400,"station_id":"ce4bhqp2rcd13ifvqhog","pricing_plan_id":"free"},{"bike_id":"309822d2-3ae2-45fe-88ee-a3c286bced8e","system_id":"levelo_inurba_marseille","lat":43.3237,"lon":5.38889,"is_reserved":false,"is_disabled":false,"rental_uris":{"android":"levelo://app?vid=309822d2-3ae2-45fe-88ee-a3c286bced8e","ios":"levelo://app?vid=309822d2-3ae2-45fe-88ee-a3c286bced8e"},"vehicle_type_id":"4","last_reported":1679767663,"current_range_meters":31600,"station_id":"ce4bhqp2rcd13ifvqhog","pricing_plan_id":"free"},{"bike_id":"a3080203-8fdb-43cd-986b-aa28cb83091b","system_id":"levelo_inurba_marseille","lat":43.32367,"lon":5.388836,"is_reserved":false,"is_disabled":false,"rental_uris":{"android":"levelo://app?vid=a3080203-8fdb-43cd-986b-aa28cb83091b","ios":"levelo://app?vid=a3080203-8fdb-43cd-986b-aa28cb83091b"},"vehicle_type_id":"4","last_reported":1679767663,"current_range_meters":20000,"station_id":"ce4bhqp2rcd13ifvqhog","pricing_plan_id":"free"},{"bike_id":"55172425-0f1a-4d38-b628-65b36d83561a","system_id":"levelo_inurba_marseille","lat":43.325557,"lon":5.3888,"is_reserved":false,"is_disabled":false,"rental_uris":{"android":"levelo://app?vid=55172425-0f1a-4d38-b628-65b36d83561a","ios":"levelo://app?vid=55172425-0f1a-4d38-b628-65b36d83561a"},"vehicle_type_id":"4","last_reported":1679767663,"current_range_meters":31600,"station_id":"ce4bhqp2rcd13ifvqhog","pricing_plan_id":"free"},{"bike_id":"ffa350ab-83f5-4961-a393-09af5f79ac9f","system_id":"levelo_inurba_marseille","lat":43.293009,"lon":5.374584,"is_reserved":false,"is_disabled":false,"rental_uris":{"android":"levelo://app?vid=ffa350ab-83f5-4961-a393-09af5f79ac9f","ios":"levelo://app?vid=ffa350ab-83f5-4961-a393-09af5f79ac9f"},"vehicle_type_id":"4","last_reported":1679767663,"current_range_meters":23200,"station_id":"ce4bgi12rcd13ifvqb70","pricing_plan_id":"free"},{"bike_id":"6c055cec-e5af-45f0-929d-b59cb3173972","system_id":"levelo_inurba_marseille","lat":43.292723,"lon":5.359885,"is_reserved":false,"is_disabled":false,"rental_uris":{"android":"levelo://app?vid=6c055cec-e5af-45f0-929d-b59cb3173972","ios":"levelo://app?vid=6c055cec-e5af-45f0-929d-b59cb3173972"},"vehicle_type_id":"4","last_reported":1679767663,"current_range_meters":13600,"station_id":"","pricing_plan_id":"free"},{"bike_id":"a1c623a1-dd12-4e44-ad58-4917426e5b42","system_id":"levelo_inurba_marseille","lat":43.30085,"lon":5.390856,"is_reserved":false,"is_disabled":false,"rental_uris":{"android":"levelo://app?vid=a1c623a1-dd12-4e44-ad58-4917426e5b42","ios":"levelo://app?vid=a1c623a1-dd12-4e44-ad58-4917426e5b42"},"vehicle_type_id":"4","last_reported":1679767663,"current_range_meters":5600,"station_id":"ce4bh192rcd13ifvqdb0","pricing_plan_id":"free"},{"bike_id":"e7da5637-8265-4d17-9851-928bf2593e55","system_id":"levelo_inurba_marseille","lat":43.2936,"lon":5.37835,"is_reserved":false,"is_disabled":false,"rental_uris":{"android":"levelo://app?vid=e7da5637-8265-4d17-9851-928bf2593e55","ios":"levelo://app?vid=e7da5637-8265-4d17-9851-928bf2593e55"},"vehicle_type_id":"4","last_reported":1679767663,"current_range_meters":0,"station_id":"ce4bgjh2rcd13ifvqbf0","pricing_plan_id":"free"},{"bike_id":"60cf5f78-9643-4731-8099-089e7eb154fd","system_id":"levelo_inurba_marseille","lat":43.2936,"lon":5.37835,"is_reserved":false,"is_disabled":false,"rental_uris":{"android":"levelo://app?vid=60cf5f78-9643-4731-8099-089e7eb154fd","ios":"levelo://app?vid=60cf5f78-9643-4731-8099-089e7eb154fd"},"vehicle_type_id":"4","last_reported":1679767663,"current_range_meters":31600,"station_id":"ce4bgjh2rcd13ifvqbf0","pricing_plan_id":"free"},{"bike_id":"acca959a-55bc-40b5-896f-ded2e4ddb50c","system_id":"levelo_inurba_marseille","lat":43.292311,"lon":5.360731,"is_reserved":false,"is_disabled":false,"rental_uris":{"android":"levelo://app?vid=acca959a-55bc-40b5-896f-ded2e4ddb50c","ios":"levelo://app?vid=acca959a-55bc-40b5-896f-ded2e4ddb50c"},"vehicle_type_id":"4","last_reported":1679767663,"current_range_meters":21600,"station_id":"ce4bhbh2rcd13ifvqeqg","pricing_plan_id":"free"},{"bike_id":"781eb347-3f6a-4e27-bb44-eb2faec94c66","system_id":"levelo_inurba_marseille","lat":43.298843,"lon":5.388997,"is_reserved":false,"is_disabled":false,"rental_uris":{"android":"levelo://app?vid=781eb347-3f6a-4e27-bb44-eb2faec94c66","ios":"levelo://app?vid=781eb347-3f6a-4e27-bb44-eb2faec94c66"},"vehicle_type_id":"4","last_reported":1679767663,"current_range_meters":20800,"station_id":"ce4bh392rcd13ifvqdl0","pricing_plan_id":"free"},{"bike_id":"00aa489b-b008-4610-a17f-8949ca0ded42","system_id":"levelo_inurba_marseille","lat":43.313285,"lon":5.396934,"is_reserved":false,"is_disabled":false,"rental_uris":{"android":"levelo://app?vid=00aa489b-b008-4610-a17f-8949ca0ded42","ios":"levelo://app?vid=00aa489b-b008-4610-a17f-8949ca0ded42"},"vehicle_type_id":"4","last_reported":1679767663,"current_range_meters":0,"station_id":"","pricing_plan_id":"free"},{"bike_id":"52b8c43b-bdbf-4b11-84c6-6ffef1a926c9","system_id":"levelo_inurba_marseille","lat":43.309038,"lon":5.396546,"is_reserved":false,"is_disabled":false,"rental_uris":{"android":"levelo://app?vid=52b8c43b-bdbf-4b11-84c6-6ffef1a926c9","ios":"levelo://app?vid=52b8c43b-bdbf-4b11-84c6-6ffef1a926c9"},"vehicle_type_id":"4","last_reported":1679767663,"current_range_meters":0,"station_id":"ce4bh012rcd13ifvqcv0","pricing_plan_id":"free"},{"bike_id":"48a69fef-768f-4e4a-bd4e-6bdcf3d61a2b","system_id":"levelo_inurba_marseille","lat":43.309038,"lon":5.396546,"is_reserved":false,"is_disabled":false,"rental_uris":{"android":"levelo://app?vid=48a69fef-768f-4e4a-bd4e-6bdcf3d61a2b","ios":"levelo://app?vid=48a69fef-768f-4e4a-bd4e-6bdcf3d61a2b"},"vehicle_type_id":"4","last_reported":1679767663,"current_range_meters":22000,"station_id":"ce4bh012rcd13ifvqcv0","pricing_plan_id":"free"},{"bike_id":"08a3969d-246b-47e4-92e0-ca31b5999211","system_id":"levelo_inurba_marseille","lat":43.290842,"lon":5.371572,"is_reserved":false,"is_disabled":false,"rental_uris":{"android":"levelo://app?vid=08a3969d-246b-47e4-92e0-ca31b5999211","ios":"levelo://app?vid=08a3969d-246b-47e4-92e0-ca31b5999211"},"vehicle_type_id":"4","last_reported":1679767663,"current_range_meters":0,"station_id":"","pricing_plan_id":"free"},{"bike_id":"0022cb4d-6199-4aba-8349-a90453b43db3","system_id":"levelo_inurba_marseille","lat":43.290727,"lon":5.371629,"is_reserved":false,"is_disabled":false,"rental_uris":{"android":"levelo://app?vid=0022cb4d-6199-4aba-8349-a90453b43db3","ios":"levelo://app?vid=0022cb4d-6199-4aba-8349-a90453b43db3"},"vehicle_type_id":"4","last_reported":1679767663,"current_range_meters":0,"station_id":"ce4bh5p2rcd13ifvqe4g","pricing_plan_id":"free"},{"bike_id":"ba8d5c9d-fcde-4aac-a884-d43af3efbb61","system_id":"levelo_inurba_marseille","lat":43.302008,"lon":5.394694,"is_reserved":false,"is_disabled":false,"rental_uris":{"android":"levelo://app?vid=ba8d5c9d-fcde-4aac-a884-d43af3efbb61","ios":"levelo://app?vid=ba8d5c9d-fcde-4aac-a884-d43af3efbb61"},"vehicle_type_id":"4","last_reported":1679767663,"current_range_meters":2400,"station_id":"ce4bh0p2rcd13ifvqd70","pricing_plan_id":"free"},{"bike_id":"7bb01097-ebb9-4996-ac25-b8a1cca5000c","system_id":"levelo_inurba_marseille","lat":43.29416,"lon":5.38627,"is_reserved":false,"is_disabled":false,"rental_uris":{"android":"levelo://app?vid=7bb01097-ebb9-4996-ac25-b8a1cca5000c","ios":"levelo://app?vid=7bb01097-ebb9-4996-ac25-b8a1cca5000c"},"vehicle_type_id":"4","last_reported":1679767663,"current_range_meters":0,"station_id":"ce4bh2h2rcd13ifvqdh0","pricing_plan_id":"free"},{"bike_id":"41ace1ff-5b1e-4986-971d-cc65a2fb4e17","system_id":"levelo_inurba_marseille","lat":43.289415,"lon":5.366246,"is_reserved":false,"is_disabled":false,"rental_uris":{"android":"levelo://app?vid=41ace1ff-5b1e-4986-971d-cc65a2fb4e17","ios":"levelo://app?vid=41ace1ff-5b1e-4986-971d-cc65a2fb4e17"},"vehicle_type_id":"4","last_reported":1679767663,"current_range_meters":0,"station_id":"ce4bhap2rcd13ifvqek0","pricing_plan_id":"free"},{"bike_id":"b024a790-947a-486e-8c2e-7d0288f34de1","system_id":"levelo_inurba_marseille","lat":43.289184,"lon":5.366408,"is_reserved":false,"is_disabled":false,"rental_uris":{"android":"levelo://app?vid=b024a790-947a-486e-8c2e-7d0288f34de1","ios":"levelo://app?vid=b024a790-947a-486e-8c2e-7d0288f34de1"},"vehicle_type_id":"4","last_reported":1679767663,"current_range_meters":11200,"station_id":"ce4bhap2rcd13ifvqek0","pricing_plan_id":"free"},{"bike_id":"7f326f0f-0d51-4472-ae48-6dea2493d756","system_id":"levelo_inurba_marseille","lat":43.327732,"lon":5.391661,"is_reserved":false,"is_disabled":false,"rental_uris":{"android":"levelo://app?vid=7f326f0f-0d51-4472-ae48-6dea2493d756","ios":"levelo://app?vid=7f326f0f-0d51-4472-ae48-6dea2493d756"},"vehicle_type_id":"4","last_reported":1679767663,"current_range_meters":31600,"station_id":"ce4bhr92rcd13ifvqhrg","pricing_plan_id":"free"},{"bike_id":"1afb3fb7-be72-4cda-9e2e-833005585ab2","system_id":"levelo_inurba_marseille","lat":43.289314,"lon":5.366367,"is_reserved":false,"is_disabled":false,"rental_uris":{"android":"levelo://app?vid=1afb3fb7-be72-4cda-9e2e-833005585ab2","ios":"levelo://app?vid=1afb3fb7-be72-4cda-9e2e-833005585ab2"},"vehicle_type_id":"4","last_reported":1679767663,"current_range_meters":30000,"station_id":"","pricing_plan_id":"free"},{"bike_id":"b6f5c9b7-3c84-4414-9b61-178e187cc841","system_id":"levelo_inurba_marseille","lat":43.329706,"lon":5.389241,"is_reserved":false,"is_disabled":false,"rental_uris":{"android":"levelo://app?vid=b6f5c9b7-3c84-4414-9b61-178e187cc841","ios":"levelo://app?vid=b6f5c9b7-3c84-4414-9b61-178e187cc841"},"vehicle_type_id":"4","last_reported":1679767663,"current_range_meters":31600,"station_id":"ce4bhr92rcd13ifvqhrg","pricing_plan_id":"free"},{"bike_id":"1d8242c4-2d97-4a07-8ea1-51394fd02c7b","system_id":"levelo_inurba_marseille","lat":43.32977,"lon":5.38923,"is_reserved":false,"is_disabled":false,"rental_uris":{"android":"levelo://app?vid=1d8242c4-2d97-4a07-8ea1-51394fd02c7b","ios":"levelo://app?vid=1d8242c4-2d97-4a07-8ea1-51394fd02c7b"},"vehicle_type_id":"4","last_reported":1679767663,"current_range_meters":30800,"station_id":"","pricing_plan_id":"free"},{"bike_id":"52e28d2b-4aba-4840-b49a-81be7f02dea3","system_id":"levelo_inurba_marseille","lat":43.290467,"lon":5.355801,"is_reserved":false,"is_disabled":false,"rental_uris":{"android":"levelo://app?vid=52e28d2b-4aba-4840-b49a-81be7f02dea3","ios":"levelo://app?vid=52e28d2b-4aba-4840-b49a-81be7f02dea3"},"vehicle_type_id":"4","last_reported":1679767663,"current_range_meters":2800,"station_id":"","pricing_plan_id":"free"},{"bike_id":"3721e525-eab0-4e38-a49a-b474b7fda6b9","system_id":"levelo_inurba_marseille","lat":43.292644,"lon":5.384257,"is_reserved":false,"is_disabled":false,"rental_uris":{"android":"levelo://app?vid=3721e525-eab0-4e38-a49a-b474b7fda6b9","ios":"levelo://app?vid=3721e525-eab0-4e38-a49a-b474b7fda6b9"},"vehicle_type_id":"4","last_reported":1679767663,"current_range_meters":30400,"station_id":"ce4bh692rcd13ifvqea0","pricing_plan_id":"free"},{"bike_id":"bad33845-a823-44e7-a61e-17821a707bff","system_id":"levelo_inurba_marseille","lat":43.330291,"lon":5.389113,"is_reserved":false,"is_disabled":false,"rental_uris":{"android":"levelo://app?vid=bad33845-a823-44e7-a61e-17821a707bff","ios":"levelo://app?vid=bad33845-a823-44e7-a61e-17821a707bff"},"vehicle_type_id":"4","last_reported":1679767663,"current_range_meters":31600,"station_id":"ce4bhr92rcd13ifvqhrg","pricing_plan_id":"free"},{"bike_id":"c89e58fd-80a7-4a1c-9b20-cd5ffeecdc0a","system_id":"levelo_inurba_marseille","lat":43.290104,"lon":5.356111,"is_reserved":false,"is_disabled":false,"rental_uris":{"android":"levelo://app?vid=c89e58fd-80a7-4a1c-9b20-cd5ffeecdc0a","ios":"levelo://app?vid=c89e58fd-80a7-4a1c-9b20-cd5ffeecdc0a"},"vehicle_type_id":"4","last_reported":1679767663,"current_range_meters":11600,"station_id":"ce4bhb92rcd13ifvqen0","pricing_plan_id":"free"},{"bike_id":"43d4fd9a-8a5d-4727-a581-2249342415b7","system_id":"levelo_inurba_marseille","lat":43.3304,"lon":5.38917,"is_reserved":false,"is_disabled":false,"rental_uris":{"android":"levelo://app?vid=43d4fd9a-8a5d-4727-a581-2249342415b7","ios":"levelo://app?vid=43d4fd9a-8a5d-4727-a581-2249342415b7"},"vehicle_type_id":"4","last_reported":1679767663,"current_range_meters":20800,"station_id":"ce4bhr92rcd13ifvqhrg","pricing_plan_id":"free"},{"bike_id":"14282ed8-5cfa-447f-8c57-187a1482ebab","system_id":"levelo_inurba_marseille","lat":43.330442,"lon":5.389148,"is_reserved":false,"is_disabled":false,"rental_uris":{"android":"levelo://app?vid=14282ed8-5cfa-447f-8c57-187a1482ebab","ios":"levelo://app?vid=14282ed8-5cfa-447f-8c57-187a1482ebab"},"vehicle_type_id":"4","last_reported":1679767663,"current_range_meters":15200,"station_id":"ce4bhr92rcd13ifvqhrg","pricing_plan_id":"free"},{"bike_id":"91a891cd-d4a2-4f47-8242-f3903b4bf34f","system_id":"levelo_inurba_marseille","lat":43.290995,"lon":5.381361,"is_reserved":false,"is_disabled":false,"rental_uris":{"android":"levelo://app?vid=91a891cd-d4a2-4f47-8242-f3903b4bf34f","ios":"levelo://app?vid=91a891cd-d4a2-4f47-8242-f3903b4bf34f"},"vehicle_type_id":"4","last_reported":1679767663,"current_range_meters":15200,"station_id":"ce4bh512rcd13ifvqe2g","pricing_plan_id":"free"},{"bike_id":"21abfa29-0e31-484d-93e9-5c9cea181c0d","system_id":"levelo_inurba_marseille","lat":43.29532,"lon":5.39029,"is_reserved":false,"is_disabled":false,"rental_uris":{"android":"levelo://app?vid=21abfa29-0e31-484d-93e9-5c9cea181c0d","ios":"levelo://app?vid=21abfa29-0e31-484d-93e9-5c9cea181c0d"},"vehicle_type_id":"4","last_reported":1679767663,"current_range_meters":24800,"station_id":"ce4bh3p2rcd13ifvqdp0","pricing_plan_id":"free"},{"bike_id":"191c2fd7-59e6-48e1-9177-a2ec0d59842f","system_id":"levelo_inurba_marseille","lat":43.295169,"lon":5.390426,"is_reserved":false,"is_disabled":false,"rental_uris":{"android":"levelo://app?vid=191c2fd7-59e6-48e1-9177-a2ec0d59842f","ios":"levelo://app?vid=191c2fd7-59e6-48e1-9177-a2ec0d59842f"},"vehicle_type_id":"4","last_reported":1679767663,"current_range_meters":17600,"station_id":"ce4bh3p2rcd13ifvqdp0","pricing_plan_id":"free"},{"bike_id":"8cda2811-0d3e-4e80-953f-3d81ae75b708","system_id":"levelo_inurba_marseille","lat":43.29527,"lon":5.39087,"is_reserved":false,"is_disabled":false,"rental_uris":{"android":"levelo://app?vid=8cda2811-0d3e-4e80-953f-3d81ae75b708","ios":"levelo://app?vid=8cda2811-0d3e-4e80-953f-3d81ae75b708"},"vehicle_type_id":"4","last_reported":1679767663,"current_range_meters":23600,"station_id":"","pricing_plan_id":"free"},{"bike_id":"5dbe79cc-8fb2-4919-b431-be73ab496c56","system_id":"levelo_inurba_marseille","lat":43.337492,"lon":5.374704,"is_reserved":false,"is_disabled":false,"rental_uris":{"android":"levelo://app?vid=5dbe79cc-8fb2-4919-b431-be73ab496c56","ios":"levelo://app?vid=5dbe79cc-8fb2-4919-b431-be73ab496c56"},"vehicle_type_id":"4","last_reported":1679767663,"current_range_meters":24800,"station_id":"","pricing_plan_id":"free"},{"bike_id":"85779792-b00d-4e4d-a97b-d624562ac36a","system_id":"levelo_inurba_marseille","lat":43.3066,"lon":5.40083,"is_reserved":false,"is_disabled":false,"rental_uris":{"android":"levelo://app?vid=85779792-b00d-4e4d-a97b-d624562ac36a","ios":"levelo://app?vid=85779792-b00d-4e4d-a97b-d624562ac36a"},"vehicle_type_id":"4","last_reported":1679767663,"current_range_meters":0,"station_id":"ce4bh112rcd13ifvqda0","pricing_plan_id":"free"},{"bike_id":"66ec8361-9515-4d87-8864-ece33847e818","system_id":"levelo_inurba_marseille","lat":43.301117,"lon":5.398795,"is_reserved":false,"is_disabled":false,"rental_uris":{"android":"levelo://app?vid=66ec8361-9515-4d87-8864-ece33847e818","ios":"levelo://app?vid=66ec8361-9515-4d87-8864-ece33847e818"},"vehicle_type_id":"4","last_reported":1679767663,"current_range_meters":0,"station_id":"ce4bh0h2rcd13ifvqd40","pricing_plan_id":"free"},{"bike_id":"9cfd0a47-c27d-4f1e-9333-8134e15f53bd","system_id":"levelo_inurba_marseille","lat":43.301117,"lon":5.398795,"is_reserved":false,"is_disabled":false,"rental_uris":{"android":"levelo://app?vid=9cfd0a47-c27d-4f1e-9333-8134e15f53bd","ios":"levelo://app?vid=9cfd0a47-c27d-4f1e-9333-8134e15f53bd"},"vehicle_type_id":"4","last_reported":1679767663,"current_range_meters":23600,"station_id":"ce4bh0h2rcd13ifvqd40","pricing_plan_id":"free"},{"bike_id":"131f5fcd-dd94-4c00-907f-81c20487d43c","system_id":"levelo_inurba_marseille","lat":43.301117,"lon":5.398795,"is_reserved":false,"is_disabled":false,"rental_uris":{"android":"levelo://app?vid=131f5fcd-dd94-4c00-907f-81c20487d43c","ios":"levelo://app?vid=131f5fcd-dd94-4c00-907f-81c20487d43c"},"vehicle_type_id":"4","last_reported":1679767663,"current_range_meters":19200,"station_id":"ce4bh0h2rcd13ifvqd40","pricing_plan_id":"free"},{"bike_id":"d0d8974c-591b-4346-bab4-0af05df747f5","system_id":"levelo_inurba_marseille","lat":43.301117,"lon":5.398795,"is_reserved":false,"is_disabled":false,"rental_uris":{"android":"levelo://app?vid=d0d8974c-591b-4346-bab4-0af05df747f5","ios":"levelo://app?vid=d0d8974c-591b-4346-bab4-0af05df747f5"},"vehicle_type_id":"4","last_reported":1679767663,"current_range_meters":23200,"station_id":"ce4bh0h2rcd13ifvqd40","pricing_plan_id":"free"},{"bike_id":"f778e79a-b2b6-4878-a56b-df1169e849a5","system_id":"levelo_inurba_marseille","lat":43.30121,"lon":5.39858,"is_reserved":false,"is_disabled":false,"rental_uris":{"android":"levelo://app?vid=f778e79a-b2b6-4878-a56b-df1169e849a5","ios":"levelo://app?vid=f778e79a-b2b6-4878-a56b-df1169e849a5"},"vehicle_type_id":"4","last_reported":1679767663,"current_range_meters":10400,"station_id":"ce4bh0h2rcd13ifvqd40","pricing_plan_id":"free"},{"bike_id":"b8c66c4d-58c4-4ec8-975d-2e5a7e313059","system_id":"levelo_inurba_marseille","lat":43.301117,"lon":5.398795,"is_reserved":false,"is_disabled":false,"rental_uris":{"android":"levelo://app?vid=b8c66c4d-58c4-4ec8-975d-2e5a7e313059","ios":"levelo://app?vid=b8c66c4d-58c4-4ec8-975d-2e5a7e313059"},"vehicle_type_id":"4","last_reported":1679767663,"current_range_meters":2000,"station_id":"ce4bh0h2rcd13ifvqd40","pricing_plan_id":"free"},{"bike_id":"4abe9d91-7fdb-4735-aa10-ca7ef717a6ac","system_id":"levelo_inurba_marseille","lat":43.298681,"lon":5.397225,"is_reserved":false,"is_disabled":false,"rental_uris":{"android":"levelo://app?vid=4abe9d91-7fdb-4735-aa10-ca7ef717a6ac","ios":"levelo://app?vid=4abe9d91-7fdb-4735-aa10-ca7ef717a6ac"},"vehicle_type_id":"4","last_reported":1679767663,"current_range_meters":26400,"station_id":"ce4bh0h2rcd13ifvqd50","pricing_plan_id":"free"},{"bike_id":"2825c5bd-4c49-4e5e-84da-b6e7b271cf05","system_id":"levelo_inurba_marseille","lat":43.302422,"lon":5.400656,"is_reserved":false,"is_disabled":false,"rental_uris":{"android":"levelo://app?vid=2825c5bd-4c49-4e5e-84da-b6e7b271cf05","ios":"levelo://app?vid=2825c5bd-4c49-4e5e-84da-b6e7b271cf05"},"vehicle_type_id":"4","last_reported":1679767663,"current_range_meters":2000,"station_id":"","pricing_plan_id":"free"},{"bike_id":"7421e290-f67f-4d06-9267-31b274fe4261","system_id":"levelo_inurba_marseille","lat":43.302759,"lon":5.400793,"is_reserved":false,"is_disabled":false,"rental_uris":{"android":"levelo://app?vid=7421e290-f67f-4d06-9267-31b274fe4261","ios":"levelo://app?vid=7421e290-f67f-4d06-9267-31b274fe4261"},"vehicle_type_id":"4","last_reported":1679767663,"current_range_meters":6400,"station_id":"ce4bgvh2rcd13ifvqcs0","pricing_plan_id":"free"},{"bike_id":"90e2ee28-2020-40d7-b50e-aeff4c58bbbd","system_id":"levelo_inurba_marseille","lat":43.287184,"lon":5.37937,"is_reserved":false,"is_disabled":false,"rental_uris":{"android":"levelo://app?vid=90e2ee28-2020-40d7-b50e-aeff4c58bbbd","ios":"levelo://app?vid=90e2ee28-2020-40d7-b50e-aeff4c58bbbd"},"vehicle_type_id":"4","last_reported":1679767663,"current_range_meters":1200,"station_id":"ce4bh9p2rcd13ifvqec0","pricing_plan_id":"free"},{"bike_id":"be1846a7-6126-4c0e-b733-916821e0b857","system_id":"levelo_inurba_marseille","lat":43.28702,"lon":5.37943,"is_reserved":false,"is_disabled":false,"rental_uris":{"android":"levelo://app?vid=be1846a7-6126-4c0e-b733-916821e0b857","ios":"levelo://app?vid=be1846a7-6126-4c0e-b733-916821e0b857"},"vehicle_type_id":"4","last_reported":1679767663,"current_range_meters":0,"station_id":"","pricing_plan_id":"free"},{"bike_id":"65e74f82-7954-4971-b007-64fed8f1f1b6","system_id":"levelo_inurba_marseille","lat":43.316517,"lon":5.404375,"is_reserved":false,"is_disabled":false,"rental_uris":{"android":"levelo://app?vid=65e74f82-7954-4971-b007-64fed8f1f1b6","ios":"levelo://app?vid=65e74f82-7954-4971-b007-64fed8f1f1b6"},"vehicle_type_id":"4","last_reported":1679767663,"current_range_meters":0,"station_id":"ce4bh012rcd13ifvqd00","pricing_plan_id":"free"},{"bike_id":"d851519c-9bd4-4f24-8ac9-b853b1b7dd51","system_id":"levelo_inurba_marseille","lat":43.316517,"lon":5.404375,"is_reserved":false,"is_disabled":false,"rental_uris":{"android":"levelo://app?vid=d851519c-9bd4-4f24-8ac9-b853b1b7dd51","ios":"levelo://app?vid=d851519c-9bd4-4f24-8ac9-b853b1b7dd51"},"vehicle_type_id":"4","last_reported":1679767663,"current_range_meters":1200,"station_id":"ce4bh012rcd13ifvqd00","pricing_plan_id":"free"},{"bike_id":"4e0a3871-c6df-4140-97a6-b6e340a82efb","system_id":"levelo_inurba_marseille","lat":43.30032,"lon":5.40104,"is_reserved":false,"is_disabled":false,"rental_uris":{"android":"levelo://app?vid=4e0a3871-c6df-4140-97a6-b6e340a82efb","ios":"levelo://app?vid=4e0a3871-c6df-4140-97a6-b6e340a82efb"},"vehicle_type_id":"4","last_reported":1679767663,"current_range_meters":4800,"station_id":"","pricing_plan_id":"free"},{"bike_id":"9d3383f3-6b0a-4b6c-bad1-531db5f17e42","system_id":"levelo_inurba_marseille","lat":43.284534,"lon":5.358662,"is_reserved":false,"is_disabled":false,"rental_uris":{"android":"levelo://app?vid=9d3383f3-6b0a-4b6c-bad1-531db5f17e42","ios":"levelo://app?vid=9d3383f3-6b0a-4b6c-bad1-531db5f17e42"},"vehicle_type_id":"4","last_reported":1679767663,"current_range_meters":17600,"station_id":"ce4bhah2rcd13ifvqei0","pricing_plan_id":"free"},{"bike_id":"e3c107e0-bd83-4dad-b66b-cc8fddd357c1","system_id":"levelo_inurba_marseille","lat":43.284538,"lon":5.358657,"is_reserved":false,"is_disabled":false,"rental_uris":{"android":"levelo://app?vid=e3c107e0-bd83-4dad-b66b-cc8fddd357c1","ios":"levelo://app?vid=e3c107e0-bd83-4dad-b66b-cc8fddd357c1"},"vehicle_type_id":"4","last_reported":1679767663,"current_range_meters":0,"station_id":"ce4bhah2rcd13ifvqei0","pricing_plan_id":"free"},{"bike_id":"a4391414-7108-48f5-8d79-46334965d4a2","system_id":"levelo_inurba_marseille","lat":43.284538,"lon":5.358657,"is_reserved":false,"is_disabled":false,"rental_uris":{"android":"levelo://app?vid=a4391414-7108-48f5-8d79-46334965d4a2","ios":"levelo://app?vid=a4391414-7108-48f5-8d79-46334965d4a2"},"vehicle_type_id":"4","last_reported":1679767663,"current_range_meters":0,"station_id":"ce4bhah2rcd13ifvqei0","pricing_plan_id":"free"},{"bike_id":"f6541ad4-5566-4c04-adbc-0bd497a78a17","system_id":"levelo_inurba_marseille","lat":43.295693,"lon":5.399703,"is_reserved":false,"is_disabled":false,"rental_uris":{"android":"levelo://app?vid=f6541ad4-5566-4c04-adbc-0bd497a78a17","ios":"levelo://app?vid=f6541ad4-5566-4c04-adbc-0bd497a78a17"},"vehicle_type_id":"4","last_reported":1679767663,"current_range_meters":16400,"station_id":"","pricing_plan_id":"free"},{"bike_id":"49f047b6-c467-4125-a395-ff9af1b38b7b","system_id":"levelo_inurba_marseille","lat":43.295713,"lon":5.399639,"is_reserved":false,"is_disabled":false,"rental_uris":{"android":"levelo://app?vid=49f047b6-c467-4125-a395-ff9af1b38b7b","ios":"levelo://app?vid=49f047b6-c467-4125-a395-ff9af1b38b7b"},"vehicle_type_id":"4","last_reported":1679767663,"current_range_meters":0,"station_id":"ce4bh312rcd13ifvqdj0","pricing_plan_id":"free"},{"bike_id":"22a85a2f-ba66-4d27-bcb0-5b924e3e0174","system_id":"levelo_inurba_marseille","lat":43.295713,"lon":5.399639,"is_reserved":false,"is_disabled":false,"rental_uris":{"android":"levelo://app?vid=22a85a2f-ba66-4d27-bcb0-5b924e3e0174","ios":"levelo://app?vid=22a85a2f-ba66-4d27-bcb0-5b924e3e0174"},"vehicle_type_id":"4","last_reported":1679767663,"current_range_meters":0,"station_id":"ce4bh312rcd13ifvqdj0","pricing_plan_id":"free"},{"bike_id":"5432d281-e951-480a-b857-4eae3d79bcca","system_id":"levelo_inurba_marseille","lat":43.286595,"lon":5.386795,"is_reserved":false,"is_disabled":false,"rental_uris":{"android":"levelo://app?vid=5432d281-e951-480a-b857-4eae3d79bcca","ios":"levelo://app?vid=5432d281-e951-480a-b857-4eae3d79bcca"},"vehicle_type_id":"4","last_reported":1679767663,"current_range_meters":13200,"station_id":"ce4bh492rcd13ifvqdug","pricing_plan_id":"free"},{"bike_id":"344a3e89-5a77-4313-9b57-39117f3b6c44","system_id":"levelo_inurba_marseille","lat":43.30378,"lon":5.40678,"is_reserved":false,"is_disabled":false,"rental_uris":{"android":"levelo://app?vid=344a3e89-5a77-4313-9b57-39117f3b6c44","ios":"levelo://app?vid=344a3e89-5a77-4313-9b57-39117f3b6c44"},"vehicle_type_id":"4","last_reported":1679767663,"current_range_meters":11200,"station_id":"","pricing_plan_id":"free"},{"bike_id":"616a527c-3627-4e96-a557-988f979fdba8","system_id":"levelo_inurba_marseille","lat":43.325233,"lon":5.414318,"is_reserved":false,"is_disabled":false,"rental_uris":{"android":"levelo://app?vid=616a527c-3627-4e96-a557-988f979fdba8","ios":"levelo://app?vid=616a527c-3627-4e96-a557-988f979fdba8"},"vehicle_type_id":"4","last_reported":1679767663,"current_range_meters":400,"station_id":"ce4bhq12rcd13ifvqhhg","pricing_plan_id":"free"},{"bike_id":"3b19abcd-abc9-48b9-80a9-32a0b7e32ec3","system_id":"levelo_inurba_marseille","lat":43.337168,"lon":5.391825,"is_reserved":false,"is_disabled":false,"rental_uris":{"android":"levelo://app?vid=3b19abcd-abc9-48b9-80a9-32a0b7e32ec3","ios":"levelo://app?vid=3b19abcd-abc9-48b9-80a9-32a0b7e32ec3"},"vehicle_type_id":"4","last_reported":1679767663,"current_range_meters":6400,"station_id":"ce4bhr92rcd13ifvqhsg","pricing_plan_id":"free"},{"bike_id":"dca17385-a4aa-4d34-be2a-92d00a5d4fb9","system_id":"levelo_inurba_marseille","lat":43.33717,"lon":5.391857,"is_reserved":false,"is_disabled":false,"rental_uris":{"android":"levelo://app?vid=dca17385-a4aa-4d34-be2a-92d00a5d4fb9","ios":"levelo://app?vid=dca17385-a4aa-4d34-be2a-92d00a5d4fb9"},"vehicle_type_id":"4","last_reported":1679767663,"current_range_meters":20000,"station_id":"ce4bhr92rcd13ifvqhsg","pricing_plan_id":"free"},{"bike_id":"56f5cc3b-e6c4-4622-992a-a03414f90aef","system_id":"levelo_inurba_marseille","lat":43.337168,"lon":5.391825,"is_reserved":false,"is_disabled":false,"rental_uris":{"android":"levelo://app?vid=56f5cc3b-e6c4-4622-992a-a03414f90aef","ios":"levelo://app?vid=56f5cc3b-e6c4-4622-992a-a03414f90aef"},"vehicle_type_id":"4","last_reported":1679767663,"current_range_meters":31600,"station_id":"ce4bhr92rcd13ifvqhsg","pricing_plan_id":"free"},{"bike_id":"15d75c18-adab-4861-90ec-8493d05eafbb","system_id":"levelo_inurba_marseille","lat":43.33717,"lon":5.391857,"is_reserved":false,"is_disabled":false,"rental_uris":{"android":"levelo://app?vid=15d75c18-adab-4861-90ec-8493d05eafbb","ios":"levelo://app?vid=15d75c18-adab-4861-90ec-8493d05eafbb"},"vehicle_type_id":"4","last_reported":1679767663,"current_range_meters":22800,"station_id":"ce4bhr92rcd13ifvqhsg","pricing_plan_id":"free"},{"bike_id":"be152d01-5f94-4424-9041-e9b2187182ea","system_id":"levelo_inurba_marseille","lat":43.33717,"lon":5.391857,"is_reserved":false,"is_disabled":false,"rental_uris":{"android":"levelo://app?vid=be152d01-5f94-4424-9041-e9b2187182ea","ios":"levelo://app?vid=be152d01-5f94-4424-9041-e9b2187182ea"},"vehicle_type_id":"4","last_reported":1679767663,"current_range_meters":31600,"station_id":"ce4bhr92rcd13ifvqhsg","pricing_plan_id":"free"},{"bike_id":"615c99ff-8a42-49f1-b12a-fd53bc386a1c","system_id":"levelo_inurba_marseille","lat":43.28489,"lon":5.38432,"is_reserved":false,"is_disabled":false,"rental_uris":{"android":"levelo://app?vid=615c99ff-8a42-49f1-b12a-fd53bc386a1c","ios":"levelo://app?vid=615c99ff-8a42-49f1-b12a-fd53bc386a1c"},"vehicle_type_id":"4","last_reported":1679767663,"current_range_meters":11600,"station_id":"ce4bh512rcd13ifvqe3g","pricing_plan_id":"free"},{"bike_id":"918be568-37d0-49b1-8c0a-1950da0e3eb9","system_id":"levelo_inurba_marseille","lat":43.32397,"lon":5.40655,"is_reserved":false,"is_disabled":false,"rental_uris":{"android":"levelo://app?vid=918be568-37d0-49b1-8c0a-1950da0e3eb9","ios":"levelo://app?vid=918be568-37d0-49b1-8c0a-1950da0e3eb9"},"vehicle_type_id":"4","last_reported":1679767663,"current_range_meters":2400,"station_id":"","pricing_plan_id":"free"},{"bike_id":"417705d8-a5c6-428b-9d39-dc4b377326b9","system_id":"levelo_inurba_marseille","lat":43.284219,"lon":5.3497,"is_reserved":false,"is_disabled":false,"rental_uris":{"android":"levelo://app?vid=417705d8-a5c6-428b-9d39-dc4b377326b9","ios":"levelo://app?vid=417705d8-a5c6-428b-9d39-dc4b377326b9"},"vehicle_type_id":"4","last_reported":1679767663,"current_range_meters":24800,"station_id":"ce4bhbh2rcd13ifvqepg","pricing_plan_id":"free"},{"bike_id":"935990ce-8f35-45a2-af91-b66bab6bccdf","system_id":"levelo_inurba_marseille","lat":43.28423,"lon":5.34975,"is_reserved":false,"is_disabled":false,"rental_uris":{"android":"levelo://app?vid=935990ce-8f35-45a2-af91-b66bab6bccdf","ios":"levelo://app?vid=935990ce-8f35-45a2-af91-b66bab6bccdf"},"vehicle_type_id":"4","last_reported":1679767663,"current_range_meters":12400,"station_id":"","pricing_plan_id":"free"},{"bike_id":"4a78d1c0-65d2-41b5-99f3-9b149a5d649d","system_id":"levelo_inurba_marseille","lat":43.28421,"lon":5.34978,"is_reserved":false,"is_disabled":false,"rental_uris":{"android":"levelo://app?vid=4a78d1c0-65d2-41b5-99f3-9b149a5d649d","ios":"levelo://app?vid=4a78d1c0-65d2-41b5-99f3-9b149a5d649d"},"vehicle_type_id":"4","last_reported":1679767663,"current_range_meters":14400,"station_id":"","pricing_plan_id":"free"},{"bike_id":"58484780-8983-411a-96cb-dc7d31c837b7","system_id":"levelo_inurba_marseille","lat":43.284432,"lon":5.384813,"is_reserved":false,"is_disabled":false,"rental_uris":{"android":"levelo://app?vid=58484780-8983-411a-96cb-dc7d31c837b7","ios":"levelo://app?vid=58484780-8983-411a-96cb-dc7d31c837b7"},"vehicle_type_id":"4","last_reported":1679767663,"current_range_meters":0,"station_id":"","pricing_plan_id":"free"},{"bike_id":"ae368417-784b-46cc-8953-ba241fe08668","system_id":"levelo_inurba_marseille","lat":43.29286,"lon":5.40113,"is_reserved":false,"is_disabled":false,"rental_uris":{"android":"levelo://app?vid=ae368417-784b-46cc-8953-ba241fe08668","ios":"levelo://app?vid=ae368417-784b-46cc-8953-ba241fe08668"},"vehicle_type_id":"4","last_reported":1679767663,"current_range_meters":3600,"station_id":"","pricing_plan_id":"free"},{"bike_id":"e5e05d77-20c4-4915-b3e8-3a78d79498a9","system_id":"levelo_inurba_marseille","lat":43.292724,"lon":5.401131,"is_reserved":false,"is_disabled":false,"rental_uris":{"android":"levelo://app?vid=e5e05d77-20c4-4915-b3e8-3a78d79498a9","ios":"levelo://app?vid=e5e05d77-20c4-4915-b3e8-3a78d79498a9"},"vehicle_type_id":"4","last_reported":1679767663,"current_range_meters":26000,"station_id":"ce4bh312rcd13ifvqdk0","pricing_plan_id":"free"},{"bike_id":"88d0f13e-38d5-4c67-9994-2a03c75d72ba","system_id":"levelo_inurba_marseille","lat":43.282754,"lon":5.350519,"is_reserved":false,"is_disabled":false,"rental_uris":{"android":"levelo://app?vid=88d0f13e-38d5-4c67-9994-2a03c75d72ba","ios":"levelo://app?vid=88d0f13e-38d5-4c67-9994-2a03c75d72ba"},"vehicle_type_id":"4","last_reported":1679767663,"current_range_meters":0,"station_id":"ce4bhbp2rcd13ifvqerg","pricing_plan_id":"free"},{"bike_id":"4252a665-3d42-4b59-8cc2-981378c21a87","system_id":"levelo_inurba_marseille","lat":43.282744,"lon":5.350533,"is_reserved":false,"is_disabled":false,"rental_uris":{"android":"levelo://app?vid=4252a665-3d42-4b59-8cc2-981378c21a87","ios":"levelo://app?vid=4252a665-3d42-4b59-8cc2-981378c21a87"},"vehicle_type_id":"4","last_reported":1679767663,"current_range_meters":0,"station_id":"ce4bhbp2rcd13ifvqerg","pricing_plan_id":"free"},{"bike_id":"eafab37c-0ae3-463e-9305-dcb88e25bcc5","system_id":"levelo_inurba_marseille","lat":43.282754,"lon":5.350519,"is_reserved":false,"is_disabled":false,"rental_uris":{"android":"levelo://app?vid=eafab37c-0ae3-463e-9305-dcb88e25bcc5","ios":"levelo://app?vid=eafab37c-0ae3-463e-9305-dcb88e25bcc5"},"vehicle_type_id":"4","last_reported":1679767663,"current_range_meters":0,"station_id":"ce4bhbp2rcd13ifvqerg","pricing_plan_id":"free"},{"bike_id":"31220cef-9329-4d92-bf0c-ee84ac7c1dc1","system_id":"levelo_inurba_marseille","lat":43.28039,"lon":5.369297,"is_reserved":false,"is_disabled":false,"rental_uris":{"android":"levelo://app?vid=31220cef-9329-4d92-bf0c-ee84ac7c1dc1","ios":"levelo://app?vid=31220cef-9329-4d92-bf0c-ee84ac7c1dc1"},"vehicle_type_id":"4","last_reported":1679767663,"current_range_meters":24000,"station_id":"ce4bha12rcd13ifvqef0","pricing_plan_id":"free"},{"bike_id":"962060c4-e1de-424f-891d-66909a7ddcc2","system_id":"levelo_inurba_marseille","lat":43.283502,"lon":5.386471,"is_reserved":false,"is_disabled":false,"rental_uris":{"android":"levelo://app?vid=962060c4-e1de-424f-891d-66909a7ddcc2","ios":"levelo://app?vid=962060c4-e1de-424f-891d-66909a7ddcc2"},"vehicle_type_id":"4","last_reported":1679767663,"current_range_meters":3600,"station_id":"ce4bh492rcd13ifvqdvg","pricing_plan_id":"free"},{"bike_id":"1b57ba48-4ad7-4da7-a373-ae4e132cb331","system_id":"levelo_inurba_marseille","lat":43.281207,"lon":5.378338,"is_reserved":false,"is_disabled":false,"rental_uris":{"android":"levelo://app?vid=1b57ba48-4ad7-4da7-a373-ae4e132cb331","ios":"levelo://app?vid=1b57ba48-4ad7-4da7-a373-ae4e132cb331"},"vehicle_type_id":"4","last_reported":1679767663,"current_range_meters":9200,"station_id":"","pricing_plan_id":"free"},{"bike_id":"aaf56afe-7d4d-4034-8a78-3c389de94cfa","system_id":"levelo_inurba_marseille","lat":43.29041,"lon":5.399634,"is_reserved":false,"is_disabled":false,"rental_uris":{"android":"levelo://app?vid=aaf56afe-7d4d-4034-8a78-3c389de94cfa","ios":"levelo://app?vid=aaf56afe-7d4d-4034-8a78-3c389de94cfa"},"vehicle_type_id":"4","last_reported":1679767663,"current_range_meters":1200,"station_id":"ce4bh392rcd13ifvqdm0","pricing_plan_id":"free"},{"bike_id":"a9d303ae-ad63-40ad-95a1-9ed82414add7","system_id":"levelo_inurba_marseille","lat":43.281044,"lon":5.378308,"is_reserved":false,"is_disabled":false,"rental_uris":{"android":"levelo://app?vid=a9d303ae-ad63-40ad-95a1-9ed82414add7","ios":"levelo://app?vid=a9d303ae-ad63-40ad-95a1-9ed82414add7"},"vehicle_type_id":"4","last_reported":1679767663,"current_range_meters":29200,"station_id":"ce4bha12rcd13ifvqee0","pricing_plan_id":"free"},{"bike_id":"68743767-be02-440f-8864-73c1d0b1bbce","system_id":"levelo_inurba_marseille","lat":43.281067,"lon":5.378394,"is_reserved":false,"is_disabled":false,"rental_uris":{"android":"levelo://app?vid=68743767-be02-440f-8864-73c1d0b1bbce","ios":"levelo://app?vid=68743767-be02-440f-8864-73c1d0b1bbce"},"vehicle_type_id":"4","last_reported":1679767663,"current_range_meters":0,"station_id":"ce4bha12rcd13ifvqee0","pricing_plan_id":"free"},{"bike_id":"0dbb4328-e540-42cc-9469-94669413f563","system_id":"levelo_inurba_marseille","lat":43.296263,"lon":5.40601,"is_reserved":false,"is_disabled":false,"rental_uris":{"android":"levelo://app?vid=0dbb4328-e540-42cc-9469-94669413f563","ios":"levelo://app?vid=0dbb4328-e540-42cc-9469-94669413f563"},"vehicle_type_id":"4","last_reported":1679767663,"current_range_meters":5200,"station_id":"ce4bh0h2rcd13ifvqd60","pricing_plan_id":"free"},{"bike_id":"c0beafec-1931-407c-8274-dd283d0d6760","system_id":"levelo_inurba_marseille","lat":43.28103,"lon":5.37837,"is_reserved":false,"is_disabled":false,"rental_uris":{"android":"levelo://app?vid=c0beafec-1931-407c-8274-dd283d0d6760","ios":"levelo://app?vid=c0beafec-1931-407c-8274-dd283d0d6760"},"vehicle_type_id":"4","last_reported":1679767663,"current_range_meters":19600,"station_id":"ce4bha12rcd13ifvqee0","pricing_plan_id":"free"},{"bike_id":"cbb47127-9be0-4a70-9c89-41c6adc7b6e5","system_id":"levelo_inurba_marseille","lat":43.29632,"lon":5.40593,"is_reserved":false,"is_disabled":false,"rental_uris":{"android":"levelo://app?vid=cbb47127-9be0-4a70-9c89-41c6adc7b6e5","ios":"levelo://app?vid=cbb47127-9be0-4a70-9c89-41c6adc7b6e5"},"vehicle_type_id":"4","last_reported":1679767663,"current_range_meters":0,"station_id":"ce4bh0h2rcd13ifvqd60","pricing_plan_id":"free"},{"bike_id":"f0abc599-686c-4c3b-a636-a28de3354fb8","system_id":"levelo_inurba_marseille","lat":43.296263,"lon":5.40601,"is_reserved":false,"is_disabled":false,"rental_uris":{"android":"levelo://app?vid=f0abc599-686c-4c3b-a636-a28de3354fb8","ios":"levelo://app?vid=f0abc599-686c-4c3b-a636-a28de3354fb8"},"vehicle_type_id":"4","last_reported":1679767663,"current_range_meters":400,"station_id":"ce4bh0h2rcd13ifvqd60","pricing_plan_id":"free"},{"bike_id":"75fca710-29bb-4b74-8fcd-5c88eca301c5","system_id":"levelo_inurba_marseille","lat":43.28442,"lon":5.39202,"is_reserved":false,"is_disabled":false,"rental_uris":{"android":"levelo://app?vid=75fca710-29bb-4b74-8fcd-5c88eca301c5","ios":"levelo://app?vid=75fca710-29bb-4b74-8fcd-5c88eca301c5"},"vehicle_type_id":"4","last_reported":1679767663,"current_range_meters":20800,"station_id":"ce4bhoh2rcd13ifvqh5g","pricing_plan_id":"free"},{"bike_id":"8b592716-b54f-4814-90ad-25062009729a","system_id":"levelo_inurba_marseille","lat":43.28435,"lon":5.39192,"is_reserved":false,"is_disabled":false,"rental_uris":{"android":"levelo://app?vid=8b592716-b54f-4814-90ad-25062009729a","ios":"levelo://app?vid=8b592716-b54f-4814-90ad-25062009729a"},"vehicle_type_id":"4","last_reported":1679767663,"current_range_meters":18800,"station_id":"ce4bhoh2rcd13ifvqh5g","pricing_plan_id":"free"},{"bike_id":"a13930d5-f503-49cc-b11e-fd7b845f30e0","system_id":"levelo_inurba_marseille","lat":43.304188,"lon":5.412904,"is_reserved":false,"is_disabled":false,"rental_uris":{"android":"levelo://app?vid=a13930d5-f503-49cc-b11e-fd7b845f30e0","ios":"levelo://app?vid=a13930d5-f503-49cc-b11e-fd7b845f30e0"},"vehicle_type_id":"4","last_reported":1679767663,"current_range_meters":1600,"station_id":"ce4bhop2rcd13ifvqh8g","pricing_plan_id":"free"},{"bike_id":"d546ee6b-6fe0-44fd-a4fd-311c0ab35ca8","system_id":"levelo_inurba_marseille","lat":43.287154,"lon":5.399979,"is_reserved":false,"is_disabled":false,"rental_uris":{"android":"levelo://app?vid=d546ee6b-6fe0-44fd-a4fd-311c0ab35ca8","ios":"levelo://app?vid=d546ee6b-6fe0-44fd-a4fd-311c0ab35ca8"},"vehicle_type_id":"4","last_reported":1679767663,"current_range_meters":800,"station_id":"ce4bho92rcd13ifvqh3g","pricing_plan_id":"free"},{"bike_id":"04d9f0f4-448d-4b8f-891c-7ff393c73f77","system_id":"levelo_inurba_marseille","lat":43.292571,"lon":5.409107,"is_reserved":false,"is_disabled":false,"rental_uris":{"android":"levelo://app?vid=04d9f0f4-448d-4b8f-891c-7ff393c73f77","ios":"levelo://app?vid=04d9f0f4-448d-4b8f-891c-7ff393c73f77"},"vehicle_type_id":"4","last_reported":1679767663,"current_range_meters":8800,"station_id":"ce4bh192rcd13ifvqdc0","pricing_plan_id":"free"},{"bike_id":"cb86ad57-a39f-46cf-b720-f2c665cc20fc","system_id":"levelo_inurba_marseille","lat":43.325233,"lon":5.414318,"is_reserved":false,"is_disabled":false,"rental_uris":{"android":"levelo://app?vid=cb86ad57-a39f-46cf-b720-f2c665cc20fc","ios":"levelo://app?vid=cb86ad57-a39f-46cf-b720-f2c665cc20fc"},"vehicle_type_id":"4","last_reported":1679767663,"current_range_meters":4000,"station_id":"ce4bhq12rcd13ifvqhhg","pricing_plan_id":"free"},{"bike_id":"97ef743e-3883-4919-b4fc-314746c8e06f","system_id":"levelo_inurba_marseille","lat":43.280784,"lon":5.396622,"is_reserved":false,"is_disabled":false,"rental_uris":{"android":"levelo://app?vid=97ef743e-3883-4919-b4fc-314746c8e06f","ios":"levelo://app?vid=97ef743e-3883-4919-b4fc-314746c8e06f"},"vehicle_type_id":"4","last_reported":1679767663,"current_range_meters":1200,"station_id":"ce4bho12rcd13ifvqh2g","pricing_plan_id":"free"},{"bike_id":"fd81283b-a8ef-4f18-ba18-d0d1f250daba","system_id":"levelo_inurba_marseille","lat":43.280784,"lon":5.396622,"is_reserved":false,"is_disabled":false,"rental_uris":{"android":"levelo://app?vid=fd81283b-a8ef-4f18-ba18-d0d1f250daba","ios":"levelo://app?vid=fd81283b-a8ef-4f18-ba18-d0d1f250daba"},"vehicle_type_id":"4","last_reported":1679767663,"current_range_meters":22800,"station_id":"ce4bho12rcd13ifvqh2g","pricing_plan_id":"free"},{"bike_id":"933810fc-c013-4d5b-9628-9be96f93228a","system_id":"levelo_inurba_marseille","lat":43.33612,"lon":5.410321,"is_reserved":false,"is_disabled":false,"rental_uris":{"android":"levelo://app?vid=933810fc-c013-4d5b-9628-9be96f93228a","ios":"levelo://app?vid=933810fc-c013-4d5b-9628-9be96f93228a"},"vehicle_type_id":"4","last_reported":1679767663,"current_range_meters":18000,"station_id":"ce4bhqh2rcd13ifvqhmg","pricing_plan_id":"free"},{"bike_id":"d56115cd-02ee-4afc-96c9-4a4c31ba6f81","system_id":"levelo_inurba_marseille","lat":43.276179,"lon":5.361009,"is_reserved":false,"is_disabled":false,"rental_uris":{"android":"levelo://app?vid=d56115cd-02ee-4afc-96c9-4a4c31ba6f81","ios":"levelo://app?vid=d56115cd-02ee-4afc-96c9-4a4c31ba6f81"},"vehicle_type_id":"4","last_reported":1679767663,"current_range_meters":0,"station_id":"ce4bgj92rcd13ifvqbe0","pricing_plan_id":"free"},{"bike_id":"3dd0740a-4a4b-4592-8b3f-3e9e2789f4ee","system_id":"levelo_inurba_marseille","lat":43.33612,"lon":5.410321,"is_reserved":false,"is_disabled":false,"rental_uris":{"android":"levelo://app?vid=3dd0740a-4a4b-4592-8b3f-3e9e2789f4ee","ios":"levelo://app?vid=3dd0740a-4a4b-4592-8b3f-3e9e2789f4ee"},"vehicle_type_id":"4","last_reported":1679767663,"current_range_meters":10400,"station_id":"ce4bhqh2rcd13ifvqhmg","pricing_plan_id":"free"},{"bike_id":"f5e686e9-fca1-4deb-873b-610e9d675c5d","system_id":"levelo_inurba_marseille","lat":43.336134,"lon":5.410341,"is_reserved":false,"is_disabled":false,"rental_uris":{"android":"levelo://app?vid=f5e686e9-fca1-4deb-873b-610e9d675c5d","ios":"levelo://app?vid=f5e686e9-fca1-4deb-873b-610e9d675c5d"},"vehicle_type_id":"4","last_reported":1679767663,"current_range_meters":19600,"station_id":"ce4bhqh2rcd13ifvqhmg","pricing_plan_id":"free"},{"bike_id":"2d4ef80e-834a-4b94-b493-3afad35da2a0","system_id":"levelo_inurba_marseille","lat":43.336134,"lon":5.410341,"is_reserved":false,"is_disabled":false,"rental_uris":{"android":"levelo://app?vid=2d4ef80e-834a-4b94-b493-3afad35da2a0","ios":"levelo://app?vid=2d4ef80e-834a-4b94-b493-3afad35da2a0"},"vehicle_type_id":"4","last_reported":1679767663,"current_range_meters":24000,"station_id":"ce4bhqh2rcd13ifvqhmg","pricing_plan_id":"free"},{"bike_id":"cc92252c-6abc-49a8-a1e6-f1fc7bd3de9b","system_id":"levelo_inurba_marseille","lat":43.33612,"lon":5.410321,"is_reserved":false,"is_disabled":false,"rental_uris":{"android":"levelo://app?vid=cc92252c-6abc-49a8-a1e6-f1fc7bd3de9b","ios":"levelo://app?vid=cc92252c-6abc-49a8-a1e6-f1fc7bd3de9b"},"vehicle_type_id":"4","last_reported":1679767663,"current_range_meters":1600,"station_id":"ce4bhqh2rcd13ifvqhmg","pricing_plan_id":"free"},{"bike_id":"77205b13-bbab-4c48-a6ba-38902f40fe74","system_id":"levelo_inurba_marseille","lat":43.33612,"lon":5.410321,"is_reserved":false,"is_disabled":false,"rental_uris":{"android":"levelo://app?vid=77205b13-bbab-4c48-a6ba-38902f40fe74","ios":"levelo://app?vid=77205b13-bbab-4c48-a6ba-38902f40fe74"},"vehicle_type_id":"4","last_reported":1679767663,"current_range_meters":21600,"station_id":"ce4bhqh2rcd13ifvqhmg","pricing_plan_id":"free"},{"bike_id":"e8409ff5-6c18-42db-a545-13a3c5c1c195","system_id":"levelo_inurba_marseille","lat":43.33612,"lon":5.410321,"is_reserved":false,"is_disabled":false,"rental_uris":{"android":"levelo://app?vid=e8409ff5-6c18-42db-a545-13a3c5c1c195","ios":"levelo://app?vid=e8409ff5-6c18-42db-a545-13a3c5c1c195"},"vehicle_type_id":"4","last_reported":1679767663,"current_range_meters":22400,"station_id":"ce4bhqh2rcd13ifvqhmg","pricing_plan_id":"free"},{"bike_id":"d83a8720-65c8-4392-a952-9b5a813696c0","system_id":"levelo_inurba_marseille","lat":43.336134,"lon":5.410341,"is_reserved":false,"is_disabled":false,"rental_uris":{"android":"levelo://app?vid=d83a8720-65c8-4392-a952-9b5a813696c0","ios":"levelo://app?vid=d83a8720-65c8-4392-a952-9b5a813696c0"},"vehicle_type_id":"4","last_reported":1679767663,"current_range_meters":5600,"station_id":"ce4bhqh2rcd13ifvqhmg","pricing_plan_id":"free"},{"bike_id":"370d4029-06f5-49c8-9646-51e4fb18adeb","system_id":"levelo_inurba_marseille","lat":43.310785,"lon":5.424305,"is_reserved":false,"is_disabled":false,"rental_uris":{"android":"levelo://app?vid=370d4029-06f5-49c8-9646-51e4fb18adeb","ios":"levelo://app?vid=370d4029-06f5-49c8-9646-51e4fb18adeb"},"vehicle_type_id":"4","last_reported":1679767663,"current_range_meters":2000,"station_id":"ce4bhp92rcd13ifvqhag","pricing_plan_id":"free"},{"bike_id":"d85a8ed8-5120-4f58-bcda-5723298c8ad8","system_id":"levelo_inurba_marseille","lat":43.31079,"lon":5.424323,"is_reserved":false,"is_disabled":false,"rental_uris":{"android":"levelo://app?vid=d85a8ed8-5120-4f58-bcda-5723298c8ad8","ios":"levelo://app?vid=d85a8ed8-5120-4f58-bcda-5723298c8ad8"},"vehicle_type_id":"4","last_reported":1679767663,"current_range_meters":0,"station_id":"ce4bhp92rcd13ifvqhag","pricing_plan_id":"free"},{"bike_id":"5b5c4c15-c628-4fb9-bbba-1f11d5c5f993","system_id":"levelo_inurba_marseille","lat":43.274103,"lon":5.394016,"is_reserved":false,"is_disabled":false,"rental_uris":{"android":"levelo://app?vid=5b5c4c15-c628-4fb9-bbba-1f11d5c5f993","ios":"levelo://app?vid=5b5c4c15-c628-4fb9-bbba-1f11d5c5f993"},"vehicle_type_id":"4","last_reported":1679767663,"current_range_meters":10400,"station_id":"ce4bhdp2rcd13ifvqf20","pricing_plan_id":"free"},{"bike_id":"557c2bcd-5cbb-4c66-b679-1c99b05ec16b","system_id":"levelo_inurba_marseille","lat":43.295523,"lon":5.422926,"is_reserved":false,"is_disabled":false,"rental_uris":{"android":"levelo://app?vid=557c2bcd-5cbb-4c66-b679-1c99b05ec16b","ios":"levelo://app?vid=557c2bcd-5cbb-4c66-b679-1c99b05ec16b"},"vehicle_type_id":"4","last_reported":1679767663,"current_range_meters":31600,"station_id":"ce4bhph2rcd13ifvqhdg","pricing_plan_id":"free"},{"bike_id":"156214a7-f920-4ed9-9ea0-5e8d1e4b8061","system_id":"levelo_inurba_marseille","lat":43.295523,"lon":5.422926,"is_reserved":false,"is_disabled":false,"rental_uris":{"android":"levelo://app?vid=156214a7-f920-4ed9-9ea0-5e8d1e4b8061","ios":"levelo://app?vid=156214a7-f920-4ed9-9ea0-5e8d1e4b8061"},"vehicle_type_id":"4","last_reported":1679767663,"current_range_meters":5200,"station_id":"ce4bhph2rcd13ifvqhdg","pricing_plan_id":"free"},{"bike_id":"82c74e32-0ef0-4e3d-b312-c2bdbd9d43e3","system_id":"levelo_inurba_marseille","lat":43.295523,"lon":5.422926,"is_reserved":false,"is_disabled":false,"rental_uris":{"android":"levelo://app?vid=82c74e32-0ef0-4e3d-b312-c2bdbd9d43e3","ios":"levelo://app?vid=82c74e32-0ef0-4e3d-b312-c2bdbd9d43e3"},"vehicle_type_id":"4","last_reported":1679767663,"current_range_meters":28800,"station_id":"ce4bhph2rcd13ifvqhdg","pricing_plan_id":"free"},{"bike_id":"f3ae4d3a-0a4c-4bbe-a970-a68679095cce","system_id":"levelo_inurba_marseille","lat":43.295523,"lon":5.422926,"is_reserved":false,"is_disabled":false,"rental_uris":{"android":"levelo://app?vid=f3ae4d3a-0a4c-4bbe-a970-a68679095cce","ios":"levelo://app?vid=f3ae4d3a-0a4c-4bbe-a970-a68679095cce"},"vehicle_type_id":"4","last_reported":1679767663,"current_range_meters":14800,"station_id":"ce4bhph2rcd13ifvqhdg","pricing_plan_id":"free"},{"bike_id":"ad22a702-266b-4a24-8bb2-59d482d6dea1","system_id":"levelo_inurba_marseille","lat":43.27814,"lon":5.40711,"is_reserved":false,"is_disabled":false,"rental_uris":{"android":"levelo://app?vid=ad22a702-266b-4a24-8bb2-59d482d6dea1","ios":"levelo://app?vid=ad22a702-266b-4a24-8bb2-59d482d6dea1"},"vehicle_type_id":"4","last_reported":1679767663,"current_range_meters":7600,"station_id":"","pricing_plan_id":"free"},{"bike_id":"44f68709-198d-48b7-9aa5-ebd36241a6cf","system_id":"levelo_inurba_marseille","lat":43.278128,"lon":5.407195,"is_reserved":false,"is_disabled":false,"rental_uris":{"android":"levelo://app?vid=44f68709-198d-48b7-9aa5-ebd36241a6cf","ios":"levelo://app?vid=44f68709-198d-48b7-9aa5-ebd36241a6cf"},"vehicle_type_id":"4","last_reported":1679767663,"current_range_meters":400,"station_id":"ce4bhnh2rcd13ifvqgtg","pricing_plan_id":"free"},{"bike_id":"07169814-4689-4b44-abf2-81cc92d4c528","system_id":"levelo_inurba_marseille","lat":43.278128,"lon":5.407195,"is_reserved":false,"is_disabled":false,"rental_uris":{"android":"levelo://app?vid=07169814-4689-4b44-abf2-81cc92d4c528","ios":"levelo://app?vid=07169814-4689-4b44-abf2-81cc92d4c528"},"vehicle_type_id":"4","last_reported":1679767663,"current_range_meters":32000,"station_id":"ce4bhnh2rcd13ifvqgtg","pricing_plan_id":"free"},{"bike_id":"1ad68281-8bad-47cb-8099-1f1a3711c089","system_id":"levelo_inurba_marseille","lat":43.278128,"lon":5.407195,"is_reserved":false,"is_disabled":false,"rental_uris":{"android":"levelo://app?vid=1ad68281-8bad-47cb-8099-1f1a3711c089","ios":"levelo://app?vid=1ad68281-8bad-47cb-8099-1f1a3711c089"},"vehicle_type_id":"4","last_reported":1679767663,"current_range_meters":8000,"station_id":"ce4bhnh2rcd13ifvqgtg","pricing_plan_id":"free"},{"bike_id":"1122f17b-10a3-4857-a067-eec9b186a2fd","system_id":"levelo_inurba_marseille","lat":43.278128,"lon":5.407195,"is_reserved":false,"is_disabled":false,"rental_uris":{"android":"levelo://app?vid=1122f17b-10a3-4857-a067-eec9b186a2fd","ios":"levelo://app?vid=1122f17b-10a3-4857-a067-eec9b186a2fd"},"vehicle_type_id":"4","last_reported":1679767663,"current_range_meters":8400,"station_id":"ce4bhnh2rcd13ifvqgtg","pricing_plan_id":"free"},{"bike_id":"d5bfa8c0-049a-4f2b-b7be-e1d881c26de6","system_id":"levelo_inurba_marseille","lat":43.27813,"lon":5.40716,"is_reserved":false,"is_disabled":false,"rental_uris":{"android":"levelo://app?vid=d5bfa8c0-049a-4f2b-b7be-e1d881c26de6","ios":"levelo://app?vid=d5bfa8c0-049a-4f2b-b7be-e1d881c26de6"},"vehicle_type_id":"4","last_reported":1679767663,"current_range_meters":0,"station_id":"","pricing_plan_id":"free"},{"bike_id":"61690707-643f-4e2d-9276-b3ca481f94f7","system_id":"levelo_inurba_marseille","lat":43.278128,"lon":5.407195,"is_reserved":false,"is_disabled":false,"rental_uris":{"android":"levelo://app?vid=61690707-643f-4e2d-9276-b3ca481f94f7","ios":"levelo://app?vid=61690707-643f-4e2d-9276-b3ca481f94f7"},"vehicle_type_id":"4","last_reported":1679767663,"current_range_meters":10800,"station_id":"ce4bhnh2rcd13ifvqgtg","pricing_plan_id":"free"},{"bike_id":"f4b63362-54a3-4c73-97e5-01c77a99859d","system_id":"levelo_inurba_marseille","lat":43.269467,"lon":5.386439,"is_reserved":false,"is_disabled":false,"rental_uris":{"android":"levelo://app?vid=f4b63362-54a3-4c73-97e5-01c77a99859d","ios":"levelo://app?vid=f4b63362-54a3-4c73-97e5-01c77a99859d"},"vehicle_type_id":"4","last_reported":1679767663,"current_range_meters":15200,"station_id":"ce4bhh92rcd13ifvqfh0","pricing_plan_id":"free"},{"bike_id":"3c7b2e62-ceb5-41bf-bea9-95e01b2ae089","system_id":"levelo_inurba_marseille","lat":43.269252,"lon":5.389142,"is_reserved":false,"is_disabled":false,"rental_uris":{"android":"levelo://app?vid=3c7b2e62-ceb5-41bf-bea9-95e01b2ae089","ios":"levelo://app?vid=3c7b2e62-ceb5-41bf-bea9-95e01b2ae089"},"vehicle_type_id":"4","last_reported":1679767663,"current_range_meters":27200,"station_id":"","pricing_plan_id":"free"},{"bike_id":"57b68ded-989e-4bc6-b97b-d7e7bf5ed660","system_id":"levelo_inurba_marseille","lat":43.26889,"lon":5.38936,"is_reserved":false,"is_disabled":false,"rental_uris":{"android":"levelo://app?vid=57b68ded-989e-4bc6-b97b-d7e7bf5ed660","ios":"levelo://app?vid=57b68ded-989e-4bc6-b97b-d7e7bf5ed660"},"vehicle_type_id":"4","last_reported":1679767663,"current_range_meters":10400,"station_id":"","pricing_plan_id":"free"},{"bike_id":"08413c53-bba7-4ca2-9497-27daeb5db05e","system_id":"levelo_inurba_marseille","lat":43.26681,"lon":5.382694,"is_reserved":false,"is_disabled":false,"rental_uris":{"android":"levelo://app?vid=08413c53-bba7-4ca2-9497-27daeb5db05e","ios":"levelo://app?vid=08413c53-bba7-4ca2-9497-27daeb5db05e"},"vehicle_type_id":"4","last_reported":1679767663,"current_range_meters":0,"station_id":"ce4bhg92rcd13ifvqf90","pricing_plan_id":"free"},{"bike_id":"dcdfe1c9-32cc-457b-8961-adb56995e601","system_id":"levelo_inurba_marseille","lat":43.323283,"lon":5.43185,"is_reserved":false,"is_disabled":false,"rental_uris":{"android":"levelo://app?vid=dcdfe1c9-32cc-457b-8961-adb56995e601","ios":"levelo://app?vid=dcdfe1c9-32cc-457b-8961-adb56995e601"},"vehicle_type_id":"4","last_reported":1679767663,"current_range_meters":22400,"station_id":"","pricing_plan_id":"free"},{"bike_id":"6c740f81-739f-4142-adf7-1c05b845c7c8","system_id":"levelo_inurba_marseille","lat":43.323305,"lon":5.43187,"is_reserved":false,"is_disabled":false,"rental_uris":{"android":"levelo://app?vid=6c740f81-739f-4142-adf7-1c05b845c7c8","ios":"levelo://app?vid=6c740f81-739f-4142-adf7-1c05b845c7c8"},"vehicle_type_id":"4","last_reported":1679767663,"current_range_meters":22400,"station_id":"","pricing_plan_id":"free"},{"bike_id":"46f9e277-c897-48fb-86d4-25846a453eff","system_id":"levelo_inurba_marseille","lat":43.27996,"lon":5.416624,"is_reserved":false,"is_disabled":false,"rental_uris":{"android":"levelo://app?vid=46f9e277-c897-48fb-86d4-25846a453eff","ios":"levelo://app?vid=46f9e277-c897-48fb-86d4-25846a453eff"},"vehicle_type_id":"4","last_reported":1679767663,"current_range_meters":27600,"station_id":"ce4bho12rcd13ifvqh1g","pricing_plan_id":"free"},{"bike_id":"c374e253-f79f-4d60-b368-04b09f6cd45a","system_id":"levelo_inurba_marseille","lat":43.27996,"lon":5.416624,"is_reserved":false,"is_disabled":false,"rental_uris":{"android":"levelo://app?vid=c374e253-f79f-4d60-b368-04b09f6cd45a","ios":"levelo://app?vid=c374e253-f79f-4d60-b368-04b09f6cd45a"},"vehicle_type_id":"4","last_reported":1679767663,"current_range_meters":31200,"station_id":"ce4bho12rcd13ifvqh1g","pricing_plan_id":"free"},{"bike_id":"17574281-a99b-47ed-ac0b-a8619d5c8933","system_id":"levelo_inurba_marseille","lat":43.27996,"lon":5.416624,"is_reserved":false,"is_disabled":false,"rental_uris":{"android":"levelo://app?vid=17574281-a99b-47ed-ac0b-a8619d5c8933","ios":"levelo://app?vid=17574281-a99b-47ed-ac0b-a8619d5c8933"},"vehicle_type_id":"4","last_reported":1679767663,"current_range_meters":31600,"station_id":"ce4bho12rcd13ifvqh1g","pricing_plan_id":"free"},{"bike_id":"c84e0908-4091-4970-aa4c-b03261014211","system_id":"levelo_inurba_marseille","lat":43.27996,"lon":5.416624,"is_reserved":false,"is_disabled":false,"rental_uris":{"android":"levelo://app?vid=c84e0908-4091-4970-aa4c-b03261014211","ios":"levelo://app?vid=c84e0908-4091-4970-aa4c-b03261014211"},"vehicle_type_id":"4","last_reported":1679767663,"current_range_meters":31600,"station_id":"ce4bho12rcd13ifvqh1g","pricing_plan_id":"free"},{"bike_id":"9f0d8883-43ca-4865-b926-280be9c8cf5c","system_id":"levelo_inurba_marseille","lat":43.308051,"lon":5.43527,"is_reserved":false,"is_disabled":false,"rental_uris":{"android":"levelo://app?vid=9f0d8883-43ca-4865-b926-280be9c8cf5c","ios":"levelo://app?vid=9f0d8883-43ca-4865-b926-280be9c8cf5c"},"vehicle_type_id":"4","last_reported":1679767663,"current_range_meters":29600,"station_id":"ce4bhph2rcd13ifvqheg","pricing_plan_id":"free"},{"bike_id":"c47da63a-4997-4b07-a55f-ec234176ea23","system_id":"levelo_inurba_marseille","lat":43.308051,"lon":5.43527,"is_reserved":false,"is_disabled":false,"rental_uris":{"android":"levelo://app?vid=c47da63a-4997-4b07-a55f-ec234176ea23","ios":"levelo://app?vid=c47da63a-4997-4b07-a55f-ec234176ea23"},"vehicle_type_id":"4","last_reported":1679767663,"current_range_meters":31200,"station_id":"ce4bhph2rcd13ifvqheg","pricing_plan_id":"free"},{"bike_id":"611de498-5bbb-4e1a-b34d-1346bf659168","system_id":"levelo_inurba_marseille","lat":43.289773,"lon":5.42891,"is_reserved":false,"is_disabled":false,"rental_uris":{"android":"levelo://app?vid=611de498-5bbb-4e1a-b34d-1346bf659168","ios":"levelo://app?vid=611de498-5bbb-4e1a-b34d-1346bf659168"},"vehicle_type_id":"4","last_reported":1679767663,"current_range_meters":800,"station_id":"","pricing_plan_id":"free"},{"bike_id":"f4da5c1e-bb08-42ce-92e5-2768460b386c","system_id":"levelo_inurba_marseille","lat":43.331841,"lon":5.431804,"is_reserved":false,"is_disabled":false,"rental_uris":{"android":"levelo://app?vid=f4da5c1e-bb08-42ce-92e5-2768460b386c","ios":"levelo://app?vid=f4da5c1e-bb08-42ce-92e5-2768460b386c"},"vehicle_type_id":"4","last_reported":1679767663,"current_range_meters":7200,"station_id":"","pricing_plan_id":"free"},{"bike_id":"db60e1f8-0332-4bdc-9f90-b89bdf81c458","system_id":"levelo_inurba_marseille","lat":43.261986,"lon":5.379266,"is_reserved":false,"is_disabled":false,"rental_uris":{"android":"levelo://app?vid=db60e1f8-0332-4bdc-9f90-b89bdf81c458","ios":"levelo://app?vid=db60e1f8-0332-4bdc-9f90-b89bdf81c458"},"vehicle_type_id":"4","last_reported":1679767663,"current_range_meters":0,"station_id":"","pricing_plan_id":"free"},{"bike_id":"a73c0238-055c-44e9-ac90-d327ffac0477","system_id":"levelo_inurba_marseille","lat":43.267959,"lon":5.402687,"is_reserved":false,"is_disabled":false,"rental_uris":{"android":"levelo://app?vid=a73c0238-055c-44e9-ac90-d327ffac0477","ios":"levelo://app?vid=a73c0238-055c-44e9-ac90-d327ffac0477"},"vehicle_type_id":"4","last_reported":1679767663,"current_range_meters":9600,"station_id":"ce501612rcd8frsf0b60","pricing_plan_id":"free"},{"bike_id":"ed59230b-5962-4896-af24-2a651e04023a","system_id":"levelo_inurba_marseille","lat":43.267959,"lon":5.402687,"is_reserved":false,"is_disabled":false,"rental_uris":{"android":"levelo://app?vid=ed59230b-5962-4896-af24-2a651e04023a","ios":"levelo://app?vid=ed59230b-5962-4896-af24-2a651e04023a"},"vehicle_type_id":"4","last_reported":1679767663,"current_range_meters":17600,"station_id":"ce501612rcd8frsf0b60","pricing_plan_id":"free"},{"bike_id":"c7e461c1-1569-4e6a-94ae-316b1e5c6dce","system_id":"levelo_inurba_marseille","lat":43.275847,"lon":5.42337,"is_reserved":false,"is_disabled":false,"rental_uris":{"android":"levelo://app?vid=c7e461c1-1569-4e6a-94ae-316b1e5c6dce","ios":"levelo://app?vid=c7e461c1-1569-4e6a-94ae-316b1e5c6dce"},"vehicle_type_id":"4","last_reported":1679767663,"current_range_meters":0,"station_id":"","pricing_plan_id":"free"},{"bike_id":"65861410-9b14-4d96-ac5b-bc2f0d5ae8aa","system_id":"levelo_inurba_marseille","lat":43.255756,"lon":5.382303,"is_reserved":false,"is_disabled":false,"rental_uris":{"android":"levelo://app?vid=65861410-9b14-4d96-ac5b-bc2f0d5ae8aa","ios":"levelo://app?vid=65861410-9b14-4d96-ac5b-bc2f0d5ae8aa"},"vehicle_type_id":"4","last_reported":1679767663,"current_range_meters":16800,"station_id":"ce4bhih2rcd13ifvqfs0","pricing_plan_id":"free"},{"bike_id":"8e48472e-4997-4d9b-abb9-1fc60b385467","system_id":"levelo_inurba_marseille","lat":43.254945,"lon":5.376454,"is_reserved":false,"is_disabled":false,"rental_uris":{"android":"levelo://app?vid=8e48472e-4997-4d9b-abb9-1fc60b385467","ios":"levelo://app?vid=8e48472e-4997-4d9b-abb9-1fc60b385467"},"vehicle_type_id":"4","last_reported":1679767663,"current_range_meters":0,"station_id":"ce4bhh12rcd13ifvqff0","pricing_plan_id":"free"},{"bike_id":"408a8d50-cabd-4f18-ae21-ecf1d43e4f18","system_id":"levelo_inurba_marseille","lat":43.254945,"lon":5.376454,"is_reserved":false,"is_disabled":false,"rental_uris":{"android":"levelo://app?vid=408a8d50-cabd-4f18-ae21-ecf1d43e4f18","ios":"levelo://app?vid=408a8d50-cabd-4f18-ae21-ecf1d43e4f18"},"vehicle_type_id":"4","last_reported":1679767663,"current_range_meters":24400,"station_id":"ce4bhh12rcd13ifvqff0","pricing_plan_id":"free"},{"bike_id":"b2d3386c-62aa-4560-9541-c69da4177264","system_id":"levelo_inurba_marseille","lat":43.27073,"lon":5.4228,"is_reserved":false,"is_disabled":false,"rental_uris":{"android":"levelo://app?vid=b2d3386c-62aa-4560-9541-c69da4177264","ios":"levelo://app?vid=b2d3386c-62aa-4560-9541-c69da4177264"},"vehicle_type_id":"4","last_reported":1679767663,"current_range_meters":18800,"station_id":"ce4bhk92rcd13ifvqgb0","pricing_plan_id":"free"},{"bike_id":"0cea32a9-f6df-4bf0-b745-4fd748580235","system_id":"levelo_inurba_marseille","lat":43.27071,"lon":5.42278,"is_reserved":false,"is_disabled":false,"rental_uris":{"android":"levelo://app?vid=0cea32a9-f6df-4bf0-b745-4fd748580235","ios":"levelo://app?vid=0cea32a9-f6df-4bf0-b745-4fd748580235"},"vehicle_type_id":"4","last_reported":1679767663,"current_range_meters":8800,"station_id":"","pricing_plan_id":"free"},{"bike_id":"e6cd7c8c-64bd-441b-9bd6-9d75dbae601b","system_id":"levelo_inurba_marseille","lat":43.270721,"lon":5.422764,"is_reserved":false,"is_disabled":false,"rental_uris":{"android":"levelo://app?vid=e6cd7c8c-64bd-441b-9bd6-9d75dbae601b","ios":"levelo://app?vid=e6cd7c8c-64bd-441b-9bd6-9d75dbae601b"},"vehicle_type_id":"4","last_reported":1679767663,"current_range_meters":30800,"station_id":"ce4bhk92rcd13ifvqgb0","pricing_plan_id":"free"},{"bike_id":"bbb05ca3-7a4b-4951-b150-36d7be974446","system_id":"levelo_inurba_marseille","lat":43.27069,"lon":5.42281,"is_reserved":false,"is_disabled":false,"rental_uris":{"android":"levelo://app?vid=bbb05ca3-7a4b-4951-b150-36d7be974446","ios":"levelo://app?vid=bbb05ca3-7a4b-4951-b150-36d7be974446"},"vehicle_type_id":"4","last_reported":1679767663,"current_range_meters":19200,"station_id":"ce4bhk92rcd13ifvqgb0","pricing_plan_id":"free"},{"bike_id":"0f3f6354-1dc7-425b-8593-49dcce7d67b8","system_id":"levelo_inurba_marseille","lat":43.27065,"lon":5.42278,"is_reserved":false,"is_disabled":false,"rental_uris":{"android":"levelo://app?vid=0f3f6354-1dc7-425b-8593-49dcce7d67b8","ios":"levelo://app?vid=0f3f6354-1dc7-425b-8593-49dcce7d67b8"},"vehicle_type_id":"4","last_reported":1679767663,"current_range_meters":0,"station_id":"ce4bhk92rcd13ifvqgb0","pricing_plan_id":"free"},{"bike_id":"48b38799-b203-4603-af9c-9625d113e1ca","system_id":"levelo_inurba_marseille","lat":43.24812,"lon":5.3746,"is_reserved":false,"is_disabled":false,"rental_uris":{"android":"levelo://app?vid=48b38799-b203-4603-af9c-9625d113e1ca","ios":"levelo://app?vid=48b38799-b203-4603-af9c-9625d113e1ca"},"vehicle_type_id":"4","last_reported":1679767663,"current_range_meters":2000,"station_id":"ce4bhgh2rcd13ifvqfb0","pricing_plan_id":"free"},{"bike_id":"0fa5942f-4613-422a-b785-177e9ec25463","system_id":"levelo_inurba_marseille","lat":43.24811,"lon":5.37462,"is_reserved":false,"is_disabled":false,"rental_uris":{"android":"levelo://app?vid=0fa5942f-4613-422a-b785-177e9ec25463","ios":"levelo://app?vid=0fa5942f-4613-422a-b785-177e9ec25463"},"vehicle_type_id":"4","last_reported":1679767663,"current_range_meters":3200,"station_id":"ce4bhgh2rcd13ifvqfb0","pricing_plan_id":"free"},{"bike_id":"05654a8d-3118-46f7-af2e-cd7a4f6fccc2","system_id":"levelo_inurba_marseille","lat":43.24693,"lon":5.382096,"is_reserved":false,"is_disabled":false,"rental_uris":{"android":"levelo://app?vid=05654a8d-3118-46f7-af2e-cd7a4f6fccc2","ios":"levelo://app?vid=05654a8d-3118-46f7-af2e-cd7a4f6fccc2"},"vehicle_type_id":"4","last_reported":1679767663,"current_range_meters":26000,"station_id":"ce4bhih2rcd13ifvqfr0","pricing_plan_id":"free"},{"bike_id":"8bf5882b-7c87-46c8-b1e2-4c3989ef4025","system_id":"levelo_inurba_marseille","lat":43.24693,"lon":5.382096,"is_reserved":false,"is_disabled":false,"rental_uris":{"android":"levelo://app?vid=8bf5882b-7c87-46c8-b1e2-4c3989ef4025","ios":"levelo://app?vid=8bf5882b-7c87-46c8-b1e2-4c3989ef4025"},"vehicle_type_id":"4","last_reported":1679767663,"current_range_meters":0,"station_id":"ce4bhih2rcd13ifvqfr0","pricing_plan_id":"free"},{"bike_id":"c4bbe781-46d3-4d03-876a-d6dfafb96c57","system_id":"levelo_inurba_marseille","lat":43.24693,"lon":5.382096,"is_reserved":false,"is_disabled":false,"rental_uris":{"android":"levelo://app?vid=c4bbe781-46d3-4d03-876a-d6dfafb96c57","ios":"levelo://app?vid=c4bbe781-46d3-4d03-876a-d6dfafb96c57"},"vehicle_type_id":"4","last_reported":1679767663,"current_range_meters":30400,"station_id":"ce4bhih2rcd13ifvqfr0","pricing_plan_id":"free"},{"bike_id":"39a85303-b5ba-4aaa-a2bc-c5533c653b3f","system_id":"levelo_inurba_marseille","lat":43.248989,"lon":5.39699,"is_reserved":false,"is_disabled":false,"rental_uris":{"android":"levelo://app?vid=39a85303-b5ba-4aaa-a2bc-c5533c653b3f","ios":"levelo://app?vid=39a85303-b5ba-4aaa-a2bc-c5533c653b3f"},"vehicle_type_id":"4","last_reported":1679767663,"current_range_meters":28000,"station_id":"","pricing_plan_id":"free"},{"bike_id":"b9b481c7-2490-43e2-8d6d-3cf30168b27c","system_id":"levelo_inurba_marseille","lat":43.246467,"lon":5.388984,"is_reserved":false,"is_disabled":false,"rental_uris":{"android":"levelo://app?vid=b9b481c7-2490-43e2-8d6d-3cf30168b27c","ios":"levelo://app?vid=b9b481c7-2490-43e2-8d6d-3cf30168b27c"},"vehicle_type_id":"4","last_reported":1679767663,"current_range_meters":8000,"station_id":"ce4bhg12rcd13ifvqf60","pricing_plan_id":"free"},{"bike_id":"23b8369f-fbeb-4eaf-81f7-a65536616c57","system_id":"levelo_inurba_marseille","lat":43.246461,"lon":5.389014,"is_reserved":false,"is_disabled":false,"rental_uris":{"android":"levelo://app?vid=23b8369f-fbeb-4eaf-81f7-a65536616c57","ios":"levelo://app?vid=23b8369f-fbeb-4eaf-81f7-a65536616c57"},"vehicle_type_id":"4","last_reported":1679767663,"current_range_meters":20400,"station_id":"ce4bhg12rcd13ifvqf60","pricing_plan_id":"free"},{"bike_id":"6e37bf93-91d4-4b7b-9e11-ef78baa1db9a","system_id":"levelo_inurba_marseille","lat":43.25454,"lon":5.41726,"is_reserved":false,"is_disabled":false,"rental_uris":{"android":"levelo://app?vid=6e37bf93-91d4-4b7b-9e11-ef78baa1db9a","ios":"levelo://app?vid=6e37bf93-91d4-4b7b-9e11-ef78baa1db9a"},"vehicle_type_id":"4","last_reported":1679767663,"current_range_meters":0,"station_id":"","pricing_plan_id":"free"},{"bike_id":"60198538-92fa-49af-8f15-9377f1836157","system_id":"levelo_inurba_marseille","lat":43.242736,"lon":5.370496,"is_reserved":false,"is_disabled":false,"rental_uris":{"android":"levelo://app?vid=60198538-92fa-49af-8f15-9377f1836157","ios":"levelo://app?vid=60198538-92fa-49af-8f15-9377f1836157"},"vehicle_type_id":"4","last_reported":1679767663,"current_range_meters":25600,"station_id":"","pricing_plan_id":"free"},{"bike_id":"cead03bc-d17a-4b0a-aaf4-06c83085af22","system_id":"levelo_inurba_marseille","lat":43.23192,"lon":5.35548,"is_reserved":false,"is_disabled":false,"rental_uris":{"android":"levelo://app?vid=cead03bc-d17a-4b0a-aaf4-06c83085af22","ios":"levelo://app?vid=cead03bc-d17a-4b0a-aaf4-06c83085af22"},"vehicle_type_id":"4","last_reported":1679767663,"current_range_meters":30000,"station_id":"ce4bhu92rcd13ifvqi70","pricing_plan_id":"free"}]}}