{"last_updated":1747193748,"ttl":60,"version":"2.2","data":{"bikes":[{"bike_id":"6861c2ae-b8dd-4ed0-86d9-03af359f7503","system_id":"levelo_inurba_marseille","lat":43.24056,"lon":5.37797,"is_reserved":false,"is_disabled":false,"rental_uris":{"android":"levelo://app?vid=6861c2ae-b8dd-4ed0-86d9-03af359f7503","ios":"levelo://app?vid=6861c2ae-b8dd-4ed0-86d9-03af359f7503"},"vehicle_type_id":"4","last_reported":1747193748,"current_range_meters":2800,"station_id":"ce4bhnp2rcd13ifvqgvg","pricing_plan_id":"cebpf4jnsgd1na2vs0mg"},{"bike_id":"3071c56b-ce80-4fb6-b5b1-b157555fc3f4","system_id":"levelo_inurba_marseille","lat":43.24546,"lon":5.39526,"is_reserved":false,"is_disabled":false,"rental_uris":{"android":"levelo://app?vid=3071c56b-ce80-4fb6-b5b1-b157555fc3f4","ios":"levelo://app?vid=3071c56b-ce80-4fb6-b5b1-b157555fc3f4"},"vehicle_type_id":"4","last_reported":1747193748,"current_range_meters":2800,"station_id":"ce4bhlp2rcd13ifvqgjg","pricing_plan_id":"cebpf4jnsgd1na2vs0mg"},{"bike_id":"9a55e5e6-457b-4535-b7b7-fd36234274f4","system_id":"levelo_inurba_marseille","lat":43.30819,"lon":5.38146,"is_reserved":false,"is_disabled":true,"rental_uris":{"android":"levelo://app?vid=9a55e5e6-457b-4535-b7b7-fd36234274f4","ios":"levelo://app?vid=9a55e5e6-457b-4535-b7b7-fd36234274f4"},"vehicle_type_id":"4","last_reported":1747193748,"current_range_meters":3200,"station_id":"ce4bgt12rcd13ifvqce0","pricing_plan_id":"cebpf4jnsgd1na2vs0mg"},{"bike_id":"20e364b9-9bca-4365-866b-4ccf9399ec0a","system_id":"levelo_inurba_marseille","lat":43.27946,"lon":5.4105,"is_reserved":false,"is_disabled":false,"rental_uris":{"android":"levelo://app?vid=20e364b9-9bca-4365-866b-4ccf9399ec0a","ios":"levelo://app?vid=20e364b9-9bca-4365-866b-4ccf9399ec0a"},"vehicle_type_id":"4","last_reported":1747193748,"current_range_meters":3200,"station_id":"ce4bhnp2rcd13ifvqh0g","pricing_plan_id":"cebpf4jnsgd1na2vs0mg"},{"bike_id":"679a1652-9834-4e25-8720-e5f793f672e7","system_id":"levelo_inurba_marseille","lat":43.25094,"lon":5.39512,"is_reserved":false,"is_disabled":false,"rental_uris":{"android":"levelo://app?vid=679a1652-9834-4e25-8720-e5f793f672e7","ios":"levelo://app?vid=679a1652-9834-4e25-8720-e5f793f672e7"},"vehicle_type_id":"4","last_reported":1747193748,"current_range_meters":3200,"station_id":"ce4bhm12rcd13ifvqgkg","pricing_plan_id":"cebpf4jnsgd1na2vs0mg"},{"bike_id":"764a7013-3fc3-4d32-b171-097f58534232","system_id":"levelo_inurba_marseille","lat":43.2808,"lon":5.39655,"is_reserved":false,"is_disabled":false,"rental_uris":{"android":"levelo://app?vid=764a7013-3fc3-4d32-b171-097f58534232","ios":"levelo://app?vid=764a7013-3fc3-4d32-b171-097f58534232"},"vehicle_type_id":"4","last_reported":1747193748,"current_range_meters":3600,"station_id":"ce4bho12rcd13ifvqh2g","pricing_plan_id":"cebpf4jnsgd1na2vs0mg"},{"bike_id":"ed1b4068-6838-43a7-9a7a-cc2a7c05c99e","system_id":"levelo_inurba_marseille","lat":43.295261,"lon":5.390412,"is_reserved":false,"is_disabled":false,"rental_uris":{"android":"levelo://app?vid=ed1b4068-6838-43a7-9a7a-cc2a7c05c99e","ios":"levelo://app?vid=ed1b4068-6838-43a7-9a7a-cc2a7c05c99e"},"vehicle_type_id":"4","last_reported":1747193748,"current_range_meters":4000,"station_id":"","pricing_plan_id":"cebpf4jnsgd1na2vs0mg"},{"bike_id":"56d36b68-edf9-473f-91b7-17e6da79fdc2","system_id":"levelo_inurba_marseille","lat":43.2679,"lon":5.39406,"is_reserved":false,"is_disabled":false,"rental_uris":{"android":"levelo://app?vid=56d36b68-edf9-473f-91b7-17e6da79fdc2","ios":"levelo://app?vid=56d36b68-edf9-473f-91b7-17e6da79fdc2"},"vehicle_type_id":"4","last_reported":1747193748,"current_range_meters":4000,"station_id":"ce4bhh12rcd13ifvqfg0","pricing_plan_id":"cebpf4jnsgd1na2vs0mg"},{"bike_id":"324038b2-dc71-420d-8274-5f30ae59c210","system_id":"levelo_inurba_marseille","lat":43.25105,"lon":5.40327,"is_reserved":false,"is_disabled":false,"rental_uris":{"android":"levelo://app?vid=324038b2-dc71-420d-8274-5f30ae59c210","ios":"levelo://app?vid=324038b2-dc71-420d-8274-5f30ae59c210"},"vehicle_type_id":"4","last_reported":1747193748,"current_range_meters":4400,"station_id":"ce4bhlh2rcd13ifvqgig","pricing_plan_id":"cebpf4jnsgd1na2vs0mg"},{"bike_id":"abe19c7b-dd48-4f23-ad5b-10c07cbeffa6","system_id":"levelo_inurba_marseille","lat":43.295933,"lon":5.378599,"is_reserved":false,"is_disabled":false,"rental_uris":{"android":"levelo://app?vid=abe19c7b-dd48-4f23-ad5b-10c07cbeffa6","ios":"levelo://app?vid=abe19c7b-dd48-4f23-ad5b-10c07cbeffa6"},"vehicle_type_id":"4","last_reported":1747193748,"current_range_meters":5600,"station_id":"","pricing_plan_id":"cebpf4jnsgd1na2vs0mg"},{"bike_id":"d991382c-9312-4a59-b021-052b5426210e","system_id":"levelo_inurba_marseille","lat":43.26046,"lon":5.394038,"is_reserved":false,"is_disabled":false,"rental_uris":{"android":"levelo://app?vid=d991382c-9312-4a59-b021-052b5426210e","ios":"levelo://app?vid=d991382c-9312-4a59-b021-052b5426210e"},"vehicle_type_id":"4","last_reported":1747193748,"current_range_meters":6000,"station_id":"ce4bhh92rcd13ifvqfj0","pricing_plan_id":"cebpf4jnsgd1na2vs0mg"},{"bike_id":"4a7a989c-172d-4f21-a17f-a1e0e81980c4","system_id":"levelo_inurba_marseille","lat":43.25858,"lon":5.3991,"is_reserved":false,"is_disabled":false,"rental_uris":{"android":"levelo://app?vid=4a7a989c-172d-4f21-a17f-a1e0e81980c4","ios":"levelo://app?vid=4a7a989c-172d-4f21-a17f-a1e0e81980c4"},"vehicle_type_id":"4","last_reported":1747193748,"current_range_meters":6000,"station_id":"ce4bhl92rcd13ifvqghg","pricing_plan_id":"cebpf4jnsgd1na2vs0mg"},{"bike_id":"74ce7741-5813-4b25-8268-d773ddb37d17","system_id":"levelo_inurba_marseille","lat":43.302062,"lon":5.453968,"is_reserved":false,"is_disabled":false,"rental_uris":{"android":"levelo://app?vid=74ce7741-5813-4b25-8268-d773ddb37d17","ios":"levelo://app?vid=74ce7741-5813-4b25-8268-d773ddb37d17"},"vehicle_type_id":"4","last_reported":1747193748,"current_range_meters":6400,"station_id":"","pricing_plan_id":"cebpf4jnsgd1na2vs0mg"},{"bike_id":"bd790923-84de-4063-9c5a-d40660043ea8","system_id":"levelo_inurba_marseille","lat":43.24556,"lon":5.39534,"is_reserved":false,"is_disabled":false,"rental_uris":{"android":"levelo://app?vid=bd790923-84de-4063-9c5a-d40660043ea8","ios":"levelo://app?vid=bd790923-84de-4063-9c5a-d40660043ea8"},"vehicle_type_id":"4","last_reported":1747193748,"current_range_meters":6400,"station_id":"ce4bhlp2rcd13ifvqgjg","pricing_plan_id":"cebpf4jnsgd1na2vs0mg"},{"bike_id":"597e7865-b942-4532-81ea-d2c26c4cbf33","system_id":"levelo_inurba_marseille","lat":43.240722,"lon":5.377659,"is_reserved":false,"is_disabled":false,"rental_uris":{"android":"levelo://app?vid=597e7865-b942-4532-81ea-d2c26c4cbf33","ios":"levelo://app?vid=597e7865-b942-4532-81ea-d2c26c4cbf33"},"vehicle_type_id":"4","last_reported":1747193748,"current_range_meters":6800,"station_id":"ce4bhnp2rcd13ifvqgvg","pricing_plan_id":"cebpf4jnsgd1na2vs0mg"},{"bike_id":"e42e17e5-d574-40b9-811b-e914acd6632f","system_id":"levelo_inurba_marseille","lat":43.230493,"lon":5.354946,"is_reserved":false,"is_disabled":false,"rental_uris":{"android":"levelo://app?vid=e42e17e5-d574-40b9-811b-e914acd6632f","ios":"levelo://app?vid=e42e17e5-d574-40b9-811b-e914acd6632f"},"vehicle_type_id":"4","last_reported":1747193748,"current_range_meters":6800,"station_id":"cpo3342slgdg3j2ifvpg","pricing_plan_id":"cebpf4jnsgd1na2vs0mg"},{"bike_id":"ce4325af-2448-4172-bdec-81d552ee0b62","system_id":"levelo_inurba_marseille","lat":43.261673,"lon":5.420027,"is_reserved":false,"is_disabled":false,"rental_uris":{"android":"levelo://app?vid=ce4325af-2448-4172-bdec-81d552ee0b62","ios":"levelo://app?vid=ce4325af-2448-4172-bdec-81d552ee0b62"},"vehicle_type_id":"4","last_reported":1747193748,"current_range_meters":7200,"station_id":"","pricing_plan_id":"cebpf4jnsgd1na2vs0mg"},{"bike_id":"581fa52b-d332-45e3-9d7f-f18fbfd08e95","system_id":"levelo_inurba_marseille","lat":43.34143,"lon":5.40911,"is_reserved":false,"is_disabled":true,"rental_uris":{"android":"levelo://app?vid=581fa52b-d332-45e3-9d7f-f18fbfd08e95","ios":"levelo://app?vid=581fa52b-d332-45e3-9d7f-f18fbfd08e95"},"vehicle_type_id":"4","last_reported":1747193748,"current_range_meters":7200,"station_id":"ce4bhqh2rcd13ifvqhlg","pricing_plan_id":"cebpf4jnsgd1na2vs0mg"},{"bike_id":"7100f54c-b0ff-47c7-bfce-e9e46a62d28d","system_id":"levelo_inurba_marseille","lat":43.30215,"lon":5.39465,"is_reserved":false,"is_disabled":false,"rental_uris":{"android":"levelo://app?vid=7100f54c-b0ff-47c7-bfce-e9e46a62d28d","ios":"levelo://app?vid=7100f54c-b0ff-47c7-bfce-e9e46a62d28d"},"vehicle_type_id":"4","last_reported":1747193748,"current_range_meters":7200,"station_id":"ce4bh0p2rcd13ifvqd70","pricing_plan_id":"cebpf4jnsgd1na2vs0mg"},{"bike_id":"a4788589-db0c-43f6-9ae1-d181d3cfcd08","system_id":"levelo_inurba_marseille","lat":43.26987,"lon":5.36591,"is_reserved":false,"is_disabled":false,"rental_uris":{"android":"levelo://app?vid=a4788589-db0c-43f6-9ae1-d181d3cfcd08","ios":"levelo://app?vid=a4788589-db0c-43f6-9ae1-d181d3cfcd08"},"vehicle_type_id":"4","last_reported":1747193748,"current_range_meters":7200,"station_id":"","pricing_plan_id":"cebpf4jnsgd1na2vs0mg"},{"bike_id":"a2ae26c9-3a89-4142-a096-4b0533460118","system_id":"levelo_inurba_marseille","lat":43.27061,"lon":5.40259,"is_reserved":false,"is_disabled":false,"rental_uris":{"android":"levelo://app?vid=a2ae26c9-3a89-4142-a096-4b0533460118","ios":"levelo://app?vid=a2ae26c9-3a89-4142-a096-4b0533460118"},"vehicle_type_id":"4","last_reported":1747193748,"current_range_meters":8000,"station_id":"ce4bhk92rcd13ifvqgc0","pricing_plan_id":"cebpf4jnsgd1na2vs0mg"},{"bike_id":"96ffb000-4e10-4fec-a53d-e6fef8bb424d","system_id":"levelo_inurba_marseille","lat":43.258627,"lon":5.398985,"is_reserved":false,"is_disabled":false,"rental_uris":{"android":"levelo://app?vid=96ffb000-4e10-4fec-a53d-e6fef8bb424d","ios":"levelo://app?vid=96ffb000-4e10-4fec-a53d-e6fef8bb424d"},"vehicle_type_id":"4","last_reported":1747193748,"current_range_meters":8000,"station_id":"ce4bhl92rcd13ifvqghg","pricing_plan_id":"cebpf4jnsgd1na2vs0mg"},{"bike_id":"23bfae5d-adbc-487a-a024-c8962e33e86d","system_id":"levelo_inurba_marseille","lat":43.24649,"lon":5.38893,"is_reserved":false,"is_disabled":false,"rental_uris":{"android":"levelo://app?vid=23bfae5d-adbc-487a-a024-c8962e33e86d","ios":"levelo://app?vid=23bfae5d-adbc-487a-a024-c8962e33e86d"},"vehicle_type_id":"4","last_reported":1747193748,"current_range_meters":8000,"station_id":"ce4bhg12rcd13ifvqf60","pricing_plan_id":"cebpf4jnsgd1na2vs0mg"},{"bike_id":"9aba25c8-ec36-4940-ad29-07cd209e024f","system_id":"levelo_inurba_marseille","lat":43.239666,"lon":5.366329,"is_reserved":false,"is_disabled":false,"rental_uris":{"android":"levelo://app?vid=9aba25c8-ec36-4940-ad29-07cd209e024f","ios":"levelo://app?vid=9aba25c8-ec36-4940-ad29-07cd209e024f"},"vehicle_type_id":"4","last_reported":1747193748,"current_range_meters":8000,"station_id":"ce4bhi12rcd13ifvqfp0","pricing_plan_id":"cebpf4jnsgd1na2vs0mg"},{"bike_id":"a252ee44-b8c3-4556-a12c-5f4f5dc85b27","system_id":"levelo_inurba_marseille","lat":43.306548,"lon":5.400787,"is_reserved":false,"is_disabled":false,"rental_uris":{"android":"levelo://app?vid=a252ee44-b8c3-4556-a12c-5f4f5dc85b27","ios":"levelo://app?vid=a252ee44-b8c3-4556-a12c-5f4f5dc85b27"},"vehicle_type_id":"4","last_reported":1747193748,"current_range_meters":8400,"station_id":"ce4bh112rcd13ifvqda0","pricing_plan_id":"cebpf4jnsgd1na2vs0mg"},{"bike_id":"7f7cd8c7-120d-4ea6-957a-e8facbf3a71d","system_id":"levelo_inurba_marseille","lat":43.31477,"lon":5.37313,"is_reserved":false,"is_disabled":false,"rental_uris":{"android":"levelo://app?vid=7f7cd8c7-120d-4ea6-957a-e8facbf3a71d","ios":"levelo://app?vid=7f7cd8c7-120d-4ea6-957a-e8facbf3a71d"},"vehicle_type_id":"4","last_reported":1747193748,"current_range_meters":8400,"station_id":"ce4bgt12rcd13ifvqcd0","pricing_plan_id":"cebpf4jnsgd1na2vs0mg"},{"bike_id":"3e298fff-a6c8-4c84-a257-9c58614d0496","system_id":"levelo_inurba_marseille","lat":43.32086,"lon":5.44092,"is_reserved":false,"is_disabled":false,"rental_uris":{"android":"levelo://app?vid=3e298fff-a6c8-4c84-a257-9c58614d0496","ios":"levelo://app?vid=3e298fff-a6c8-4c84-a257-9c58614d0496"},"vehicle_type_id":"4","last_reported":1747193748,"current_range_meters":8400,"station_id":"","pricing_plan_id":"cebpf4jnsgd1na2vs0mg"},{"bike_id":"a8c7bae6-d983-4f91-a2a9-b8d3f74003b5","system_id":"levelo_inurba_marseille","lat":43.30245,"lon":5.40043,"is_reserved":false,"is_disabled":false,"rental_uris":{"android":"levelo://app?vid=a8c7bae6-d983-4f91-a2a9-b8d3f74003b5","ios":"levelo://app?vid=a8c7bae6-d983-4f91-a2a9-b8d3f74003b5"},"vehicle_type_id":"4","last_reported":1747193748,"current_range_meters":8400,"station_id":"ce4bgvh2rcd13ifvqcs0","pricing_plan_id":"cebpf4jnsgd1na2vs0mg"},{"bike_id":"eb050f5c-8fe4-4b4d-ba6e-ec9a1bb9c4cd","system_id":"levelo_inurba_marseille","lat":43.31655,"lon":5.40496,"is_reserved":false,"is_disabled":false,"rental_uris":{"android":"levelo://app?vid=eb050f5c-8fe4-4b4d-ba6e-ec9a1bb9c4cd","ios":"levelo://app?vid=eb050f5c-8fe4-4b4d-ba6e-ec9a1bb9c4cd"},"vehicle_type_id":"4","last_reported":1747193748,"current_range_meters":8400,"station_id":"ce4bh012rcd13ifvqd00","pricing_plan_id":"cebpf4jnsgd1na2vs0mg"},{"bike_id":"c78709f5-2894-4d12-aff9-20e6f85f4ee8","system_id":"levelo_inurba_marseille","lat":43.30895,"lon":5.39623,"is_reserved":false,"is_disabled":false,"rental_uris":{"android":"levelo://app?vid=c78709f5-2894-4d12-aff9-20e6f85f4ee8","ios":"levelo://app?vid=c78709f5-2894-4d12-aff9-20e6f85f4ee8"},"vehicle_type_id":"4","last_reported":1747193748,"current_range_meters":8400,"station_id":"ce4bh012rcd13ifvqcv0","pricing_plan_id":"cebpf4jnsgd1na2vs0mg"},{"bike_id":"5de1e8df-cec1-47cf-b554-41f6e726d337","system_id":"levelo_inurba_marseille","lat":43.27431,"lon":5.40596,"is_reserved":false,"is_disabled":false,"rental_uris":{"android":"levelo://app?vid=5de1e8df-cec1-47cf-b554-41f6e726d337","ios":"levelo://app?vid=5de1e8df-cec1-47cf-b554-41f6e726d337"},"vehicle_type_id":"4","last_reported":1747193748,"current_range_meters":8400,"station_id":"","pricing_plan_id":"cebpf4jnsgd1na2vs0mg"},{"bike_id":"f4f44ecb-d1f2-458e-9c20-4902d78902fa","system_id":"levelo_inurba_marseille","lat":43.30591,"lon":5.39356,"is_reserved":false,"is_disabled":false,"rental_uris":{"android":"levelo://app?vid=f4f44ecb-d1f2-458e-9c20-4902d78902fa","ios":"levelo://app?vid=f4f44ecb-d1f2-458e-9c20-4902d78902fa"},"vehicle_type_id":"4","last_reported":1747193748,"current_range_meters":8800,"station_id":"ce4bh0p2rcd13ifvqd80","pricing_plan_id":"cebpf4jnsgd1na2vs0mg"},{"bike_id":"910f9f39-856a-4a58-baa8-3e2e791f2766","system_id":"levelo_inurba_marseille","lat":43.288554,"lon":5.393333,"is_reserved":false,"is_disabled":true,"rental_uris":{"android":"levelo://app?vid=910f9f39-856a-4a58-baa8-3e2e791f2766","ios":"levelo://app?vid=910f9f39-856a-4a58-baa8-3e2e791f2766"},"vehicle_type_id":"4","last_reported":1747193748,"current_range_meters":8800,"station_id":"ce4bh2p2rcd13ifvqdi0","pricing_plan_id":"cebpf4jnsgd1na2vs0mg"},{"bike_id":"0d826070-2b6a-4e0e-9fd5-7d4b62a6ea2e","system_id":"levelo_inurba_marseille","lat":43.31276,"lon":5.40169,"is_reserved":false,"is_disabled":false,"rental_uris":{"android":"levelo://app?vid=0d826070-2b6a-4e0e-9fd5-7d4b62a6ea2e","ios":"levelo://app?vid=0d826070-2b6a-4e0e-9fd5-7d4b62a6ea2e"},"vehicle_type_id":"4","last_reported":1747193748,"current_range_meters":8800,"station_id":"ce4bh092rcd13ifvqd30","pricing_plan_id":"cebpf4jnsgd1na2vs0mg"},{"bike_id":"1466ea0a-656f-485b-939a-7c9e9c76ce64","system_id":"levelo_inurba_marseille","lat":43.318909,"lon":5.407219,"is_reserved":false,"is_disabled":false,"rental_uris":{"android":"levelo://app?vid=1466ea0a-656f-485b-939a-7c9e9c76ce64","ios":"levelo://app?vid=1466ea0a-656f-485b-939a-7c9e9c76ce64"},"vehicle_type_id":"4","last_reported":1747193748,"current_range_meters":8800,"station_id":"ce4bhq12rcd13ifvqhig","pricing_plan_id":"cebpf4jnsgd1na2vs0mg"},{"bike_id":"eda320a9-c748-41fe-8957-3c5ad95195ad","system_id":"levelo_inurba_marseille","lat":43.310881,"lon":5.383667,"is_reserved":false,"is_disabled":false,"rental_uris":{"android":"levelo://app?vid=eda320a9-c748-41fe-8957-3c5ad95195ad","ios":"levelo://app?vid=eda320a9-c748-41fe-8957-3c5ad95195ad"},"vehicle_type_id":"4","last_reported":1747193748,"current_range_meters":8800,"station_id":"ce4bgv92rcd13ifvqcr0","pricing_plan_id":"cebpf4jnsgd1na2vs0mg"},{"bike_id":"6e09efd0-ae69-455b-a95f-47dfe1e3828d","system_id":"levelo_inurba_marseille","lat":43.3082,"lon":5.4355,"is_reserved":false,"is_disabled":false,"rental_uris":{"android":"levelo://app?vid=6e09efd0-ae69-455b-a95f-47dfe1e3828d","ios":"levelo://app?vid=6e09efd0-ae69-455b-a95f-47dfe1e3828d"},"vehicle_type_id":"4","last_reported":1747193748,"current_range_meters":8800,"station_id":"ce4bhph2rcd13ifvqheg","pricing_plan_id":"cebpf4jnsgd1na2vs0mg"},{"bike_id":"31bbd2a3-3187-4cf6-ac4f-ef100a38b191","system_id":"levelo_inurba_marseille","lat":43.314812,"lon":5.373138,"is_reserved":false,"is_disabled":false,"rental_uris":{"android":"levelo://app?vid=31bbd2a3-3187-4cf6-ac4f-ef100a38b191","ios":"levelo://app?vid=31bbd2a3-3187-4cf6-ac4f-ef100a38b191"},"vehicle_type_id":"4","last_reported":1747193748,"current_range_meters":9200,"station_id":"ce4bgt12rcd13ifvqcd0","pricing_plan_id":"cebpf4jnsgd1na2vs0mg"},{"bike_id":"cf338769-a8de-47e3-99f7-f44d43d6f821","system_id":"levelo_inurba_marseille","lat":43.29703,"lon":5.36615,"is_reserved":false,"is_disabled":true,"rental_uris":{"android":"levelo://app?vid=cf338769-a8de-47e3-99f7-f44d43d6f821","ios":"levelo://app?vid=cf338769-a8de-47e3-99f7-f44d43d6f821"},"vehicle_type_id":"4","last_reported":1747193748,"current_range_meters":9200,"station_id":"ce4bgn12rcd13ifvqbt0","pricing_plan_id":"cebpf4jnsgd1na2vs0mg"},{"bike_id":"f37b7848-b34f-4203-8cd6-ee4ac88ff930","system_id":"levelo_inurba_marseille","lat":43.23967,"lon":5.3665,"is_reserved":false,"is_disabled":false,"rental_uris":{"android":"levelo://app?vid=f37b7848-b34f-4203-8cd6-ee4ac88ff930","ios":"levelo://app?vid=f37b7848-b34f-4203-8cd6-ee4ac88ff930"},"vehicle_type_id":"4","last_reported":1747193748,"current_range_meters":9200,"station_id":"ce4bhi12rcd13ifvqfp0","pricing_plan_id":"cebpf4jnsgd1na2vs0mg"},{"bike_id":"544aa33b-6d85-46e4-8e4f-d0a805535fd2","system_id":"levelo_inurba_marseille","lat":43.28696,"lon":5.39982,"is_reserved":false,"is_disabled":false,"rental_uris":{"android":"levelo://app?vid=544aa33b-6d85-46e4-8e4f-d0a805535fd2","ios":"levelo://app?vid=544aa33b-6d85-46e4-8e4f-d0a805535fd2"},"vehicle_type_id":"4","last_reported":1747193748,"current_range_meters":9200,"station_id":"ce4bho92rcd13ifvqh3g","pricing_plan_id":"cebpf4jnsgd1na2vs0mg"},{"bike_id":"a5d260ad-5fd1-499d-89d7-66b6d0e446f2","system_id":"levelo_inurba_marseille","lat":43.25112,"lon":5.40352,"is_reserved":false,"is_disabled":false,"rental_uris":{"android":"levelo://app?vid=a5d260ad-5fd1-499d-89d7-66b6d0e446f2","ios":"levelo://app?vid=a5d260ad-5fd1-499d-89d7-66b6d0e446f2"},"vehicle_type_id":"4","last_reported":1747193748,"current_range_meters":9200,"station_id":"ce4bhlh2rcd13ifvqgig","pricing_plan_id":"cebpf4jnsgd1na2vs0mg"},{"bike_id":"060d34f9-d5e7-4c03-bb96-9e6501866e6d","system_id":"levelo_inurba_marseille","lat":43.24091,"lon":5.37761,"is_reserved":false,"is_disabled":false,"rental_uris":{"android":"levelo://app?vid=060d34f9-d5e7-4c03-bb96-9e6501866e6d","ios":"levelo://app?vid=060d34f9-d5e7-4c03-bb96-9e6501866e6d"},"vehicle_type_id":"4","last_reported":1747193748,"current_range_meters":9200,"station_id":"ce4bhnp2rcd13ifvqgvg","pricing_plan_id":"cebpf4jnsgd1na2vs0mg"},{"bike_id":"e698e52b-b35d-4538-9d26-dea1a6ab3275","system_id":"levelo_inurba_marseille","lat":43.30809,"lon":5.38155,"is_reserved":false,"is_disabled":false,"rental_uris":{"android":"levelo://app?vid=e698e52b-b35d-4538-9d26-dea1a6ab3275","ios":"levelo://app?vid=e698e52b-b35d-4538-9d26-dea1a6ab3275"},"vehicle_type_id":"4","last_reported":1747193748,"current_range_meters":9200,"station_id":"ce4bgt12rcd13ifvqce0","pricing_plan_id":"cebpf4jnsgd1na2vs0mg"},{"bike_id":"a8d52740-981a-4603-b6fa-4d8a60cc4ff3","system_id":"levelo_inurba_marseille","lat":43.279958,"lon":5.400083,"is_reserved":false,"is_disabled":true,"rental_uris":{"android":"levelo://app?vid=a8d52740-981a-4603-b6fa-4d8a60cc4ff3","ios":"levelo://app?vid=a8d52740-981a-4603-b6fa-4d8a60cc4ff3"},"vehicle_type_id":"4","last_reported":1747193748,"current_range_meters":9200,"station_id":"ce4bho92rcd13ifvqh4g","pricing_plan_id":"cebpf4jnsgd1na2vs0mg"},{"bike_id":"0f4abef2-b0df-4803-98c6-01c55c5d115b","system_id":"levelo_inurba_marseille","lat":43.28573,"lon":5.39499,"is_reserved":false,"is_disabled":false,"rental_uris":{"android":"levelo://app?vid=0f4abef2-b0df-4803-98c6-01c55c5d115b","ios":"levelo://app?vid=0f4abef2-b0df-4803-98c6-01c55c5d115b"},"vehicle_type_id":"4","last_reported":1747193748,"current_range_meters":9200,"station_id":"ce4bh292rcd13ifvqdg0","pricing_plan_id":"cebpf4jnsgd1na2vs0mg"},{"bike_id":"127f6762-1f70-43ae-8938-79f5184b1ee2","system_id":"levelo_inurba_marseille","lat":43.240679,"lon":5.377579,"is_reserved":false,"is_disabled":false,"rental_uris":{"android":"levelo://app?vid=127f6762-1f70-43ae-8938-79f5184b1ee2","ios":"levelo://app?vid=127f6762-1f70-43ae-8938-79f5184b1ee2"},"vehicle_type_id":"4","last_reported":1747193748,"current_range_meters":9200,"station_id":"ce4bhnp2rcd13ifvqgvg","pricing_plan_id":"cebpf4jnsgd1na2vs0mg"},{"bike_id":"ba458a5d-d478-4103-836d-59da615565d8","system_id":"levelo_inurba_marseille","lat":43.26991,"lon":5.42353,"is_reserved":false,"is_disabled":false,"rental_uris":{"android":"levelo://app?vid=ba458a5d-d478-4103-836d-59da615565d8","ios":"levelo://app?vid=ba458a5d-d478-4103-836d-59da615565d8"},"vehicle_type_id":"4","last_reported":1747193748,"current_range_meters":9600,"station_id":"","pricing_plan_id":"cebpf4jnsgd1na2vs0mg"},{"bike_id":"bae0709b-c933-441a-ab47-3aad58f66d78","system_id":"levelo_inurba_marseille","lat":43.21762,"lon":5.34612,"is_reserved":false,"is_disabled":false,"rental_uris":{"android":"levelo://app?vid=bae0709b-c933-441a-ab47-3aad58f66d78","ios":"levelo://app?vid=bae0709b-c933-441a-ab47-3aad58f66d78"},"vehicle_type_id":"4","last_reported":1747193748,"current_range_meters":9600,"station_id":"st_cvj6r9ubvosntc0bgbag","pricing_plan_id":"cebpf4jnsgd1na2vs0mg"},{"bike_id":"35e54327-9a6c-4eab-83d7-f4b66990d100","system_id":"levelo_inurba_marseille","lat":43.28995,"lon":5.35608,"is_reserved":false,"is_disabled":true,"rental_uris":{"android":"levelo://app?vid=35e54327-9a6c-4eab-83d7-f4b66990d100","ios":"levelo://app?vid=35e54327-9a6c-4eab-83d7-f4b66990d100"},"vehicle_type_id":"4","last_reported":1747193748,"current_range_meters":9600,"station_id":"ce4bhb92rcd13ifvqen0","pricing_plan_id":"cebpf4jnsgd1na2vs0mg"},{"bike_id":"0505a949-06c3-482d-9bba-8aec985a08c5","system_id":"levelo_inurba_marseille","lat":43.308854,"lon":5.37202,"is_reserved":false,"is_disabled":true,"rental_uris":{"android":"levelo://app?vid=0505a949-06c3-482d-9bba-8aec985a08c5","ios":"levelo://app?vid=0505a949-06c3-482d-9bba-8aec985a08c5"},"vehicle_type_id":"4","last_reported":1747193748,"current_range_meters":9600,"station_id":"ce4bguh2rcd13ifvqckg","pricing_plan_id":"cebpf4jnsgd1na2vs0mg"},{"bike_id":"828f3d72-4b62-4490-a898-df9e30d9cf9b","system_id":"levelo_inurba_marseille","lat":43.307626,"lon":5.413371,"is_reserved":false,"is_disabled":false,"rental_uris":{"android":"levelo://app?vid=828f3d72-4b62-4490-a898-df9e30d9cf9b","ios":"levelo://app?vid=828f3d72-4b62-4490-a898-df9e30d9cf9b"},"vehicle_type_id":"4","last_reported":1747193748,"current_range_meters":10000,"station_id":"","pricing_plan_id":"cebpf4jnsgd1na2vs0mg"},{"bike_id":"38e9e65c-4b87-4784-9bde-542e3f5b04b3","system_id":"levelo_inurba_marseille","lat":43.3238,"lon":5.38883,"is_reserved":false,"is_disabled":false,"rental_uris":{"android":"levelo://app?vid=38e9e65c-4b87-4784-9bde-542e3f5b04b3","ios":"levelo://app?vid=38e9e65c-4b87-4784-9bde-542e3f5b04b3"},"vehicle_type_id":"4","last_reported":1747193748,"current_range_meters":10000,"station_id":"ce4bhqp2rcd13ifvqhog","pricing_plan_id":"cebpf4jnsgd1na2vs0mg"},{"bike_id":"9c7224b1-1bf5-4174-843d-f9bc5d28275e","system_id":"levelo_inurba_marseille","lat":43.28714,"lon":5.399864,"is_reserved":false,"is_disabled":false,"rental_uris":{"android":"levelo://app?vid=9c7224b1-1bf5-4174-843d-f9bc5d28275e","ios":"levelo://app?vid=9c7224b1-1bf5-4174-843d-f9bc5d28275e"},"vehicle_type_id":"4","last_reported":1747193748,"current_range_meters":10000,"station_id":"ce4bho92rcd13ifvqh3g","pricing_plan_id":"cebpf4jnsgd1na2vs0mg"},{"bike_id":"80bee8ac-b124-4980-a798-213773e52355","system_id":"levelo_inurba_marseille","lat":43.30314,"lon":5.40437,"is_reserved":false,"is_disabled":false,"rental_uris":{"android":"levelo://app?vid=80bee8ac-b124-4980-a798-213773e52355","ios":"levelo://app?vid=80bee8ac-b124-4980-a798-213773e52355"},"vehicle_type_id":"4","last_reported":1747193748,"current_range_meters":10000,"station_id":"ce4bh012rcd13ifvqd10","pricing_plan_id":"cebpf4jnsgd1na2vs0mg"},{"bike_id":"fa247c8a-d839-4800-910d-7cc95e9b745b","system_id":"levelo_inurba_marseille","lat":43.30603,"lon":5.37223,"is_reserved":false,"is_disabled":false,"rental_uris":{"android":"levelo://app?vid=fa247c8a-d839-4800-910d-7cc95e9b745b","ios":"levelo://app?vid=fa247c8a-d839-4800-910d-7cc95e9b745b"},"vehicle_type_id":"4","last_reported":1747193748,"current_range_meters":10800,"station_id":"ce4bgqh2rcd13ifvqc4g","pricing_plan_id":"cebpf4jnsgd1na2vs0mg"},{"bike_id":"29ca8818-f2ee-47ec-a332-2860bcc2fb2a","system_id":"levelo_inurba_marseille","lat":43.23198,"lon":5.35549,"is_reserved":false,"is_disabled":false,"rental_uris":{"android":"levelo://app?vid=29ca8818-f2ee-47ec-a332-2860bcc2fb2a","ios":"levelo://app?vid=29ca8818-f2ee-47ec-a332-2860bcc2fb2a"},"vehicle_type_id":"4","last_reported":1747193748,"current_range_meters":10800,"station_id":"ce4bhu92rcd13ifvqi70","pricing_plan_id":"cebpf4jnsgd1na2vs0mg"},{"bike_id":"d559a899-b1bd-4a71-a12e-4458bcd0cdbf","system_id":"levelo_inurba_marseille","lat":43.230553,"lon":5.35489,"is_reserved":false,"is_disabled":false,"rental_uris":{"android":"levelo://app?vid=d559a899-b1bd-4a71-a12e-4458bcd0cdbf","ios":"levelo://app?vid=d559a899-b1bd-4a71-a12e-4458bcd0cdbf"},"vehicle_type_id":"4","last_reported":1747193748,"current_range_meters":10800,"station_id":"cpo3342slgdg3j2ifvpg","pricing_plan_id":"cebpf4jnsgd1na2vs0mg"},{"bike_id":"ff497a71-e333-4974-b3e4-ae998313ad63","system_id":"levelo_inurba_marseille","lat":43.3013,"lon":5.398496,"is_reserved":false,"is_disabled":false,"rental_uris":{"android":"levelo://app?vid=ff497a71-e333-4974-b3e4-ae998313ad63","ios":"levelo://app?vid=ff497a71-e333-4974-b3e4-ae998313ad63"},"vehicle_type_id":"4","last_reported":1747193748,"current_range_meters":10800,"station_id":"ce4bh0h2rcd13ifvqd40","pricing_plan_id":"cebpf4jnsgd1na2vs0mg"},{"bike_id":"11e495cb-e2b0-4615-bc23-02982335ed54","system_id":"levelo_inurba_marseille","lat":43.2507,"lon":5.39527,"is_reserved":false,"is_disabled":false,"rental_uris":{"android":"levelo://app?vid=11e495cb-e2b0-4615-bc23-02982335ed54","ios":"levelo://app?vid=11e495cb-e2b0-4615-bc23-02982335ed54"},"vehicle_type_id":"4","last_reported":1747193748,"current_range_meters":10800,"station_id":"ce4bhm12rcd13ifvqgkg","pricing_plan_id":"cebpf4jnsgd1na2vs0mg"},{"bike_id":"83119d09-9efb-429c-b5b9-f2163d6f4389","system_id":"levelo_inurba_marseille","lat":43.31074,"lon":5.38361,"is_reserved":false,"is_disabled":false,"rental_uris":{"android":"levelo://app?vid=83119d09-9efb-429c-b5b9-f2163d6f4389","ios":"levelo://app?vid=83119d09-9efb-429c-b5b9-f2163d6f4389"},"vehicle_type_id":"4","last_reported":1747193748,"current_range_meters":10800,"station_id":"ce4bgv92rcd13ifvqcr0","pricing_plan_id":"cebpf4jnsgd1na2vs0mg"},{"bike_id":"a681fd8a-af7e-409a-938a-dc3de79aa287","system_id":"levelo_inurba_marseille","lat":43.31264,"lon":5.40172,"is_reserved":false,"is_disabled":false,"rental_uris":{"android":"levelo://app?vid=a681fd8a-af7e-409a-938a-dc3de79aa287","ios":"levelo://app?vid=a681fd8a-af7e-409a-938a-dc3de79aa287"},"vehicle_type_id":"4","last_reported":1747193748,"current_range_meters":11200,"station_id":"ce4bh092rcd13ifvqd30","pricing_plan_id":"cebpf4jnsgd1na2vs0mg"},{"bike_id":"932e2eea-2ef5-46ab-b128-64df19c5d658","system_id":"levelo_inurba_marseille","lat":43.30499,"lon":5.3928,"is_reserved":false,"is_disabled":false,"rental_uris":{"android":"levelo://app?vid=932e2eea-2ef5-46ab-b128-64df19c5d658","ios":"levelo://app?vid=932e2eea-2ef5-46ab-b128-64df19c5d658"},"vehicle_type_id":"4","last_reported":1747193748,"current_range_meters":11200,"station_id":"","pricing_plan_id":"cebpf4jnsgd1na2vs0mg"},{"bike_id":"2095f8bc-1727-4f15-b184-732581ddd9e6","system_id":"levelo_inurba_marseille","lat":43.299272,"lon":5.375554,"is_reserved":false,"is_disabled":false,"rental_uris":{"android":"levelo://app?vid=2095f8bc-1727-4f15-b184-732581ddd9e6","ios":"levelo://app?vid=2095f8bc-1727-4f15-b184-732581ddd9e6"},"vehicle_type_id":"4","last_reported":1747193748,"current_range_meters":11200,"station_id":"","pricing_plan_id":"cebpf4jnsgd1na2vs0mg"},{"bike_id":"f6f851f2-f97b-46bd-8825-a1535387dd49","system_id":"levelo_inurba_marseille","lat":43.28412,"lon":5.37521,"is_reserved":false,"is_disabled":false,"rental_uris":{"android":"levelo://app?vid=f6f851f2-f97b-46bd-8825-a1535387dd49","ios":"levelo://app?vid=f6f851f2-f97b-46bd-8825-a1535387dd49"},"vehicle_type_id":"4","last_reported":1747193748,"current_range_meters":11200,"station_id":"ce4bh412rcd13ifvqds0","pricing_plan_id":"cebpf4jnsgd1na2vs0mg"},{"bike_id":"bdfb75ca-fefb-4fb9-becc-bd378613ab46","system_id":"levelo_inurba_marseille","lat":43.29458,"lon":5.39763,"is_reserved":false,"is_disabled":false,"rental_uris":{"android":"levelo://app?vid=bdfb75ca-fefb-4fb9-becc-bd378613ab46","ios":"levelo://app?vid=bdfb75ca-fefb-4fb9-becc-bd378613ab46"},"vehicle_type_id":"4","last_reported":1747193748,"current_range_meters":11200,"station_id":"ce4bh3h2rcd13ifvqdo0","pricing_plan_id":"cebpf4jnsgd1na2vs0mg"},{"bike_id":"3097c71f-29aa-4cf9-98d9-b76dabee7dc9","system_id":"levelo_inurba_marseille","lat":43.280958,"lon":5.378384,"is_reserved":false,"is_disabled":false,"rental_uris":{"android":"levelo://app?vid=3097c71f-29aa-4cf9-98d9-b76dabee7dc9","ios":"levelo://app?vid=3097c71f-29aa-4cf9-98d9-b76dabee7dc9"},"vehicle_type_id":"4","last_reported":1747193748,"current_range_meters":11600,"station_id":"ce4bha12rcd13ifvqee0","pricing_plan_id":"cebpf4jnsgd1na2vs0mg"},{"bike_id":"da5ac1fa-2e65-4f9c-a773-5ab48cea463c","system_id":"levelo_inurba_marseille","lat":43.240752,"lon":5.37751,"is_reserved":false,"is_disabled":false,"rental_uris":{"android":"levelo://app?vid=da5ac1fa-2e65-4f9c-a773-5ab48cea463c","ios":"levelo://app?vid=da5ac1fa-2e65-4f9c-a773-5ab48cea463c"},"vehicle_type_id":"4","last_reported":1747193748,"current_range_meters":11600,"station_id":"ce4bhnp2rcd13ifvqgvg","pricing_plan_id":"cebpf4jnsgd1na2vs0mg"},{"bike_id":"f992a421-1974-43d2-890b-13f18604b31c","system_id":"levelo_inurba_marseille","lat":43.246422,"lon":5.389085,"is_reserved":false,"is_disabled":false,"rental_uris":{"android":"levelo://app?vid=f992a421-1974-43d2-890b-13f18604b31c","ios":"levelo://app?vid=f992a421-1974-43d2-890b-13f18604b31c"},"vehicle_type_id":"4","last_reported":1747193748,"current_range_meters":11600,"station_id":"ce4bhg12rcd13ifvqf60","pricing_plan_id":"cebpf4jnsgd1na2vs0mg"},{"bike_id":"b0242bf4-b83b-4d62-aa3e-64266801fbe9","system_id":"levelo_inurba_marseille","lat":43.310835,"lon":5.424271,"is_reserved":false,"is_disabled":false,"rental_uris":{"android":"levelo://app?vid=b0242bf4-b83b-4d62-aa3e-64266801fbe9","ios":"levelo://app?vid=b0242bf4-b83b-4d62-aa3e-64266801fbe9"},"vehicle_type_id":"4","last_reported":1747193748,"current_range_meters":11600,"station_id":"ce4bhp92rcd13ifvqhag","pricing_plan_id":"cebpf4jnsgd1na2vs0mg"},{"bike_id":"4d1dec91-681c-43ec-bef1-6f9ae59b99c1","system_id":"levelo_inurba_marseille","lat":43.30811,"lon":5.38142,"is_reserved":false,"is_disabled":false,"rental_uris":{"android":"levelo://app?vid=4d1dec91-681c-43ec-bef1-6f9ae59b99c1","ios":"levelo://app?vid=4d1dec91-681c-43ec-bef1-6f9ae59b99c1"},"vehicle_type_id":"4","last_reported":1747193748,"current_range_meters":11600,"station_id":"ce4bgt12rcd13ifvqce0","pricing_plan_id":"cebpf4jnsgd1na2vs0mg"},{"bike_id":"4821750a-72fd-4a71-957e-987850a371e2","system_id":"levelo_inurba_marseille","lat":43.301308,"lon":5.476362,"is_reserved":false,"is_disabled":false,"rental_uris":{"android":"levelo://app?vid=4821750a-72fd-4a71-957e-987850a371e2","ios":"levelo://app?vid=4821750a-72fd-4a71-957e-987850a371e2"},"vehicle_type_id":"4","last_reported":1747193748,"current_range_meters":12000,"station_id":"","pricing_plan_id":"cebpf4jnsgd1na2vs0mg"},{"bike_id":"7cba10fe-3c05-4600-9e99-b670b46508ce","system_id":"levelo_inurba_marseille","lat":43.30523,"lon":5.38449,"is_reserved":false,"is_disabled":false,"rental_uris":{"android":"levelo://app?vid=7cba10fe-3c05-4600-9e99-b670b46508ce","ios":"levelo://app?vid=7cba10fe-3c05-4600-9e99-b670b46508ce"},"vehicle_type_id":"4","last_reported":1747193748,"current_range_meters":12000,"station_id":"ce4bgg92rcd13ifvqb30","pricing_plan_id":"cebpf4jnsgd1na2vs0mg"},{"bike_id":"63582912-f314-437d-bdb9-8991ea5c92a6","system_id":"levelo_inurba_marseille","lat":43.246481,"lon":5.38904,"is_reserved":false,"is_disabled":false,"rental_uris":{"android":"levelo://app?vid=63582912-f314-437d-bdb9-8991ea5c92a6","ios":"levelo://app?vid=63582912-f314-437d-bdb9-8991ea5c92a6"},"vehicle_type_id":"4","last_reported":1747193748,"current_range_meters":12000,"station_id":"ce4bhg12rcd13ifvqf60","pricing_plan_id":"cebpf4jnsgd1na2vs0mg"},{"bike_id":"e15dd958-cc90-41eb-8c8a-6663f7bccd99","system_id":"levelo_inurba_marseille","lat":43.311154,"lon":5.377634,"is_reserved":false,"is_disabled":false,"rental_uris":{"android":"levelo://app?vid=e15dd958-cc90-41eb-8c8a-6663f7bccd99","ios":"levelo://app?vid=e15dd958-cc90-41eb-8c8a-6663f7bccd99"},"vehicle_type_id":"4","last_reported":1747193748,"current_range_meters":12000,"station_id":"ce4bgt92rcd13ifvqcg0","pricing_plan_id":"cebpf4jnsgd1na2vs0mg"},{"bike_id":"7d8a940b-fa41-48ed-bc64-d4da3160240b","system_id":"levelo_inurba_marseille","lat":43.308254,"lon":5.379178,"is_reserved":false,"is_disabled":false,"rental_uris":{"android":"levelo://app?vid=7d8a940b-fa41-48ed-bc64-d4da3160240b","ios":"levelo://app?vid=7d8a940b-fa41-48ed-bc64-d4da3160240b"},"vehicle_type_id":"4","last_reported":1747193748,"current_range_meters":12000,"station_id":"","pricing_plan_id":"cebpf4jnsgd1na2vs0mg"},{"bike_id":"3e9889e7-cbb1-4e8a-8cbd-cde0b4fae7e2","system_id":"levelo_inurba_marseille","lat":43.27954,"lon":5.41033,"is_reserved":false,"is_disabled":false,"rental_uris":{"android":"levelo://app?vid=3e9889e7-cbb1-4e8a-8cbd-cde0b4fae7e2","ios":"levelo://app?vid=3e9889e7-cbb1-4e8a-8cbd-cde0b4fae7e2"},"vehicle_type_id":"4","last_reported":1747193748,"current_range_meters":12000,"station_id":"ce4bhnp2rcd13ifvqh0g","pricing_plan_id":"cebpf4jnsgd1na2vs0mg"},{"bike_id":"305747f4-7223-472c-b524-a278ac4e8ef1","system_id":"levelo_inurba_marseille","lat":43.295662,"lon":5.37517,"is_reserved":false,"is_disabled":true,"rental_uris":{"android":"levelo://app?vid=305747f4-7223-472c-b524-a278ac4e8ef1","ios":"levelo://app?vid=305747f4-7223-472c-b524-a278ac4e8ef1"},"vehicle_type_id":"4","last_reported":1747193748,"current_range_meters":12000,"station_id":"ce4bgh92rcd13ifvqb50","pricing_plan_id":"cebpf4jnsgd1na2vs0mg"},{"bike_id":"ee95d7b1-23aa-4ba2-8604-c3c7e16b2172","system_id":"levelo_inurba_marseille","lat":43.289078,"lon":5.366534,"is_reserved":false,"is_disabled":false,"rental_uris":{"android":"levelo://app?vid=ee95d7b1-23aa-4ba2-8604-c3c7e16b2172","ios":"levelo://app?vid=ee95d7b1-23aa-4ba2-8604-c3c7e16b2172"},"vehicle_type_id":"4","last_reported":1747193748,"current_range_meters":12400,"station_id":"ce4bhap2rcd13ifvqek0","pricing_plan_id":"cebpf4jnsgd1na2vs0mg"},{"bike_id":"47b426d0-f6dd-4e48-87c1-a053a74ef8e3","system_id":"levelo_inurba_marseille","lat":43.302431,"lon":5.400527,"is_reserved":false,"is_disabled":false,"rental_uris":{"android":"levelo://app?vid=47b426d0-f6dd-4e48-87c1-a053a74ef8e3","ios":"levelo://app?vid=47b426d0-f6dd-4e48-87c1-a053a74ef8e3"},"vehicle_type_id":"4","last_reported":1747193748,"current_range_meters":12400,"station_id":"ce4bgvh2rcd13ifvqcs0","pricing_plan_id":"cebpf4jnsgd1na2vs0mg"},{"bike_id":"ddede2fb-2f81-465d-98bb-e95d89460d99","system_id":"levelo_inurba_marseille","lat":43.287213,"lon":5.399876,"is_reserved":false,"is_disabled":false,"rental_uris":{"android":"levelo://app?vid=ddede2fb-2f81-465d-98bb-e95d89460d99","ios":"levelo://app?vid=ddede2fb-2f81-465d-98bb-e95d89460d99"},"vehicle_type_id":"4","last_reported":1747193748,"current_range_meters":12800,"station_id":"ce4bho92rcd13ifvqh3g","pricing_plan_id":"cebpf4jnsgd1na2vs0mg"},{"bike_id":"5c8b9c5b-5c2a-483e-865d-ae36047d40b5","system_id":"levelo_inurba_marseille","lat":43.300043,"lon":5.476358,"is_reserved":false,"is_disabled":false,"rental_uris":{"android":"levelo://app?vid=5c8b9c5b-5c2a-483e-865d-ae36047d40b5","ios":"levelo://app?vid=5c8b9c5b-5c2a-483e-865d-ae36047d40b5"},"vehicle_type_id":"4","last_reported":1747193748,"current_range_meters":12800,"station_id":"","pricing_plan_id":"cebpf4jnsgd1na2vs0mg"},{"bike_id":"3c019cfc-cf98-4ed3-817c-ad25fb02ed9c","system_id":"levelo_inurba_marseille","lat":43.284761,"lon":5.384363,"is_reserved":false,"is_disabled":true,"rental_uris":{"android":"levelo://app?vid=3c019cfc-cf98-4ed3-817c-ad25fb02ed9c","ios":"levelo://app?vid=3c019cfc-cf98-4ed3-817c-ad25fb02ed9c"},"vehicle_type_id":"4","last_reported":1747193748,"current_range_meters":12800,"station_id":"ce4bh512rcd13ifvqe3g","pricing_plan_id":"cebpf4jnsgd1na2vs0mg"},{"bike_id":"301a3a6f-3f8e-4707-9290-d6655e615c25","system_id":"levelo_inurba_marseille","lat":43.317246,"lon":5.424054,"is_reserved":false,"is_disabled":false,"rental_uris":{"android":"levelo://app?vid=301a3a6f-3f8e-4707-9290-d6655e615c25","ios":"levelo://app?vid=301a3a6f-3f8e-4707-9290-d6655e615c25"},"vehicle_type_id":"4","last_reported":1747193748,"current_range_meters":12800,"station_id":"ce4bhp92rcd13ifvqhbg","pricing_plan_id":"cebpf4jnsgd1na2vs0mg"},{"bike_id":"382da604-28cd-407b-adb2-1bed2bb48c46","system_id":"levelo_inurba_marseille","lat":43.31912,"lon":5.36748,"is_reserved":false,"is_disabled":false,"rental_uris":{"android":"levelo://app?vid=382da604-28cd-407b-adb2-1bed2bb48c46","ios":"levelo://app?vid=382da604-28cd-407b-adb2-1bed2bb48c46"},"vehicle_type_id":"4","last_reported":1747193748,"current_range_meters":12800,"station_id":"","pricing_plan_id":"cebpf4jnsgd1na2vs0mg"},{"bike_id":"92a623d9-2bde-4d60-81e2-fdf54bb18ca6","system_id":"levelo_inurba_marseille","lat":43.229334,"lon":5.353784,"is_reserved":false,"is_disabled":false,"rental_uris":{"android":"levelo://app?vid=92a623d9-2bde-4d60-81e2-fdf54bb18ca6","ios":"levelo://app?vid=92a623d9-2bde-4d60-81e2-fdf54bb18ca6"},"vehicle_type_id":"4","last_reported":1747193748,"current_range_meters":12800,"station_id":"cpo3532slgdg3j2ikp40","pricing_plan_id":"cebpf4jnsgd1na2vs0mg"},{"bike_id":"8864a029-a941-4ce6-b475-5550eed18723","system_id":"levelo_inurba_marseille","lat":43.299285,"lon":5.365507,"is_reserved":false,"is_disabled":false,"rental_uris":{"android":"levelo://app?vid=8864a029-a941-4ce6-b475-5550eed18723","ios":"levelo://app?vid=8864a029-a941-4ce6-b475-5550eed18723"},"vehicle_type_id":"4","last_reported":1747193748,"current_range_meters":12800,"station_id":"ce4bgm92rcd13ifvqbr0","pricing_plan_id":"cebpf4jnsgd1na2vs0mg"},{"bike_id":"6507c08a-14ca-4394-a7ca-a83fa84e36c6","system_id":"levelo_inurba_marseille","lat":43.26933,"lon":5.40256,"is_reserved":false,"is_disabled":false,"rental_uris":{"android":"levelo://app?vid=6507c08a-14ca-4394-a7ca-a83fa84e36c6","ios":"levelo://app?vid=6507c08a-14ca-4394-a7ca-a83fa84e36c6"},"vehicle_type_id":"4","last_reported":1747193748,"current_range_meters":13600,"station_id":"cjm6bp8fraef2m0cb0m0","pricing_plan_id":"cebpf4jnsgd1na2vs0mg"},{"bike_id":"7395c0f9-eb26-4cbc-9f9b-9c1edf7364f4","system_id":"levelo_inurba_marseille","lat":43.32969,"lon":5.40563,"is_reserved":false,"is_disabled":false,"rental_uris":{"android":"levelo://app?vid=7395c0f9-eb26-4cbc-9f9b-9c1edf7364f4","ios":"levelo://app?vid=7395c0f9-eb26-4cbc-9f9b-9c1edf7364f4"},"vehicle_type_id":"4","last_reported":1747193748,"current_range_meters":13600,"station_id":"","pricing_plan_id":"cebpf4jnsgd1na2vs0mg"},{"bike_id":"55a82d97-745b-41fd-8dda-f8ea9e4d2f06","system_id":"levelo_inurba_marseille","lat":43.335793,"lon":5.428279,"is_reserved":false,"is_disabled":false,"rental_uris":{"android":"levelo://app?vid=55a82d97-745b-41fd-8dda-f8ea9e4d2f06","ios":"levelo://app?vid=55a82d97-745b-41fd-8dda-f8ea9e4d2f06"},"vehicle_type_id":"4","last_reported":1747193748,"current_range_meters":13600,"station_id":"","pricing_plan_id":"cebpf4jnsgd1na2vs0mg"},{"bike_id":"6b7c26be-9a4f-428c-8f3a-237ecf9240f7","system_id":"levelo_inurba_marseille","lat":43.316267,"lon":5.396331,"is_reserved":false,"is_disabled":false,"rental_uris":{"android":"levelo://app?vid=6b7c26be-9a4f-428c-8f3a-237ecf9240f7","ios":"levelo://app?vid=6b7c26be-9a4f-428c-8f3a-237ecf9240f7"},"vehicle_type_id":"4","last_reported":1747193748,"current_range_meters":13600,"station_id":"","pricing_plan_id":"cebpf4jnsgd1na2vs0mg"},{"bike_id":"5b83d4c8-c0b4-47f3-b1d8-051959d6423b","system_id":"levelo_inurba_marseille","lat":43.26187,"lon":5.40448,"is_reserved":false,"is_disabled":false,"rental_uris":{"android":"levelo://app?vid=5b83d4c8-c0b4-47f3-b1d8-051959d6423b","ios":"levelo://app?vid=5b83d4c8-c0b4-47f3-b1d8-051959d6423b"},"vehicle_type_id":"4","last_reported":1747193748,"current_range_meters":13600,"station_id":"ce4bhmh2rcd13ifvqgmg","pricing_plan_id":"cebpf4jnsgd1na2vs0mg"},{"bike_id":"a0c836bd-3175-4f52-b689-ec99736589ef","system_id":"levelo_inurba_marseille","lat":43.24547,"lon":5.39531,"is_reserved":false,"is_disabled":false,"rental_uris":{"android":"levelo://app?vid=a0c836bd-3175-4f52-b689-ec99736589ef","ios":"levelo://app?vid=a0c836bd-3175-4f52-b689-ec99736589ef"},"vehicle_type_id":"4","last_reported":1747193748,"current_range_meters":13600,"station_id":"ce4bhlp2rcd13ifvqgjg","pricing_plan_id":"cebpf4jnsgd1na2vs0mg"},{"bike_id":"f57e6f12-c038-4a7e-8f40-23ed2bed5616","system_id":"levelo_inurba_marseille","lat":43.30026,"lon":5.47571,"is_reserved":false,"is_disabled":false,"rental_uris":{"android":"levelo://app?vid=f57e6f12-c038-4a7e-8f40-23ed2bed5616","ios":"levelo://app?vid=f57e6f12-c038-4a7e-8f40-23ed2bed5616"},"vehicle_type_id":"4","last_reported":1747193748,"current_range_meters":13600,"station_id":"","pricing_plan_id":"cebpf4jnsgd1na2vs0mg"},{"bike_id":"42cfaabc-d4d4-405c-ab84-52ce3ce3032a","system_id":"levelo_inurba_marseille","lat":43.31713,"lon":5.43622,"is_reserved":false,"is_disabled":false,"rental_uris":{"android":"levelo://app?vid=42cfaabc-d4d4-405c-ab84-52ce3ce3032a","ios":"levelo://app?vid=42cfaabc-d4d4-405c-ab84-52ce3ce3032a"},"vehicle_type_id":"4","last_reported":1747193748,"current_range_meters":13600,"station_id":"","pricing_plan_id":"cebpf4jnsgd1na2vs0mg"},{"bike_id":"f91a9f20-e278-49f9-bff0-9af4e1bfdc72","system_id":"levelo_inurba_marseille","lat":43.286915,"lon":5.399898,"is_reserved":false,"is_disabled":false,"rental_uris":{"android":"levelo://app?vid=f91a9f20-e278-49f9-bff0-9af4e1bfdc72","ios":"levelo://app?vid=f91a9f20-e278-49f9-bff0-9af4e1bfdc72"},"vehicle_type_id":"4","last_reported":1747193748,"current_range_meters":14000,"station_id":"ce4bho92rcd13ifvqh3g","pricing_plan_id":"cebpf4jnsgd1na2vs0mg"},{"bike_id":"290413f8-4b92-42b0-99af-0cb4e023060f","system_id":"levelo_inurba_marseille","lat":43.312544,"lon":5.368501,"is_reserved":false,"is_disabled":true,"rental_uris":{"android":"levelo://app?vid=290413f8-4b92-42b0-99af-0cb4e023060f","ios":"levelo://app?vid=290413f8-4b92-42b0-99af-0cb4e023060f"},"vehicle_type_id":"4","last_reported":1747193748,"current_range_meters":14000,"station_id":"ce4bgl92rcd13ifvqbq0","pricing_plan_id":"cebpf4jnsgd1na2vs0mg"},{"bike_id":"4d067a69-b9a9-4647-83ac-611755a10a2d","system_id":"levelo_inurba_marseille","lat":43.26032,"lon":5.41747,"is_reserved":false,"is_disabled":false,"rental_uris":{"android":"levelo://app?vid=4d067a69-b9a9-4647-83ac-611755a10a2d","ios":"levelo://app?vid=4d067a69-b9a9-4647-83ac-611755a10a2d"},"vehicle_type_id":"4","last_reported":1747193748,"current_range_meters":14400,"station_id":"","pricing_plan_id":"cebpf4jnsgd1na2vs0mg"},{"bike_id":"9dce5f8a-8308-405a-84ed-0cff7b0e3802","system_id":"levelo_inurba_marseille","lat":43.287086,"lon":5.400007,"is_reserved":false,"is_disabled":false,"rental_uris":{"android":"levelo://app?vid=9dce5f8a-8308-405a-84ed-0cff7b0e3802","ios":"levelo://app?vid=9dce5f8a-8308-405a-84ed-0cff7b0e3802"},"vehicle_type_id":"4","last_reported":1747193748,"current_range_meters":14400,"station_id":"ce4bho92rcd13ifvqh3g","pricing_plan_id":"cebpf4jnsgd1na2vs0mg"},{"bike_id":"37166b1b-e63b-43e4-8df4-47faf64ec965","system_id":"levelo_inurba_marseille","lat":43.308049,"lon":5.381453,"is_reserved":false,"is_disabled":false,"rental_uris":{"android":"levelo://app?vid=37166b1b-e63b-43e4-8df4-47faf64ec965","ios":"levelo://app?vid=37166b1b-e63b-43e4-8df4-47faf64ec965"},"vehicle_type_id":"4","last_reported":1747193748,"current_range_meters":14400,"station_id":"ce4bgt12rcd13ifvqce0","pricing_plan_id":"cebpf4jnsgd1na2vs0mg"},{"bike_id":"ebbb3db5-66b4-4907-9a7b-ed749cb4c62b","system_id":"levelo_inurba_marseille","lat":43.317566,"lon":5.39028,"is_reserved":false,"is_disabled":false,"rental_uris":{"android":"levelo://app?vid=ebbb3db5-66b4-4907-9a7b-ed749cb4c62b","ios":"levelo://app?vid=ebbb3db5-66b4-4907-9a7b-ed749cb4c62b"},"vehicle_type_id":"4","last_reported":1747193748,"current_range_meters":14400,"station_id":"ce4bhqp2rcd13ifvqhng","pricing_plan_id":"cebpf4jnsgd1na2vs0mg"},{"bike_id":"0c893fb7-8626-4706-85bf-f404b871dea5","system_id":"levelo_inurba_marseille","lat":43.281183,"lon":5.445991,"is_reserved":false,"is_disabled":false,"rental_uris":{"android":"levelo://app?vid=0c893fb7-8626-4706-85bf-f404b871dea5","ios":"levelo://app?vid=0c893fb7-8626-4706-85bf-f404b871dea5"},"vehicle_type_id":"4","last_reported":1747193748,"current_range_meters":14800,"station_id":"","pricing_plan_id":"cebpf4jnsgd1na2vs0mg"},{"bike_id":"356eb65b-4211-494a-b4a2-fba28f60c55b","system_id":"levelo_inurba_marseille","lat":43.31283,"lon":5.40105,"is_reserved":false,"is_disabled":false,"rental_uris":{"android":"levelo://app?vid=356eb65b-4211-494a-b4a2-fba28f60c55b","ios":"levelo://app?vid=356eb65b-4211-494a-b4a2-fba28f60c55b"},"vehicle_type_id":"4","last_reported":1747193748,"current_range_meters":14800,"station_id":"","pricing_plan_id":"cebpf4jnsgd1na2vs0mg"},{"bike_id":"6c320e07-d645-40f2-af93-68425ed6e226","system_id":"levelo_inurba_marseille","lat":43.31087,"lon":5.38358,"is_reserved":false,"is_disabled":false,"rental_uris":{"android":"levelo://app?vid=6c320e07-d645-40f2-af93-68425ed6e226","ios":"levelo://app?vid=6c320e07-d645-40f2-af93-68425ed6e226"},"vehicle_type_id":"4","last_reported":1747193748,"current_range_meters":14800,"station_id":"ce4bgv92rcd13ifvqcr0","pricing_plan_id":"cebpf4jnsgd1na2vs0mg"},{"bike_id":"1e297e0e-a907-489c-9a22-1dfb89bfb64f","system_id":"levelo_inurba_marseille","lat":43.29299,"lon":5.36394,"is_reserved":false,"is_disabled":false,"rental_uris":{"android":"levelo://app?vid=1e297e0e-a907-489c-9a22-1dfb89bfb64f","ios":"levelo://app?vid=1e297e0e-a907-489c-9a22-1dfb89bfb64f"},"vehicle_type_id":"4","last_reported":1747193748,"current_range_meters":15200,"station_id":"","pricing_plan_id":"cebpf4jnsgd1na2vs0mg"},{"bike_id":"e0b72e53-6f43-40a6-a62f-fa80124a77b6","system_id":"levelo_inurba_marseille","lat":43.269449,"lon":5.386291,"is_reserved":false,"is_disabled":true,"rental_uris":{"android":"levelo://app?vid=e0b72e53-6f43-40a6-a62f-fa80124a77b6","ios":"levelo://app?vid=e0b72e53-6f43-40a6-a62f-fa80124a77b6"},"vehicle_type_id":"4","last_reported":1747193748,"current_range_meters":15200,"station_id":"ce4bhh92rcd13ifvqfh0","pricing_plan_id":"cebpf4jnsgd1na2vs0mg"},{"bike_id":"e1b7877d-b413-4fd3-b7e0-fbf47c737189","system_id":"levelo_inurba_marseille","lat":43.28439,"lon":5.39192,"is_reserved":false,"is_disabled":false,"rental_uris":{"android":"levelo://app?vid=e1b7877d-b413-4fd3-b7e0-fbf47c737189","ios":"levelo://app?vid=e1b7877d-b413-4fd3-b7e0-fbf47c737189"},"vehicle_type_id":"4","last_reported":1747193748,"current_range_meters":15200,"station_id":"ce4bhoh2rcd13ifvqh5g","pricing_plan_id":"cebpf4jnsgd1na2vs0mg"},{"bike_id":"6c2c2fbb-d63b-479a-8565-a08a4d80173e","system_id":"levelo_inurba_marseille","lat":43.292746,"lon":5.401514,"is_reserved":false,"is_disabled":false,"rental_uris":{"android":"levelo://app?vid=6c2c2fbb-d63b-479a-8565-a08a4d80173e","ios":"levelo://app?vid=6c2c2fbb-d63b-479a-8565-a08a4d80173e"},"vehicle_type_id":"4","last_reported":1747193748,"current_range_meters":16000,"station_id":"ce4bh312rcd13ifvqdk0","pricing_plan_id":"cebpf4jnsgd1na2vs0mg"},{"bike_id":"46763bb3-efa8-4792-b73a-0ee884b4c63a","system_id":"levelo_inurba_marseille","lat":43.304191,"lon":5.412864,"is_reserved":false,"is_disabled":false,"rental_uris":{"android":"levelo://app?vid=46763bb3-efa8-4792-b73a-0ee884b4c63a","ios":"levelo://app?vid=46763bb3-efa8-4792-b73a-0ee884b4c63a"},"vehicle_type_id":"4","last_reported":1747193748,"current_range_meters":16000,"station_id":"ce4bhop2rcd13ifvqh8g","pricing_plan_id":"cebpf4jnsgd1na2vs0mg"},{"bike_id":"977d0951-40d5-4b1e-8806-1af2c81bb348","system_id":"levelo_inurba_marseille","lat":43.229237,"lon":5.353857,"is_reserved":false,"is_disabled":false,"rental_uris":{"android":"levelo://app?vid=977d0951-40d5-4b1e-8806-1af2c81bb348","ios":"levelo://app?vid=977d0951-40d5-4b1e-8806-1af2c81bb348"},"vehicle_type_id":"4","last_reported":1747193748,"current_range_meters":16400,"station_id":"cpo3532slgdg3j2ikp40","pricing_plan_id":"cebpf4jnsgd1na2vs0mg"},{"bike_id":"bd2b5a4c-e937-4cff-a5f6-59cf103d5392","system_id":"levelo_inurba_marseille","lat":43.30213,"lon":5.40056,"is_reserved":false,"is_disabled":false,"rental_uris":{"android":"levelo://app?vid=bd2b5a4c-e937-4cff-a5f6-59cf103d5392","ios":"levelo://app?vid=bd2b5a4c-e937-4cff-a5f6-59cf103d5392"},"vehicle_type_id":"4","last_reported":1747193748,"current_range_meters":16400,"station_id":"","pricing_plan_id":"cebpf4jnsgd1na2vs0mg"},{"bike_id":"ffe53d02-a538-4c1a-9a5c-588c2097d334","system_id":"levelo_inurba_marseille","lat":43.22919,"lon":5.35397,"is_reserved":false,"is_disabled":false,"rental_uris":{"android":"levelo://app?vid=ffe53d02-a538-4c1a-9a5c-588c2097d334","ios":"levelo://app?vid=ffe53d02-a538-4c1a-9a5c-588c2097d334"},"vehicle_type_id":"4","last_reported":1747193748,"current_range_meters":16400,"station_id":"cpo3532slgdg3j2ikp40","pricing_plan_id":"cebpf4jnsgd1na2vs0mg"},{"bike_id":"8d563e64-e76f-43b4-934f-0ef8b1e94d35","system_id":"levelo_inurba_marseille","lat":43.31877,"lon":5.373791,"is_reserved":false,"is_disabled":false,"rental_uris":{"android":"levelo://app?vid=8d563e64-e76f-43b4-934f-0ef8b1e94d35","ios":"levelo://app?vid=8d563e64-e76f-43b4-934f-0ef8b1e94d35"},"vehicle_type_id":"4","last_reported":1747193748,"current_range_meters":16400,"station_id":"","pricing_plan_id":"cebpf4jnsgd1na2vs0mg"},{"bike_id":"0ee57cd3-b290-46af-a35a-6f306772e452","system_id":"levelo_inurba_marseille","lat":43.30662,"lon":5.40273,"is_reserved":false,"is_disabled":false,"rental_uris":{"android":"levelo://app?vid=0ee57cd3-b290-46af-a35a-6f306772e452","ios":"levelo://app?vid=0ee57cd3-b290-46af-a35a-6f306772e452"},"vehicle_type_id":"4","last_reported":1747193748,"current_range_meters":16400,"station_id":"","pricing_plan_id":"cebpf4jnsgd1na2vs0mg"},{"bike_id":"6ab8ce51-7577-4ccb-ac2f-bc6cb35c2974","system_id":"levelo_inurba_marseille","lat":43.211936,"lon":5.35078,"is_reserved":false,"is_disabled":false,"rental_uris":{"android":"levelo://app?vid=6ab8ce51-7577-4ccb-ac2f-bc6cb35c2974","ios":"levelo://app?vid=6ab8ce51-7577-4ccb-ac2f-bc6cb35c2974"},"vehicle_type_id":"4","last_reported":1747193748,"current_range_meters":16400,"station_id":"st_cvj6sg6p6f1abm77japg","pricing_plan_id":"cebpf4jnsgd1na2vs0mg"},{"bike_id":"deac4db0-9b8e-4a2f-baf8-2108ac02cff5","system_id":"levelo_inurba_marseille","lat":43.22506,"lon":5.34777,"is_reserved":false,"is_disabled":false,"rental_uris":{"android":"levelo://app?vid=deac4db0-9b8e-4a2f-baf8-2108ac02cff5","ios":"levelo://app?vid=deac4db0-9b8e-4a2f-baf8-2108ac02cff5"},"vehicle_type_id":"4","last_reported":1747193748,"current_range_meters":16800,"station_id":"st_cvj5dfep6f1abm77gieg","pricing_plan_id":"cebpf4jnsgd1na2vs0mg"},{"bike_id":"5d370f72-1749-4f0b-9815-d32525a7fd58","system_id":"levelo_inurba_marseille","lat":43.323344,"lon":5.406238,"is_reserved":false,"is_disabled":false,"rental_uris":{"android":"levelo://app?vid=5d370f72-1749-4f0b-9815-d32525a7fd58","ios":"levelo://app?vid=5d370f72-1749-4f0b-9815-d32525a7fd58"},"vehicle_type_id":"4","last_reported":1747193748,"current_range_meters":16800,"station_id":"ce4bhq92rcd13ifvqhjg","pricing_plan_id":"cebpf4jnsgd1na2vs0mg"},{"bike_id":"140a4313-931b-4531-86c2-56a878302554","system_id":"levelo_inurba_marseille","lat":43.30942,"lon":5.40142,"is_reserved":false,"is_disabled":false,"rental_uris":{"android":"levelo://app?vid=140a4313-931b-4531-86c2-56a878302554","ios":"levelo://app?vid=140a4313-931b-4531-86c2-56a878302554"},"vehicle_type_id":"4","last_reported":1747193748,"current_range_meters":16800,"station_id":"ce4bgvp2rcd13ifvqct0","pricing_plan_id":"cebpf4jnsgd1na2vs0mg"},{"bike_id":"f82feab9-232b-41ba-b7d0-66c9931f5d8b","system_id":"levelo_inurba_marseille","lat":43.287031,"lon":5.39998,"is_reserved":false,"is_disabled":false,"rental_uris":{"android":"levelo://app?vid=f82feab9-232b-41ba-b7d0-66c9931f5d8b","ios":"levelo://app?vid=f82feab9-232b-41ba-b7d0-66c9931f5d8b"},"vehicle_type_id":"4","last_reported":1747193748,"current_range_meters":16800,"station_id":"ce4bho92rcd13ifvqh3g","pricing_plan_id":"cebpf4jnsgd1na2vs0mg"},{"bike_id":"c5a6038e-e242-4c42-a6da-186787771b16","system_id":"levelo_inurba_marseille","lat":43.217634,"lon":5.346179,"is_reserved":false,"is_disabled":false,"rental_uris":{"android":"levelo://app?vid=c5a6038e-e242-4c42-a6da-186787771b16","ios":"levelo://app?vid=c5a6038e-e242-4c42-a6da-186787771b16"},"vehicle_type_id":"4","last_reported":1747193748,"current_range_meters":17200,"station_id":"st_cvj6r9ubvosntc0bgbag","pricing_plan_id":"cebpf4jnsgd1na2vs0mg"},{"bike_id":"c1221f98-1a10-4585-801b-8900ec2f00eb","system_id":"levelo_inurba_marseille","lat":43.297079,"lon":5.365976,"is_reserved":false,"is_disabled":false,"rental_uris":{"android":"levelo://app?vid=c1221f98-1a10-4585-801b-8900ec2f00eb","ios":"levelo://app?vid=c1221f98-1a10-4585-801b-8900ec2f00eb"},"vehicle_type_id":"4","last_reported":1747193748,"current_range_meters":17200,"station_id":"ce4bgn12rcd13ifvqbt0","pricing_plan_id":"cebpf4jnsgd1na2vs0mg"},{"bike_id":"b4777d59-fc56-46ae-8a48-c6f6a5536c77","system_id":"levelo_inurba_marseille","lat":43.303195,"lon":5.404394,"is_reserved":false,"is_disabled":false,"rental_uris":{"android":"levelo://app?vid=b4777d59-fc56-46ae-8a48-c6f6a5536c77","ios":"levelo://app?vid=b4777d59-fc56-46ae-8a48-c6f6a5536c77"},"vehicle_type_id":"4","last_reported":1747193748,"current_range_meters":17200,"station_id":"ce4bh012rcd13ifvqd10","pricing_plan_id":"cebpf4jnsgd1na2vs0mg"},{"bike_id":"10f98a35-89c5-4475-9c01-49b1c98311db","system_id":"levelo_inurba_marseille","lat":43.27577,"lon":5.38451,"is_reserved":false,"is_disabled":false,"rental_uris":{"android":"levelo://app?vid=10f98a35-89c5-4475-9c01-49b1c98311db","ios":"levelo://app?vid=10f98a35-89c5-4475-9c01-49b1c98311db"},"vehicle_type_id":"4","last_reported":1747193748,"current_range_meters":17200,"station_id":"ce4bhh92rcd13ifvqfi0","pricing_plan_id":"cebpf4jnsgd1na2vs0mg"},{"bike_id":"3b8bd03d-b03b-41de-9406-6372dd33a0ed","system_id":"levelo_inurba_marseille","lat":43.28683,"lon":5.40011,"is_reserved":false,"is_disabled":false,"rental_uris":{"android":"levelo://app?vid=3b8bd03d-b03b-41de-9406-6372dd33a0ed","ios":"levelo://app?vid=3b8bd03d-b03b-41de-9406-6372dd33a0ed"},"vehicle_type_id":"4","last_reported":1747193748,"current_range_meters":17200,"station_id":"ce4bho92rcd13ifvqh3g","pricing_plan_id":"cebpf4jnsgd1na2vs0mg"},{"bike_id":"51436966-3bae-4f05-bd39-e136a6553cbf","system_id":"levelo_inurba_marseille","lat":43.284216,"lon":5.391996,"is_reserved":false,"is_disabled":false,"rental_uris":{"android":"levelo://app?vid=51436966-3bae-4f05-bd39-e136a6553cbf","ios":"levelo://app?vid=51436966-3bae-4f05-bd39-e136a6553cbf"},"vehicle_type_id":"4","last_reported":1747193748,"current_range_meters":17200,"station_id":"ce4bhoh2rcd13ifvqh5g","pricing_plan_id":"cebpf4jnsgd1na2vs0mg"},{"bike_id":"ecdc5eb1-7184-4fb1-b390-8b3d2977affa","system_id":"levelo_inurba_marseille","lat":43.311039,"lon":5.376003,"is_reserved":false,"is_disabled":false,"rental_uris":{"android":"levelo://app?vid=ecdc5eb1-7184-4fb1-b390-8b3d2977affa","ios":"levelo://app?vid=ecdc5eb1-7184-4fb1-b390-8b3d2977affa"},"vehicle_type_id":"4","last_reported":1747193748,"current_range_meters":17200,"station_id":"","pricing_plan_id":"cebpf4jnsgd1na2vs0mg"},{"bike_id":"1cfb5e24-e097-429b-8c97-a76aaf9b3f49","system_id":"levelo_inurba_marseille","lat":43.24683,"lon":5.38137,"is_reserved":false,"is_disabled":false,"rental_uris":{"android":"levelo://app?vid=1cfb5e24-e097-429b-8c97-a76aaf9b3f49","ios":"levelo://app?vid=1cfb5e24-e097-429b-8c97-a76aaf9b3f49"},"vehicle_type_id":"4","last_reported":1747193748,"current_range_meters":17600,"station_id":"ce4bhih2rcd13ifvqfr0","pricing_plan_id":"cebpf4jnsgd1na2vs0mg"},{"bike_id":"4fc49f79-fa67-4460-a03b-8373ee1b7092","system_id":"levelo_inurba_marseille","lat":43.26811,"lon":5.40254,"is_reserved":false,"is_disabled":false,"rental_uris":{"android":"levelo://app?vid=4fc49f79-fa67-4460-a03b-8373ee1b7092","ios":"levelo://app?vid=4fc49f79-fa67-4460-a03b-8373ee1b7092"},"vehicle_type_id":"4","last_reported":1747193748,"current_range_meters":17600,"station_id":"ce501612rcd8frsf0b60","pricing_plan_id":"cebpf4jnsgd1na2vs0mg"},{"bike_id":"1f4658bd-b04a-47f1-8fa8-8ae9eb2b41b6","system_id":"levelo_inurba_marseille","lat":43.287069,"lon":5.399895,"is_reserved":false,"is_disabled":false,"rental_uris":{"android":"levelo://app?vid=1f4658bd-b04a-47f1-8fa8-8ae9eb2b41b6","ios":"levelo://app?vid=1f4658bd-b04a-47f1-8fa8-8ae9eb2b41b6"},"vehicle_type_id":"4","last_reported":1747193748,"current_range_meters":17600,"station_id":"ce4bho92rcd13ifvqh3g","pricing_plan_id":"cebpf4jnsgd1na2vs0mg"},{"bike_id":"8ff86fea-1791-450c-a5aa-8bebc912c03b","system_id":"levelo_inurba_marseille","lat":43.321037,"lon":5.367787,"is_reserved":false,"is_disabled":false,"rental_uris":{"android":"levelo://app?vid=8ff86fea-1791-450c-a5aa-8bebc912c03b","ios":"levelo://app?vid=8ff86fea-1791-450c-a5aa-8bebc912c03b"},"vehicle_type_id":"4","last_reported":1747193748,"current_range_meters":17600,"station_id":"ce4bhrh2rcd13ifvqhug","pricing_plan_id":"cebpf4jnsgd1na2vs0mg"},{"bike_id":"29ce2bff-29c9-4638-a93d-53611c79a41e","system_id":"levelo_inurba_marseille","lat":43.323673,"lon":5.388874,"is_reserved":false,"is_disabled":false,"rental_uris":{"android":"levelo://app?vid=29ce2bff-29c9-4638-a93d-53611c79a41e","ios":"levelo://app?vid=29ce2bff-29c9-4638-a93d-53611c79a41e"},"vehicle_type_id":"4","last_reported":1747193748,"current_range_meters":17600,"station_id":"ce4bhqp2rcd13ifvqhog","pricing_plan_id":"cebpf4jnsgd1na2vs0mg"},{"bike_id":"8494d181-9ae5-4c66-9c18-2effdb88bdb3","system_id":"levelo_inurba_marseille","lat":43.307872,"lon":5.376454,"is_reserved":false,"is_disabled":false,"rental_uris":{"android":"levelo://app?vid=8494d181-9ae5-4c66-9c18-2effdb88bdb3","ios":"levelo://app?vid=8494d181-9ae5-4c66-9c18-2effdb88bdb3"},"vehicle_type_id":"4","last_reported":1747193748,"current_range_meters":17600,"station_id":"ce4bgv92rcd13ifvqcq0","pricing_plan_id":"cebpf4jnsgd1na2vs0mg"},{"bike_id":"f1451609-d035-47a8-8036-0b5324cee08c","system_id":"levelo_inurba_marseille","lat":43.30603,"lon":5.37228,"is_reserved":false,"is_disabled":false,"rental_uris":{"android":"levelo://app?vid=f1451609-d035-47a8-8036-0b5324cee08c","ios":"levelo://app?vid=f1451609-d035-47a8-8036-0b5324cee08c"},"vehicle_type_id":"4","last_reported":1747193748,"current_range_meters":17600,"station_id":"ce4bgqh2rcd13ifvqc4g","pricing_plan_id":"cebpf4jnsgd1na2vs0mg"},{"bike_id":"fd75db0b-8fe0-4d21-834a-948fc2981351","system_id":"levelo_inurba_marseille","lat":43.284235,"lon":5.392068,"is_reserved":false,"is_disabled":false,"rental_uris":{"android":"levelo://app?vid=fd75db0b-8fe0-4d21-834a-948fc2981351","ios":"levelo://app?vid=fd75db0b-8fe0-4d21-834a-948fc2981351"},"vehicle_type_id":"4","last_reported":1747193748,"current_range_meters":17600,"station_id":"ce4bhoh2rcd13ifvqh5g","pricing_plan_id":"cebpf4jnsgd1na2vs0mg"},{"bike_id":"8446de64-ef8c-4cdc-a02f-ac80f8460e67","system_id":"levelo_inurba_marseille","lat":43.313505,"lon":5.385035,"is_reserved":false,"is_disabled":true,"rental_uris":{"android":"levelo://app?vid=8446de64-ef8c-4cdc-a02f-ac80f8460e67","ios":"levelo://app?vid=8446de64-ef8c-4cdc-a02f-ac80f8460e67"},"vehicle_type_id":"4","last_reported":1747193748,"current_range_meters":17600,"station_id":"ce4bgt92rcd13ifvqcf0","pricing_plan_id":"cebpf4jnsgd1na2vs0mg"},{"bike_id":"5647a91f-31a6-41fb-82bb-83893a94fc73","system_id":"levelo_inurba_marseille","lat":43.2119,"lon":5.35075,"is_reserved":false,"is_disabled":false,"rental_uris":{"android":"levelo://app?vid=5647a91f-31a6-41fb-82bb-83893a94fc73","ios":"levelo://app?vid=5647a91f-31a6-41fb-82bb-83893a94fc73"},"vehicle_type_id":"4","last_reported":1747193748,"current_range_meters":18000,"station_id":"st_cvj6sg6p6f1abm77japg","pricing_plan_id":"cebpf4jnsgd1na2vs0mg"},{"bike_id":"e3ebb892-4873-4499-953b-e4921a77194a","system_id":"levelo_inurba_marseille","lat":43.272123,"lon":5.391859,"is_reserved":false,"is_disabled":true,"rental_uris":{"android":"levelo://app?vid=e3ebb892-4873-4499-953b-e4921a77194a","ios":"levelo://app?vid=e3ebb892-4873-4499-953b-e4921a77194a"},"vehicle_type_id":"4","last_reported":1747193748,"current_range_meters":18000,"station_id":"ce4bhhp2rcd13ifvqfm0","pricing_plan_id":"cebpf4jnsgd1na2vs0mg"},{"bike_id":"5b2bf2cc-e79c-4a99-a91f-20d49657d90b","system_id":"levelo_inurba_marseille","lat":43.241759,"lon":5.397313,"is_reserved":false,"is_disabled":false,"rental_uris":{"android":"levelo://app?vid=5b2bf2cc-e79c-4a99-a91f-20d49657d90b","ios":"levelo://app?vid=5b2bf2cc-e79c-4a99-a91f-20d49657d90b"},"vehicle_type_id":"4","last_reported":1747193748,"current_range_meters":18000,"station_id":"ce4bhn12rcd13ifvqgpg","pricing_plan_id":"cebpf4jnsgd1na2vs0mg"},{"bike_id":"c77744cd-dd85-473a-952b-e9873b6afa4f","system_id":"levelo_inurba_marseille","lat":43.332274,"lon":5.404296,"is_reserved":false,"is_disabled":false,"rental_uris":{"android":"levelo://app?vid=c77744cd-dd85-473a-952b-e9873b6afa4f","ios":"levelo://app?vid=c77744cd-dd85-473a-952b-e9873b6afa4f"},"vehicle_type_id":"4","last_reported":1747193748,"current_range_meters":18000,"station_id":"","pricing_plan_id":"cebpf4jnsgd1na2vs0mg"},{"bike_id":"743d0d38-9a78-4c3b-bda7-0ebf8bc2b883","system_id":"levelo_inurba_marseille","lat":43.29223,"lon":5.39314,"is_reserved":false,"is_disabled":false,"rental_uris":{"android":"levelo://app?vid=743d0d38-9a78-4c3b-bda7-0ebf8bc2b883","ios":"levelo://app?vid=743d0d38-9a78-4c3b-bda7-0ebf8bc2b883"},"vehicle_type_id":"4","last_reported":1747193748,"current_range_meters":18000,"station_id":"ce4bh192rcd13ifvqdd0","pricing_plan_id":"cebpf4jnsgd1na2vs0mg"},{"bike_id":"3315caf7-376f-4460-bd73-ddce057d5263","system_id":"levelo_inurba_marseille","lat":43.24098,"lon":5.37767,"is_reserved":false,"is_disabled":false,"rental_uris":{"android":"levelo://app?vid=3315caf7-376f-4460-bd73-ddce057d5263","ios":"levelo://app?vid=3315caf7-376f-4460-bd73-ddce057d5263"},"vehicle_type_id":"4","last_reported":1747193748,"current_range_meters":18000,"station_id":"ce4bhnp2rcd13ifvqgvg","pricing_plan_id":"cebpf4jnsgd1na2vs0mg"},{"bike_id":"71184bd5-3817-43b3-8b7e-8c7eedcc81a3","system_id":"levelo_inurba_marseille","lat":43.303204,"lon":5.404384,"is_reserved":false,"is_disabled":false,"rental_uris":{"android":"levelo://app?vid=71184bd5-3817-43b3-8b7e-8c7eedcc81a3","ios":"levelo://app?vid=71184bd5-3817-43b3-8b7e-8c7eedcc81a3"},"vehicle_type_id":"4","last_reported":1747193748,"current_range_meters":18800,"station_id":"ce4bh012rcd13ifvqd10","pricing_plan_id":"cebpf4jnsgd1na2vs0mg"},{"bike_id":"0b9607ef-f196-4c2a-a63c-3384ebed5fb2","system_id":"levelo_inurba_marseille","lat":43.298706,"lon":5.397364,"is_reserved":false,"is_disabled":false,"rental_uris":{"android":"levelo://app?vid=0b9607ef-f196-4c2a-a63c-3384ebed5fb2","ios":"levelo://app?vid=0b9607ef-f196-4c2a-a63c-3384ebed5fb2"},"vehicle_type_id":"4","last_reported":1747193748,"current_range_meters":18800,"station_id":"ce4bh0h2rcd13ifvqd50","pricing_plan_id":"cebpf4jnsgd1na2vs0mg"},{"bike_id":"f0649364-0107-4d97-ae7e-c2cb5ebd23f0","system_id":"levelo_inurba_marseille","lat":43.21778,"lon":5.34588,"is_reserved":false,"is_disabled":false,"rental_uris":{"android":"levelo://app?vid=f0649364-0107-4d97-ae7e-c2cb5ebd23f0","ios":"levelo://app?vid=f0649364-0107-4d97-ae7e-c2cb5ebd23f0"},"vehicle_type_id":"4","last_reported":1747193748,"current_range_meters":18800,"station_id":"st_cvj6r9ubvosntc0bgbag","pricing_plan_id":"cebpf4jnsgd1na2vs0mg"},{"bike_id":"2caf282f-50d5-4f90-a160-c61524772e9a","system_id":"levelo_inurba_marseille","lat":43.285717,"lon":5.394822,"is_reserved":false,"is_disabled":false,"rental_uris":{"android":"levelo://app?vid=2caf282f-50d5-4f90-a160-c61524772e9a","ios":"levelo://app?vid=2caf282f-50d5-4f90-a160-c61524772e9a"},"vehicle_type_id":"4","last_reported":1747193748,"current_range_meters":18800,"station_id":"ce4bh292rcd13ifvqdg0","pricing_plan_id":"cebpf4jnsgd1na2vs0mg"},{"bike_id":"cde9e2f9-16b1-492d-93b9-e84fde1bbe3d","system_id":"levelo_inurba_marseille","lat":43.33781,"lon":5.37469,"is_reserved":false,"is_disabled":false,"rental_uris":{"android":"levelo://app?vid=cde9e2f9-16b1-492d-93b9-e84fde1bbe3d","ios":"levelo://app?vid=cde9e2f9-16b1-492d-93b9-e84fde1bbe3d"},"vehicle_type_id":"4","last_reported":1747193748,"current_range_meters":18800,"station_id":"","pricing_plan_id":"cebpf4jnsgd1na2vs0mg"},{"bike_id":"75838bdd-0ba7-4e40-906e-58301d4d7b01","system_id":"levelo_inurba_marseille","lat":43.323619,"lon":5.388786,"is_reserved":false,"is_disabled":false,"rental_uris":{"android":"levelo://app?vid=75838bdd-0ba7-4e40-906e-58301d4d7b01","ios":"levelo://app?vid=75838bdd-0ba7-4e40-906e-58301d4d7b01"},"vehicle_type_id":"4","last_reported":1747193748,"current_range_meters":18800,"station_id":"ce4bhqp2rcd13ifvqhog","pricing_plan_id":"cebpf4jnsgd1na2vs0mg"},{"bike_id":"ac0112c9-313e-422c-910b-a3523b05b0c9","system_id":"levelo_inurba_marseille","lat":43.230546,"lon":5.354861,"is_reserved":false,"is_disabled":false,"rental_uris":{"android":"levelo://app?vid=ac0112c9-313e-422c-910b-a3523b05b0c9","ios":"levelo://app?vid=ac0112c9-313e-422c-910b-a3523b05b0c9"},"vehicle_type_id":"4","last_reported":1747193748,"current_range_meters":19200,"station_id":"cpo3342slgdg3j2ifvpg","pricing_plan_id":"cebpf4jnsgd1na2vs0mg"},{"bike_id":"042b9723-7f0a-48a6-9720-7f35c609a25c","system_id":"levelo_inurba_marseille","lat":43.313562,"lon":5.385196,"is_reserved":false,"is_disabled":false,"rental_uris":{"android":"levelo://app?vid=042b9723-7f0a-48a6-9720-7f35c609a25c","ios":"levelo://app?vid=042b9723-7f0a-48a6-9720-7f35c609a25c"},"vehicle_type_id":"4","last_reported":1747193748,"current_range_meters":19200,"station_id":"ce4bgt92rcd13ifvqcf0","pricing_plan_id":"cebpf4jnsgd1na2vs0mg"},{"bike_id":"49a5f454-00ee-4b17-84b8-175848e72351","system_id":"levelo_inurba_marseille","lat":43.306534,"lon":5.400849,"is_reserved":false,"is_disabled":false,"rental_uris":{"android":"levelo://app?vid=49a5f454-00ee-4b17-84b8-175848e72351","ios":"levelo://app?vid=49a5f454-00ee-4b17-84b8-175848e72351"},"vehicle_type_id":"4","last_reported":1747193748,"current_range_meters":19200,"station_id":"ce4bh112rcd13ifvqda0","pricing_plan_id":"cebpf4jnsgd1na2vs0mg"},{"bike_id":"c4f204d2-505f-4d38-a978-29d1e951ec0a","system_id":"levelo_inurba_marseille","lat":43.250014,"lon":5.38934,"is_reserved":false,"is_disabled":false,"rental_uris":{"android":"levelo://app?vid=c4f204d2-505f-4d38-a978-29d1e951ec0a","ios":"levelo://app?vid=c4f204d2-505f-4d38-a978-29d1e951ec0a"},"vehicle_type_id":"4","last_reported":1747193748,"current_range_meters":19200,"station_id":"ce4bhgp2rcd13ifvqfd0","pricing_plan_id":"cebpf4jnsgd1na2vs0mg"},{"bike_id":"32c4297d-700e-456e-b1ab-9788fe2e644b","system_id":"levelo_inurba_marseille","lat":43.315078,"lon":5.372946,"is_reserved":false,"is_disabled":true,"rental_uris":{"android":"levelo://app?vid=32c4297d-700e-456e-b1ab-9788fe2e644b","ios":"levelo://app?vid=32c4297d-700e-456e-b1ab-9788fe2e644b"},"vehicle_type_id":"4","last_reported":1747193748,"current_range_meters":19200,"station_id":"ce4bgt12rcd13ifvqcd0","pricing_plan_id":"cebpf4jnsgd1na2vs0mg"},{"bike_id":"09a35a50-6156-435d-8ef9-8519335d4492","system_id":"levelo_inurba_marseille","lat":43.306394,"lon":5.4007,"is_reserved":false,"is_disabled":false,"rental_uris":{"android":"levelo://app?vid=09a35a50-6156-435d-8ef9-8519335d4492","ios":"levelo://app?vid=09a35a50-6156-435d-8ef9-8519335d4492"},"vehicle_type_id":"4","last_reported":1747193748,"current_range_meters":19200,"station_id":"ce4bh112rcd13ifvqda0","pricing_plan_id":"cebpf4jnsgd1na2vs0mg"},{"bike_id":"c61dc4c2-1457-4a98-ab55-37af57e827a1","system_id":"levelo_inurba_marseille","lat":43.28153,"lon":5.42644,"is_reserved":false,"is_disabled":false,"rental_uris":{"android":"levelo://app?vid=c61dc4c2-1457-4a98-ab55-37af57e827a1","ios":"levelo://app?vid=c61dc4c2-1457-4a98-ab55-37af57e827a1"},"vehicle_type_id":"4","last_reported":1747193748,"current_range_meters":19200,"station_id":"ce4bhnh2rcd13ifvqgug","pricing_plan_id":"cebpf4jnsgd1na2vs0mg"},{"bike_id":"000c0b13-a9a2-4019-bac1-98362dbbca8f","system_id":"levelo_inurba_marseille","lat":43.2406,"lon":5.37761,"is_reserved":false,"is_disabled":false,"rental_uris":{"android":"levelo://app?vid=000c0b13-a9a2-4019-bac1-98362dbbca8f","ios":"levelo://app?vid=000c0b13-a9a2-4019-bac1-98362dbbca8f"},"vehicle_type_id":"4","last_reported":1747193748,"current_range_meters":19200,"station_id":"ce4bhnp2rcd13ifvqgvg","pricing_plan_id":"cebpf4jnsgd1na2vs0mg"},{"bike_id":"c11d672d-5ac8-4a85-b01e-f9e4763d878d","system_id":"levelo_inurba_marseille","lat":43.335832,"lon":5.41043,"is_reserved":false,"is_disabled":false,"rental_uris":{"android":"levelo://app?vid=c11d672d-5ac8-4a85-b01e-f9e4763d878d","ios":"levelo://app?vid=c11d672d-5ac8-4a85-b01e-f9e4763d878d"},"vehicle_type_id":"4","last_reported":1747193748,"current_range_meters":19200,"station_id":"ce4bhqh2rcd13ifvqhmg","pricing_plan_id":"cebpf4jnsgd1na2vs0mg"},{"bike_id":"41534364-62ff-4459-92c4-4f300a43681b","system_id":"levelo_inurba_marseille","lat":43.284379,"lon":5.391941,"is_reserved":false,"is_disabled":false,"rental_uris":{"android":"levelo://app?vid=41534364-62ff-4459-92c4-4f300a43681b","ios":"levelo://app?vid=41534364-62ff-4459-92c4-4f300a43681b"},"vehicle_type_id":"4","last_reported":1747193748,"current_range_meters":19200,"station_id":"ce4bhoh2rcd13ifvqh5g","pricing_plan_id":"cebpf4jnsgd1na2vs0mg"},{"bike_id":"5624bb87-67e8-4801-b311-2ee22ddd3ec7","system_id":"levelo_inurba_marseille","lat":43.2719,"lon":5.392,"is_reserved":false,"is_disabled":false,"rental_uris":{"android":"levelo://app?vid=5624bb87-67e8-4801-b311-2ee22ddd3ec7","ios":"levelo://app?vid=5624bb87-67e8-4801-b311-2ee22ddd3ec7"},"vehicle_type_id":"4","last_reported":1747193748,"current_range_meters":19600,"station_id":"ce4bhhp2rcd13ifvqfm0","pricing_plan_id":"cebpf4jnsgd1na2vs0mg"},{"bike_id":"c21fd8a7-f8cf-41af-b742-acb68b7cb536","system_id":"levelo_inurba_marseille","lat":43.241772,"lon":5.397058,"is_reserved":false,"is_disabled":true,"rental_uris":{"android":"levelo://app?vid=c21fd8a7-f8cf-41af-b742-acb68b7cb536","ios":"levelo://app?vid=c21fd8a7-f8cf-41af-b742-acb68b7cb536"},"vehicle_type_id":"4","last_reported":1747193748,"current_range_meters":19600,"station_id":"ce4bhn12rcd13ifvqgpg","pricing_plan_id":"cebpf4jnsgd1na2vs0mg"},{"bike_id":"68bd40db-e76c-4167-888e-a375f5a26ea6","system_id":"levelo_inurba_marseille","lat":43.28218,"lon":5.42599,"is_reserved":false,"is_disabled":false,"rental_uris":{"android":"levelo://app?vid=68bd40db-e76c-4167-888e-a375f5a26ea6","ios":"levelo://app?vid=68bd40db-e76c-4167-888e-a375f5a26ea6"},"vehicle_type_id":"4","last_reported":1747193748,"current_range_meters":19600,"station_id":"","pricing_plan_id":"cebpf4jnsgd1na2vs0mg"},{"bike_id":"e409cd08-b9c4-4d62-aefb-05d029e2c480","system_id":"levelo_inurba_marseille","lat":43.306459,"lon":5.427952,"is_reserved":false,"is_disabled":false,"rental_uris":{"android":"levelo://app?vid=e409cd08-b9c4-4d62-aefb-05d029e2c480","ios":"levelo://app?vid=e409cd08-b9c4-4d62-aefb-05d029e2c480"},"vehicle_type_id":"4","last_reported":1747193748,"current_range_meters":19600,"station_id":"","pricing_plan_id":"cebpf4jnsgd1na2vs0mg"},{"bike_id":"65a2976c-8b04-429a-95dd-f42d445408eb","system_id":"levelo_inurba_marseille","lat":43.2893,"lon":5.39631,"is_reserved":false,"is_disabled":false,"rental_uris":{"android":"levelo://app?vid=65a2976c-8b04-429a-95dd-f42d445408eb","ios":"levelo://app?vid=65a2976c-8b04-429a-95dd-f42d445408eb"},"vehicle_type_id":"4","last_reported":1747193748,"current_range_meters":19600,"station_id":"ce4bh3h2rcd13ifvqdn0","pricing_plan_id":"cebpf4jnsgd1na2vs0mg"},{"bike_id":"765d3cc3-0332-4bc4-99d3-4f30c7b8cbea","system_id":"levelo_inurba_marseille","lat":43.28277,"lon":5.35061,"is_reserved":false,"is_disabled":false,"rental_uris":{"android":"levelo://app?vid=765d3cc3-0332-4bc4-99d3-4f30c7b8cbea","ios":"levelo://app?vid=765d3cc3-0332-4bc4-99d3-4f30c7b8cbea"},"vehicle_type_id":"4","last_reported":1747193748,"current_range_meters":19600,"station_id":"ce4bhbp2rcd13ifvqerg","pricing_plan_id":"cebpf4jnsgd1na2vs0mg"},{"bike_id":"2b610a4a-1cfb-4419-b14d-2ee96e7de55a","system_id":"levelo_inurba_marseille","lat":43.29185,"lon":5.39333,"is_reserved":false,"is_disabled":false,"rental_uris":{"android":"levelo://app?vid=2b610a4a-1cfb-4419-b14d-2ee96e7de55a","ios":"levelo://app?vid=2b610a4a-1cfb-4419-b14d-2ee96e7de55a"},"vehicle_type_id":"4","last_reported":1747193748,"current_range_meters":19600,"station_id":"ce4bh192rcd13ifvqdd0","pricing_plan_id":"cebpf4jnsgd1na2vs0mg"},{"bike_id":"c2b14f17-082d-4942-ac27-c2062cd954d6","system_id":"levelo_inurba_marseille","lat":43.2618,"lon":5.3792,"is_reserved":false,"is_disabled":false,"rental_uris":{"android":"levelo://app?vid=c2b14f17-082d-4942-ac27-c2062cd954d6","ios":"levelo://app?vid=c2b14f17-082d-4942-ac27-c2062cd954d6"},"vehicle_type_id":"4","last_reported":1747193748,"current_range_meters":20000,"station_id":"ce4bhjp2rcd13ifvqg90","pricing_plan_id":"cebpf4jnsgd1na2vs0mg"},{"bike_id":"04e67dbc-e3a0-4610-98d7-538d972ffae2","system_id":"levelo_inurba_marseille","lat":43.25111,"lon":5.40329,"is_reserved":false,"is_disabled":false,"rental_uris":{"android":"levelo://app?vid=04e67dbc-e3a0-4610-98d7-538d972ffae2","ios":"levelo://app?vid=04e67dbc-e3a0-4610-98d7-538d972ffae2"},"vehicle_type_id":"4","last_reported":1747193748,"current_range_meters":20000,"station_id":"ce4bhlh2rcd13ifvqgig","pricing_plan_id":"cebpf4jnsgd1na2vs0mg"},{"bike_id":"644511a3-94a8-4d9e-a99e-a8a4681f0634","system_id":"levelo_inurba_marseille","lat":43.241767,"lon":5.397347,"is_reserved":false,"is_disabled":false,"rental_uris":{"android":"levelo://app?vid=644511a3-94a8-4d9e-a99e-a8a4681f0634","ios":"levelo://app?vid=644511a3-94a8-4d9e-a99e-a8a4681f0634"},"vehicle_type_id":"4","last_reported":1747193748,"current_range_meters":20000,"station_id":"ce4bhn12rcd13ifvqgpg","pricing_plan_id":"cebpf4jnsgd1na2vs0mg"},{"bike_id":"e46528c9-be4d-4b17-9919-22ec681c2159","system_id":"levelo_inurba_marseille","lat":43.29934,"lon":5.38518,"is_reserved":false,"is_disabled":false,"rental_uris":{"android":"levelo://app?vid=e46528c9-be4d-4b17-9919-22ec681c2159","ios":"levelo://app?vid=e46528c9-be4d-4b17-9919-22ec681c2159"},"vehicle_type_id":"4","last_reported":1747193748,"current_range_meters":20400,"station_id":"","pricing_plan_id":"cebpf4jnsgd1na2vs0mg"},{"bike_id":"9f1268c2-d2d6-4f6b-ad6b-d35923580a6d","system_id":"levelo_inurba_marseille","lat":43.24184,"lon":5.39727,"is_reserved":false,"is_disabled":false,"rental_uris":{"android":"levelo://app?vid=9f1268c2-d2d6-4f6b-ad6b-d35923580a6d","ios":"levelo://app?vid=9f1268c2-d2d6-4f6b-ad6b-d35923580a6d"},"vehicle_type_id":"4","last_reported":1747193748,"current_range_meters":20800,"station_id":"ce4bhn12rcd13ifvqgpg","pricing_plan_id":"cebpf4jnsgd1na2vs0mg"},{"bike_id":"6acad5bb-433f-471b-b953-71840710769f","system_id":"levelo_inurba_marseille","lat":43.281531,"lon":5.426434,"is_reserved":false,"is_disabled":false,"rental_uris":{"android":"levelo://app?vid=6acad5bb-433f-471b-b953-71840710769f","ios":"levelo://app?vid=6acad5bb-433f-471b-b953-71840710769f"},"vehicle_type_id":"4","last_reported":1747193748,"current_range_meters":20800,"station_id":"ce4bhnh2rcd13ifvqgug","pricing_plan_id":"cebpf4jnsgd1na2vs0mg"},{"bike_id":"64824209-6cba-4c12-875a-1502c403c27a","system_id":"levelo_inurba_marseille","lat":43.211726,"lon":5.350824,"is_reserved":false,"is_disabled":false,"rental_uris":{"android":"levelo://app?vid=64824209-6cba-4c12-875a-1502c403c27a","ios":"levelo://app?vid=64824209-6cba-4c12-875a-1502c403c27a"},"vehicle_type_id":"4","last_reported":1747193748,"current_range_meters":20800,"station_id":"st_cvj6sg6p6f1abm77japg","pricing_plan_id":"cebpf4jnsgd1na2vs0mg"},{"bike_id":"c35bcab0-a37f-4f36-9542-92ea7d9f56c6","system_id":"levelo_inurba_marseille","lat":43.28435,"lon":5.39217,"is_reserved":false,"is_disabled":false,"rental_uris":{"android":"levelo://app?vid=c35bcab0-a37f-4f36-9542-92ea7d9f56c6","ios":"levelo://app?vid=c35bcab0-a37f-4f36-9542-92ea7d9f56c6"},"vehicle_type_id":"4","last_reported":1747193748,"current_range_meters":20800,"station_id":"ce4bhoh2rcd13ifvqh5g","pricing_plan_id":"cebpf4jnsgd1na2vs0mg"},{"bike_id":"a0b33ced-2d73-4ee0-93d7-11f117c46477","system_id":"levelo_inurba_marseille","lat":43.308035,"lon":5.381488,"is_reserved":false,"is_disabled":false,"rental_uris":{"android":"levelo://app?vid=a0b33ced-2d73-4ee0-93d7-11f117c46477","ios":"levelo://app?vid=a0b33ced-2d73-4ee0-93d7-11f117c46477"},"vehicle_type_id":"4","last_reported":1747193748,"current_range_meters":20800,"station_id":"ce4bgt12rcd13ifvqce0","pricing_plan_id":"cebpf4jnsgd1na2vs0mg"},{"bike_id":"0cc46be0-cda7-4d84-a24a-b567a36e5f7e","system_id":"levelo_inurba_marseille","lat":43.30273,"lon":5.36859,"is_reserved":false,"is_disabled":true,"rental_uris":{"android":"levelo://app?vid=0cc46be0-cda7-4d84-a24a-b567a36e5f7e","ios":"levelo://app?vid=0cc46be0-cda7-4d84-a24a-b567a36e5f7e"},"vehicle_type_id":"4","last_reported":1747193748,"current_range_meters":20800,"station_id":"","pricing_plan_id":"cebpf4jnsgd1na2vs0mg"},{"bike_id":"b1aa1f45-b92a-4d19-a660-2a64a4d58438","system_id":"levelo_inurba_marseille","lat":43.308045,"lon":5.435227,"is_reserved":false,"is_disabled":false,"rental_uris":{"android":"levelo://app?vid=b1aa1f45-b92a-4d19-a660-2a64a4d58438","ios":"levelo://app?vid=b1aa1f45-b92a-4d19-a660-2a64a4d58438"},"vehicle_type_id":"4","last_reported":1747193748,"current_range_meters":20800,"station_id":"ce4bhph2rcd13ifvqheg","pricing_plan_id":"cebpf4jnsgd1na2vs0mg"},{"bike_id":"c9813867-74b9-4493-a0fd-23fe27ebcda4","system_id":"levelo_inurba_marseille","lat":43.231867,"lon":5.3999,"is_reserved":false,"is_disabled":false,"rental_uris":{"android":"levelo://app?vid=c9813867-74b9-4493-a0fd-23fe27ebcda4","ios":"levelo://app?vid=c9813867-74b9-4493-a0fd-23fe27ebcda4"},"vehicle_type_id":"4","last_reported":1747193748,"current_range_meters":20800,"station_id":"ce4bhn12rcd13ifvqgqg","pricing_plan_id":"cebpf4jnsgd1na2vs0mg"},{"bike_id":"74e465a6-62f1-45be-9144-40f0ae71c9e6","system_id":"levelo_inurba_marseille","lat":43.32364,"lon":5.367626,"is_reserved":false,"is_disabled":false,"rental_uris":{"android":"levelo://app?vid=74e465a6-62f1-45be-9144-40f0ae71c9e6","ios":"levelo://app?vid=74e465a6-62f1-45be-9144-40f0ae71c9e6"},"vehicle_type_id":"4","last_reported":1747193748,"current_range_meters":20800,"station_id":"ce4bhsh2rcd13ifvqi2g","pricing_plan_id":"cebpf4jnsgd1na2vs0mg"},{"bike_id":"38e17345-4492-446b-b61d-b44cc143194f","system_id":"levelo_inurba_marseille","lat":43.27174,"lon":5.40991,"is_reserved":false,"is_disabled":false,"rental_uris":{"android":"levelo://app?vid=38e17345-4492-446b-b61d-b44cc143194f","ios":"levelo://app?vid=38e17345-4492-446b-b61d-b44cc143194f"},"vehicle_type_id":"4","last_reported":1747193748,"current_range_meters":20800,"station_id":"ce4bhl12rcd13ifvqgf0","pricing_plan_id":"cebpf4jnsgd1na2vs0mg"},{"bike_id":"b6df1ef4-d5f7-49cc-b6d6-45e21292bd56","system_id":"levelo_inurba_marseille","lat":43.307721,"lon":5.376553,"is_reserved":false,"is_disabled":false,"rental_uris":{"android":"levelo://app?vid=b6df1ef4-d5f7-49cc-b6d6-45e21292bd56","ios":"levelo://app?vid=b6df1ef4-d5f7-49cc-b6d6-45e21292bd56"},"vehicle_type_id":"4","last_reported":1747193748,"current_range_meters":20800,"station_id":"ce4bgv92rcd13ifvqcq0","pricing_plan_id":"cebpf4jnsgd1na2vs0mg"},{"bike_id":"c0b9fd4f-e181-46ce-b0bf-f5119973334f","system_id":"levelo_inurba_marseille","lat":43.33771,"lon":5.37424,"is_reserved":false,"is_disabled":false,"rental_uris":{"android":"levelo://app?vid=c0b9fd4f-e181-46ce-b0bf-f5119973334f","ios":"levelo://app?vid=c0b9fd4f-e181-46ce-b0bf-f5119973334f"},"vehicle_type_id":"4","last_reported":1747193748,"current_range_meters":20800,"station_id":"","pricing_plan_id":"cebpf4jnsgd1na2vs0mg"},{"bike_id":"330f2327-dace-4ec8-bea6-228e1998da88","system_id":"levelo_inurba_marseille","lat":43.311735,"lon":5.387184,"is_reserved":false,"is_disabled":false,"rental_uris":{"android":"levelo://app?vid=330f2327-dace-4ec8-bea6-228e1998da88","ios":"levelo://app?vid=330f2327-dace-4ec8-bea6-228e1998da88"},"vehicle_type_id":"4","last_reported":1747193748,"current_range_meters":21600,"station_id":"ce4bgv12rcd13ifvqcp0","pricing_plan_id":"cebpf4jnsgd1na2vs0mg"},{"bike_id":"08a93b84-f9e2-4480-b23a-2ee7a592645e","system_id":"levelo_inurba_marseille","lat":43.217477,"lon":5.346045,"is_reserved":false,"is_disabled":false,"rental_uris":{"android":"levelo://app?vid=08a93b84-f9e2-4480-b23a-2ee7a592645e","ios":"levelo://app?vid=08a93b84-f9e2-4480-b23a-2ee7a592645e"},"vehicle_type_id":"4","last_reported":1747193748,"current_range_meters":21600,"station_id":"st_cvj6r9ubvosntc0bgbag","pricing_plan_id":"cebpf4jnsgd1na2vs0mg"},{"bike_id":"f68e8348-7bfa-41aa-8b96-07cd6d89f773","system_id":"levelo_inurba_marseille","lat":43.281552,"lon":5.426478,"is_reserved":false,"is_disabled":false,"rental_uris":{"android":"levelo://app?vid=f68e8348-7bfa-41aa-8b96-07cd6d89f773","ios":"levelo://app?vid=f68e8348-7bfa-41aa-8b96-07cd6d89f773"},"vehicle_type_id":"4","last_reported":1747193748,"current_range_meters":21600,"station_id":"","pricing_plan_id":"cebpf4jnsgd1na2vs0mg"},{"bike_id":"5d2adaa4-6c94-44d1-9821-32113c11cea1","system_id":"levelo_inurba_marseille","lat":43.311243,"lon":5.377741,"is_reserved":false,"is_disabled":false,"rental_uris":{"android":"levelo://app?vid=5d2adaa4-6c94-44d1-9821-32113c11cea1","ios":"levelo://app?vid=5d2adaa4-6c94-44d1-9821-32113c11cea1"},"vehicle_type_id":"4","last_reported":1747193748,"current_range_meters":22000,"station_id":"ce4bgt92rcd13ifvqcg0","pricing_plan_id":"cebpf4jnsgd1na2vs0mg"},{"bike_id":"b40566c8-4d01-4412-8987-500491dad71f","system_id":"levelo_inurba_marseille","lat":43.29202,"lon":5.39333,"is_reserved":false,"is_disabled":false,"rental_uris":{"android":"levelo://app?vid=b40566c8-4d01-4412-8987-500491dad71f","ios":"levelo://app?vid=b40566c8-4d01-4412-8987-500491dad71f"},"vehicle_type_id":"4","last_reported":1747193748,"current_range_meters":22000,"station_id":"ce4bh192rcd13ifvqdd0","pricing_plan_id":"cebpf4jnsgd1na2vs0mg"},{"bike_id":"59376901-c0a4-474a-802e-dc837b763276","system_id":"levelo_inurba_marseille","lat":43.269363,"lon":5.402492,"is_reserved":false,"is_disabled":false,"rental_uris":{"android":"levelo://app?vid=59376901-c0a4-474a-802e-dc837b763276","ios":"levelo://app?vid=59376901-c0a4-474a-802e-dc837b763276"},"vehicle_type_id":"4","last_reported":1747193748,"current_range_meters":22000,"station_id":"cjm6bp8fraef2m0cb0m0","pricing_plan_id":"cebpf4jnsgd1na2vs0mg"},{"bike_id":"609f90e5-b3dc-4f12-9a9c-f87707d79da6","system_id":"levelo_inurba_marseille","lat":43.30653,"lon":5.4008,"is_reserved":false,"is_disabled":false,"rental_uris":{"android":"levelo://app?vid=609f90e5-b3dc-4f12-9a9c-f87707d79da6","ios":"levelo://app?vid=609f90e5-b3dc-4f12-9a9c-f87707d79da6"},"vehicle_type_id":"4","last_reported":1747193748,"current_range_meters":22000,"station_id":"ce4bh112rcd13ifvqda0","pricing_plan_id":"cebpf4jnsgd1na2vs0mg"},{"bike_id":"535a0ff2-55fd-494f-9309-765ffaabd655","system_id":"levelo_inurba_marseille","lat":43.29256,"lon":5.38445,"is_reserved":false,"is_disabled":true,"rental_uris":{"android":"levelo://app?vid=535a0ff2-55fd-494f-9309-765ffaabd655","ios":"levelo://app?vid=535a0ff2-55fd-494f-9309-765ffaabd655"},"vehicle_type_id":"4","last_reported":1747193748,"current_range_meters":22400,"station_id":"ce4bh692rcd13ifvqea0","pricing_plan_id":"cebpf4jnsgd1na2vs0mg"},{"bike_id":"40b7249d-dd19-497f-8d80-28577f46a35f","system_id":"levelo_inurba_marseille","lat":43.297073,"lon":5.377029,"is_reserved":false,"is_disabled":false,"rental_uris":{"android":"levelo://app?vid=40b7249d-dd19-497f-8d80-28577f46a35f","ios":"levelo://app?vid=40b7249d-dd19-497f-8d80-28577f46a35f"},"vehicle_type_id":"4","last_reported":1747193748,"current_range_meters":22400,"station_id":"","pricing_plan_id":"cebpf4jnsgd1na2vs0mg"},{"bike_id":"4f461d9e-0791-44a1-8f2c-1bfb520f3d7e","system_id":"levelo_inurba_marseille","lat":43.28704,"lon":5.39981,"is_reserved":false,"is_disabled":false,"rental_uris":{"android":"levelo://app?vid=4f461d9e-0791-44a1-8f2c-1bfb520f3d7e","ios":"levelo://app?vid=4f461d9e-0791-44a1-8f2c-1bfb520f3d7e"},"vehicle_type_id":"4","last_reported":1747193748,"current_range_meters":22400,"station_id":"ce4bho92rcd13ifvqh3g","pricing_plan_id":"cebpf4jnsgd1na2vs0mg"},{"bike_id":"90d298fd-9069-4918-a0ed-7933d2508d55","system_id":"levelo_inurba_marseille","lat":43.249844,"lon":5.38951,"is_reserved":false,"is_disabled":false,"rental_uris":{"android":"levelo://app?vid=90d298fd-9069-4918-a0ed-7933d2508d55","ios":"levelo://app?vid=90d298fd-9069-4918-a0ed-7933d2508d55"},"vehicle_type_id":"4","last_reported":1747193748,"current_range_meters":22800,"station_id":"ce4bhgp2rcd13ifvqfd0","pricing_plan_id":"cebpf4jnsgd1na2vs0mg"},{"bike_id":"13d7645a-b313-4466-b24e-065d9d04ca16","system_id":"levelo_inurba_marseille","lat":43.308824,"lon":5.396338,"is_reserved":false,"is_disabled":false,"rental_uris":{"android":"levelo://app?vid=13d7645a-b313-4466-b24e-065d9d04ca16","ios":"levelo://app?vid=13d7645a-b313-4466-b24e-065d9d04ca16"},"vehicle_type_id":"4","last_reported":1747193748,"current_range_meters":22800,"station_id":"ce4bh012rcd13ifvqcv0","pricing_plan_id":"cebpf4jnsgd1na2vs0mg"},{"bike_id":"293b1291-fa31-42ff-b217-fd5b0c052cbd","system_id":"levelo_inurba_marseille","lat":43.27907,"lon":5.39569,"is_reserved":false,"is_disabled":false,"rental_uris":{"android":"levelo://app?vid=293b1291-fa31-42ff-b217-fd5b0c052cbd","ios":"levelo://app?vid=293b1291-fa31-42ff-b217-fd5b0c052cbd"},"vehicle_type_id":"4","last_reported":1747193748,"current_range_meters":22800,"station_id":"ce4bhf92rcd13ifvqf40","pricing_plan_id":"cebpf4jnsgd1na2vs0mg"},{"bike_id":"57288fcb-c0c5-4bfb-afd1-5d3c9fc997a7","system_id":"levelo_inurba_marseille","lat":43.285332,"lon":5.388001,"is_reserved":false,"is_disabled":false,"rental_uris":{"android":"levelo://app?vid=57288fcb-c0c5-4bfb-afd1-5d3c9fc997a7","ios":"levelo://app?vid=57288fcb-c0c5-4bfb-afd1-5d3c9fc997a7"},"vehicle_type_id":"4","last_reported":1747193748,"current_range_meters":22400,"station_id":"ce4bh492rcd13ifvqdvg","pricing_plan_id":"cebpf4jnsgd1na2vs0mg"},{"bike_id":"fc4a2a91-2090-42e4-827a-8953545bc346","system_id":"levelo_inurba_marseille","lat":43.22935,"lon":5.353831,"is_reserved":false,"is_disabled":false,"rental_uris":{"android":"levelo://app?vid=fc4a2a91-2090-42e4-827a-8953545bc346","ios":"levelo://app?vid=fc4a2a91-2090-42e4-827a-8953545bc346"},"vehicle_type_id":"4","last_reported":1747193748,"current_range_meters":22800,"station_id":"cpo3532slgdg3j2ikp40","pricing_plan_id":"cebpf4jnsgd1na2vs0mg"},{"bike_id":"ebeec7c7-d83e-4d66-a329-183623c050d7","system_id":"levelo_inurba_marseille","lat":43.307923,"lon":5.435299,"is_reserved":false,"is_disabled":false,"rental_uris":{"android":"levelo://app?vid=ebeec7c7-d83e-4d66-a329-183623c050d7","ios":"levelo://app?vid=ebeec7c7-d83e-4d66-a329-183623c050d7"},"vehicle_type_id":"4","last_reported":1747193748,"current_range_meters":22800,"station_id":"ce4bhph2rcd13ifvqheg","pricing_plan_id":"cebpf4jnsgd1na2vs0mg"},{"bike_id":"f7f6f24d-43e1-4937-8f7b-cf3ee6847e7e","system_id":"levelo_inurba_marseille","lat":43.307993,"lon":5.381518,"is_reserved":false,"is_disabled":false,"rental_uris":{"android":"levelo://app?vid=f7f6f24d-43e1-4937-8f7b-cf3ee6847e7e","ios":"levelo://app?vid=f7f6f24d-43e1-4937-8f7b-cf3ee6847e7e"},"vehicle_type_id":"4","last_reported":1747193748,"current_range_meters":23200,"station_id":"ce4bgt12rcd13ifvqce0","pricing_plan_id":"cebpf4jnsgd1na2vs0mg"},{"bike_id":"9a402898-f116-408b-8709-c62dd77d2b5d","system_id":"levelo_inurba_marseille","lat":43.2934,"lon":5.42853,"is_reserved":false,"is_disabled":false,"rental_uris":{"android":"levelo://app?vid=9a402898-f116-408b-8709-c62dd77d2b5d","ios":"levelo://app?vid=9a402898-f116-408b-8709-c62dd77d2b5d"},"vehicle_type_id":"4","last_reported":1747193748,"current_range_meters":23200,"station_id":"","pricing_plan_id":"cebpf4jnsgd1na2vs0mg"},{"bike_id":"1cefe3c8-6482-4456-8977-2796698d014e","system_id":"levelo_inurba_marseille","lat":43.28688,"lon":5.37948,"is_reserved":false,"is_disabled":true,"rental_uris":{"android":"levelo://app?vid=1cefe3c8-6482-4456-8977-2796698d014e","ios":"levelo://app?vid=1cefe3c8-6482-4456-8977-2796698d014e"},"vehicle_type_id":"4","last_reported":1747193748,"current_range_meters":23200,"station_id":"ce4bh9p2rcd13ifvqec0","pricing_plan_id":"cebpf4jnsgd1na2vs0mg"},{"bike_id":"a9d31fe0-2508-42cc-8e0b-6f6a14799b08","system_id":"levelo_inurba_marseille","lat":43.301576,"lon":5.372273,"is_reserved":false,"is_disabled":false,"rental_uris":{"android":"levelo://app?vid=a9d31fe0-2508-42cc-8e0b-6f6a14799b08","ios":"levelo://app?vid=a9d31fe0-2508-42cc-8e0b-6f6a14799b08"},"vehicle_type_id":"4","last_reported":1747193748,"current_range_meters":23200,"station_id":"","pricing_plan_id":"cebpf4jnsgd1na2vs0mg"},{"bike_id":"f03ed3f3-42d4-488a-9039-0789b1881240","system_id":"levelo_inurba_marseille","lat":43.308059,"lon":5.373901,"is_reserved":false,"is_disabled":false,"rental_uris":{"android":"levelo://app?vid=f03ed3f3-42d4-488a-9039-0789b1881240","ios":"levelo://app?vid=f03ed3f3-42d4-488a-9039-0789b1881240"},"vehicle_type_id":"4","last_reported":1747193748,"current_range_meters":23200,"station_id":"","pricing_plan_id":"cebpf4jnsgd1na2vs0mg"},{"bike_id":"5f376294-688d-4353-8107-9da36b230f2c","system_id":"levelo_inurba_marseille","lat":43.284124,"lon":5.391974,"is_reserved":false,"is_disabled":false,"rental_uris":{"android":"levelo://app?vid=5f376294-688d-4353-8107-9da36b230f2c","ios":"levelo://app?vid=5f376294-688d-4353-8107-9da36b230f2c"},"vehicle_type_id":"4","last_reported":1747193748,"current_range_meters":23200,"station_id":"ce4bhoh2rcd13ifvqh5g","pricing_plan_id":"cebpf4jnsgd1na2vs0mg"},{"bike_id":"f5916ab5-da34-4ae7-833d-4eaf7108c313","system_id":"levelo_inurba_marseille","lat":43.284061,"lon":5.375232,"is_reserved":false,"is_disabled":false,"rental_uris":{"android":"levelo://app?vid=f5916ab5-da34-4ae7-833d-4eaf7108c313","ios":"levelo://app?vid=f5916ab5-da34-4ae7-833d-4eaf7108c313"},"vehicle_type_id":"4","last_reported":1747193748,"current_range_meters":24000,"station_id":"ce4bh412rcd13ifvqds0","pricing_plan_id":"cebpf4jnsgd1na2vs0mg"},{"bike_id":"93122e68-3506-4165-a72a-567c26dbd4ce","system_id":"levelo_inurba_marseille","lat":43.28944,"lon":5.36497,"is_reserved":false,"is_disabled":false,"rental_uris":{"android":"levelo://app?vid=93122e68-3506-4165-a72a-567c26dbd4ce","ios":"levelo://app?vid=93122e68-3506-4165-a72a-567c26dbd4ce"},"vehicle_type_id":"4","last_reported":1747193748,"current_range_meters":24000,"station_id":"","pricing_plan_id":"cebpf4jnsgd1na2vs0mg"},{"bike_id":"29024e2c-7541-48b4-92bf-96f8b42b1b66","system_id":"levelo_inurba_marseille","lat":43.211747,"lon":5.350924,"is_reserved":false,"is_disabled":true,"rental_uris":{"android":"levelo://app?vid=29024e2c-7541-48b4-92bf-96f8b42b1b66","ios":"levelo://app?vid=29024e2c-7541-48b4-92bf-96f8b42b1b66"},"vehicle_type_id":"4","last_reported":1747193748,"current_range_meters":24000,"station_id":"st_cvj6sg6p6f1abm77japg","pricing_plan_id":"cebpf4jnsgd1na2vs0mg"},{"bike_id":"d608ab93-8a42-4106-a60f-e264e23b137a","system_id":"levelo_inurba_marseille","lat":43.24168,"lon":5.39733,"is_reserved":false,"is_disabled":false,"rental_uris":{"android":"levelo://app?vid=d608ab93-8a42-4106-a60f-e264e23b137a","ios":"levelo://app?vid=d608ab93-8a42-4106-a60f-e264e23b137a"},"vehicle_type_id":"4","last_reported":1747193748,"current_range_meters":24000,"station_id":"ce4bhn12rcd13ifvqgpg","pricing_plan_id":"cebpf4jnsgd1na2vs0mg"},{"bike_id":"e9571d0b-5795-4e11-b5a3-f8cd357134ee","system_id":"levelo_inurba_marseille","lat":43.30595,"lon":5.37217,"is_reserved":false,"is_disabled":false,"rental_uris":{"android":"levelo://app?vid=e9571d0b-5795-4e11-b5a3-f8cd357134ee","ios":"levelo://app?vid=e9571d0b-5795-4e11-b5a3-f8cd357134ee"},"vehicle_type_id":"4","last_reported":1747193748,"current_range_meters":24000,"station_id":"ce4bgqh2rcd13ifvqc4g","pricing_plan_id":"cebpf4jnsgd1na2vs0mg"},{"bike_id":"2db49789-f147-4efe-9027-7d0a661abb26","system_id":"levelo_inurba_marseille","lat":43.296424,"lon":5.406007,"is_reserved":false,"is_disabled":true,"rental_uris":{"android":"levelo://app?vid=2db49789-f147-4efe-9027-7d0a661abb26","ios":"levelo://app?vid=2db49789-f147-4efe-9027-7d0a661abb26"},"vehicle_type_id":"4","last_reported":1747193748,"current_range_meters":24400,"station_id":"ce4bh0h2rcd13ifvqd60","pricing_plan_id":"cebpf4jnsgd1na2vs0mg"},{"bike_id":"d12f0c5e-de37-47c9-926e-843b262b3d00","system_id":"levelo_inurba_marseille","lat":43.30639,"lon":5.40079,"is_reserved":false,"is_disabled":false,"rental_uris":{"android":"levelo://app?vid=d12f0c5e-de37-47c9-926e-843b262b3d00","ios":"levelo://app?vid=d12f0c5e-de37-47c9-926e-843b262b3d00"},"vehicle_type_id":"4","last_reported":1747193748,"current_range_meters":24400,"station_id":"ce4bh112rcd13ifvqda0","pricing_plan_id":"cebpf4jnsgd1na2vs0mg"},{"bike_id":"a53fd275-d2bd-4ffd-adf7-334596269a76","system_id":"levelo_inurba_marseille","lat":43.313286,"lon":5.396976,"is_reserved":false,"is_disabled":true,"rental_uris":{"android":"levelo://app?vid=a53fd275-d2bd-4ffd-adf7-334596269a76","ios":"levelo://app?vid=a53fd275-d2bd-4ffd-adf7-334596269a76"},"vehicle_type_id":"4","last_reported":1747193748,"current_range_meters":24400,"station_id":"ce4bgvp2rcd13ifvqcu0","pricing_plan_id":"cebpf4jnsgd1na2vs0mg"},{"bike_id":"8f7e4e4e-fae5-4382-8f9d-1ea9deb48874","system_id":"levelo_inurba_marseille","lat":43.286049,"lon":5.370707,"is_reserved":false,"is_disabled":false,"rental_uris":{"android":"levelo://app?vid=8f7e4e4e-fae5-4382-8f9d-1ea9deb48874","ios":"levelo://app?vid=8f7e4e4e-fae5-4382-8f9d-1ea9deb48874"},"vehicle_type_id":"4","last_reported":1747193748,"current_range_meters":24400,"station_id":"ce4bht12rcd13ifvqi60","pricing_plan_id":"cebpf4jnsgd1na2vs0mg"},{"bike_id":"c351ad74-cfad-4524-b23a-5f995cfa52ab","system_id":"levelo_inurba_marseille","lat":43.22518,"lon":5.34789,"is_reserved":false,"is_disabled":false,"rental_uris":{"android":"levelo://app?vid=c351ad74-cfad-4524-b23a-5f995cfa52ab","ios":"levelo://app?vid=c351ad74-cfad-4524-b23a-5f995cfa52ab"},"vehicle_type_id":"4","last_reported":1747193748,"current_range_meters":24400,"station_id":"st_cvj5dfep6f1abm77gieg","pricing_plan_id":"cebpf4jnsgd1na2vs0mg"},{"bike_id":"40c3a0bb-b106-481f-8d5f-6825dd7e2086","system_id":"levelo_inurba_marseille","lat":43.305825,"lon":5.372305,"is_reserved":false,"is_disabled":false,"rental_uris":{"android":"levelo://app?vid=40c3a0bb-b106-481f-8d5f-6825dd7e2086","ios":"levelo://app?vid=40c3a0bb-b106-481f-8d5f-6825dd7e2086"},"vehicle_type_id":"4","last_reported":1747193748,"current_range_meters":24400,"station_id":"ce4bgqh2rcd13ifvqc4g","pricing_plan_id":"cebpf4jnsgd1na2vs0mg"},{"bike_id":"84cb6767-3eec-4008-94f2-cf384810ff36","system_id":"levelo_inurba_marseille","lat":43.28932,"lon":5.39602,"is_reserved":false,"is_disabled":false,"rental_uris":{"android":"levelo://app?vid=84cb6767-3eec-4008-94f2-cf384810ff36","ios":"levelo://app?vid=84cb6767-3eec-4008-94f2-cf384810ff36"},"vehicle_type_id":"4","last_reported":1747193748,"current_range_meters":24400,"station_id":"ce4bh3h2rcd13ifvqdn0","pricing_plan_id":"cebpf4jnsgd1na2vs0mg"},{"bike_id":"2daf6a93-0936-4757-8d8e-a37133b2a76e","system_id":"levelo_inurba_marseille","lat":43.294308,"lon":5.397622,"is_reserved":false,"is_disabled":false,"rental_uris":{"android":"levelo://app?vid=2daf6a93-0936-4757-8d8e-a37133b2a76e","ios":"levelo://app?vid=2daf6a93-0936-4757-8d8e-a37133b2a76e"},"vehicle_type_id":"4","last_reported":1747193748,"current_range_meters":24400,"station_id":"ce4bh3h2rcd13ifvqdo0","pricing_plan_id":"cebpf4jnsgd1na2vs0mg"},{"bike_id":"c7d6c562-b7e1-4d6b-9698-3ded696f5564","system_id":"levelo_inurba_marseille","lat":43.30323,"lon":5.40453,"is_reserved":false,"is_disabled":false,"rental_uris":{"android":"levelo://app?vid=c7d6c562-b7e1-4d6b-9698-3ded696f5564","ios":"levelo://app?vid=c7d6c562-b7e1-4d6b-9698-3ded696f5564"},"vehicle_type_id":"4","last_reported":1747193748,"current_range_meters":24400,"station_id":"ce4bh012rcd13ifvqd10","pricing_plan_id":"cebpf4jnsgd1na2vs0mg"},{"bike_id":"7064039b-3249-4916-ae28-6e4b08eac1da","system_id":"levelo_inurba_marseille","lat":43.28941,"lon":5.366253,"is_reserved":false,"is_disabled":false,"rental_uris":{"android":"levelo://app?vid=7064039b-3249-4916-ae28-6e4b08eac1da","ios":"levelo://app?vid=7064039b-3249-4916-ae28-6e4b08eac1da"},"vehicle_type_id":"4","last_reported":1747193748,"current_range_meters":24400,"station_id":"ce4bhap2rcd13ifvqek0","pricing_plan_id":"cebpf4jnsgd1na2vs0mg"},{"bike_id":"e3bca8b8-1997-4264-9210-7c223f790e05","system_id":"levelo_inurba_marseille","lat":43.3035,"lon":5.37942,"is_reserved":false,"is_disabled":false,"rental_uris":{"android":"levelo://app?vid=e3bca8b8-1997-4264-9210-7c223f790e05","ios":"levelo://app?vid=e3bca8b8-1997-4264-9210-7c223f790e05"},"vehicle_type_id":"4","last_reported":1747193748,"current_range_meters":24400,"station_id":"","pricing_plan_id":"cebpf4jnsgd1na2vs0mg"},{"bike_id":"0557397f-6091-47c1-b384-cd2a143c2568","system_id":"levelo_inurba_marseille","lat":43.2719,"lon":5.40988,"is_reserved":false,"is_disabled":true,"rental_uris":{"android":"levelo://app?vid=0557397f-6091-47c1-b384-cd2a143c2568","ios":"levelo://app?vid=0557397f-6091-47c1-b384-cd2a143c2568"},"vehicle_type_id":"4","last_reported":1747193748,"current_range_meters":24400,"station_id":"ce4bhl12rcd13ifvqgf0","pricing_plan_id":"cebpf4jnsgd1na2vs0mg"},{"bike_id":"27c04895-ef43-45ce-84e9-d550fde0f1e6","system_id":"levelo_inurba_marseille","lat":43.28564,"lon":5.39477,"is_reserved":false,"is_disabled":true,"rental_uris":{"android":"levelo://app?vid=27c04895-ef43-45ce-84e9-d550fde0f1e6","ios":"levelo://app?vid=27c04895-ef43-45ce-84e9-d550fde0f1e6"},"vehicle_type_id":"4","last_reported":1747193748,"current_range_meters":24800,"station_id":"ce4bh292rcd13ifvqdg0","pricing_plan_id":"cebpf4jnsgd1na2vs0mg"},