{"last_updated":1777312720,"ttl":60,"version":"2.2","data":{"bikes":[{"bike_id":"413ccc9c-7890-4e8d-ad75-3fa3c1723302","system_id":"levelo_inurba_marseille","lat":43.29187,"lon":5.35789,"is_reserved":false,"is_disabled":false,"rental_uris":{"android":"levelo://app?vid=413ccc9c-7890-4e8d-ad75-3fa3c1723302","ios":"levelo://app?vid=413ccc9c-7890-4e8d-ad75-3fa3c1723302"},"vehicle_type_id":"4","last_reported":1777312721,"current_range_meters":2800,"station_id":"ce4bhb12rcd13ifvqel0","pricing_plan_id":"cebpf4jnsgd1na2vs0mg"},{"bike_id":"494fd0fc-3b39-4504-a26b-321afbf22977","system_id":"levelo_inurba_marseille","lat":43.23849,"lon":5.38604,"is_reserved":false,"is_disabled":false,"rental_uris":{"android":"levelo://app?vid=494fd0fc-3b39-4504-a26b-321afbf22977","ios":"levelo://app?vid=494fd0fc-3b39-4504-a26b-321afbf22977"},"vehicle_type_id":"4","last_reported":1777312721,"current_range_meters":2800,"station_id":"","pricing_plan_id":"cebpf4jnsgd1na2vs0mg"},{"bike_id":"a1acb728-0667-4111-bcd3-55c88cfad655","system_id":"levelo_inurba_marseille","lat":43.29004,"lon":5.35611,"is_reserved":false,"is_disabled":false,"rental_uris":{"android":"levelo://app?vid=a1acb728-0667-4111-bcd3-55c88cfad655","ios":"levelo://app?vid=a1acb728-0667-4111-bcd3-55c88cfad655"},"vehicle_type_id":"4","last_reported":1777312721,"current_range_meters":2800,"station_id":"ce4bhb92rcd13ifvqen0","pricing_plan_id":"cebpf4jnsgd1na2vs0mg"},{"bike_id":"85a65e7e-9dbb-4ec1-b6e9-d0b3d398f213","system_id":"levelo_inurba_marseille","lat":43.31322,"lon":5.39698,"is_reserved":false,"is_disabled":false,"rental_uris":{"android":"levelo://app?vid=85a65e7e-9dbb-4ec1-b6e9-d0b3d398f213","ios":"levelo://app?vid=85a65e7e-9dbb-4ec1-b6e9-d0b3d398f213"},"vehicle_type_id":"4","last_reported":1777312721,"current_range_meters":2800,"station_id":"ce4bgvp2rcd13ifvqcu0","pricing_plan_id":"cebpf4jnsgd1na2vs0mg"},{"bike_id":"9596221b-f514-459a-86e9-47f320131cd6","system_id":"levelo_inurba_marseille","lat":43.28616,"lon":5.35108,"is_reserved":false,"is_disabled":false,"rental_uris":{"android":"levelo://app?vid=9596221b-f514-459a-86e9-47f320131cd6","ios":"levelo://app?vid=9596221b-f514-459a-86e9-47f320131cd6"},"vehicle_type_id":"4","last_reported":1777312721,"current_range_meters":2800,"station_id":"ce4bhch2rcd13ifvqeug","pricing_plan_id":"cebpf4jnsgd1na2vs0mg"},{"bike_id":"f3887d6f-5f58-4650-a2da-9d2cb7467222","system_id":"levelo_inurba_marseille","lat":43.30247,"lon":5.40077,"is_reserved":false,"is_disabled":false,"rental_uris":{"android":"levelo://app?vid=f3887d6f-5f58-4650-a2da-9d2cb7467222","ios":"levelo://app?vid=f3887d6f-5f58-4650-a2da-9d2cb7467222"},"vehicle_type_id":"4","last_reported":1777312721,"current_range_meters":2800,"station_id":"ce4bgvh2rcd13ifvqcs0","pricing_plan_id":"cebpf4jnsgd1na2vs0mg"},{"bike_id":"bd80d0e5-37b3-438d-b82b-94f799b64150","system_id":"levelo_inurba_marseille","lat":43.26553,"lon":5.37319,"is_reserved":false,"is_disabled":false,"rental_uris":{"android":"levelo://app?vid=bd80d0e5-37b3-438d-b82b-94f799b64150","ios":"levelo://app?vid=bd80d0e5-37b3-438d-b82b-94f799b64150"},"vehicle_type_id":"4","last_reported":1777312721,"current_range_meters":3200,"station_id":"ce4bhg12rcd13ifvqf70","pricing_plan_id":"cebpf4jnsgd1na2vs0mg"},{"bike_id":"c35ef435-7351-4292-8bd0-8be9078d3a7d","system_id":"levelo_inurba_marseille","lat":43.30959,"lon":5.39039,"is_reserved":false,"is_disabled":true,"rental_uris":{"android":"levelo://app?vid=c35ef435-7351-4292-8bd0-8be9078d3a7d","ios":"levelo://app?vid=c35ef435-7351-4292-8bd0-8be9078d3a7d"},"vehicle_type_id":"4","last_reported":1777312721,"current_range_meters":3200,"station_id":"ce4bgup2rcd13ifvqco0","pricing_plan_id":"cebpf4jnsgd1na2vs0mg"},{"bike_id":"93f932f5-4d83-4c7f-bb69-db42c9711908","system_id":"levelo_inurba_marseille","lat":43.287,"lon":5.37401,"is_reserved":false,"is_disabled":true,"rental_uris":{"android":"levelo://app?vid=93f932f5-4d83-4c7f-bb69-db42c9711908","ios":"levelo://app?vid=93f932f5-4d83-4c7f-bb69-db42c9711908"},"vehicle_type_id":"4","last_reported":1777312721,"current_range_meters":3200,"station_id":"ce4bh3p2rcd13ifvqdq0","pricing_plan_id":"cebpf4jnsgd1na2vs0mg"},{"bike_id":"a7a5b163-033c-43a3-938f-d3d49a609e17","system_id":"levelo_inurba_marseille","lat":43.265473,"lon":5.37282,"is_reserved":false,"is_disabled":false,"rental_uris":{"android":"levelo://app?vid=a7a5b163-033c-43a3-938f-d3d49a609e17","ios":"levelo://app?vid=a7a5b163-033c-43a3-938f-d3d49a609e17"},"vehicle_type_id":"4","last_reported":1777312721,"current_range_meters":3200,"station_id":"ce4bhg12rcd13ifvqf70","pricing_plan_id":"cebpf4jnsgd1na2vs0mg"},{"bike_id":"a0fcf22f-3e56-4041-8c33-3fb40de9d9d2","system_id":"levelo_inurba_marseille","lat":43.29035,"lon":5.35919,"is_reserved":false,"is_disabled":false,"rental_uris":{"android":"levelo://app?vid=a0fcf22f-3e56-4041-8c33-3fb40de9d9d2","ios":"levelo://app?vid=a0fcf22f-3e56-4041-8c33-3fb40de9d9d2"},"vehicle_type_id":"4","last_reported":1777312721,"current_range_meters":3200,"station_id":"ce4bha92rcd13ifvqeg0","pricing_plan_id":"cebpf4jnsgd1na2vs0mg"},{"bike_id":"58a8c16d-17a3-4fa6-a988-d63146ee6976","system_id":"levelo_inurba_marseille","lat":43.28411,"lon":5.34987,"is_reserved":false,"is_disabled":false,"rental_uris":{"android":"levelo://app?vid=58a8c16d-17a3-4fa6-a988-d63146ee6976","ios":"levelo://app?vid=58a8c16d-17a3-4fa6-a988-d63146ee6976"},"vehicle_type_id":"4","last_reported":1777312721,"current_range_meters":3200,"station_id":"ce4bhbh2rcd13ifvqepg","pricing_plan_id":"cebpf4jnsgd1na2vs0mg"},{"bike_id":"e5551de9-d1bb-49be-b703-617517f5bafc","system_id":"levelo_inurba_marseille","lat":43.27906,"lon":5.39583,"is_reserved":false,"is_disabled":false,"rental_uris":{"android":"levelo://app?vid=e5551de9-d1bb-49be-b703-617517f5bafc","ios":"levelo://app?vid=e5551de9-d1bb-49be-b703-617517f5bafc"},"vehicle_type_id":"4","last_reported":1777312721,"current_range_meters":3200,"station_id":"ce4bhf92rcd13ifvqf40","pricing_plan_id":"cebpf4jnsgd1na2vs0mg"},{"bike_id":"a5d1c5f8-e551-41de-b7f3-a52119a1050b","system_id":"levelo_inurba_marseille","lat":43.27811,"lon":5.37416,"is_reserved":false,"is_disabled":false,"rental_uris":{"android":"levelo://app?vid=a5d1c5f8-e551-41de-b7f3-a52119a1050b","ios":"levelo://app?vid=a5d1c5f8-e551-41de-b7f3-a52119a1050b"},"vehicle_type_id":"4","last_reported":1777312721,"current_range_meters":3200,"station_id":"","pricing_plan_id":"cebpf4jnsgd1na2vs0mg"},{"bike_id":"ccaef7b9-0c7d-4751-91ad-70e44579c300","system_id":"levelo_inurba_marseille","lat":43.26687,"lon":5.38267,"is_reserved":false,"is_disabled":false,"rental_uris":{"android":"levelo://app?vid=ccaef7b9-0c7d-4751-91ad-70e44579c300","ios":"levelo://app?vid=ccaef7b9-0c7d-4751-91ad-70e44579c300"},"vehicle_type_id":"4","last_reported":1777312721,"current_range_meters":3200,"station_id":"ce4bhg92rcd13ifvqf90","pricing_plan_id":"cebpf4jnsgd1na2vs0mg"},{"bike_id":"707dbe82-63b5-4844-8f34-5eec55b79a17","system_id":"levelo_inurba_marseille","lat":43.25731,"lon":5.41103,"is_reserved":false,"is_disabled":false,"rental_uris":{"android":"levelo://app?vid=707dbe82-63b5-4844-8f34-5eec55b79a17","ios":"levelo://app?vid=707dbe82-63b5-4844-8f34-5eec55b79a17"},"vehicle_type_id":"4","last_reported":1777312721,"current_range_meters":3200,"station_id":"ce4bhkp2rcd13ifvqgd0","pricing_plan_id":"cebpf4jnsgd1na2vs0mg"},{"bike_id":"ad104686-992e-4398-a7c0-355f9243c3ef","system_id":"levelo_inurba_marseille","lat":43.30887,"lon":5.39668,"is_reserved":false,"is_disabled":false,"rental_uris":{"android":"levelo://app?vid=ad104686-992e-4398-a7c0-355f9243c3ef","ios":"levelo://app?vid=ad104686-992e-4398-a7c0-355f9243c3ef"},"vehicle_type_id":"4","last_reported":1777312721,"current_range_meters":3200,"station_id":"ce4bh012rcd13ifvqcv0","pricing_plan_id":"cebpf4jnsgd1na2vs0mg"},{"bike_id":"1c2ae032-1ed4-4d85-a530-25f494e9897f","system_id":"levelo_inurba_marseille","lat":43.27618,"lon":5.36103,"is_reserved":false,"is_disabled":false,"rental_uris":{"android":"levelo://app?vid=1c2ae032-1ed4-4d85-a530-25f494e9897f","ios":"levelo://app?vid=1c2ae032-1ed4-4d85-a530-25f494e9897f"},"vehicle_type_id":"4","last_reported":1777312721,"current_range_meters":3200,"station_id":"ce4bgj92rcd13ifvqbe0","pricing_plan_id":"cebpf4jnsgd1na2vs0mg"},{"bike_id":"a84d9190-83e3-4260-94f3-1c78b5788172","system_id":"levelo_inurba_marseille","lat":43.29532,"lon":5.39399,"is_reserved":false,"is_disabled":false,"rental_uris":{"android":"levelo://app?vid=a84d9190-83e3-4260-94f3-1c78b5788172","ios":"levelo://app?vid=a84d9190-83e3-4260-94f3-1c78b5788172"},"vehicle_type_id":"4","last_reported":1777312721,"current_range_meters":3200,"station_id":"ce4bh292rcd13ifvqdf0","pricing_plan_id":"cebpf4jnsgd1na2vs0mg"},{"bike_id":"165327d4-5d05-4dde-a230-47f4dd4fea46","system_id":"levelo_inurba_marseille","lat":43.2558,"lon":5.38241,"is_reserved":false,"is_disabled":false,"rental_uris":{"android":"levelo://app?vid=165327d4-5d05-4dde-a230-47f4dd4fea46","ios":"levelo://app?vid=165327d4-5d05-4dde-a230-47f4dd4fea46"},"vehicle_type_id":"4","last_reported":1777312721,"current_range_meters":3600,"station_id":"ce4bhih2rcd13ifvqfs0","pricing_plan_id":"cebpf4jnsgd1na2vs0mg"},{"bike_id":"0f310c52-14d2-4f1e-b4d7-12aed7df7f8b","system_id":"levelo_inurba_marseille","lat":43.26916,"lon":5.40276,"is_reserved":false,"is_disabled":false,"rental_uris":{"android":"levelo://app?vid=0f310c52-14d2-4f1e-b4d7-12aed7df7f8b","ios":"levelo://app?vid=0f310c52-14d2-4f1e-b4d7-12aed7df7f8b"},"vehicle_type_id":"4","last_reported":1777312721,"current_range_meters":3600,"station_id":"cjm6bp8fraef2m0cb0m0","pricing_plan_id":"cebpf4jnsgd1na2vs0mg"},{"bike_id":"1e467ca0-2768-4108-a598-baca0cc991f8","system_id":"levelo_inurba_marseille","lat":43.27496,"lon":5.41563,"is_reserved":false,"is_disabled":true,"rental_uris":{"android":"levelo://app?vid=1e467ca0-2768-4108-a598-baca0cc991f8","ios":"levelo://app?vid=1e467ca0-2768-4108-a598-baca0cc991f8"},"vehicle_type_id":"4","last_reported":1777312721,"current_range_meters":3600,"station_id":"st_d6im8g6chgec73a5pndg","pricing_plan_id":"cebpf4jnsgd1na2vs0mg"},{"bike_id":"50fcb081-4b05-4355-adf3-07f022c0399c","system_id":"levelo_inurba_marseille","lat":43.30993,"lon":5.37913,"is_reserved":false,"is_disabled":false,"rental_uris":{"android":"levelo://app?vid=50fcb081-4b05-4355-adf3-07f022c0399c","ios":"levelo://app?vid=50fcb081-4b05-4355-adf3-07f022c0399c"},"vehicle_type_id":"4","last_reported":1777312721,"current_range_meters":3600,"station_id":"","pricing_plan_id":"cebpf4jnsgd1na2vs0mg"},{"bike_id":"209173b0-693a-4bdb-aa29-d03613f6177b","system_id":"levelo_inurba_marseille","lat":43.29001,"lon":5.35611,"is_reserved":false,"is_disabled":false,"rental_uris":{"android":"levelo://app?vid=209173b0-693a-4bdb-aa29-d03613f6177b","ios":"levelo://app?vid=209173b0-693a-4bdb-aa29-d03613f6177b"},"vehicle_type_id":"4","last_reported":1777312721,"current_range_meters":4000,"station_id":"ce4bhb92rcd13ifvqen0","pricing_plan_id":"cebpf4jnsgd1na2vs0mg"},{"bike_id":"49c5f25e-772b-4696-b4d2-c3b31875bf84","system_id":"levelo_inurba_marseille","lat":43.29224,"lon":5.36073,"is_reserved":false,"is_disabled":false,"rental_uris":{"android":"levelo://app?vid=49c5f25e-772b-4696-b4d2-c3b31875bf84","ios":"levelo://app?vid=49c5f25e-772b-4696-b4d2-c3b31875bf84"},"vehicle_type_id":"4","last_reported":1777312721,"current_range_meters":4000,"station_id":"ce4bhbh2rcd13ifvqeqg","pricing_plan_id":"cebpf4jnsgd1na2vs0mg"},{"bike_id":"4806567f-b33a-4095-80de-8c7f29d97ec1","system_id":"levelo_inurba_marseille","lat":43.28726,"lon":5.37941,"is_reserved":false,"is_disabled":false,"rental_uris":{"android":"levelo://app?vid=4806567f-b33a-4095-80de-8c7f29d97ec1","ios":"levelo://app?vid=4806567f-b33a-4095-80de-8c7f29d97ec1"},"vehicle_type_id":"4","last_reported":1777312721,"current_range_meters":4000,"station_id":"ce4bh9p2rcd13ifvqec0","pricing_plan_id":"cebpf4jnsgd1na2vs0mg"},{"bike_id":"ef6236e4-210a-4a75-a26a-c8f05cbe34d2","system_id":"levelo_inurba_marseille","lat":43.32115,"lon":5.36773,"is_reserved":false,"is_disabled":false,"rental_uris":{"android":"levelo://app?vid=ef6236e4-210a-4a75-a26a-c8f05cbe34d2","ios":"levelo://app?vid=ef6236e4-210a-4a75-a26a-c8f05cbe34d2"},"vehicle_type_id":"4","last_reported":1777312721,"current_range_meters":4000,"station_id":"ce4bhrh2rcd13ifvqhug","pricing_plan_id":"cebpf4jnsgd1na2vs0mg"},{"bike_id":"5676b1df-3102-49f0-94ea-6bd037dc90c9","system_id":"levelo_inurba_marseille","lat":43.31119,"lon":5.38065,"is_reserved":false,"is_disabled":false,"rental_uris":{"android":"levelo://app?vid=5676b1df-3102-49f0-94ea-6bd037dc90c9","ios":"levelo://app?vid=5676b1df-3102-49f0-94ea-6bd037dc90c9"},"vehicle_type_id":"4","last_reported":1777312721,"current_range_meters":4000,"station_id":"","pricing_plan_id":"cebpf4jnsgd1na2vs0mg"},{"bike_id":"6b46c950-02cf-4079-9c9c-7e7682c6517e","system_id":"levelo_inurba_marseille","lat":43.31366,"lon":5.38507,"is_reserved":false,"is_disabled":false,"rental_uris":{"android":"levelo://app?vid=6b46c950-02cf-4079-9c9c-7e7682c6517e","ios":"levelo://app?vid=6b46c950-02cf-4079-9c9c-7e7682c6517e"},"vehicle_type_id":"4","last_reported":1777312721,"current_range_meters":4000,"station_id":"ce4bgt92rcd13ifvqcf0","pricing_plan_id":"cebpf4jnsgd1na2vs0mg"},{"bike_id":"1f13452b-ac27-48ca-bbd2-1255b0865067","system_id":"levelo_inurba_marseille","lat":43.2782,"lon":5.37928,"is_reserved":false,"is_disabled":false,"rental_uris":{"android":"levelo://app?vid=1f13452b-ac27-48ca-bbd2-1255b0865067","ios":"levelo://app?vid=1f13452b-ac27-48ca-bbd2-1255b0865067"},"vehicle_type_id":"4","last_reported":1777312721,"current_range_meters":4000,"station_id":"","pricing_plan_id":"cebpf4jnsgd1na2vs0mg"},{"bike_id":"054983ce-eac9-48ad-897e-6c255fb0247b","system_id":"levelo_inurba_marseille","lat":43.30778,"lon":5.37663,"is_reserved":false,"is_disabled":false,"rental_uris":{"android":"levelo://app?vid=054983ce-eac9-48ad-897e-6c255fb0247b","ios":"levelo://app?vid=054983ce-eac9-48ad-897e-6c255fb0247b"},"vehicle_type_id":"4","last_reported":1777312721,"current_range_meters":4000,"station_id":"ce4bgv92rcd13ifvqcq0","pricing_plan_id":"cebpf4jnsgd1na2vs0mg"},{"bike_id":"fd583349-9e7d-4e5b-8155-1da1a7a44b99","system_id":"levelo_inurba_marseille","lat":43.27949,"lon":5.41042,"is_reserved":false,"is_disabled":false,"rental_uris":{"android":"levelo://app?vid=fd583349-9e7d-4e5b-8155-1da1a7a44b99","ios":"levelo://app?vid=fd583349-9e7d-4e5b-8155-1da1a7a44b99"},"vehicle_type_id":"4","last_reported":1777312721,"current_range_meters":4000,"station_id":"ce4bhnp2rcd13ifvqh0g","pricing_plan_id":"cebpf4jnsgd1na2vs0mg"},{"bike_id":"c6941364-0b3e-415d-827c-e48038694e60","system_id":"levelo_inurba_marseille","lat":43.30758,"lon":5.43528,"is_reserved":false,"is_disabled":false,"rental_uris":{"android":"levelo://app?vid=c6941364-0b3e-415d-827c-e48038694e60","ios":"levelo://app?vid=c6941364-0b3e-415d-827c-e48038694e60"},"vehicle_type_id":"4","last_reported":1777312721,"current_range_meters":4000,"station_id":"","pricing_plan_id":"cebpf4jnsgd1na2vs0mg"},{"bike_id":"35a6efba-6e56-4656-8dc6-121dcaca4930","system_id":"levelo_inurba_marseille","lat":43.25593,"lon":5.38628,"is_reserved":false,"is_disabled":false,"rental_uris":{"android":"levelo://app?vid=35a6efba-6e56-4656-8dc6-121dcaca4930","ios":"levelo://app?vid=35a6efba-6e56-4656-8dc6-121dcaca4930"},"vehicle_type_id":"4","last_reported":1777312721,"current_range_meters":4000,"station_id":"","pricing_plan_id":"cebpf4jnsgd1na2vs0mg"},{"bike_id":"06a42282-ff19-40a6-9ebf-2e79ec1f3735","system_id":"levelo_inurba_marseille","lat":43.30887,"lon":5.39654,"is_reserved":false,"is_disabled":false,"rental_uris":{"android":"levelo://app?vid=06a42282-ff19-40a6-9ebf-2e79ec1f3735","ios":"levelo://app?vid=06a42282-ff19-40a6-9ebf-2e79ec1f3735"},"vehicle_type_id":"4","last_reported":1777312721,"current_range_meters":4000,"station_id":"ce4bh012rcd13ifvqcv0","pricing_plan_id":"cebpf4jnsgd1na2vs0mg"},{"bike_id":"a706b0af-efbc-4c2c-a81b-b56d19b2eca4","system_id":"levelo_inurba_marseille","lat":43.24703,"lon":5.38122,"is_reserved":false,"is_disabled":false,"rental_uris":{"android":"levelo://app?vid=a706b0af-efbc-4c2c-a81b-b56d19b2eca4","ios":"levelo://app?vid=a706b0af-efbc-4c2c-a81b-b56d19b2eca4"},"vehicle_type_id":"4","last_reported":1777312721,"current_range_meters":4000,"station_id":"ce4bhih2rcd13ifvqfr0","pricing_plan_id":"cebpf4jnsgd1na2vs0mg"},{"bike_id":"3da0f4a8-6878-4716-aca3-b7f1f83e8575","system_id":"levelo_inurba_marseille","lat":43.29248,"lon":5.40908,"is_reserved":false,"is_disabled":false,"rental_uris":{"android":"levelo://app?vid=3da0f4a8-6878-4716-aca3-b7f1f83e8575","ios":"levelo://app?vid=3da0f4a8-6878-4716-aca3-b7f1f83e8575"},"vehicle_type_id":"4","last_reported":1777312721,"current_range_meters":4400,"station_id":"ce4bh192rcd13ifvqdc0","pricing_plan_id":"cebpf4jnsgd1na2vs0mg"},{"bike_id":"dd317c53-2df4-4e80-9d08-3831bdd9a715","system_id":"levelo_inurba_marseille","lat":43.28672,"lon":5.36357,"is_reserved":false,"is_disabled":false,"rental_uris":{"android":"levelo://app?vid=dd317c53-2df4-4e80-9d08-3831bdd9a715","ios":"levelo://app?vid=dd317c53-2df4-4e80-9d08-3831bdd9a715"},"vehicle_type_id":"4","last_reported":1777312721,"current_range_meters":4400,"station_id":"ce4bhah2rcd13ifvqej0","pricing_plan_id":"cebpf4jnsgd1na2vs0mg"},{"bike_id":"e2a3db73-500b-4326-a0e8-79d951dbfb5b","system_id":"levelo_inurba_marseille","lat":43.30053,"lon":5.37948,"is_reserved":false,"is_disabled":false,"rental_uris":{"android":"levelo://app?vid=e2a3db73-500b-4326-a0e8-79d951dbfb5b","ios":"levelo://app?vid=e2a3db73-500b-4326-a0e8-79d951dbfb5b"},"vehicle_type_id":"4","last_reported":1777312721,"current_range_meters":4400,"station_id":"","pricing_plan_id":"cebpf4jnsgd1na2vs0mg"},{"bike_id":"b8b4bd19-5dd7-4359-a457-6894d02ded5f","system_id":"levelo_inurba_marseille","lat":43.29641,"lon":5.406,"is_reserved":false,"is_disabled":false,"rental_uris":{"android":"levelo://app?vid=b8b4bd19-5dd7-4359-a457-6894d02ded5f","ios":"levelo://app?vid=b8b4bd19-5dd7-4359-a457-6894d02ded5f"},"vehicle_type_id":"4","last_reported":1777312721,"current_range_meters":4400,"station_id":"ce4bh0h2rcd13ifvqd60","pricing_plan_id":"cebpf4jnsgd1na2vs0mg"},{"bike_id":"a98062e0-468a-4ac6-9365-25397e1cc3cb","system_id":"levelo_inurba_marseille","lat":43.24392,"lon":5.37034,"is_reserved":false,"is_disabled":false,"rental_uris":{"android":"levelo://app?vid=a98062e0-468a-4ac6-9365-25397e1cc3cb","ios":"levelo://app?vid=a98062e0-468a-4ac6-9365-25397e1cc3cb"},"vehicle_type_id":"4","last_reported":1777312721,"current_range_meters":4400,"station_id":"ce4bhhh2rcd13ifvqfk0","pricing_plan_id":"cebpf4jnsgd1na2vs0mg"},{"bike_id":"dc1e6be9-36b7-4346-b6cc-8108319e0a78","system_id":"levelo_inurba_marseille","lat":43.30141,"lon":5.39874,"is_reserved":false,"is_disabled":false,"rental_uris":{"android":"levelo://app?vid=dc1e6be9-36b7-4346-b6cc-8108319e0a78","ios":"levelo://app?vid=dc1e6be9-36b7-4346-b6cc-8108319e0a78"},"vehicle_type_id":"4","last_reported":1777312721,"current_range_meters":4400,"station_id":"ce4bh0h2rcd13ifvqd40","pricing_plan_id":"cebpf4jnsgd1na2vs0mg"},{"bike_id":"94f49d78-9cb3-46f5-9b29-2c5a6bfee650","system_id":"levelo_inurba_marseille","lat":43.31141,"lon":5.38749,"is_reserved":false,"is_disabled":false,"rental_uris":{"android":"levelo://app?vid=94f49d78-9cb3-46f5-9b29-2c5a6bfee650","ios":"levelo://app?vid=94f49d78-9cb3-46f5-9b29-2c5a6bfee650"},"vehicle_type_id":"4","last_reported":1777312721,"current_range_meters":4800,"station_id":"ce4bgv12rcd13ifvqcp0","pricing_plan_id":"cebpf4jnsgd1na2vs0mg"},{"bike_id":"ad06fbeb-2893-47bd-9310-693ccba410e9","system_id":"levelo_inurba_marseille","lat":43.28763,"lon":5.46823,"is_reserved":false,"is_disabled":false,"rental_uris":{"android":"levelo://app?vid=ad06fbeb-2893-47bd-9310-693ccba410e9","ios":"levelo://app?vid=ad06fbeb-2893-47bd-9310-693ccba410e9"},"vehicle_type_id":"4","last_reported":1777312721,"current_range_meters":4800,"station_id":"","pricing_plan_id":"cebpf4jnsgd1na2vs0mg"},{"bike_id":"cf4537a9-051c-4080-9a3f-93f632ce0082","system_id":"levelo_inurba_marseille","lat":43.337444,"lon":5.374475,"is_reserved":false,"is_disabled":false,"rental_uris":{"android":"levelo://app?vid=cf4537a9-051c-4080-9a3f-93f632ce0082","ios":"levelo://app?vid=cf4537a9-051c-4080-9a3f-93f632ce0082"},"vehicle_type_id":"4","last_reported":1777312721,"current_range_meters":4800,"station_id":"","pricing_plan_id":"cebpf4jnsgd1na2vs0mg"},{"bike_id":"bdab1e31-d7ea-4c8e-b3d6-57aabe73b361","system_id":"levelo_inurba_marseille","lat":43.28587,"lon":5.39496,"is_reserved":false,"is_disabled":true,"rental_uris":{"android":"levelo://app?vid=bdab1e31-d7ea-4c8e-b3d6-57aabe73b361","ios":"levelo://app?vid=bdab1e31-d7ea-4c8e-b3d6-57aabe73b361"},"vehicle_type_id":"4","last_reported":1777312721,"current_range_meters":4800,"station_id":"ce4bh292rcd13ifvqdg0","pricing_plan_id":"cebpf4jnsgd1na2vs0mg"},{"bike_id":"8c81c8db-cfa8-4213-85aa-baaa142f7800","system_id":"levelo_inurba_marseille","lat":43.29003,"lon":5.35615,"is_reserved":false,"is_disabled":false,"rental_uris":{"android":"levelo://app?vid=8c81c8db-cfa8-4213-85aa-baaa142f7800","ios":"levelo://app?vid=8c81c8db-cfa8-4213-85aa-baaa142f7800"},"vehicle_type_id":"4","last_reported":1777312721,"current_range_meters":4800,"station_id":"ce4bhb92rcd13ifvqen0","pricing_plan_id":"cebpf4jnsgd1na2vs0mg"},{"bike_id":"b21748b2-fb24-4ee6-8e6a-c7c61264faec","system_id":"levelo_inurba_marseille","lat":43.27379,"lon":5.42208,"is_reserved":false,"is_disabled":false,"rental_uris":{"android":"levelo://app?vid=b21748b2-fb24-4ee6-8e6a-c7c61264faec","ios":"levelo://app?vid=b21748b2-fb24-4ee6-8e6a-c7c61264faec"},"vehicle_type_id":"4","last_reported":1777312721,"current_range_meters":4800,"station_id":"","pricing_plan_id":"cebpf4jnsgd1na2vs0mg"},{"bike_id":"0fb785a3-ff47-4788-a0cd-7153c2d5be60","system_id":"levelo_inurba_marseille","lat":43.320467,"lon":5.415194,"is_reserved":false,"is_disabled":false,"rental_uris":{"android":"levelo://app?vid=0fb785a3-ff47-4788-a0cd-7153c2d5be60","ios":"levelo://app?vid=0fb785a3-ff47-4788-a0cd-7153c2d5be60"},"vehicle_type_id":"4","last_reported":1777312721,"current_range_meters":4800,"station_id":"ce4bhq92rcd13ifvqhkg","pricing_plan_id":"cebpf4jnsgd1na2vs0mg"},{"bike_id":"e03a9553-f014-4591-84d1-bb481db182e5","system_id":"levelo_inurba_marseille","lat":43.28696,"lon":5.46685,"is_reserved":false,"is_disabled":false,"rental_uris":{"android":"levelo://app?vid=e03a9553-f014-4591-84d1-bb481db182e5","ios":"levelo://app?vid=e03a9553-f014-4591-84d1-bb481db182e5"},"vehicle_type_id":"4","last_reported":1777312721,"current_range_meters":4800,"station_id":"st_d6tc3vkotcvc738tfjhg","pricing_plan_id":"cebpf4jnsgd1na2vs0mg"},{"bike_id":"7e9bf546-030f-42d7-a23e-80dd7f166840","system_id":"levelo_inurba_marseille","lat":43.29001,"lon":5.35612,"is_reserved":false,"is_disabled":false,"rental_uris":{"android":"levelo://app?vid=7e9bf546-030f-42d7-a23e-80dd7f166840","ios":"levelo://app?vid=7e9bf546-030f-42d7-a23e-80dd7f166840"},"vehicle_type_id":"4","last_reported":1777312721,"current_range_meters":4800,"station_id":"ce4bhb92rcd13ifvqen0","pricing_plan_id":"cebpf4jnsgd1na2vs0mg"},{"bike_id":"a59e1397-18bb-409d-ab87-ed20d30b07fb","system_id":"levelo_inurba_marseille","lat":43.29021,"lon":5.38142,"is_reserved":false,"is_disabled":false,"rental_uris":{"android":"levelo://app?vid=a59e1397-18bb-409d-ab87-ed20d30b07fb","ios":"levelo://app?vid=a59e1397-18bb-409d-ab87-ed20d30b07fb"},"vehicle_type_id":"4","last_reported":1777312721,"current_range_meters":4800,"station_id":"ce4bh4p2rcd13ifvqe1g","pricing_plan_id":"cebpf4jnsgd1na2vs0mg"},{"bike_id":"69a2d223-bf66-4571-9613-79c65e1e1d32","system_id":"levelo_inurba_marseille","lat":43.29704,"lon":5.36609,"is_reserved":false,"is_disabled":false,"rental_uris":{"android":"levelo://app?vid=69a2d223-bf66-4571-9613-79c65e1e1d32","ios":"levelo://app?vid=69a2d223-bf66-4571-9613-79c65e1e1d32"},"vehicle_type_id":"4","last_reported":1777312721,"current_range_meters":4800,"station_id":"ce4bgn12rcd13ifvqbt0","pricing_plan_id":"cebpf4jnsgd1na2vs0mg"},{"bike_id":"91e4eed8-7aa0-4ca6-bc8b-33ffc5693469","system_id":"levelo_inurba_marseille","lat":43.31334,"lon":5.37908,"is_reserved":false,"is_disabled":false,"rental_uris":{"android":"levelo://app?vid=91e4eed8-7aa0-4ca6-bc8b-33ffc5693469","ios":"levelo://app?vid=91e4eed8-7aa0-4ca6-bc8b-33ffc5693469"},"vehicle_type_id":"4","last_reported":1777312721,"current_range_meters":5600,"station_id":"","pricing_plan_id":"cebpf4jnsgd1na2vs0mg"},{"bike_id":"d2a170e9-4683-45e4-8ad8-6a20e503868b","system_id":"levelo_inurba_marseille","lat":43.2551,"lon":5.37659,"is_reserved":false,"is_disabled":true,"rental_uris":{"android":"levelo://app?vid=d2a170e9-4683-45e4-8ad8-6a20e503868b","ios":"levelo://app?vid=d2a170e9-4683-45e4-8ad8-6a20e503868b"},"vehicle_type_id":"4","last_reported":1777312721,"current_range_meters":5600,"station_id":"ce4bhh12rcd13ifvqff0","pricing_plan_id":"cebpf4jnsgd1na2vs0mg"},{"bike_id":"37d27924-d70b-4abf-b9cd-64acbdd06142","system_id":"levelo_inurba_marseille","lat":43.29288,"lon":5.40866,"is_reserved":false,"is_disabled":false,"rental_uris":{"android":"levelo://app?vid=37d27924-d70b-4abf-b9cd-64acbdd06142","ios":"levelo://app?vid=37d27924-d70b-4abf-b9cd-64acbdd06142"},"vehicle_type_id":"4","last_reported":1777312721,"current_range_meters":5600,"station_id":"ce4bh192rcd13ifvqdc0","pricing_plan_id":"cebpf4jnsgd1na2vs0mg"},{"bike_id":"857afe8d-0afc-4ff7-bb19-627f3197cacc","system_id":"levelo_inurba_marseille","lat":43.265554,"lon":5.372792,"is_reserved":false,"is_disabled":false,"rental_uris":{"android":"levelo://app?vid=857afe8d-0afc-4ff7-bb19-627f3197cacc","ios":"levelo://app?vid=857afe8d-0afc-4ff7-bb19-627f3197cacc"},"vehicle_type_id":"4","last_reported":1777312721,"current_range_meters":5600,"station_id":"ce4bhg12rcd13ifvqf70","pricing_plan_id":"cebpf4jnsgd1na2vs0mg"},{"bike_id":"593310f2-e1f3-47ad-841b-8858f25eadcd","system_id":"levelo_inurba_marseille","lat":43.28711,"lon":5.3739,"is_reserved":false,"is_disabled":false,"rental_uris":{"android":"levelo://app?vid=593310f2-e1f3-47ad-841b-8858f25eadcd","ios":"levelo://app?vid=593310f2-e1f3-47ad-841b-8858f25eadcd"},"vehicle_type_id":"4","last_reported":1777312721,"current_range_meters":5600,"station_id":"ce4bh3p2rcd13ifvqdq0","pricing_plan_id":"cebpf4jnsgd1na2vs0mg"},{"bike_id":"91b4005d-3fa8-44c6-a2fa-852527867f78","system_id":"levelo_inurba_marseille","lat":43.24172,"lon":5.364,"is_reserved":false,"is_disabled":false,"rental_uris":{"android":"levelo://app?vid=91b4005d-3fa8-44c6-a2fa-852527867f78","ios":"levelo://app?vid=91b4005d-3fa8-44c6-a2fa-852527867f78"},"vehicle_type_id":"4","last_reported":1777312721,"current_range_meters":5600,"station_id":"cpo36qri1sfpv3e86is0","pricing_plan_id":"cebpf4jnsgd1na2vs0mg"},{"bike_id":"0916966a-3808-4551-8fcc-cb87f7c42067","system_id":"levelo_inurba_marseille","lat":43.30281,"lon":5.37708,"is_reserved":false,"is_disabled":false,"rental_uris":{"android":"levelo://app?vid=0916966a-3808-4551-8fcc-cb87f7c42067","ios":"levelo://app?vid=0916966a-3808-4551-8fcc-cb87f7c42067"},"vehicle_type_id":"4","last_reported":1777312721,"current_range_meters":5600,"station_id":"ce4bguh2rcd13ifvqcj0","pricing_plan_id":"cebpf4jnsgd1na2vs0mg"},{"bike_id":"7e17da21-de27-4e4b-9912-876e46bc8a36","system_id":"levelo_inurba_marseille","lat":43.32117,"lon":5.36764,"is_reserved":false,"is_disabled":false,"rental_uris":{"android":"levelo://app?vid=7e17da21-de27-4e4b-9912-876e46bc8a36","ios":"levelo://app?vid=7e17da21-de27-4e4b-9912-876e46bc8a36"},"vehicle_type_id":"4","last_reported":1777312721,"current_range_meters":5600,"station_id":"ce4bhrh2rcd13ifvqhug","pricing_plan_id":"cebpf4jnsgd1na2vs0mg"},{"bike_id":"0911c253-53c6-47c8-b825-61f515c96a80","system_id":"levelo_inurba_marseille","lat":43.29002,"lon":5.35618,"is_reserved":false,"is_disabled":false,"rental_uris":{"android":"levelo://app?vid=0911c253-53c6-47c8-b825-61f515c96a80","ios":"levelo://app?vid=0911c253-53c6-47c8-b825-61f515c96a80"},"vehicle_type_id":"4","last_reported":1777312721,"current_range_meters":5600,"station_id":"ce4bhb92rcd13ifvqen0","pricing_plan_id":"cebpf4jnsgd1na2vs0mg"},{"bike_id":"50ebd43a-6839-4d6f-bd0f-caa4fd215e10","system_id":"levelo_inurba_marseille","lat":43.27815,"lon":5.40716,"is_reserved":false,"is_disabled":false,"rental_uris":{"android":"levelo://app?vid=50ebd43a-6839-4d6f-bd0f-caa4fd215e10","ios":"levelo://app?vid=50ebd43a-6839-4d6f-bd0f-caa4fd215e10"},"vehicle_type_id":"4","last_reported":1777312721,"current_range_meters":5600,"station_id":"ce4bhnh2rcd13ifvqgtg","pricing_plan_id":"cebpf4jnsgd1na2vs0mg"},{"bike_id":"017d1404-0900-4621-8a62-5b5967f2a7ca","system_id":"levelo_inurba_marseille","lat":43.28405,"lon":5.34994,"is_reserved":false,"is_disabled":false,"rental_uris":{"android":"levelo://app?vid=017d1404-0900-4621-8a62-5b5967f2a7ca","ios":"levelo://app?vid=017d1404-0900-4621-8a62-5b5967f2a7ca"},"vehicle_type_id":"4","last_reported":1777312721,"current_range_meters":5600,"station_id":"ce4bhbh2rcd13ifvqepg","pricing_plan_id":"cebpf4jnsgd1na2vs0mg"},{"bike_id":"798bbc68-4544-434f-b549-63bd79b3ada1","system_id":"levelo_inurba_marseille","lat":43.29816,"lon":5.40381,"is_reserved":false,"is_disabled":false,"rental_uris":{"android":"levelo://app?vid=798bbc68-4544-434f-b549-63bd79b3ada1","ios":"levelo://app?vid=798bbc68-4544-434f-b549-63bd79b3ada1"},"vehicle_type_id":"4","last_reported":1777312721,"current_range_meters":5600,"station_id":"ce4bh112rcd13ifvqd90","pricing_plan_id":"cebpf4jnsgd1na2vs0mg"},{"bike_id":"3aa4cb5e-8948-4eec-8e46-8344835cbaf2","system_id":"levelo_inurba_marseille","lat":43.31228,"lon":5.36892,"is_reserved":false,"is_disabled":false,"rental_uris":{"android":"levelo://app?vid=3aa4cb5e-8948-4eec-8e46-8344835cbaf2","ios":"levelo://app?vid=3aa4cb5e-8948-4eec-8e46-8344835cbaf2"},"vehicle_type_id":"4","last_reported":1777312721,"current_range_meters":5600,"station_id":"ce4bgl92rcd13ifvqbq0","pricing_plan_id":"cebpf4jnsgd1na2vs0mg"},{"bike_id":"54138c46-97ed-43b0-90af-a0804980b815","system_id":"levelo_inurba_marseille","lat":43.28623,"lon":5.35112,"is_reserved":false,"is_disabled":false,"rental_uris":{"android":"levelo://app?vid=54138c46-97ed-43b0-90af-a0804980b815","ios":"levelo://app?vid=54138c46-97ed-43b0-90af-a0804980b815"},"vehicle_type_id":"4","last_reported":1777312721,"current_range_meters":5600,"station_id":"ce4bhch2rcd13ifvqeug","pricing_plan_id":"cebpf4jnsgd1na2vs0mg"},{"bike_id":"127186fe-87fe-4347-8c14-2b72a4effa84","system_id":"levelo_inurba_marseille","lat":43.32095,"lon":5.36766,"is_reserved":false,"is_disabled":false,"rental_uris":{"android":"levelo://app?vid=127186fe-87fe-4347-8c14-2b72a4effa84","ios":"levelo://app?vid=127186fe-87fe-4347-8c14-2b72a4effa84"},"vehicle_type_id":"4","last_reported":1777312721,"current_range_meters":5600,"station_id":"ce4bhrh2rcd13ifvqhug","pricing_plan_id":"cebpf4jnsgd1na2vs0mg"},{"bike_id":"ae58471f-dc7a-41cf-b654-2306742b4254","system_id":"levelo_inurba_marseille","lat":43.23779,"lon":5.36637,"is_reserved":false,"is_disabled":false,"rental_uris":{"android":"levelo://app?vid=ae58471f-dc7a-41cf-b654-2306742b4254","ios":"levelo://app?vid=ae58471f-dc7a-41cf-b654-2306742b4254"},"vehicle_type_id":"4","last_reported":1777312721,"current_range_meters":5600,"station_id":"st_d3nk18o9ro0c73en2l3g","pricing_plan_id":"cebpf4jnsgd1na2vs0mg"},{"bike_id":"221e18b3-c542-4e20-9aeb-d72dec2af0dc","system_id":"levelo_inurba_marseille","lat":43.24811,"lon":5.37461,"is_reserved":false,"is_disabled":false,"rental_uris":{"android":"levelo://app?vid=221e18b3-c542-4e20-9aeb-d72dec2af0dc","ios":"levelo://app?vid=221e18b3-c542-4e20-9aeb-d72dec2af0dc"},"vehicle_type_id":"4","last_reported":1777312721,"current_range_meters":5600,"station_id":"ce4bhgh2rcd13ifvqfb0","pricing_plan_id":"cebpf4jnsgd1na2vs0mg"},{"bike_id":"e892fc43-183a-4a12-9f44-43f43bf3c4aa","system_id":"levelo_inurba_marseille","lat":43.25545,"lon":5.3827,"is_reserved":false,"is_disabled":false,"rental_uris":{"android":"levelo://app?vid=e892fc43-183a-4a12-9f44-43f43bf3c4aa","ios":"levelo://app?vid=e892fc43-183a-4a12-9f44-43f43bf3c4aa"},"vehicle_type_id":"4","last_reported":1777312721,"current_range_meters":6000,"station_id":"ce4bhih2rcd13ifvqfs0","pricing_plan_id":"cebpf4jnsgd1na2vs0mg"},{"bike_id":"3a42ef60-5304-4eeb-bc15-b45ef255f93b","system_id":"levelo_inurba_marseille","lat":43.30538,"lon":5.38424,"is_reserved":false,"is_disabled":false,"rental_uris":{"android":"levelo://app?vid=3a42ef60-5304-4eeb-bc15-b45ef255f93b","ios":"levelo://app?vid=3a42ef60-5304-4eeb-bc15-b45ef255f93b"},"vehicle_type_id":"4","last_reported":1777312721,"current_range_meters":6000,"station_id":"ce4bgg92rcd13ifvqb30","pricing_plan_id":"cebpf4jnsgd1na2vs0mg"},{"bike_id":"3c9ce41d-7d0e-4321-95b6-f75f0599af83","system_id":"levelo_inurba_marseille","lat":43.27989,"lon":5.41653,"is_reserved":false,"is_disabled":false,"rental_uris":{"android":"levelo://app?vid=3c9ce41d-7d0e-4321-95b6-f75f0599af83","ios":"levelo://app?vid=3c9ce41d-7d0e-4321-95b6-f75f0599af83"},"vehicle_type_id":"4","last_reported":1777312721,"current_range_meters":6000,"station_id":"ce4bho12rcd13ifvqh1g","pricing_plan_id":"cebpf4jnsgd1na2vs0mg"},{"bike_id":"10d2c39a-e24d-4c10-9b33-f3f6db153578","system_id":"levelo_inurba_marseille","lat":43.31715,"lon":5.43707,"is_reserved":false,"is_disabled":false,"rental_uris":{"android":"levelo://app?vid=10d2c39a-e24d-4c10-9b33-f3f6db153578","ios":"levelo://app?vid=10d2c39a-e24d-4c10-9b33-f3f6db153578"},"vehicle_type_id":"4","last_reported":1777312721,"current_range_meters":6000,"station_id":"ce4bhp92rcd13ifvqhcg","pricing_plan_id":"cebpf4jnsgd1na2vs0mg"},{"bike_id":"4aadc920-af7f-4852-bda3-c0254242ea96","system_id":"levelo_inurba_marseille","lat":43.29173,"lon":5.37142,"is_reserved":false,"is_disabled":false,"rental_uris":{"android":"levelo://app?vid=4aadc920-af7f-4852-bda3-c0254242ea96","ios":"levelo://app?vid=4aadc920-af7f-4852-bda3-c0254242ea96"},"vehicle_type_id":"4","last_reported":1777312721,"current_range_meters":6000,"station_id":"ce4bha92rcd13ifvqeh0","pricing_plan_id":"cebpf4jnsgd1na2vs0mg"},{"bike_id":"ad26b8dc-edee-444c-8fc3-cb83169b331a","system_id":"levelo_inurba_marseille","lat":43.28177,"lon":5.4264,"is_reserved":false,"is_disabled":false,"rental_uris":{"android":"levelo://app?vid=ad26b8dc-edee-444c-8fc3-cb83169b331a","ios":"levelo://app?vid=ad26b8dc-edee-444c-8fc3-cb83169b331a"},"vehicle_type_id":"4","last_reported":1777312721,"current_range_meters":6000,"station_id":"ce4bhnh2rcd13ifvqgug","pricing_plan_id":"cebpf4jnsgd1na2vs0mg"},{"bike_id":"50f8bdff-b169-44f8-8920-840c94d5e30a","system_id":"levelo_inurba_marseille","lat":43.28479,"lon":5.48391,"is_reserved":false,"is_disabled":false,"rental_uris":{"android":"levelo://app?vid=50f8bdff-b169-44f8-8920-840c94d5e30a","ios":"levelo://app?vid=50f8bdff-b169-44f8-8920-840c94d5e30a"},"vehicle_type_id":"4","last_reported":1777312721,"current_range_meters":6000,"station_id":"","pricing_plan_id":"cebpf4jnsgd1na2vs0mg"},{"bike_id":"c24bbbf6-fe8e-47a4-943d-c8db7c839d08","system_id":"levelo_inurba_marseille","lat":43.28624,"lon":5.35098,"is_reserved":false,"is_disabled":false,"rental_uris":{"android":"levelo://app?vid=c24bbbf6-fe8e-47a4-943d-c8db7c839d08","ios":"levelo://app?vid=c24bbbf6-fe8e-47a4-943d-c8db7c839d08"},"vehicle_type_id":"4","last_reported":1777312721,"current_range_meters":6000,"station_id":"ce4bhch2rcd13ifvqeug","pricing_plan_id":"cebpf4jnsgd1na2vs0mg"},{"bike_id":"b5e877ad-28fc-4691-a240-d42667c0dba7","system_id":"levelo_inurba_marseille","lat":43.28265,"lon":5.35045,"is_reserved":false,"is_disabled":false,"rental_uris":{"android":"levelo://app?vid=b5e877ad-28fc-4691-a240-d42667c0dba7","ios":"levelo://app?vid=b5e877ad-28fc-4691-a240-d42667c0dba7"},"vehicle_type_id":"4","last_reported":1777312721,"current_range_meters":6000,"station_id":"ce4bhbp2rcd13ifvqerg","pricing_plan_id":"cebpf4jnsgd1na2vs0mg"},{"bike_id":"72bf9a09-457d-4c6b-a87e-0ad7c4be6c4a","system_id":"levelo_inurba_marseille","lat":43.32043,"lon":5.41541,"is_reserved":false,"is_disabled":false,"rental_uris":{"android":"levelo://app?vid=72bf9a09-457d-4c6b-a87e-0ad7c4be6c4a","ios":"levelo://app?vid=72bf9a09-457d-4c6b-a87e-0ad7c4be6c4a"},"vehicle_type_id":"4","last_reported":1777312721,"current_range_meters":6000,"station_id":"ce4bhq92rcd13ifvqhkg","pricing_plan_id":"cebpf4jnsgd1na2vs0mg"},{"bike_id":"9a5a7da1-0057-4d6f-9dbe-c032113d8d88","system_id":"levelo_inurba_marseille","lat":43.287009,"lon":5.373796,"is_reserved":false,"is_disabled":false,"rental_uris":{"android":"levelo://app?vid=9a5a7da1-0057-4d6f-9dbe-c032113d8d88","ios":"levelo://app?vid=9a5a7da1-0057-4d6f-9dbe-c032113d8d88"},"vehicle_type_id":"4","last_reported":1777312721,"current_range_meters":6000,"station_id":"ce4bh392rcd13ifvqdm0","pricing_plan_id":"cebpf4jnsgd1na2vs0mg"},{"bike_id":"0c04dc5c-4ad7-4dcf-8291-8a64ac9feca1","system_id":"levelo_inurba_marseille","lat":43.29843,"lon":5.36276,"is_reserved":false,"is_disabled":false,"rental_uris":{"android":"levelo://app?vid=0c04dc5c-4ad7-4dcf-8291-8a64ac9feca1","ios":"levelo://app?vid=0c04dc5c-4ad7-4dcf-8291-8a64ac9feca1"},"vehicle_type_id":"4","last_reported":1777312721,"current_range_meters":6000,"station_id":"ce4bgpp2rcd13ifvqc3g","pricing_plan_id":"cebpf4jnsgd1na2vs0mg"},{"bike_id":"e0ee212b-f740-4b9d-90cc-45a3756f102e","system_id":"levelo_inurba_marseille","lat":43.30533,"lon":5.36714,"is_reserved":false,"is_disabled":false,"rental_uris":{"android":"levelo://app?vid=e0ee212b-f740-4b9d-90cc-45a3756f102e","ios":"levelo://app?vid=e0ee212b-f740-4b9d-90cc-45a3756f102e"},"vehicle_type_id":"4","last_reported":1777312721,"current_range_meters":6000,"station_id":"ce4bgrp2rcd13ifvqc9g","pricing_plan_id":"cebpf4jnsgd1na2vs0mg"},{"bike_id":"54c7e04a-5431-46e9-a5e9-5a8f94ca6775","system_id":"levelo_inurba_marseille","lat":43.30146,"lon":5.38073,"is_reserved":false,"is_disabled":false,"rental_uris":{"android":"levelo://app?vid=54c7e04a-5431-46e9-a5e9-5a8f94ca6775","ios":"levelo://app?vid=54c7e04a-5431-46e9-a5e9-5a8f94ca6775"},"vehicle_type_id":"4","last_reported":1777312721,"current_range_meters":6000,"station_id":"ce4bgjp2rcd13ifvqbh0","pricing_plan_id":"cebpf4jnsgd1na2vs0mg"},{"bike_id":"5367fafd-42a5-4c52-bd35-5d85953af91c","system_id":"levelo_inurba_marseille","lat":43.31008,"lon":5.37909,"is_reserved":false,"is_disabled":true,"rental_uris":{"android":"levelo://app?vid=5367fafd-42a5-4c52-bd35-5d85953af91c","ios":"levelo://app?vid=5367fafd-42a5-4c52-bd35-5d85953af91c"},"vehicle_type_id":"4","last_reported":1777312721,"current_range_meters":6400,"station_id":"","pricing_plan_id":"cebpf4jnsgd1na2vs0mg"},{"bike_id":"ce83843f-6d15-48f4-a0ee-0c7aa98f8faa","system_id":"levelo_inurba_marseille","lat":43.28622,"lon":5.35106,"is_reserved":false,"is_disabled":false,"rental_uris":{"android":"levelo://app?vid=ce83843f-6d15-48f4-a0ee-0c7aa98f8faa","ios":"levelo://app?vid=ce83843f-6d15-48f4-a0ee-0c7aa98f8faa"},"vehicle_type_id":"4","last_reported":1777312721,"current_range_meters":6400,"station_id":"ce4bhch2rcd13ifvqeug","pricing_plan_id":"cebpf4jnsgd1na2vs0mg"},{"bike_id":"95fcacf0-7086-4a79-916d-eb3549d744d3","system_id":"levelo_inurba_marseille","lat":43.337444,"lon":5.374475,"is_reserved":false,"is_disabled":false,"rental_uris":{"android":"levelo://app?vid=95fcacf0-7086-4a79-916d-eb3549d744d3","ios":"levelo://app?vid=95fcacf0-7086-4a79-916d-eb3549d744d3"},"vehicle_type_id":"4","last_reported":1777312721,"current_range_meters":6400,"station_id":"","pricing_plan_id":"cebpf4jnsgd1na2vs0mg"},{"bike_id":"6cb677e5-3ed1-4b36-a619-e874ba89317d","system_id":"levelo_inurba_marseille","lat":43.28847,"lon":5.39298,"is_reserved":false,"is_disabled":false,"rental_uris":{"android":"levelo://app?vid=6cb677e5-3ed1-4b36-a619-e874ba89317d","ios":"levelo://app?vid=6cb677e5-3ed1-4b36-a619-e874ba89317d"},"vehicle_type_id":"4","last_reported":1777312721,"current_range_meters":6400,"station_id":"ce4bh2p2rcd13ifvqdi0","pricing_plan_id":"cebpf4jnsgd1na2vs0mg"},{"bike_id":"82bcc3f9-851c-40c5-8dd1-3ef732266381","system_id":"levelo_inurba_marseille","lat":43.30305,"lon":5.3923,"is_reserved":false,"is_disabled":false,"rental_uris":{"android":"levelo://app?vid=82bcc3f9-851c-40c5-8dd1-3ef732266381","ios":"levelo://app?vid=82bcc3f9-851c-40c5-8dd1-3ef732266381"},"vehicle_type_id":"4","last_reported":1777312721,"current_range_meters":6400,"station_id":"ce4bgkh2rcd13ifvqbk0","pricing_plan_id":"cebpf4jnsgd1na2vs0mg"},{"bike_id":"80b161cc-6e40-44e8-9454-73c670e460e2","system_id":"levelo_inurba_marseille","lat":43.28459,"lon":5.48386,"is_reserved":false,"is_disabled":false,"rental_uris":{"android":"levelo://app?vid=80b161cc-6e40-44e8-9454-73c670e460e2","ios":"levelo://app?vid=80b161cc-6e40-44e8-9454-73c670e460e2"},"vehicle_type_id":"4","last_reported":1777312721,"current_range_meters":6400,"station_id":"","pricing_plan_id":"cebpf4jnsgd1na2vs0mg"},{"bike_id":"cddfc6b6-f3a5-4488-b0aa-8013a28a6b20","system_id":"levelo_inurba_marseille","lat":43.30412,"lon":5.41278,"is_reserved":false,"is_disabled":false,"rental_uris":{"android":"levelo://app?vid=cddfc6b6-f3a5-4488-b0aa-8013a28a6b20","ios":"levelo://app?vid=cddfc6b6-f3a5-4488-b0aa-8013a28a6b20"},"vehicle_type_id":"4","last_reported":1777312721,"current_range_meters":6400,"station_id":"ce4bhop2rcd13ifvqh8g","pricing_plan_id":"cebpf4jnsgd1na2vs0mg"},{"bike_id":"0738b116-46d6-4576-94a4-021d359c563e","system_id":"levelo_inurba_marseille","lat":43.28344,"lon":5.38115,"is_reserved":false,"is_disabled":false,"rental_uris":{"android":"levelo://app?vid=0738b116-46d6-4576-94a4-021d359c563e","ios":"levelo://app?vid=0738b116-46d6-4576-94a4-021d359c563e"},"vehicle_type_id":"4","last_reported":1777312721,"current_range_meters":6400,"station_id":"ce4bh412rcd13ifvqdr0","pricing_plan_id":"cebpf4jnsgd1na2vs0mg"},{"bike_id":"cf6f9da4-c524-47d5-979c-a7bd2fb7cd33","system_id":"levelo_inurba_marseille","lat":43.27611,"lon":5.36106,"is_reserved":false,"is_disabled":false,"rental_uris":{"android":"levelo://app?vid=cf6f9da4-c524-47d5-979c-a7bd2fb7cd33","ios":"levelo://app?vid=cf6f9da4-c524-47d5-979c-a7bd2fb7cd33"},"vehicle_type_id":"4","last_reported":1777312721,"current_range_meters":6400,"station_id":"ce4bgj92rcd13ifvqbe0","pricing_plan_id":"cebpf4jnsgd1na2vs0mg"},{"bike_id":"f34173ba-e522-42fc-89f1-ad871c6b29c4","system_id":"levelo_inurba_marseille","lat":43.29482,"lon":5.43305,"is_reserved":false,"is_disabled":false,"rental_uris":{"android":"levelo://app?vid=f34173ba-e522-42fc-89f1-ad871c6b29c4","ios":"levelo://app?vid=f34173ba-e522-42fc-89f1-ad871c6b29c4"},"vehicle_type_id":"4","last_reported":1777312721,"current_range_meters":6800,"station_id":"st_d3j5ugp08ojc73fj9d10","pricing_plan_id":"cebpf4jnsgd1na2vs0mg"},{"bike_id":"d91a79ea-757d-4fb0-822d-efffb3df9a9a","system_id":"levelo_inurba_marseille","lat":43.24645,"lon":5.38896,"is_reserved":false,"is_disabled":false,"rental_uris":{"android":"levelo://app?vid=d91a79ea-757d-4fb0-822d-efffb3df9a9a","ios":"levelo://app?vid=d91a79ea-757d-4fb0-822d-efffb3df9a9a"},"vehicle_type_id":"4","last_reported":1777312721,"current_range_meters":6800,"station_id":"ce4bhg12rcd13ifvqf60","pricing_plan_id":"cebpf4jnsgd1na2vs0mg"},{"bike_id":"2519ee8d-92c6-419f-941a-6566274d07bb","system_id":"levelo_inurba_marseille","lat":43.30892,"lon":5.39627,"is_reserved":false,"is_disabled":false,"rental_uris":{"android":"levelo://app?vid=2519ee8d-92c6-419f-941a-6566274d07bb","ios":"levelo://app?vid=2519ee8d-92c6-419f-941a-6566274d07bb"},"vehicle_type_id":"4","last_reported":1777312721,"current_range_meters":6800,"station_id":"ce4bh012rcd13ifvqcv0","pricing_plan_id":"cebpf4jnsgd1na2vs0mg"},{"bike_id":"4ba88d8e-2daa-44b9-94a7-860408423931","system_id":"levelo_inurba_marseille","lat":43.30429,"lon":5.3888,"is_reserved":false,"is_disabled":false,"rental_uris":{"android":"levelo://app?vid=4ba88d8e-2daa-44b9-94a7-860408423931","ios":"levelo://app?vid=4ba88d8e-2daa-44b9-94a7-860408423931"},"vehicle_type_id":"4","last_reported":1777312721,"current_range_meters":6800,"station_id":"ce4bgk12rcd13ifvqbi0","pricing_plan_id":"cebpf4jnsgd1na2vs0mg"},{"bike_id":"6b9ceb44-f98b-4474-bf14-5e53602be7a5","system_id":"levelo_inurba_marseille","lat":43.33538,"lon":5.3747,"is_reserved":false,"is_disabled":false,"rental_uris":{"android":"levelo://app?vid=6b9ceb44-f98b-4474-bf14-5e53602be7a5","ios":"levelo://app?vid=6b9ceb44-f98b-4474-bf14-5e53602be7a5"},"vehicle_type_id":"4","last_reported":1777312721,"current_range_meters":6800,"station_id":"st_d46tts09ee8s73dlu43g","pricing_plan_id":"cebpf4jnsgd1na2vs0mg"},{"bike_id":"44620b1b-5f85-41e4-9394-c720a89b90ed","system_id":"levelo_inurba_marseille","lat":43.32047,"lon":5.41526,"is_reserved":false,"is_disabled":false,"rental_uris":{"android":"levelo://app?vid=44620b1b-5f85-41e4-9394-c720a89b90ed","ios":"levelo://app?vid=44620b1b-5f85-41e4-9394-c720a89b90ed"},"vehicle_type_id":"4","last_reported":1777312721,"current_range_meters":6800,"station_id":"ce4bhq92rcd13ifvqhkg","pricing_plan_id":"cebpf4jnsgd1na2vs0mg"},{"bike_id":"2e013045-b635-4629-a87d-995ec1628a85","system_id":"levelo_inurba_marseille","lat":43.32098,"lon":5.36765,"is_reserved":false,"is_disabled":false,"rental_uris":{"android":"levelo://app?vid=2e013045-b635-4629-a87d-995ec1628a85","ios":"levelo://app?vid=2e013045-b635-4629-a87d-995ec1628a85"},"vehicle_type_id":"4","last_reported":1777312721,"current_range_meters":6800,"station_id":"ce4bhrh2rcd13ifvqhug","pricing_plan_id":"cebpf4jnsgd1na2vs0mg"},{"bike_id":"b5764690-3a53-4ad0-a376-f11b71d74231","system_id":"levelo_inurba_marseille","lat":43.28615,"lon":5.39872,"is_reserved":false,"is_disabled":false,"rental_uris":{"android":"levelo://app?vid=b5764690-3a53-4ad0-a376-f11b71d74231","ios":"levelo://app?vid=b5764690-3a53-4ad0-a376-f11b71d74231"},"vehicle_type_id":"4","last_reported":1777312721,"current_range_meters":6800,"station_id":"st_d4a7ka997mjs738ck50g","pricing_plan_id":"cebpf4jnsgd1na2vs0mg"},{"bike_id":"cd526b47-ae05-404d-a2e3-8e68a29567e0","system_id":"levelo_inurba_marseille","lat":43.29866,"lon":5.39729,"is_reserved":false,"is_disabled":false,"rental_uris":{"android":"levelo://app?vid=cd526b47-ae05-404d-a2e3-8e68a29567e0","ios":"levelo://app?vid=cd526b47-ae05-404d-a2e3-8e68a29567e0"},"vehicle_type_id":"4","last_reported":1777312721,"current_range_meters":6800,"station_id":"ce4bh0h2rcd13ifvqd50","pricing_plan_id":"cebpf4jnsgd1na2vs0mg"},{"bike_id":"219e540d-d255-4090-a809-09c29ed83879","system_id":"levelo_inurba_marseille","lat":43.29525,"lon":5.3904,"is_reserved":false,"is_disabled":false,"rental_uris":{"android":"levelo://app?vid=219e540d-d255-4090-a809-09c29ed83879","ios":"levelo://app?vid=219e540d-d255-4090-a809-09c29ed83879"},"vehicle_type_id":"4","last_reported":1777312721,"current_range_meters":6800,"station_id":"ce4bh3p2rcd13ifvqdp0","pricing_plan_id":"cebpf4jnsgd1na2vs0mg"},{"bike_id":"adee5ba9-bb5f-4511-836d-4f937c8574e9","system_id":"levelo_inurba_marseille","lat":43.27914,"lon":5.39585,"is_reserved":false,"is_disabled":false,"rental_uris":{"android":"levelo://app?vid=adee5ba9-bb5f-4511-836d-4f937c8574e9","ios":"levelo://app?vid=adee5ba9-bb5f-4511-836d-4f937c8574e9"},"vehicle_type_id":"4","last_reported":1777312721,"current_range_meters":6800,"station_id":"ce4bhf92rcd13ifvqf40","pricing_plan_id":"cebpf4jnsgd1na2vs0mg"},{"bike_id":"781d8d3d-fabf-4ca2-9f47-16929586692d","system_id":"levelo_inurba_marseille","lat":43.27516,"lon":5.43483,"is_reserved":false,"is_disabled":false,"rental_uris":{"android":"levelo://app?vid=781d8d3d-fabf-4ca2-9f47-16929586692d","ios":"levelo://app?vid=781d8d3d-fabf-4ca2-9f47-16929586692d"},"vehicle_type_id":"4","last_reported":1777312721,"current_range_meters":6800,"station_id":"","pricing_plan_id":"cebpf4jnsgd1na2vs0mg"},{"bike_id":"282ffbf9-fbf3-4d44-bf2f-1929132e9e08","system_id":"levelo_inurba_marseille","lat":43.26549,"lon":5.37285,"is_reserved":false,"is_disabled":false,"rental_uris":{"android":"levelo://app?vid=282ffbf9-fbf3-4d44-bf2f-1929132e9e08","ios":"levelo://app?vid=282ffbf9-fbf3-4d44-bf2f-1929132e9e08"},"vehicle_type_id":"4","last_reported":1777312721,"current_range_meters":6800,"station_id":"ce4bhg12rcd13ifvqf70","pricing_plan_id":"cebpf4jnsgd1na2vs0mg"},{"bike_id":"c62c1fa8-d9f3-4d39-abae-b21751072764","system_id":"levelo_inurba_marseille","lat":43.28418,"lon":5.34989,"is_reserved":false,"is_disabled":false,"rental_uris":{"android":"levelo://app?vid=c62c1fa8-d9f3-4d39-abae-b21751072764","ios":"levelo://app?vid=c62c1fa8-d9f3-4d39-abae-b21751072764"},"vehicle_type_id":"4","last_reported":1777312721,"current_range_meters":6800,"station_id":"ce4bhbh2rcd13ifvqepg","pricing_plan_id":"cebpf4jnsgd1na2vs0mg"},{"bike_id":"7f1c4436-043d-4972-ac32-9815ec7b848f","system_id":"levelo_inurba_marseille","lat":43.29283,"lon":5.36838,"is_reserved":false,"is_disabled":false,"rental_uris":{"android":"levelo://app?vid=7f1c4436-043d-4972-ac32-9815ec7b848f","ios":"levelo://app?vid=7f1c4436-043d-4972-ac32-9815ec7b848f"},"vehicle_type_id":"4","last_reported":1777312721,"current_range_meters":6800,"station_id":"ce4bhbp2rcd13ifvqesg","pricing_plan_id":"cebpf4jnsgd1na2vs0mg"},{"bike_id":"bbd4b557-3184-4427-af74-50a1783bcb30","system_id":"levelo_inurba_marseille","lat":43.28635,"lon":5.35089,"is_reserved":false,"is_disabled":false,"rental_uris":{"android":"levelo://app?vid=bbd4b557-3184-4427-af74-50a1783bcb30","ios":"levelo://app?vid=bbd4b557-3184-4427-af74-50a1783bcb30"},"vehicle_type_id":"4","last_reported":1777312721,"current_range_meters":6800,"station_id":"ce4bhch2rcd13ifvqeug","pricing_plan_id":"cebpf4jnsgd1na2vs0mg"},{"bike_id":"6c0e44b5-b4c6-4989-a0ec-b3c6d257ac1d","system_id":"levelo_inurba_marseille","lat":43.33186,"lon":5.37828,"is_reserved":false,"is_disabled":false,"rental_uris":{"android":"levelo://app?vid=6c0e44b5-b4c6-4989-a0ec-b3c6d257ac1d","ios":"levelo://app?vid=6c0e44b5-b4c6-4989-a0ec-b3c6d257ac1d"},"vehicle_type_id":"4","last_reported":1777312721,"current_range_meters":7200,"station_id":"","pricing_plan_id":"cebpf4jnsgd1na2vs0mg"},{"bike_id":"78930480-a8fe-4571-8fc9-34aa08fb094a","system_id":"levelo_inurba_marseille","lat":43.30251,"lon":5.40056,"is_reserved":false,"is_disabled":false,"rental_uris":{"android":"levelo://app?vid=78930480-a8fe-4571-8fc9-34aa08fb094a","ios":"levelo://app?vid=78930480-a8fe-4571-8fc9-34aa08fb094a"},"vehicle_type_id":"4","last_reported":1777312721,"current_range_meters":7200,"station_id":"ce4bgvh2rcd13ifvqcs0","pricing_plan_id":"cebpf4jnsgd1na2vs0mg"},{"bike_id":"f30b1245-3c90-4c33-b3ab-1025337ea6c2","system_id":"levelo_inurba_marseille","lat":43.29318,"lon":5.3716,"is_reserved":false,"is_disabled":false,"rental_uris":{"android":"levelo://app?vid=f30b1245-3c90-4c33-b3ab-1025337ea6c2","ios":"levelo://app?vid=f30b1245-3c90-4c33-b3ab-1025337ea6c2"},"vehicle_type_id":"4","last_reported":1777312721,"current_range_meters":7200,"station_id":"ce4bgh92rcd13ifvqb40","pricing_plan_id":"cebpf4jnsgd1na2vs0mg"},{"bike_id":"2f755aa1-105e-447f-807e-a8d37a45e600","system_id":"levelo_inurba_marseille","lat":43.28975,"lon":5.39288,"is_reserved":false,"is_disabled":false,"rental_uris":{"android":"levelo://app?vid=2f755aa1-105e-447f-807e-a8d37a45e600","ios":"levelo://app?vid=2f755aa1-105e-447f-807e-a8d37a45e600"},"vehicle_type_id":"4","last_reported":1777312721,"current_range_meters":7200,"station_id":"","pricing_plan_id":"cebpf4jnsgd1na2vs0mg"},{"bike_id":"8f13b61e-8a25-4927-8213-0f8d3090195b","system_id":"levelo_inurba_marseille","lat":43.28481,"lon":5.48397,"is_reserved":false,"is_disabled":false,"rental_uris":{"android":"levelo://app?vid=8f13b61e-8a25-4927-8213-0f8d3090195b","ios":"levelo://app?vid=8f13b61e-8a25-4927-8213-0f8d3090195b"},"vehicle_type_id":"4","last_reported":1777312721,"current_range_meters":7200,"station_id":"","pricing_plan_id":"cebpf4jnsgd1na2vs0mg"},{"bike_id":"a6d64770-233f-4d48-b75e-58c6bb811778","system_id":"levelo_inurba_marseille","lat":43.27372,"lon":5.3626,"is_reserved":false,"is_disabled":false,"rental_uris":{"android":"levelo://app?vid=a6d64770-233f-4d48-b75e-58c6bb811778","ios":"levelo://app?vid=a6d64770-233f-4d48-b75e-58c6bb811778"},"vehicle_type_id":"4","last_reported":1777312721,"current_range_meters":7200,"station_id":"ce4bhbh2rcd13ifvqeo0","pricing_plan_id":"cebpf4jnsgd1na2vs0mg"},{"bike_id":"12811a9c-eb10-4b33-9d8f-ee152e8f6264","system_id":"levelo_inurba_marseille","lat":43.26067,"lon":5.39393,"is_reserved":false,"is_disabled":false,"rental_uris":{"android":"levelo://app?vid=12811a9c-eb10-4b33-9d8f-ee152e8f6264","ios":"levelo://app?vid=12811a9c-eb10-4b33-9d8f-ee152e8f6264"},"vehicle_type_id":"4","last_reported":1777312721,"current_range_meters":7200,"station_id":"ce4bhh92rcd13ifvqfj0","pricing_plan_id":"cebpf4jnsgd1na2vs0mg"},{"bike_id":"df328259-bad9-4e3d-bb17-d852955a2a91","system_id":"levelo_inurba_marseille","lat":43.2953,"lon":5.38539,"is_reserved":false,"is_disabled":false,"rental_uris":{"android":"levelo://app?vid=df328259-bad9-4e3d-bb17-d852955a2a91","ios":"levelo://app?vid=df328259-bad9-4e3d-bb17-d852955a2a91"},"vehicle_type_id":"4","last_reported":1777312721,"current_range_meters":7200,"station_id":"ce4bgih2rcd13ifvqba0","pricing_plan_id":"cebpf4jnsgd1na2vs0mg"},{"bike_id":"55ffa9cb-0e63-4320-8c55-2d765a24cf5f","system_id":"levelo_inurba_marseille","lat":43.24173,"lon":5.36397,"is_reserved":false,"is_disabled":false,"rental_uris":{"android":"levelo://app?vid=55ffa9cb-0e63-4320-8c55-2d765a24cf5f","ios":"levelo://app?vid=55ffa9cb-0e63-4320-8c55-2d765a24cf5f"},"vehicle_type_id":"4","last_reported":1777312721,"current_range_meters":7200,"station_id":"cpo36qri1sfpv3e86is0","pricing_plan_id":"cebpf4jnsgd1na2vs0mg"},{"bike_id":"0e3cc8df-be6a-4c18-83e9-1efe01d2c1a6","system_id":"levelo_inurba_marseille","lat":43.26567,"lon":5.3904,"is_reserved":false,"is_disabled":false,"rental_uris":{"android":"levelo://app?vid=0e3cc8df-be6a-4c18-83e9-1efe01d2c1a6","ios":"levelo://app?vid=0e3cc8df-be6a-4c18-83e9-1efe01d2c1a6"},"vehicle_type_id":"4","last_reported":1777312721,"current_range_meters":7200,"station_id":"ce4bhe12rcd13ifvqf30","pricing_plan_id":"cebpf4jnsgd1na2vs0mg"},{"bike_id":"0a5a3ac5-e405-4d55-b971-b42d5be0aa52","system_id":"levelo_inurba_marseille","lat":43.28415,"lon":5.35002,"is_reserved":false,"is_disabled":false,"rental_uris":{"android":"levelo://app?vid=0a5a3ac5-e405-4d55-b971-b42d5be0aa52","ios":"levelo://app?vid=0a5a3ac5-e405-4d55-b971-b42d5be0aa52"},"vehicle_type_id":"4","last_reported":1777312721,"current_range_meters":7200,"station_id":"ce4bhbh2rcd13ifvqepg","pricing_plan_id":"cebpf4jnsgd1na2vs0mg"},{"bike_id":"4cc93a1e-f7e6-4d31-bc01-631469b79c85","system_id":"levelo_inurba_marseille","lat":43.27369,"lon":5.36258,"is_reserved":false,"is_disabled":false,"rental_uris":{"android":"levelo://app?vid=4cc93a1e-f7e6-4d31-bc01-631469b79c85","ios":"levelo://app?vid=4cc93a1e-f7e6-4d31-bc01-631469b79c85"},"vehicle_type_id":"4","last_reported":1777312721,"current_range_meters":7200,"station_id":"ce4bhbh2rcd13ifvqeo0","pricing_plan_id":"cebpf4jnsgd1na2vs0mg"},{"bike_id":"c2194904-3525-4c0a-b545-77990157675e","system_id":"levelo_inurba_marseille","lat":43.29797,"lon":5.40394,"is_reserved":false,"is_disabled":false,"rental_uris":{"android":"levelo://app?vid=c2194904-3525-4c0a-b545-77990157675e","ios":"levelo://app?vid=c2194904-3525-4c0a-b545-77990157675e"},"vehicle_type_id":"4","last_reported":1777312721,"current_range_meters":7200,"station_id":"ce4bh112rcd13ifvqd90","pricing_plan_id":"cebpf4jnsgd1na2vs0mg"},{"bike_id":"6b8549bf-30d2-490f-8f61-d9ca43e4d06c","system_id":"levelo_inurba_marseille","lat":43.27017,"lon":5.40243,"is_reserved":false,"is_disabled":false,"rental_uris":{"android":"levelo://app?vid=6b8549bf-30d2-490f-8f61-d9ca43e4d06c","ios":"levelo://app?vid=6b8549bf-30d2-490f-8f61-d9ca43e4d06c"},"vehicle_type_id":"4","last_reported":1777312721,"current_range_meters":7200,"station_id":"ce4bhk92rcd13ifvqgc0","pricing_plan_id":"cebpf4jnsgd1na2vs0mg"},{"bike_id":"d4a6be79-1fc6-4e75-923b-d4afa8bb3db8","system_id":"levelo_inurba_marseille","lat":43.29801,"lon":5.38106,"is_reserved":false,"is_disabled":false,"rental_uris":{"android":"levelo://app?vid=d4a6be79-1fc6-4e75-923b-d4afa8bb3db8","ios":"levelo://app?vid=d4a6be79-1fc6-4e75-923b-d4afa8bb3db8"},"vehicle_type_id":"4","last_reported":1777312721,"current_range_meters":7200,"station_id":"ce4bgip2rcd13ifvqbb0","pricing_plan_id":"cebpf4jnsgd1na2vs0mg"},{"bike_id":"bf755b54-9bfc-4f5a-b759-04d952b762e5","system_id":"levelo_inurba_marseille","lat":43.24398,"lon":5.37054,"is_reserved":false,"is_disabled":false,"rental_uris":{"android":"levelo://app?vid=bf755b54-9bfc-4f5a-b759-04d952b762e5","ios":"levelo://app?vid=bf755b54-9bfc-4f5a-b759-04d952b762e5"},"vehicle_type_id":"4","last_reported":1777312721,"current_range_meters":7200,"station_id":"ce4bhhh2rcd13ifvqfk0","pricing_plan_id":"cebpf4jnsgd1na2vs0mg"},{"bike_id":"f68f1035-28b2-4d29-bb46-2eba59d9dd05","system_id":"levelo_inurba_marseille","lat":43.29045,"lon":5.359251,"is_reserved":false,"is_disabled":false,"rental_uris":{"android":"levelo://app?vid=f68f1035-28b2-4d29-bb46-2eba59d9dd05","ios":"levelo://app?vid=f68f1035-28b2-4d29-bb46-2eba59d9dd05"},"vehicle_type_id":"4","last_reported":1777312721,"current_range_meters":7200,"station_id":"ce4bha92rcd13ifvqeg0","pricing_plan_id":"cebpf4jnsgd1na2vs0mg"},{"bike_id":"f13fe151-afeb-4327-9952-17422c4d2706","system_id":"levelo_inurba_marseille","lat":43.25372,"lon":5.41921,"is_reserved":false,"is_disabled":false,"rental_uris":{"android":"levelo://app?vid=f13fe151-afeb-4327-9952-17422c4d2706","ios":"levelo://app?vid=f13fe151-afeb-4327-9952-17422c4d2706"},"vehicle_type_id":"4","last_reported":1777312721,"current_range_meters":7200,"station_id":"","pricing_plan_id":"cebpf4jnsgd1na2vs0mg"},{"bike_id":"d20ccda7-29ef-4aa5-bbf2-63f1e6c3dcf5","system_id":"levelo_inurba_marseille","lat":43.32129,"lon":5.36767,"is_reserved":false,"is_disabled":false,"rental_uris":{"android":"levelo://app?vid=d20ccda7-29ef-4aa5-bbf2-63f1e6c3dcf5","ios":"levelo://app?vid=d20ccda7-29ef-4aa5-bbf2-63f1e6c3dcf5"},"vehicle_type_id":"4","last_reported":1777312721,"current_range_meters":7200,"station_id":"ce4bhrh2rcd13ifvqhug","pricing_plan_id":"cebpf4jnsgd1na2vs0mg"},{"bike_id":"d1167cff-94b0-4e38-b6b6-a4d448e9f1f6","system_id":"levelo_inurba_marseille","lat":43.30188,"lon":5.36625,"is_reserved":false,"is_disabled":false,"rental_uris":{"android":"levelo://app?vid=d1167cff-94b0-4e38-b6b6-a4d448e9f1f6","ios":"levelo://app?vid=d1167cff-94b0-4e38-b6b6-a4d448e9f1f6"},"vehicle_type_id":"4","last_reported":1777312721,"current_range_meters":7200,"station_id":"ce4bgrh2rcd13ifvqc8g","pricing_plan_id":"cebpf4jnsgd1na2vs0mg"},{"bike_id":"7d24a3ee-0eb9-47a1-8904-33af700bdc69","system_id":"levelo_inurba_marseille","lat":43.28498,"lon":5.48373,"is_reserved":false,"is_disabled":false,"rental_uris":{"android":"levelo://app?vid=7d24a3ee-0eb9-47a1-8904-33af700bdc69","ios":"levelo://app?vid=7d24a3ee-0eb9-47a1-8904-33af700bdc69"},"vehicle_type_id":"4","last_reported":1777312721,"current_range_meters":8000,"station_id":"st_d3svhcjqgbts73a3dn0g","pricing_plan_id":"cebpf4jnsgd1na2vs0mg"},{"bike_id":"7c4235ab-4001-41ac-b909-039a90df962e","system_id":"levelo_inurba_marseille","lat":43.31271,"lon":5.3775,"is_reserved":false,"is_disabled":false,"rental_uris":{"android":"levelo://app?vid=7c4235ab-4001-41ac-b909-039a90df962e","ios":"levelo://app?vid=7c4235ab-4001-41ac-b909-039a90df962e"},"vehicle_type_id":"4","last_reported":1777312721,"current_range_meters":8000,"station_id":"","pricing_plan_id":"cebpf4jnsgd1na2vs0mg"},{"bike_id":"27cd71a7-0940-4415-a67f-21597fbf1cd9","system_id":"levelo_inurba_marseille","lat":43.3455,"lon":5.37778,"is_reserved":false,"is_disabled":false,"rental_uris":{"android":"levelo://app?vid=27cd71a7-0940-4415-a67f-21597fbf1cd9","ios":"levelo://app?vid=27cd71a7-0940-4415-a67f-21597fbf1cd9"},"vehicle_type_id":"4","last_reported":1777312721,"current_range_meters":8000,"station_id":"","pricing_plan_id":"cebpf4jnsgd1na2vs0mg"},{"bike_id":"d128858b-bebf-45c5-838d-de7a7a289000","system_id":"levelo_inurba_marseille","lat":43.29803,"lon":5.39331,"is_reserved":false,"is_disabled":false,"rental_uris":{"android":"levelo://app?vid=d128858b-bebf-45c5-838d-de7a7a289000","ios":"levelo://app?vid=d128858b-bebf-45c5-838d-de7a7a289000"},"vehicle_type_id":"4","last_reported":1777312721,"current_range_meters":8000,"station_id":"chh1huq6cuj3fo74tm60","pricing_plan_id":"cebpf4jnsgd1na2vs0mg"},{"bike_id":"8e77f3ba-38f8-4add-b61b-b2f308d4dba7","system_id":"levelo_inurba_marseille","lat":43.24695,"lon":5.38131,"is_reserved":false,"is_disabled":false,"rental_uris":{"android":"levelo://app?vid=8e77f3ba-38f8-4add-b61b-b2f308d4dba7","ios":"levelo://app?vid=8e77f3ba-38f8-4add-b61b-b2f308d4dba7"},"vehicle_type_id":"4","last_reported":1777312721,"current_range_meters":8000,"station_id":"ce4bhih2rcd13ifvqfr0","pricing_plan_id":"cebpf4jnsgd1na2vs0mg"},{"bike_id":"1d03073f-cc1c-4226-a850-63ee6b258075","system_id":"levelo_inurba_marseille","lat":43.29005,"lon":5.35612,"is_reserved":false,"is_disabled":false,"rental_uris":{"android":"levelo://app?vid=1d03073f-cc1c-4226-a850-63ee6b258075","ios":"levelo://app?vid=1d03073f-cc1c-4226-a850-63ee6b258075"},"vehicle_type_id":"4","last_reported":1777312721,"current_range_meters":8000,"station_id":"ce4bhb92rcd13ifvqen0","pricing_plan_id":"cebpf4jnsgd1na2vs0mg"},{"bike_id":"bdcfe9c7-0120-4e49-8119-1a61a61909d2","system_id":"levelo_inurba_marseille","lat":43.29202,"lon":5.39308,"is_reserved":false,"is_disabled":false,"rental_uris":{"android":"levelo://app?vid=bdcfe9c7-0120-4e49-8119-1a61a61909d2","ios":"levelo://app?vid=bdcfe9c7-0120-4e49-8119-1a61a61909d2"},"vehicle_type_id":"4","last_reported":1777312721,"current_range_meters":8000,"station_id":"ce4bh192rcd13ifvqdd0","pricing_plan_id":"cebpf4jnsgd1na2vs0mg"},{"bike_id":"633a7919-24b3-4ba2-b51c-27b65dc34870","system_id":"levelo_inurba_marseille","lat":43.26204,"lon":5.37446,"is_reserved":false,"is_disabled":false,"rental_uris":{"android":"levelo://app?vid=633a7919-24b3-4ba2-b51c-27b65dc34870","ios":"levelo://app?vid=633a7919-24b3-4ba2-b51c-27b65dc34870"},"vehicle_type_id":"4","last_reported":1777312721,"current_range_meters":8000,"station_id":"ce4bhgp2rcd13ifvqfc0","pricing_plan_id":"cebpf4jnsgd1na2vs0mg"},{"bike_id":"ce68b828-fb91-43d4-ac0c-ceb9763b3f0b","system_id":"levelo_inurba_marseille","lat":43.29526,"lon":5.38544,"is_reserved":false,"is_disabled":false,"rental_uris":{"android":"levelo://app?vid=ce68b828-fb91-43d4-ac0c-ceb9763b3f0b","ios":"levelo://app?vid=ce68b828-fb91-43d4-ac0c-ceb9763b3f0b"},"vehicle_type_id":"4","last_reported":1777312721,"current_range_meters":8000,"station_id":"ce4bgih2rcd13ifvqba0","pricing_plan_id":"cebpf4jnsgd1na2vs0mg"},{"bike_id":"d9c3ce53-1eff-4b72-918b-23dd168c3f74","system_id":"levelo_inurba_marseille","lat":43.26584,"lon":5.39028,"is_reserved":false,"is_disabled":false,"rental_uris":{"android":"levelo://app?vid=d9c3ce53-1eff-4b72-918b-23dd168c3f74","ios":"levelo://app?vid=d9c3ce53-1eff-4b72-918b-23dd168c3f74"},"vehicle_type_id":"4","last_reported":1777312721,"current_range_meters":8000,"station_id":"ce4bhe12rcd13ifvqf30","pricing_plan_id":"cebpf4jnsgd1na2vs0mg"},{"bike_id":"b504488c-4a5c-43df-b299-e768506d1980","system_id":"levelo_inurba_marseille","lat":43.29307,"lon":5.37178,"is_reserved":false,"is_disabled":true,"rental_uris":{"android":"levelo://app?vid=b504488c-4a5c-43df-b299-e768506d1980","ios":"levelo://app?vid=b504488c-4a5c-43df-b299-e768506d1980"},"vehicle_type_id":"4","last_reported":1777312721,"current_range_meters":8000,"station_id":"ce4bgh92rcd13ifvqb40","pricing_plan_id":"cebpf4jnsgd1na2vs0mg"},{"bike_id":"01d3a9d3-c35c-4534-ad33-f5ad6449c796","system_id":"levelo_inurba_marseille","lat":43.33024,"lon":5.39044,"is_reserved":false,"is_disabled":false,"rental_uris":{"android":"levelo://app?vid=01d3a9d3-c35c-4534-ad33-f5ad6449c796","ios":"levelo://app?vid=01d3a9d3-c35c-4534-ad33-f5ad6449c796"},"vehicle_type_id":"4","last_reported":1777312721,"current_range_meters":8000,"station_id":"ce4bhr92rcd13ifvqhrg","pricing_plan_id":"cebpf4jnsgd1na2vs0mg"},{"bike_id":"14869599-ab60-4e86-8f2c-d0b35d29b95e","system_id":"levelo_inurba_marseille","lat":43.25658,"lon":5.41831,"is_reserved":false,"is_disabled":false,"rental_uris":{"android":"levelo://app?vid=14869599-ab60-4e86-8f2c-d0b35d29b95e","ios":"levelo://app?vid=14869599-ab60-4e86-8f2c-d0b35d29b95e"},"vehicle_type_id":"4","last_reported":1777312721,"current_range_meters":8000,"station_id":"","pricing_plan_id":"cebpf4jnsgd1na2vs0mg"},{"bike_id":"9f9ab910-a023-4363-9524-c19e2f166cf1","system_id":"levelo_inurba_marseille","lat":43.31992,"lon":5.38152,"is_reserved":false,"is_disabled":false,"rental_uris":{"android":"levelo://app?vid=9f9ab910-a023-4363-9524-c19e2f166cf1","ios":"levelo://app?vid=9f9ab910-a023-4363-9524-c19e2f166cf1"},"vehicle_type_id":"4","last_reported":1777312721,"current_range_meters":8000,"station_id":"ce4bhr12rcd13ifvqhpg","pricing_plan_id":"cebpf4jnsgd1na2vs0mg"},{"bike_id":"64633d88-7e11-4956-bb07-afe41f84a160","system_id":"levelo_inurba_marseille","lat":43.31121,"lon":5.37756,"is_reserved":false,"is_disabled":false,"rental_uris":{"android":"levelo://app?vid=64633d88-7e11-4956-bb07-afe41f84a160","ios":"levelo://app?vid=64633d88-7e11-4956-bb07-afe41f84a160"},"vehicle_type_id":"4","last_reported":1777312721,"current_range_meters":8000,"station_id":"ce4bgt92rcd13ifvqcg0","pricing_plan_id":"cebpf4jnsgd1na2vs0mg"},{"bike_id":"e993cba1-46e4-4461-855f-3f2092ae4ac8","system_id":"levelo_inurba_marseille","lat":43.28419,"lon":5.34973,"is_reserved":false,"is_disabled":true,"rental_uris":{"android":"levelo://app?vid=e993cba1-46e4-4461-855f-3f2092ae4ac8","ios":"levelo://app?vid=e993cba1-46e4-4461-855f-3f2092ae4ac8"},"vehicle_type_id":"4","last_reported":1777312721,"current_range_meters":8000,"station_id":"ce4bhbh2rcd13ifvqepg","pricing_plan_id":"cebpf4jnsgd1na2vs0mg"},{"bike_id":"ba620f84-46cc-4f3a-aef3-014ddc408667","system_id":"levelo_inurba_marseille","lat":43.30885,"lon":5.3964,"is_reserved":false,"is_disabled":false,"rental_uris":{"android":"levelo://app?vid=ba620f84-46cc-4f3a-aef3-014ddc408667","ios":"levelo://app?vid=ba620f84-46cc-4f3a-aef3-014ddc408667"},"vehicle_type_id":"4","last_reported":1777312721,"current_range_meters":8000,"station_id":"ce4bh012rcd13ifvqcv0","pricing_plan_id":"cebpf4jnsgd1na2vs0mg"},{"bike_id":"369ccb57-d03b-41f4-a2b8-8a53088742e0","system_id":"levelo_inurba_marseille","lat":43.29773,"lon":5.39341,"is_reserved":false,"is_disabled":false,"rental_uris":{"android":"levelo://app?vid=369ccb57-d03b-41f4-a2b8-8a53088742e0","ios":"levelo://app?vid=369ccb57-d03b-41f4-a2b8-8a53088742e0"},"vehicle_type_id":"4","last_reported":1777312721,"current_range_meters":8000,"station_id":"chh1huq6cuj3fo74tm60","pricing_plan_id":"cebpf4jnsgd1na2vs0mg"},{"bike_id":"2e1487b5-ffbe-4174-a3cb-5f2ca03b60ce","system_id":"levelo_inurba_marseille","lat":43.2849,"lon":5.4838,"is_reserved":false,"is_disabled":false,"rental_uris":{"android":"levelo://app?vid=2e1487b5-ffbe-4174-a3cb-5f2ca03b60ce","ios":"levelo://app?vid=2e1487b5-ffbe-4174-a3cb-5f2ca03b60ce"},"vehicle_type_id":"4","last_reported":1777312721,"current_range_meters":8000,"station_id":"st_d3svhcjqgbts73a3dn0g","pricing_plan_id":"cebpf4jnsgd1na2vs0mg"},{"bike_id":"e54adbed-7cdf-4442-b592-4c02f207780f","system_id":"levelo_inurba_marseille","lat":43.24179,"lon":5.39727,"is_reserved":false,"is_disabled":false,"rental_uris":{"android":"levelo://app?vid=e54adbed-7cdf-4442-b592-4c02f207780f","ios":"levelo://app?vid=e54adbed-7cdf-4442-b592-4c02f207780f"},"vehicle_type_id":"4","last_reported":1777312721,"current_range_meters":8000,"station_id":"ce4bhn12rcd13ifvqgpg","pricing_plan_id":"cebpf4jnsgd1na2vs0mg"},{"bike_id":"47db58e5-aba6-47f4-a2b9-4e948d113532","system_id":"levelo_inurba_marseille","lat":43.26059,"lon":5.39397,"is_reserved":false,"is_disabled":false,"rental_uris":{"android":"levelo://app?vid=47db58e5-aba6-47f4-a2b9-4e948d113532","ios":"levelo://app?vid=47db58e5-aba6-47f4-a2b9-4e948d113532"},"vehicle_type_id":"4","last_reported":1777312721,"current_range_meters":8000,"station_id":"ce4bhh92rcd13ifvqfj0","pricing_plan_id":"cebpf4jnsgd1na2vs0mg"},{"bike_id":"58ed6a13-d208-4ebb-82ad-8708a5bbec55","system_id":"levelo_inurba_marseille","lat":43.32109,"lon":5.36773,"is_reserved":false,"is_disabled":false,"rental_uris":{"android":"levelo://app?vid=58ed6a13-d208-4ebb-82ad-8708a5bbec55","ios":"levelo://app?vid=58ed6a13-d208-4ebb-82ad-8708a5bbec55"},"vehicle_type_id":"4","last_reported":1777312721,"current_range_meters":8000,"station_id":"ce4bhrh2rcd13ifvqhug","pricing_plan_id":"cebpf4jnsgd1na2vs0mg"},{"bike_id":"daaf7517-8d1c-4b2b-bf81-48fd801e1e39","system_id":"levelo_inurba_marseille","lat":43.31713,"lon":5.37774,"is_reserved":false,"is_disabled":false,"rental_uris":{"android":"levelo://app?vid=daaf7517-8d1c-4b2b-bf81-48fd801e1e39","ios":"levelo://app?vid=daaf7517-8d1c-4b2b-bf81-48fd801e1e39"},"vehicle_type_id":"4","last_reported":1777312721,"current_range_meters":8000,"station_id":"ce4bgth2rcd13ifvqch0","pricing_plan_id":"cebpf4jnsgd1na2vs0mg"},{"bike_id":"1d51c702-75ba-494d-89c9-6b8c4379e860","system_id":"levelo_inurba_marseille","lat":43.31233,"lon":5.37818,"is_reserved":false,"is_disabled":false,"rental_uris":{"android":"levelo://app?vid=1d51c702-75ba-494d-89c9-6b8c4379e860","ios":"levelo://app?vid=1d51c702-75ba-494d-89c9-6b8c4379e860"},"vehicle_type_id":"4","last_reported":1777312721,"current_range_meters":8000,"station_id":"","pricing_plan_id":"cebpf4jnsgd1na2vs0mg"},{"bike_id":"ed25a454-52a8-4945-92c6-672abf802e4d","system_id":"levelo_inurba_marseille","lat":43.24378,"lon":5.37074,"is_reserved":false,"is_disabled":false,"rental_uris":{"android":"levelo://app?vid=ed25a454-52a8-4945-92c6-672abf802e4d","ios":"levelo://app?vid=ed25a454-52a8-4945-92c6-672abf802e4d"},"vehicle_type_id":"4","last_reported":1777312721,"current_range_meters":8000,"station_id":"ce4bhhh2rcd13ifvqfk0","pricing_plan_id":"cebpf4jnsgd1na2vs0mg"},{"bike_id":"91803bf2-5077-48fc-be70-cac91b6641f0","system_id":"levelo_inurba_marseille","lat":43.2984,"lon":5.36266,"is_reserved":false,"is_disabled":false,"rental_uris":{"android":"levelo://app?vid=91803bf2-5077-48fc-be70-cac91b6641f0","ios":"levelo://app?vid=91803bf2-5077-48fc-be70-cac91b6641f0"},"vehicle_type_id":"4","last_reported":1777312721,"current_range_meters":8000,"station_id":"ce4bgpp2rcd13ifvqc3g","pricing_plan_id":"cebpf4jnsgd1na2vs0mg"},{"bike_id":"f8bb0760-5f6d-4a99-bab1-9b70e7e5b142","system_id":"levelo_inurba_marseille","lat":43.28619,"lon":5.37065,"is_reserved":false,"is_disabled":false,"rental_uris":{"android":"levelo://app?vid=f8bb0760-5f6d-4a99-bab1-9b70e7e5b142","ios":"levelo://app?vid=f8bb0760-5f6d-4a99-bab1-9b70e7e5b142"},"vehicle_type_id":"4","last_reported":1777312721,"current_range_meters":8000,"station_id":"ce4bht12rcd13ifvqi60","pricing_plan_id":"cebpf4jnsgd1na2vs0mg"},{"bike_id":"cd99f110-5f5d-4761-b67c-6b09038544de","system_id":"levelo_inurba_marseille","lat":43.25493,"lon":5.37646,"is_reserved":false,"is_disabled":false,"rental_uris":{"android":"levelo://app?vid=cd99f110-5f5d-4761-b67c-6b09038544de","ios":"levelo://app?vid=cd99f110-5f5d-4761-b67c-6b09038544de"},"vehicle_type_id":"4","last_reported":1777312721,"current_range_meters":8000,"station_id":"ce4bhh12rcd13ifvqff0","pricing_plan_id":"cebpf4jnsgd1na2vs0mg"},{"bike_id":"b4c7fe36-8eb5-4184-a2d2-22d513d4c2ed","system_id":"levelo_inurba_marseille","lat":43.25323,"lon":5.42168,"is_reserved":false,"is_disabled":false,"rental_uris":{"android":"levelo://app?vid=b4c7fe36-8eb5-4184-a2d2-22d513d4c2ed","ios":"levelo://app?vid=b4c7fe36-8eb5-4184-a2d2-22d513d4c2ed"},"vehicle_type_id":"4","last_reported":1777312721,"current_range_meters":8400,"station_id":"st_d2m65c5bi1j21697t3ng","pricing_plan_id":"cebpf4jnsgd1na2vs0mg"},{"bike_id":"2207323a-44e2-4f1a-a95e-92cd1d0b6f9b","system_id":"levelo_inurba_marseille","lat":43.29209,"lon":5.3578,"is_reserved":false,"is_disabled":false,"rental_uris":{"android":"levelo://app?vid=2207323a-44e2-4f1a-a95e-92cd1d0b6f9b","ios":"levelo://app?vid=2207323a-44e2-4f1a-a95e-92cd1d0b6f9b"},"vehicle_type_id":"4","last_reported":1777312721,"current_range_meters":8400,"station_id":"ce4bhb12rcd13ifvqel0","pricing_plan_id":"cebpf4jnsgd1na2vs0mg"},{"bike_id":"4d06cad1-2e4a-4159-99f3-38d6bcb9cc90","system_id":"levelo_inurba_marseille","lat":43.23206,"lon":5.35568,"is_reserved":false,"is_disabled":false,"rental_uris":{"android":"levelo://app?vid=4d06cad1-2e4a-4159-99f3-38d6bcb9cc90","ios":"levelo://app?vid=4d06cad1-2e4a-4159-99f3-38d6bcb9cc90"},"vehicle_type_id":"4","last_reported":1777312721,"current_range_meters":8400,"station_id":"ce4bhu92rcd13ifvqi70","pricing_plan_id":"cebpf4jnsgd1na2vs0mg"},{"bike_id":"ab6bbd50-7807-4e89-b1eb-3343d64c32e1","system_id":"levelo_inurba_marseille","lat":43.27411,"lon":5.3903,"is_reserved":false,"is_disabled":false,"rental_uris":{"android":"levelo://app?vid=ab6bbd50-7807-4e89-b1eb-3343d64c32e1","ios":"levelo://app?vid=ab6bbd50-7807-4e89-b1eb-3343d64c32e1"},"vehicle_type_id":"4","last_reported":1777312721,"current_range_meters":8400,"station_id":"ce4bhgp2rcd13ifvqfe0","pricing_plan_id":"cebpf4jnsgd1na2vs0mg"},{"bike_id":"7f87fa12-4e46-41a8-9739-ede08e07104c","system_id":"levelo_inurba_marseille","lat":43.30794,"lon":5.38146,"is_reserved":false,"is_disabled":false,"rental_uris":{"android":"levelo://app?vid=7f87fa12-4e46-41a8-9739-ede08e07104c","ios":"levelo://app?vid=7f87fa12-4e46-41a8-9739-ede08e07104c"},"vehicle_type_id":"4","last_reported":1777312721,"current_range_meters":8400,"station_id":"ce4bgt12rcd13ifvqce0","pricing_plan_id":"cebpf4jnsgd1na2vs0mg"},{"bike_id":"03d576c4-9a1b-4fdc-8251-792e3c652dd7","system_id":"levelo_inurba_marseille","lat":43.28563,"lon":5.395,"is_reserved":false,"is_disabled":false,"rental_uris":{"android":"levelo://app?vid=03d576c4-9a1b-4fdc-8251-792e3c652dd7","ios":"levelo://app?vid=03d576c4-9a1b-4fdc-8251-792e3c652dd7"},"vehicle_type_id":"4","last_reported":1777312721,"current_range_meters":8400,"station_id":"ce4bh292rcd13ifvqdg0","pricing_plan_id":"cebpf4jnsgd1na2vs0mg"},{"bike_id":"8f8540d3-a35b-4bf1-acfe-6944f5d10282","system_id":"levelo_inurba_marseille","lat":43.29262,"lon":5.38443,"is_reserved":false,"is_disabled":false,"rental_uris":{"android":"levelo://app?vid=8f8540d3-a35b-4bf1-acfe-6944f5d10282","ios":"levelo://app?vid=8f8540d3-a35b-4bf1-acfe-6944f5d10282"},"vehicle_type_id":"4","last_reported":1777312721,"current_range_meters":8400,"station_id":"ce4bh692rcd13ifvqea0","pricing_plan_id":"cebpf4jnsgd1na2vs0mg"},{"bike_id":"3c247f66-ec1c-467c-81a5-ae175d5b1d58","system_id":"levelo_inurba_marseille","lat":43.30964,"lon":5.39062,"is_reserved":false,"is_disabled":false,"rental_uris":{"android":"levelo://app?vid=3c247f66-ec1c-467c-81a5-ae175d5b1d58","ios":"levelo://app?vid=3c247f66-ec1c-467c-81a5-ae175d5b1d58"},"vehicle_type_id":"4","last_reported":1777312721,"current_range_meters":8400,"station_id":"ce4bgup2rcd13ifvqco0","pricing_plan_id":"cebpf4jnsgd1na2vs0mg"},{"bike_id":"9ce63d40-6d31-4810-9d08-18099d265915","system_id":"levelo_inurba_marseille","lat":43.30144,"lon":5.39879,"is_reserved":false,"is_disabled":false,"rental_uris":{"android":"levelo://app?vid=9ce63d40-6d31-4810-9d08-18099d265915","ios":"levelo://app?vid=9ce63d40-6d31-4810-9d08-18099d265915"},"vehicle_type_id":"4","last_reported":1777312721,"current_range_meters":8400,"station_id":"ce4bh0h2rcd13ifvqd40","pricing_plan_id":"cebpf4jnsgd1na2vs0mg"},{"bike_id":"486a6bd7-6877-47a7-872d-b6d92138ce35","system_id":"levelo_inurba_marseille","lat":43.28152,"lon":5.42626,"is_reserved":false,"is_disabled":false,"rental_uris":{"android":"levelo://app?vid=486a6bd7-6877-47a7-872d-b6d92138ce35","ios":"levelo://app?vid=486a6bd7-6877-47a7-872d-b6d92138ce35"},"vehicle_type_id":"4","last_reported":1777312721,"current_range_meters":8400,"station_id":"ce4bhnh2rcd13ifvqgug","pricing_plan_id":"cebpf4jnsgd1na2vs0mg"},{"bike_id":"1b777b2a-868b-41f8-a934-5ffefe1d9742","system_id":"levelo_inurba_marseille","lat":43.28069,"lon":5.39652,"is_reserved":false,"is_disabled":false,"rental_uris":{"android":"levelo://app?vid=1b777b2a-868b-41f8-a934-5ffefe1d9742","ios":"levelo://app?vid=1b777b2a-868b-41f8-a934-5ffefe1d9742"},"vehicle_type_id":"4","last_reported":1777312721,"current_range_meters":8400,"station_id":"ce4bho12rcd13ifvqh2g","pricing_plan_id":"cebpf4jnsgd1na2vs0mg"},{"bike_id":"5966df63-83c6-4f34-ae95-a22fe39c03ab","system_id":"levelo_inurba_marseille","lat":43.26575,"lon":5.39092,"is_reserved":false,"is_disabled":true,"rental_uris":{"android":"levelo://app?vid=5966df63-83c6-4f34-ae95-a22fe39c03ab","ios":"levelo://app?vid=5966df63-83c6-4f34-ae95-a22fe39c03ab"},"vehicle_type_id":"4","last_reported":1777312721,"current_range_meters":8400,"station_id":"ce4bhe12rcd13ifvqf30","pricing_plan_id":"cebpf4jnsgd1na2vs0mg"},{"bike_id":"a613ec48-8652-47ac-9246-dcfba5774b3a","system_id":"levelo_inurba_marseille","lat":43.24389,"lon":5.37073,"is_reserved":false,"is_disabled":false,"rental_uris":{"android":"levelo://app?vid=a613ec48-8652-47ac-9246-dcfba5774b3a","ios":"levelo://app?vid=a613ec48-8652-47ac-9246-dcfba5774b3a"},"vehicle_type_id":"4","last_reported":1777312721,"current_range_meters":8400,"station_id":"ce4bhhh2rcd13ifvqfk0","pricing_plan_id":"cebpf4jnsgd1na2vs0mg"},{"bike_id":"c04c42cf-36a4-4a3c-b656-dde2fe1bae7e","system_id":"levelo_inurba_marseille","lat":43.28574,"lon":5.40268,"is_reserved":false,"is_disabled":false,"rental_uris":{"android":"levelo://app?vid=c04c42cf-36a4-4a3c-b656-dde2fe1bae7e","ios":"levelo://app?vid=c04c42cf-36a4-4a3c-b656-dde2fe1bae7e"},"vehicle_type_id":"4","last_reported":1777312721,"current_range_meters":8400,"station_id":"","pricing_plan_id":"cebpf4jnsgd1na2vs0mg"},{"bike_id":"3462feaa-c9a2-441c-b3a1-f70058c367e6","system_id":"levelo_inurba_marseille","lat":43.24395,"lon":5.37074,"is_reserved":false,"is_disabled":false,"rental_uris":{"android":"levelo://app?vid=3462feaa-c9a2-441c-b3a1-f70058c367e6","ios":"levelo://app?vid=3462feaa-c9a2-441c-b3a1-f70058c367e6"},"vehicle_type_id":"4","last_reported":1777312721,"current_range_meters":8800,"station_id":"ce4bhhh2rcd13ifvqfk0","pricing_plan_id":"cebpf4jnsgd1na2vs0mg"},{"bike_id":"0d4dfb01-63c5-4be7-bdb0-5163c6b2578c","system_id":"levelo_inurba_marseille","lat":43.31871,"lon":5.36833,"is_reserved":false,"is_disabled":false,"rental_uris":{"android":"levelo://app?vid=0d4dfb01-63c5-4be7-bdb0-5163c6b2578c","ios":"levelo://app?vid=0d4dfb01-63c5-4be7-bdb0-5163c6b2578c"},"vehicle_type_id":"4","last_reported":1777312721,"current_range_meters":8800,"station_id":"st_d6o2h0d0559c73evc1b0","pricing_plan_id":"cebpf4jnsgd1na2vs0mg"},{"bike_id":"028c5a0c-f79b-42e9-95cd-ad1beb3f7cfc","system_id":"levelo_inurba_marseille","lat":43.28432,"lon":5.37515,"is_reserved":false,"is_disabled":false,"rental_uris":{"android":"levelo://app?vid=028c5a0c-f79b-42e9-95cd-ad1beb3f7cfc","ios":"levelo://app?vid=028c5a0c-f79b-42e9-95cd-ad1beb3f7cfc"},"vehicle_type_id":"4","last_reported":1777312721,"current_range_meters":8800,"station_id":"ce4bh412rcd13ifvqds0","pricing_plan_id":"cebpf4jnsgd1na2vs0mg"},{"bike_id":"f447fec5-f118-42c2-be2c-8ef32b6d20a2","system_id":"levelo_inurba_marseille","lat":43.25963,"lon":5.41685,"is_reserved":false,"is_disabled":false,"rental_uris":{"android":"levelo://app?vid=f447fec5-f118-42c2-be2c-8ef32b6d20a2","ios":"levelo://app?vid=f447fec5-f118-42c2-be2c-8ef32b6d20a2"},"vehicle_type_id":"4","last_reported":1777312721,"current_range_meters":8800,"station_id":"","pricing_plan_id":"cebpf4jnsgd1na2vs0mg"},{"bike_id":"bdc670fb-8df7-4a8b-bf30-eb3778a9040d","system_id":"levelo_inurba_marseille","lat":43.29815,"lon":5.38091,"is_reserved":false,"is_disabled":false,"rental_uris":{"android":"levelo://app?vid=bdc670fb-8df7-4a8b-bf30-eb3778a9040d","ios":"levelo://app?vid=bdc670fb-8df7-4a8b-bf30-eb3778a9040d"},"vehicle_type_id":"4","last_reported":1777312721,"current_range_meters":8800,"station_id":"ce4bgip2rcd13ifvqbb0","pricing_plan_id":"cebpf4jnsgd1na2vs0mg"},{"bike_id":"e593377f-0b04-468e-be39-461905e9f322","system_id":"levelo_inurba_marseille","lat":43.24657,"lon":5.38967,"is_reserved":false,"is_disabled":false,"rental_uris":{"android":"levelo://app?vid=e593377f-0b04-468e-be39-461905e9f322","ios":"levelo://app?vid=e593377f-0b04-468e-be39-461905e9f322"},"vehicle_type_id":"4","last_reported":1777312721,"current_range_meters":8800,"station_id":"","pricing_plan_id":"cebpf4jnsgd1na2vs0mg"},{"bike_id":"8ac0bd5f-2f2a-4833-ada5-2e9beded5ddb","system_id":"levelo_inurba_marseille","lat":43.31503,"lon":5.39136,"is_reserved":false,"is_disabled":false,"rental_uris":{"android":"levelo://app?vid=8ac0bd5f-2f2a-4833-ada5-2e9beded5ddb","ios":"levelo://app?vid=8ac0bd5f-2f2a-4833-ada5-2e9beded5ddb"},"vehicle_type_id":"4","last_reported":1777312721,"current_range_meters":8800,"station_id":"","pricing_plan_id":"cebpf4jnsgd1na2vs0mg"},{"bike_id":"16d472fe-eb19-4acc-8aa8-94088ad37de6","system_id":"levelo_inurba_marseille","lat":43.35169,"lon":5.36435,"is_reserved":false,"is_disabled":false,"rental_uris":{"android":"levelo://app?vid=16d472fe-eb19-4acc-8aa8-94088ad37de6","ios":"levelo://app?vid=16d472fe-eb19-4acc-8aa8-94088ad37de6"},"vehicle_type_id":"4","last_reported":1777312721,"current_range_meters":8800,"station_id":"","pricing_plan_id":"cebpf4jnsgd1na2vs0mg"},{"bike_id":"b5088cd7-5e45-457a-ae9f-32446d67355c","system_id":"levelo_inurba_marseille","lat":43.32478,"lon":5.36559,"is_reserved":false,"is_disabled":false,"rental_uris":{"android":"levelo://app?vid=b5088cd7-5e45-457a-ae9f-32446d67355c","ios":"levelo://app?vid=b5088cd7-5e45-457a-ae9f-32446d67355c"},"vehicle_type_id":"4","last_reported":1777312721,"current_range_meters":8800,"station_id":"ce4bhs12rcd13ifvqhvg","pricing_plan_id":"cebpf4jnsgd1na2vs0mg"},{"bike_id":"84b7cd77-f30f-4fac-b8ad-2b060a6cd19b","system_id":"levelo_inurba_marseille","lat":43.29888,"lon":5.39727,"is_reserved":false,"is_disabled":false,"rental_uris":{"android":"levelo://app?vid=84b7cd77-f30f-4fac-b8ad-2b060a6cd19b","ios":"levelo://app?vid=84b7cd77-f30f-4fac-b8ad-2b060a6cd19b"},"vehicle_type_id":"4","last_reported":1777312721,"current_range_meters":8800,"station_id":"ce4bh0h2rcd13ifvqd50","pricing_plan_id":"cebpf4jnsgd1na2vs0mg"},{"bike_id":"e5cd69c7-9379-4379-93b8-62cf25a54177","system_id":"levelo_inurba_marseille","lat":43.337497,"lon":5.374492,"is_reserved":false,"is_disabled":false,"rental_uris":{"android":"levelo://app?vid=e5cd69c7-9379-4379-93b8-62cf25a54177","ios":"levelo://app?vid=e5cd69c7-9379-4379-93b8-62cf25a54177"},"vehicle_type_id":"4","last_reported":1777312721,"current_range_meters":8800,"station_id":"","pricing_plan_id":"cebpf4jnsgd1na2vs0mg"},{"bike_id":"0cc1aa7c-3e03-49cb-b6eb-0387d1a4207f","system_id":"levelo_inurba_marseille","lat":43.29293,"lon":5.37462,"is_reserved":false,"is_disabled":false,"rental_uris":{"android":"levelo://app?vid=0cc1aa7c-3e03-49cb-b6eb-0387d1a4207f","ios":"levelo://app?vid=0cc1aa7c-3e03-49cb-b6eb-0387d1a4207f"},"vehicle_type_id":"4","last_reported":1777312721,"current_range_meters":8800,"station_id":"ce4bgi12rcd13ifvqb70","pricing_plan_id":"cebpf4jnsgd1na2vs0mg"},{"bike_id":"f9f92c5c-5f51-4e1c-a4a4-da02d7396e3a","system_id":"levelo_inurba_marseille","lat":43.21759,"lon":5.346,"is_reserved":false,"is_disabled":false,"rental_uris":{"android":"levelo://app?vid=f9f92c5c-5f51-4e1c-a4a4-da02d7396e3a","ios":"levelo://app?vid=f9f92c5c-5f51-4e1c-a4a4-da02d7396e3a"},"vehicle_type_id":"4","last_reported":1777312721,"current_range_meters":8800,"station_id":"st_cvj6r9ubvosntc0bgbag","pricing_plan_id":"cebpf4jnsgd1na2vs0mg"},{"bike_id":"a2c513de-b948-4382-b339-b8c86d14c9b3","system_id":"levelo_inurba_marseille","lat":43.28929,"lon":5.36627,"is_reserved":false,"is_disabled":false,"rental_uris":{"android":"levelo://app?vid=a2c513de-b948-4382-b339-b8c86d14c9b3","ios":"levelo://app?vid=a2c513de-b948-4382-b339-b8c86d14c9b3"},"vehicle_type_id":"4","last_reported":1777312721,"current_range_meters":8800,"station_id":"ce4bhap2rcd13ifvqek0","pricing_plan_id":"cebpf4jnsgd1na2vs0mg"},{"bike_id":"a7ef47ae-ac7a-4811-8371-2ebdbd6eea38","system_id":"levelo_inurba_marseille","lat":43.21769,"lon":5.34591,"is_reserved":false,"is_disabled":false,"rental_uris":{"android":"levelo://app?vid=a7ef47ae-ac7a-4811-8371-2ebdbd6eea38","ios":"levelo://app?vid=a7ef47ae-ac7a-4811-8371-2ebdbd6eea38"},"vehicle_type_id":"4","last_reported":1777312721,"current_range_meters":8800,"station_id":"st_cvj6r9ubvosntc0bgbag","pricing_plan_id":"cebpf4jnsgd1na2vs0mg"},{"bike_id":"d14de05e-8665-4c3d-949e-102c763303bf","system_id":"levelo_inurba_marseille","lat":43.28616,"lon":5.37059,"is_reserved":false,"is_disabled":false,"rental_uris":{"android":"levelo://app?vid=d14de05e-8665-4c3d-949e-102c763303bf","ios":"levelo://app?vid=d14de05e-8665-4c3d-949e-102c763303bf"},"vehicle_type_id":"4","last_reported":1777312721,"current_range_meters":8800,"station_id":"ce4bht12rcd13ifvqi60","pricing_plan_id":"cebpf4jnsgd1na2vs0mg"},{"bike_id":"1313d3cc-feb5-4a48-99b3-cb4d7635e1e9","system_id":"levelo_inurba_marseille","lat":43.32536,"lon":5.38078,"is_reserved":false,"is_disabled":false,"rental_uris":{"android":"levelo://app?vid=1313d3cc-feb5-4a48-99b3-cb4d7635e1e9","ios":"levelo://app?vid=1313d3cc-feb5-4a48-99b3-cb4d7635e1e9"},"vehicle_type_id":"4","last_reported":1777312721,"current_range_meters":8800,"station_id":"","pricing_plan_id":"cebpf4jnsgd1na2vs0mg"},{"bike_id":"1395b271-6bcd-4509-801d-3ede40af7746","system_id":"levelo_inurba_marseille","lat":43.31118,"lon":5.43777,"is_reserved":false,"is_disabled":false,"rental_uris":{"android":"levelo://app?vid=1395b271-6bcd-4509-801d-3ede40af7746","ios":"levelo://app?vid=1395b271-6bcd-4509-801d-3ede40af7746"},"vehicle_type_id":"4","last_reported":1777312721,"current_range_meters":8800,"station_id":"","pricing_plan_id":"cebpf4jnsgd1na2vs0mg"},{"bike_id":"d0633771-e198-482e-aee8-099fb72776d5","system_id":"levelo_inurba_marseille","lat":43.23187,"lon":5.39991,"is_reserved":false,"is_disabled":true,"rental_uris":{"android":"levelo://app?vid=d0633771-e198-482e-aee8-099fb72776d5","ios":"levelo://app?vid=d0633771-e198-482e-aee8-099fb72776d5"},"vehicle_type_id":"4","last_reported":1777312721,"current_range_meters":8800,"station_id":"ce4bhn12rcd13ifvqgqg","pricing_plan_id":"cebpf4jnsgd1na2vs0mg"},{"bike_id":"bf19cf09-f560-433a-8620-1a7a68b562e7","system_id":"levelo_inurba_marseille","lat":43.31112,"lon":5.37773,"is_reserved":false,"is_disabled":false,"rental_uris":{"android":"levelo://app?vid=bf19cf09-f560-433a-8620-1a7a68b562e7","ios":"levelo://app?vid=bf19cf09-f560-433a-8620-1a7a68b562e7"},"vehicle_type_id":"4","last_reported":1777312721,"current_range_meters":8800,"station_id":"ce4bgt92rcd13ifvqcg0","pricing_plan_id":"cebpf4jnsgd1na2vs0mg"},{"bike_id":"5eaf7604-39d4-4e91-890a-a23cf4b2cb1d","system_id":"levelo_inurba_marseille","lat":43.2925,"lon":5.3844,"is_reserved":false,"is_disabled":false,"rental_uris":{"android":"levelo://app?vid=5eaf7604-39d4-4e91-890a-a23cf4b2cb1d","ios":"levelo://app?vid=5eaf7604-39d4-4e91-890a-a23cf4b2cb1d"},"vehicle_type_id":"4","last_reported":1777312721,"current_range_meters":8800,"station_id":"ce4bh692rcd13ifvqea0","pricing_plan_id":"cebpf4jnsgd1na2vs0mg"},{"bike_id":"9daae5fc-029a-4575-8080-71abfd7ee94e","system_id":"levelo_inurba_marseille","lat":43.21199,"lon":5.35071,"is_reserved":false,"is_disabled":false,"rental_uris":{"android":"levelo://app?vid=9daae5fc-029a-4575-8080-71abfd7ee94e","ios":"levelo://app?vid=9daae5fc-029a-4575-8080-71abfd7ee94e"},"vehicle_type_id":"4","last_reported":1777312721,"current_range_meters":8800,"station_id":"st_cvj6sg6p6f1abm77japg","pricing_plan_id":"cebpf4jnsgd1na2vs0mg"},{"bike_id":"af719ad0-60bb-48f4-884c-c89f214f5ea2","system_id":"levelo_inurba_marseille","lat":43.27932,"lon":5.39575,"is_reserved":false,"is_disabled":false,"rental_uris":{"android":"levelo://app?vid=af719ad0-60bb-48f4-884c-c89f214f5ea2","ios":"levelo://app?vid=af719ad0-60bb-48f4-884c-c89f214f5ea2"},"vehicle_type_id":"4","last_reported":1777312721,"current_range_meters":8800,"station_id":"ce4bhf92rcd13ifvqf40","pricing_plan_id":"cebpf4jnsgd1na2vs0mg"},{"bike_id":"dc4f256b-dad1-4b0e-b0aa-70815278bacb","system_id":"levelo_inurba_marseille","lat":43.28967,"lon":5.39318,"is_reserved":false,"is_disabled":false,"rental_uris":{"android":"levelo://app?vid=dc4f256b-dad1-4b0e-b0aa-70815278bacb","ios":"levelo://app?vid=dc4f256b-dad1-4b0e-b0aa-70815278bacb"},"vehicle_type_id":"4","last_reported":1777312721,"current_range_meters":8800,"station_id":"","pricing_plan_id":"cebpf4jnsgd1na2vs0mg"},{"bike_id":"6b710026-2678-43b7-92aa-0c42af5f691d","system_id":"levelo_inurba_marseille","lat":43.30142,"lon":5.3741,"is_reserved":false,"is_disabled":false,"rental_uris":{"android":"levelo://app?vid=6b710026-2678-43b7-92aa-0c42af5f691d","ios":"levelo://app?vid=6b710026-2678-43b7-92aa-0c42af5f691d"},"vehicle_type_id":"4","last_reported":1777312721,"current_range_meters":8800,"station_id":"ce4bgs92rcd13ifvqcc0","pricing_plan_id":"cebpf4jnsgd1na2vs0mg"},{"bike_id":"103b74ed-2fbf-46cc-82eb-d5bb64ef6f5e","system_id":"levelo_inurba_marseille","lat":43.26075,"lon":5.38715,"is_reserved":false,"is_disabled":false,"rental_uris":{"android":"levelo://app?vid=103b74ed-2fbf-46cc-82eb-d5bb64ef6f5e","ios":"levelo://app?vid=103b74ed-2fbf-46cc-82eb-d5bb64ef6f5e"},"vehicle_type_id":"4","last_reported":1777312721,"current_range_meters":8800,"station_id":"","pricing_plan_id":"cebpf4jnsgd1na2vs0mg"},{"bike_id":"31eaa0ea-a02a-40cc-bc3a-4f30d1921f24","system_id":"levelo_inurba_marseille","lat":43.24072,"lon":5.37774,"is_reserved":false,"is_disabled":false,"rental_uris":{"android":"levelo://app?vid=31eaa0ea-a02a-40cc-bc3a-4f30d1921f24","ios":"levelo://app?vid=31eaa0ea-a02a-40cc-bc3a-4f30d1921f24"},"vehicle_type_id":"4","last_reported":1777312721,"current_range_meters":8800,"station_id":"ce4bhnp2rcd13ifvqgvg","pricing_plan_id":"cebpf4jnsgd1na2vs0mg"},{"bike_id":"edab6d19-7f2b-44dd-9539-88a8e060d1bb","system_id":"levelo_inurba_marseille","lat":43.28609,"lon":5.35105,"is_reserved":false,"is_disabled":false,"rental_uris":{"android":"levelo://app?vid=edab6d19-7f2b-44dd-9539-88a8e060d1bb","ios":"levelo://app?vid=edab6d19-7f2b-44dd-9539-88a8e060d1bb"},"vehicle_type_id":"4","last_reported":1777312721,"current_range_meters":9200,"station_id":"ce4bhch2rcd13ifvqeug","pricing_plan_id":"cebpf4jnsgd1na2vs0mg"},{"bike_id":"baa55d1a-8e1e-46c2-9459-c2953120d083","system_id":"levelo_inurba_marseille","lat":43.28436,"lon":5.34984,"is_reserved":false,"is_disabled":false,"rental_uris":{"android":"levelo://app?vid=baa55d1a-8e1e-46c2-9459-c2953120d083","ios":"levelo://app?vid=baa55d1a-8e1e-46c2-9459-c2953120d083"},"vehicle_type_id":"4","last_reported":1777312721,"current_range_meters":9200,"station_id":"ce4bhbh2rcd13ifvqepg","pricing_plan_id":"cebpf4jnsgd1na2vs0mg"},{"bike_id":"95883eae-5b8c-40a1-884c-b4e38f890bd3","system_id":"levelo_inurba_marseille","lat":43.24801,"lon":5.37453,"is_reserved":false,"is_disabled":false,"rental_uris":{"android":"levelo://app?vid=95883eae-5b8c-40a1-884c-b4e38f890bd3","ios":"levelo://app?vid=95883eae-5b8c-40a1-884c-b4e38f890bd3"},"vehicle_type_id":"4","last_reported":1777312721,"current_range_meters":9200,"station_id":"ce4bhgh2rcd13ifvqfb0","pricing_plan_id":"cebpf4jnsgd1na2vs0mg"},{"bike_id":"19af9a3c-5539-4472-a5a8-42eb3cf95ee3","system_id":"levelo_inurba_marseille","lat":43.2926,"lon":5.38445,"is_reserved":false,"is_disabled":false,"rental_uris":{"android":"levelo://app?vid=19af9a3c-5539-4472-a5a8-42eb3cf95ee3","ios":"levelo://app?vid=19af9a3c-5539-4472-a5a8-42eb3cf95ee3"},"vehicle_type_id":"4","last_reported":1777312721,"current_range_meters":9200,"station_id":"ce4bh692rcd13ifvqea0","pricing_plan_id":"cebpf4jnsgd1na2vs0mg"},{"bike_id":"9c3e13ef-f5ac-46d8-aa8d-d51602f7c726","system_id":"levelo_inurba_marseille","lat":43.25578,"lon":5.38225,"is_reserved":false,"is_disabled":false,"rental_uris":{"android":"levelo://app?vid=9c3e13ef-f5ac-46d8-aa8d-d51602f7c726","ios":"levelo://app?vid=9c3e13ef-f5ac-46d8-aa8d-d51602f7c726"},"vehicle_type_id":"4","last_reported":1777312721,"current_range_meters":9200,"station_id":"ce4bhih2rcd13ifvqfs0","pricing_plan_id":"cebpf4jnsgd1na2vs0mg"},{"bike_id":"1bca0dbc-0d5b-4841-8651-434c9878a792","system_id":"levelo_inurba_marseille","lat":43.29261,"lon":5.36851,"is_reserved":false,"is_disabled":false,"rental_uris":{"android":"levelo://app?vid=1bca0dbc-0d5b-4841-8651-434c9878a792","ios":"levelo://app?vid=1bca0dbc-0d5b-4841-8651-434c9878a792"},"vehicle_type_id":"4","last_reported":1777312721,"current_range_meters":9200,"station_id":"ce4bhbp2rcd13ifvqesg","pricing_plan_id":"cebpf4jnsgd1na2vs0mg"},{"bike_id":"e67acc8f-2ca9-403b-9a72-d3f8278b7623","system_id":"levelo_inurba_marseille","lat":43.24817,"lon":5.37443,"is_reserved":false,"is_disabled":false,"rental_uris":{"android":"levelo://app?vid=e67acc8f-2ca9-403b-9a72-d3f8278b7623","ios":"levelo://app?vid=e67acc8f-2ca9-403b-9a72-d3f8278b7623"},"vehicle_type_id":"4","last_reported":1777312721,"current_range_meters":9200,"station_id":"ce4bhgh2rcd13ifvqfb0","pricing_plan_id":"cebpf4jnsgd1na2vs0mg"},{"bike_id":"74929e98-c2e0-43cc-b447-0901251d01cb","system_id":"levelo_inurba_marseille","lat":43.2549,"lon":5.37677,"is_reserved":false,"is_disabled":false,"rental_uris":{"android":"levelo://app?vid=74929e98-c2e0-43cc-b447-0901251d01cb","ios":"levelo://app?vid=74929e98-c2e0-43cc-b447-0901251d01cb"},"vehicle_type_id":"4","last_reported":1777312721,"current_range_meters":9200,"station_id":"ce4bhh12rcd13ifvqff0","pricing_plan_id":"cebpf4jnsgd1na2vs0mg"},{"bike_id":"a621a402-7bdf-4157-9804-0c7e3efc6e1e","system_id":"levelo_inurba_marseille","lat":43.3021,"lon":5.39461,"is_reserved":false,"is_disabled":false,"rental_uris":{"android":"levelo://app?vid=a621a402-7bdf-4157-9804-0c7e3efc6e1e","ios":"levelo://app?vid=a621a402-7bdf-4157-9804-0c7e3efc6e1e"},"vehicle_type_id":"4","last_reported":1777312721,"current_range_meters":9200,"station_id":"ce4bh0p2rcd13ifvqd70","pricing_plan_id":"cebpf4jnsgd1na2vs0mg"},{"bike_id":"856cc235-893c-4309-9c60-216da9b869fc","system_id":"levelo_inurba_marseille","lat":43.28,"lon":5.41669,"is_reserved":false,"is_disabled":false,"rental_uris":{"android":"levelo://app?vid=856cc235-893c-4309-9c60-216da9b869fc","ios":"levelo://app?vid=856cc235-893c-4309-9c60-216da9b869fc"},"vehicle_type_id":"4","last_reported":1777312721,"current_range_meters":9200,"station_id":"ce4bho12rcd13ifvqh1g","pricing_plan_id":"cebpf4jnsgd1na2vs0mg"},{"bike_id":"36574c3f-ff77-4aff-8d69-a4396f3350ac","system_id":"levelo_inurba_marseille","lat":43.31162,"lon":5.39469,"is_reserved":false,"is_disabled":false,"rental_uris":{"android":"levelo://app?vid=36574c3f-ff77-4aff-8d69-a4396f3350ac","ios":"levelo://app?vid=36574c3f-ff77-4aff-8d69-a4396f3350ac"},"vehicle_type_id":"4","last_reported":1777312721,"current_range_meters":9200,"station_id":"","pricing_plan_id":"cebpf4jnsgd1na2vs0mg"},{"bike_id":"e0c0737b-f5da-4edc-bc0d-92c66b76e0c6","system_id":"levelo_inurba_marseille","lat":43.28141,"lon":5.4264,"is_reserved":false,"is_disabled":false,"rental_uris":{"android":"levelo://app?vid=e0c0737b-f5da-4edc-bc0d-92c66b76e0c6","ios":"levelo://app?vid=e0c0737b-f5da-4edc-bc0d-92c66b76e0c6"},"vehicle_type_id":"4","last_reported":1777312721,"current_range_meters":9200,"station_id":"ce4bhnh2rcd13ifvqgug","pricing_plan_id":"cebpf4jnsgd1na2vs0mg"},{"bike_id":"76907408-a8ff-4688-9cbf-66e48bb415e8","system_id":"levelo_inurba_marseille","lat":43.28697,"lon":5.46685,"is_reserved":false,"is_disabled":false,"rental_uris":{"android":"levelo://app?vid=76907408-a8ff-4688-9cbf-66e48bb415e8","ios":"levelo://app?vid=76907408-a8ff-4688-9cbf-66e48bb415e8"},"vehicle_type_id":"4","last_reported":1777312721,"current_range_meters":9200,"station_id":"st_d6tc3vkotcvc738tfjhg","pricing_plan_id":"cebpf4jnsgd1na2vs0mg"},{"bike_id":"987eda33-b3ad-4fac-a63c-0e3ff496e921","system_id":"levelo_inurba_marseille","lat":43.32374,"lon":5.3674,"is_reserved":false,"is_disabled":false,"rental_uris":{"android":"levelo://app?vid=987eda33-b3ad-4fac-a63c-0e3ff496e921","ios":"levelo://app?vid=987eda33-b3ad-4fac-a63c-0e3ff496e921"},"vehicle_type_id":"4","last_reported":1777312721,"current_range_meters":9200,"station_id":"ce4bhsh2rcd13ifvqi2g","pricing_plan_id":"cebpf4jnsgd1na2vs0mg"},{"bike_id":"afde96ac-1493-4085-af72-e5da568a87fd","system_id":"levelo_inurba_marseille","lat":43.28461,"lon":5.48399,"is_reserved":false,"is_disabled":false,"rental_uris":{"android":"levelo://app?vid=afde96ac-1493-4085-af72-e5da568a87fd","ios":"levelo://app?vid=afde96ac-1493-4085-af72-e5da568a87fd"},"vehicle_type_id":"4","last_reported":1777312721,"current_range_meters":9200,"station_id":"st_d3svhcjqgbts73a3dn0g","pricing_plan_id":"cebpf4jnsgd1na2vs0mg"},{"bike_id":"b4d9b492-c746-46ed-bddf-343e9b749f81","system_id":"levelo_inurba_marseille","lat":43.33719,"lon":5.36914,"is_reserved":false,"is_disabled":true,"rental_uris":{"android":"levelo://app?vid=b4d9b492-c746-46ed-bddf-343e9b749f81","ios":"levelo://app?vid=b4d9b492-c746-46ed-bddf-343e9b749f81"},"vehicle_type_id":"4","last_reported":1777312721,"current_range_meters":9200,"station_id":"","pricing_plan_id":"cebpf4jnsgd1na2vs0mg"},{"bike_id":"500b04e9-7261-4a6a-ac31-69a03ee81343","system_id":"levelo_inurba_marseille","lat":43.27674,"lon":5.38908,"is_reserved":false,"is_disabled":false,"rental_uris":{"android":"levelo://app?vid=500b04e9-7261-4a6a-ac31-69a03ee81343","ios":"levelo://app?vid=500b04e9-7261-4a6a-ac31-69a03ee81343"},"vehicle_type_id":"4","last_reported":1777312721,"current_range_meters":9200,"station_id":"ce4bhi12rcd13ifvqfo0","pricing_plan_id":"cebpf4jnsgd1na2vs0mg"},{"bike_id":"9b69bc52-1cc6-4ab1-b83b-6f5276770ea3","system_id":"levelo_inurba_marseille","lat":43.25594,"lon":5.38224,"is_reserved":false,"is_disabled":false,"rental_uris":{"android":"levelo://app?vid=9b69bc52-1cc6-4ab1-b83b-6f5276770ea3","ios":"levelo://app?vid=9b69bc52-1cc6-4ab1-b83b-6f5276770ea3"},"vehicle_type_id":"4","last_reported":1777312721,"current_range_meters":9200,"station_id":"ce4bhih2rcd13ifvqfs0","pricing_plan_id":"cebpf4jnsgd1na2vs0mg"},{"bike_id":"a0379422-9cbe-40e5-a1fa-6ef700b79975","system_id":"levelo_inurba_marseille","lat":43.24377,"lon":5.37052,"is_reserved":false,"is_disabled":false,"rental_uris":{"android":"levelo://app?vid=a0379422-9cbe-40e5-a1fa-6ef700b79975","ios":"levelo://app?vid=a0379422-9cbe-40e5-a1fa-6ef700b79975"},"vehicle_type_id":"4","last_reported":1777312721,"current_range_meters":9200,"station_id":"ce4bhhh2rcd13ifvqfk0","pricing_plan_id":"cebpf4jnsgd1na2vs0mg"},{"bike_id":"f0139309-3da0-445b-ae20-7e213ec938ff","system_id":"levelo_inurba_marseille","lat":43.2905,"lon":5.35902,"is_reserved":false,"is_disabled":false,"rental_uris":{"android":"levelo://app?vid=f0139309-3da0-445b-ae20-7e213ec938ff","ios":"levelo://app?vid=f0139309-3da0-445b-ae20-7e213ec938ff"},"vehicle_type_id":"4","last_reported":1777312721,"current_range_meters":9200,"station_id":"ce4bha92rcd13ifvqeg0","pricing_plan_id":"cebpf4jnsgd1na2vs0mg"},{"bike_id":"c4118d6e-3609-4ae2-8c49-d5d7613597bc","system_id":"levelo_inurba_marseille","lat":43.24158,"lon":5.36394,"is_reserved":false,"is_disabled":false,"rental_uris":{"android":"levelo://app?vid=c4118d6e-3609-4ae2-8c49-d5d7613597bc","ios":"levelo://app?vid=c4118d6e-3609-4ae2-8c49-d5d7613597bc"},"vehicle_type_id":"4","last_reported":1777312721,"current_range_meters":9200,"station_id":"cpo36qri1sfpv3e86is0","pricing_plan_id":"cebpf4jnsgd1na2vs0mg"},{"bike_id":"6b4aa15b-259f-4e69-9c10-9ad064f7be7c","system_id":"levelo_inurba_marseille","lat":43.25579,"lon":5.38224,"is_reserved":false,"is_disabled":false,"rental_uris":{"android":"levelo://app?vid=6b4aa15b-259f-4e69-9c10-9ad064f7be7c","ios":"levelo://app?vid=6b4aa15b-259f-4e69-9c10-9ad064f7be7c"},"vehicle_type_id":"4","last_reported":1777312721,"current_range_meters":9200,"station_id":"ce4bhih2rcd13ifvqfs0","pricing_plan_id":"cebpf4jnsgd1na2vs0mg"},{"bike_id":"ea97a2a0-470a-402b-b40c-77dbe334c509","system_id":"levelo_inurba_marseille","lat":43.2953,"lon":5.38542,"is_reserved":false,"is_disabled":false,"rental_uris":{"android":"levelo://app?vid=ea97a2a0-470a-402b-b40c-77dbe334c509","ios":"levelo://app?vid=ea97a2a0-470a-402b-b40c-77dbe334c509"},