{"last_updated":1687079172,"ttl":30,"version":"2.2","data":{"bikes":[{"bike_id":"3de3f67c-ff60-4e62-91ec-9acb93562be9","system_id":"levelo_inurba_marseille","lat":43.312239,"lon":5.368562,"is_reserved":false,"is_disabled":false,"rental_uris":{"android":"levelo://app?vid=3de3f67c-ff60-4e62-91ec-9acb93562be9","ios":"levelo://app?vid=3de3f67c-ff60-4e62-91ec-9acb93562be9"},"vehicle_type_id":"4","last_reported":1687079173,"current_range_meters":5200,"station_id":"ce4bgl92rcd13ifvqbq0","pricing_plan_id":"free"},{"bike_id":"8b412378-0476-4cd6-81d9-857099b18a1f","system_id":"levelo_inurba_marseille","lat":43.312239,"lon":5.368562,"is_reserved":false,"is_disabled":false,"rental_uris":{"android":"levelo://app?vid=8b412378-0476-4cd6-81d9-857099b18a1f","ios":"levelo://app?vid=8b412378-0476-4cd6-81d9-857099b18a1f"},"vehicle_type_id":"4","last_reported":1687079173,"current_range_meters":0,"station_id":"ce4bgl92rcd13ifvqbq0","pricing_plan_id":"free"},{"bike_id":"833cc643-7a0b-43b4-8611-0dc0a866c5ca","system_id":"levelo_inurba_marseille","lat":43.312239,"lon":5.368562,"is_reserved":false,"is_disabled":false,"rental_uris":{"android":"levelo://app?vid=833cc643-7a0b-43b4-8611-0dc0a866c5ca","ios":"levelo://app?vid=833cc643-7a0b-43b4-8611-0dc0a866c5ca"},"vehicle_type_id":"4","last_reported":1687079173,"current_range_meters":31200,"station_id":"ce4bgl92rcd13ifvqbq0","pricing_plan_id":"free"},{"bike_id":"a9cf38dc-914d-409e-9f48-117daad14e43","system_id":"levelo_inurba_marseille","lat":43.309076,"lon":5.368465,"is_reserved":false,"is_disabled":false,"rental_uris":{"android":"levelo://app?vid=a9cf38dc-914d-409e-9f48-117daad14e43","ios":"levelo://app?vid=a9cf38dc-914d-409e-9f48-117daad14e43"},"vehicle_type_id":"4","last_reported":1687079173,"current_range_meters":22800,"station_id":"ce4bgn92rcd13ifvqbvg","pricing_plan_id":"free"},{"bike_id":"c3e13371-6c85-458e-853b-04e9256ebc79","system_id":"levelo_inurba_marseille","lat":43.314811,"lon":5.373103,"is_reserved":false,"is_disabled":false,"rental_uris":{"android":"levelo://app?vid=c3e13371-6c85-458e-853b-04e9256ebc79","ios":"levelo://app?vid=c3e13371-6c85-458e-853b-04e9256ebc79"},"vehicle_type_id":"4","last_reported":1687079173,"current_range_meters":29200,"station_id":"ce4bgt12rcd13ifvqcd0","pricing_plan_id":"free"},{"bike_id":"9c746439-937e-436d-8c66-cb90c42aae7f","system_id":"levelo_inurba_marseille","lat":43.31411,"lon":5.37351,"is_reserved":false,"is_disabled":false,"rental_uris":{"android":"levelo://app?vid=9c746439-937e-436d-8c66-cb90c42aae7f","ios":"levelo://app?vid=9c746439-937e-436d-8c66-cb90c42aae7f"},"vehicle_type_id":"4","last_reported":1687079173,"current_range_meters":25600,"station_id":"","pricing_plan_id":"free"},{"bike_id":"bc5dfdcd-9f3f-442f-8ff0-f90c18be3eef","system_id":"levelo_inurba_marseille","lat":43.30803,"lon":5.37045,"is_reserved":false,"is_disabled":false,"rental_uris":{"android":"levelo://app?vid=bc5dfdcd-9f3f-442f-8ff0-f90c18be3eef","ios":"levelo://app?vid=bc5dfdcd-9f3f-442f-8ff0-f90c18be3eef"},"vehicle_type_id":"4","last_reported":1687079173,"current_range_meters":0,"station_id":"","pricing_plan_id":"free"},{"bike_id":"28955045-c013-4eee-acf3-8393405c2c68","system_id":"levelo_inurba_marseille","lat":43.305706,"lon":5.365654,"is_reserved":false,"is_disabled":false,"rental_uris":{"android":"levelo://app?vid=28955045-c013-4eee-acf3-8393405c2c68","ios":"levelo://app?vid=28955045-c013-4eee-acf3-8393405c2c68"},"vehicle_type_id":"4","last_reported":1687079173,"current_range_meters":29600,"station_id":"ce4bgs12rcd13ifvqcag","pricing_plan_id":"free"},{"bike_id":"2188b24f-87f2-4f23-a6b0-b72784707f84","system_id":"levelo_inurba_marseille","lat":43.305368,"lon":5.367343,"is_reserved":false,"is_disabled":false,"rental_uris":{"android":"levelo://app?vid=2188b24f-87f2-4f23-a6b0-b72784707f84","ios":"levelo://app?vid=2188b24f-87f2-4f23-a6b0-b72784707f84"},"vehicle_type_id":"4","last_reported":1687079173,"current_range_meters":25200,"station_id":"ce4bgrp2rcd13ifvqc9g","pricing_plan_id":"free"},{"bike_id":"226a40bd-c588-4766-8f7a-2b767852a4ec","system_id":"levelo_inurba_marseille","lat":43.305706,"lon":5.365654,"is_reserved":false,"is_disabled":false,"rental_uris":{"android":"levelo://app?vid=226a40bd-c588-4766-8f7a-2b767852a4ec","ios":"levelo://app?vid=226a40bd-c588-4766-8f7a-2b767852a4ec"},"vehicle_type_id":"4","last_reported":1687079173,"current_range_meters":23200,"station_id":"ce4bgs12rcd13ifvqcag","pricing_plan_id":"free"},{"bike_id":"b407698d-80f0-410b-b6b9-5229d399a12f","system_id":"levelo_inurba_marseille","lat":43.305706,"lon":5.365654,"is_reserved":false,"is_disabled":false,"rental_uris":{"android":"levelo://app?vid=b407698d-80f0-410b-b6b9-5229d399a12f","ios":"levelo://app?vid=b407698d-80f0-410b-b6b9-5229d399a12f"},"vehicle_type_id":"4","last_reported":1687079173,"current_range_meters":24000,"station_id":"ce4bgs12rcd13ifvqcag","pricing_plan_id":"free"},{"bike_id":"1190e491-4a11-4e26-bc09-12cf136d6882","system_id":"levelo_inurba_marseille","lat":43.305706,"lon":5.365654,"is_reserved":false,"is_disabled":false,"rental_uris":{"android":"levelo://app?vid=1190e491-4a11-4e26-bc09-12cf136d6882","ios":"levelo://app?vid=1190e491-4a11-4e26-bc09-12cf136d6882"},"vehicle_type_id":"4","last_reported":1687079173,"current_range_meters":20800,"station_id":"ce4bgs12rcd13ifvqcag","pricing_plan_id":"free"},{"bike_id":"b45e1b4f-d852-4678-bc22-d289c63c8a38","system_id":"levelo_inurba_marseille","lat":43.305706,"lon":5.365654,"is_reserved":false,"is_disabled":false,"rental_uris":{"android":"levelo://app?vid=b45e1b4f-d852-4678-bc22-d289c63c8a38","ios":"levelo://app?vid=b45e1b4f-d852-4678-bc22-d289c63c8a38"},"vehicle_type_id":"4","last_reported":1687079173,"current_range_meters":24400,"station_id":"ce4bgs12rcd13ifvqcag","pricing_plan_id":"free"},{"bike_id":"51196789-e3e2-4577-9a4a-7667141a2d24","system_id":"levelo_inurba_marseille","lat":43.305706,"lon":5.365654,"is_reserved":false,"is_disabled":false,"rental_uris":{"android":"levelo://app?vid=51196789-e3e2-4577-9a4a-7667141a2d24","ios":"levelo://app?vid=51196789-e3e2-4577-9a4a-7667141a2d24"},"vehicle_type_id":"4","last_reported":1687079173,"current_range_meters":28000,"station_id":"ce4bgs12rcd13ifvqcag","pricing_plan_id":"free"},{"bike_id":"2539190d-0831-496f-8a73-24c96e8d96c7","system_id":"levelo_inurba_marseille","lat":43.305706,"lon":5.365654,"is_reserved":false,"is_disabled":false,"rental_uris":{"android":"levelo://app?vid=2539190d-0831-496f-8a73-24c96e8d96c7","ios":"levelo://app?vid=2539190d-0831-496f-8a73-24c96e8d96c7"},"vehicle_type_id":"4","last_reported":1687079173,"current_range_meters":17200,"station_id":"ce4bgs12rcd13ifvqcag","pricing_plan_id":"free"},{"bike_id":"d7210806-7dfb-4344-a5bd-402ad073b5b9","system_id":"levelo_inurba_marseille","lat":43.30534,"lon":5.36555,"is_reserved":false,"is_disabled":false,"rental_uris":{"android":"levelo://app?vid=d7210806-7dfb-4344-a5bd-402ad073b5b9","ios":"levelo://app?vid=d7210806-7dfb-4344-a5bd-402ad073b5b9"},"vehicle_type_id":"4","last_reported":1687079173,"current_range_meters":13200,"station_id":"ce4bgs12rcd13ifvqcag","pricing_plan_id":"free"},{"bike_id":"a28d60f7-4a5d-4a53-b37f-297bac07b940","system_id":"levelo_inurba_marseille","lat":43.30533,"lon":5.3655,"is_reserved":false,"is_disabled":false,"rental_uris":{"android":"levelo://app?vid=a28d60f7-4a5d-4a53-b37f-297bac07b940","ios":"levelo://app?vid=a28d60f7-4a5d-4a53-b37f-297bac07b940"},"vehicle_type_id":"4","last_reported":1687079173,"current_range_meters":31200,"station_id":"ce4bgs12rcd13ifvqcag","pricing_plan_id":"free"},{"bike_id":"0e79bf79-9d88-4de4-9a6f-c6d7cfdd3878","system_id":"levelo_inurba_marseille","lat":43.305706,"lon":5.365654,"is_reserved":false,"is_disabled":false,"rental_uris":{"android":"levelo://app?vid=0e79bf79-9d88-4de4-9a6f-c6d7cfdd3878","ios":"levelo://app?vid=0e79bf79-9d88-4de4-9a6f-c6d7cfdd3878"},"vehicle_type_id":"4","last_reported":1687079173,"current_range_meters":28000,"station_id":"ce4bgs12rcd13ifvqcag","pricing_plan_id":"free"},{"bike_id":"03c63a22-5af4-4731-b58c-68faf2f7a292","system_id":"levelo_inurba_marseille","lat":43.31813,"lon":5.37426,"is_reserved":false,"is_disabled":false,"rental_uris":{"android":"levelo://app?vid=03c63a22-5af4-4731-b58c-68faf2f7a292","ios":"levelo://app?vid=03c63a22-5af4-4731-b58c-68faf2f7a292"},"vehicle_type_id":"4","last_reported":1687079173,"current_range_meters":29600,"station_id":"","pricing_plan_id":"free"},{"bike_id":"74da80e7-5212-4f65-b20e-4b3538db4609","system_id":"levelo_inurba_marseille","lat":43.305989,"lon":5.37225,"is_reserved":false,"is_disabled":false,"rental_uris":{"android":"levelo://app?vid=74da80e7-5212-4f65-b20e-4b3538db4609","ios":"levelo://app?vid=74da80e7-5212-4f65-b20e-4b3538db4609"},"vehicle_type_id":"4","last_reported":1687079173,"current_range_meters":20400,"station_id":"ce4bgqh2rcd13ifvqc4g","pricing_plan_id":"free"},{"bike_id":"2424216c-0462-4ad0-b127-d0366c91b61c","system_id":"levelo_inurba_marseille","lat":43.31707,"lon":5.37726,"is_reserved":false,"is_disabled":false,"rental_uris":{"android":"levelo://app?vid=2424216c-0462-4ad0-b127-d0366c91b61c","ios":"levelo://app?vid=2424216c-0462-4ad0-b127-d0366c91b61c"},"vehicle_type_id":"4","last_reported":1687079173,"current_range_meters":29200,"station_id":"ce4bgth2rcd13ifvqch0","pricing_plan_id":"free"},{"bike_id":"1e67477a-74ba-4bb2-9d31-9486ed84c6fb","system_id":"levelo_inurba_marseille","lat":43.317075,"lon":5.377367,"is_reserved":false,"is_disabled":false,"rental_uris":{"android":"levelo://app?vid=1e67477a-74ba-4bb2-9d31-9486ed84c6fb","ios":"levelo://app?vid=1e67477a-74ba-4bb2-9d31-9486ed84c6fb"},"vehicle_type_id":"4","last_reported":1687079173,"current_range_meters":23200,"station_id":"ce4bgth2rcd13ifvqch0","pricing_plan_id":"free"},{"bike_id":"3bbb518e-9a83-40f5-84e5-3a5e60f17226","system_id":"levelo_inurba_marseille","lat":43.317075,"lon":5.377367,"is_reserved":false,"is_disabled":false,"rental_uris":{"android":"levelo://app?vid=3bbb518e-9a83-40f5-84e5-3a5e60f17226","ios":"levelo://app?vid=3bbb518e-9a83-40f5-84e5-3a5e60f17226"},"vehicle_type_id":"4","last_reported":1687079173,"current_range_meters":25200,"station_id":"ce4bgth2rcd13ifvqch0","pricing_plan_id":"free"},{"bike_id":"142ea6ff-5a56-4e78-a0fb-fc43c2431b5c","system_id":"levelo_inurba_marseille","lat":43.31707,"lon":5.37746,"is_reserved":false,"is_disabled":false,"rental_uris":{"android":"levelo://app?vid=142ea6ff-5a56-4e78-a0fb-fc43c2431b5c","ios":"levelo://app?vid=142ea6ff-5a56-4e78-a0fb-fc43c2431b5c"},"vehicle_type_id":"4","last_reported":1687079173,"current_range_meters":28400,"station_id":"ce4bgth2rcd13ifvqch0","pricing_plan_id":"free"},{"bike_id":"cada2054-cd0b-4ffd-b35d-70e3683fc5a7","system_id":"levelo_inurba_marseille","lat":43.315293,"lon":5.380349,"is_reserved":false,"is_disabled":false,"rental_uris":{"android":"levelo://app?vid=cada2054-cd0b-4ffd-b35d-70e3683fc5a7","ios":"levelo://app?vid=cada2054-cd0b-4ffd-b35d-70e3683fc5a7"},"vehicle_type_id":"4","last_reported":1687079173,"current_range_meters":29600,"station_id":"ce4bhsp2rcd13ifvqi50","pricing_plan_id":"free"},{"bike_id":"94107f06-e304-40bf-9c9b-91d6304d67c0","system_id":"levelo_inurba_marseille","lat":43.315289,"lon":5.380349,"is_reserved":false,"is_disabled":false,"rental_uris":{"android":"levelo://app?vid=94107f06-e304-40bf-9c9b-91d6304d67c0","ios":"levelo://app?vid=94107f06-e304-40bf-9c9b-91d6304d67c0"},"vehicle_type_id":"4","last_reported":1687079173,"current_range_meters":16800,"station_id":"ce4bhsp2rcd13ifvqi50","pricing_plan_id":"free"},{"bike_id":"54105187-4d93-4d9f-90b5-aa0b4942a62d","system_id":"levelo_inurba_marseille","lat":43.315289,"lon":5.380349,"is_reserved":false,"is_disabled":false,"rental_uris":{"android":"levelo://app?vid=54105187-4d93-4d9f-90b5-aa0b4942a62d","ios":"levelo://app?vid=54105187-4d93-4d9f-90b5-aa0b4942a62d"},"vehicle_type_id":"4","last_reported":1687079173,"current_range_meters":30400,"station_id":"ce4bhsp2rcd13ifvqi50","pricing_plan_id":"free"},{"bike_id":"8d51db3c-ddf0-4868-a42f-0868b9c8ed86","system_id":"levelo_inurba_marseille","lat":43.31529,"lon":5.38037,"is_reserved":false,"is_disabled":false,"rental_uris":{"android":"levelo://app?vid=8d51db3c-ddf0-4868-a42f-0868b9c8ed86","ios":"levelo://app?vid=8d51db3c-ddf0-4868-a42f-0868b9c8ed86"},"vehicle_type_id":"4","last_reported":1687079173,"current_range_meters":30800,"station_id":"ce4bhsp2rcd13ifvqi50","pricing_plan_id":"free"},{"bike_id":"bb10728c-54c9-49d9-b5c1-bf2a22d6ba69","system_id":"levelo_inurba_marseille","lat":43.308012,"lon":5.381511,"is_reserved":false,"is_disabled":false,"rental_uris":{"android":"levelo://app?vid=bb10728c-54c9-49d9-b5c1-bf2a22d6ba69","ios":"levelo://app?vid=bb10728c-54c9-49d9-b5c1-bf2a22d6ba69"},"vehicle_type_id":"4","last_reported":1687079173,"current_range_meters":20800,"station_id":"ce4bgt12rcd13ifvqce0","pricing_plan_id":"free"},{"bike_id":"4ad633df-0d1f-4a3f-8c90-618e26aa0b48","system_id":"levelo_inurba_marseille","lat":43.308012,"lon":5.381511,"is_reserved":false,"is_disabled":false,"rental_uris":{"android":"levelo://app?vid=4ad633df-0d1f-4a3f-8c90-618e26aa0b48","ios":"levelo://app?vid=4ad633df-0d1f-4a3f-8c90-618e26aa0b48"},"vehicle_type_id":"4","last_reported":1687079173,"current_range_meters":25600,"station_id":"ce4bgt12rcd13ifvqce0","pricing_plan_id":"free"},{"bike_id":"ae33307b-fcd5-479b-9ae1-9002ed226c6e","system_id":"levelo_inurba_marseille","lat":43.308012,"lon":5.381511,"is_reserved":false,"is_disabled":false,"rental_uris":{"android":"levelo://app?vid=ae33307b-fcd5-479b-9ae1-9002ed226c6e","ios":"levelo://app?vid=ae33307b-fcd5-479b-9ae1-9002ed226c6e"},"vehicle_type_id":"4","last_reported":1687079173,"current_range_meters":30400,"station_id":"ce4bgt12rcd13ifvqce0","pricing_plan_id":"free"},{"bike_id":"6af71619-55d7-4358-bbfa-b9be7e591eec","system_id":"levelo_inurba_marseille","lat":43.30462,"lon":5.37894,"is_reserved":false,"is_disabled":false,"rental_uris":{"android":"levelo://app?vid=6af71619-55d7-4358-bbfa-b9be7e591eec","ios":"levelo://app?vid=6af71619-55d7-4358-bbfa-b9be7e591eec"},"vehicle_type_id":"4","last_reported":1687079173,"current_range_meters":30400,"station_id":"ce4bgup2rcd13ifvqcn0","pricing_plan_id":"free"},{"bike_id":"d7cee3d1-e5c8-4267-b573-15bc6a486341","system_id":"levelo_inurba_marseille","lat":43.304606,"lon":5.379026,"is_reserved":false,"is_disabled":false,"rental_uris":{"android":"levelo://app?vid=d7cee3d1-e5c8-4267-b573-15bc6a486341","ios":"levelo://app?vid=d7cee3d1-e5c8-4267-b573-15bc6a486341"},"vehicle_type_id":"4","last_reported":1687079173,"current_range_meters":28000,"station_id":"ce4bgup2rcd13ifvqcn0","pricing_plan_id":"free"},{"bike_id":"2af58f89-da6c-4881-a491-0f999477af01","system_id":"levelo_inurba_marseille","lat":43.304606,"lon":5.379026,"is_reserved":false,"is_disabled":false,"rental_uris":{"android":"levelo://app?vid=2af58f89-da6c-4881-a491-0f999477af01","ios":"levelo://app?vid=2af58f89-da6c-4881-a491-0f999477af01"},"vehicle_type_id":"4","last_reported":1687079173,"current_range_meters":31200,"station_id":"ce4bgup2rcd13ifvqcn0","pricing_plan_id":"free"},{"bike_id":"90673d94-9f73-4e56-88f7-3d56ffe099ae","system_id":"levelo_inurba_marseille","lat":43.3046,"lon":5.37902,"is_reserved":false,"is_disabled":false,"rental_uris":{"android":"levelo://app?vid=90673d94-9f73-4e56-88f7-3d56ffe099ae","ios":"levelo://app?vid=90673d94-9f73-4e56-88f7-3d56ffe099ae"},"vehicle_type_id":"4","last_reported":1687079173,"current_range_meters":25200,"station_id":"ce4bgup2rcd13ifvqcn0","pricing_plan_id":"free"},{"bike_id":"0f50bc38-376d-4bb7-ad7d-953ea3e74739","system_id":"levelo_inurba_marseille","lat":43.30458,"lon":5.37901,"is_reserved":false,"is_disabled":false,"rental_uris":{"android":"levelo://app?vid=0f50bc38-376d-4bb7-ad7d-953ea3e74739","ios":"levelo://app?vid=0f50bc38-376d-4bb7-ad7d-953ea3e74739"},"vehicle_type_id":"4","last_reported":1687079173,"current_range_meters":22400,"station_id":"ce4bgup2rcd13ifvqcn0","pricing_plan_id":"free"},{"bike_id":"43fc693e-f2a9-4aec-8fd9-d094bb02cb70","system_id":"levelo_inurba_marseille","lat":43.304606,"lon":5.379026,"is_reserved":false,"is_disabled":false,"rental_uris":{"android":"levelo://app?vid=43fc693e-f2a9-4aec-8fd9-d094bb02cb70","ios":"levelo://app?vid=43fc693e-f2a9-4aec-8fd9-d094bb02cb70"},"vehicle_type_id":"4","last_reported":1687079173,"current_range_meters":18000,"station_id":"ce4bgup2rcd13ifvqcn0","pricing_plan_id":"free"},{"bike_id":"c1eca126-780e-41a2-99d7-e9f60ddff16d","system_id":"levelo_inurba_marseille","lat":43.30143,"lon":5.37413,"is_reserved":false,"is_disabled":false,"rental_uris":{"android":"levelo://app?vid=c1eca126-780e-41a2-99d7-e9f60ddff16d","ios":"levelo://app?vid=c1eca126-780e-41a2-99d7-e9f60ddff16d"},"vehicle_type_id":"4","last_reported":1687079173,"current_range_meters":22800,"station_id":"ce4bgs92rcd13ifvqcc0","pricing_plan_id":"free"},{"bike_id":"09cd0a2f-5397-440d-bdb7-da28f031f592","system_id":"levelo_inurba_marseille","lat":43.302784,"lon":5.377158,"is_reserved":false,"is_disabled":false,"rental_uris":{"android":"levelo://app?vid=09cd0a2f-5397-440d-bdb7-da28f031f592","ios":"levelo://app?vid=09cd0a2f-5397-440d-bdb7-da28f031f592"},"vehicle_type_id":"4","last_reported":1687079173,"current_range_meters":3200,"station_id":"ce4bguh2rcd13ifvqcj0","pricing_plan_id":"free"},{"bike_id":"40e7df5d-04d5-43a9-926f-863219d91841","system_id":"levelo_inurba_marseille","lat":43.319935,"lon":5.381699,"is_reserved":false,"is_disabled":false,"rental_uris":{"android":"levelo://app?vid=40e7df5d-04d5-43a9-926f-863219d91841","ios":"levelo://app?vid=40e7df5d-04d5-43a9-926f-863219d91841"},"vehicle_type_id":"4","last_reported":1687079173,"current_range_meters":29200,"station_id":"ce4bhr12rcd13ifvqhpg","pricing_plan_id":"free"},{"bike_id":"485bc12e-b97d-460d-a761-3f26cdf7abb4","system_id":"levelo_inurba_marseille","lat":43.319935,"lon":5.381699,"is_reserved":false,"is_disabled":false,"rental_uris":{"android":"levelo://app?vid=485bc12e-b97d-460d-a761-3f26cdf7abb4","ios":"levelo://app?vid=485bc12e-b97d-460d-a761-3f26cdf7abb4"},"vehicle_type_id":"4","last_reported":1687079173,"current_range_meters":27200,"station_id":"ce4bhr12rcd13ifvqhpg","pricing_plan_id":"free"},{"bike_id":"4c755050-5aed-45e0-9296-927fc41158ba","system_id":"levelo_inurba_marseille","lat":43.319935,"lon":5.381699,"is_reserved":false,"is_disabled":false,"rental_uris":{"android":"levelo://app?vid=4c755050-5aed-45e0-9296-927fc41158ba","ios":"levelo://app?vid=4c755050-5aed-45e0-9296-927fc41158ba"},"vehicle_type_id":"4","last_reported":1687079173,"current_range_meters":26400,"station_id":"ce4bhr12rcd13ifvqhpg","pricing_plan_id":"free"},{"bike_id":"3c3aa989-db63-4017-86a4-556c2b8f3d59","system_id":"levelo_inurba_marseille","lat":43.319935,"lon":5.381699,"is_reserved":false,"is_disabled":false,"rental_uris":{"android":"levelo://app?vid=3c3aa989-db63-4017-86a4-556c2b8f3d59","ios":"levelo://app?vid=3c3aa989-db63-4017-86a4-556c2b8f3d59"},"vehicle_type_id":"4","last_reported":1687079173,"current_range_meters":18800,"station_id":"ce4bhr12rcd13ifvqhpg","pricing_plan_id":"free"},{"bike_id":"1d47b2e2-b6b2-467e-89b2-30c2b3dd988b","system_id":"levelo_inurba_marseille","lat":43.31376,"lon":5.38516,"is_reserved":false,"is_disabled":false,"rental_uris":{"android":"levelo://app?vid=1d47b2e2-b6b2-467e-89b2-30c2b3dd988b","ios":"levelo://app?vid=1d47b2e2-b6b2-467e-89b2-30c2b3dd988b"},"vehicle_type_id":"4","last_reported":1687079173,"current_range_meters":12400,"station_id":"","pricing_plan_id":"free"},{"bike_id":"be8d0fa6-e8a0-44b9-a65c-d2de64de8b98","system_id":"levelo_inurba_marseille","lat":43.299222,"lon":5.365554,"is_reserved":false,"is_disabled":false,"rental_uris":{"android":"levelo://app?vid=be8d0fa6-e8a0-44b9-a65c-d2de64de8b98","ios":"levelo://app?vid=be8d0fa6-e8a0-44b9-a65c-d2de64de8b98"},"vehicle_type_id":"4","last_reported":1687079173,"current_range_meters":23600,"station_id":"ce4bgm92rcd13ifvqbr0","pricing_plan_id":"free"},{"bike_id":"95324398-79ac-486a-98a8-0bf1bd032c85","system_id":"levelo_inurba_marseille","lat":43.299222,"lon":5.365554,"is_reserved":false,"is_disabled":false,"rental_uris":{"android":"levelo://app?vid=95324398-79ac-486a-98a8-0bf1bd032c85","ios":"levelo://app?vid=95324398-79ac-486a-98a8-0bf1bd032c85"},"vehicle_type_id":"4","last_reported":1687079173,"current_range_meters":16000,"station_id":"ce4bgm92rcd13ifvqbr0","pricing_plan_id":"free"},{"bike_id":"330412da-b9eb-49fa-9ba0-9288ee9ddd31","system_id":"levelo_inurba_marseille","lat":43.30041,"lon":5.3753,"is_reserved":false,"is_disabled":false,"rental_uris":{"android":"levelo://app?vid=330412da-b9eb-49fa-9ba0-9288ee9ddd31","ios":"levelo://app?vid=330412da-b9eb-49fa-9ba0-9288ee9ddd31"},"vehicle_type_id":"4","last_reported":1687079173,"current_range_meters":15200,"station_id":"","pricing_plan_id":"free"},{"bike_id":"28057b64-8b20-4e17-929e-0f2eb09b4f52","system_id":"levelo_inurba_marseille","lat":43.299243,"lon":5.37481,"is_reserved":false,"is_disabled":false,"rental_uris":{"android":"levelo://app?vid=28057b64-8b20-4e17-929e-0f2eb09b4f52","ios":"levelo://app?vid=28057b64-8b20-4e17-929e-0f2eb09b4f52"},"vehicle_type_id":"4","last_reported":1687079173,"current_range_meters":23600,"station_id":"ce4bgjh2rcd13ifvqbg0","pricing_plan_id":"free"},{"bike_id":"691058ef-3225-465e-90fd-12f259766037","system_id":"levelo_inurba_marseille","lat":43.298433,"lon":5.362774,"is_reserved":false,"is_disabled":false,"rental_uris":{"android":"levelo://app?vid=691058ef-3225-465e-90fd-12f259766037","ios":"levelo://app?vid=691058ef-3225-465e-90fd-12f259766037"},"vehicle_type_id":"4","last_reported":1687079173,"current_range_meters":31200,"station_id":"ce4bgpp2rcd13ifvqc3g","pricing_plan_id":"free"},{"bike_id":"748c2fb6-6887-41cd-91c5-74fb8b130677","system_id":"levelo_inurba_marseille","lat":43.298433,"lon":5.362774,"is_reserved":false,"is_disabled":false,"rental_uris":{"android":"levelo://app?vid=748c2fb6-6887-41cd-91c5-74fb8b130677","ios":"levelo://app?vid=748c2fb6-6887-41cd-91c5-74fb8b130677"},"vehicle_type_id":"4","last_reported":1687079173,"current_range_meters":31200,"station_id":"ce4bgpp2rcd13ifvqc3g","pricing_plan_id":"free"},{"bike_id":"cf3b0f3c-1aeb-47b4-b585-7679238acd34","system_id":"levelo_inurba_marseille","lat":43.305364,"lon":5.384119,"is_reserved":false,"is_disabled":false,"rental_uris":{"android":"levelo://app?vid=cf3b0f3c-1aeb-47b4-b585-7679238acd34","ios":"levelo://app?vid=cf3b0f3c-1aeb-47b4-b585-7679238acd34"},"vehicle_type_id":"4","last_reported":1687079173,"current_range_meters":21200,"station_id":"ce4bgg92rcd13ifvqb30","pricing_plan_id":"free"},{"bike_id":"36830517-d173-4c42-bffa-438f7ce99078","system_id":"levelo_inurba_marseille","lat":43.299243,"lon":5.37481,"is_reserved":false,"is_disabled":false,"rental_uris":{"android":"levelo://app?vid=36830517-d173-4c42-bffa-438f7ce99078","ios":"levelo://app?vid=36830517-d173-4c42-bffa-438f7ce99078"},"vehicle_type_id":"4","last_reported":1687079173,"current_range_meters":2800,"station_id":"ce4bgjh2rcd13ifvqbg0","pricing_plan_id":"free"},{"bike_id":"e77d7ab0-1c57-4844-a9fc-2e2666c6ca94","system_id":"levelo_inurba_marseille","lat":43.29774,"lon":5.36954,"is_reserved":false,"is_disabled":false,"rental_uris":{"android":"levelo://app?vid=e77d7ab0-1c57-4844-a9fc-2e2666c6ca94","ios":"levelo://app?vid=e77d7ab0-1c57-4844-a9fc-2e2666c6ca94"},"vehicle_type_id":"4","last_reported":1687079173,"current_range_meters":31200,"station_id":"","pricing_plan_id":"free"},{"bike_id":"dc6816cf-686d-42b8-aa2c-35ce5b78aa9b","system_id":"levelo_inurba_marseille","lat":43.297774,"lon":5.370875,"is_reserved":false,"is_disabled":false,"rental_uris":{"android":"levelo://app?vid=dc6816cf-686d-42b8-aa2c-35ce5b78aa9b","ios":"levelo://app?vid=dc6816cf-686d-42b8-aa2c-35ce5b78aa9b"},"vehicle_type_id":"4","last_reported":1687079173,"current_range_meters":1200,"station_id":"ce4bgop2rcd13ifvqc1g","pricing_plan_id":"free"},{"bike_id":"d2933e25-8a13-41ab-8d61-ff4c0aded063","system_id":"levelo_inurba_marseille","lat":43.297774,"lon":5.370875,"is_reserved":false,"is_disabled":false,"rental_uris":{"android":"levelo://app?vid=d2933e25-8a13-41ab-8d61-ff4c0aded063","ios":"levelo://app?vid=d2933e25-8a13-41ab-8d61-ff4c0aded063"},"vehicle_type_id":"4","last_reported":1687079173,"current_range_meters":24400,"station_id":"ce4bgop2rcd13ifvqc1g","pricing_plan_id":"free"},{"bike_id":"d8eda6e4-f79f-4ded-bba3-de73394363f8","system_id":"levelo_inurba_marseille","lat":43.328371,"lon":5.366909,"is_reserved":false,"is_disabled":false,"rental_uris":{"android":"levelo://app?vid=d8eda6e4-f79f-4ded-bba3-de73394363f8","ios":"levelo://app?vid=d8eda6e4-f79f-4ded-bba3-de73394363f8"},"vehicle_type_id":"4","last_reported":1687079173,"current_range_meters":20800,"station_id":"ce4bhs92rcd13ifvqi0g","pricing_plan_id":"free"},{"bike_id":"3b343a5c-8423-476a-a7c8-83278a85a66d","system_id":"levelo_inurba_marseille","lat":43.328371,"lon":5.366909,"is_reserved":false,"is_disabled":false,"rental_uris":{"android":"levelo://app?vid=3b343a5c-8423-476a-a7c8-83278a85a66d","ios":"levelo://app?vid=3b343a5c-8423-476a-a7c8-83278a85a66d"},"vehicle_type_id":"4","last_reported":1687079173,"current_range_meters":400,"station_id":"ce4bhs92rcd13ifvqi0g","pricing_plan_id":"free"},{"bike_id":"5a3d057e-bbd5-40c5-982e-f22c9ac8f3e3","system_id":"levelo_inurba_marseille","lat":43.328371,"lon":5.366909,"is_reserved":false,"is_disabled":false,"rental_uris":{"android":"levelo://app?vid=5a3d057e-bbd5-40c5-982e-f22c9ac8f3e3","ios":"levelo://app?vid=5a3d057e-bbd5-40c5-982e-f22c9ac8f3e3"},"vehicle_type_id":"4","last_reported":1687079173,"current_range_meters":2400,"station_id":"ce4bhs92rcd13ifvqi0g","pricing_plan_id":"free"},{"bike_id":"6d5ccf33-759a-4c7a-af82-9f67388b4177","system_id":"levelo_inurba_marseille","lat":43.328371,"lon":5.366909,"is_reserved":false,"is_disabled":false,"rental_uris":{"android":"levelo://app?vid=6d5ccf33-759a-4c7a-af82-9f67388b4177","ios":"levelo://app?vid=6d5ccf33-759a-4c7a-af82-9f67388b4177"},"vehicle_type_id":"4","last_reported":1687079173,"current_range_meters":30800,"station_id":"ce4bhs92rcd13ifvqi0g","pricing_plan_id":"free"},{"bike_id":"731cce5d-c725-402d-b941-54910a08f036","system_id":"levelo_inurba_marseille","lat":43.32826,"lon":5.36678,"is_reserved":false,"is_disabled":false,"rental_uris":{"android":"levelo://app?vid=731cce5d-c725-402d-b941-54910a08f036","ios":"levelo://app?vid=731cce5d-c725-402d-b941-54910a08f036"},"vehicle_type_id":"4","last_reported":1687079173,"current_range_meters":31200,"station_id":"ce4bhs92rcd13ifvqi0g","pricing_plan_id":"free"},{"bike_id":"eb463cab-b54c-4ed2-a710-d6d777606789","system_id":"levelo_inurba_marseille","lat":43.328371,"lon":5.366909,"is_reserved":false,"is_disabled":false,"rental_uris":{"android":"levelo://app?vid=eb463cab-b54c-4ed2-a710-d6d777606789","ios":"levelo://app?vid=eb463cab-b54c-4ed2-a710-d6d777606789"},"vehicle_type_id":"4","last_reported":1687079173,"current_range_meters":18800,"station_id":"ce4bhs92rcd13ifvqi0g","pricing_plan_id":"free"},{"bike_id":"dba9e30e-a749-43fa-a75b-51b691339771","system_id":"levelo_inurba_marseille","lat":43.328371,"lon":5.366909,"is_reserved":false,"is_disabled":false,"rental_uris":{"android":"levelo://app?vid=dba9e30e-a749-43fa-a75b-51b691339771","ios":"levelo://app?vid=dba9e30e-a749-43fa-a75b-51b691339771"},"vehicle_type_id":"4","last_reported":1687079173,"current_range_meters":31200,"station_id":"ce4bhs92rcd13ifvqi0g","pricing_plan_id":"free"},{"bike_id":"69bf5c29-7e5d-45c7-b1b2-514d42707ee7","system_id":"levelo_inurba_marseille","lat":43.328371,"lon":5.366909,"is_reserved":false,"is_disabled":false,"rental_uris":{"android":"levelo://app?vid=69bf5c29-7e5d-45c7-b1b2-514d42707ee7","ios":"levelo://app?vid=69bf5c29-7e5d-45c7-b1b2-514d42707ee7"},"vehicle_type_id":"4","last_reported":1687079173,"current_range_meters":30800,"station_id":"ce4bhs92rcd13ifvqi0g","pricing_plan_id":"free"},{"bike_id":"dda6279d-c720-4a16-b12b-7a2eeb994a1a","system_id":"levelo_inurba_marseille","lat":43.297163,"lon":5.365866,"is_reserved":false,"is_disabled":false,"rental_uris":{"android":"levelo://app?vid=dda6279d-c720-4a16-b12b-7a2eeb994a1a","ios":"levelo://app?vid=dda6279d-c720-4a16-b12b-7a2eeb994a1a"},"vehicle_type_id":"4","last_reported":1687079173,"current_range_meters":0,"station_id":"ce4bgn12rcd13ifvqbt0","pricing_plan_id":"free"},{"bike_id":"176f4894-d7fc-460e-aa5d-7c8c1e206dc3","system_id":"levelo_inurba_marseille","lat":43.297163,"lon":5.365866,"is_reserved":false,"is_disabled":false,"rental_uris":{"android":"levelo://app?vid=176f4894-d7fc-460e-aa5d-7c8c1e206dc3","ios":"levelo://app?vid=176f4894-d7fc-460e-aa5d-7c8c1e206dc3"},"vehicle_type_id":"4","last_reported":1687079173,"current_range_meters":11600,"station_id":"ce4bgn12rcd13ifvqbt0","pricing_plan_id":"free"},{"bike_id":"7305d8d9-7d56-41c2-ae77-869303774f4d","system_id":"levelo_inurba_marseille","lat":43.32837,"lon":5.3668,"is_reserved":false,"is_disabled":false,"rental_uris":{"android":"levelo://app?vid=7305d8d9-7d56-41c2-ae77-869303774f4d","ios":"levelo://app?vid=7305d8d9-7d56-41c2-ae77-869303774f4d"},"vehicle_type_id":"4","last_reported":1687079173,"current_range_meters":16000,"station_id":"ce4bhs92rcd13ifvqi0g","pricing_plan_id":"free"},{"bike_id":"8ce6ec36-c402-41d9-b494-60c523b2e446","system_id":"levelo_inurba_marseille","lat":43.297163,"lon":5.365866,"is_reserved":false,"is_disabled":false,"rental_uris":{"android":"levelo://app?vid=8ce6ec36-c402-41d9-b494-60c523b2e446","ios":"levelo://app?vid=8ce6ec36-c402-41d9-b494-60c523b2e446"},"vehicle_type_id":"4","last_reported":1687079173,"current_range_meters":26000,"station_id":"ce4bgn12rcd13ifvqbt0","pricing_plan_id":"free"},{"bike_id":"88d0330c-5bb0-4a19-9b65-d4683b42e015","system_id":"levelo_inurba_marseille","lat":43.29683,"lon":5.36046,"is_reserved":false,"is_disabled":false,"rental_uris":{"android":"levelo://app?vid=88d0330c-5bb0-4a19-9b65-d4683b42e015","ios":"levelo://app?vid=88d0330c-5bb0-4a19-9b65-d4683b42e015"},"vehicle_type_id":"4","last_reported":1687079173,"current_range_meters":3200,"station_id":"","pricing_plan_id":"free"},{"bike_id":"36f1fec3-8fcf-47ce-b70d-a21aee193b91","system_id":"levelo_inurba_marseille","lat":43.29624,"lon":5.37151,"is_reserved":false,"is_disabled":false,"rental_uris":{"android":"levelo://app?vid=36f1fec3-8fcf-47ce-b70d-a21aee193b91","ios":"levelo://app?vid=36f1fec3-8fcf-47ce-b70d-a21aee193b91"},"vehicle_type_id":"4","last_reported":1687079173,"current_range_meters":30800,"station_id":"ce4bgk12rcd13ifvqbj0","pricing_plan_id":"free"},{"bike_id":"6a101b96-8c27-40f3-a57c-0a74021262bc","system_id":"levelo_inurba_marseille","lat":43.296131,"lon":5.370791,"is_reserved":false,"is_disabled":false,"rental_uris":{"android":"levelo://app?vid=6a101b96-8c27-40f3-a57c-0a74021262bc","ios":"levelo://app?vid=6a101b96-8c27-40f3-a57c-0a74021262bc"},"vehicle_type_id":"4","last_reported":1687079173,"current_range_meters":20800,"station_id":"ce4bgnh2rcd13ifvqc0g","pricing_plan_id":"free"},{"bike_id":"5bdb1cd3-6795-4104-a130-01871ae08048","system_id":"levelo_inurba_marseille","lat":43.296131,"lon":5.370791,"is_reserved":false,"is_disabled":false,"rental_uris":{"android":"levelo://app?vid=5bdb1cd3-6795-4104-a130-01871ae08048","ios":"levelo://app?vid=5bdb1cd3-6795-4104-a130-01871ae08048"},"vehicle_type_id":"4","last_reported":1687079173,"current_range_meters":23200,"station_id":"ce4bgnh2rcd13ifvqc0g","pricing_plan_id":"free"},{"bike_id":"c69da6a3-693a-448c-8682-fe7aa8782e65","system_id":"levelo_inurba_marseille","lat":43.296129,"lon":5.370777,"is_reserved":false,"is_disabled":false,"rental_uris":{"android":"levelo://app?vid=c69da6a3-693a-448c-8682-fe7aa8782e65","ios":"levelo://app?vid=c69da6a3-693a-448c-8682-fe7aa8782e65"},"vehicle_type_id":"4","last_reported":1687079173,"current_range_meters":21600,"station_id":"ce4bgnh2rcd13ifvqc0g","pricing_plan_id":"free"},{"bike_id":"33005838-378a-4fde-9580-a35f7107ff45","system_id":"levelo_inurba_marseille","lat":43.29573,"lon":5.367355,"is_reserved":false,"is_disabled":false,"rental_uris":{"android":"levelo://app?vid=33005838-378a-4fde-9580-a35f7107ff45","ios":"levelo://app?vid=33005838-378a-4fde-9580-a35f7107ff45"},"vehicle_type_id":"4","last_reported":1687079173,"current_range_meters":2400,"station_id":"ce4bgph2rcd13ifvqc2g","pricing_plan_id":"free"},{"bike_id":"30fb9927-a13a-4518-8da5-e546e20849b6","system_id":"levelo_inurba_marseille","lat":43.29581,"lon":5.3674,"is_reserved":false,"is_disabled":false,"rental_uris":{"android":"levelo://app?vid=30fb9927-a13a-4518-8da5-e546e20849b6","ios":"levelo://app?vid=30fb9927-a13a-4518-8da5-e546e20849b6"},"vehicle_type_id":"4","last_reported":1687079173,"current_range_meters":10800,"station_id":"ce4bgph2rcd13ifvqc2g","pricing_plan_id":"free"},{"bike_id":"c685757e-f5c4-47d5-9b90-3a4ec793d780","system_id":"levelo_inurba_marseille","lat":43.29573,"lon":5.367355,"is_reserved":false,"is_disabled":false,"rental_uris":{"android":"levelo://app?vid=c685757e-f5c4-47d5-9b90-3a4ec793d780","ios":"levelo://app?vid=c685757e-f5c4-47d5-9b90-3a4ec793d780"},"vehicle_type_id":"4","last_reported":1687079173,"current_range_meters":22000,"station_id":"ce4bgph2rcd13ifvqc2g","pricing_plan_id":"free"},{"bike_id":"24f41ca5-b432-4feb-a0c8-a15026b97306","system_id":"levelo_inurba_marseille","lat":43.296131,"lon":5.370773,"is_reserved":false,"is_disabled":false,"rental_uris":{"android":"levelo://app?vid=24f41ca5-b432-4feb-a0c8-a15026b97306","ios":"levelo://app?vid=24f41ca5-b432-4feb-a0c8-a15026b97306"},"vehicle_type_id":"4","last_reported":1687079173,"current_range_meters":12800,"station_id":"ce4bgnh2rcd13ifvqc0g","pricing_plan_id":"free"},{"bike_id":"e7ba3014-7882-4336-8c1f-1a8931defcbf","system_id":"levelo_inurba_marseille","lat":43.29573,"lon":5.367355,"is_reserved":false,"is_disabled":false,"rental_uris":{"android":"levelo://app?vid=e7ba3014-7882-4336-8c1f-1a8931defcbf","ios":"levelo://app?vid=e7ba3014-7882-4336-8c1f-1a8931defcbf"},"vehicle_type_id":"4","last_reported":1687079173,"current_range_meters":30400,"station_id":"ce4bgph2rcd13ifvqc2g","pricing_plan_id":"free"},{"bike_id":"db5ca77a-dd8c-4e77-bc3b-a013e828b5ae","system_id":"levelo_inurba_marseille","lat":43.29573,"lon":5.367355,"is_reserved":false,"is_disabled":false,"rental_uris":{"android":"levelo://app?vid=db5ca77a-dd8c-4e77-bc3b-a013e828b5ae","ios":"levelo://app?vid=db5ca77a-dd8c-4e77-bc3b-a013e828b5ae"},"vehicle_type_id":"4","last_reported":1687079173,"current_range_meters":30400,"station_id":"ce4bgph2rcd13ifvqc2g","pricing_plan_id":"free"},{"bike_id":"dab115bf-1cab-4b8d-ad6a-67fda1d71234","system_id":"levelo_inurba_marseille","lat":43.3176,"lon":5.39019,"is_reserved":false,"is_disabled":false,"rental_uris":{"android":"levelo://app?vid=dab115bf-1cab-4b8d-ad6a-67fda1d71234","ios":"levelo://app?vid=dab115bf-1cab-4b8d-ad6a-67fda1d71234"},"vehicle_type_id":"4","last_reported":1687079173,"current_range_meters":25200,"station_id":"ce4bhqp2rcd13ifvqhng","pricing_plan_id":"free"},{"bike_id":"d89a6111-594c-4044-bab7-fa8ad5f81068","system_id":"levelo_inurba_marseille","lat":43.317557,"lon":5.390173,"is_reserved":false,"is_disabled":false,"rental_uris":{"android":"levelo://app?vid=d89a6111-594c-4044-bab7-fa8ad5f81068","ios":"levelo://app?vid=d89a6111-594c-4044-bab7-fa8ad5f81068"},"vehicle_type_id":"4","last_reported":1687079173,"current_range_meters":31200,"station_id":"ce4bhqp2rcd13ifvqhng","pricing_plan_id":"free"},{"bike_id":"c18824e4-26d3-48f7-af69-27c44319ec26","system_id":"levelo_inurba_marseille","lat":43.317557,"lon":5.390173,"is_reserved":false,"is_disabled":false,"rental_uris":{"android":"levelo://app?vid=c18824e4-26d3-48f7-af69-27c44319ec26","ios":"levelo://app?vid=c18824e4-26d3-48f7-af69-27c44319ec26"},"vehicle_type_id":"4","last_reported":1687079173,"current_range_meters":28000,"station_id":"ce4bhqp2rcd13ifvqhng","pricing_plan_id":"free"},{"bike_id":"4a10882c-7152-4233-bc08-3e7673adbd38","system_id":"levelo_inurba_marseille","lat":43.317557,"lon":5.390173,"is_reserved":false,"is_disabled":false,"rental_uris":{"android":"levelo://app?vid=4a10882c-7152-4233-bc08-3e7673adbd38","ios":"levelo://app?vid=4a10882c-7152-4233-bc08-3e7673adbd38"},"vehicle_type_id":"4","last_reported":1687079173,"current_range_meters":25200,"station_id":"ce4bhqp2rcd13ifvqhng","pricing_plan_id":"free"},{"bike_id":"bf073c01-043f-4a84-96fa-04d2d380037c","system_id":"levelo_inurba_marseille","lat":43.304278,"lon":5.388868,"is_reserved":false,"is_disabled":false,"rental_uris":{"android":"levelo://app?vid=bf073c01-043f-4a84-96fa-04d2d380037c","ios":"levelo://app?vid=bf073c01-043f-4a84-96fa-04d2d380037c"},"vehicle_type_id":"4","last_reported":1687079173,"current_range_meters":24400,"station_id":"ce4bgk12rcd13ifvqbi0","pricing_plan_id":"free"},{"bike_id":"a1cee431-1eb9-4d87-aee9-d971befe5f59","system_id":"levelo_inurba_marseille","lat":43.29582,"lon":5.37515,"is_reserved":false,"is_disabled":false,"rental_uris":{"android":"levelo://app?vid=a1cee431-1eb9-4d87-aee9-d971befe5f59","ios":"levelo://app?vid=a1cee431-1eb9-4d87-aee9-d971befe5f59"},"vehicle_type_id":"4","last_reported":1687079173,"current_range_meters":9600,"station_id":"ce4bgh92rcd13ifvqb50","pricing_plan_id":"free"},{"bike_id":"3e71d77e-46a6-4a2b-ac56-7cc0cd6459eb","system_id":"levelo_inurba_marseille","lat":43.29576,"lon":5.37505,"is_reserved":false,"is_disabled":false,"rental_uris":{"android":"levelo://app?vid=3e71d77e-46a6-4a2b-ac56-7cc0cd6459eb","ios":"levelo://app?vid=3e71d77e-46a6-4a2b-ac56-7cc0cd6459eb"},"vehicle_type_id":"4","last_reported":1687079173,"current_range_meters":22800,"station_id":"ce4bgh92rcd13ifvqb50","pricing_plan_id":"free"},{"bike_id":"0f69de0f-57b7-44b0-b216-2dfac4f458e0","system_id":"levelo_inurba_marseille","lat":43.296277,"lon":5.377108,"is_reserved":false,"is_disabled":false,"rental_uris":{"android":"levelo://app?vid=0f69de0f-57b7-44b0-b216-2dfac4f458e0","ios":"levelo://app?vid=0f69de0f-57b7-44b0-b216-2dfac4f458e0"},"vehicle_type_id":"4","last_reported":1687079173,"current_range_meters":14000,"station_id":"ce4bgi92rcd13ifvqb90","pricing_plan_id":"free"},{"bike_id":"1e3e7482-cd9a-4ad3-8aa4-a23c1ec26bea","system_id":"levelo_inurba_marseille","lat":43.29575,"lon":5.37514,"is_reserved":false,"is_disabled":false,"rental_uris":{"android":"levelo://app?vid=1e3e7482-cd9a-4ad3-8aa4-a23c1ec26bea","ios":"levelo://app?vid=1e3e7482-cd9a-4ad3-8aa4-a23c1ec26bea"},"vehicle_type_id":"4","last_reported":1687079173,"current_range_meters":28800,"station_id":"ce4bgh92rcd13ifvqb50","pricing_plan_id":"free"},{"bike_id":"695f095d-7eec-40c7-a209-ae212412113e","system_id":"levelo_inurba_marseille","lat":43.296277,"lon":5.377108,"is_reserved":false,"is_disabled":false,"rental_uris":{"android":"levelo://app?vid=695f095d-7eec-40c7-a209-ae212412113e","ios":"levelo://app?vid=695f095d-7eec-40c7-a209-ae212412113e"},"vehicle_type_id":"4","last_reported":1687079173,"current_range_meters":8800,"station_id":"ce4bgi92rcd13ifvqb90","pricing_plan_id":"free"},{"bike_id":"250c8a96-8498-4211-b8f3-1b00a8d1fbaf","system_id":"levelo_inurba_marseille","lat":43.296477,"lon":5.37768,"is_reserved":false,"is_disabled":false,"rental_uris":{"android":"levelo://app?vid=250c8a96-8498-4211-b8f3-1b00a8d1fbaf","ios":"levelo://app?vid=250c8a96-8498-4211-b8f3-1b00a8d1fbaf"},"vehicle_type_id":"4","last_reported":1687079173,"current_range_meters":13200,"station_id":"","pricing_plan_id":"free"},{"bike_id":"57c546ea-5c76-4487-82dc-eaf2c99526c1","system_id":"levelo_inurba_marseille","lat":43.29569,"lon":5.37509,"is_reserved":false,"is_disabled":false,"rental_uris":{"android":"levelo://app?vid=57c546ea-5c76-4487-82dc-eaf2c99526c1","ios":"levelo://app?vid=57c546ea-5c76-4487-82dc-eaf2c99526c1"},"vehicle_type_id":"4","last_reported":1687079173,"current_range_meters":30400,"station_id":"ce4bgh92rcd13ifvqb50","pricing_plan_id":"free"},{"bike_id":"f8feb3a3-a8a7-4217-a975-cbfff833ee26","system_id":"levelo_inurba_marseille","lat":43.295748,"lon":5.37522,"is_reserved":false,"is_disabled":false,"rental_uris":{"android":"levelo://app?vid=f8feb3a3-a8a7-4217-a975-cbfff833ee26","ios":"levelo://app?vid=f8feb3a3-a8a7-4217-a975-cbfff833ee26"},"vehicle_type_id":"4","last_reported":1687079173,"current_range_meters":30400,"station_id":"ce4bgh92rcd13ifvqb50","pricing_plan_id":"free"},{"bike_id":"523fc2c0-7036-4718-9d36-199d1e1ff94f","system_id":"levelo_inurba_marseille","lat":43.29569,"lon":5.37514,"is_reserved":false,"is_disabled":false,"rental_uris":{"android":"levelo://app?vid=523fc2c0-7036-4718-9d36-199d1e1ff94f","ios":"levelo://app?vid=523fc2c0-7036-4718-9d36-199d1e1ff94f"},"vehicle_type_id":"4","last_reported":1687079173,"current_range_meters":28400,"station_id":"ce4bgh92rcd13ifvqb50","pricing_plan_id":"free"},{"bike_id":"09576bdc-be54-481c-840a-878999517bfb","system_id":"levelo_inurba_marseille","lat":43.295748,"lon":5.37522,"is_reserved":false,"is_disabled":false,"rental_uris":{"android":"levelo://app?vid=09576bdc-be54-481c-840a-878999517bfb","ios":"levelo://app?vid=09576bdc-be54-481c-840a-878999517bfb"},"vehicle_type_id":"4","last_reported":1687079173,"current_range_meters":31200,"station_id":"ce4bgh92rcd13ifvqb50","pricing_plan_id":"free"},{"bike_id":"ea8d19c1-90a8-4256-8ce3-0cfac3665e7d","system_id":"levelo_inurba_marseille","lat":43.29564,"lon":5.37501,"is_reserved":false,"is_disabled":false,"rental_uris":{"android":"levelo://app?vid=ea8d19c1-90a8-4256-8ce3-0cfac3665e7d","ios":"levelo://app?vid=ea8d19c1-90a8-4256-8ce3-0cfac3665e7d"},"vehicle_type_id":"4","last_reported":1687079173,"current_range_meters":29600,"station_id":"ce4bgh92rcd13ifvqb50","pricing_plan_id":"free"},{"bike_id":"7a90a306-b712-4f5d-9806-324593b5ee8d","system_id":"levelo_inurba_marseille","lat":43.2956,"lon":5.37498,"is_reserved":false,"is_disabled":false,"rental_uris":{"android":"levelo://app?vid=7a90a306-b712-4f5d-9806-324593b5ee8d","ios":"levelo://app?vid=7a90a306-b712-4f5d-9806-324593b5ee8d"},"vehicle_type_id":"4","last_reported":1687079173,"current_range_meters":25200,"station_id":"ce4bgh92rcd13ifvqb50","pricing_plan_id":"free"},{"bike_id":"5bd2e06f-a815-4c6e-b85f-5eca4b27fef1","system_id":"levelo_inurba_marseille","lat":43.295748,"lon":5.37522,"is_reserved":false,"is_disabled":false,"rental_uris":{"android":"levelo://app?vid=5bd2e06f-a815-4c6e-b85f-5eca4b27fef1","ios":"levelo://app?vid=5bd2e06f-a815-4c6e-b85f-5eca4b27fef1"},"vehicle_type_id":"4","last_reported":1687079173,"current_range_meters":12800,"station_id":"ce4bgh92rcd13ifvqb50","pricing_plan_id":"free"},{"bike_id":"c3d67095-2118-4ede-bddb-605d46544bd2","system_id":"levelo_inurba_marseille","lat":43.295748,"lon":5.37522,"is_reserved":false,"is_disabled":false,"rental_uris":{"android":"levelo://app?vid=c3d67095-2118-4ede-bddb-605d46544bd2","ios":"levelo://app?vid=c3d67095-2118-4ede-bddb-605d46544bd2"},"vehicle_type_id":"4","last_reported":1687079173,"current_range_meters":31200,"station_id":"ce4bgh92rcd13ifvqb50","pricing_plan_id":"free"},{"bike_id":"02049657-5121-4fb7-9f37-295b75764de0","system_id":"levelo_inurba_marseille","lat":43.296277,"lon":5.377108,"is_reserved":false,"is_disabled":false,"rental_uris":{"android":"levelo://app?vid=02049657-5121-4fb7-9f37-295b75764de0","ios":"levelo://app?vid=02049657-5121-4fb7-9f37-295b75764de0"},"vehicle_type_id":"4","last_reported":1687079173,"current_range_meters":31200,"station_id":"ce4bgi92rcd13ifvqb90","pricing_plan_id":"free"},{"bike_id":"4838a826-69ed-41cc-9e4d-6cb0e4eddff0","system_id":"levelo_inurba_marseille","lat":43.296263,"lon":5.377094,"is_reserved":false,"is_disabled":false,"rental_uris":{"android":"levelo://app?vid=4838a826-69ed-41cc-9e4d-6cb0e4eddff0","ios":"levelo://app?vid=4838a826-69ed-41cc-9e4d-6cb0e4eddff0"},"vehicle_type_id":"4","last_reported":1687079173,"current_range_meters":31600,"station_id":"ce4bgi92rcd13ifvqb90","pricing_plan_id":"free"},{"bike_id":"eb56f040-d7e3-440c-9d05-82afe187dd21","system_id":"levelo_inurba_marseille","lat":43.29992,"lon":5.38516,"is_reserved":false,"is_disabled":false,"rental_uris":{"android":"levelo://app?vid=eb56f040-d7e3-440c-9d05-82afe187dd21","ios":"levelo://app?vid=eb56f040-d7e3-440c-9d05-82afe187dd21"},"vehicle_type_id":"4","last_reported":1687079173,"current_range_meters":29200,"station_id":"","pricing_plan_id":"free"},{"bike_id":"7c3888e2-b2e2-4879-998b-dedb5fc772a5","system_id":"levelo_inurba_marseille","lat":43.295279,"lon":5.375048,"is_reserved":false,"is_disabled":false,"rental_uris":{"android":"levelo://app?vid=7c3888e2-b2e2-4879-998b-dedb5fc772a5","ios":"levelo://app?vid=7c3888e2-b2e2-4879-998b-dedb5fc772a5"},"vehicle_type_id":"4","last_reported":1687079173,"current_range_meters":20800,"station_id":"ce4bgkp2rcd13ifvqbmg","pricing_plan_id":"free"},{"bike_id":"6bf2229b-f534-4647-b322-42cb17c0e26c","system_id":"levelo_inurba_marseille","lat":43.32367,"lon":5.388836,"is_reserved":false,"is_disabled":false,"rental_uris":{"android":"levelo://app?vid=6bf2229b-f534-4647-b322-42cb17c0e26c","ios":"levelo://app?vid=6bf2229b-f534-4647-b322-42cb17c0e26c"},"vehicle_type_id":"4","last_reported":1687079173,"current_range_meters":17600,"station_id":"ce4bhqp2rcd13ifvqhog","pricing_plan_id":"free"},{"bike_id":"6b4d4d55-f9ce-4a35-a295-795e3acc7e51","system_id":"levelo_inurba_marseille","lat":43.32367,"lon":5.388836,"is_reserved":false,"is_disabled":false,"rental_uris":{"android":"levelo://app?vid=6b4d4d55-f9ce-4a35-a295-795e3acc7e51","ios":"levelo://app?vid=6b4d4d55-f9ce-4a35-a295-795e3acc7e51"},"vehicle_type_id":"4","last_reported":1687079173,"current_range_meters":26400,"station_id":"ce4bhqp2rcd13ifvqhog","pricing_plan_id":"free"},{"bike_id":"c25bbca6-334a-48c9-b2aa-c69eb97c9d81","system_id":"levelo_inurba_marseille","lat":43.32367,"lon":5.388836,"is_reserved":false,"is_disabled":false,"rental_uris":{"android":"levelo://app?vid=c25bbca6-334a-48c9-b2aa-c69eb97c9d81","ios":"levelo://app?vid=c25bbca6-334a-48c9-b2aa-c69eb97c9d81"},"vehicle_type_id":"4","last_reported":1687079173,"current_range_meters":10400,"station_id":"ce4bhqp2rcd13ifvqhog","pricing_plan_id":"free"},{"bike_id":"57f97489-c42b-4c9d-8f2a-d39ab8b39f5a","system_id":"levelo_inurba_marseille","lat":43.32367,"lon":5.388836,"is_reserved":false,"is_disabled":false,"rental_uris":{"android":"levelo://app?vid=57f97489-c42b-4c9d-8f2a-d39ab8b39f5a","ios":"levelo://app?vid=57f97489-c42b-4c9d-8f2a-d39ab8b39f5a"},"vehicle_type_id":"4","last_reported":1687079173,"current_range_meters":10400,"station_id":"ce4bhqp2rcd13ifvqhog","pricing_plan_id":"free"},{"bike_id":"2c9ad911-25e0-4222-8751-d809dfadd582","system_id":"levelo_inurba_marseille","lat":43.32367,"lon":5.388836,"is_reserved":false,"is_disabled":false,"rental_uris":{"android":"levelo://app?vid=2c9ad911-25e0-4222-8751-d809dfadd582","ios":"levelo://app?vid=2c9ad911-25e0-4222-8751-d809dfadd582"},"vehicle_type_id":"4","last_reported":1687079173,"current_range_meters":22000,"station_id":"ce4bhqp2rcd13ifvqhog","pricing_plan_id":"free"},{"bike_id":"a5d34394-8ea3-4622-ac56-bc8a8abe2d11","system_id":"levelo_inurba_marseille","lat":43.32367,"lon":5.388836,"is_reserved":false,"is_disabled":false,"rental_uris":{"android":"levelo://app?vid=a5d34394-8ea3-4622-ac56-bc8a8abe2d11","ios":"levelo://app?vid=a5d34394-8ea3-4622-ac56-bc8a8abe2d11"},"vehicle_type_id":"4","last_reported":1687079173,"current_range_meters":31200,"station_id":"ce4bhqp2rcd13ifvqhog","pricing_plan_id":"free"},{"bike_id":"994ffda2-4c5a-4608-9f56-696508fcf4bd","system_id":"levelo_inurba_marseille","lat":43.32367,"lon":5.388836,"is_reserved":false,"is_disabled":false,"rental_uris":{"android":"levelo://app?vid=994ffda2-4c5a-4608-9f56-696508fcf4bd","ios":"levelo://app?vid=994ffda2-4c5a-4608-9f56-696508fcf4bd"},"vehicle_type_id":"4","last_reported":1687079173,"current_range_meters":13200,"station_id":"ce4bhqp2rcd13ifvqhog","pricing_plan_id":"free"},{"bike_id":"05d585c0-9c9e-4f05-83e5-50aae80e7424","system_id":"levelo_inurba_marseille","lat":43.32367,"lon":5.388836,"is_reserved":false,"is_disabled":false,"rental_uris":{"android":"levelo://app?vid=05d585c0-9c9e-4f05-83e5-50aae80e7424","ios":"levelo://app?vid=05d585c0-9c9e-4f05-83e5-50aae80e7424"},"vehicle_type_id":"4","last_reported":1687079173,"current_range_meters":31200,"station_id":"ce4bhqp2rcd13ifvqhog","pricing_plan_id":"free"},{"bike_id":"fb3c245c-0bb0-44cd-81cf-5afc329f2992","system_id":"levelo_inurba_marseille","lat":43.29399,"lon":5.37339,"is_reserved":false,"is_disabled":false,"rental_uris":{"android":"levelo://app?vid=fb3c245c-0bb0-44cd-81cf-5afc329f2992","ios":"levelo://app?vid=fb3c245c-0bb0-44cd-81cf-5afc329f2992"},"vehicle_type_id":"4","last_reported":1687079173,"current_range_meters":26400,"station_id":"","pricing_plan_id":"free"},{"bike_id":"27dd78af-fbb0-48ba-b80d-f7fbb1608659","system_id":"levelo_inurba_marseille","lat":43.3237,"lon":5.38882,"is_reserved":false,"is_disabled":false,"rental_uris":{"android":"levelo://app?vid=27dd78af-fbb0-48ba-b80d-f7fbb1608659","ios":"levelo://app?vid=27dd78af-fbb0-48ba-b80d-f7fbb1608659"},"vehicle_type_id":"4","last_reported":1687079173,"current_range_meters":30800,"station_id":"ce4bhqp2rcd13ifvqhog","pricing_plan_id":"free"},{"bike_id":"cfa9b4f7-7811-44b5-9d0b-f6805c1f39aa","system_id":"levelo_inurba_marseille","lat":43.29591,"lon":5.38092,"is_reserved":false,"is_disabled":false,"rental_uris":{"android":"levelo://app?vid=cfa9b4f7-7811-44b5-9d0b-f6805c1f39aa","ios":"levelo://app?vid=cfa9b4f7-7811-44b5-9d0b-f6805c1f39aa"},"vehicle_type_id":"4","last_reported":1687079173,"current_range_meters":26000,"station_id":"ce4bgl12rcd13ifvqbo0","pricing_plan_id":"free"},{"bike_id":"68f274de-53f0-48a5-a1da-dff8ea8a8eb4","system_id":"levelo_inurba_marseille","lat":43.29307,"lon":5.37181,"is_reserved":false,"is_disabled":false,"rental_uris":{"android":"levelo://app?vid=68f274de-53f0-48a5-a1da-dff8ea8a8eb4","ios":"levelo://app?vid=68f274de-53f0-48a5-a1da-dff8ea8a8eb4"},"vehicle_type_id":"4","last_reported":1687079173,"current_range_meters":29600,"station_id":"ce4bgh92rcd13ifvqb40","pricing_plan_id":"free"},{"bike_id":"0130661b-f494-4193-a5bf-ce4daf73daa8","system_id":"levelo_inurba_marseille","lat":43.293249,"lon":5.371578,"is_reserved":false,"is_disabled":false,"rental_uris":{"android":"levelo://app?vid=0130661b-f494-4193-a5bf-ce4daf73daa8","ios":"levelo://app?vid=0130661b-f494-4193-a5bf-ce4daf73daa8"},"vehicle_type_id":"4","last_reported":1687079173,"current_range_meters":0,"station_id":"ce4bgh92rcd13ifvqb40","pricing_plan_id":"free"},{"bike_id":"999111ce-c011-494c-bf0e-f4398eb21a2d","system_id":"levelo_inurba_marseille","lat":43.29275,"lon":5.36847,"is_reserved":false,"is_disabled":false,"rental_uris":{"android":"levelo://app?vid=999111ce-c011-494c-bf0e-f4398eb21a2d","ios":"levelo://app?vid=999111ce-c011-494c-bf0e-f4398eb21a2d"},"vehicle_type_id":"4","last_reported":1687079173,"current_range_meters":25600,"station_id":"ce4bhbp2rcd13ifvqesg","pricing_plan_id":"free"},{"bike_id":"9cdf2192-7d2f-442f-a3ec-f2a6f824dc06","system_id":"levelo_inurba_marseille","lat":43.30254,"lon":5.39064,"is_reserved":false,"is_disabled":false,"rental_uris":{"android":"levelo://app?vid=9cdf2192-7d2f-442f-a3ec-f2a6f824dc06","ios":"levelo://app?vid=9cdf2192-7d2f-442f-a3ec-f2a6f824dc06"},"vehicle_type_id":"4","last_reported":1687079173,"current_range_meters":3600,"station_id":"","pricing_plan_id":"free"},{"bike_id":"e2447046-0400-4ebf-b32a-8aa0e74ae9b8","system_id":"levelo_inurba_marseille","lat":43.2936,"lon":5.37835,"is_reserved":false,"is_disabled":false,"rental_uris":{"android":"levelo://app?vid=e2447046-0400-4ebf-b32a-8aa0e74ae9b8","ios":"levelo://app?vid=e2447046-0400-4ebf-b32a-8aa0e74ae9b8"},"vehicle_type_id":"4","last_reported":1687079173,"current_range_meters":30000,"station_id":"ce4bgjh2rcd13ifvqbf0","pricing_plan_id":"free"},{"bike_id":"06d363f6-c89e-44dc-ac03-9f075f51bec6","system_id":"levelo_inurba_marseille","lat":43.2936,"lon":5.37835,"is_reserved":false,"is_disabled":false,"rental_uris":{"android":"levelo://app?vid=06d363f6-c89e-44dc-ac03-9f075f51bec6","ios":"levelo://app?vid=06d363f6-c89e-44dc-ac03-9f075f51bec6"},"vehicle_type_id":"4","last_reported":1687079173,"current_range_meters":20000,"station_id":"ce4bgjh2rcd13ifvqbf0","pricing_plan_id":"free"},{"bike_id":"aa8ddecd-d944-4466-bcae-3b13a7e54c68","system_id":"levelo_inurba_marseille","lat":43.292311,"lon":5.360731,"is_reserved":false,"is_disabled":false,"rental_uris":{"android":"levelo://app?vid=aa8ddecd-d944-4466-bcae-3b13a7e54c68","ios":"levelo://app?vid=aa8ddecd-d944-4466-bcae-3b13a7e54c68"},"vehicle_type_id":"4","last_reported":1687079173,"current_range_meters":28800,"station_id":"ce4bhbh2rcd13ifvqeqg","pricing_plan_id":"free"},{"bike_id":"b1b4b194-3815-4792-ab50-d59cb0bcf256","system_id":"levelo_inurba_marseille","lat":43.292311,"lon":5.360731,"is_reserved":false,"is_disabled":false,"rental_uris":{"android":"levelo://app?vid=b1b4b194-3815-4792-ab50-d59cb0bcf256","ios":"levelo://app?vid=b1b4b194-3815-4792-ab50-d59cb0bcf256"},"vehicle_type_id":"4","last_reported":1687079173,"current_range_meters":31600,"station_id":"ce4bhbh2rcd13ifvqeqg","pricing_plan_id":"free"},{"bike_id":"78d48d52-a1c4-4178-8d5a-88db0a001870","system_id":"levelo_inurba_marseille","lat":43.29225,"lon":5.36052,"is_reserved":false,"is_disabled":false,"rental_uris":{"android":"levelo://app?vid=78d48d52-a1c4-4178-8d5a-88db0a001870","ios":"levelo://app?vid=78d48d52-a1c4-4178-8d5a-88db0a001870"},"vehicle_type_id":"4","last_reported":1687079173,"current_range_meters":14000,"station_id":"ce4bhbh2rcd13ifvqeqg","pricing_plan_id":"free"},{"bike_id":"9149ad13-99c3-4d8d-9f11-7f17e36161b4","system_id":"levelo_inurba_marseille","lat":43.292311,"lon":5.360731,"is_reserved":false,"is_disabled":false,"rental_uris":{"android":"levelo://app?vid=9149ad13-99c3-4d8d-9f11-7f17e36161b4","ios":"levelo://app?vid=9149ad13-99c3-4d8d-9f11-7f17e36161b4"},"vehicle_type_id":"4","last_reported":1687079173,"current_range_meters":25200,"station_id":"ce4bhbh2rcd13ifvqeqg","pricing_plan_id":"free"},{"bike_id":"46289fa7-65b2-43e0-962d-7f4b0c7e7f37","system_id":"levelo_inurba_marseille","lat":43.30892,"lon":5.39632,"is_reserved":false,"is_disabled":false,"rental_uris":{"android":"levelo://app?vid=46289fa7-65b2-43e0-962d-7f4b0c7e7f37","ios":"levelo://app?vid=46289fa7-65b2-43e0-962d-7f4b0c7e7f37"},"vehicle_type_id":"4","last_reported":1687079173,"current_range_meters":23600,"station_id":"ce4bh012rcd13ifvqcv0","pricing_plan_id":"free"},{"bike_id":"6e0481f9-6ddb-4384-a2ef-55bc755b8540","system_id":"levelo_inurba_marseille","lat":43.309038,"lon":5.396546,"is_reserved":false,"is_disabled":false,"rental_uris":{"android":"levelo://app?vid=6e0481f9-6ddb-4384-a2ef-55bc755b8540","ios":"levelo://app?vid=6e0481f9-6ddb-4384-a2ef-55bc755b8540"},"vehicle_type_id":"4","last_reported":1687079173,"current_range_meters":18400,"station_id":"ce4bh012rcd13ifvqcv0","pricing_plan_id":"free"},{"bike_id":"fdec3b17-726b-4ffe-b2dc-8da9341fb36c","system_id":"levelo_inurba_marseille","lat":43.29184,"lon":5.35793,"is_reserved":false,"is_disabled":false,"rental_uris":{"android":"levelo://app?vid=fdec3b17-726b-4ffe-b2dc-8da9341fb36c","ios":"levelo://app?vid=fdec3b17-726b-4ffe-b2dc-8da9341fb36c"},"vehicle_type_id":"4","last_reported":1687079173,"current_range_meters":29200,"station_id":"ce4bhb12rcd13ifvqel0","pricing_plan_id":"free"},{"bike_id":"08e7f3b3-4b9a-45d9-9b63-b31d0ec72120","system_id":"levelo_inurba_marseille","lat":43.29182,"lon":5.35796,"is_reserved":false,"is_disabled":false,"rental_uris":{"android":"levelo://app?vid=08e7f3b3-4b9a-45d9-9b63-b31d0ec72120","ios":"levelo://app?vid=08e7f3b3-4b9a-45d9-9b63-b31d0ec72120"},"vehicle_type_id":"4","last_reported":1687079173,"current_range_meters":30800,"station_id":"ce4bhb12rcd13ifvqel0","pricing_plan_id":"free"},{"bike_id":"7cf83295-93ce-4d98-8ab3-3a33e10b8852","system_id":"levelo_inurba_marseille","lat":43.290779,"lon":5.371482,"is_reserved":false,"is_disabled":false,"rental_uris":{"android":"levelo://app?vid=7cf83295-93ce-4d98-8ab3-3a33e10b8852","ios":"levelo://app?vid=7cf83295-93ce-4d98-8ab3-3a33e10b8852"},"vehicle_type_id":"4","last_reported":1687079173,"current_range_meters":31200,"station_id":"ce4bh5p2rcd13ifvqe4g","pricing_plan_id":"free"},{"bike_id":"1eaac866-6025-4164-96b8-d62140c4e209","system_id":"levelo_inurba_marseille","lat":43.290779,"lon":5.371482,"is_reserved":false,"is_disabled":false,"rental_uris":{"android":"levelo://app?vid=1eaac866-6025-4164-96b8-d62140c4e209","ios":"levelo://app?vid=1eaac866-6025-4164-96b8-d62140c4e209"},"vehicle_type_id":"4","last_reported":1687079173,"current_range_meters":31200,"station_id":"ce4bh5p2rcd13ifvqe4g","pricing_plan_id":"free"},{"bike_id":"300411f7-fcbd-42d1-8fb5-b4b764f31a8f","system_id":"levelo_inurba_marseille","lat":43.302008,"lon":5.394694,"is_reserved":false,"is_disabled":false,"rental_uris":{"android":"levelo://app?vid=300411f7-fcbd-42d1-8fb5-b4b764f31a8f","ios":"levelo://app?vid=300411f7-fcbd-42d1-8fb5-b4b764f31a8f"},"vehicle_type_id":"4","last_reported":1687079173,"current_range_meters":19600,"station_id":"ce4bh0p2rcd13ifvqd70","pricing_plan_id":"free"},{"bike_id":"6a8b856a-2769-4865-86dc-9a97782975f0","system_id":"levelo_inurba_marseille","lat":43.29033,"lon":5.35924,"is_reserved":false,"is_disabled":false,"rental_uris":{"android":"levelo://app?vid=6a8b856a-2769-4865-86dc-9a97782975f0","ios":"levelo://app?vid=6a8b856a-2769-4865-86dc-9a97782975f0"},"vehicle_type_id":"4","last_reported":1687079173,"current_range_meters":0,"station_id":"","pricing_plan_id":"free"},{"bike_id":"d12ab1aa-3f2f-4e55-a523-43b5ecc5f23d","system_id":"levelo_inurba_marseille","lat":43.289184,"lon":5.366408,"is_reserved":false,"is_disabled":false,"rental_uris":{"android":"levelo://app?vid=d12ab1aa-3f2f-4e55-a523-43b5ecc5f23d","ios":"levelo://app?vid=d12ab1aa-3f2f-4e55-a523-43b5ecc5f23d"},"vehicle_type_id":"4","last_reported":1687079173,"current_range_meters":24000,"station_id":"ce4bhap2rcd13ifvqek0","pricing_plan_id":"free"},{"bike_id":"f91dff6b-5131-45db-8964-4da227977c8b","system_id":"levelo_inurba_marseille","lat":43.289468,"lon":5.363719,"is_reserved":false,"is_disabled":false,"rental_uris":{"android":"levelo://app?vid=f91dff6b-5131-45db-8964-4da227977c8b","ios":"levelo://app?vid=f91dff6b-5131-45db-8964-4da227977c8b"},"vehicle_type_id":"4","last_reported":1687079173,"current_range_meters":20000,"station_id":"ce4bhc92rcd13ifvqetg","pricing_plan_id":"free"},{"bike_id":"f4f4e5ef-b65f-4442-970e-660c10e6df35","system_id":"levelo_inurba_marseille","lat":43.289184,"lon":5.366408,"is_reserved":false,"is_disabled":false,"rental_uris":{"android":"levelo://app?vid=f4f4e5ef-b65f-4442-970e-660c10e6df35","ios":"levelo://app?vid=f4f4e5ef-b65f-4442-970e-660c10e6df35"},"vehicle_type_id":"4","last_reported":1687079173,"current_range_meters":18400,"station_id":"ce4bhap2rcd13ifvqek0","pricing_plan_id":"free"},{"bike_id":"97a1e2a1-1195-427e-a923-2e31e54d595b","system_id":"levelo_inurba_marseille","lat":43.289468,"lon":5.363719,"is_reserved":false,"is_disabled":false,"rental_uris":{"android":"levelo://app?vid=97a1e2a1-1195-427e-a923-2e31e54d595b","ios":"levelo://app?vid=97a1e2a1-1195-427e-a923-2e31e54d595b"},"vehicle_type_id":"4","last_reported":1687079173,"current_range_meters":30000,"station_id":"ce4bhc92rcd13ifvqetg","pricing_plan_id":"free"},{"bike_id":"8ab0a5e9-c49d-45c2-bf0f-2abf6c18c20c","system_id":"levelo_inurba_marseille","lat":43.29013,"lon":5.37582,"is_reserved":false,"is_disabled":false,"rental_uris":{"android":"levelo://app?vid=8ab0a5e9-c49d-45c2-bf0f-2abf6c18c20c","ios":"levelo://app?vid=8ab0a5e9-c49d-45c2-bf0f-2abf6c18c20c"},"vehicle_type_id":"4","last_reported":1687079173,"current_range_meters":19600,"station_id":"ce4bh9p2rcd13ifvqed0","pricing_plan_id":"free"},{"bike_id":"38eb09af-7166-42b9-865e-84246929498f","system_id":"levelo_inurba_marseille","lat":43.292642,"lon":5.384254,"is_reserved":false,"is_disabled":false,"rental_uris":{"android":"levelo://app?vid=38eb09af-7166-42b9-865e-84246929498f","ios":"levelo://app?vid=38eb09af-7166-42b9-865e-84246929498f"},"vehicle_type_id":"4","last_reported":1687079173,"current_range_meters":31200,"station_id":"ce4bh692rcd13ifvqea0","pricing_plan_id":"free"},{"bike_id":"07e10cdf-e3c6-4ac1-875f-031bc6c5f47c","system_id":"levelo_inurba_marseille","lat":43.304274,"lon":5.397513,"is_reserved":false,"is_disabled":false,"rental_uris":{"android":"levelo://app?vid=07e10cdf-e3c6-4ac1-875f-031bc6c5f47c","ios":"levelo://app?vid=07e10cdf-e3c6-4ac1-875f-031bc6c5f47c"},"vehicle_type_id":"4","last_reported":1687079173,"current_range_meters":30400,"station_id":"ce4bh092rcd13ifvqd20","pricing_plan_id":"free"},{"bike_id":"189ecafb-c78c-4089-b106-b3164abfa9db","system_id":"levelo_inurba_marseille","lat":43.28983,"lon":5.37599,"is_reserved":false,"is_disabled":false,"rental_uris":{"android":"levelo://app?vid=189ecafb-c78c-4089-b106-b3164abfa9db","ios":"levelo://app?vid=189ecafb-c78c-4089-b106-b3164abfa9db"},"vehicle_type_id":"4","last_reported":1687079173,"current_range_meters":26400,"station_id":"","pricing_plan_id":"free"},{"bike_id":"83fdf6bd-193b-4634-9358-cac1da76eb67","system_id":"levelo_inurba_marseille","lat":43.304296,"lon":5.397513,"is_reserved":false,"is_disabled":false,"rental_uris":{"android":"levelo://app?vid=83fdf6bd-193b-4634-9358-cac1da76eb67","ios":"levelo://app?vid=83fdf6bd-193b-4634-9358-cac1da76eb67"},"vehicle_type_id":"4","last_reported":1687079173,"current_range_meters":26800,"station_id":"ce4bh092rcd13ifvqd20","pricing_plan_id":"free"},{"bike_id":"7a19f85c-3a1e-497c-ac40-4aee991e94ff","system_id":"levelo_inurba_marseille","lat":43.33036,"lon":5.38919,"is_reserved":false,"is_disabled":false,"rental_uris":{"android":"levelo://app?vid=7a19f85c-3a1e-497c-ac40-4aee991e94ff","ios":"levelo://app?vid=7a19f85c-3a1e-497c-ac40-4aee991e94ff"},"vehicle_type_id":"4","last_reported":1687079173,"current_range_meters":31200,"station_id":"ce4bhr92rcd13ifvqhrg","pricing_plan_id":"free"},{"bike_id":"abe683c4-1005-478b-9c98-8e7695d3f91b","system_id":"levelo_inurba_marseille","lat":43.33037,"lon":5.38921,"is_reserved":false,"is_disabled":false,"rental_uris":{"android":"levelo://app?vid=abe683c4-1005-478b-9c98-8e7695d3f91b","ios":"levelo://app?vid=abe683c4-1005-478b-9c98-8e7695d3f91b"},"vehicle_type_id":"4","last_reported":1687079173,"current_range_meters":23200,"station_id":"ce4bhr92rcd13ifvqhrg","pricing_plan_id":"free"},{"bike_id":"34e8793d-3e78-430c-9712-0f9923b8824e","system_id":"levelo_inurba_marseille","lat":43.3304,"lon":5.38919,"is_reserved":false,"is_disabled":false,"rental_uris":{"android":"levelo://app?vid=34e8793d-3e78-430c-9712-0f9923b8824e","ios":"levelo://app?vid=34e8793d-3e78-430c-9712-0f9923b8824e"},"vehicle_type_id":"4","last_reported":1687079173,"current_range_meters":28800,"station_id":"ce4bhr92rcd13ifvqhrg","pricing_plan_id":"free"},{"bike_id":"69b9077c-e52f-467f-924c-edaaf68c6e10","system_id":"levelo_inurba_marseille","lat":43.33038,"lon":5.38922,"is_reserved":false,"is_disabled":false,"rental_uris":{"android":"levelo://app?vid=69b9077c-e52f-467f-924c-edaaf68c6e10","ios":"levelo://app?vid=69b9077c-e52f-467f-924c-edaaf68c6e10"},"vehicle_type_id":"4","last_reported":1687079173,"current_range_meters":31200,"station_id":"ce4bhr92rcd13ifvqhrg","pricing_plan_id":"free"},{"bike_id":"fa914137-8a19-49af-93ef-82351cad330f","system_id":"levelo_inurba_marseille","lat":43.33041,"lon":5.38918,"is_reserved":false,"is_disabled":false,"rental_uris":{"android":"levelo://app?vid=fa914137-8a19-49af-93ef-82351cad330f","ios":"levelo://app?vid=fa914137-8a19-49af-93ef-82351cad330f"},"vehicle_type_id":"4","last_reported":1687079173,"current_range_meters":18000,"station_id":"ce4bhr92rcd13ifvqhrg","pricing_plan_id":"free"},{"bike_id":"95c066a4-e4d6-47f9-9ac2-324b145985cd","system_id":"levelo_inurba_marseille","lat":43.3304,"lon":5.3892,"is_reserved":false,"is_disabled":false,"rental_uris":{"android":"levelo://app?vid=95c066a4-e4d6-47f9-9ac2-324b145985cd","ios":"levelo://app?vid=95c066a4-e4d6-47f9-9ac2-324b145985cd"},"vehicle_type_id":"4","last_reported":1687079173,"current_range_meters":12800,"station_id":"ce4bhr92rcd13ifvqhrg","pricing_plan_id":"free"},{"bike_id":"e72c469b-9dd8-41b9-80c8-95bd3f013c51","system_id":"levelo_inurba_marseille","lat":43.290104,"lon":5.356111,"is_reserved":false,"is_disabled":false,"rental_uris":{"android":"levelo://app?vid=e72c469b-9dd8-41b9-80c8-95bd3f013c51","ios":"levelo://app?vid=e72c469b-9dd8-41b9-80c8-95bd3f013c51"},"vehicle_type_id":"4","last_reported":1687079173,"current_range_meters":23600,"station_id":"ce4bhb92rcd13ifvqen0","pricing_plan_id":"free"},{"bike_id":"de1e93de-1fae-4e67-88d2-51f9864478a2","system_id":"levelo_inurba_marseille","lat":43.33041,"lon":5.3892,"is_reserved":false,"is_disabled":false,"rental_uris":{"android":"levelo://app?vid=de1e93de-1fae-4e67-88d2-51f9864478a2","ios":"levelo://app?vid=de1e93de-1fae-4e67-88d2-51f9864478a2"},"vehicle_type_id":"4","last_reported":1687079173,"current_range_meters":17600,"station_id":"ce4bhr92rcd13ifvqhrg","pricing_plan_id":"free"},{"bike_id":"55c4fc83-4495-499d-8f80-4b519db72cd9","system_id":"levelo_inurba_marseille","lat":43.33042,"lon":5.38919,"is_reserved":false,"is_disabled":false,"rental_uris":{"android":"levelo://app?vid=55c4fc83-4495-499d-8f80-4b519db72cd9","ios":"levelo://app?vid=55c4fc83-4495-499d-8f80-4b519db72cd9"},"vehicle_type_id":"4","last_reported":1687079173,"current_range_meters":31200,"station_id":"ce4bhr92rcd13ifvqhrg","pricing_plan_id":"free"},{"bike_id":"40e59e64-9295-42a0-9590-a684a2d1ed78","system_id":"levelo_inurba_marseille","lat":43.3304,"lon":5.38923,"is_reserved":false,"is_disabled":false,"rental_uris":{"android":"levelo://app?vid=40e59e64-9295-42a0-9590-a684a2d1ed78","ios":"levelo://app?vid=40e59e64-9295-42a0-9590-a684a2d1ed78"},"vehicle_type_id":"4","last_reported":1687079173,"current_range_meters":17600,"station_id":"ce4bhr92rcd13ifvqhrg","pricing_plan_id":"free"},{"bike_id":"88bc1c72-07f6-4132-a2ab-76b81d2ef0af","system_id":"levelo_inurba_marseille","lat":43.33044,"lon":5.38918,"is_reserved":false,"is_disabled":false,"rental_uris":{"android":"levelo://app?vid=88bc1c72-07f6-4132-a2ab-76b81d2ef0af","ios":"levelo://app?vid=88bc1c72-07f6-4132-a2ab-76b81d2ef0af"},"vehicle_type_id":"4","last_reported":1687079173,"current_range_meters":16000,"station_id":"ce4bhr92rcd13ifvqhrg","pricing_plan_id":"free"},{"bike_id":"dea5ff33-aeab-41cd-b77a-d4f540a3a4d8","system_id":"levelo_inurba_marseille","lat":43.290103,"lon":5.356114,"is_reserved":false,"is_disabled":false,"rental_uris":{"android":"levelo://app?vid=dea5ff33-aeab-41cd-b77a-d4f540a3a4d8","ios":"levelo://app?vid=dea5ff33-aeab-41cd-b77a-d4f540a3a4d8"},"vehicle_type_id":"4","last_reported":1687079173,"current_range_meters":29200,"station_id":"ce4bhb92rcd13ifvqen0","pricing_plan_id":"free"},{"bike_id":"f95d8be0-c840-4b03-9e0d-b8050ae0f057","system_id":"levelo_inurba_marseille","lat":43.33045,"lon":5.38921,"is_reserved":false,"is_disabled":false,"rental_uris":{"android":"levelo://app?vid=f95d8be0-c840-4b03-9e0d-b8050ae0f057","ios":"levelo://app?vid=f95d8be0-c840-4b03-9e0d-b8050ae0f057"},"vehicle_type_id":"4","last_reported":1687079173,"current_range_meters":24800,"station_id":"ce4bhr92rcd13ifvqhrg","pricing_plan_id":"free"},{"bike_id":"46a8e731-9ddb-4ace-907b-cbe70799f0ca","system_id":"levelo_inurba_marseille","lat":43.33043,"lon":5.38924,"is_reserved":false,"is_disabled":false,"rental_uris":{"android":"levelo://app?vid=46a8e731-9ddb-4ace-907b-cbe70799f0ca","ios":"levelo://app?vid=46a8e731-9ddb-4ace-907b-cbe70799f0ca"},"vehicle_type_id":"4","last_reported":1687079173,"current_range_meters":29600,"station_id":"ce4bhr92rcd13ifvqhrg","pricing_plan_id":"free"},{"bike_id":"8fff2c6b-7de2-42eb-b9c7-b4957e635223","system_id":"levelo_inurba_marseille","lat":43.33045,"lon":5.38922,"is_reserved":false,"is_disabled":false,"rental_uris":{"android":"levelo://app?vid=8fff2c6b-7de2-42eb-b9c7-b4957e635223","ios":"levelo://app?vid=8fff2c6b-7de2-42eb-b9c7-b4957e635223"},"vehicle_type_id":"4","last_reported":1687079173,"current_range_meters":18000,"station_id":"ce4bhr92rcd13ifvqhrg","pricing_plan_id":"free"},{"bike_id":"4c52032b-ce52-4452-8b9f-9f212148fcc7","system_id":"levelo_inurba_marseille","lat":43.29595,"lon":5.39069,"is_reserved":false,"is_disabled":false,"rental_uris":{"android":"levelo://app?vid=4c52032b-ce52-4452-8b9f-9f212148fcc7","ios":"levelo://app?vid=4c52032b-ce52-4452-8b9f-9f212148fcc7"},"vehicle_type_id":"4","last_reported":1687079173,"current_range_meters":6000,"station_id":"","pricing_plan_id":"free"},{"bike_id":"854bd48a-2864-4f30-8725-fd31d5b702d6","system_id":"levelo_inurba_marseille","lat":43.290104,"lon":5.356111,"is_reserved":false,"is_disabled":false,"rental_uris":{"android":"levelo://app?vid=854bd48a-2864-4f30-8725-fd31d5b702d6","ios":"levelo://app?vid=854bd48a-2864-4f30-8725-fd31d5b702d6"},"vehicle_type_id":"4","last_reported":1687079173,"current_range_meters":30000,"station_id":"ce4bhb92rcd13ifvqen0","pricing_plan_id":"free"},{"bike_id":"ede3121c-43ea-4a36-9029-1ed0cc1116a0","system_id":"levelo_inurba_marseille","lat":43.297815,"lon":5.393548,"is_reserved":false,"is_disabled":false,"rental_uris":{"android":"levelo://app?vid=ede3121c-43ea-4a36-9029-1ed0cc1116a0","ios":"levelo://app?vid=ede3121c-43ea-4a36-9029-1ed0cc1116a0"},"vehicle_type_id":"4","last_reported":1687079173,"current_range_meters":10800,"station_id":"chh1huq6cuj3fo74tm60","pricing_plan_id":"free"},{"bike_id":"b9b44b37-7edf-4ab6-8685-17eb58a26dbc","system_id":"levelo_inurba_marseille","lat":43.295169,"lon":5.390426,"is_reserved":false,"is_disabled":false,"rental_uris":{"android":"levelo://app?vid=b9b44b37-7edf-4ab6-8685-17eb58a26dbc","ios":"levelo://app?vid=b9b44b37-7edf-4ab6-8685-17eb58a26dbc"},"vehicle_type_id":"4","last_reported":1687079173,"current_range_meters":28800,"station_id":"ce4bh3p2rcd13ifvqdp0","pricing_plan_id":"free"},{"bike_id":"fecbd0c2-bfeb-4320-8680-9bf772d4dcfa","system_id":"levelo_inurba_marseille","lat":43.33735,"lon":5.37472,"is_reserved":false,"is_disabled":false,"rental_uris":{"android":"levelo://app?vid=fecbd0c2-bfeb-4320-8680-9bf772d4dcfa","ios":"levelo://app?vid=fecbd0c2-bfeb-4320-8680-9bf772d4dcfa"},"vehicle_type_id":"4","last_reported":1687079173,"current_range_meters":30800,"station_id":"","pricing_plan_id":"free"},{"bike_id":"c0fb8083-e02d-4dec-b1b9-fa095e6c5b75","system_id":"levelo_inurba_marseille","lat":43.337396,"lon":5.374526,"is_reserved":false,"is_disabled":false,"rental_uris":{"android":"levelo://app?vid=c0fb8083-e02d-4dec-b1b9-fa095e6c5b75","ios":"levelo://app?vid=c0fb8083-e02d-4dec-b1b9-fa095e6c5b75"},"vehicle_type_id":"4","last_reported":1687079173,"current_range_meters":0,"station_id":"ce4bhp92rcd13ifvqhag","pricing_plan_id":"free"},{"bike_id":"5163578d-8747-43d5-b8fa-a2ad8c8b0efb","system_id":"levelo_inurba_marseille","lat":43.33748,"lon":5.37457,"is_reserved":false,"is_disabled":false,"rental_uris":{"android":"levelo://app?vid=5163578d-8747-43d5-b8fa-a2ad8c8b0efb","ios":"levelo://app?vid=5163578d-8747-43d5-b8fa-a2ad8c8b0efb"},"vehicle_type_id":"4","last_reported":1687079173,"current_range_meters":29600,"station_id":"","pricing_plan_id":"free"},{"bike_id":"41a8749b-6d93-4d1b-8e52-c5f60f65ae7c","system_id":"levelo_inurba_marseille","lat":43.33752,"lon":5.37443,"is_reserved":false,"is_disabled":false,"rental_uris":{"android":"levelo://app?vid=41a8749b-6d93-4d1b-8e52-c5f60f65ae7c","ios":"levelo://app?vid=41a8749b-6d93-4d1b-8e52-c5f60f65ae7c"},"vehicle_type_id":"4","last_reported":1687079173,"current_range_meters":27600,"station_id":"","pricing_plan_id":"free"},{"bike_id":"4f356222-17b5-4ae9-9064-9f9fc4ff12ee","system_id":"levelo_inurba_marseille","lat":43.30937,"lon":5.40149,"is_reserved":false,"is_disabled":false,"rental_uris":{"android":"levelo://app?vid=4f356222-17b5-4ae9-9064-9f9fc4ff12ee","ios":"levelo://app?vid=4f356222-17b5-4ae9-9064-9f9fc4ff12ee"},"vehicle_type_id":"4","last_reported":1687079173,"current_range_meters":11600,"station_id":"ce4bgvp2rcd13ifvqct0","pricing_plan_id":"free"},{"bike_id":"9fc2d521-b395-4924-8b62-ed7954c12a57","system_id":"levelo_inurba_marseille","lat":43.30636,"lon":5.40075,"is_reserved":false,"is_disabled":false,"rental_uris":{"android":"levelo://app?vid=9fc2d521-b395-4924-8b62-ed7954c12a57","ios":"levelo://app?vid=9fc2d521-b395-4924-8b62-ed7954c12a57"},"vehicle_type_id":"4","last_reported":1687079173,"current_range_meters":23600,"station_id":"ce4bh112rcd13ifvqda0","pricing_plan_id":"free"},{"bike_id":"395f5e88-55af-47d4-b488-3c0c072cd6d6","system_id":"levelo_inurba_marseille","lat":43.30634,"lon":5.40076,"is_reserved":false,"is_disabled":false,"rental_uris":{"android":"levelo://app?vid=395f5e88-55af-47d4-b488-3c0c072cd6d6","ios":"levelo://app?vid=395f5e88-55af-47d4-b488-3c0c072cd6d6"},"vehicle_type_id":"4","last_reported":1687079173,"current_range_meters":31200,"station_id":"ce4bh112rcd13ifvqda0","pricing_plan_id":"free"},{"bike_id":"9bc0e8c8-6396-4f9e-85bc-3da5b841a79b","system_id":"levelo_inurba_marseille","lat":43.301117,"lon":5.398795,"is_reserved":false,"is_disabled":false,"rental_uris":{"android":"levelo://app?vid=9bc0e8c8-6396-4f9e-85bc-3da5b841a79b","ios":"levelo://app?vid=9bc0e8c8-6396-4f9e-85bc-3da5b841a79b"},"vehicle_type_id":"4","last_reported":1687079173,"current_range_meters":22000,"station_id":"ce4bh0h2rcd13ifvqd40","pricing_plan_id":"free"},{"bike_id":"d7609247-8dc9-4f3d-ac68-99205e3a7833","system_id":"levelo_inurba_marseille","lat":43.3014,"lon":5.3989,"is_reserved":false,"is_disabled":false,"rental_uris":{"android":"levelo://app?vid=d7609247-8dc9-4f3d-ac68-99205e3a7833","ios":"levelo://app?vid=d7609247-8dc9-4f3d-ac68-99205e3a7833"},"vehicle_type_id":"4","last_reported":1687079173,"current_range_meters":12000,"station_id":"ce4bh0h2rcd13ifvqd40","pricing_plan_id":"free"},{"bike_id":"20271c70-be52-486b-882d-7f6df7e77e9a","system_id":"levelo_inurba_marseille","lat":43.323464,"lon":5.406297,"is_reserved":false,"is_disabled":false,"rental_uris":{"android":"levelo://app?vid=20271c70-be52-486b-882d-7f6df7e77e9a","ios":"levelo://app?vid=20271c70-be52-486b-882d-7f6df7e77e9a"},"vehicle_type_id":"4","last_reported":1687079173,"current_range_meters":18400,"station_id":"ce4bhq92rcd13ifvqhjg","pricing_plan_id":"free"},{"bike_id":"583ac131-b11a-4267-b07d-897dad6597aa","system_id":"levelo_inurba_marseille","lat":43.298681,"lon":5.397225,"is_reserved":false,"is_disabled":false,"rental_uris":{"android":"levelo://app?vid=583ac131-b11a-4267-b07d-897dad6597aa","ios":"levelo://app?vid=583ac131-b11a-4267-b07d-897dad6597aa"},"vehicle_type_id":"4","last_reported":1687079173,"current_range_meters":18400,"station_id":"ce4bh0h2rcd13ifvqd50","pricing_plan_id":"free"},{"bike_id":"beca1915-ea86-45ac-9221-7d2a5bf109dc","system_id":"levelo_inurba_marseille","lat":43.29884,"lon":5.39738,"is_reserved":false,"is_disabled":false,"rental_uris":{"android":"levelo://app?vid=beca1915-ea86-45ac-9221-7d2a5bf109dc","ios":"levelo://app?vid=beca1915-ea86-45ac-9221-7d2a5bf109dc"},"vehicle_type_id":"4","last_reported":1687079173,"current_range_meters":21200,"station_id":"ce4bh0h2rcd13ifvqd50","pricing_plan_id":"free"},{"bike_id":"85b30dc9-5c99-4471-8d69-a95d819eab94","system_id":"levelo_inurba_marseille","lat":43.29876,"lon":5.39737,"is_reserved":false,"is_disabled":false,"rental_uris":{"android":"levelo://app?vid=85b30dc9-5c99-4471-8d69-a95d819eab94","ios":"levelo://app?vid=85b30dc9-5c99-4471-8d69-a95d819eab94"},"vehicle_type_id":"4","last_reported":1687079173,"current_range_meters":18400,"station_id":"ce4bh0h2rcd13ifvqd50","pricing_plan_id":"free"},{"bike_id":"88c83a98-d64d-433f-9e3f-20f376d313a7","system_id":"levelo_inurba_marseille","lat":43.298681,"lon":5.397225,"is_reserved":false,"is_disabled":false,"rental_uris":{"android":"levelo://app?vid=88c83a98-d64d-433f-9e3f-20f376d313a7","ios":"levelo://app?vid=88c83a98-d64d-433f-9e3f-20f376d313a7"},"vehicle_type_id":"4","last_reported":1687079173,"current_range_meters":2400,"station_id":"ce4bh0h2rcd13ifvqd50","pricing_plan_id":"free"},{"bike_id":"a648541e-9f16-412c-91de-f6669f0669cb","system_id":"levelo_inurba_marseille","lat":43.286593,"lon":5.363346,"is_reserved":false,"is_disabled":false,"rental_uris":{"android":"levelo://app?vid=a648541e-9f16-412c-91de-f6669f0669cb","ios":"levelo://app?vid=a648541e-9f16-412c-91de-f6669f0669cb"},"vehicle_type_id":"4","last_reported":1687079173,"current_range_meters":20400,"station_id":"ce4bhah2rcd13ifvqej0","pricing_plan_id":"free"},{"bike_id":"2c76e0bb-9ed4-4338-9ed1-00f699962644","system_id":"levelo_inurba_marseille","lat":43.295194,"lon":5.39397,"is_reserved":false,"is_disabled":false,"rental_uris":{"android":"levelo://app?vid=2c76e0bb-9ed4-4338-9ed1-00f699962644","ios":"levelo://app?vid=2c76e0bb-9ed4-4338-9ed1-00f699962644"},"vehicle_type_id":"4","last_reported":1687079173,"current_range_meters":8800,"station_id":"ce4bh292rcd13ifvqdf0","pricing_plan_id":"free"},{"bike_id":"5f04cb93-2db4-45ed-b4c3-8b6fc338be9e","system_id":"levelo_inurba_marseille","lat":43.30244,"lon":5.40049,"is_reserved":false,"is_disabled":false,"rental_uris":{"android":"levelo://app?vid=5f04cb93-2db4-45ed-b4c3-8b6fc338be9e","ios":"levelo://app?vid=5f04cb93-2db4-45ed-b4c3-8b6fc338be9e"},"vehicle_type_id":"4","last_reported":1687079173,"current_range_meters":10400,"station_id":"","pricing_plan_id":"free"},{"bike_id":"21cf0a29-31c0-46c5-9516-b0f5847b8ecc","system_id":"levelo_inurba_marseille","lat":43.30244,"lon":5.40051,"is_reserved":false,"is_disabled":false,"rental_uris":{"android":"levelo://app?vid=21cf0a29-31c0-46c5-9516-b0f5847b8ecc","ios":"levelo://app?vid=21cf0a29-31c0-46c5-9516-b0f5847b8ecc"},"vehicle_type_id":"4","last_reported":1687079173,"current_range_meters":14000,"station_id":"","pricing_plan_id":"free"},{"bike_id":"8f392288-48e8-4530-bc9b-7a4bd7128a0b","system_id":"levelo_inurba_marseille","lat":43.302759,"lon":5.400793,"is_reserved":false,"is_disabled":false,"rental_uris":{"android":"levelo://app?vid=8f392288-48e8-4530-bc9b-7a4bd7128a0b","ios":"levelo://app?vid=8f392288-48e8-4530-bc9b-7a4bd7128a0b"},"vehicle_type_id":"4","last_reported":1687079173,"current_range_meters":31200,"station_id":"ce4bgvh2rcd13ifvqcs0","pricing_plan_id":"free"},{"bike_id":"363358b6-1711-4e58-99d3-4183c9c5eb18","system_id":"levelo_inurba_marseille","lat":43.302759,"lon":5.400793,"is_reserved":false,"is_disabled":false,"rental_uris":{"android":"levelo://app?vid=363358b6-1711-4e58-99d3-4183c9c5eb18","ios":"levelo://app?vid=363358b6-1711-4e58-99d3-4183c9c5eb18"},"vehicle_type_id":"4","last_reported":1687079173,"current_range_meters":20800,"station_id":"ce4bgvh2rcd13ifvqcs0","pricing_plan_id":"free"},{"bike_id":"0287f98a-d338-4eda-825e-5d11bf3aa33a","system_id":"levelo_inurba_marseille","lat":43.30245,"lon":5.40058,"is_reserved":false,"is_disabled":false,"rental_uris":{"android":"levelo://app?vid=0287f98a-d338-4eda-825e-5d11bf3aa33a","ios":"levelo://app?vid=0287f98a-d338-4eda-825e-5d11bf3aa33a"},"vehicle_type_id":"4","last_reported":1687079173,"current_range_meters":26800,"station_id":"","pricing_plan_id":"free"},{"bike_id":"533121de-47c3-457e-bdcc-d81f3e48da48","system_id":"levelo_inurba_marseille","lat":43.30247,"lon":5.4006,"is_reserved":false,"is_disabled":false,"rental_uris":{"android":"levelo://app?vid=533121de-47c3-457e-bdcc-d81f3e48da48","ios":"levelo://app?vid=533121de-47c3-457e-bdcc-d81f3e48da48"},"vehicle_type_id":"4","last_reported":1687079173,"current_range_meters":18400,"station_id":"","pricing_plan_id":"free"},{"bike_id":"ccc4a240-8c5b-4aad-825b-624effa7dfdb","system_id":"levelo_inurba_marseille","lat":43.302759,"lon":5.400793,"is_reserved":false,"is_disabled":false,"rental_uris":{"android":"levelo://app?vid=ccc4a240-8c5b-4aad-825b-624effa7dfdb","ios":"levelo://app?vid=ccc4a240-8c5b-4aad-825b-624effa7dfdb"},"vehicle_type_id":"4","last_reported":1687079173,"current_range_meters":24000,"station_id":"ce4bgvh2rcd13ifvqcs0","pricing_plan_id":"free"},{"bike_id":"b9d11a7a-8b84-44d9-9906-bfd0c7fdc492","system_id":"levelo_inurba_marseille","lat":43.302759,"lon":5.400793,"is_reserved":false,"is_disabled":false,"rental_uris":{"android":"levelo://app?vid=b9d11a7a-8b84-44d9-9906-bfd0c7fdc492","ios":"levelo://app?vid=b9d11a7a-8b84-44d9-9906-bfd0c7fdc492"},"vehicle_type_id":"4","last_reported":1687079173,"current_range_meters":20800,"station_id":"ce4bgvh2rcd13ifvqcs0","pricing_plan_id":"free"},{"bike_id":"39ebb783-a4ad-497a-a8b4-f26310952609","system_id":"levelo_inurba_marseille","lat":43.30244,"lon":5.40062,"is_reserved":false,"is_disabled":false,"rental_uris":{"android":"levelo://app?vid=39ebb783-a4ad-497a-a8b4-f26310952609","ios":"levelo://app?vid=39ebb783-a4ad-497a-a8b4-f26310952609"},"vehicle_type_id":"4","last_reported":1687079173,"current_range_meters":24800,"station_id":"","pricing_plan_id":"free"},{"bike_id":"2724b277-3342-4a61-8f2f-7eac0f1f36b4","system_id":"levelo_inurba_marseille","lat":43.30242,"lon":5.40062,"is_reserved":false,"is_disabled":false,"rental_uris":{"android":"levelo://app?vid=2724b277-3342-4a61-8f2f-7eac0f1f36b4","ios":"levelo://app?vid=2724b277-3342-4a61-8f2f-7eac0f1f36b4"},"vehicle_type_id":"4","last_reported":1687079173,"current_range_meters":26400,"station_id":"","pricing_plan_id":"free"},{"bike_id":"9b626bf4-13fb-47d1-9c45-ba0a74abde7b","system_id":"levelo_inurba_marseille","lat":43.30242,"lon":5.40063,"is_reserved":false,"is_disabled":false,"rental_uris":{"android":"levelo://app?vid=9b626bf4-13fb-47d1-9c45-ba0a74abde7b","ios":"levelo://app?vid=9b626bf4-13fb-47d1-9c45-ba0a74abde7b"},"vehicle_type_id":"4","last_reported":1687079173,"current_range_meters":17200,"station_id":"","pricing_plan_id":"free"},{"bike_id":"6e40926a-356b-4831-8b76-bfd9bcdd471c","system_id":"levelo_inurba_marseille","lat":43.302759,"lon":5.400793,"is_reserved":false,"is_disabled":false,"rental_uris":{"android":"levelo://app?vid=6e40926a-356b-4831-8b76-bfd9bcdd471c","ios":"levelo://app?vid=6e40926a-356b-4831-8b76-bfd9bcdd471c"},"vehicle_type_id":"4","last_reported":1687079173,"current_range_meters":25600,"station_id":"ce4bgvh2rcd13ifvqcs0","pricing_plan_id":"free"},{"bike_id":"19fdd951-f5fe-4f04-bed9-262a7b68e712","system_id":"levelo_inurba_marseille","lat":43.29025,"lon":5.38652,"is_reserved":false,"is_disabled":false,"rental_uris":{"android":"levelo://app?vid=19fdd951-f5fe-4f04-bed9-262a7b68e712","ios":"levelo://app?vid=19fdd951-f5fe-4f04-bed9-262a7b68e712"},"vehicle_type_id":"4","last_reported":1687079173,"current_range_meters":20000,"station_id":"ce4bh4p2rcd13ifvqe0g","pricing_plan_id":"free"},{"bike_id":"c16cd8a2-f45f-40d1-aaac-a94463da4f69","system_id":"levelo_inurba_marseille","lat":43.30248,"lon":5.4007,"is_reserved":false,"is_disabled":false,"rental_uris":{"android":"levelo://app?vid=c16cd8a2-f45f-40d1-aaac-a94463da4f69","ios":"levelo://app?vid=c16cd8a2-f45f-40d1-aaac-a94463da4f69"},"vehicle_type_id":"4","last_reported":1687079173,"current_range_meters":19200,"station_id":"","pricing_plan_id":"free"},{"bike_id":"fe7f77cd-afb3-467b-99a3-1518357b1863","system_id":"levelo_inurba_marseille","lat":43.302759,"lon":5.400793,"is_reserved":false,"is_disabled":false,"rental_uris":{"android":"levelo://app?vid=fe7f77cd-afb3-467b-99a3-1518357b1863","ios":"levelo://app?vid=fe7f77cd-afb3-467b-99a3-1518357b1863"},"vehicle_type_id":"4","last_reported":1687079173,"current_range_meters":24400,"station_id":"ce4bgvh2rcd13ifvqcs0","pricing_plan_id":"free"},{"bike_id":"23ed75f5-98f9-4078-b293-962b7f6d8657","system_id":"levelo_inurba_marseille","lat":43.302759,"lon":5.400793,"is_reserved":false,"is_disabled":false,"rental_uris":{"android":"levelo://app?vid=23ed75f5-98f9-4078-b293-962b7f6d8657","ios":"levelo://app?vid=23ed75f5-98f9-4078-b293-962b7f6d8657"},"vehicle_type_id":"4","last_reported":1687079173,"current_range_meters":31200,"station_id":"ce4bgvh2rcd13ifvqcs0","pricing_plan_id":"free"},{"bike_id":"4a74f9c8-3b59-4801-9fd4-445288615a3e","system_id":"levelo_inurba_marseille","lat":43.302759,"lon":5.400793,"is_reserved":false,"is_disabled":false,"rental_uris":{"android":"levelo://app?vid=4a74f9c8-3b59-4801-9fd4-445288615a3e","ios":"levelo://app?vid=4a74f9c8-3b59-4801-9fd4-445288615a3e"},"vehicle_type_id":"4","last_reported":1687079173,"current_range_meters":17600,"station_id":"ce4bgvh2rcd13ifvqcs0","pricing_plan_id":"free"},{"bike_id":"12a78189-b758-48a5-b733-0ce93b9b6027","system_id":"levelo_inurba_marseille","lat":43.28616,"lon":5.37066,"is_reserved":false,"is_disabled":false,"rental_uris":{"android":"levelo://app?vid=12a78189-b758-48a5-b733-0ce93b9b6027","ios":"levelo://app?vid=12a78189-b758-48a5-b733-0ce93b9b6027"},"vehicle_type_id":"4","last_reported":1687079173,"current_range_meters":31200,"station_id":"ce4bht12rcd13ifvqi60","pricing_plan_id":"free"},{"bike_id":"e799a2af-517e-4f5d-8de1-2901168c7d4f","system_id":"levelo_inurba_marseille","lat":43.28612,"lon":5.37061,"is_reserved":false,"is_disabled":false,"rental_uris":{"android":"levelo://app?vid=e799a2af-517e-4f5d-8de1-2901168c7d4f","ios":"levelo://app?vid=e799a2af-517e-4f5d-8de1-2901168c7d4f"},"vehicle_type_id":"4","last_reported":1687079173,"current_range_meters":31200,"station_id":"ce4bht12rcd13ifvqi60","pricing_plan_id":"free"},{"bike_id":"7da3b592-e297-4124-b47c-2c0227132438","system_id":"levelo_inurba_marseille","lat":43.28611,"lon":5.37063,"is_reserved":false,"is_disabled":false,"rental_uris":{"android":"levelo://app?vid=7da3b592-e297-4124-b47c-2c0227132438","ios":"levelo://app?vid=7da3b592-e297-4124-b47c-2c0227132438"},"vehicle_type_id":"4","last_reported":1687079173,"current_range_meters":30400,"station_id":"ce4bht12rcd13ifvqi60","pricing_plan_id":"free"},{"bike_id":"29b09489-6307-4c86-b2cb-d998242c8874","system_id":"levelo_inurba_marseille","lat":43.28605,"lon":5.37075,"is_reserved":false,"is_disabled":false,"rental_uris":{"android":"levelo://app?vid=29b09489-6307-4c86-b2cb-d998242c8874","ios":"levelo://app?vid=29b09489-6307-4c86-b2cb-d998242c8874"},"vehicle_type_id":"4","last_reported":1687079173,"current_range_meters":30800,"station_id":"","pricing_plan_id":"free"},{"bike_id":"3f933baa-2839-4df5-b4b6-0261ef669545","system_id":"levelo_inurba_marseille","lat":43.287185,"lon":5.379373,"is_reserved":false,"is_disabled":false,"rental_uris":{"android":"levelo://app?vid=3f933baa-2839-4df5-b4b6-0261ef669545","ios":"levelo://app?vid=3f933baa-2839-4df5-b4b6-0261ef669545"},"vehicle_type_id":"4","last_reported":1687079173,"current_range_meters":25600,"station_id":"ce4bh9p2rcd13ifvqec0","pricing_plan_id":"free"},{"bike_id":"eadd637d-3b45-4596-bd68-afda147f9266","system_id":"levelo_inurba_marseille","lat":43.316517,"lon":5.404375,"is_reserved":false,"is_disabled":false,"rental_uris":{"android":"levelo://app?vid=eadd637d-3b45-4596-bd68-afda147f9266","ios":"levelo://app?vid=eadd637d-3b45-4596-bd68-afda147f9266"},"vehicle_type_id":"4","last_reported":1687079173,"current_range_meters":16000,"station_id":"ce4bh012rcd13ifvqd00","pricing_plan_id":"free"},{"bike_id":"a60d2e0b-86c6-43af-bf6a-788e539c286b","system_id":"levelo_inurba_marseille","lat":43.316517,"lon":5.404375,"is_reserved":false,"is_disabled":false,"rental_uris":{"android":"levelo://app?vid=a60d2e0b-86c6-43af-bf6a-788e539c286b","ios":"levelo://app?vid=a60d2e0b-86c6-43af-bf6a-788e539c286b"},"vehicle_type_id":"4","last_reported":1687079173,"current_range_meters":800,"station_id":"ce4bh012rcd13ifvqd00","pricing_plan_id":"free"},{"bike_id":"f53f8b0c-3c08-4e86-ac89-0156aaafe9f9","system_id":"levelo_inurba_marseille","lat":43.316517,"lon":5.404375,"is_reserved":false,"is_disabled":false,"rental_uris":{"android":"levelo://app?vid=f53f8b0c-3c08-4e86-ac89-0156aaafe9f9","ios":"levelo://app?vid=f53f8b0c-3c08-4e86-ac89-0156aaafe9f9"},"vehicle_type_id":"4","last_reported":1687079173,"current_range_meters":30000,"station_id":"ce4bh012rcd13ifvqd00","pricing_plan_id":"free"},{"bike_id":"e90f8b03-ef4d-4ce8-ae77-d60de61ac678","system_id":"levelo_inurba_marseille","lat":43.316517,"lon":5.404375,"is_reserved":false,"is_disabled":false,"rental_uris":{"android":"levelo://app?vid=e90f8b03-ef4d-4ce8-ae77-d60de61ac678","ios":"levelo://app?vid=e90f8b03-ef4d-4ce8-ae77-d60de61ac678"},"vehicle_type_id":"4","last_reported":1687079173,"current_range_meters":22800,"station_id":"ce4bh012rcd13ifvqd00","pricing_plan_id":"free"},{"bike_id":"601d3e1f-4251-432d-9d88-4605b3d186eb","system_id":"levelo_inurba_marseille","lat":43.316517,"lon":5.404375,"is_reserved":false,"is_disabled":false,"rental_uris":{"android":"levelo://app?vid=601d3e1f-4251-432d-9d88-4605b3d186eb","ios":"levelo://app?vid=601d3e1f-4251-432d-9d88-4605b3d186eb"},"vehicle_type_id":"4","last_reported":1687079173,"current_range_meters":27600,"station_id":"ce4bh012rcd13ifvqd00","pricing_plan_id":"free"},{"bike_id":"6545cebb-fbb9-47db-8d14-52a4e106c357","system_id":"levelo_inurba_marseille","lat":43.316517,"lon":5.404375,"is_reserved":false,"is_disabled":false,"rental_uris":{"android":"levelo://app?vid=6545cebb-fbb9-47db-8d14-52a4e106c357","ios":"levelo://app?vid=6545cebb-fbb9-47db-8d14-52a4e106c357"},"vehicle_type_id":"4","last_reported":1687079173,"current_range_meters":24800,"station_id":"ce4bh012rcd13ifvqd00","pricing_plan_id":"free"},{"bike_id":"fbc551a1-b191-4b8e-a433-5d1ef28a2291","system_id":"levelo_inurba_marseille","lat":43.291994,"lon":5.392907,"is_reserved":false,"is_disabled":false,"rental_uris":{"android":"levelo://app?vid=fbc551a1-b191-4b8e-a433-5d1ef28a2291","ios":"levelo://app?vid=fbc551a1-b191-4b8e-a433-5d1ef28a2291"},"vehicle_type_id":"4","last_reported":1687079173,"current_range_meters":10400,"station_id":"ce4bh192rcd13ifvqdd0","pricing_plan_id":"free"},{"bike_id":"02f4bf37-e533-4ed6-a252-00140d91b54b","system_id":"levelo_inurba_marseille","lat":43.284534,"lon":5.358662,"is_reserved":false,"is_disabled":false,"rental_uris":{"android":"levelo://app?vid=02f4bf37-e533-4ed6-a252-00140d91b54b","ios":"levelo://app?vid=02f4bf37-e533-4ed6-a252-00140d91b54b"},"vehicle_type_id":"4","last_reported":1687079173,"current_range_meters":30400,"station_id":"ce4bhah2rcd13ifvqei0","pricing_plan_id":"free"},{"bike_id":"af4dd12b-1912-4e6d-b53a-039796841ae0","system_id":"levelo_inurba_marseille","lat":43.28625,"lon":5.35104,"is_reserved":false,"is_disabled":false,"rental_uris":{"android":"levelo://app?vid=af4dd12b-1912-4e6d-b53a-039796841ae0","ios":"levelo://app?vid=af4dd12b-1912-4e6d-b53a-039796841ae0"},"vehicle_type_id":"4","last_reported":1687079173,"current_range_meters":17600,"station_id":"ce4bhch2rcd13ifvqeug","pricing_plan_id":"free"},{"bike_id":"5aa0ea34-43dd-4046-b5ef-67f2ff4c7f09","system_id":"levelo_inurba_marseille","lat":43.28623,"lon":5.35104,"is_reserved":false,"is_disabled":false,"rental_uris":{"android":"levelo://app?vid=5aa0ea34-43dd-4046-b5ef-67f2ff4c7f09","ios":"levelo://app?vid=5aa0ea34-43dd-4046-b5ef-67f2ff4c7f09"},"vehicle_type_id":"4","last_reported":1687079173,"current_range_meters":31200,"station_id":"ce4bhch2rcd13ifvqeug","pricing_plan_id":"free"},{"bike_id":"af8a55e4-5fd6-495c-9fab-05b01d873d72","system_id":"levelo_inurba_marseille","lat":43.28621,"lon":5.35102,"is_reserved":false,"is_disabled":false,"rental_uris":{"android":"levelo://app?vid=af8a55e4-5fd6-495c-9fab-05b01d873d72","ios":"levelo://app?vid=af8a55e4-5fd6-495c-9fab-05b01d873d72"},"vehicle_type_id":"4","last_reported":1687079173,"current_range_meters":31200,"station_id":"ce4bhch2rcd13ifvqeug","pricing_plan_id":"free"},{"bike_id":"cb82f7b4-a043-4e39-be66-b4b7697c997b","system_id":"levelo_inurba_marseille","lat":43.28619,"lon":5.35108,"is_reserved":false,"is_disabled":false,"rental_uris":{"android":"levelo://app?vid=cb82f7b4-a043-4e39-be66-b4b7697c997b","ios":"levelo://app?vid=cb82f7b4-a043-4e39-be66-b4b7697c997b"},"vehicle_type_id":"4","last_reported":1687079173,"current_range_meters":29600,"station_id":"ce4bhch2rcd13ifvqeug","pricing_plan_id":"free"},{"bike_id":"46b45f1d-e36a-41f0-9fc5-d8262b4c6a24","system_id":"levelo_inurba_marseille","lat":43.285856,"lon":5.350771,"is_reserved":false,"is_disabled":false,"rental_uris":{"android":"levelo://app?vid=46b45f1d-e36a-41f0-9fc5-d8262b4c6a24","ios":"levelo://app?vid=46b45f1d-e36a-41f0-9fc5-d8262b4c6a24"},"vehicle_type_id":"4","last_reported":1687079173,"current_range_meters":15600,"station_id":"ce4bhch2rcd13ifvqeug","pricing_plan_id":"free"},{"bike_id":"b17a8dfb-a7c7-47b4-839e-9fc51a1e81e3","system_id":"levelo_inurba_marseille","lat":43.28617,"lon":5.35102,"is_reserved":false,"is_disabled":false,"rental_uris":{"android":"levelo://app?vid=b17a8dfb-a7c7-47b4-839e-9fc51a1e81e3","ios":"levelo://app?vid=b17a8dfb-a7c7-47b4-839e-9fc51a1e81e3"},"vehicle_type_id":"4","last_reported":1687079173,"current_range_meters":31200,"station_id":"ce4bhch2rcd13ifvqeug","pricing_plan_id":"free"},{"bike_id":"c18008f3-1221-41ac-8e71-bb7bc7373d9f","system_id":"levelo_inurba_marseille","lat":43.28616,"lon":5.35105,"is_reserved":false,"is_disabled":false,"rental_uris":{"android":"levelo://app?vid=c18008f3-1221-41ac-8e71-bb7bc7373d9f","ios":"levelo://app?vid=c18008f3-1221-41ac-8e71-bb7bc7373d9f"},"vehicle_type_id":"4","last_reported":1687079173,"current_range_meters":26000,"station_id":"ce4bhch2rcd13ifvqeug","pricing_plan_id":"free"},{"bike_id":"ec8967c1-2ade-4b1d-b224-8cb12c7202b1","system_id":"levelo_inurba_marseille","lat":43.286158,"lon":5.351053,"is_reserved":false,"is_disabled":false,"rental_uris":{"android":"levelo://app?vid=ec8967c1-2ade-4b1d-b224-8cb12c7202b1","ios":"levelo://app?vid=ec8967c1-2ade-4b1d-b224-8cb12c7202b1"},"vehicle_type_id":"4","last_reported":1687079173,"current_range_meters":24400,"station_id":"ce4bh412rcd13ifvqds0","pricing_plan_id":"free"},{"bike_id":"0124fccf-4bac-4d46-9112-bbf26369a9dd","system_id":"levelo_inurba_marseille","lat":43.285848,"lon":5.350787,"is_reserved":false,"is_disabled":false,"rental_uris":{"android":"levelo://app?vid=0124fccf-4bac-4d46-9112-bbf26369a9dd","ios":"levelo://app?vid=0124fccf-4bac-4d46-9112-bbf26369a9dd"},"vehicle_type_id":"4","last_reported":1687079173,"current_range_meters":30800,"station_id":"ce4bhch2rcd13ifvqeug","pricing_plan_id":"free"},{"bike_id":"2f45ea44-29fe-4d1f-ac6d-237f6e705c23","system_id":"levelo_inurba_marseille","lat":43.28615,"lon":5.35105,"is_reserved":false,"is_disabled":false,"rental_uris":{"android":"levelo://app?vid=2f45ea44-29fe-4d1f-ac6d-237f6e705c23","ios":"levelo://app?vid=2f45ea44-29fe-4d1f-ac6d-237f6e705c23"},"vehicle_type_id":"4","last_reported":1687079173,"current_range_meters":21200,"station_id":"ce4bhch2rcd13ifvqeug","pricing_plan_id":"free"},{"bike_id":"646342b4-601e-441b-bfaf-82400a1b4de7","system_id":"levelo_inurba_marseille","lat":43.28612,"lon":5.35108,"is_reserved":false,"is_disabled":false,"rental_uris":{"android":"levelo://app?vid=646342b4-601e-441b-bfaf-82400a1b4de7","ios":"levelo://app?vid=646342b4-601e-441b-bfaf-82400a1b4de7"},"vehicle_type_id":"4","last_reported":1687079173,"current_range_meters":12800,"station_id":"ce4bhch2rcd13ifvqeug","pricing_plan_id":"free"},{"bike_id":"4c8dae26-8fe6-47fc-9faa-4c7261ba3c6e","system_id":"levelo_inurba_marseille","lat":43.286083,"lon":5.351093,"is_reserved":false,"is_disabled":false,"rental_uris":{"android":"levelo://app?vid=4c8dae26-8fe6-47fc-9faa-4c7261ba3c6e","ios":"levelo://app?vid=4c8dae26-8fe6-47fc-9faa-4c7261ba3c6e"},"vehicle_type_id":"4","last_reported":1687079173,"current_range_meters":22400,"station_id":"ce4bhch2rcd13ifvqeug","pricing_plan_id":"free"},{"bike_id":"c96d35f8-2e91-40c2-ad00-1337e75b5bbe","system_id":"levelo_inurba_marseille","lat":43.28609,"lon":5.35102,"is_reserved":false,"is_disabled":false,"rental_uris":{"android":"levelo://app?vid=c96d35f8-2e91-40c2-ad00-1337e75b5bbe","ios":"levelo://app?vid=c96d35f8-2e91-40c2-ad00-1337e75b5bbe"},"vehicle_type_id":"4","last_reported":1687079173,"current_range_meters":29600,"station_id":"ce4bhch2rcd13ifvqeug","pricing_plan_id":"free"},{"bike_id":"12e9ef8f-598b-42df-acbf-06bd8cbe1a7f","system_id":"levelo_inurba_marseille","lat":43.295713,"lon":5.399639,"is_reserved":false,"is_disabled":false,"rental_uris":{"android":"levelo://app?vid=12e9ef8f-598b-42df-acbf-06bd8cbe1a7f","ios":"levelo://app?vid=12e9ef8f-598b-42df-acbf-06bd8cbe1a7f"},"vehicle_type_id":"4","last_reported":1687079173,"current_range_meters":30800,"station_id":"ce4bh312rcd13ifvqdj0","pricing_plan_id":"free"},{"bike_id":"b28abace-4ff3-4a79-87aa-a1db639555f0","system_id":"levelo_inurba_marseille","lat":43.28676,"lon":5.38663,"is_reserved":false,"is_disabled":false,"rental_uris":{"android":"levelo://app?vid=b28abace-4ff3-4a79-87aa-a1db639555f0","ios":"levelo://app?vid=b28abace-4ff3-4a79-87aa-a1db639555f0"},"vehicle_type_id":"4","last_reported":1687079173,"current_range_meters":27200,"station_id":"ce4bh492rcd13ifvqdug","pricing_plan_id":"free"},{"bike_id":"43275ef6-770c-4f0e-926c-1c3aecd7abec","system_id":"levelo_inurba_marseille","lat":43.287909,"lon":5.390554,"is_reserved":false,"is_disabled":false,"rental_uris":{"android":"levelo://app?vid=43275ef6-770c-4f0e-926c-1c3aecd7abec","ios":"levelo://app?vid=43275ef6-770c-4f0e-926c-1c3aecd7abec"},"vehicle_type_id":"4","last_reported":1687079173,"current_range_meters":13200,"station_id":"","pricing_plan_id":"free"},{"bike_id":"536b47a7-25f9-49cb-9608-1b3c49b68cf4","system_id":"levelo_inurba_marseille","lat":43.33722,"lon":5.39189,"is_reserved":false,"is_disabled":false,"rental_uris":{"android":"levelo://app?vid=536b47a7-25f9-49cb-9608-1b3c49b68cf4","ios":"levelo://app?vid=536b47a7-25f9-49cb-9608-1b3c49b68cf4"},"vehicle_type_id":"4","last_reported":1687079173,"current_range_meters":11200,"station_id":"","pricing_plan_id":"free"},{"bike_id":"16e5fedd-6e86-436a-a0a2-72c7cd60a6ea","system_id":"levelo_inurba_marseille","lat":43.323464,"lon":5.406297,"is_reserved":false,"is_disabled":false,"rental_uris":{"android":"levelo://app?vid=16e5fedd-6e86-436a-a0a2-72c7cd60a6ea","ios":"levelo://app?vid=16e5fedd-6e86-436a-a0a2-72c7cd60a6ea"},"vehicle_type_id":"4","last_reported":1687079173,"current_range_meters":31200,"station_id":"ce4bhq92rcd13ifvqhjg","pricing_plan_id":"free"},{"bike_id":"72611642-d420-4b07-b473-f6153c62d01f","system_id":"levelo_inurba_marseille","lat":43.323464,"lon":5.406297,"is_reserved":false,"is_disabled":false,"rental_uris":{"android":"levelo://app?vid=72611642-d420-4b07-b473-f6153c62d01f","ios":"levelo://app?vid=72611642-d420-4b07-b473-f6153c62d01f"},"vehicle_type_id":"4","last_reported":1687079173,"current_range_meters":31200,"station_id":"ce4bhq92rcd13ifvqhjg","pricing_plan_id":"free"},{"bike_id":"e31dd5ec-111c-4c37-abde-ca5e54fbd5e9","system_id":"levelo_inurba_marseille","lat":43.323464,"lon":5.406297,"is_reserved":false,"is_disabled":false,"rental_uris":{"android":"levelo://app?vid=e31dd5ec-111c-4c37-abde-ca5e54fbd5e9","ios":"levelo://app?vid=e31dd5ec-111c-4c37-abde-ca5e54fbd5e9"},"vehicle_type_id":"4","last_reported":1687079173,"current_range_meters":31200,"station_id":"ce4bhq92rcd13ifvqhjg","pricing_plan_id":"free"},{"bike_id":"e35a534d-69ec-46c0-b671-d29b1b097926","system_id":"levelo_inurba_marseille","lat":43.288497,"lon":5.393089,"is_reserved":false,"is_disabled":false,"rental_uris":{"android":"levelo://app?vid=e35a534d-69ec-46c0-b671-d29b1b097926","ios":"levelo://app?vid=e35a534d-69ec-46c0-b671-d29b1b097926"},"vehicle_type_id":"4","last_reported":1687079173,"current_range_meters":31200,"station_id":"ce4bh2p2rcd13ifvqdi0","pricing_plan_id":"free"},{"bike_id":"00b4d942-d645-4a17-a320-9c02b5ecca68","system_id":"levelo_inurba_marseille","lat":43.288497,"lon":5.393089,"is_reserved":false,"is_disabled":false,"rental_uris":{"android":"levelo://app?vid=00b4d942-d645-4a17-a320-9c02b5ecca68","ios":"levelo://app?vid=00b4d942-d645-4a17-a320-9c02b5ecca68"},"vehicle_type_id":"4","last_reported":1687079173,"current_range_meters":22400,"station_id":"ce4bh2p2rcd13ifvqdi0","pricing_plan_id":"free"},{"bike_id":"67c102d5-445b-413e-8f04-0d8b1d6a1ba7","system_id":"levelo_inurba_marseille","lat":43.284219,"lon":5.3497,"is_reserved":false,"is_disabled":false,"rental_uris":{"android":"levelo://app?vid=67c102d5-445b-413e-8f04-0d8b1d6a1ba7","ios":"levelo://app?vid=67c102d5-445b-413e-8f04-0d8b1d6a1ba7"},"vehicle_type_id":"4","last_reported":1687079173,"current_range_meters":30000,"station_id":"ce4bhbh2rcd13ifvqepg","pricing_plan_id":"free"},