{"last_updated":1752944996,"ttl":60,"version":"2.2","data":{"bikes":[{"bike_id":"53b742a7-31ae-4272-9bba-7740339e2a2f","system_id":"levelo_inurba_marseille","lat":43.33747,"lon":5.37463,"is_reserved":false,"is_disabled":false,"rental_uris":{"android":"levelo://app?vid=53b742a7-31ae-4272-9bba-7740339e2a2f","ios":"levelo://app?vid=53b742a7-31ae-4272-9bba-7740339e2a2f"},"vehicle_type_id":"1","last_reported":1752944996,"current_range_meters":14400,"station_id":"","pricing_plan_id":"cebpf4jnsgd1na2vs0mg"},{"bike_id":"5b25cae5-00ed-4228-83e9-33f9ba5bc5a9","system_id":"levelo_inurba_marseille","lat":43.30467,"lon":5.37905,"is_reserved":false,"is_disabled":false,"rental_uris":{"android":"levelo://app?vid=5b25cae5-00ed-4228-83e9-33f9ba5bc5a9","ios":"levelo://app?vid=5b25cae5-00ed-4228-83e9-33f9ba5bc5a9"},"vehicle_type_id":"4","last_reported":1752944996,"current_range_meters":2800,"station_id":"ce4bgup2rcd13ifvqcn0","pricing_plan_id":"cebpf4jnsgd1na2vs0mg"},{"bike_id":"7cb3fd3b-d283-4e0a-849e-0a0a72f92379","system_id":"levelo_inurba_marseille","lat":43.32351,"lon":5.36728,"is_reserved":false,"is_disabled":false,"rental_uris":{"android":"levelo://app?vid=7cb3fd3b-d283-4e0a-849e-0a0a72f92379","ios":"levelo://app?vid=7cb3fd3b-d283-4e0a-849e-0a0a72f92379"},"vehicle_type_id":"4","last_reported":1752944996,"current_range_meters":2800,"station_id":"ce4bhsh2rcd13ifvqi2g","pricing_plan_id":"cebpf4jnsgd1na2vs0mg"},{"bike_id":"ab5f3c5f-74e5-4f96-a88f-4e2698c05780","system_id":"levelo_inurba_marseille","lat":43.29422,"lon":5.386025,"is_reserved":false,"is_disabled":false,"rental_uris":{"android":"levelo://app?vid=ab5f3c5f-74e5-4f96-a88f-4e2698c05780","ios":"levelo://app?vid=ab5f3c5f-74e5-4f96-a88f-4e2698c05780"},"vehicle_type_id":"4","last_reported":1752944996,"current_range_meters":3200,"station_id":"ce4bh2h2rcd13ifvqdh0","pricing_plan_id":"cebpf4jnsgd1na2vs0mg"},{"bike_id":"3444bdc6-514a-4ba6-9650-f9073305e33d","system_id":"levelo_inurba_marseille","lat":43.29682,"lon":5.3698,"is_reserved":false,"is_disabled":false,"rental_uris":{"android":"levelo://app?vid=3444bdc6-514a-4ba6-9650-f9073305e33d","ios":"levelo://app?vid=3444bdc6-514a-4ba6-9650-f9073305e33d"},"vehicle_type_id":"4","last_reported":1752944996,"current_range_meters":3200,"station_id":"","pricing_plan_id":"cebpf4jnsgd1na2vs0mg"},{"bike_id":"cc22171e-8468-4ac1-a7d3-b5361b263184","system_id":"levelo_inurba_marseille","lat":43.27374,"lon":5.36259,"is_reserved":false,"is_disabled":false,"rental_uris":{"android":"levelo://app?vid=cc22171e-8468-4ac1-a7d3-b5361b263184","ios":"levelo://app?vid=cc22171e-8468-4ac1-a7d3-b5361b263184"},"vehicle_type_id":"4","last_reported":1752944996,"current_range_meters":3200,"station_id":"ce4bhbh2rcd13ifvqeo0","pricing_plan_id":"cebpf4jnsgd1na2vs0mg"},{"bike_id":"e8cf7e72-9f88-4ee4-8bea-52b574220fd6","system_id":"levelo_inurba_marseille","lat":43.30301,"lon":5.39228,"is_reserved":false,"is_disabled":false,"rental_uris":{"android":"levelo://app?vid=e8cf7e72-9f88-4ee4-8bea-52b574220fd6","ios":"levelo://app?vid=e8cf7e72-9f88-4ee4-8bea-52b574220fd6"},"vehicle_type_id":"4","last_reported":1752944996,"current_range_meters":3200,"station_id":"ce4bgkh2rcd13ifvqbk0","pricing_plan_id":"cebpf4jnsgd1na2vs0mg"},{"bike_id":"a3fea934-e8d0-49e8-b719-8cc2baad773f","system_id":"levelo_inurba_marseille","lat":43.26939,"lon":5.38922,"is_reserved":false,"is_disabled":true,"rental_uris":{"android":"levelo://app?vid=a3fea934-e8d0-49e8-b719-8cc2baad773f","ios":"levelo://app?vid=a3fea934-e8d0-49e8-b719-8cc2baad773f"},"vehicle_type_id":"4","last_reported":1752944996,"current_range_meters":3200,"station_id":"ce4bhhh2rcd13ifvqfl0","pricing_plan_id":"cebpf4jnsgd1na2vs0mg"},{"bike_id":"95452014-0a2f-4dfd-8caa-95c1fac2a9cc","system_id":"levelo_inurba_marseille","lat":43.29259,"lon":5.38443,"is_reserved":false,"is_disabled":false,"rental_uris":{"android":"levelo://app?vid=95452014-0a2f-4dfd-8caa-95c1fac2a9cc","ios":"levelo://app?vid=95452014-0a2f-4dfd-8caa-95c1fac2a9cc"},"vehicle_type_id":"4","last_reported":1752944996,"current_range_meters":3200,"station_id":"ce4bh692rcd13ifvqea0","pricing_plan_id":"cebpf4jnsgd1na2vs0mg"},{"bike_id":"63420132-f811-4586-9c12-1acac22f65b1","system_id":"levelo_inurba_marseille","lat":43.21746,"lon":5.34604,"is_reserved":false,"is_disabled":false,"rental_uris":{"android":"levelo://app?vid=63420132-f811-4586-9c12-1acac22f65b1","ios":"levelo://app?vid=63420132-f811-4586-9c12-1acac22f65b1"},"vehicle_type_id":"4","last_reported":1752944996,"current_range_meters":3600,"station_id":"st_cvj6r9ubvosntc0bgbag","pricing_plan_id":"cebpf4jnsgd1na2vs0mg"},{"bike_id":"1a1c7c3b-13fd-4251-b1f6-2cdc9f1eaec9","system_id":"levelo_inurba_marseille","lat":43.29618,"lon":5.37144,"is_reserved":false,"is_disabled":false,"rental_uris":{"android":"levelo://app?vid=1a1c7c3b-13fd-4251-b1f6-2cdc9f1eaec9","ios":"levelo://app?vid=1a1c7c3b-13fd-4251-b1f6-2cdc9f1eaec9"},"vehicle_type_id":"4","last_reported":1752944996,"current_range_meters":3600,"station_id":"ce4bgnh2rcd13ifvqc0g","pricing_plan_id":"cebpf4jnsgd1na2vs0mg"},{"bike_id":"3a72a928-9564-49b5-96cd-3029be0d2f37","system_id":"levelo_inurba_marseille","lat":43.29264,"lon":5.38443,"is_reserved":false,"is_disabled":false,"rental_uris":{"android":"levelo://app?vid=3a72a928-9564-49b5-96cd-3029be0d2f37","ios":"levelo://app?vid=3a72a928-9564-49b5-96cd-3029be0d2f37"},"vehicle_type_id":"4","last_reported":1752944996,"current_range_meters":3600,"station_id":"ce4bh692rcd13ifvqea0","pricing_plan_id":"cebpf4jnsgd1na2vs0mg"},{"bike_id":"d58b6da3-123b-402f-b222-f00e2e460a91","system_id":"levelo_inurba_marseille","lat":43.29534,"lon":5.3855,"is_reserved":false,"is_disabled":false,"rental_uris":{"android":"levelo://app?vid=d58b6da3-123b-402f-b222-f00e2e460a91","ios":"levelo://app?vid=d58b6da3-123b-402f-b222-f00e2e460a91"},"vehicle_type_id":"4","last_reported":1752944996,"current_range_meters":3600,"station_id":"ce4bgih2rcd13ifvqba0","pricing_plan_id":"cebpf4jnsgd1na2vs0mg"},{"bike_id":"66e2c5c2-ad9b-42e8-81d5-697d4e13563e","system_id":"levelo_inurba_marseille","lat":43.24179,"lon":5.39732,"is_reserved":false,"is_disabled":false,"rental_uris":{"android":"levelo://app?vid=66e2c5c2-ad9b-42e8-81d5-697d4e13563e","ios":"levelo://app?vid=66e2c5c2-ad9b-42e8-81d5-697d4e13563e"},"vehicle_type_id":"4","last_reported":1752944996,"current_range_meters":4000,"station_id":"ce4bhn12rcd13ifvqgpg","pricing_plan_id":"cebpf4jnsgd1na2vs0mg"},{"bike_id":"4774e9ce-46c2-4a55-b93c-2655c8ecbf38","system_id":"levelo_inurba_marseille","lat":43.29787,"lon":5.38103,"is_reserved":false,"is_disabled":false,"rental_uris":{"android":"levelo://app?vid=4774e9ce-46c2-4a55-b93c-2655c8ecbf38","ios":"levelo://app?vid=4774e9ce-46c2-4a55-b93c-2655c8ecbf38"},"vehicle_type_id":"4","last_reported":1752944996,"current_range_meters":4000,"station_id":"ce4bgip2rcd13ifvqbb0","pricing_plan_id":"cebpf4jnsgd1na2vs0mg"},{"bike_id":"c5f1d8a6-f04c-4b49-b047-d87a9f9e0134","system_id":"levelo_inurba_marseille","lat":43.28409,"lon":5.37507,"is_reserved":false,"is_disabled":false,"rental_uris":{"android":"levelo://app?vid=c5f1d8a6-f04c-4b49-b047-d87a9f9e0134","ios":"levelo://app?vid=c5f1d8a6-f04c-4b49-b047-d87a9f9e0134"},"vehicle_type_id":"4","last_reported":1752944996,"current_range_meters":4000,"station_id":"ce4bh412rcd13ifvqds0","pricing_plan_id":"cebpf4jnsgd1na2vs0mg"},{"bike_id":"44b73254-6d5b-42ec-9e3a-52236fbf71fc","system_id":"levelo_inurba_marseille","lat":43.33344,"lon":5.39846,"is_reserved":false,"is_disabled":false,"rental_uris":{"android":"levelo://app?vid=44b73254-6d5b-42ec-9e3a-52236fbf71fc","ios":"levelo://app?vid=44b73254-6d5b-42ec-9e3a-52236fbf71fc"},"vehicle_type_id":"4","last_reported":1752944996,"current_range_meters":4000,"station_id":"","pricing_plan_id":"cebpf4jnsgd1na2vs0mg"},{"bike_id":"d4616602-547a-4299-bf11-9f28112a37b4","system_id":"levelo_inurba_marseille","lat":43.33284,"lon":5.39581,"is_reserved":false,"is_disabled":false,"rental_uris":{"android":"levelo://app?vid=d4616602-547a-4299-bf11-9f28112a37b4","ios":"levelo://app?vid=d4616602-547a-4299-bf11-9f28112a37b4"},"vehicle_type_id":"4","last_reported":1752944996,"current_range_meters":4400,"station_id":"","pricing_plan_id":"cebpf4jnsgd1na2vs0mg"},{"bike_id":"57bf6570-ff1a-4d36-a914-38a00de3af53","system_id":"levelo_inurba_marseille","lat":43.23976,"lon":5.3661,"is_reserved":false,"is_disabled":true,"rental_uris":{"android":"levelo://app?vid=57bf6570-ff1a-4d36-a914-38a00de3af53","ios":"levelo://app?vid=57bf6570-ff1a-4d36-a914-38a00de3af53"},"vehicle_type_id":"4","last_reported":1752944996,"current_range_meters":4400,"station_id":"ce4bhi12rcd13ifvqfp0","pricing_plan_id":"cebpf4jnsgd1na2vs0mg"},{"bike_id":"2b65687f-0687-4aba-965b-bb7b3f73496b","system_id":"levelo_inurba_marseille","lat":43.2797,"lon":5.38723,"is_reserved":false,"is_disabled":false,"rental_uris":{"android":"levelo://app?vid=2b65687f-0687-4aba-965b-bb7b3f73496b","ios":"levelo://app?vid=2b65687f-0687-4aba-965b-bb7b3f73496b"},"vehicle_type_id":"4","last_reported":1752944996,"current_range_meters":4400,"station_id":"ce4bhg12rcd13ifvqf80","pricing_plan_id":"cebpf4jnsgd1na2vs0mg"},{"bike_id":"19bba69c-9cb5-400f-8892-68bb701ed5ba","system_id":"levelo_inurba_marseille","lat":43.284637,"lon":5.358871,"is_reserved":false,"is_disabled":false,"rental_uris":{"android":"levelo://app?vid=19bba69c-9cb5-400f-8892-68bb701ed5ba","ios":"levelo://app?vid=19bba69c-9cb5-400f-8892-68bb701ed5ba"},"vehicle_type_id":"4","last_reported":1752944996,"current_range_meters":4400,"station_id":"ce4bhah2rcd13ifvqei0","pricing_plan_id":"cebpf4jnsgd1na2vs0mg"},{"bike_id":"bd3a0d9b-d7b8-408c-bb7c-cd4dca69e51c","system_id":"levelo_inurba_marseille","lat":43.30142,"lon":5.37401,"is_reserved":false,"is_disabled":false,"rental_uris":{"android":"levelo://app?vid=bd3a0d9b-d7b8-408c-bb7c-cd4dca69e51c","ios":"levelo://app?vid=bd3a0d9b-d7b8-408c-bb7c-cd4dca69e51c"},"vehicle_type_id":"4","last_reported":1752944996,"current_range_meters":4400,"station_id":"ce4bgs92rcd13ifvqcc0","pricing_plan_id":"cebpf4jnsgd1na2vs0mg"},{"bike_id":"e1dbfb19-cd08-46f7-aa30-e89e52a812ff","system_id":"levelo_inurba_marseille","lat":43.32295,"lon":5.38268,"is_reserved":false,"is_disabled":false,"rental_uris":{"android":"levelo://app?vid=e1dbfb19-cd08-46f7-aa30-e89e52a812ff","ios":"levelo://app?vid=e1dbfb19-cd08-46f7-aa30-e89e52a812ff"},"vehicle_type_id":"4","last_reported":1752944996,"current_range_meters":4400,"station_id":"ce4bhr12rcd13ifvqhqg","pricing_plan_id":"cebpf4jnsgd1na2vs0mg"},{"bike_id":"39d79986-bf90-4199-b750-95251a4493f9","system_id":"levelo_inurba_marseille","lat":43.28415,"lon":5.3752,"is_reserved":false,"is_disabled":false,"rental_uris":{"android":"levelo://app?vid=39d79986-bf90-4199-b750-95251a4493f9","ios":"levelo://app?vid=39d79986-bf90-4199-b750-95251a4493f9"},"vehicle_type_id":"4","last_reported":1752944996,"current_range_meters":4800,"station_id":"ce4bh412rcd13ifvqds0","pricing_plan_id":"cebpf4jnsgd1na2vs0mg"},{"bike_id":"ed0c1036-545c-4726-94ef-9e3490f22d40","system_id":"levelo_inurba_marseille","lat":43.30198,"lon":5.36629,"is_reserved":false,"is_disabled":false,"rental_uris":{"android":"levelo://app?vid=ed0c1036-545c-4726-94ef-9e3490f22d40","ios":"levelo://app?vid=ed0c1036-545c-4726-94ef-9e3490f22d40"},"vehicle_type_id":"4","last_reported":1752944996,"current_range_meters":4800,"station_id":"ce4bgrh2rcd13ifvqc8g","pricing_plan_id":"cebpf4jnsgd1na2vs0mg"},{"bike_id":"d4a640ad-87b3-4e30-a8c8-63972542a60e","system_id":"levelo_inurba_marseille","lat":43.292229,"lon":5.360679,"is_reserved":false,"is_disabled":false,"rental_uris":{"android":"levelo://app?vid=d4a640ad-87b3-4e30-a8c8-63972542a60e","ios":"levelo://app?vid=d4a640ad-87b3-4e30-a8c8-63972542a60e"},"vehicle_type_id":"4","last_reported":1752944996,"current_range_meters":5600,"station_id":"ce4bhbh2rcd13ifvqeqg","pricing_plan_id":"cebpf4jnsgd1na2vs0mg"},{"bike_id":"9bdcfb5e-ac16-41d0-a4c2-388bc36976bb","system_id":"levelo_inurba_marseille","lat":43.295549,"lon":5.422856,"is_reserved":false,"is_disabled":false,"rental_uris":{"android":"levelo://app?vid=9bdcfb5e-ac16-41d0-a4c2-388bc36976bb","ios":"levelo://app?vid=9bdcfb5e-ac16-41d0-a4c2-388bc36976bb"},"vehicle_type_id":"4","last_reported":1752944996,"current_range_meters":6000,"station_id":"ce4bhph2rcd13ifvqhdg","pricing_plan_id":"cebpf4jnsgd1na2vs0mg"},{"bike_id":"40f49150-1771-4338-9d9d-5b27d0151736","system_id":"levelo_inurba_marseille","lat":43.26214,"lon":5.3744,"is_reserved":false,"is_disabled":false,"rental_uris":{"android":"levelo://app?vid=40f49150-1771-4338-9d9d-5b27d0151736","ios":"levelo://app?vid=40f49150-1771-4338-9d9d-5b27d0151736"},"vehicle_type_id":"4","last_reported":1752944996,"current_range_meters":6000,"station_id":"ce4bhgp2rcd13ifvqfc0","pricing_plan_id":"cebpf4jnsgd1na2vs0mg"},{"bike_id":"b3c20171-789b-4f2e-a78c-f182493a896f","system_id":"levelo_inurba_marseille","lat":43.28152,"lon":5.42615,"is_reserved":false,"is_disabled":true,"rental_uris":{"android":"levelo://app?vid=b3c20171-789b-4f2e-a78c-f182493a896f","ios":"levelo://app?vid=b3c20171-789b-4f2e-a78c-f182493a896f"},"vehicle_type_id":"4","last_reported":1752944996,"current_range_meters":6000,"station_id":"ce4bhnh2rcd13ifvqgug","pricing_plan_id":"cebpf4jnsgd1na2vs0mg"},{"bike_id":"da891840-0cec-4ccc-961c-48903736c6fa","system_id":"levelo_inurba_marseille","lat":43.31139,"lon":5.37692,"is_reserved":false,"is_disabled":false,"rental_uris":{"android":"levelo://app?vid=da891840-0cec-4ccc-961c-48903736c6fa","ios":"levelo://app?vid=da891840-0cec-4ccc-961c-48903736c6fa"},"vehicle_type_id":"4","last_reported":1752944996,"current_range_meters":6000,"station_id":"","pricing_plan_id":"cebpf4jnsgd1na2vs0mg"},{"bike_id":"6f2b049f-8d37-43e2-8bd2-3442a477111d","system_id":"levelo_inurba_marseille","lat":43.295403,"lon":5.385734,"is_reserved":false,"is_disabled":false,"rental_uris":{"android":"levelo://app?vid=6f2b049f-8d37-43e2-8bd2-3442a477111d","ios":"levelo://app?vid=6f2b049f-8d37-43e2-8bd2-3442a477111d"},"vehicle_type_id":"4","last_reported":1752944996,"current_range_meters":6000,"station_id":"ce4bgih2rcd13ifvqba0","pricing_plan_id":"cebpf4jnsgd1na2vs0mg"},{"bike_id":"e555b545-304c-4dce-8496-1643c0f2600e","system_id":"levelo_inurba_marseille","lat":43.337444,"lon":5.374475,"is_reserved":false,"is_disabled":false,"rental_uris":{"android":"levelo://app?vid=e555b545-304c-4dce-8496-1643c0f2600e","ios":"levelo://app?vid=e555b545-304c-4dce-8496-1643c0f2600e"},"vehicle_type_id":"4","last_reported":1752944996,"current_range_meters":6000,"station_id":"","pricing_plan_id":"cebpf4jnsgd1na2vs0mg"},{"bike_id":"4108938b-6cb1-49cf-9b34-f5aba76f8c8e","system_id":"levelo_inurba_marseille","lat":43.2586,"lon":5.39893,"is_reserved":false,"is_disabled":true,"rental_uris":{"android":"levelo://app?vid=4108938b-6cb1-49cf-9b34-f5aba76f8c8e","ios":"levelo://app?vid=4108938b-6cb1-49cf-9b34-f5aba76f8c8e"},"vehicle_type_id":"4","last_reported":1752944996,"current_range_meters":6400,"station_id":"ce4bhl92rcd13ifvqghg","pricing_plan_id":"cebpf4jnsgd1na2vs0mg"},{"bike_id":"a168d389-ea1d-4756-ad9b-cf73a31ab442","system_id":"levelo_inurba_marseille","lat":43.28578,"lon":5.38397,"is_reserved":false,"is_disabled":true,"rental_uris":{"android":"levelo://app?vid=a168d389-ea1d-4756-ad9b-cf73a31ab442","ios":"levelo://app?vid=a168d389-ea1d-4756-ad9b-cf73a31ab442"},"vehicle_type_id":"4","last_reported":1752944996,"current_range_meters":6400,"station_id":"","pricing_plan_id":"cebpf4jnsgd1na2vs0mg"},{"bike_id":"bc23d289-56c7-42be-a75c-fd3de85a45cf","system_id":"levelo_inurba_marseille","lat":43.26193,"lon":5.37448,"is_reserved":false,"is_disabled":false,"rental_uris":{"android":"levelo://app?vid=bc23d289-56c7-42be-a75c-fd3de85a45cf","ios":"levelo://app?vid=bc23d289-56c7-42be-a75c-fd3de85a45cf"},"vehicle_type_id":"4","last_reported":1752944996,"current_range_meters":6400,"station_id":"ce4bhgp2rcd13ifvqfc0","pricing_plan_id":"cebpf4jnsgd1na2vs0mg"},{"bike_id":"391d39ef-99b0-4b9e-9296-12dca8705a4f","system_id":"levelo_inurba_marseille","lat":43.286175,"lon":5.35108,"is_reserved":false,"is_disabled":false,"rental_uris":{"android":"levelo://app?vid=391d39ef-99b0-4b9e-9296-12dca8705a4f","ios":"levelo://app?vid=391d39ef-99b0-4b9e-9296-12dca8705a4f"},"vehicle_type_id":"4","last_reported":1752944996,"current_range_meters":6800,"station_id":"ce4bhch2rcd13ifvqeug","pricing_plan_id":"cebpf4jnsgd1na2vs0mg"},{"bike_id":"2d95b47d-d06f-40a4-bb6e-c13e954e3c8f","system_id":"levelo_inurba_marseille","lat":43.27727,"lon":5.41418,"is_reserved":false,"is_disabled":false,"rental_uris":{"android":"levelo://app?vid=2d95b47d-d06f-40a4-bb6e-c13e954e3c8f","ios":"levelo://app?vid=2d95b47d-d06f-40a4-bb6e-c13e954e3c8f"},"vehicle_type_id":"4","last_reported":1752944996,"current_range_meters":6800,"station_id":"","pricing_plan_id":"cebpf4jnsgd1na2vs0mg"},{"bike_id":"86c821d2-1136-4a6e-816f-a70c6923862a","system_id":"levelo_inurba_marseille","lat":43.28462,"lon":5.35884,"is_reserved":false,"is_disabled":false,"rental_uris":{"android":"levelo://app?vid=86c821d2-1136-4a6e-816f-a70c6923862a","ios":"levelo://app?vid=86c821d2-1136-4a6e-816f-a70c6923862a"},"vehicle_type_id":"4","last_reported":1752944996,"current_range_meters":6800,"station_id":"ce4bhah2rcd13ifvqei0","pricing_plan_id":"cebpf4jnsgd1na2vs0mg"},{"bike_id":"8f4efc4a-ee43-4756-babf-8953fefa070d","system_id":"levelo_inurba_marseille","lat":43.26555,"lon":5.37309,"is_reserved":false,"is_disabled":true,"rental_uris":{"android":"levelo://app?vid=8f4efc4a-ee43-4756-babf-8953fefa070d","ios":"levelo://app?vid=8f4efc4a-ee43-4756-babf-8953fefa070d"},"vehicle_type_id":"4","last_reported":1752944996,"current_range_meters":6800,"station_id":"ce4bhg12rcd13ifvqf70","pricing_plan_id":"cebpf4jnsgd1na2vs0mg"},{"bike_id":"a2f4d7a0-91e7-4de9-a2c1-2bd13bb57c98","system_id":"levelo_inurba_marseille","lat":43.33029,"lon":5.39041,"is_reserved":false,"is_disabled":false,"rental_uris":{"android":"levelo://app?vid=a2f4d7a0-91e7-4de9-a2c1-2bd13bb57c98","ios":"levelo://app?vid=a2f4d7a0-91e7-4de9-a2c1-2bd13bb57c98"},"vehicle_type_id":"4","last_reported":1752944996,"current_range_meters":6800,"station_id":"ce4bhr92rcd13ifvqhrg","pricing_plan_id":"cebpf4jnsgd1na2vs0mg"},{"bike_id":"ba2742d7-5e8f-49eb-8182-d384f3922b1e","system_id":"levelo_inurba_marseille","lat":43.28416,"lon":5.34984,"is_reserved":false,"is_disabled":false,"rental_uris":{"android":"levelo://app?vid=ba2742d7-5e8f-49eb-8182-d384f3922b1e","ios":"levelo://app?vid=ba2742d7-5e8f-49eb-8182-d384f3922b1e"},"vehicle_type_id":"4","last_reported":1752944996,"current_range_meters":7200,"station_id":"ce4bhbh2rcd13ifvqepg","pricing_plan_id":"cebpf4jnsgd1na2vs0mg"},{"bike_id":"0312b478-6860-43f1-9664-e6d606cdf034","system_id":"levelo_inurba_marseille","lat":43.28415,"lon":5.34974,"is_reserved":false,"is_disabled":false,"rental_uris":{"android":"levelo://app?vid=0312b478-6860-43f1-9664-e6d606cdf034","ios":"levelo://app?vid=0312b478-6860-43f1-9664-e6d606cdf034"},"vehicle_type_id":"4","last_reported":1752944996,"current_range_meters":7200,"station_id":"ce4bhbh2rcd13ifvqepg","pricing_plan_id":"cebpf4jnsgd1na2vs0mg"},{"bike_id":"72acce2b-2249-45a2-be91-c8268f8a11e8","system_id":"levelo_inurba_marseille","lat":43.225067,"lon":5.347838,"is_reserved":false,"is_disabled":false,"rental_uris":{"android":"levelo://app?vid=72acce2b-2249-45a2-be91-c8268f8a11e8","ios":"levelo://app?vid=72acce2b-2249-45a2-be91-c8268f8a11e8"},"vehicle_type_id":"4","last_reported":1752944996,"current_range_meters":8000,"station_id":"st_cvj5dfep6f1abm77gieg","pricing_plan_id":"cebpf4jnsgd1na2vs0mg"},{"bike_id":"a7be1df8-2975-477a-845f-788483570787","system_id":"levelo_inurba_marseille","lat":43.29537,"lon":5.37493,"is_reserved":false,"is_disabled":false,"rental_uris":{"android":"levelo://app?vid=a7be1df8-2975-477a-845f-788483570787","ios":"levelo://app?vid=a7be1df8-2975-477a-845f-788483570787"},"vehicle_type_id":"4","last_reported":1752944996,"current_range_meters":12400,"station_id":"ce4bgkp2rcd13ifvqbmg","pricing_plan_id":"cebpf4jnsgd1na2vs0mg"},{"bike_id":"180ab1e8-e94a-47e3-a6b8-7b23559bd12f","system_id":"levelo_inurba_marseille","lat":43.3041,"lon":5.39744,"is_reserved":false,"is_disabled":false,"rental_uris":{"android":"levelo://app?vid=180ab1e8-e94a-47e3-a6b8-7b23559bd12f","ios":"levelo://app?vid=180ab1e8-e94a-47e3-a6b8-7b23559bd12f"},"vehicle_type_id":"4","last_reported":1752944996,"current_range_meters":8000,"station_id":"ce4bh092rcd13ifvqd20","pricing_plan_id":"cebpf4jnsgd1na2vs0mg"},{"bike_id":"1def8edc-5f0f-44d8-a520-1a6f0be2b25a","system_id":"levelo_inurba_marseille","lat":43.25608,"lon":5.38218,"is_reserved":false,"is_disabled":false,"rental_uris":{"android":"levelo://app?vid=1def8edc-5f0f-44d8-a520-1a6f0be2b25a","ios":"levelo://app?vid=1def8edc-5f0f-44d8-a520-1a6f0be2b25a"},"vehicle_type_id":"4","last_reported":1752944996,"current_range_meters":8000,"station_id":"ce4bhih2rcd13ifvqfs0","pricing_plan_id":"cebpf4jnsgd1na2vs0mg"},{"bike_id":"c46f61c1-06e6-4ac4-896b-14a86befee90","system_id":"levelo_inurba_marseille","lat":43.2991,"lon":5.37473,"is_reserved":false,"is_disabled":false,"rental_uris":{"android":"levelo://app?vid=c46f61c1-06e6-4ac4-896b-14a86befee90","ios":"levelo://app?vid=c46f61c1-06e6-4ac4-896b-14a86befee90"},"vehicle_type_id":"4","last_reported":1752944996,"current_range_meters":8000,"station_id":"ce4bgjh2rcd13ifvqbg0","pricing_plan_id":"cebpf4jnsgd1na2vs0mg"},{"bike_id":"ce7bd25b-5213-4881-a28b-f582e6a1d712","system_id":"levelo_inurba_marseille","lat":43.31402,"lon":5.36669,"is_reserved":false,"is_disabled":true,"rental_uris":{"android":"levelo://app?vid=ce7bd25b-5213-4881-a28b-f582e6a1d712","ios":"levelo://app?vid=ce7bd25b-5213-4881-a28b-f582e6a1d712"},"vehicle_type_id":"4","last_reported":1752944996,"current_range_meters":8000,"station_id":"ce4bgr92rcd13ifvqc6g","pricing_plan_id":"cebpf4jnsgd1na2vs0mg"},{"bike_id":"242c0490-dce1-4527-84cf-23785dba6ae1","system_id":"levelo_inurba_marseille","lat":43.255,"lon":5.37651,"is_reserved":false,"is_disabled":false,"rental_uris":{"android":"levelo://app?vid=242c0490-dce1-4527-84cf-23785dba6ae1","ios":"levelo://app?vid=242c0490-dce1-4527-84cf-23785dba6ae1"},"vehicle_type_id":"4","last_reported":1752944996,"current_range_meters":8000,"station_id":"ce4bhh12rcd13ifvqff0","pricing_plan_id":"cebpf4jnsgd1na2vs0mg"},{"bike_id":"6886b2dc-c853-4217-be12-6dff39415262","system_id":"levelo_inurba_marseille","lat":43.26944,"lon":5.40253,"is_reserved":false,"is_disabled":false,"rental_uris":{"android":"levelo://app?vid=6886b2dc-c853-4217-be12-6dff39415262","ios":"levelo://app?vid=6886b2dc-c853-4217-be12-6dff39415262"},"vehicle_type_id":"4","last_reported":1752944996,"current_range_meters":8400,"station_id":"cjm6bp8fraef2m0cb0m0","pricing_plan_id":"cebpf4jnsgd1na2vs0mg"},{"bike_id":"7ba80774-b11e-4526-b36d-edd358abb392","system_id":"levelo_inurba_marseille","lat":43.22527,"lon":5.34764,"is_reserved":false,"is_disabled":false,"rental_uris":{"android":"levelo://app?vid=7ba80774-b11e-4526-b36d-edd358abb392","ios":"levelo://app?vid=7ba80774-b11e-4526-b36d-edd358abb392"},"vehicle_type_id":"4","last_reported":1752944996,"current_range_meters":8400,"station_id":"st_cvj5dfep6f1abm77gieg","pricing_plan_id":"cebpf4jnsgd1na2vs0mg"},{"bike_id":"bad5b207-9746-43a8-8583-0405d09684c6","system_id":"levelo_inurba_marseille","lat":43.284576,"lon":5.358888,"is_reserved":false,"is_disabled":false,"rental_uris":{"android":"levelo://app?vid=bad5b207-9746-43a8-8583-0405d09684c6","ios":"levelo://app?vid=bad5b207-9746-43a8-8583-0405d09684c6"},"vehicle_type_id":"4","last_reported":1752944996,"current_range_meters":8400,"station_id":"ce4bhah2rcd13ifvqei0","pricing_plan_id":"cebpf4jnsgd1na2vs0mg"},{"bike_id":"850780f9-38af-46ea-b165-3f7c95ccc0c7","system_id":"levelo_inurba_marseille","lat":43.283365,"lon":5.381114,"is_reserved":false,"is_disabled":false,"rental_uris":{"android":"levelo://app?vid=850780f9-38af-46ea-b165-3f7c95ccc0c7","ios":"levelo://app?vid=850780f9-38af-46ea-b165-3f7c95ccc0c7"},"vehicle_type_id":"4","last_reported":1752944996,"current_range_meters":8400,"station_id":"ce4bh412rcd13ifvqdr0","pricing_plan_id":"cebpf4jnsgd1na2vs0mg"},{"bike_id":"977537a7-6837-450b-9cd7-2fd1b1079c95","system_id":"levelo_inurba_marseille","lat":43.28411,"lon":5.34985,"is_reserved":false,"is_disabled":false,"rental_uris":{"android":"levelo://app?vid=977537a7-6837-450b-9cd7-2fd1b1079c95","ios":"levelo://app?vid=977537a7-6837-450b-9cd7-2fd1b1079c95"},"vehicle_type_id":"4","last_reported":1752944996,"current_range_meters":8800,"station_id":"ce4bhbh2rcd13ifvqepg","pricing_plan_id":"cebpf4jnsgd1na2vs0mg"},{"bike_id":"c6db0f6a-96fe-4e1d-8ded-c2ef38c9bab4","system_id":"levelo_inurba_marseille","lat":43.305688,"lon":5.418387,"is_reserved":false,"is_disabled":true,"rental_uris":{"android":"levelo://app?vid=c6db0f6a-96fe-4e1d-8ded-c2ef38c9bab4","ios":"levelo://app?vid=c6db0f6a-96fe-4e1d-8ded-c2ef38c9bab4"},"vehicle_type_id":"4","last_reported":1752944996,"current_range_meters":8800,"station_id":"ce4bht12rcd13ifvqi60","pricing_plan_id":"cebpf4jnsgd1na2vs0mg"},{"bike_id":"0e42a7ec-0d0d-4b91-a100-e1bcd751f991","system_id":"levelo_inurba_marseille","lat":43.29897,"lon":5.4366,"is_reserved":false,"is_disabled":false,"rental_uris":{"android":"levelo://app?vid=0e42a7ec-0d0d-4b91-a100-e1bcd751f991","ios":"levelo://app?vid=0e42a7ec-0d0d-4b91-a100-e1bcd751f991"},"vehicle_type_id":"4","last_reported":1752944996,"current_range_meters":8800,"station_id":"ce4bhpp2rcd13ifvqhfg","pricing_plan_id":"cebpf4jnsgd1na2vs0mg"},{"bike_id":"07aeb5da-15b1-4b73-9d17-70e8acd75061","system_id":"levelo_inurba_marseille","lat":43.22509,"lon":5.34782,"is_reserved":false,"is_disabled":false,"rental_uris":{"android":"levelo://app?vid=07aeb5da-15b1-4b73-9d17-70e8acd75061","ios":"levelo://app?vid=07aeb5da-15b1-4b73-9d17-70e8acd75061"},"vehicle_type_id":"4","last_reported":1752944996,"current_range_meters":8800,"station_id":"st_cvj5dfep6f1abm77gieg","pricing_plan_id":"cebpf4jnsgd1na2vs0mg"},{"bike_id":"a5f8eb70-982b-4046-8f61-25e8d61e3d8d","system_id":"levelo_inurba_marseille","lat":43.28422,"lon":5.37492,"is_reserved":false,"is_disabled":false,"rental_uris":{"android":"levelo://app?vid=a5f8eb70-982b-4046-8f61-25e8d61e3d8d","ios":"levelo://app?vid=a5f8eb70-982b-4046-8f61-25e8d61e3d8d"},"vehicle_type_id":"4","last_reported":1752944996,"current_range_meters":8800,"station_id":"ce4bh412rcd13ifvqds0","pricing_plan_id":"cebpf4jnsgd1na2vs0mg"},{"bike_id":"b2c822c5-9770-4f16-8d50-e0c244f7933f","system_id":"levelo_inurba_marseille","lat":43.28465,"lon":5.35889,"is_reserved":false,"is_disabled":false,"rental_uris":{"android":"levelo://app?vid=b2c822c5-9770-4f16-8d50-e0c244f7933f","ios":"levelo://app?vid=b2c822c5-9770-4f16-8d50-e0c244f7933f"},"vehicle_type_id":"4","last_reported":1752944996,"current_range_meters":9200,"station_id":"ce4bhah2rcd13ifvqei0","pricing_plan_id":"cebpf4jnsgd1na2vs0mg"},{"bike_id":"713c67ac-bcd9-45a3-aa16-4c521716a00c","system_id":"levelo_inurba_marseille","lat":43.30423,"lon":5.39737,"is_reserved":false,"is_disabled":false,"rental_uris":{"android":"levelo://app?vid=713c67ac-bcd9-45a3-aa16-4c521716a00c","ios":"levelo://app?vid=713c67ac-bcd9-45a3-aa16-4c521716a00c"},"vehicle_type_id":"4","last_reported":1752944996,"current_range_meters":9200,"station_id":"ce4bh092rcd13ifvqd20","pricing_plan_id":"cebpf4jnsgd1na2vs0mg"},{"bike_id":"7150d82d-0aae-4240-81f3-e459b8173dde","system_id":"levelo_inurba_marseille","lat":43.28427,"lon":5.34988,"is_reserved":false,"is_disabled":false,"rental_uris":{"android":"levelo://app?vid=7150d82d-0aae-4240-81f3-e459b8173dde","ios":"levelo://app?vid=7150d82d-0aae-4240-81f3-e459b8173dde"},"vehicle_type_id":"4","last_reported":1752944996,"current_range_meters":9600,"station_id":"ce4bhbh2rcd13ifvqepg","pricing_plan_id":"cebpf4jnsgd1na2vs0mg"},{"bike_id":"ea4bf20b-1e97-478f-afff-4a7b90712fcc","system_id":"levelo_inurba_marseille","lat":43.26791,"lon":5.39399,"is_reserved":false,"is_disabled":false,"rental_uris":{"android":"levelo://app?vid=ea4bf20b-1e97-478f-afff-4a7b90712fcc","ios":"levelo://app?vid=ea4bf20b-1e97-478f-afff-4a7b90712fcc"},"vehicle_type_id":"4","last_reported":1752944996,"current_range_meters":9600,"station_id":"ce4bhh12rcd13ifvqfg0","pricing_plan_id":"cebpf4jnsgd1na2vs0mg"},{"bike_id":"b5c52e60-c28e-43be-9c81-605e18b4fe3c","system_id":"levelo_inurba_marseille","lat":43.32045,"lon":5.41554,"is_reserved":false,"is_disabled":false,"rental_uris":{"android":"levelo://app?vid=b5c52e60-c28e-43be-9c81-605e18b4fe3c","ios":"levelo://app?vid=b5c52e60-c28e-43be-9c81-605e18b4fe3c"},"vehicle_type_id":"4","last_reported":1752944996,"current_range_meters":9600,"station_id":"ce4bhq92rcd13ifvqhkg","pricing_plan_id":"cebpf4jnsgd1na2vs0mg"},{"bike_id":"57a30f0b-84eb-4b98-8989-8d3c02b43bf0","system_id":"levelo_inurba_marseille","lat":43.28626,"lon":5.36987,"is_reserved":false,"is_disabled":false,"rental_uris":{"android":"levelo://app?vid=57a30f0b-84eb-4b98-8989-8d3c02b43bf0","ios":"levelo://app?vid=57a30f0b-84eb-4b98-8989-8d3c02b43bf0"},"vehicle_type_id":"4","last_reported":1752944996,"current_range_meters":9600,"station_id":"","pricing_plan_id":"cebpf4jnsgd1na2vs0mg"},{"bike_id":"cfb52d04-9134-4c86-8269-771716b20f27","system_id":"levelo_inurba_marseille","lat":43.21193,"lon":5.35073,"is_reserved":false,"is_disabled":false,"rental_uris":{"android":"levelo://app?vid=cfb52d04-9134-4c86-8269-771716b20f27","ios":"levelo://app?vid=cfb52d04-9134-4c86-8269-771716b20f27"},"vehicle_type_id":"4","last_reported":1752944996,"current_range_meters":9600,"station_id":"st_cvj6sg6p6f1abm77japg","pricing_plan_id":"cebpf4jnsgd1na2vs0mg"},{"bike_id":"72651b64-43cc-4c10-9d13-2d4e73d0f2de","system_id":"levelo_inurba_marseille","lat":43.25117,"lon":5.40304,"is_reserved":false,"is_disabled":false,"rental_uris":{"android":"levelo://app?vid=72651b64-43cc-4c10-9d13-2d4e73d0f2de","ios":"levelo://app?vid=72651b64-43cc-4c10-9d13-2d4e73d0f2de"},"vehicle_type_id":"4","last_reported":1752944996,"current_range_meters":9600,"station_id":"ce4bhlh2rcd13ifvqgig","pricing_plan_id":"cebpf4jnsgd1na2vs0mg"},{"bike_id":"41b1f842-888e-445d-9a97-fa5b7b163639","system_id":"levelo_inurba_marseille","lat":43.25497,"lon":5.37649,"is_reserved":false,"is_disabled":false,"rental_uris":{"android":"levelo://app?vid=41b1f842-888e-445d-9a97-fa5b7b163639","ios":"levelo://app?vid=41b1f842-888e-445d-9a97-fa5b7b163639"},"vehicle_type_id":"4","last_reported":1752944996,"current_range_meters":9600,"station_id":"ce4bhh12rcd13ifvqff0","pricing_plan_id":"cebpf4jnsgd1na2vs0mg"},{"bike_id":"fed7482d-f406-4a3c-81b9-fcfabe88ac23","system_id":"levelo_inurba_marseille","lat":43.28856,"lon":5.35842,"is_reserved":false,"is_disabled":false,"rental_uris":{"android":"levelo://app?vid=fed7482d-f406-4a3c-81b9-fcfabe88ac23","ios":"levelo://app?vid=fed7482d-f406-4a3c-81b9-fcfabe88ac23"},"vehicle_type_id":"4","last_reported":1752944996,"current_range_meters":10000,"station_id":"ce4bhb12rcd13ifvqem0","pricing_plan_id":"cebpf4jnsgd1na2vs0mg"},{"bike_id":"6acf6616-5bc2-413d-b8a9-de0cef45b2d4","system_id":"levelo_inurba_marseille","lat":43.24808,"lon":5.37452,"is_reserved":false,"is_disabled":true,"rental_uris":{"android":"levelo://app?vid=6acf6616-5bc2-413d-b8a9-de0cef45b2d4","ios":"levelo://app?vid=6acf6616-5bc2-413d-b8a9-de0cef45b2d4"},"vehicle_type_id":"4","last_reported":1752944996,"current_range_meters":10000,"station_id":"ce4bhgh2rcd13ifvqfb0","pricing_plan_id":"cebpf4jnsgd1na2vs0mg"},{"bike_id":"6f18ab1b-0c74-47b1-bed8-837677176207","system_id":"levelo_inurba_marseille","lat":43.320555,"lon":5.409178,"is_reserved":false,"is_disabled":false,"rental_uris":{"android":"levelo://app?vid=6f18ab1b-0c74-47b1-bed8-837677176207","ios":"levelo://app?vid=6f18ab1b-0c74-47b1-bed8-837677176207"},"vehicle_type_id":"4","last_reported":1752944996,"current_range_meters":10000,"station_id":"","pricing_plan_id":"cebpf4jnsgd1na2vs0mg"},{"bike_id":"c3e9a7ec-b1ec-4ac8-b8ba-f9afc54a90d5","system_id":"levelo_inurba_marseille","lat":43.29937,"lon":5.36562,"is_reserved":false,"is_disabled":false,"rental_uris":{"android":"levelo://app?vid=c3e9a7ec-b1ec-4ac8-b8ba-f9afc54a90d5","ios":"levelo://app?vid=c3e9a7ec-b1ec-4ac8-b8ba-f9afc54a90d5"},"vehicle_type_id":"4","last_reported":1752944996,"current_range_meters":10000,"station_id":"ce4bgm92rcd13ifvqbr0","pricing_plan_id":"cebpf4jnsgd1na2vs0mg"},{"bike_id":"0da4e39c-f6b0-42ad-b232-1ffda32bcbfb","system_id":"levelo_inurba_marseille","lat":43.22505,"lon":5.34782,"is_reserved":false,"is_disabled":false,"rental_uris":{"android":"levelo://app?vid=0da4e39c-f6b0-42ad-b232-1ffda32bcbfb","ios":"levelo://app?vid=0da4e39c-f6b0-42ad-b232-1ffda32bcbfb"},"vehicle_type_id":"4","last_reported":1752944996,"current_range_meters":10800,"station_id":"st_cvj5dfep6f1abm77gieg","pricing_plan_id":"cebpf4jnsgd1na2vs0mg"},{"bike_id":"93f32558-d0c8-48ab-ba27-e1a1ccba7659","system_id":"levelo_inurba_marseille","lat":43.28624,"lon":5.35103,"is_reserved":false,"is_disabled":false,"rental_uris":{"android":"levelo://app?vid=93f32558-d0c8-48ab-ba27-e1a1ccba7659","ios":"levelo://app?vid=93f32558-d0c8-48ab-ba27-e1a1ccba7659"},"vehicle_type_id":"4","last_reported":1752944996,"current_range_meters":10800,"station_id":"ce4bhch2rcd13ifvqeug","pricing_plan_id":"cebpf4jnsgd1na2vs0mg"},{"bike_id":"41f4fa1a-dbac-4858-8e11-703c3f15e03e","system_id":"levelo_inurba_marseille","lat":43.30593,"lon":5.3935,"is_reserved":false,"is_disabled":false,"rental_uris":{"android":"levelo://app?vid=41f4fa1a-dbac-4858-8e11-703c3f15e03e","ios":"levelo://app?vid=41f4fa1a-dbac-4858-8e11-703c3f15e03e"},"vehicle_type_id":"4","last_reported":1752944996,"current_range_meters":10800,"station_id":"ce4bh0p2rcd13ifvqd80","pricing_plan_id":"cebpf4jnsgd1na2vs0mg"},{"bike_id":"f0dbba60-7fa2-4835-8cf4-423440f8b95a","system_id":"levelo_inurba_marseille","lat":43.21757,"lon":5.34597,"is_reserved":false,"is_disabled":false,"rental_uris":{"android":"levelo://app?vid=f0dbba60-7fa2-4835-8cf4-423440f8b95a","ios":"levelo://app?vid=f0dbba60-7fa2-4835-8cf4-423440f8b95a"},"vehicle_type_id":"4","last_reported":1752944996,"current_range_meters":10800,"station_id":"","pricing_plan_id":"cebpf4jnsgd1na2vs0mg"},{"bike_id":"34fe381a-1976-4665-be98-1d38842ecc6e","system_id":"levelo_inurba_marseille","lat":43.29621,"lon":5.37167,"is_reserved":false,"is_disabled":false,"rental_uris":{"android":"levelo://app?vid=34fe381a-1976-4665-be98-1d38842ecc6e","ios":"levelo://app?vid=34fe381a-1976-4665-be98-1d38842ecc6e"},"vehicle_type_id":"4","last_reported":1752944996,"current_range_meters":10800,"station_id":"ce4bgnh2rcd13ifvqc0g","pricing_plan_id":"cebpf4jnsgd1na2vs0mg"},{"bike_id":"b545278d-1ee4-4ad7-bc9f-6f9cf3676dfd","system_id":"levelo_inurba_marseille","lat":43.28425,"lon":5.3497,"is_reserved":false,"is_disabled":false,"rental_uris":{"android":"levelo://app?vid=b545278d-1ee4-4ad7-bc9f-6f9cf3676dfd","ios":"levelo://app?vid=b545278d-1ee4-4ad7-bc9f-6f9cf3676dfd"},"vehicle_type_id":"4","last_reported":1752944996,"current_range_meters":10800,"station_id":"ce4bhbh2rcd13ifvqepg","pricing_plan_id":"cebpf4jnsgd1na2vs0mg"},{"bike_id":"8543d818-85f9-4294-b6a3-5731355b9411","system_id":"levelo_inurba_marseille","lat":43.314905,"lon":5.373112,"is_reserved":false,"is_disabled":false,"rental_uris":{"android":"levelo://app?vid=8543d818-85f9-4294-b6a3-5731355b9411","ios":"levelo://app?vid=8543d818-85f9-4294-b6a3-5731355b9411"},"vehicle_type_id":"4","last_reported":1752944996,"current_range_meters":10800,"station_id":"","pricing_plan_id":"cebpf4jnsgd1na2vs0mg"},{"bike_id":"05ce1422-84cd-4e78-8683-ac21b38efcb6","system_id":"levelo_inurba_marseille","lat":43.26808,"lon":5.40272,"is_reserved":false,"is_disabled":false,"rental_uris":{"android":"levelo://app?vid=05ce1422-84cd-4e78-8683-ac21b38efcb6","ios":"levelo://app?vid=05ce1422-84cd-4e78-8683-ac21b38efcb6"},"vehicle_type_id":"4","last_reported":1752944996,"current_range_meters":10000,"station_id":"ce501612rcd8frsf0b60","pricing_plan_id":"cebpf4jnsgd1na2vs0mg"},{"bike_id":"0e33dda2-d47d-4261-9e87-d963691659fc","system_id":"levelo_inurba_marseille","lat":43.28845,"lon":5.35834,"is_reserved":false,"is_disabled":true,"rental_uris":{"android":"levelo://app?vid=0e33dda2-d47d-4261-9e87-d963691659fc","ios":"levelo://app?vid=0e33dda2-d47d-4261-9e87-d963691659fc"},"vehicle_type_id":"4","last_reported":1752944996,"current_range_meters":10800,"station_id":"ce4bhb12rcd13ifvqem0","pricing_plan_id":"cebpf4jnsgd1na2vs0mg"},{"bike_id":"f600a3e2-48bf-4d18-9255-d7852f88f8a9","system_id":"levelo_inurba_marseille","lat":43.27058,"lon":5.4026,"is_reserved":false,"is_disabled":false,"rental_uris":{"android":"levelo://app?vid=f600a3e2-48bf-4d18-9255-d7852f88f8a9","ios":"levelo://app?vid=f600a3e2-48bf-4d18-9255-d7852f88f8a9"},"vehicle_type_id":"4","last_reported":1752944996,"current_range_meters":11200,"station_id":"ce4bhk92rcd13ifvqgc0","pricing_plan_id":"cebpf4jnsgd1na2vs0mg"},{"bike_id":"b4c40497-6aa4-4874-87c3-cf544cbffa36","system_id":"levelo_inurba_marseille","lat":43.28275,"lon":5.35071,"is_reserved":false,"is_disabled":false,"rental_uris":{"android":"levelo://app?vid=b4c40497-6aa4-4874-87c3-cf544cbffa36","ios":"levelo://app?vid=b4c40497-6aa4-4874-87c3-cf544cbffa36"},"vehicle_type_id":"4","last_reported":1752944996,"current_range_meters":11200,"station_id":"ce4bhbp2rcd13ifvqerg","pricing_plan_id":"cebpf4jnsgd1na2vs0mg"},{"bike_id":"8feababc-8824-4a24-8101-b33984bd6261","system_id":"levelo_inurba_marseille","lat":43.29003,"lon":5.35609,"is_reserved":false,"is_disabled":false,"rental_uris":{"android":"levelo://app?vid=8feababc-8824-4a24-8101-b33984bd6261","ios":"levelo://app?vid=8feababc-8824-4a24-8101-b33984bd6261"},"vehicle_type_id":"4","last_reported":1752944996,"current_range_meters":11200,"station_id":"ce4bhb92rcd13ifvqen0","pricing_plan_id":"cebpf4jnsgd1na2vs0mg"},{"bike_id":"dd5c27a5-05d8-40e8-9509-edf2d3299e4a","system_id":"levelo_inurba_marseille","lat":43.240742,"lon":5.377536,"is_reserved":false,"is_disabled":true,"rental_uris":{"android":"levelo://app?vid=dd5c27a5-05d8-40e8-9509-edf2d3299e4a","ios":"levelo://app?vid=dd5c27a5-05d8-40e8-9509-edf2d3299e4a"},"vehicle_type_id":"4","last_reported":1752944996,"current_range_meters":11600,"station_id":"ce4bhnp2rcd13ifvqgvg","pricing_plan_id":"cebpf4jnsgd1na2vs0mg"},{"bike_id":"de8072c7-1461-4a99-9519-973394313212","system_id":"levelo_inurba_marseille","lat":43.29263,"lon":5.38427,"is_reserved":false,"is_disabled":false,"rental_uris":{"android":"levelo://app?vid=de8072c7-1461-4a99-9519-973394313212","ios":"levelo://app?vid=de8072c7-1461-4a99-9519-973394313212"},"vehicle_type_id":"4","last_reported":1752944996,"current_range_meters":11600,"station_id":"ce4bh692rcd13ifvqea0","pricing_plan_id":"cebpf4jnsgd1na2vs0mg"},{"bike_id":"f8172017-b801-4321-be3d-6df262a69f96","system_id":"levelo_inurba_marseille","lat":43.27914,"lon":5.37997,"is_reserved":false,"is_disabled":false,"rental_uris":{"android":"levelo://app?vid=f8172017-b801-4321-be3d-6df262a69f96","ios":"levelo://app?vid=f8172017-b801-4321-be3d-6df262a69f96"},"vehicle_type_id":"4","last_reported":1752944996,"current_range_meters":11600,"station_id":"ce4bhf92rcd13ifvqf50","pricing_plan_id":"cebpf4jnsgd1na2vs0mg"},{"bike_id":"875e79b8-828f-41e0-8e09-6cdd5634f137","system_id":"levelo_inurba_marseille","lat":43.284144,"lon":5.349939,"is_reserved":false,"is_disabled":false,"rental_uris":{"android":"levelo://app?vid=875e79b8-828f-41e0-8e09-6cdd5634f137","ios":"levelo://app?vid=875e79b8-828f-41e0-8e09-6cdd5634f137"},"vehicle_type_id":"4","last_reported":1752944996,"current_range_meters":12000,"station_id":"ce4bhbh2rcd13ifvqepg","pricing_plan_id":"cebpf4jnsgd1na2vs0mg"},{"bike_id":"ac141403-2eff-454e-8bd1-3d400d40ed2b","system_id":"levelo_inurba_marseille","lat":43.33118,"lon":5.40016,"is_reserved":false,"is_disabled":false,"rental_uris":{"android":"levelo://app?vid=ac141403-2eff-454e-8bd1-3d400d40ed2b","ios":"levelo://app?vid=ac141403-2eff-454e-8bd1-3d400d40ed2b"},"vehicle_type_id":"4","last_reported":1752944996,"current_range_meters":11600,"station_id":"","pricing_plan_id":"cebpf4jnsgd1na2vs0mg"},{"bike_id":"cf9da0b2-9c2f-48ee-ae92-32a14e4d9b10","system_id":"levelo_inurba_marseille","lat":43.24803,"lon":5.37453,"is_reserved":false,"is_disabled":false,"rental_uris":{"android":"levelo://app?vid=cf9da0b2-9c2f-48ee-ae92-32a14e4d9b10","ios":"levelo://app?vid=cf9da0b2-9c2f-48ee-ae92-32a14e4d9b10"},"vehicle_type_id":"4","last_reported":1752944996,"current_range_meters":11600,"station_id":"ce4bhgh2rcd13ifvqfb0","pricing_plan_id":"cebpf4jnsgd1na2vs0mg"},{"bike_id":"3137882b-f859-43ba-ab7c-2e2d867d511b","system_id":"levelo_inurba_marseille","lat":43.28406,"lon":5.37506,"is_reserved":false,"is_disabled":false,"rental_uris":{"android":"levelo://app?vid=3137882b-f859-43ba-ab7c-2e2d867d511b","ios":"levelo://app?vid=3137882b-f859-43ba-ab7c-2e2d867d511b"},"vehicle_type_id":"4","last_reported":1752944996,"current_range_meters":11600,"station_id":"ce4bh412rcd13ifvqds0","pricing_plan_id":"cebpf4jnsgd1na2vs0mg"},{"bike_id":"09a99cc9-81c2-4c00-890e-b8a9af05bd19","system_id":"levelo_inurba_marseille","lat":43.241718,"lon":5.364234,"is_reserved":false,"is_disabled":false,"rental_uris":{"android":"levelo://app?vid=09a99cc9-81c2-4c00-890e-b8a9af05bd19","ios":"levelo://app?vid=09a99cc9-81c2-4c00-890e-b8a9af05bd19"},"vehicle_type_id":"4","last_reported":1752944996,"current_range_meters":11600,"station_id":"cpo36qri1sfpv3e86is0","pricing_plan_id":"cebpf4jnsgd1na2vs0mg"},{"bike_id":"0916292f-c60f-4ec2-a3c5-bb862cec8507","system_id":"levelo_inurba_marseille","lat":43.23188,"lon":5.35563,"is_reserved":false,"is_disabled":false,"rental_uris":{"android":"levelo://app?vid=0916292f-c60f-4ec2-a3c5-bb862cec8507","ios":"levelo://app?vid=0916292f-c60f-4ec2-a3c5-bb862cec8507"},"vehicle_type_id":"4","last_reported":1752944996,"current_range_meters":11600,"station_id":"ce4bhu92rcd13ifvqi70","pricing_plan_id":"cebpf4jnsgd1na2vs0mg"},{"bike_id":"74294011-f896-43a5-9244-462f87f52fb3","system_id":"levelo_inurba_marseille","lat":43.28505,"lon":5.38424,"is_reserved":false,"is_disabled":false,"rental_uris":{"android":"levelo://app?vid=74294011-f896-43a5-9244-462f87f52fb3","ios":"levelo://app?vid=74294011-f896-43a5-9244-462f87f52fb3"},"vehicle_type_id":"4","last_reported":1752944996,"current_range_meters":11600,"station_id":"ce4bh512rcd13ifvqe3g","pricing_plan_id":"cebpf4jnsgd1na2vs0mg"},{"bike_id":"96579d04-b9e9-484c-9b9a-af500e5e8552","system_id":"levelo_inurba_marseille","lat":43.32659,"lon":5.36365,"is_reserved":false,"is_disabled":false,"rental_uris":{"android":"levelo://app?vid=96579d04-b9e9-484c-9b9a-af500e5e8552","ios":"levelo://app?vid=96579d04-b9e9-484c-9b9a-af500e5e8552"},"vehicle_type_id":"4","last_reported":1752944996,"current_range_meters":12000,"station_id":"","pricing_plan_id":"cebpf4jnsgd1na2vs0mg"},{"bike_id":"093264fa-6fb5-4fc0-b568-f6d3cb167589","system_id":"levelo_inurba_marseille","lat":43.294147,"lon":5.373933,"is_reserved":false,"is_disabled":false,"rental_uris":{"android":"levelo://app?vid=093264fa-6fb5-4fc0-b568-f6d3cb167589","ios":"levelo://app?vid=093264fa-6fb5-4fc0-b568-f6d3cb167589"},"vehicle_type_id":"4","last_reported":1752944996,"current_range_meters":12000,"station_id":"ce4bgv92rcd13ifvqcq0","pricing_plan_id":"cebpf4jnsgd1na2vs0mg"},{"bike_id":"3605d35d-f5f1-4b8c-9045-b89ed08529ba","system_id":"levelo_inurba_marseille","lat":43.28284,"lon":5.35066,"is_reserved":false,"is_disabled":false,"rental_uris":{"android":"levelo://app?vid=3605d35d-f5f1-4b8c-9045-b89ed08529ba","ios":"levelo://app?vid=3605d35d-f5f1-4b8c-9045-b89ed08529ba"},"vehicle_type_id":"4","last_reported":1752944996,"current_range_meters":12000,"station_id":"ce4bhbp2rcd13ifvqerg","pricing_plan_id":"cebpf4jnsgd1na2vs0mg"},{"bike_id":"0c982cf8-280d-4baf-9eb0-9697c59fa765","system_id":"levelo_inurba_marseille","lat":43.28045,"lon":5.36937,"is_reserved":false,"is_disabled":false,"rental_uris":{"android":"levelo://app?vid=0c982cf8-280d-4baf-9eb0-9697c59fa765","ios":"levelo://app?vid=0c982cf8-280d-4baf-9eb0-9697c59fa765"},"vehicle_type_id":"4","last_reported":1752944996,"current_range_meters":12000,"station_id":"ce4bha12rcd13ifvqef0","pricing_plan_id":"cebpf4jnsgd1na2vs0mg"},{"bike_id":"0ae4d6c1-fe19-4d40-90c0-2a3b36699f19","system_id":"levelo_inurba_marseille","lat":43.33016,"lon":5.39627,"is_reserved":false,"is_disabled":false,"rental_uris":{"android":"levelo://app?vid=0ae4d6c1-fe19-4d40-90c0-2a3b36699f19","ios":"levelo://app?vid=0ae4d6c1-fe19-4d40-90c0-2a3b36699f19"},"vehicle_type_id":"4","last_reported":1752944996,"current_range_meters":12400,"station_id":"","pricing_plan_id":"cebpf4jnsgd1na2vs0mg"},{"bike_id":"588908d9-7150-4d19-afa4-a7c0b9f8732e","system_id":"levelo_inurba_marseille","lat":43.292701,"lon":5.38443,"is_reserved":false,"is_disabled":false,"rental_uris":{"android":"levelo://app?vid=588908d9-7150-4d19-afa4-a7c0b9f8732e","ios":"levelo://app?vid=588908d9-7150-4d19-afa4-a7c0b9f8732e"},"vehicle_type_id":"4","last_reported":1752944996,"current_range_meters":12400,"station_id":"ce4bh692rcd13ifvqea0","pricing_plan_id":"cebpf4jnsgd1na2vs0mg"},{"bike_id":"d9749d8f-7121-4a45-ac25-8f48b28876d4","system_id":"levelo_inurba_marseille","lat":43.28088,"lon":5.35205,"is_reserved":false,"is_disabled":false,"rental_uris":{"android":"levelo://app?vid=d9749d8f-7121-4a45-ac25-8f48b28876d4","ios":"levelo://app?vid=d9749d8f-7121-4a45-ac25-8f48b28876d4"},"vehicle_type_id":"4","last_reported":1752944996,"current_range_meters":12400,"station_id":"","pricing_plan_id":"cebpf4jnsgd1na2vs0mg"},{"bike_id":"d7149a46-fb39-4935-aa6a-50600ec45c29","system_id":"levelo_inurba_marseille","lat":43.21756,"lon":5.34606,"is_reserved":false,"is_disabled":true,"rental_uris":{"android":"levelo://app?vid=d7149a46-fb39-4935-aa6a-50600ec45c29","ios":"levelo://app?vid=d7149a46-fb39-4935-aa6a-50600ec45c29"},"vehicle_type_id":"4","last_reported":1752944996,"current_range_meters":12400,"station_id":"st_cvj6r9ubvosntc0bgbag","pricing_plan_id":"cebpf4jnsgd1na2vs0mg"},{"bike_id":"de72cd79-43d2-48c4-8741-7efada8d62dd","system_id":"levelo_inurba_marseille","lat":43.32337,"lon":5.40621,"is_reserved":false,"is_disabled":false,"rental_uris":{"android":"levelo://app?vid=de72cd79-43d2-48c4-8741-7efada8d62dd","ios":"levelo://app?vid=de72cd79-43d2-48c4-8741-7efada8d62dd"},"vehicle_type_id":"4","last_reported":1752944996,"current_range_meters":12400,"station_id":"ce4bhq92rcd13ifvqhjg","pricing_plan_id":"cebpf4jnsgd1na2vs0mg"},{"bike_id":"94c07cb2-0943-4d24-99f2-97bdab47aa3f","system_id":"levelo_inurba_marseille","lat":43.337444,"lon":5.374475,"is_reserved":false,"is_disabled":false,"rental_uris":{"android":"levelo://app?vid=94c07cb2-0943-4d24-99f2-97bdab47aa3f","ios":"levelo://app?vid=94c07cb2-0943-4d24-99f2-97bdab47aa3f"},"vehicle_type_id":"4","last_reported":1752944996,"current_range_meters":12400,"station_id":"","pricing_plan_id":"cebpf4jnsgd1na2vs0mg"},{"bike_id":"94d53b26-6e00-4ce7-87f0-4655ec375c05","system_id":"levelo_inurba_marseille","lat":43.26033,"lon":5.37544,"is_reserved":false,"is_disabled":false,"rental_uris":{"android":"levelo://app?vid=94d53b26-6e00-4ce7-87f0-4655ec375c05","ios":"levelo://app?vid=94d53b26-6e00-4ce7-87f0-4655ec375c05"},"vehicle_type_id":"4","last_reported":1752944996,"current_range_meters":12800,"station_id":"ce4bhgh2rcd13ifvqfa0","pricing_plan_id":"cebpf4jnsgd1na2vs0mg"},{"bike_id":"8350003f-2999-433d-9ad9-923cf70c187e","system_id":"levelo_inurba_marseille","lat":43.29868,"lon":5.39734,"is_reserved":false,"is_disabled":false,"rental_uris":{"android":"levelo://app?vid=8350003f-2999-433d-9ad9-923cf70c187e","ios":"levelo://app?vid=8350003f-2999-433d-9ad9-923cf70c187e"},"vehicle_type_id":"4","last_reported":1752944996,"current_range_meters":12800,"station_id":"","pricing_plan_id":"cebpf4jnsgd1na2vs0mg"},{"bike_id":"a92f295a-537c-46cc-8e55-5420bb9828f2","system_id":"levelo_inurba_marseille","lat":43.293033,"lon":5.371743,"is_reserved":false,"is_disabled":false,"rental_uris":{"android":"levelo://app?vid=a92f295a-537c-46cc-8e55-5420bb9828f2","ios":"levelo://app?vid=a92f295a-537c-46cc-8e55-5420bb9828f2"},"vehicle_type_id":"4","last_reported":1752944996,"current_range_meters":12800,"station_id":"ce4bgh92rcd13ifvqb40","pricing_plan_id":"cebpf4jnsgd1na2vs0mg"},{"bike_id":"e6ffb471-ff32-4657-b301-e60f3ef654fc","system_id":"levelo_inurba_marseille","lat":43.29622,"lon":5.37165,"is_reserved":false,"is_disabled":false,"rental_uris":{"android":"levelo://app?vid=e6ffb471-ff32-4657-b301-e60f3ef654fc","ios":"levelo://app?vid=e6ffb471-ff32-4657-b301-e60f3ef654fc"},"vehicle_type_id":"4","last_reported":1752944996,"current_range_meters":12800,"station_id":"ce4bgnh2rcd13ifvqc0g","pricing_plan_id":"cebpf4jnsgd1na2vs0mg"},{"bike_id":"b970126c-c1c3-439a-8880-44ad88bd90cf","system_id":"levelo_inurba_marseille","lat":43.321077,"lon":5.367993,"is_reserved":false,"is_disabled":false,"rental_uris":{"android":"levelo://app?vid=b970126c-c1c3-439a-8880-44ad88bd90cf","ios":"levelo://app?vid=b970126c-c1c3-439a-8880-44ad88bd90cf"},"vehicle_type_id":"4","last_reported":1752944996,"current_range_meters":12800,"station_id":"ce4bhrh2rcd13ifvqhug","pricing_plan_id":"cebpf4jnsgd1na2vs0mg"},{"bike_id":"4c99ec48-9b12-478d-a0e2-56d1789a6464","system_id":"levelo_inurba_marseille","lat":43.277767,"lon":5.388529,"is_reserved":false,"is_disabled":false,"rental_uris":{"android":"levelo://app?vid=4c99ec48-9b12-478d-a0e2-56d1789a6464","ios":"levelo://app?vid=4c99ec48-9b12-478d-a0e2-56d1789a6464"},"vehicle_type_id":"4","last_reported":1752944996,"current_range_meters":12800,"station_id":"ce4bhg12rcd13ifvqf80","pricing_plan_id":"cebpf4jnsgd1na2vs0mg"},{"bike_id":"9eee562f-c74b-4c1a-8fa0-1792764207de","system_id":"levelo_inurba_marseille","lat":43.25491,"lon":5.37649,"is_reserved":false,"is_disabled":false,"rental_uris":{"android":"levelo://app?vid=9eee562f-c74b-4c1a-8fa0-1792764207de","ios":"levelo://app?vid=9eee562f-c74b-4c1a-8fa0-1792764207de"},"vehicle_type_id":"4","last_reported":1752944996,"current_range_meters":13600,"station_id":"ce4bhh12rcd13ifvqff0","pricing_plan_id":"cebpf4jnsgd1na2vs0mg"},{"bike_id":"977026fc-c1b4-4def-be0a-4e99c39bea4f","system_id":"levelo_inurba_marseille","lat":43.28275,"lon":5.350727,"is_reserved":false,"is_disabled":false,"rental_uris":{"android":"levelo://app?vid=977026fc-c1b4-4def-be0a-4e99c39bea4f","ios":"levelo://app?vid=977026fc-c1b4-4def-be0a-4e99c39bea4f"},"vehicle_type_id":"4","last_reported":1752944996,"current_range_meters":13600,"station_id":"ce4bhbp2rcd13ifvqerg","pricing_plan_id":"cebpf4jnsgd1na2vs0mg"},{"bike_id":"775381ad-0879-4193-aa1a-3d0405fd7726","system_id":"levelo_inurba_marseille","lat":43.28856,"lon":5.35846,"is_reserved":false,"is_disabled":false,"rental_uris":{"android":"levelo://app?vid=775381ad-0879-4193-aa1a-3d0405fd7726","ios":"levelo://app?vid=775381ad-0879-4193-aa1a-3d0405fd7726"},"vehicle_type_id":"4","last_reported":1752944996,"current_range_meters":13600,"station_id":"ce4bhb12rcd13ifvqem0","pricing_plan_id":"cebpf4jnsgd1na2vs0mg"},{"bike_id":"7360b2c1-827d-4a45-ba07-948ef7d2fc35","system_id":"levelo_inurba_marseille","lat":43.229295,"lon":5.353761,"is_reserved":false,"is_disabled":false,"rental_uris":{"android":"levelo://app?vid=7360b2c1-827d-4a45-ba07-948ef7d2fc35","ios":"levelo://app?vid=7360b2c1-827d-4a45-ba07-948ef7d2fc35"},"vehicle_type_id":"4","last_reported":1752944996,"current_range_meters":13600,"station_id":"","pricing_plan_id":"cebpf4jnsgd1na2vs0mg"},{"bike_id":"d1e9c72e-7489-4052-b944-813b64bc55b4","system_id":"levelo_inurba_marseille","lat":43.31589,"lon":5.38941,"is_reserved":false,"is_disabled":false,"rental_uris":{"android":"levelo://app?vid=d1e9c72e-7489-4052-b944-813b64bc55b4","ios":"levelo://app?vid=d1e9c72e-7489-4052-b944-813b64bc55b4"},"vehicle_type_id":"4","last_reported":1752944996,"current_range_meters":13600,"station_id":"","pricing_plan_id":"cebpf4jnsgd1na2vs0mg"},{"bike_id":"f1809c6d-a698-4f48-95f7-3baa320675f9","system_id":"levelo_inurba_marseille","lat":43.28617,"lon":5.35113,"is_reserved":false,"is_disabled":false,"rental_uris":{"android":"levelo://app?vid=f1809c6d-a698-4f48-95f7-3baa320675f9","ios":"levelo://app?vid=f1809c6d-a698-4f48-95f7-3baa320675f9"},"vehicle_type_id":"4","last_reported":1752944996,"current_range_meters":14400,"station_id":"ce4bhch2rcd13ifvqeug","pricing_plan_id":"cebpf4jnsgd1na2vs0mg"},{"bike_id":"c69e515d-dd04-40b9-ad12-7672789f868d","system_id":"levelo_inurba_marseille","lat":43.27615,"lon":5.361096,"is_reserved":false,"is_disabled":false,"rental_uris":{"android":"levelo://app?vid=c69e515d-dd04-40b9-ad12-7672789f868d","ios":"levelo://app?vid=c69e515d-dd04-40b9-ad12-7672789f868d"},"vehicle_type_id":"4","last_reported":1752944996,"current_range_meters":14000,"station_id":"ce4bgj92rcd13ifvqbe0","pricing_plan_id":"cebpf4jnsgd1na2vs0mg"},{"bike_id":"b32d1a93-0beb-427d-955f-7686e06dec9b","system_id":"levelo_inurba_marseille","lat":43.2318,"lon":5.35572,"is_reserved":false,"is_disabled":false,"rental_uris":{"android":"levelo://app?vid=b32d1a93-0beb-427d-955f-7686e06dec9b","ios":"levelo://app?vid=b32d1a93-0beb-427d-955f-7686e06dec9b"},"vehicle_type_id":"4","last_reported":1752944996,"current_range_meters":14000,"station_id":"ce4bhu92rcd13ifvqi70","pricing_plan_id":"cebpf4jnsgd1na2vs0mg"},{"bike_id":"69174324-2b6a-4eaf-b188-60080a25b908","system_id":"levelo_inurba_marseille","lat":43.32364,"lon":5.36752,"is_reserved":false,"is_disabled":false,"rental_uris":{"android":"levelo://app?vid=69174324-2b6a-4eaf-b188-60080a25b908","ios":"levelo://app?vid=69174324-2b6a-4eaf-b188-60080a25b908"},"vehicle_type_id":"4","last_reported":1752944996,"current_range_meters":14000,"station_id":"ce4bhsh2rcd13ifvqi2g","pricing_plan_id":"cebpf4jnsgd1na2vs0mg"},{"bike_id":"fc6b25a3-506b-4c18-b7ea-c56c67a95aa9","system_id":"levelo_inurba_marseille","lat":43.28438,"lon":5.34964,"is_reserved":false,"is_disabled":false,"rental_uris":{"android":"levelo://app?vid=fc6b25a3-506b-4c18-b7ea-c56c67a95aa9","ios":"levelo://app?vid=fc6b25a3-506b-4c18-b7ea-c56c67a95aa9"},"vehicle_type_id":"4","last_reported":1752944996,"current_range_meters":14000,"station_id":"ce4bhbh2rcd13ifvqepg","pricing_plan_id":"cebpf4jnsgd1na2vs0mg"},{"bike_id":"7cff2bc5-05d4-4286-9f0e-a0b3663b8cd6","system_id":"levelo_inurba_marseille","lat":43.27907,"lon":5.3801,"is_reserved":false,"is_disabled":false,"rental_uris":{"android":"levelo://app?vid=7cff2bc5-05d4-4286-9f0e-a0b3663b8cd6","ios":"levelo://app?vid=7cff2bc5-05d4-4286-9f0e-a0b3663b8cd6"},"vehicle_type_id":"4","last_reported":1752944996,"current_range_meters":13600,"station_id":"ce4bhf92rcd13ifvqf50","pricing_plan_id":"cebpf4jnsgd1na2vs0mg"},{"bike_id":"00a893b0-855d-4170-ae60-2c2e81841b33","system_id":"levelo_inurba_marseille","lat":43.29876,"lon":5.39731,"is_reserved":false,"is_disabled":false,"rental_uris":{"android":"levelo://app?vid=00a893b0-855d-4170-ae60-2c2e81841b33","ios":"levelo://app?vid=00a893b0-855d-4170-ae60-2c2e81841b33"},"vehicle_type_id":"4","last_reported":1752944996,"current_range_meters":14400,"station_id":"ce4bh0h2rcd13ifvqd50","pricing_plan_id":"cebpf4jnsgd1na2vs0mg"},{"bike_id":"536f84d0-4d79-4bf0-861c-2407c0a43066","system_id":"levelo_inurba_marseille","lat":43.30421,"lon":5.39754,"is_reserved":false,"is_disabled":false,"rental_uris":{"android":"levelo://app?vid=536f84d0-4d79-4bf0-861c-2407c0a43066","ios":"levelo://app?vid=536f84d0-4d79-4bf0-861c-2407c0a43066"},"vehicle_type_id":"4","last_reported":1752944996,"current_range_meters":14400,"station_id":"ce4bh092rcd13ifvqd20","pricing_plan_id":"cebpf4jnsgd1na2vs0mg"},{"bike_id":"b3c5a29a-caee-4b6b-9dfc-fac2d1ca3742","system_id":"levelo_inurba_marseille","lat":43.28447,"lon":5.35889,"is_reserved":false,"is_disabled":false,"rental_uris":{"android":"levelo://app?vid=b3c5a29a-caee-4b6b-9dfc-fac2d1ca3742","ios":"levelo://app?vid=b3c5a29a-caee-4b6b-9dfc-fac2d1ca3742"},"vehicle_type_id":"4","last_reported":1752944996,"current_range_meters":14400,"station_id":"ce4bhah2rcd13ifvqei0","pricing_plan_id":"cebpf4jnsgd1na2vs0mg"},{"bike_id":"fdbeb289-adb3-4e25-b0dd-c635efbe92b2","system_id":"levelo_inurba_marseille","lat":43.31695,"lon":5.40468,"is_reserved":false,"is_disabled":false,"rental_uris":{"android":"levelo://app?vid=fdbeb289-adb3-4e25-b0dd-c635efbe92b2","ios":"levelo://app?vid=fdbeb289-adb3-4e25-b0dd-c635efbe92b2"},"vehicle_type_id":"4","last_reported":1752944996,"current_range_meters":14400,"station_id":"ce4bh012rcd13ifvqd00","pricing_plan_id":"cebpf4jnsgd1na2vs0mg"},{"bike_id":"a54008a8-d6df-4141-9c71-b657434298fc","system_id":"levelo_inurba_marseille","lat":43.31702,"lon":5.40478,"is_reserved":false,"is_disabled":false,"rental_uris":{"android":"levelo://app?vid=a54008a8-d6df-4141-9c71-b657434298fc","ios":"levelo://app?vid=a54008a8-d6df-4141-9c71-b657434298fc"},"vehicle_type_id":"4","last_reported":1752944996,"current_range_meters":14800,"station_id":"ce4bh012rcd13ifvqd00","pricing_plan_id":"cebpf4jnsgd1na2vs0mg"},{"bike_id":"dffe9bfb-4f98-4cc0-8ff4-b0b3068a01a1","system_id":"levelo_inurba_marseille","lat":43.26935,"lon":5.38924,"is_reserved":false,"is_disabled":false,"rental_uris":{"android":"levelo://app?vid=dffe9bfb-4f98-4cc0-8ff4-b0b3068a01a1","ios":"levelo://app?vid=dffe9bfb-4f98-4cc0-8ff4-b0b3068a01a1"},"vehicle_type_id":"4","last_reported":1752944996,"current_range_meters":14400,"station_id":"ce4bhhh2rcd13ifvqfl0","pricing_plan_id":"cebpf4jnsgd1na2vs0mg"},{"bike_id":"072d9626-be18-4556-a3f5-056b23bb503d","system_id":"levelo_inurba_marseille","lat":43.28662,"lon":5.36333,"is_reserved":false,"is_disabled":false,"rental_uris":{"android":"levelo://app?vid=072d9626-be18-4556-a3f5-056b23bb503d","ios":"levelo://app?vid=072d9626-be18-4556-a3f5-056b23bb503d"},"vehicle_type_id":"4","last_reported":1752944996,"current_range_meters":14800,"station_id":"ce4bhah2rcd13ifvqej0","pricing_plan_id":"cebpf4jnsgd1na2vs0mg"},{"bike_id":"22f452dc-b65c-47ea-8aad-95c04a5a243a","system_id":"levelo_inurba_marseille","lat":43.28456,"lon":5.35883,"is_reserved":false,"is_disabled":false,"rental_uris":{"android":"levelo://app?vid=22f452dc-b65c-47ea-8aad-95c04a5a243a","ios":"levelo://app?vid=22f452dc-b65c-47ea-8aad-95c04a5a243a"},"vehicle_type_id":"4","last_reported":1752944996,"current_range_meters":14400,"station_id":"ce4bhah2rcd13ifvqei0","pricing_plan_id":"cebpf4jnsgd1na2vs0mg"},{"bike_id":"603820f9-76b2-471d-a1fc-f566022def88","system_id":"levelo_inurba_marseille","lat":43.28281,"lon":5.35065,"is_reserved":false,"is_disabled":false,"rental_uris":{"android":"levelo://app?vid=603820f9-76b2-471d-a1fc-f566022def88","ios":"levelo://app?vid=603820f9-76b2-471d-a1fc-f566022def88"},"vehicle_type_id":"4","last_reported":1752944996,"current_range_meters":14800,"station_id":"ce4bhbp2rcd13ifvqerg","pricing_plan_id":"cebpf4jnsgd1na2vs0mg"},{"bike_id":"c9ffd04b-c3a5-49bc-9896-054acbb108c7","system_id":"levelo_inurba_marseille","lat":43.22512,"lon":5.34776,"is_reserved":false,"is_disabled":false,"rental_uris":{"android":"levelo://app?vid=c9ffd04b-c3a5-49bc-9896-054acbb108c7","ios":"levelo://app?vid=c9ffd04b-c3a5-49bc-9896-054acbb108c7"},"vehicle_type_id":"4","last_reported":1752944996,"current_range_meters":14800,"station_id":"st_cvj5dfep6f1abm77gieg","pricing_plan_id":"cebpf4jnsgd1na2vs0mg"},{"bike_id":"1c522f02-0b79-4f13-8656-a28cc4186541","system_id":"levelo_inurba_marseille","lat":43.21763,"lon":5.34598,"is_reserved":false,"is_disabled":false,"rental_uris":{"android":"levelo://app?vid=1c522f02-0b79-4f13-8656-a28cc4186541","ios":"levelo://app?vid=1c522f02-0b79-4f13-8656-a28cc4186541"},"vehicle_type_id":"4","last_reported":1752944996,"current_range_meters":15200,"station_id":"","pricing_plan_id":"cebpf4jnsgd1na2vs0mg"},{"bike_id":"a99327b5-d7c5-4261-b365-cb90daec1f26","system_id":"levelo_inurba_marseille","lat":43.31718,"lon":5.42395,"is_reserved":false,"is_disabled":false,"rental_uris":{"android":"levelo://app?vid=a99327b5-d7c5-4261-b365-cb90daec1f26","ios":"levelo://app?vid=a99327b5-d7c5-4261-b365-cb90daec1f26"},"vehicle_type_id":"4","last_reported":1752944996,"current_range_meters":15200,"station_id":"ce4bhp92rcd13ifvqhbg","pricing_plan_id":"cebpf4jnsgd1na2vs0mg"},{"bike_id":"0fd02cf6-67fb-4589-807f-241dd50b7e1a","system_id":"levelo_inurba_marseille","lat":43.29914,"lon":5.43657,"is_reserved":false,"is_disabled":true,"rental_uris":{"android":"levelo://app?vid=0fd02cf6-67fb-4589-807f-241dd50b7e1a","ios":"levelo://app?vid=0fd02cf6-67fb-4589-807f-241dd50b7e1a"},"vehicle_type_id":"4","last_reported":1752944996,"current_range_meters":15200,"station_id":"ce4bhpp2rcd13ifvqhfg","pricing_plan_id":"cebpf4jnsgd1na2vs0mg"},{"bike_id":"a6de290b-5c15-427b-bc37-8301607e1735","system_id":"levelo_inurba_marseille","lat":43.337444,"lon":5.374475,"is_reserved":false,"is_disabled":false,"rental_uris":{"android":"levelo://app?vid=a6de290b-5c15-427b-bc37-8301607e1735","ios":"levelo://app?vid=a6de290b-5c15-427b-bc37-8301607e1735"},"vehicle_type_id":"4","last_reported":1752944996,"current_range_meters":15200,"station_id":"","pricing_plan_id":"cebpf4jnsgd1na2vs0mg"},{"bike_id":"74e93ff0-0fe3-46c1-8291-4ed06dfeed28","system_id":"levelo_inurba_marseille","lat":43.28621,"lon":5.35111,"is_reserved":false,"is_disabled":false,"rental_uris":{"android":"levelo://app?vid=74e93ff0-0fe3-46c1-8291-4ed06dfeed28","ios":"levelo://app?vid=74e93ff0-0fe3-46c1-8291-4ed06dfeed28"},"vehicle_type_id":"4","last_reported":1752944996,"current_range_meters":15200,"station_id":"ce4bhch2rcd13ifvqeug","pricing_plan_id":"cebpf4jnsgd1na2vs0mg"},{"bike_id":"e122d88a-9b60-4e16-a29e-60ef32a8dad5","system_id":"levelo_inurba_marseille","lat":43.21166,"lon":5.34989,"is_reserved":false,"is_disabled":false,"rental_uris":{"android":"levelo://app?vid=e122d88a-9b60-4e16-a29e-60ef32a8dad5","ios":"levelo://app?vid=e122d88a-9b60-4e16-a29e-60ef32a8dad5"},"vehicle_type_id":"4","last_reported":1752944996,"current_range_meters":15200,"station_id":"st_cvj6sg6p6f1abm77japg","pricing_plan_id":"cebpf4jnsgd1na2vs0mg"},{"bike_id":"646bd144-4ffa-49b8-a08d-6b47ca08200f","system_id":"levelo_inurba_marseille","lat":43.25492,"lon":5.37613,"is_reserved":false,"is_disabled":true,"rental_uris":{"android":"levelo://app?vid=646bd144-4ffa-49b8-a08d-6b47ca08200f","ios":"levelo://app?vid=646bd144-4ffa-49b8-a08d-6b47ca08200f"},"vehicle_type_id":"4","last_reported":1752944996,"current_range_meters":15200,"station_id":"ce4bhh12rcd13ifvqff0","pricing_plan_id":"cebpf4jnsgd1na2vs0mg"},{"bike_id":"1f56fd1f-47a1-420b-9f11-b7e521b15bbf","system_id":"levelo_inurba_marseille","lat":43.29582,"lon":5.36744,"is_reserved":false,"is_disabled":false,"rental_uris":{"android":"levelo://app?vid=1f56fd1f-47a1-420b-9f11-b7e521b15bbf","ios":"levelo://app?vid=1f56fd1f-47a1-420b-9f11-b7e521b15bbf"},"vehicle_type_id":"4","last_reported":1752944996,"current_range_meters":15200,"station_id":"ce4bgph2rcd13ifvqc2g","pricing_plan_id":"cebpf4jnsgd1na2vs0mg"},{"bike_id":"6a193f41-f336-48d3-a5d0-a6fca3bf067e","system_id":"levelo_inurba_marseille","lat":43.24679,"lon":5.3815,"is_reserved":false,"is_disabled":false,"rental_uris":{"android":"levelo://app?vid=6a193f41-f336-48d3-a5d0-a6fca3bf067e","ios":"levelo://app?vid=6a193f41-f336-48d3-a5d0-a6fca3bf067e"},"vehicle_type_id":"4","last_reported":1752944996,"current_range_meters":15200,"station_id":"ce4bhih2rcd13ifvqfr0","pricing_plan_id":"cebpf4jnsgd1na2vs0mg"},{"bike_id":"7c75d68c-ae44-4b2f-8446-1808dda1efa3","system_id":"levelo_inurba_marseille","lat":43.26938,"lon":5.40255,"is_reserved":false,"is_disabled":false,"rental_uris":{"android":"levelo://app?vid=7c75d68c-ae44-4b2f-8446-1808dda1efa3","ios":"levelo://app?vid=7c75d68c-ae44-4b2f-8446-1808dda1efa3"},"vehicle_type_id":"4","last_reported":1752944996,"current_range_meters":15200,"station_id":"cjm6bp8fraef2m0cb0m0","pricing_plan_id":"cebpf4jnsgd1na2vs0mg"},{"bike_id":"22b0b3e6-a4c4-4120-af3a-7dcf09048182","system_id":"levelo_inurba_marseille","lat":43.303086,"lon":5.368999,"is_reserved":false,"is_disabled":false,"rental_uris":{"android":"levelo://app?vid=22b0b3e6-a4c4-4120-af3a-7dcf09048182","ios":"levelo://app?vid=22b0b3e6-a4c4-4120-af3a-7dcf09048182"},"vehicle_type_id":"4","last_reported":1752944996,"current_range_meters":15200,"station_id":"ce4bgqh2rcd13ifvqc5g","pricing_plan_id":"cebpf4jnsgd1na2vs0mg"},{"bike_id":"c04f4d0e-09c8-4656-9c87-195fcc2f8942","system_id":"levelo_inurba_marseille","lat":43.2843,"lon":5.34998,"is_reserved":false,"is_disabled":false,"rental_uris":{"android":"levelo://app?vid=c04f4d0e-09c8-4656-9c87-195fcc2f8942","ios":"levelo://app?vid=c04f4d0e-09c8-4656-9c87-195fcc2f8942"},"vehicle_type_id":"4","last_reported":1752944996,"current_range_meters":16000,"station_id":"ce4bhbh2rcd13ifvqepg","pricing_plan_id":"cebpf4jnsgd1na2vs0mg"},{"bike_id":"d421927e-7ddd-40a0-904f-5b4ff0266a72","system_id":"levelo_inurba_marseille","lat":43.319091,"lon":5.401622,"is_reserved":false,"is_disabled":false,"rental_uris":{"android":"levelo://app?vid=d421927e-7ddd-40a0-904f-5b4ff0266a72","ios":"levelo://app?vid=d421927e-7ddd-40a0-904f-5b4ff0266a72"},"vehicle_type_id":"4","last_reported":1752944996,"current_range_meters":16000,"station_id":"","pricing_plan_id":"cebpf4jnsgd1na2vs0mg"},{"bike_id":"45dea0eb-918d-49f1-8341-001e35c226f0","system_id":"levelo_inurba_marseille","lat":43.21226,"lon":5.35062,"is_reserved":false,"is_disabled":false,"rental_uris":{"android":"levelo://app?vid=45dea0eb-918d-49f1-8341-001e35c226f0","ios":"levelo://app?vid=45dea0eb-918d-49f1-8341-001e35c226f0"},"vehicle_type_id":"4","last_reported":1752944996,"current_range_meters":16000,"station_id":"","pricing_plan_id":"cebpf4jnsgd1na2vs0mg"},{"bike_id":"cf9f7b6f-b252-45aa-bd41-e7b8a5947e88","system_id":"levelo_inurba_marseille","lat":43.26949,"lon":5.40253,"is_reserved":false,"is_disabled":true,"rental_uris":{"android":"levelo://app?vid=cf9f7b6f-b252-45aa-bd41-e7b8a5947e88","ios":"levelo://app?vid=cf9f7b6f-b252-45aa-bd41-e7b8a5947e88"},"vehicle_type_id":"4","last_reported":1752944996,"current_range_meters":16000,"station_id":"cjm6bp8fraef2m0cb0m0","pricing_plan_id":"cebpf4jnsgd1na2vs0mg"},{"bike_id":"0703cdf4-27d3-4d2e-9975-ac47ba1f254c","system_id":"levelo_inurba_marseille","lat":43.30304,"lon":5.36925,"is_reserved":false,"is_disabled":false,"rental_uris":{"android":"levelo://app?vid=0703cdf4-27d3-4d2e-9975-ac47ba1f254c","ios":"levelo://app?vid=0703cdf4-27d3-4d2e-9975-ac47ba1f254c"},"vehicle_type_id":"4","last_reported":1752944996,"current_range_meters":16000,"station_id":"ce4bgqh2rcd13ifvqc5g","pricing_plan_id":"cebpf4jnsgd1na2vs0mg"},{"bike_id":"892e06aa-05f6-415f-96f6-13455b0802de","system_id":"levelo_inurba_marseille","lat":43.29581,"lon":5.37504,"is_reserved":false,"is_disabled":true,"rental_uris":{"android":"levelo://app?vid=892e06aa-05f6-415f-96f6-13455b0802de","ios":"levelo://app?vid=892e06aa-05f6-415f-96f6-13455b0802de"},"vehicle_type_id":"4","last_reported":1752944996,"current_range_meters":16000,"station_id":"ce4bgh92rcd13ifvqb50","pricing_plan_id":"cebpf4jnsgd1na2vs0mg"},{"bike_id":"83036b03-adb1-418f-ad9f-83b2e4ca32f2","system_id":"levelo_inurba_marseille","lat":43.24171,"lon":5.36381,"is_reserved":false,"is_disabled":false,"rental_uris":{"android":"levelo://app?vid=83036b03-adb1-418f-ad9f-83b2e4ca32f2","ios":"levelo://app?vid=83036b03-adb1-418f-ad9f-83b2e4ca32f2"},"vehicle_type_id":"4","last_reported":1752944996,"current_range_meters":16000,"station_id":"cpo36qri1sfpv3e86is0","pricing_plan_id":"cebpf4jnsgd1na2vs0mg"},{"bike_id":"44e89ad7-16a2-4910-805f-061f2aee5ab7","system_id":"levelo_inurba_marseille","lat":43.231871,"lon":5.355581,"is_reserved":false,"is_disabled":false,"rental_uris":{"android":"levelo://app?vid=44e89ad7-16a2-4910-805f-061f2aee5ab7","ios":"levelo://app?vid=44e89ad7-16a2-4910-805f-061f2aee5ab7"},"vehicle_type_id":"4","last_reported":1752944996,"current_range_meters":16000,"station_id":"ce4bhu92rcd13ifvqi70","pricing_plan_id":"cebpf4jnsgd1na2vs0mg"},{"bike_id":"5a570911-22d0-41b1-a776-0fe138c4bdc4","system_id":"levelo_inurba_marseille","lat":43.21201,"lon":5.35051,"is_reserved":false,"is_disabled":false,"rental_uris":{"android":"levelo://app?vid=5a570911-22d0-41b1-a776-0fe138c4bdc4","ios":"levelo://app?vid=5a570911-22d0-41b1-a776-0fe138c4bdc4"},"vehicle_type_id":"4","last_reported":1752944996,"current_range_meters":16000,"station_id":"st_cvj6sg6p6f1abm77japg","pricing_plan_id":"cebpf4jnsgd1na2vs0mg"},{"bike_id":"7592d3b0-727d-4107-ba81-a2966cdc2b34","system_id":"levelo_inurba_marseille","lat":43.26217,"lon":5.4045,"is_reserved":false,"is_disabled":false,"rental_uris":{"android":"levelo://app?vid=7592d3b0-727d-4107-ba81-a2966cdc2b34","ios":"levelo://app?vid=7592d3b0-727d-4107-ba81-a2966cdc2b34"},"vehicle_type_id":"4","last_reported":1752944996,"current_range_meters":16000,"station_id":"ce4bhmh2rcd13ifvqgmg","pricing_plan_id":"cebpf4jnsgd1na2vs0mg"},{"bike_id":"7d91d34c-95ba-419a-8d0b-21d2aeaa83ad","system_id":"levelo_inurba_marseille","lat":43.25489,"lon":5.3765,"is_reserved":false,"is_disabled":true,"rental_uris":{"android":"levelo://app?vid=7d91d34c-95ba-419a-8d0b-21d2aeaa83ad","ios":"levelo://app?vid=7d91d34c-95ba-419a-8d0b-21d2aeaa83ad"},"vehicle_type_id":"4","last_reported":1752944996,"current_range_meters":16000,"station_id":"ce4bhh12rcd13ifvqff0","pricing_plan_id":"cebpf4jnsgd1na2vs0mg"},{"bike_id":"dc855e2b-4d6f-440e-8d01-90e6265927b7","system_id":"levelo_inurba_marseille","lat":43.28405,"lon":5.37514,"is_reserved":false,"is_disabled":false,"rental_uris":{"android":"levelo://app?vid=dc855e2b-4d6f-440e-8d01-90e6265927b7","ios":"levelo://app?vid=dc855e2b-4d6f-440e-8d01-90e6265927b7"},"vehicle_type_id":"4","last_reported":1752944996,"current_range_meters":16000,"station_id":"ce4bh412rcd13ifvqds0","pricing_plan_id":"cebpf4jnsgd1na2vs0mg"},{"bike_id":"f64d4495-c6c3-4047-b421-2e9c29951567","system_id":"levelo_inurba_marseille","lat":43.22536,"lon":5.3476,"is_reserved":false,"is_disabled":false,"rental_uris":{"android":"levelo://app?vid=f64d4495-c6c3-4047-b421-2e9c29951567","ios":"levelo://app?vid=f64d4495-c6c3-4047-b421-2e9c29951567"},"vehicle_type_id":"4","last_reported":1752944996,"current_range_meters":16400,"station_id":"st_cvj5dfep6f1abm77gieg","pricing_plan_id":"cebpf4jnsgd1na2vs0mg"},{"bike_id":"4a2af6fb-f040-4dff-9ff5-d70c4f952e83","system_id":"levelo_inurba_marseille","lat":43.31552,"lon":5.37281,"is_reserved":false,"is_disabled":false,"rental_uris":{"android":"levelo://app?vid=4a2af6fb-f040-4dff-9ff5-d70c4f952e83","ios":"levelo://app?vid=4a2af6fb-f040-4dff-9ff5-d70c4f952e83"},"vehicle_type_id":"4","last_reported":1752944996,"current_range_meters":16400,"station_id":"","pricing_plan_id":"cebpf4jnsgd1na2vs0mg"},{"bike_id":"6f120e02-0867-4040-a62a-34c38406fbd8","system_id":"levelo_inurba_marseille","lat":43.217505,"lon":5.346048,"is_reserved":false,"is_disabled":false,"rental_uris":{"android":"levelo://app?vid=6f120e02-0867-4040-a62a-34c38406fbd8","ios":"levelo://app?vid=6f120e02-0867-4040-a62a-34c38406fbd8"},"vehicle_type_id":"4","last_reported":1752944996,"current_range_meters":16400,"station_id":"st_cvj6r9ubvosntc0bgbag","pricing_plan_id":"cebpf4jnsgd1na2vs0mg"},{"bike_id":"77e5d396-9f38-43c2-ae33-ac1f85df337d","system_id":"levelo_inurba_marseille","lat":43.29548,"lon":5.4225,"is_reserved":false,"is_disabled":false,"rental_uris":{"android":"levelo://app?vid=77e5d396-9f38-43c2-ae33-ac1f85df337d","ios":"levelo://app?vid=77e5d396-9f38-43c2-ae33-ac1f85df337d"},"vehicle_type_id":"4","last_reported":1752944996,"current_range_meters":16400,"station_id":"ce4bhph2rcd13ifvqhdg","pricing_plan_id":"cebpf4jnsgd1na2vs0mg"},{"bike_id":"b1252802-f176-40ed-9d29-315b1dee4448","system_id":"levelo_inurba_marseille","lat":43.25821,"lon":5.39439,"is_reserved":false,"is_disabled":false,"rental_uris":{"android":"levelo://app?vid=b1252802-f176-40ed-9d29-315b1dee4448","ios":"levelo://app?vid=b1252802-f176-40ed-9d29-315b1dee4448"},"vehicle_type_id":"4","last_reported":1752944996,"current_range_meters":16400,"station_id":"ce4bhip2rcd13ifvqft0","pricing_plan_id":"cebpf4jnsgd1na2vs0mg"},{"bike_id":"d4d77493-10cf-42cb-86e0-8856acf9629a","system_id":"levelo_inurba_marseille","lat":43.30308,"lon":5.36897,"is_reserved":false,"is_disabled":false,"rental_uris":{"android":"levelo://app?vid=d4d77493-10cf-42cb-86e0-8856acf9629a","ios":"levelo://app?vid=d4d77493-10cf-42cb-86e0-8856acf9629a"},"vehicle_type_id":"4","last_reported":1752944996,"current_range_meters":16400,"station_id":"ce4bgqh2rcd13ifvqc5g","pricing_plan_id":"cebpf4jnsgd1na2vs0mg"},{"bike_id":"85e2f9d8-8521-4bb5-b3a3-9c8123c43f36","system_id":"levelo_inurba_marseille","lat":43.29535,"lon":5.38534,"is_reserved":false,"is_disabled":false,"rental_uris":{"android":"levelo://app?vid=85e2f9d8-8521-4bb5-b3a3-9c8123c43f36","ios":"levelo://app?vid=85e2f9d8-8521-4bb5-b3a3-9c8123c43f36"},"vehicle_type_id":"4","last_reported":1752944996,"current_range_meters":16400,"station_id":"ce4bgih2rcd13ifvqba0","pricing_plan_id":"cebpf4jnsgd1na2vs0mg"},{"bike_id":"f4a58f62-b828-4cda-b4f9-1493df6c9b02","system_id":"levelo_inurba_marseille","lat":43.21232,"lon":5.35082,"is_reserved":false,"is_disabled":false,"rental_uris":{"android":"levelo://app?vid=f4a58f62-b828-4cda-b4f9-1493df6c9b02","ios":"levelo://app?vid=f4a58f62-b828-4cda-b4f9-1493df6c9b02"},"vehicle_type_id":"4","last_reported":1752944996,"current_range_meters":16400,"station_id":"","pricing_plan_id":"cebpf4jnsgd1na2vs0mg"},{"bike_id":"37914269-1ad7-46c0-9f88-6e27e2bd4d47","system_id":"levelo_inurba_marseille","lat":43.23059,"lon":5.35494,"is_reserved":false,"is_disabled":false,"rental_uris":{"android":"levelo://app?vid=37914269-1ad7-46c0-9f88-6e27e2bd4d47","ios":"levelo://app?vid=37914269-1ad7-46c0-9f88-6e27e2bd4d47"},"vehicle_type_id":"4","last_reported":1752944996,"current_range_meters":16800,"station_id":"cpo3342slgdg3j2ifvpg","pricing_plan_id":"cebpf4jnsgd1na2vs0mg"},{"bike_id":"2d3e5adb-6ba8-4df7-be40-e52a630e3667","system_id":"levelo_inurba_marseille","lat":43.24066,"lon":5.37729,"is_reserved":false,"is_disabled":false,"rental_uris":{"android":"levelo://app?vid=2d3e5adb-6ba8-4df7-be40-e52a630e3667","ios":"levelo://app?vid=2d3e5adb-6ba8-4df7-be40-e52a630e3667"},"vehicle_type_id":"4","last_reported":1752944996,"current_range_meters":16800,"station_id":"ce4bhnp2rcd13ifvqgvg","pricing_plan_id":"cebpf4jnsgd1na2vs0mg"},{"bike_id":"be2fb6b8-f9f1-4e24-8d7a-ce43be2126d1","system_id":"levelo_inurba_marseille","lat":43.21751,"lon":5.34612,"is_reserved":false,"is_disabled":false,"rental_uris":{"android":"levelo://app?vid=be2fb6b8-f9f1-4e24-8d7a-ce43be2126d1","ios":"levelo://app?vid=be2fb6b8-f9f1-4e24-8d7a-ce43be2126d1"},"vehicle_type_id":"4","last_reported":1752944996,"current_range_meters":16800,"station_id":"st_cvj6r9ubvosntc0bgbag","pricing_plan_id":"cebpf4jnsgd1na2vs0mg"},{"bike_id":"c0ff4141-339b-40d5-bf28-c8bf93d29e47","system_id":"levelo_inurba_marseille","lat":43.22927,"lon":5.35373,"is_reserved":false,"is_disabled":false,"rental_uris":{"android":"levelo://app?vid=c0ff4141-339b-40d5-bf28-c8bf93d29e47","ios":"levelo://app?vid=c0ff4141-339b-40d5-bf28-c8bf93d29e47"},"vehicle_type_id":"4","last_reported":1752944996,"current_range_meters":16800,"station_id":"cpo3532slgdg3j2ikp40","pricing_plan_id":"cebpf4jnsgd1na2vs0mg"},{"bike_id":"0ac9b427-819d-4139-8162-77866abdf07d","system_id":"levelo_inurba_marseille","lat":43.246571,"lon":5.388919,"is_reserved":false,"is_disabled":false,"rental_uris":{"android":"levelo://app?vid=0ac9b427-819d-4139-8162-77866abdf07d","ios":"levelo://app?vid=0ac9b427-819d-4139-8162-77866abdf07d"},"vehicle_type_id":"4","last_reported":1752944996,"current_range_meters":16800,"station_id":"ce4bhg12rcd13ifvqf60","pricing_plan_id":"cebpf4jnsgd1na2vs0mg"},{"bike_id":"f734d1ab-e95f-49df-a640-db407264fdd1","system_id":"levelo_inurba_marseille","lat":43.29588,"lon":5.37502,"is_reserved":false,"is_disabled":false,"rental_uris":{"android":"levelo://app?vid=f734d1ab-e95f-49df-a640-db407264fdd1","ios":"levelo://app?vid=f734d1ab-e95f-49df-a640-db407264fdd1"},"vehicle_type_id":"4","last_reported":1752944996,"current_range_meters":16800,"station_id":"ce4bgh92rcd13ifvqb50","pricing_plan_id":"cebpf4jnsgd1na2vs0mg"},{"bike_id":"50817c71-c433-41db-8588-f3f5b56e9306","system_id":"levelo_inurba_marseille","lat":43.22525,"lon":5.34768,"is_reserved":false,"is_disabled":false,"rental_uris":{"android":"levelo://app?vid=50817c71-c433-41db-8588-f3f5b56e9306","ios":"levelo://app?vid=50817c71-c433-41db-8588-f3f5b56e9306"},"vehicle_type_id":"4","last_reported":1752944996,"current_range_meters":16800,"station_id":"st_cvj5dfep6f1abm77gieg","pricing_plan_id":"cebpf4jnsgd1na2vs0mg"},{"bike_id":"793cb6ee-1272-43f2-be4e-b63a3edef98e","system_id":"levelo_inurba_marseille","lat":43.295332,"lon":5.38559,"is_reserved":false,"is_disabled":false,"rental_uris":{"android":"levelo://app?vid=793cb6ee-1272-43f2-be4e-b63a3edef98e","ios":"levelo://app?vid=793cb6ee-1272-43f2-be4e-b63a3edef98e"},"vehicle_type_id":"4","last_reported":1752944996,"current_range_meters":16800,"station_id":"ce4bgih2rcd13ifvqba0","pricing_plan_id":"cebpf4jnsgd1na2vs0mg"},{"bike_id":"3d5aee74-47f3-4cf9-b6ec-c372c1c9986c","system_id":"levelo_inurba_marseille","lat":43.29945,"lon":5.36541,"is_reserved":false,"is_disabled":false,"rental_uris":{"android":"levelo://app?vid=3d5aee74-47f3-4cf9-b6ec-c372c1c9986c","ios":"levelo://app?vid=3d5aee74-47f3-4cf9-b6ec-c372c1c9986c"},"vehicle_type_id":"4","last_reported":1752944996,"current_range_meters":16800,"station_id":"ce4bgm92rcd13ifvqbr0","pricing_plan_id":"cebpf4jnsgd1na2vs0mg"},{"bike_id":"4101f8fc-b2a4-4327-834e-92555b2fa3eb","system_id":"levelo_inurba_marseille","lat":43.30148,"lon":5.38085,"is_reserved":false,"is_disabled":false,"rental_uris":{"android":"levelo://app?vid=4101f8fc-b2a4-4327-834e-92555b2fa3eb","ios":"levelo://app?vid=4101f8fc-b2a4-4327-834e-92555b2fa3eb"},"vehicle_type_id":"4","last_reported":1752944996,"current_range_meters":16800,"station_id":"ce4bgjp2rcd13ifvqbh0","pricing_plan_id":"cebpf4jnsgd1na2vs0mg"},{"bike_id":"327f6040-df3e-4b9a-b148-fd4ae1fc92cb","system_id":"levelo_inurba_marseille","lat":43.25715,"lon":5.4111,"is_reserved":false,"is_disabled":false,"rental_uris":{"android":"levelo://app?vid=327f6040-df3e-4b9a-b148-fd4ae1fc92cb","ios":"levelo://app?vid=327f6040-df3e-4b9a-b148-fd4ae1fc92cb"},"vehicle_type_id":"4","last_reported":1752944996,"current_range_meters":16400,"station_id":"ce4bhkp2rcd13ifvqgd0","pricing_plan_id":"cebpf4jnsgd1na2vs0mg"},{"bike_id":"8eecb308-4ad0-4b20-8e2b-f6aac4784ac9","system_id":"levelo_inurba_marseille","lat":43.27898,"lon":5.35304,"is_reserved":false,"is_disabled":false,"rental_uris":{"android":"levelo://app?vid=8eecb308-4ad0-4b20-8e2b-f6aac4784ac9","ios":"levelo://app?vid=8eecb308-4ad0-4b20-8e2b-f6aac4784ac9"},"vehicle_type_id":"4","last_reported":1752944996,"current_range_meters":16800,"station_id":"","pricing_plan_id":"cebpf4jnsgd1na2vs0mg"},{"bike_id":"6fb131dd-8bae-4bc0-b0c0-17992306572f","system_id":"levelo_inurba_marseille","lat":43.29596,"lon":5.42281,"is_reserved":false,"is_disabled":false,"rental_uris":{"android":"levelo://app?vid=6fb131dd-8bae-4bc0-b0c0-17992306572f","ios":"levelo://app?vid=6fb131dd-8bae-4bc0-b0c0-17992306572f"},"vehicle_type_id":"4","last_reported":1752944996,"current_range_meters":17200,"station_id":"ce4bhph2rcd13ifvqhdg","pricing_plan_id":"cebpf4jnsgd1na2vs0mg"},{"bike_id":"7a8014fc-6927-44b0-901e-ffe83562b9d2","system_id":"levelo_inurba_marseille","lat":43.29004,"lon":5.35613,"is_reserved":false,"is_disabled":false,"rental_uris":{"android":"levelo://app?vid=7a8014fc-6927-44b0-901e-ffe83562b9d2","ios":"levelo://app?vid=7a8014fc-6927-44b0-901e-ffe83562b9d2"},"vehicle_type_id":"4","last_reported":1752944996,"current_range_meters":17200,"station_id":"ce4bhb92rcd13ifvqen0","pricing_plan_id":"cebpf4jnsgd1na2vs0mg"},{"bike_id":"59cb9f42-a927-4089-a7d9-4171459e6c64","system_id":"levelo_inurba_marseille","lat":43.27426,"lon":5.3941,"is_reserved":false,"is_disabled":false,"rental_uris":{"android":"levelo://app?vid=59cb9f42-a927-4089-a7d9-4171459e6c64","ios":"levelo://app?vid=59cb9f42-a927-4089-a7d9-4171459e6c64"},"vehicle_type_id":"4","last_reported":1752944996,"current_range_meters":17200,"station_id":"ce4bhdp2rcd13ifvqf20","pricing_plan_id":"cebpf4jnsgd1na2vs0mg"},{"bike_id":"c9e13ae8-81d2-45a5-adef-f1b61a66153b","system_id":"levelo_inurba_marseille","lat":43.23959,"lon":5.36625,"is_reserved":false,"is_disabled":false,"rental_uris":{"android":"levelo://app?vid=c9e13ae8-81d2-45a5-adef-f1b61a66153b","ios":"levelo://app?vid=c9e13ae8-81d2-45a5-adef-f1b61a66153b"},"vehicle_type_id":"4","last_reported":1752944996,"current_range_meters":17200,"station_id":"ce4bhi12rcd13ifvqfp0","pricing_plan_id":"cebpf4jnsgd1na2vs0mg"},{"bike_id":"0623aaf7-c769-45d3-abbf-bae39b725fbc","system_id":"levelo_inurba_marseille","lat":43.25567,"lon":5.38204,"is_reserved":false,"is_disabled":false,"rental_uris":{"android":"levelo://app?vid=0623aaf7-c769-45d3-abbf-bae39b725fbc","ios":"levelo://app?vid=0623aaf7-c769-45d3-abbf-bae39b725fbc"},"vehicle_type_id":"4","last_reported":1752944996,"current_range_meters":17200,"station_id":"ce4bhih2rcd13ifvqfs0","pricing_plan_id":"cebpf4jnsgd1na2vs0mg"},{"bike_id":"a4849453-fc76-4eef-856a-587b0feaf6dc","system_id":"levelo_inurba_marseille","lat":43.28431,"lon":5.34964,"is_reserved":false,"is_disabled":false,"rental_uris":{"android":"levelo://app?vid=a4849453-fc76-4eef-856a-587b0feaf6dc","ios":"levelo://app?vid=a4849453-fc76-4eef-856a-587b0feaf6dc"},"vehicle_type_id":"4","last_reported":1752944996,"current_range_meters":17200,"station_id":"ce4bhbh2rcd13ifvqepg","pricing_plan_id":"cebpf4jnsgd1na2vs0mg"},{"bike_id":"939db09d-a9cd-4f3c-b449-45235cb31239","system_id":"levelo_inurba_marseille","lat":43.30139,"lon":5.37403,"is_reserved":false,"is_disabled":false,"rental_uris":{"android":"levelo://app?vid=939db09d-a9cd-4f3c-b449-45235cb31239","ios":"levelo://app?vid=939db09d-a9cd-4f3c-b449-45235cb31239"},"vehicle_type_id":"4","last_reported":1752944996,"current_range_meters":17200,"station_id":"ce4bgs92rcd13ifvqcc0","pricing_plan_id":"cebpf4jnsgd1na2vs0mg"},{"bike_id":"7c8693d8-8e3d-47dd-b6fd-d579b6a5cc59","system_id":"levelo_inurba_marseille","lat":43.299668,"lon":5.385151,"is_reserved":false,"is_disabled":false,"rental_uris":{"android":"levelo://app?vid=7c8693d8-8e3d-47dd-b6fd-d579b6a5cc59","ios":"levelo://app?vid=7c8693d8-8e3d-47dd-b6fd-d579b6a5cc59"},"vehicle_type_id":"4","last_reported":1752944996,"current_range_meters":17200,"station_id":"ce4bgj92rcd13ifvqbd0","pricing_plan_id":"cebpf4jnsgd1na2vs0mg"},{"bike_id":"95b5bcfa-54af-48c0-bd18-8f73f959ce2b","system_id":"levelo_inurba_marseille","lat":43.31935,"lon":5.37313,"is_reserved":false,"is_disabled":false,"rental_uris":{"android":"levelo://app?vid=95b5bcfa-54af-48c0-bd18-8f73f959ce2b","ios":"levelo://app?vid=95b5bcfa-54af-48c0-bd18-8f73f959ce2b"},"vehicle_type_id":"4","last_reported":1752944996,"current_range_meters":17200,"station_id":"","pricing_plan_id":"cebpf4jnsgd1na2vs0mg"},{"bike_id":"4756c3e0-fc87-4647-b159-7725acd8ef8b","system_id":"levelo_inurba_marseille","lat":43.21741,"lon":5.34598,"is_reserved":false,"is_disabled":false,"rental_uris":{"android":"levelo://app?vid=4756c3e0-fc87-4647-b159-7725acd8ef8b","ios":"levelo://app?vid=4756c3e0-fc87-4647-b159-7725acd8ef8b"},"vehicle_type_id":"4","last_reported":1752944996,"current_range_meters":17600,"station_id":"st_cvj6r9ubvosntc0bgbag","pricing_plan_id":"cebpf4jnsgd1na2vs0mg"},{"bike_id":"f99ff1e4-4111-475a-aa3e-cb902d081040","system_id":"levelo_inurba_marseille","lat":43.24813,"lon":5.37448,"is_reserved":false,"is_disabled":false,"rental_uris":{"android":"levelo://app?vid=f99ff1e4-4111-475a-aa3e-cb902d081040","ios":"levelo://app?vid=f99ff1e4-4111-475a-aa3e-cb902d081040"},"vehicle_type_id":"4","last_reported":1752944996,"current_range_meters":17600,"station_id":"ce4bhgh2rcd13ifvqfb0","pricing_plan_id":"cebpf4jnsgd1na2vs0mg"},{"bike_id":"e4e6db7f-6842-4f2c-9bda-e73f51413a84","system_id":"levelo_inurba_marseille","lat":43.28628,"lon":5.35097,"is_reserved":false,"is_disabled":false,"rental_uris":{"android":"levelo://app?vid=e4e6db7f-6842-4f2c-9bda-e73f51413a84","ios":"levelo://app?vid=e4e6db7f-6842-4f2c-9bda-e73f51413a84"},"vehicle_type_id":"4","last_reported":1752944996,"current_range_meters":17600,"station_id":"ce4bhch2rcd13ifvqeug","pricing_plan_id":"cebpf4jnsgd1na2vs0mg"},{"bike_id":"cb32d093-ee3c-4e55-b5d8-f421974c5321","system_id":"levelo_inurba_marseille","lat":43.23987,"lon":5.36601,"is_reserved":false,"is_disabled":false,"rental_uris":{"android":"levelo://app?vid=cb32d093-ee3c-4e55-b5d8-f421974c5321","ios":"levelo://app?vid=cb32d093-ee3c-4e55-b5d8-f421974c5321"},"vehicle_type_id":"4","last_reported":1752944996,"current_range_meters":17600,"station_id":"ce4bhi12rcd13ifvqfp0","pricing_plan_id":"cebpf4jnsgd1na2vs0mg"},{"bike_id":"2ba13de8-2053-45a6-bcbf-51b7a4e83469","system_id":"levelo_inurba_marseille","lat":43.23795,"lon":5.36165,"is_reserved":false,"is_disabled":false,"rental_uris":{"android":"levelo://app?vid=2ba13de8-2053-45a6-bcbf-51b7a4e83469","ios":"levelo://app?vid=2ba13de8-2053-45a6-bcbf-51b7a4e83469"},"vehicle_type_id":"4","last_reported":1752944996,"current_range_meters":17600,"station_id":"","pricing_plan_id":"cebpf4jnsgd1na2vs0mg"},{"bike_id":"12c0af7f-d992-4f6f-be1c-802d340c13c5","system_id":"levelo_inurba_marseille","lat":43.29585,"lon":5.37498,"is_reserved":false,"is_disabled":true,"rental_uris":{"android":"levelo://app?vid=12c0af7f-d992-4f6f-be1c-802d340c13c5","ios":"levelo://app?vid=12c0af7f-d992-4f6f-be1c-802d340c13c5"},"vehicle_type_id":"4","last_reported":1752944996,"current_range_meters":17600,"station_id":"ce4bgh92rcd13ifvqb50","pricing_plan_id":"cebpf4jnsgd1na2vs0mg"},{"bike_id":"39abf049-3891-4481-9c25-7fb7a413c85a","system_id":"levelo_inurba_marseille","lat":43.255,"lon":5.37643,"is_reserved":false,"is_disabled":false,"rental_uris":{"android":"levelo://app?vid=39abf049-3891-4481-9c25-7fb7a413c85a","ios":"levelo://app?vid=39abf049-3891-4481-9c25-7fb7a413c85a"},"vehicle_type_id":"4","last_reported":1752944996,"current_range_meters":17600,"station_id":"ce4bhh12rcd13ifvqff0","pricing_plan_id":"cebpf4jnsgd1na2vs0mg"},{"bike_id":"eca2d9a6-9946-4ff6-a3f3-9bce5243c578","system_id":"levelo_inurba_marseille","lat":43.24214,"lon":5.36358,"is_reserved":false,"is_disabled":false,"rental_uris":{"android":"levelo://app?vid=eca2d9a6-9946-4ff6-a3f3-9bce5243c578","ios":"levelo://app?vid=eca2d9a6-9946-4ff6-a3f3-9bce5243c578"},"vehicle_type_id":"4","last_reported":1752944996,"current_range_meters":18000,"station_id":"cpo36qri1sfpv3e86is0","pricing_plan_id":"cebpf4jnsgd1na2vs0mg"},{"bike_id":"09bc2d02-c9ec-4081-885e-67fd0f67afd0","system_id":"levelo_inurba_marseille","lat":43.27819,"lon":5.40713,"is_reserved":false,"is_disabled":false,"rental_uris":{"android":"levelo://app?vid=09bc2d02-c9ec-4081-885e-67fd0f67afd0","ios":"levelo://app?vid=09bc2d02-c9ec-4081-885e-67fd0f67afd0"},"vehicle_type_id":"4","last_reported":1752944996,"current_range_meters":18000,"station_id":"ce4bhnh2rcd13ifvqgtg","pricing_plan_id":"cebpf4jnsgd1na2vs0mg"},{"bike_id":"057022ab-27cd-469c-8c8d-c822eac466d5","system_id":"levelo_inurba_marseille","lat":43.28628,"lon":5.35098,"is_reserved":false,"is_disabled":false,"rental_uris":{"android":"levelo://app?vid=057022ab-27cd-469c-8c8d-c822eac466d5","ios":"levelo://app?vid=057022ab-27cd-469c-8c8d-c822eac466d5"},"vehicle_type_id":"4","last_reported":1752944996,"current_range_meters":18000,"station_id":"ce4bhch2rcd13ifvqeug","pricing_plan_id":"cebpf4jnsgd1na2vs0mg"},{"bike_id":"7a3409e8-58b1-4c32-acdf-008d810c648b","system_id":"levelo_inurba_marseille","lat":43.26566,"lon":5.39015,"is_reserved":false,"is_disabled":false,"rental_uris":{"android":"levelo://app?vid=7a3409e8-58b1-4c32-acdf-008d810c648b","ios":"levelo://app?vid=7a3409e8-58b1-4c32-acdf-008d810c648b"},"vehicle_type_id":"4","last_reported":1752944996,"current_range_meters":18000,"station_id":"ce4bhe12rcd13ifvqf30","pricing_plan_id":"cebpf4jnsgd1na2vs0mg"},{"bike_id":"707af16a-3189-4d92-b010-ef53c9012e98","system_id":"levelo_inurba_marseille","lat":43.217447,"lon":5.346046,"is_reserved":false,"is_disabled":false,"rental_uris":{"android":"levelo://app?vid=707af16a-3189-4d92-b010-ef53c9012e98","ios":"levelo://app?vid=707af16a-3189-4d92-b010-ef53c9012e98"},"vehicle_type_id":"4","last_reported":1752944996,"current_range_meters":18000,"station_id":"","pricing_plan_id":"cebpf4jnsgd1na2vs0mg"},{"bike_id":"1e6b4bb8-11c1-4647-8f99-3dbca91b4438","system_id":"levelo_inurba_marseille","lat":43.28632,"lon":5.35105,"is_reserved":false,"is_disabled":false,"rental_uris":{"android":"levelo://app?vid=1e6b4bb8-11c1-4647-8f99-3dbca91b4438","ios":"levelo://app?vid=1e6b4bb8-11c1-4647-8f99-3dbca91b4438"},"vehicle_type_id":"4","last_reported":1752944996,"current_range_meters":18000,"station_id":"ce4bhch2rcd13ifvqeug","pricing_plan_id":"cebpf4jnsgd1na2vs0mg"},{"bike_id":"7832960e-d16c-4a47-abb7-3d76fe7b03a7","system_id":"levelo_inurba_marseille","lat":43.2919,"lon":5.37138,"is_reserved":false,"is_disabled":false,"rental_uris":{"android":"levelo://app?vid=7832960e-d16c-4a47-abb7-3d76fe7b03a7","ios":"levelo://app?vid=7832960e-d16c-4a47-abb7-3d76fe7b03a7"},"vehicle_type_id":"4","last_reported":1752944996,"current_range_meters":18000,"station_id":"ce4bha92rcd13ifvqeh0","pricing_plan_id":"cebpf4jnsgd1na2vs0mg"},{"bike_id":"31a3e0d3-9340-4ba1-bee1-7596c0335d90","system_id":"levelo_inurba_marseille","lat":43.296563,"lon":5.379437,"is_reserved":false,"is_disabled":false,"rental_uris":{"android":"levelo://app?vid=31a3e0d3-9340-4ba1-bee1-7596c0335d90","ios":"levelo://app?vid=31a3e0d3-9340-4ba1-bee1-7596c0335d90"},"vehicle_type_id":"4","last_reported":1752944996,"current_range_meters":18000,"station_id":"","pricing_plan_id":"cebpf4jnsgd1na2vs0mg"},{"bike_id":"aaa60820-80fd-4afd-9d4a-de02de98b358","system_id":"levelo_inurba_marseille","lat":43.211899,"lon":5.350796,"is_reserved":false,"is_disabled":false,"rental_uris":{"android":"levelo://app?vid=aaa60820-80fd-4afd-9d4a-de02de98b358","ios":"levelo://app?vid=aaa60820-80fd-4afd-9d4a-de02de98b358"},"vehicle_type_id":"4","last_reported":1752944996,"current_range_meters":18000,"station_id":"","pricing_plan_id":"cebpf4jnsgd1na2vs0mg"},{"bike_id":"157990d3-b9c3-4f5c-8a17-d78382994a2f","system_id":"levelo_inurba_marseille","lat":43.26212,"lon":5.37919,"is_reserved":false,"is_disabled":false,"rental_uris":{"android":"levelo://app?vid=157990d3-b9c3-4f5c-8a17-d78382994a2f","ios":"levelo://app?vid=157990d3-b9c3-4f5c-8a17-d78382994a2f"},"vehicle_type_id":"4","last_reported":1752944996,"current_range_meters":18000,"station_id":"ce4bhjp2rcd13ifvqg90","pricing_plan_id":"cebpf4jnsgd1na2vs0mg"},{"bike_id":"e85a5b9b-e671-47fc-9a86-594d5f2d6058","system_id":"levelo_inurba_marseille","lat":43.23192,"lon":5.35546,"is_reserved":false,"is_disabled":false,"rental_uris":{"android":"levelo://app?vid=e85a5b9b-e671-47fc-9a86-594d5f2d6058","ios":"levelo://app?vid=e85a5b9b-e671-47fc-9a86-594d5f2d6058"},"vehicle_type_id":"4","last_reported":1752944996,"current_range_meters":18800,"station_id":"ce4bhu92rcd13ifvqi70","pricing_plan_id":"cebpf4jnsgd1na2vs0mg"},{"bike_id":"0f674905-7e77-47d7-8c7e-e7de694ae3c3","system_id":"levelo_inurba_marseille","lat":43.28625,"lon":5.35115,"is_reserved":false,"is_disabled":false,"rental_uris":{"android":"levelo://app?vid=0f674905-7e77-47d7-8c7e-e7de694ae3c3","ios":"levelo://app?vid=0f674905-7e77-47d7-8c7e-e7de694ae3c3"},"vehicle_type_id":"4","last_reported":1752944996,"current_range_meters":18800,"station_id":"ce4bhch2rcd13ifvqeug","pricing_plan_id":"cebpf4jnsgd1na2vs0mg"},{"bike_id":"4381bde2-8054-4743-beeb-716501f2fff2","system_id":"levelo_inurba_marseille","lat":43.27065,"lon":5.40257,"is_reserved":false,"is_disabled":false,"rental_uris":{"android":"levelo://app?vid=4381bde2-8054-4743-beeb-716501f2fff2","ios":"levelo://app?vid=4381bde2-8054-4743-beeb-716501f2fff2"},"vehicle_type_id":"4","last_reported":1752944996,"current_range_meters":18800,"station_id":"ce4bhk92rcd13ifvqgc0","pricing_plan_id":"cebpf4jnsgd1na2vs0mg"},{"bike_id":"d3aca52a-4e64-461a-8fd1-e9a035bafbdf","system_id":"levelo_inurba_marseille","lat":43.257213,"lon":5.411019,"is_reserved":false,"is_disabled":false,"rental_uris":{"android":"levelo://app?vid=d3aca52a-4e64-461a-8fd1-e9a035bafbdf","ios":"levelo://app?vid=d3aca52a-4e64-461a-8fd1-e9a035bafbdf"},"vehicle_type_id":"4","last_reported":1752944996,"current_range_meters":18800,"station_id":"","pricing_plan_id":"cebpf4jnsgd1na2vs0mg"},{"bike_id":"7cb87117-19f1-4d48-84b2-bec6ac38464c","system_id":"levelo_inurba_marseille","lat":43.29558,"lon":5.42287,"is_reserved":false,"is_disabled":false,"rental_uris":{"android":"levelo://app?vid=7cb87117-19f1-4d48-84b2-bec6ac38464c","ios":"levelo://app?vid=7cb87117-19f1-4d48-84b2-bec6ac38464c"},"vehicle_type_id":"4","last_reported":1752944996,"current_range_meters":18800,"station_id":"ce4bhph2rcd13ifvqhdg","pricing_plan_id":"cebpf4jnsgd1na2vs0mg"},{"bike_id":"8cd0d573-40aa-467a-8504-5e15d7c16214","system_id":"levelo_inurba_marseille","lat":43.286252,"lon":5.351127,"is_reserved":false,"is_disabled":false,"rental_uris":{"android":"levelo://app?vid=8cd0d573-40aa-467a-8504-5e15d7c16214","ios":"levelo://app?vid=8cd0d573-40aa-467a-8504-5e15d7c16214"},"vehicle_type_id":"4","last_reported":1752944996,"current_range_meters":18800,"station_id":"ce4bhch2rcd13ifvqeug","pricing_plan_id":"cebpf4jnsgd1na2vs0mg"},{"bike_id":"3b276991-f5a1-4202-b989-9bb80cee295a","system_id":"levelo_inurba_marseille","lat":43.28278,"lon":5.35067,"is_reserved":false,"is_disabled":false,"rental_uris":{"android":"levelo://app?vid=3b276991-f5a1-4202-b989-9bb80cee295a","ios":"levelo://app?vid=3b276991-f5a1-4202-b989-9bb80cee295a"},"vehicle_type_id":"4","last_reported":1752944996,"current_range_meters":18800,"station_id":"ce4bhbp2rcd13ifvqerg","pricing_plan_id":"cebpf4jnsgd1na2vs0mg"},{"bike_id":"c9ebf0aa-c454-43da-b5c1-86c1d2e7d09d","system_id":"levelo_inurba_marseille","lat":43.28415,"lon":5.34989,"is_reserved":false,"is_disabled":false,"rental_uris":{"android":"levelo://app?vid=c9ebf0aa-c454-43da-b5c1-86c1d2e7d09d","ios":"levelo://app?vid=c9ebf0aa-c454-43da-b5c1-86c1d2e7d09d"},"vehicle_type_id":"4","last_reported":1752944996,"current_range_meters":19200,"station_id":"ce4bhbh2rcd13ifvqepg","pricing_plan_id":"cebpf4jnsgd1na2vs0mg"},{"bike_id":"ac52d234-31ea-4af1-8eba-bb6c3a137b36","system_id":"levelo_inurba_marseille","lat":43.30196,"lon":5.3662,"is_reserved":false,"is_disabled":false,"rental_uris":{"android":"levelo://app?vid=ac52d234-31ea-4af1-8eba-bb6c3a137b36","ios":"levelo://app?vid=ac52d234-31ea-4af1-8eba-bb6c3a137b36"},"vehicle_type_id":"4","last_reported":1752944996,"current_range_meters":19200,"station_id":"ce4bgrh2rcd13ifvqc8g","pricing_plan_id":"cebpf4jnsgd1na2vs0mg"},{"bike_id":"7db8f066-ab1d-4c41-8265-165c87e7372b","system_id":"levelo_inurba_marseille","lat":43.31696,"lon":5.40457,"is_reserved":false,"is_disabled":false,"rental_uris":{"android":"levelo://app?vid=7db8f066-ab1d-4c41-8265-165c87e7372b","ios":"levelo://app?vid=7db8f066-ab1d-4c41-8265-165c87e7372b"},"vehicle_type_id":"4","last_reported":1752944996,"current_range_meters":19200,"station_id":"ce4bh012rcd13ifvqd00","pricing_plan_id":"cebpf4jnsgd1na2vs0mg"},{"bike_id":"98c8ec1a-c883-4e03-820a-33a6fa1824eb","system_id":"levelo_inurba_marseille","lat":43.22931,"lon":5.35365,"is_reserved":false,"is_disabled":false,"rental_uris":{"android":"levelo://app?vid=98c8ec1a-c883-4e03-820a-33a6fa1824eb","ios":"levelo://app?vid=98c8ec1a-c883-4e03-820a-33a6fa1824eb"},"vehicle_type_id":"4","last_reported":1752944996,"current_range_meters":19200,"station_id":"cpo3532slgdg3j2ikp40","pricing_plan_id":"cebpf4jnsgd1na2vs0mg"},{"bike_id":"96793585-b370-4499-97b5-55297e845c8f","system_id":"levelo_inurba_marseille","lat":43.21747,"lon":5.34621,"is_reserved":false,"is_disabled":false,"rental_uris":{"android":"levelo://app?vid=96793585-b370-4499-97b5-55297e845c8f","ios":"levelo://app?vid=96793585-b370-4499-97b5-55297e845c8f"},"vehicle_type_id":"4","last_reported":1752944996,"current_range_meters":19200,"station_id":"st_cvj6r9ubvosntc0bgbag","pricing_plan_id":"cebpf4jnsgd1na2vs0mg"},{"bike_id":"ca427fd6-b16e-43cc-9f37-58925b0ecefa","system_id":"levelo_inurba_marseille","lat":43.337444,"lon":5.374475,"is_reserved":false,"is_disabled":false,"rental_uris":{"android":"levelo://app?vid=ca427fd6-b16e-43cc-9f37-58925b0ecefa","ios":"levelo://app?vid=ca427fd6-b16e-43cc-9f37-58925b0ecefa"},"vehicle_type_id":"4","last_reported":1752944996,"current_range_meters":19200,"station_id":"","pricing_plan_id":"cebpf4jnsgd1na2vs0mg"},{"bike_id":"25834188-58d9-4fa7-a927-aed16cedc43e","system_id":"levelo_inurba_marseille","lat":43.267906,"lon":5.394182,"is_reserved":false,"is_disabled":false,"rental_uris":{"android":"levelo://app?vid=25834188-58d9-4fa7-a927-aed16cedc43e","ios":"levelo://app?vid=25834188-58d9-4fa7-a927-aed16cedc43e"},"vehicle_type_id":"4","last_reported":1752944996,"current_range_meters":19200,"station_id":"ce4bhh12rcd13ifvqfg0","pricing_plan_id":"cebpf4jnsgd1na2vs0mg"},{"bike_id":"cf0d8afb-f3c5-4393-b74f-5317f657da33","system_id":"levelo_inurba_marseille","lat":43.27975,"lon":5.38743,"is_reserved":false,"is_disabled":false,"rental_uris":{"android":"levelo://app?vid=cf0d8afb-f3c5-4393-b74f-5317f657da33","ios":"levelo://app?vid=cf0d8afb-f3c5-4393-b74f-5317f657da33"},"vehicle_type_id":"4","last_reported":1752944996,"current_range_meters":19200,"station_id":"ce4bhg12rcd13ifvqf80","pricing_plan_id":"cebpf4jnsgd1na2vs0mg"},{"bike_id":"49dcdc52-de9d-44b5-a632-a1773b4a7882","system_id":"levelo_inurba_marseille","lat":43.28415,"lon":5.35001,"is_reserved":false,"is_disabled":false,"rental_uris":{"android":"levelo://app?vid=49dcdc52-de9d-44b5-a632-a1773b4a7882","ios":"levelo://app?vid=49dcdc52-de9d-44b5-a632-a1773b4a7882"},"vehicle_type_id":"4","last_reported":1752944996,"current_range_meters":19200,"station_id":"ce4bhbh2rcd13ifvqepg","pricing_plan_id":"cebpf4jnsgd1na2vs0mg"},{"bike_id":"aefeea71-1421-4719-b574-d65a5ef39717","system_id":"levelo_inurba_marseille","lat":43.2869,"lon":5.360099,"is_reserved":false,"is_disabled":false,"rental_uris":{"android":"levelo://app?vid=aefeea71-1421-4719-b574-d65a5ef39717","ios":"levelo://app?vid=aefeea71-1421-4719-b574-d65a5ef39717"},"vehicle_type_id":"4","last_reported":1752944996,"current_range_meters":19200,"station_id":"cki0cbj6b192h4jlfktg","pricing_plan_id":"cebpf4jnsgd1na2vs0mg"},{"bike_id":"6f530211-2d31-4918-b78d-6fbc7b6302a4","system_id":"levelo_inurba_marseille","lat":43.23578,"lon":5.36136,"is_reserved":false,"is_disabled":false,"rental_uris":{"android":"levelo://app?vid=6f530211-2d31-4918-b78d-6fbc7b6302a4","ios":"levelo://app?vid=6f530211-2d31-4918-b78d-6fbc7b6302a4"},"vehicle_type_id":"4","last_reported":1752944996,"current_range_meters":19600,"station_id":"","pricing_plan_id":"cebpf4jnsgd1na2vs0mg"},{"bike_id":"72b2915f-104b-4593-ab50-bf58e95b0c27","system_id":"levelo_inurba_marseille","lat":43.2292,"lon":5.35385,"is_reserved":false,"is_disabled":false,"rental_uris":{"android":"levelo://app?vid=72b2915f-104b-4593-ab50-bf58e95b0c27","ios":"levelo://app?vid=72b2915f-104b-4593-ab50-bf58e95b0c27"},"vehicle_type_id":"4","last_reported":1752944996,"current_range_meters":19600,"station_id":"cpo3532slgdg3j2ikp40","pricing_plan_id":"cebpf4jnsgd1na2vs0mg"},{"bike_id":"9f96b854-e027-4c40-b573-f426a572ccbf","system_id":"levelo_inurba_marseille","lat":43.32427,"lon":5.40759,"is_reserved":false,"is_disabled":false,"rental_uris":{"android":"levelo://app?vid=9f96b854-e027-4c40-b573-f426a572ccbf","ios":"levelo://app?vid=9f96b854-e027-4c40-b573-f426a572ccbf"},"vehicle_type_id":"4","last_reported":1752944996,"current_range_meters":19600,"station_id":"","pricing_plan_id":"cebpf4jnsgd1na2vs0mg"},{"bike_id":"bc444916-7121-43cd-b15d-420185e782b9","system_id":"levelo_inurba_marseille","lat":43.2739,"lon":5.36254,"is_reserved":false,"is_disabled":false,"rental_uris":{"android":"levelo://app?vid=bc444916-7121-43cd-b15d-420185e782b9","ios":"levelo://app?vid=bc444916-7121-43cd-b15d-420185e782b9"},"vehicle_type_id":"4","last_reported":1752944996,"current_range_meters":19600,"station_id":"ce4bhbh2rcd13ifvqeo0","pricing_plan_id":"cebpf4jnsgd1na2vs0mg"},