{"last_updated":1742400703,"ttl":60,"version":"2.2","data":{"bikes":[{"bike_id":"f5c97f8a-2624-4b99-bdf9-59f10ff7cfce","system_id":"levelo_inurba_marseille","lat":43.27636,"lon":5.36104,"is_reserved":false,"is_disabled":false,"rental_uris":{"android":"levelo://app?vid=f5c97f8a-2624-4b99-bdf9-59f10ff7cfce","ios":"levelo://app?vid=f5c97f8a-2624-4b99-bdf9-59f10ff7cfce"},"vehicle_type_id":"4","last_reported":1742400703,"current_range_meters":2800,"station_id":"ce4bgj92rcd13ifvqbe0","pricing_plan_id":"cebpf4jnsgd1na2vs0mg"},{"bike_id":"47418a83-6367-4723-ba3b-1aa94fd0b1e0","system_id":"levelo_inurba_marseille","lat":43.28139,"lon":5.43652,"is_reserved":false,"is_disabled":false,"rental_uris":{"android":"levelo://app?vid=47418a83-6367-4723-ba3b-1aa94fd0b1e0","ios":"levelo://app?vid=47418a83-6367-4723-ba3b-1aa94fd0b1e0"},"vehicle_type_id":"4","last_reported":1742400703,"current_range_meters":2800,"station_id":"","pricing_plan_id":"cebpf4jnsgd1na2vs0mg"},{"bike_id":"6592ebe8-02a4-41b0-bd82-bfd2e5bb2a32","system_id":"levelo_inurba_marseille","lat":43.29196,"lon":5.358,"is_reserved":false,"is_disabled":false,"rental_uris":{"android":"levelo://app?vid=6592ebe8-02a4-41b0-bd82-bfd2e5bb2a32","ios":"levelo://app?vid=6592ebe8-02a4-41b0-bd82-bfd2e5bb2a32"},"vehicle_type_id":"4","last_reported":1742400703,"current_range_meters":2800,"station_id":"ce4bhb12rcd13ifvqel0","pricing_plan_id":"cebpf4jnsgd1na2vs0mg"},{"bike_id":"e236cfa4-9806-42f8-959f-1b78069237f1","system_id":"levelo_inurba_marseille","lat":43.28003,"lon":5.40015,"is_reserved":false,"is_disabled":false,"rental_uris":{"android":"levelo://app?vid=e236cfa4-9806-42f8-959f-1b78069237f1","ios":"levelo://app?vid=e236cfa4-9806-42f8-959f-1b78069237f1"},"vehicle_type_id":"4","last_reported":1742400703,"current_range_meters":2800,"station_id":"ce4bho92rcd13ifvqh4g","pricing_plan_id":"cebpf4jnsgd1na2vs0mg"},{"bike_id":"ac8acac2-b3c2-415f-a6ff-85488d005bb2","system_id":"levelo_inurba_marseille","lat":43.24805,"lon":5.37451,"is_reserved":false,"is_disabled":false,"rental_uris":{"android":"levelo://app?vid=ac8acac2-b3c2-415f-a6ff-85488d005bb2","ios":"levelo://app?vid=ac8acac2-b3c2-415f-a6ff-85488d005bb2"},"vehicle_type_id":"4","last_reported":1742400703,"current_range_meters":2800,"station_id":"ce4bhgh2rcd13ifvqfb0","pricing_plan_id":"cebpf4jnsgd1na2vs0mg"},{"bike_id":"70427461-7525-4da6-8b76-bb4580f1a135","system_id":"levelo_inurba_marseille","lat":43.26491,"lon":5.39579,"is_reserved":false,"is_disabled":false,"rental_uris":{"android":"levelo://app?vid=70427461-7525-4da6-8b76-bb4580f1a135","ios":"levelo://app?vid=70427461-7525-4da6-8b76-bb4580f1a135"},"vehicle_type_id":"4","last_reported":1742400703,"current_range_meters":2800,"station_id":"ce4bhi12rcd13ifvqfq0","pricing_plan_id":"cebpf4jnsgd1na2vs0mg"},{"bike_id":"429bb950-cb9b-4250-bc78-7311a2d7eceb","system_id":"levelo_inurba_marseille","lat":43.25117,"lon":5.40317,"is_reserved":false,"is_disabled":false,"rental_uris":{"android":"levelo://app?vid=429bb950-cb9b-4250-bc78-7311a2d7eceb","ios":"levelo://app?vid=429bb950-cb9b-4250-bc78-7311a2d7eceb"},"vehicle_type_id":"4","last_reported":1742400703,"current_range_meters":3200,"station_id":"ce4bhlh2rcd13ifvqgig","pricing_plan_id":"cebpf4jnsgd1na2vs0mg"},{"bike_id":"0f52d48d-229d-4015-8cc8-6fca7dc91247","system_id":"levelo_inurba_marseille","lat":43.240714,"lon":5.377605,"is_reserved":false,"is_disabled":false,"rental_uris":{"android":"levelo://app?vid=0f52d48d-229d-4015-8cc8-6fca7dc91247","ios":"levelo://app?vid=0f52d48d-229d-4015-8cc8-6fca7dc91247"},"vehicle_type_id":"4","last_reported":1742400703,"current_range_meters":3200,"station_id":"ce4bhip2rcd13ifvqft0","pricing_plan_id":"cebpf4jnsgd1na2vs0mg"},{"bike_id":"44cc2d69-e402-402c-94d6-ca37f9185475","system_id":"levelo_inurba_marseille","lat":43.29277,"lon":5.40111,"is_reserved":false,"is_disabled":false,"rental_uris":{"android":"levelo://app?vid=44cc2d69-e402-402c-94d6-ca37f9185475","ios":"levelo://app?vid=44cc2d69-e402-402c-94d6-ca37f9185475"},"vehicle_type_id":"4","last_reported":1742400703,"current_range_meters":3200,"station_id":"ce4bh312rcd13ifvqdk0","pricing_plan_id":"cebpf4jnsgd1na2vs0mg"},{"bike_id":"00c320c0-53ca-46d3-9a9c-5a61b7af1469","system_id":"levelo_inurba_marseille","lat":43.3054,"lon":5.36556,"is_reserved":false,"is_disabled":false,"rental_uris":{"android":"levelo://app?vid=00c320c0-53ca-46d3-9a9c-5a61b7af1469","ios":"levelo://app?vid=00c320c0-53ca-46d3-9a9c-5a61b7af1469"},"vehicle_type_id":"4","last_reported":1742400703,"current_range_meters":3200,"station_id":"ce4bgs12rcd13ifvqcag","pricing_plan_id":"cebpf4jnsgd1na2vs0mg"},{"bike_id":"6368f354-6da7-4884-a394-062f1a963ed6","system_id":"levelo_inurba_marseille","lat":43.29264,"lon":5.42869,"is_reserved":false,"is_disabled":false,"rental_uris":{"android":"levelo://app?vid=6368f354-6da7-4884-a394-062f1a963ed6","ios":"levelo://app?vid=6368f354-6da7-4884-a394-062f1a963ed6"},"vehicle_type_id":"4","last_reported":1742400703,"current_range_meters":3200,"station_id":"","pricing_plan_id":"cebpf4jnsgd1na2vs0mg"},{"bike_id":"40ab0d45-96fd-47fd-afeb-029ec41e852b","system_id":"levelo_inurba_marseille","lat":43.27207,"lon":5.39181,"is_reserved":false,"is_disabled":false,"rental_uris":{"android":"levelo://app?vid=40ab0d45-96fd-47fd-afeb-029ec41e852b","ios":"levelo://app?vid=40ab0d45-96fd-47fd-afeb-029ec41e852b"},"vehicle_type_id":"4","last_reported":1742400703,"current_range_meters":3600,"station_id":"ce4bhhp2rcd13ifvqfm0","pricing_plan_id":"cebpf4jnsgd1na2vs0mg"},{"bike_id":"a2b55b3e-6d2a-48ab-b87d-838913aa8d96","system_id":"levelo_inurba_marseille","lat":43.25954,"lon":5.40907,"is_reserved":false,"is_disabled":false,"rental_uris":{"android":"levelo://app?vid=a2b55b3e-6d2a-48ab-b87d-838913aa8d96","ios":"levelo://app?vid=a2b55b3e-6d2a-48ab-b87d-838913aa8d96"},"vehicle_type_id":"4","last_reported":1742400703,"current_range_meters":3600,"station_id":"ce4bhm92rcd13ifvqglg","pricing_plan_id":"cebpf4jnsgd1na2vs0mg"},{"bike_id":"4f6d11f4-8d23-4e35-8c59-e818e64ce7ab","system_id":"levelo_inurba_marseille","lat":43.29528,"lon":5.43899,"is_reserved":false,"is_disabled":false,"rental_uris":{"android":"levelo://app?vid=4f6d11f4-8d23-4e35-8c59-e818e64ce7ab","ios":"levelo://app?vid=4f6d11f4-8d23-4e35-8c59-e818e64ce7ab"},"vehicle_type_id":"4","last_reported":1742400703,"current_range_meters":3600,"station_id":"","pricing_plan_id":"cebpf4jnsgd1na2vs0mg"},{"bike_id":"73e76bed-394b-49e6-a65a-f7abed5787a9","system_id":"levelo_inurba_marseille","lat":43.23152,"lon":5.43698,"is_reserved":false,"is_disabled":true,"rental_uris":{"android":"levelo://app?vid=73e76bed-394b-49e6-a65a-f7abed5787a9","ios":"levelo://app?vid=73e76bed-394b-49e6-a65a-f7abed5787a9"},"vehicle_type_id":"4","last_reported":1742400703,"current_range_meters":3600,"station_id":"ce4bhmp2rcd13ifvqgog","pricing_plan_id":"cebpf4jnsgd1na2vs0mg"},{"bike_id":"8a2aee9f-027f-415a-9d5c-83912e4bbe0d","system_id":"levelo_inurba_marseille","lat":43.31753,"lon":5.39015,"is_reserved":false,"is_disabled":false,"rental_uris":{"android":"levelo://app?vid=8a2aee9f-027f-415a-9d5c-83912e4bbe0d","ios":"levelo://app?vid=8a2aee9f-027f-415a-9d5c-83912e4bbe0d"},"vehicle_type_id":"4","last_reported":1742400703,"current_range_meters":3600,"station_id":"ce4bhqp2rcd13ifvqhng","pricing_plan_id":"cebpf4jnsgd1na2vs0mg"},{"bike_id":"1163a891-a888-48f3-b149-6f737ca37e67","system_id":"levelo_inurba_marseille","lat":43.25501,"lon":5.37647,"is_reserved":false,"is_disabled":false,"rental_uris":{"android":"levelo://app?vid=1163a891-a888-48f3-b149-6f737ca37e67","ios":"levelo://app?vid=1163a891-a888-48f3-b149-6f737ca37e67"},"vehicle_type_id":"4","last_reported":1742400703,"current_range_meters":3600,"station_id":"ce4bhh12rcd13ifvqff0","pricing_plan_id":"cebpf4jnsgd1na2vs0mg"},{"bike_id":"e7ac7a57-bc7a-451e-be23-ef2cbf01a9ae","system_id":"levelo_inurba_marseille","lat":43.29004,"lon":5.37111,"is_reserved":false,"is_disabled":false,"rental_uris":{"android":"levelo://app?vid=e7ac7a57-bc7a-451e-be23-ef2cbf01a9ae","ios":"levelo://app?vid=e7ac7a57-bc7a-451e-be23-ef2cbf01a9ae"},"vehicle_type_id":"4","last_reported":1742400703,"current_range_meters":3600,"station_id":"","pricing_plan_id":"cebpf4jnsgd1na2vs0mg"},{"bike_id":"4b113166-dcb8-4d16-ba20-a40c26a9ecf5","system_id":"levelo_inurba_marseille","lat":43.24545,"lon":5.39521,"is_reserved":false,"is_disabled":false,"rental_uris":{"android":"levelo://app?vid=4b113166-dcb8-4d16-ba20-a40c26a9ecf5","ios":"levelo://app?vid=4b113166-dcb8-4d16-ba20-a40c26a9ecf5"},"vehicle_type_id":"4","last_reported":1742400703,"current_range_meters":3600,"station_id":"ce4bhlp2rcd13ifvqgjg","pricing_plan_id":"cebpf4jnsgd1na2vs0mg"},{"bike_id":"e7aef694-bffd-4e4b-b091-b4f0ad6c2746","system_id":"levelo_inurba_marseille","lat":43.26561,"lon":5.39042,"is_reserved":false,"is_disabled":false,"rental_uris":{"android":"levelo://app?vid=e7aef694-bffd-4e4b-b091-b4f0ad6c2746","ios":"levelo://app?vid=e7aef694-bffd-4e4b-b091-b4f0ad6c2746"},"vehicle_type_id":"4","last_reported":1742400703,"current_range_meters":3600,"station_id":"ce4bhe12rcd13ifvqf30","pricing_plan_id":"cebpf4jnsgd1na2vs0mg"},{"bike_id":"3aea41c8-26f6-4b95-b0a4-a203fabe2e4e","system_id":"levelo_inurba_marseille","lat":43.23209,"lon":5.3522,"is_reserved":false,"is_disabled":false,"rental_uris":{"android":"levelo://app?vid=3aea41c8-26f6-4b95-b0a4-a203fabe2e4e","ios":"levelo://app?vid=3aea41c8-26f6-4b95-b0a4-a203fabe2e4e"},"vehicle_type_id":"4","last_reported":1742400703,"current_range_meters":3600,"station_id":"ce4bhu92rcd13ifvqi70","pricing_plan_id":"cebpf4jnsgd1na2vs0mg"},{"bike_id":"83d945be-184f-42c9-a2fb-591a56208653","system_id":"levelo_inurba_marseille","lat":43.28336,"lon":5.38646,"is_reserved":false,"is_disabled":false,"rental_uris":{"android":"levelo://app?vid=83d945be-184f-42c9-a2fb-591a56208653","ios":"levelo://app?vid=83d945be-184f-42c9-a2fb-591a56208653"},"vehicle_type_id":"4","last_reported":1742400703,"current_range_meters":4000,"station_id":"ce4bh492rcd13ifvqdvg","pricing_plan_id":"cebpf4jnsgd1na2vs0mg"},{"bike_id":"fcc478b4-a093-4452-8fc2-63830a981bfa","system_id":"levelo_inurba_marseille","lat":43.29527,"lon":5.38557,"is_reserved":false,"is_disabled":false,"rental_uris":{"android":"levelo://app?vid=fcc478b4-a093-4452-8fc2-63830a981bfa","ios":"levelo://app?vid=fcc478b4-a093-4452-8fc2-63830a981bfa"},"vehicle_type_id":"4","last_reported":1742400703,"current_range_meters":3600,"station_id":"ce4bgih2rcd13ifvqba0","pricing_plan_id":"cebpf4jnsgd1na2vs0mg"},{"bike_id":"d835339a-815c-4f2d-bc5f-06df97638758","system_id":"levelo_inurba_marseille","lat":43.31391,"lon":5.38566,"is_reserved":false,"is_disabled":false,"rental_uris":{"android":"levelo://app?vid=d835339a-815c-4f2d-bc5f-06df97638758","ios":"levelo://app?vid=d835339a-815c-4f2d-bc5f-06df97638758"},"vehicle_type_id":"4","last_reported":1742400703,"current_range_meters":4000,"station_id":"","pricing_plan_id":"cebpf4jnsgd1na2vs0mg"},{"bike_id":"5bad05c3-350f-40d4-b074-dbaba0255eed","system_id":"levelo_inurba_marseille","lat":43.3171,"lon":5.43708,"is_reserved":false,"is_disabled":false,"rental_uris":{"android":"levelo://app?vid=5bad05c3-350f-40d4-b074-dbaba0255eed","ios":"levelo://app?vid=5bad05c3-350f-40d4-b074-dbaba0255eed"},"vehicle_type_id":"4","last_reported":1742400703,"current_range_meters":4000,"station_id":"ce4bhp92rcd13ifvqhcg","pricing_plan_id":"cebpf4jnsgd1na2vs0mg"},{"bike_id":"c846ceb8-034c-436d-841d-e57557591970","system_id":"levelo_inurba_marseille","lat":43.30883,"lon":5.39656,"is_reserved":false,"is_disabled":false,"rental_uris":{"android":"levelo://app?vid=c846ceb8-034c-436d-841d-e57557591970","ios":"levelo://app?vid=c846ceb8-034c-436d-841d-e57557591970"},"vehicle_type_id":"4","last_reported":1742400703,"current_range_meters":4400,"station_id":"ce4bh012rcd13ifvqcv0","pricing_plan_id":"cebpf4jnsgd1na2vs0mg"},{"bike_id":"4ce58092-c9e8-482d-8c96-e30e45fa68ac","system_id":"levelo_inurba_marseille","lat":43.2744,"lon":5.39431,"is_reserved":false,"is_disabled":false,"rental_uris":{"android":"levelo://app?vid=4ce58092-c9e8-482d-8c96-e30e45fa68ac","ios":"levelo://app?vid=4ce58092-c9e8-482d-8c96-e30e45fa68ac"},"vehicle_type_id":"4","last_reported":1742400703,"current_range_meters":4000,"station_id":"ce4bhdp2rcd13ifvqf20","pricing_plan_id":"cebpf4jnsgd1na2vs0mg"},{"bike_id":"97820cc4-93f7-472f-a6a3-bb0b3708ecd1","system_id":"levelo_inurba_marseille","lat":43.26549,"lon":5.37291,"is_reserved":false,"is_disabled":true,"rental_uris":{"android":"levelo://app?vid=97820cc4-93f7-472f-a6a3-bb0b3708ecd1","ios":"levelo://app?vid=97820cc4-93f7-472f-a6a3-bb0b3708ecd1"},"vehicle_type_id":"4","last_reported":1742400703,"current_range_meters":4400,"station_id":"ce4bhg12rcd13ifvqf70","pricing_plan_id":"cebpf4jnsgd1na2vs0mg"},{"bike_id":"adc3bbf6-2e0f-4fc7-a766-a528d6d9ebe5","system_id":"levelo_inurba_marseille","lat":43.25124,"lon":5.40325,"is_reserved":false,"is_disabled":false,"rental_uris":{"android":"levelo://app?vid=adc3bbf6-2e0f-4fc7-a766-a528d6d9ebe5","ios":"levelo://app?vid=adc3bbf6-2e0f-4fc7-a766-a528d6d9ebe5"},"vehicle_type_id":"4","last_reported":1742400703,"current_range_meters":4400,"station_id":"ce4bhlh2rcd13ifvqgig","pricing_plan_id":"cebpf4jnsgd1na2vs0mg"},{"bike_id":"52bd4f14-775f-459f-9791-851d088e69cb","system_id":"levelo_inurba_marseille","lat":43.25031,"lon":5.38891,"is_reserved":false,"is_disabled":false,"rental_uris":{"android":"levelo://app?vid=52bd4f14-775f-459f-9791-851d088e69cb","ios":"levelo://app?vid=52bd4f14-775f-459f-9791-851d088e69cb"},"vehicle_type_id":"4","last_reported":1742400703,"current_range_meters":4400,"station_id":"ce4bhgp2rcd13ifvqfd0","pricing_plan_id":"cebpf4jnsgd1na2vs0mg"},{"bike_id":"e14a6c5a-f8ef-429f-9d12-ca811866c351","system_id":"levelo_inurba_marseille","lat":43.28934,"lon":5.36635,"is_reserved":false,"is_disabled":false,"rental_uris":{"android":"levelo://app?vid=e14a6c5a-f8ef-429f-9d12-ca811866c351","ios":"levelo://app?vid=e14a6c5a-f8ef-429f-9d12-ca811866c351"},"vehicle_type_id":"4","last_reported":1742400703,"current_range_meters":4400,"station_id":"ce4bhap2rcd13ifvqek0","pricing_plan_id":"cebpf4jnsgd1na2vs0mg"},{"bike_id":"4156866b-a0ed-4dcf-b9d2-e7765ca102e2","system_id":"levelo_inurba_marseille","lat":43.30545,"lon":5.36711,"is_reserved":false,"is_disabled":true,"rental_uris":{"android":"levelo://app?vid=4156866b-a0ed-4dcf-b9d2-e7765ca102e2","ios":"levelo://app?vid=4156866b-a0ed-4dcf-b9d2-e7765ca102e2"},"vehicle_type_id":"4","last_reported":1742400703,"current_range_meters":4400,"station_id":"ce4bgrp2rcd13ifvqc9g","pricing_plan_id":"cebpf4jnsgd1na2vs0mg"},{"bike_id":"a7138772-bd65-4fcb-ae67-a87c439b28bd","system_id":"levelo_inurba_marseille","lat":43.27431,"lon":5.39411,"is_reserved":false,"is_disabled":false,"rental_uris":{"android":"levelo://app?vid=a7138772-bd65-4fcb-ae67-a87c439b28bd","ios":"levelo://app?vid=a7138772-bd65-4fcb-ae67-a87c439b28bd"},"vehicle_type_id":"4","last_reported":1742400703,"current_range_meters":4400,"station_id":"ce4bhdp2rcd13ifvqf20","pricing_plan_id":"cebpf4jnsgd1na2vs0mg"},{"bike_id":"4fa0322d-b201-409d-9218-57726b4a4ca2","system_id":"levelo_inurba_marseille","lat":43.30645,"lon":5.40097,"is_reserved":false,"is_disabled":false,"rental_uris":{"android":"levelo://app?vid=4fa0322d-b201-409d-9218-57726b4a4ca2","ios":"levelo://app?vid=4fa0322d-b201-409d-9218-57726b4a4ca2"},"vehicle_type_id":"4","last_reported":1742400703,"current_range_meters":4400,"station_id":"ce4bh112rcd13ifvqda0","pricing_plan_id":"cebpf4jnsgd1na2vs0mg"},{"bike_id":"8beacb06-191c-4078-8acc-085abaf3a4f4","system_id":"levelo_inurba_marseille","lat":43.28001,"lon":5.44196,"is_reserved":false,"is_disabled":false,"rental_uris":{"android":"levelo://app?vid=8beacb06-191c-4078-8acc-085abaf3a4f4","ios":"levelo://app?vid=8beacb06-191c-4078-8acc-085abaf3a4f4"},"vehicle_type_id":"4","last_reported":1742400703,"current_range_meters":4800,"station_id":"","pricing_plan_id":"cebpf4jnsgd1na2vs0mg"},{"bike_id":"2e8bd976-1217-46e2-965d-633a14ac03c1","system_id":"levelo_inurba_marseille","lat":43.25108,"lon":5.40324,"is_reserved":false,"is_disabled":false,"rental_uris":{"android":"levelo://app?vid=2e8bd976-1217-46e2-965d-633a14ac03c1","ios":"levelo://app?vid=2e8bd976-1217-46e2-965d-633a14ac03c1"},"vehicle_type_id":"4","last_reported":1742400703,"current_range_meters":4800,"station_id":"ce4bhlh2rcd13ifvqgig","pricing_plan_id":"cebpf4jnsgd1na2vs0mg"},{"bike_id":"8528cfd6-758c-4197-aaac-800294acfea6","system_id":"levelo_inurba_marseille","lat":43.25844,"lon":5.39897,"is_reserved":false,"is_disabled":false,"rental_uris":{"android":"levelo://app?vid=8528cfd6-758c-4197-aaac-800294acfea6","ios":"levelo://app?vid=8528cfd6-758c-4197-aaac-800294acfea6"},"vehicle_type_id":"4","last_reported":1742400703,"current_range_meters":4800,"station_id":"ce4bhl92rcd13ifvqghg","pricing_plan_id":"cebpf4jnsgd1na2vs0mg"},{"bike_id":"97c3be9e-ff61-4495-a439-a8f2cb993632","system_id":"levelo_inurba_marseille","lat":43.32285,"lon":5.3828,"is_reserved":false,"is_disabled":false,"rental_uris":{"android":"levelo://app?vid=97c3be9e-ff61-4495-a439-a8f2cb993632","ios":"levelo://app?vid=97c3be9e-ff61-4495-a439-a8f2cb993632"},"vehicle_type_id":"4","last_reported":1742400703,"current_range_meters":4800,"station_id":"ce4bhr12rcd13ifvqhqg","pricing_plan_id":"cebpf4jnsgd1na2vs0mg"},{"bike_id":"86cfa0c2-a253-4d36-b8b1-e90d0ce54e22","system_id":"levelo_inurba_marseille","lat":43.2418,"lon":5.3973,"is_reserved":false,"is_disabled":false,"rental_uris":{"android":"levelo://app?vid=86cfa0c2-a253-4d36-b8b1-e90d0ce54e22","ios":"levelo://app?vid=86cfa0c2-a253-4d36-b8b1-e90d0ce54e22"},"vehicle_type_id":"4","last_reported":1742400703,"current_range_meters":4800,"station_id":"","pricing_plan_id":"cebpf4jnsgd1na2vs0mg"},{"bike_id":"eed46041-20b7-4046-a2fc-3e3f90e5c45d","system_id":"levelo_inurba_marseille","lat":43.2886,"lon":5.35864,"is_reserved":false,"is_disabled":false,"rental_uris":{"android":"levelo://app?vid=eed46041-20b7-4046-a2fc-3e3f90e5c45d","ios":"levelo://app?vid=eed46041-20b7-4046-a2fc-3e3f90e5c45d"},"vehicle_type_id":"4","last_reported":1742400703,"current_range_meters":5600,"station_id":"ce4bhb12rcd13ifvqem0","pricing_plan_id":"cebpf4jnsgd1na2vs0mg"},{"bike_id":"ed75c48b-3a2f-46a5-b15f-6c3c0c6fe666","system_id":"levelo_inurba_marseille","lat":43.26947,"lon":5.40252,"is_reserved":false,"is_disabled":false,"rental_uris":{"android":"levelo://app?vid=ed75c48b-3a2f-46a5-b15f-6c3c0c6fe666","ios":"levelo://app?vid=ed75c48b-3a2f-46a5-b15f-6c3c0c6fe666"},"vehicle_type_id":"4","last_reported":1742400703,"current_range_meters":5600,"station_id":"cjm6bp8fraef2m0cb0m0","pricing_plan_id":"cebpf4jnsgd1na2vs0mg"},{"bike_id":"346a8f6c-d5f3-4655-a099-5d0f147f2a07","system_id":"levelo_inurba_marseille","lat":43.29416,"lon":5.38626,"is_reserved":false,"is_disabled":false,"rental_uris":{"android":"levelo://app?vid=346a8f6c-d5f3-4655-a099-5d0f147f2a07","ios":"levelo://app?vid=346a8f6c-d5f3-4655-a099-5d0f147f2a07"},"vehicle_type_id":"4","last_reported":1742400703,"current_range_meters":5600,"station_id":"ce4bh2h2rcd13ifvqdh0","pricing_plan_id":"cebpf4jnsgd1na2vs0mg"},{"bike_id":"74adef79-0b08-4c81-80ff-9a574c6f3e01","system_id":"levelo_inurba_marseille","lat":43.25119,"lon":5.4032,"is_reserved":false,"is_disabled":false,"rental_uris":{"android":"levelo://app?vid=74adef79-0b08-4c81-80ff-9a574c6f3e01","ios":"levelo://app?vid=74adef79-0b08-4c81-80ff-9a574c6f3e01"},"vehicle_type_id":"4","last_reported":1742400703,"current_range_meters":4800,"station_id":"ce4bhlh2rcd13ifvqgig","pricing_plan_id":"cebpf4jnsgd1na2vs0mg"},{"bike_id":"6b88a34d-b20f-4f74-80c2-4846250e076b","system_id":"levelo_inurba_marseille","lat":43.30891,"lon":5.39657,"is_reserved":false,"is_disabled":false,"rental_uris":{"android":"levelo://app?vid=6b88a34d-b20f-4f74-80c2-4846250e076b","ios":"levelo://app?vid=6b88a34d-b20f-4f74-80c2-4846250e076b"},"vehicle_type_id":"4","last_reported":1742400703,"current_range_meters":4800,"station_id":"ce4bh012rcd13ifvqcv0","pricing_plan_id":"cebpf4jnsgd1na2vs0mg"},{"bike_id":"710f4b62-4852-4bff-ae91-62a30e373964","system_id":"levelo_inurba_marseille","lat":43.26493,"lon":5.39547,"is_reserved":false,"is_disabled":false,"rental_uris":{"android":"levelo://app?vid=710f4b62-4852-4bff-ae91-62a30e373964","ios":"levelo://app?vid=710f4b62-4852-4bff-ae91-62a30e373964"},"vehicle_type_id":"4","last_reported":1742400703,"current_range_meters":6000,"station_id":"ce4bhi12rcd13ifvqfq0","pricing_plan_id":"cebpf4jnsgd1na2vs0mg"},{"bike_id":"cce97a95-516f-4315-a2ec-5a1c7b9d4da1","system_id":"levelo_inurba_marseille","lat":43.25826,"lon":5.3942,"is_reserved":false,"is_disabled":false,"rental_uris":{"android":"levelo://app?vid=cce97a95-516f-4315-a2ec-5a1c7b9d4da1","ios":"levelo://app?vid=cce97a95-516f-4315-a2ec-5a1c7b9d4da1"},"vehicle_type_id":"4","last_reported":1742400703,"current_range_meters":6000,"station_id":"ce4bhip2rcd13ifvqft0","pricing_plan_id":"cebpf4jnsgd1na2vs0mg"},{"bike_id":"2fc9495d-c829-4229-a4db-5c8674880d7a","system_id":"levelo_inurba_marseille","lat":43.23049,"lon":5.35511,"is_reserved":false,"is_disabled":false,"rental_uris":{"android":"levelo://app?vid=2fc9495d-c829-4229-a4db-5c8674880d7a","ios":"levelo://app?vid=2fc9495d-c829-4229-a4db-5c8674880d7a"},"vehicle_type_id":"4","last_reported":1742400703,"current_range_meters":6000,"station_id":"cpo3342slgdg3j2ifvpg","pricing_plan_id":"cebpf4jnsgd1na2vs0mg"},{"bike_id":"0b60e72b-d8b1-4266-9b63-b94b87c1ad4b","system_id":"levelo_inurba_marseille","lat":43.23179,"lon":5.39999,"is_reserved":false,"is_disabled":false,"rental_uris":{"android":"levelo://app?vid=0b60e72b-d8b1-4266-9b63-b94b87c1ad4b","ios":"levelo://app?vid=0b60e72b-d8b1-4266-9b63-b94b87c1ad4b"},"vehicle_type_id":"4","last_reported":1742400703,"current_range_meters":6400,"station_id":"ce4bhn12rcd13ifvqgqg","pricing_plan_id":"cebpf4jnsgd1na2vs0mg"},{"bike_id":"b627c9ad-3c9c-4e71-ac51-64e10127430c","system_id":"levelo_inurba_marseille","lat":43.27903,"lon":5.37997,"is_reserved":false,"is_disabled":false,"rental_uris":{"android":"levelo://app?vid=b627c9ad-3c9c-4e71-ac51-64e10127430c","ios":"levelo://app?vid=b627c9ad-3c9c-4e71-ac51-64e10127430c"},"vehicle_type_id":"4","last_reported":1742400703,"current_range_meters":6400,"station_id":"ce4bhf92rcd13ifvqf50","pricing_plan_id":"cebpf4jnsgd1na2vs0mg"},{"bike_id":"adcfe9c8-2e9f-4844-aaaa-985662be2819","system_id":"levelo_inurba_marseille","lat":43.32291,"lon":5.38267,"is_reserved":false,"is_disabled":false,"rental_uris":{"android":"levelo://app?vid=adcfe9c8-2e9f-4844-aaaa-985662be2819","ios":"levelo://app?vid=adcfe9c8-2e9f-4844-aaaa-985662be2819"},"vehicle_type_id":"4","last_reported":1742400703,"current_range_meters":6400,"station_id":"ce4bhr12rcd13ifvqhqg","pricing_plan_id":"cebpf4jnsgd1na2vs0mg"},{"bike_id":"e121fc1f-82c9-48ea-ac6d-4337cdd93722","system_id":"levelo_inurba_marseille","lat":43.28615,"lon":5.35101,"is_reserved":false,"is_disabled":false,"rental_uris":{"android":"levelo://app?vid=e121fc1f-82c9-48ea-ac6d-4337cdd93722","ios":"levelo://app?vid=e121fc1f-82c9-48ea-ac6d-4337cdd93722"},"vehicle_type_id":"4","last_reported":1742400703,"current_range_meters":6400,"station_id":"ce4bhch2rcd13ifvqeug","pricing_plan_id":"cebpf4jnsgd1na2vs0mg"},{"bike_id":"282a156f-4980-4ecb-b2d6-fd22222e9e36","system_id":"levelo_inurba_marseille","lat":43.24826,"lon":5.37427,"is_reserved":false,"is_disabled":false,"rental_uris":{"android":"levelo://app?vid=282a156f-4980-4ecb-b2d6-fd22222e9e36","ios":"levelo://app?vid=282a156f-4980-4ecb-b2d6-fd22222e9e36"},"vehicle_type_id":"4","last_reported":1742400703,"current_range_meters":6400,"station_id":"ce4bhgh2rcd13ifvqfb0","pricing_plan_id":"cebpf4jnsgd1na2vs0mg"},{"bike_id":"edbab5e1-86ac-42e9-8763-4cff01f53775","system_id":"levelo_inurba_marseille","lat":43.29571,"lon":5.37526,"is_reserved":false,"is_disabled":false,"rental_uris":{"android":"levelo://app?vid=edbab5e1-86ac-42e9-8763-4cff01f53775","ios":"levelo://app?vid=edbab5e1-86ac-42e9-8763-4cff01f53775"},"vehicle_type_id":"4","last_reported":1742400703,"current_range_meters":6400,"station_id":"ce4bgh92rcd13ifvqb50","pricing_plan_id":"cebpf4jnsgd1na2vs0mg"},{"bike_id":"b84e9cb7-779d-43bd-bf23-bb77dee04d38","system_id":"levelo_inurba_marseille","lat":43.27542,"lon":5.42515,"is_reserved":false,"is_disabled":false,"rental_uris":{"android":"levelo://app?vid=b84e9cb7-779d-43bd-bf23-bb77dee04d38","ios":"levelo://app?vid=b84e9cb7-779d-43bd-bf23-bb77dee04d38"},"vehicle_type_id":"4","last_reported":1742400703,"current_range_meters":6400,"station_id":"","pricing_plan_id":"cebpf4jnsgd1na2vs0mg"},{"bike_id":"3c4f394c-0305-4c58-97e5-6826bd9d917e","system_id":"levelo_inurba_marseille","lat":43.32482,"lon":5.36562,"is_reserved":false,"is_disabled":false,"rental_uris":{"android":"levelo://app?vid=3c4f394c-0305-4c58-97e5-6826bd9d917e","ios":"levelo://app?vid=3c4f394c-0305-4c58-97e5-6826bd9d917e"},"vehicle_type_id":"4","last_reported":1742400703,"current_range_meters":6800,"station_id":"ce4bhs12rcd13ifvqhvg","pricing_plan_id":"cebpf4jnsgd1na2vs0mg"},{"bike_id":"c1ccf0a5-89fe-4d49-a5d7-808fb720c652","system_id":"levelo_inurba_marseille","lat":43.26032,"lon":5.41738,"is_reserved":false,"is_disabled":false,"rental_uris":{"android":"levelo://app?vid=c1ccf0a5-89fe-4d49-a5d7-808fb720c652","ios":"levelo://app?vid=c1ccf0a5-89fe-4d49-a5d7-808fb720c652"},"vehicle_type_id":"4","last_reported":1742400703,"current_range_meters":6800,"station_id":"","pricing_plan_id":"cebpf4jnsgd1na2vs0mg"},{"bike_id":"9eec3592-db4b-44fc-9614-a6d4fdbd910e","system_id":"levelo_inurba_marseille","lat":43.28152,"lon":5.42647,"is_reserved":false,"is_disabled":false,"rental_uris":{"android":"levelo://app?vid=9eec3592-db4b-44fc-9614-a6d4fdbd910e","ios":"levelo://app?vid=9eec3592-db4b-44fc-9614-a6d4fdbd910e"},"vehicle_type_id":"4","last_reported":1742400703,"current_range_meters":6800,"station_id":"ce4bhnh2rcd13ifvqgug","pricing_plan_id":"cebpf4jnsgd1na2vs0mg"},{"bike_id":"46cf1764-4b28-4531-891a-d173ed262468","system_id":"levelo_inurba_marseille","lat":43.32709,"lon":5.36244,"is_reserved":false,"is_disabled":false,"rental_uris":{"android":"levelo://app?vid=46cf1764-4b28-4531-891a-d173ed262468","ios":"levelo://app?vid=46cf1764-4b28-4531-891a-d173ed262468"},"vehicle_type_id":"4","last_reported":1742400703,"current_range_meters":6800,"station_id":"","pricing_plan_id":"cebpf4jnsgd1na2vs0mg"},{"bike_id":"6ae6f76c-6a01-4d75-9d3f-dfa610803a78","system_id":"levelo_inurba_marseille","lat":43.23067,"lon":5.35497,"is_reserved":false,"is_disabled":false,"rental_uris":{"android":"levelo://app?vid=6ae6f76c-6a01-4d75-9d3f-dfa610803a78","ios":"levelo://app?vid=6ae6f76c-6a01-4d75-9d3f-dfa610803a78"},"vehicle_type_id":"4","last_reported":1742400703,"current_range_meters":6800,"station_id":"cpo3342slgdg3j2ifvpg","pricing_plan_id":"cebpf4jnsgd1na2vs0mg"},{"bike_id":"ca1c0a28-8faf-435f-9d8b-370c3a07ff34","system_id":"levelo_inurba_marseille","lat":43.24166,"lon":5.36384,"is_reserved":false,"is_disabled":false,"rental_uris":{"android":"levelo://app?vid=ca1c0a28-8faf-435f-9d8b-370c3a07ff34","ios":"levelo://app?vid=ca1c0a28-8faf-435f-9d8b-370c3a07ff34"},"vehicle_type_id":"4","last_reported":1742400703,"current_range_meters":6800,"station_id":"cpo36qri1sfpv3e86is0","pricing_plan_id":"cebpf4jnsgd1na2vs0mg"},{"bike_id":"b6fa87c7-f42f-4cd3-9710-74681e8651c1","system_id":"levelo_inurba_marseille","lat":43.23152,"lon":5.43719,"is_reserved":false,"is_disabled":false,"rental_uris":{"android":"levelo://app?vid=b6fa87c7-f42f-4cd3-9710-74681e8651c1","ios":"levelo://app?vid=b6fa87c7-f42f-4cd3-9710-74681e8651c1"},"vehicle_type_id":"4","last_reported":1742400703,"current_range_meters":6800,"station_id":"ce4bhmp2rcd13ifvqgog","pricing_plan_id":"cebpf4jnsgd1na2vs0mg"},{"bike_id":"23fccb5c-6d33-41b7-94cd-d5dd953c0fe4","system_id":"levelo_inurba_marseille","lat":43.29922,"lon":5.37459,"is_reserved":false,"is_disabled":false,"rental_uris":{"android":"levelo://app?vid=23fccb5c-6d33-41b7-94cd-d5dd953c0fe4","ios":"levelo://app?vid=23fccb5c-6d33-41b7-94cd-d5dd953c0fe4"},"vehicle_type_id":"4","last_reported":1742400703,"current_range_meters":6800,"station_id":"ce4bgjh2rcd13ifvqbg0","pricing_plan_id":"cebpf4jnsgd1na2vs0mg"},{"bike_id":"e398e83a-f216-4e05-babc-00bf44e0f152","system_id":"levelo_inurba_marseille","lat":43.29418,"lon":5.38632,"is_reserved":false,"is_disabled":false,"rental_uris":{"android":"levelo://app?vid=e398e83a-f216-4e05-babc-00bf44e0f152","ios":"levelo://app?vid=e398e83a-f216-4e05-babc-00bf44e0f152"},"vehicle_type_id":"4","last_reported":1742400703,"current_range_meters":6800,"station_id":"ce4bh2h2rcd13ifvqdh0","pricing_plan_id":"cebpf4jnsgd1na2vs0mg"},{"bike_id":"8567ca86-2af1-4418-a4e2-a811b2bf9e3e","system_id":"levelo_inurba_marseille","lat":43.27213,"lon":5.39181,"is_reserved":false,"is_disabled":false,"rental_uris":{"android":"levelo://app?vid=8567ca86-2af1-4418-a4e2-a811b2bf9e3e","ios":"levelo://app?vid=8567ca86-2af1-4418-a4e2-a811b2bf9e3e"},"vehicle_type_id":"4","last_reported":1742400703,"current_range_meters":6400,"station_id":"ce4bhhp2rcd13ifvqfm0","pricing_plan_id":"cebpf4jnsgd1na2vs0mg"},{"bike_id":"bea732db-f51c-42b0-b346-3cf7b7553394","system_id":"levelo_inurba_marseille","lat":43.255882,"lon":5.382298,"is_reserved":false,"is_disabled":false,"rental_uris":{"android":"levelo://app?vid=bea732db-f51c-42b0-b346-3cf7b7553394","ios":"levelo://app?vid=bea732db-f51c-42b0-b346-3cf7b7553394"},"vehicle_type_id":"4","last_reported":1742400703,"current_range_meters":7200,"station_id":"ce4bhih2rcd13ifvqfs0","pricing_plan_id":"cebpf4jnsgd1na2vs0mg"},{"bike_id":"9ae796bc-d523-4ae2-81a3-e354f3f71109","system_id":"levelo_inurba_marseille","lat":43.32368,"lon":5.38875,"is_reserved":false,"is_disabled":false,"rental_uris":{"android":"levelo://app?vid=9ae796bc-d523-4ae2-81a3-e354f3f71109","ios":"levelo://app?vid=9ae796bc-d523-4ae2-81a3-e354f3f71109"},"vehicle_type_id":"4","last_reported":1742400703,"current_range_meters":7200,"station_id":"ce4bhqp2rcd13ifvqhog","pricing_plan_id":"cebpf4jnsgd1na2vs0mg"},{"bike_id":"29177bd9-b05a-46e3-a7c6-0bab8134bba2","system_id":"levelo_inurba_marseille","lat":43.2717,"lon":5.41087,"is_reserved":false,"is_disabled":false,"rental_uris":{"android":"levelo://app?vid=29177bd9-b05a-46e3-a7c6-0bab8134bba2","ios":"levelo://app?vid=29177bd9-b05a-46e3-a7c6-0bab8134bba2"},"vehicle_type_id":"4","last_reported":1742400703,"current_range_meters":7200,"station_id":"","pricing_plan_id":"cebpf4jnsgd1na2vs0mg"},{"bike_id":"700425af-d7e2-4b81-a8f7-cd8eab740a32","system_id":"levelo_inurba_marseille","lat":43.27818,"lon":5.40729,"is_reserved":false,"is_disabled":false,"rental_uris":{"android":"levelo://app?vid=700425af-d7e2-4b81-a8f7-cd8eab740a32","ios":"levelo://app?vid=700425af-d7e2-4b81-a8f7-cd8eab740a32"},"vehicle_type_id":"4","last_reported":1742400703,"current_range_meters":7200,"station_id":"ce4bhnh2rcd13ifvqgtg","pricing_plan_id":"cebpf4jnsgd1na2vs0mg"},{"bike_id":"a342afa1-fe1b-4de5-8f98-f3f81167fac6","system_id":"levelo_inurba_marseille","lat":43.22931,"lon":5.35386,"is_reserved":false,"is_disabled":false,"rental_uris":{"android":"levelo://app?vid=a342afa1-fe1b-4de5-8f98-f3f81167fac6","ios":"levelo://app?vid=a342afa1-fe1b-4de5-8f98-f3f81167fac6"},"vehicle_type_id":"4","last_reported":1742400703,"current_range_meters":7200,"station_id":"cpo3532slgdg3j2ikp40","pricing_plan_id":"cebpf4jnsgd1na2vs0mg"},{"bike_id":"8b32b85a-5da5-4fb7-9bce-2917bc92c51c","system_id":"levelo_inurba_marseille","lat":43.27816,"lon":5.40718,"is_reserved":false,"is_disabled":false,"rental_uris":{"android":"levelo://app?vid=8b32b85a-5da5-4fb7-9bce-2917bc92c51c","ios":"levelo://app?vid=8b32b85a-5da5-4fb7-9bce-2917bc92c51c"},"vehicle_type_id":"4","last_reported":1742400703,"current_range_meters":7200,"station_id":"ce4bhnh2rcd13ifvqgtg","pricing_plan_id":"cebpf4jnsgd1na2vs0mg"},{"bike_id":"34b74241-1e6e-458b-a83f-9bda30270e74","system_id":"levelo_inurba_marseille","lat":43.27815,"lon":5.40714,"is_reserved":false,"is_disabled":false,"rental_uris":{"android":"levelo://app?vid=34b74241-1e6e-458b-a83f-9bda30270e74","ios":"levelo://app?vid=34b74241-1e6e-458b-a83f-9bda30270e74"},"vehicle_type_id":"4","last_reported":1742400703,"current_range_meters":7200,"station_id":"ce4bhnh2rcd13ifvqgtg","pricing_plan_id":"cebpf4jnsgd1na2vs0mg"},{"bike_id":"e2bc77ae-0ff5-415d-959c-3f67626bdc92","system_id":"levelo_inurba_marseille","lat":43.32047,"lon":5.41557,"is_reserved":false,"is_disabled":false,"rental_uris":{"android":"levelo://app?vid=e2bc77ae-0ff5-415d-959c-3f67626bdc92","ios":"levelo://app?vid=e2bc77ae-0ff5-415d-959c-3f67626bdc92"},"vehicle_type_id":"4","last_reported":1742400703,"current_range_meters":7200,"station_id":"ce4bhq92rcd13ifvqhkg","pricing_plan_id":"cebpf4jnsgd1na2vs0mg"},{"bike_id":"7605f9aa-5edb-4576-b5e6-c147c9147605","system_id":"levelo_inurba_marseille","lat":43.257989,"lon":5.408584,"is_reserved":false,"is_disabled":false,"rental_uris":{"android":"levelo://app?vid=7605f9aa-5edb-4576-b5e6-c147c9147605","ios":"levelo://app?vid=7605f9aa-5edb-4576-b5e6-c147c9147605"},"vehicle_type_id":"4","last_reported":1742400703,"current_range_meters":7200,"station_id":"ce4bhlh2rcd13ifvqgig","pricing_plan_id":"cebpf4jnsgd1na2vs0mg"},{"bike_id":"61c41159-7a8b-45ee-a18c-926f56b3edec","system_id":"levelo_inurba_marseille","lat":43.2582,"lon":5.39427,"is_reserved":false,"is_disabled":false,"rental_uris":{"android":"levelo://app?vid=61c41159-7a8b-45ee-a18c-926f56b3edec","ios":"levelo://app?vid=61c41159-7a8b-45ee-a18c-926f56b3edec"},"vehicle_type_id":"4","last_reported":1742400703,"current_range_meters":7200,"station_id":"ce4bhip2rcd13ifvqft0","pricing_plan_id":"cebpf4jnsgd1na2vs0mg"},{"bike_id":"80199900-8dce-4757-bbc9-50ebf2191700","system_id":"levelo_inurba_marseille","lat":43.26948,"lon":5.40244,"is_reserved":false,"is_disabled":false,"rental_uris":{"android":"levelo://app?vid=80199900-8dce-4757-bbc9-50ebf2191700","ios":"levelo://app?vid=80199900-8dce-4757-bbc9-50ebf2191700"},"vehicle_type_id":"4","last_reported":1742400703,"current_range_meters":7200,"station_id":"cjm6bp8fraef2m0cb0m0","pricing_plan_id":"cebpf4jnsgd1na2vs0mg"},{"bike_id":"7f2b9c28-ac4b-434c-841d-6decda9af732","system_id":"levelo_inurba_marseille","lat":43.2927,"lon":5.36844,"is_reserved":false,"is_disabled":false,"rental_uris":{"android":"levelo://app?vid=7f2b9c28-ac4b-434c-841d-6decda9af732","ios":"levelo://app?vid=7f2b9c28-ac4b-434c-841d-6decda9af732"},"vehicle_type_id":"4","last_reported":1742400703,"current_range_meters":7200,"station_id":"ce4bhbp2rcd13ifvqesg","pricing_plan_id":"cebpf4jnsgd1na2vs0mg"},{"bike_id":"e7727825-1550-4ac5-83b8-e36a5d869f96","system_id":"levelo_inurba_marseille","lat":43.2623,"lon":5.40449,"is_reserved":false,"is_disabled":false,"rental_uris":{"android":"levelo://app?vid=e7727825-1550-4ac5-83b8-e36a5d869f96","ios":"levelo://app?vid=e7727825-1550-4ac5-83b8-e36a5d869f96"},"vehicle_type_id":"4","last_reported":1742400703,"current_range_meters":7200,"station_id":"ce4bhmh2rcd13ifvqgmg","pricing_plan_id":"cebpf4jnsgd1na2vs0mg"},{"bike_id":"a1a7a713-b967-46bb-b146-c35e46f993ca","system_id":"levelo_inurba_marseille","lat":43.23157,"lon":5.43718,"is_reserved":false,"is_disabled":false,"rental_uris":{"android":"levelo://app?vid=a1a7a713-b967-46bb-b146-c35e46f993ca","ios":"levelo://app?vid=a1a7a713-b967-46bb-b146-c35e46f993ca"},"vehicle_type_id":"4","last_reported":1742400703,"current_range_meters":8000,"station_id":"ce4bhmp2rcd13ifvqgog","pricing_plan_id":"cebpf4jnsgd1na2vs0mg"},{"bike_id":"b0ffdf52-716c-4039-afab-935fe20e2706","system_id":"levelo_inurba_marseille","lat":43.28849,"lon":5.35866,"is_reserved":false,"is_disabled":false,"rental_uris":{"android":"levelo://app?vid=b0ffdf52-716c-4039-afab-935fe20e2706","ios":"levelo://app?vid=b0ffdf52-716c-4039-afab-935fe20e2706"},"vehicle_type_id":"4","last_reported":1742400703,"current_range_meters":8000,"station_id":"ce4bhb12rcd13ifvqem0","pricing_plan_id":"cebpf4jnsgd1na2vs0mg"},{"bike_id":"712195f6-5d07-4176-ae4a-b285b063eff2","system_id":"levelo_inurba_marseille","lat":43.26552,"lon":5.3729,"is_reserved":false,"is_disabled":false,"rental_uris":{"android":"levelo://app?vid=712195f6-5d07-4176-ae4a-b285b063eff2","ios":"levelo://app?vid=712195f6-5d07-4176-ae4a-b285b063eff2"},"vehicle_type_id":"4","last_reported":1742400703,"current_range_meters":8000,"station_id":"ce4bhg12rcd13ifvqf70","pricing_plan_id":"cebpf4jnsgd1na2vs0mg"},{"bike_id":"6b162ed9-3599-4156-a34b-2df90433ae5c","system_id":"levelo_inurba_marseille","lat":43.24175,"lon":5.39726,"is_reserved":false,"is_disabled":false,"rental_uris":{"android":"levelo://app?vid=6b162ed9-3599-4156-a34b-2df90433ae5c","ios":"levelo://app?vid=6b162ed9-3599-4156-a34b-2df90433ae5c"},"vehicle_type_id":"4","last_reported":1742400703,"current_range_meters":8000,"station_id":"ce4bhn12rcd13ifvqgpg","pricing_plan_id":"cebpf4jnsgd1na2vs0mg"},{"bike_id":"654f577e-9fd8-4fce-9658-204ef6e90338","system_id":"levelo_inurba_marseille","lat":43.30305,"lon":5.39217,"is_reserved":false,"is_disabled":false,"rental_uris":{"android":"levelo://app?vid=654f577e-9fd8-4fce-9658-204ef6e90338","ios":"levelo://app?vid=654f577e-9fd8-4fce-9658-204ef6e90338"},"vehicle_type_id":"4","last_reported":1742400703,"current_range_meters":8000,"station_id":"ce4bgkh2rcd13ifvqbk0","pricing_plan_id":"cebpf4jnsgd1na2vs0mg"},{"bike_id":"f82bcd9c-d2b5-4549-9995-8a6864ed1b0d","system_id":"levelo_inurba_marseille","lat":43.3042,"lon":5.41294,"is_reserved":false,"is_disabled":false,"rental_uris":{"android":"levelo://app?vid=f82bcd9c-d2b5-4549-9995-8a6864ed1b0d","ios":"levelo://app?vid=f82bcd9c-d2b5-4549-9995-8a6864ed1b0d"},"vehicle_type_id":"4","last_reported":1742400703,"current_range_meters":8000,"station_id":"ce4bhop2rcd13ifvqh8g","pricing_plan_id":"cebpf4jnsgd1na2vs0mg"},{"bike_id":"42122dc9-485f-4523-8b4c-c77fb9247302","system_id":"levelo_inurba_marseille","lat":43.296278,"lon":5.377269,"is_reserved":false,"is_disabled":false,"rental_uris":{"android":"levelo://app?vid=42122dc9-485f-4523-8b4c-c77fb9247302","ios":"levelo://app?vid=42122dc9-485f-4523-8b4c-c77fb9247302"},"vehicle_type_id":"4","last_reported":1742400703,"current_range_meters":8000,"station_id":"ce4bh692rcd13ifvqea0","pricing_plan_id":"cebpf4jnsgd1na2vs0mg"},{"bike_id":"1bada1ca-1c6a-4164-a983-aa2b291b56ef","system_id":"levelo_inurba_marseille","lat":43.2894,"lon":5.38408,"is_reserved":false,"is_disabled":false,"rental_uris":{"android":"levelo://app?vid=1bada1ca-1c6a-4164-a983-aa2b291b56ef","ios":"levelo://app?vid=1bada1ca-1c6a-4164-a983-aa2b291b56ef"},"vehicle_type_id":"4","last_reported":1742400703,"current_range_meters":8400,"station_id":"ce4bh612rcd13ifvqe6g","pricing_plan_id":"cebpf4jnsgd1na2vs0mg"},{"bike_id":"f21279f0-26ba-40b9-a5fb-1fd6c7d6abe3","system_id":"levelo_inurba_marseille","lat":43.25831,"lon":5.39437,"is_reserved":false,"is_disabled":false,"rental_uris":{"android":"levelo://app?vid=f21279f0-26ba-40b9-a5fb-1fd6c7d6abe3","ios":"levelo://app?vid=f21279f0-26ba-40b9-a5fb-1fd6c7d6abe3"},"vehicle_type_id":"4","last_reported":1742400703,"current_range_meters":8400,"station_id":"ce4bhip2rcd13ifvqft0","pricing_plan_id":"cebpf4jnsgd1na2vs0mg"},{"bike_id":"1fe8cbb2-e61f-4748-8f3f-eff906305549","system_id":"levelo_inurba_marseille","lat":43.23064,"lon":5.35486,"is_reserved":false,"is_disabled":false,"rental_uris":{"android":"levelo://app?vid=1fe8cbb2-e61f-4748-8f3f-eff906305549","ios":"levelo://app?vid=1fe8cbb2-e61f-4748-8f3f-eff906305549"},"vehicle_type_id":"4","last_reported":1742400703,"current_range_meters":8400,"station_id":"cpo3342slgdg3j2ifvpg","pricing_plan_id":"cebpf4jnsgd1na2vs0mg"},{"bike_id":"e8ca296b-d8c0-4f4f-8452-45e3daae8750","system_id":"levelo_inurba_marseille","lat":43.24172,"lon":5.39734,"is_reserved":false,"is_disabled":false,"rental_uris":{"android":"levelo://app?vid=e8ca296b-d8c0-4f4f-8452-45e3daae8750","ios":"levelo://app?vid=e8ca296b-d8c0-4f4f-8452-45e3daae8750"},"vehicle_type_id":"4","last_reported":1742400703,"current_range_meters":8400,"station_id":"ce4bhn12rcd13ifvqgpg","pricing_plan_id":"cebpf4jnsgd1na2vs0mg"},{"bike_id":"2715d19a-9348-4718-a750-7650610173c5","system_id":"levelo_inurba_marseille","lat":43.29556,"lon":5.42292,"is_reserved":false,"is_disabled":false,"rental_uris":{"android":"levelo://app?vid=2715d19a-9348-4718-a750-7650610173c5","ios":"levelo://app?vid=2715d19a-9348-4718-a750-7650610173c5"},"vehicle_type_id":"4","last_reported":1742400703,"current_range_meters":8400,"station_id":"ce4bhph2rcd13ifvqhdg","pricing_plan_id":"cebpf4jnsgd1na2vs0mg"},{"bike_id":"ed32af05-a93a-40af-b3e3-3171404acc80","system_id":"levelo_inurba_marseille","lat":43.27381,"lon":5.36255,"is_reserved":false,"is_disabled":false,"rental_uris":{"android":"levelo://app?vid=ed32af05-a93a-40af-b3e3-3171404acc80","ios":"levelo://app?vid=ed32af05-a93a-40af-b3e3-3171404acc80"},"vehicle_type_id":"4","last_reported":1742400703,"current_range_meters":8400,"station_id":"ce4bhbh2rcd13ifvqeo0","pricing_plan_id":"cebpf4jnsgd1na2vs0mg"},{"bike_id":"f45c35f5-1a44-434c-8f71-9b4f60ba36e8","system_id":"levelo_inurba_marseille","lat":43.23181,"lon":5.3999,"is_reserved":false,"is_disabled":false,"rental_uris":{"android":"levelo://app?vid=f45c35f5-1a44-434c-8f71-9b4f60ba36e8","ios":"levelo://app?vid=f45c35f5-1a44-434c-8f71-9b4f60ba36e8"},"vehicle_type_id":"4","last_reported":1742400703,"current_range_meters":8400,"station_id":"ce4bhn12rcd13ifvqgqg","pricing_plan_id":"cebpf4jnsgd1na2vs0mg"},{"bike_id":"4858167e-edc8-4792-9d1c-05670cc1275f","system_id":"levelo_inurba_marseille","lat":43.29296,"lon":5.42744,"is_reserved":false,"is_disabled":false,"rental_uris":{"android":"levelo://app?vid=4858167e-edc8-4792-9d1c-05670cc1275f","ios":"levelo://app?vid=4858167e-edc8-4792-9d1c-05670cc1275f"},"vehicle_type_id":"4","last_reported":1742400703,"current_range_meters":8400,"station_id":"","pricing_plan_id":"cebpf4jnsgd1na2vs0mg"},{"bike_id":"4f70ebff-4208-422e-8c95-09d5bebf9c84","system_id":"levelo_inurba_marseille","lat":43.27931,"lon":5.39599,"is_reserved":false,"is_disabled":false,"rental_uris":{"android":"levelo://app?vid=4f70ebff-4208-422e-8c95-09d5bebf9c84","ios":"levelo://app?vid=4f70ebff-4208-422e-8c95-09d5bebf9c84"},"vehicle_type_id":"4","last_reported":1742400703,"current_range_meters":8400,"station_id":"ce4bhf92rcd13ifvqf40","pricing_plan_id":"cebpf4jnsgd1na2vs0mg"},{"bike_id":"002379d6-c9e3-4a52-a381-4f80de264d43","system_id":"levelo_inurba_marseille","lat":43.30933,"lon":5.40146,"is_reserved":false,"is_disabled":false,"rental_uris":{"android":"levelo://app?vid=002379d6-c9e3-4a52-a381-4f80de264d43","ios":"levelo://app?vid=002379d6-c9e3-4a52-a381-4f80de264d43"},"vehicle_type_id":"4","last_reported":1742400703,"current_range_meters":8400,"station_id":"ce4bgvp2rcd13ifvqct0","pricing_plan_id":"cebpf4jnsgd1na2vs0mg"},{"bike_id":"c88fbe28-9402-4ce3-9d2b-7ab1e41f63e4","system_id":"levelo_inurba_marseille","lat":43.27619,"lon":5.36114,"is_reserved":false,"is_disabled":false,"rental_uris":{"android":"levelo://app?vid=c88fbe28-9402-4ce3-9d2b-7ab1e41f63e4","ios":"levelo://app?vid=c88fbe28-9402-4ce3-9d2b-7ab1e41f63e4"},"vehicle_type_id":"4","last_reported":1742400703,"current_range_meters":8400,"station_id":"ce4bgj92rcd13ifvqbe0","pricing_plan_id":"cebpf4jnsgd1na2vs0mg"},{"bike_id":"4af30189-94be-48ce-a528-0780bcce0809","system_id":"levelo_inurba_marseille","lat":43.23164,"lon":5.43704,"is_reserved":false,"is_disabled":false,"rental_uris":{"android":"levelo://app?vid=4af30189-94be-48ce-a528-0780bcce0809","ios":"levelo://app?vid=4af30189-94be-48ce-a528-0780bcce0809"},"vehicle_type_id":"4","last_reported":1742400703,"current_range_meters":8400,"station_id":"ce4bhmp2rcd13ifvqgog","pricing_plan_id":"cebpf4jnsgd1na2vs0mg"},{"bike_id":"28f2a0b6-97f2-4d96-9d5e-fc433b59069b","system_id":"levelo_inurba_marseille","lat":43.28935,"lon":5.36386,"is_reserved":false,"is_disabled":false,"rental_uris":{"android":"levelo://app?vid=28f2a0b6-97f2-4d96-9d5e-fc433b59069b","ios":"levelo://app?vid=28f2a0b6-97f2-4d96-9d5e-fc433b59069b"},"vehicle_type_id":"4","last_reported":1742400703,"current_range_meters":8800,"station_id":"ce4bhc92rcd13ifvqetg","pricing_plan_id":"cebpf4jnsgd1na2vs0mg"},{"bike_id":"45233882-6a89-4b02-addd-28d39958200a","system_id":"levelo_inurba_marseille","lat":43.32361,"lon":5.367643,"is_reserved":false,"is_disabled":false,"rental_uris":{"android":"levelo://app?vid=45233882-6a89-4b02-addd-28d39958200a","ios":"levelo://app?vid=45233882-6a89-4b02-addd-28d39958200a"},"vehicle_type_id":"4","last_reported":1742400703,"current_range_meters":8800,"station_id":"ce4bhsh2rcd13ifvqi2g","pricing_plan_id":"cebpf4jnsgd1na2vs0mg"},{"bike_id":"25793b0d-d8a7-4fb7-bbd3-bb61178801a0","system_id":"levelo_inurba_marseille","lat":43.31036,"lon":5.36984,"is_reserved":false,"is_disabled":false,"rental_uris":{"android":"levelo://app?vid=25793b0d-d8a7-4fb7-bbd3-bb61178801a0","ios":"levelo://app?vid=25793b0d-d8a7-4fb7-bbd3-bb61178801a0"},"vehicle_type_id":"4","last_reported":1742400703,"current_range_meters":8800,"station_id":"","pricing_plan_id":"cebpf4jnsgd1na2vs0mg"},{"bike_id":"10eed6fd-0341-4510-a4a6-4c8769f4a4be","system_id":"levelo_inurba_marseille","lat":43.26686,"lon":5.38315,"is_reserved":false,"is_disabled":false,"rental_uris":{"android":"levelo://app?vid=10eed6fd-0341-4510-a4a6-4c8769f4a4be","ios":"levelo://app?vid=10eed6fd-0341-4510-a4a6-4c8769f4a4be"},"vehicle_type_id":"4","last_reported":1742400703,"current_range_meters":8800,"station_id":"ce4bhg92rcd13ifvqf90","pricing_plan_id":"cebpf4jnsgd1na2vs0mg"},{"bike_id":"bfd67b10-fd7c-4b25-bc6e-0830b23c1f4b","system_id":"levelo_inurba_marseille","lat":43.25827,"lon":5.39439,"is_reserved":false,"is_disabled":false,"rental_uris":{"android":"levelo://app?vid=bfd67b10-fd7c-4b25-bc6e-0830b23c1f4b","ios":"levelo://app?vid=bfd67b10-fd7c-4b25-bc6e-0830b23c1f4b"},"vehicle_type_id":"4","last_reported":1742400703,"current_range_meters":8800,"station_id":"ce4bhip2rcd13ifvqft0","pricing_plan_id":"cebpf4jnsgd1na2vs0mg"},{"bike_id":"f900da6c-7e5c-4ec1-bb80-501e71312a52","system_id":"levelo_inurba_marseille","lat":43.27376,"lon":5.36257,"is_reserved":false,"is_disabled":false,"rental_uris":{"android":"levelo://app?vid=f900da6c-7e5c-4ec1-bb80-501e71312a52","ios":"levelo://app?vid=f900da6c-7e5c-4ec1-bb80-501e71312a52"},"vehicle_type_id":"4","last_reported":1742400703,"current_range_meters":8800,"station_id":"ce4bhbh2rcd13ifvqeo0","pricing_plan_id":"cebpf4jnsgd1na2vs0mg"},{"bike_id":"ee6c91ae-48e5-4aa7-bc90-dbfd5be48dab","system_id":"levelo_inurba_marseille","lat":43.26557,"lon":5.37295,"is_reserved":false,"is_disabled":false,"rental_uris":{"android":"levelo://app?vid=ee6c91ae-48e5-4aa7-bc90-dbfd5be48dab","ios":"levelo://app?vid=ee6c91ae-48e5-4aa7-bc90-dbfd5be48dab"},"vehicle_type_id":"4","last_reported":1742400703,"current_range_meters":8800,"station_id":"ce4bhg12rcd13ifvqf70","pricing_plan_id":"cebpf4jnsgd1na2vs0mg"},{"bike_id":"73775d85-d06e-4705-b3d6-611dd3926542","system_id":"levelo_inurba_marseille","lat":43.25952,"lon":5.40933,"is_reserved":false,"is_disabled":false,"rental_uris":{"android":"levelo://app?vid=73775d85-d06e-4705-b3d6-611dd3926542","ios":"levelo://app?vid=73775d85-d06e-4705-b3d6-611dd3926542"},"vehicle_type_id":"4","last_reported":1742400703,"current_range_meters":8800,"station_id":"ce4bhm92rcd13ifvqglg","pricing_plan_id":"cebpf4jnsgd1na2vs0mg"},{"bike_id":"90235264-499f-487c-899a-75c07758fd76","system_id":"levelo_inurba_marseille","lat":43.27173,"lon":5.40989,"is_reserved":false,"is_disabled":false,"rental_uris":{"android":"levelo://app?vid=90235264-499f-487c-899a-75c07758fd76","ios":"levelo://app?vid=90235264-499f-487c-899a-75c07758fd76"},"vehicle_type_id":"4","last_reported":1742400703,"current_range_meters":8800,"station_id":"ce4bhl12rcd13ifvqgf0","pricing_plan_id":"cebpf4jnsgd1na2vs0mg"},{"bike_id":"ca5ec2af-d9c0-4bf6-a9d8-72576ec4b622","system_id":"levelo_inurba_marseille","lat":43.27924,"lon":5.39586,"is_reserved":false,"is_disabled":false,"rental_uris":{"android":"levelo://app?vid=ca5ec2af-d9c0-4bf6-a9d8-72576ec4b622","ios":"levelo://app?vid=ca5ec2af-d9c0-4bf6-a9d8-72576ec4b622"},"vehicle_type_id":"4","last_reported":1742400703,"current_range_meters":9200,"station_id":"ce4bhf92rcd13ifvqf40","pricing_plan_id":"cebpf4jnsgd1na2vs0mg"},{"bike_id":"c8aafbc9-77d7-4d42-9c32-5864e9ae590f","system_id":"levelo_inurba_marseille","lat":43.26923,"lon":5.38923,"is_reserved":false,"is_disabled":false,"rental_uris":{"android":"levelo://app?vid=c8aafbc9-77d7-4d42-9c32-5864e9ae590f","ios":"levelo://app?vid=c8aafbc9-77d7-4d42-9c32-5864e9ae590f"},"vehicle_type_id":"4","last_reported":1742400703,"current_range_meters":9200,"station_id":"ce4bhhh2rcd13ifvqfl0","pricing_plan_id":"cebpf4jnsgd1na2vs0mg"},{"bike_id":"ebd45e7b-1c45-4b94-a31a-e5fdc9535d41","system_id":"levelo_inurba_marseille","lat":43.23966,"lon":5.36627,"is_reserved":false,"is_disabled":false,"rental_uris":{"android":"levelo://app?vid=ebd45e7b-1c45-4b94-a31a-e5fdc9535d41","ios":"levelo://app?vid=ebd45e7b-1c45-4b94-a31a-e5fdc9535d41"},"vehicle_type_id":"4","last_reported":1742400703,"current_range_meters":9200,"station_id":"ce4bhi12rcd13ifvqfp0","pricing_plan_id":"cebpf4jnsgd1na2vs0mg"},{"bike_id":"f9ff2843-6a11-4e3b-9e65-9998fbe82454","system_id":"levelo_inurba_marseille","lat":43.25115,"lon":5.4032,"is_reserved":false,"is_disabled":false,"rental_uris":{"android":"levelo://app?vid=f9ff2843-6a11-4e3b-9e65-9998fbe82454","ios":"levelo://app?vid=f9ff2843-6a11-4e3b-9e65-9998fbe82454"},"vehicle_type_id":"4","last_reported":1742400703,"current_range_meters":9200,"station_id":"ce4bhlh2rcd13ifvqgig","pricing_plan_id":"cebpf4jnsgd1na2vs0mg"},{"bike_id":"a93ccb8b-3bbb-4863-8fd9-c409c10d541d","system_id":"levelo_inurba_marseille","lat":43.29721,"lon":5.37699,"is_reserved":false,"is_disabled":false,"rental_uris":{"android":"levelo://app?vid=a93ccb8b-3bbb-4863-8fd9-c409c10d541d","ios":"levelo://app?vid=a93ccb8b-3bbb-4863-8fd9-c409c10d541d"},"vehicle_type_id":"4","last_reported":1742400703,"current_range_meters":9200,"station_id":"ce4bgkh2rcd13ifvqbl0","pricing_plan_id":"cebpf4jnsgd1na2vs0mg"},{"bike_id":"4fc2c617-f2f2-4dca-9a15-2ab08d84e5b2","system_id":"levelo_inurba_marseille","lat":43.30541,"lon":5.36559,"is_reserved":false,"is_disabled":false,"rental_uris":{"android":"levelo://app?vid=4fc2c617-f2f2-4dca-9a15-2ab08d84e5b2","ios":"levelo://app?vid=4fc2c617-f2f2-4dca-9a15-2ab08d84e5b2"},"vehicle_type_id":"4","last_reported":1742400703,"current_range_meters":9200,"station_id":"ce4bgs12rcd13ifvqcag","pricing_plan_id":"cebpf4jnsgd1na2vs0mg"},{"bike_id":"8abf66b0-4c7b-4a5b-9216-254c311cdf06","system_id":"levelo_inurba_marseille","lat":43.2558,"lon":5.38219,"is_reserved":false,"is_disabled":false,"rental_uris":{"android":"levelo://app?vid=8abf66b0-4c7b-4a5b-9216-254c311cdf06","ios":"levelo://app?vid=8abf66b0-4c7b-4a5b-9216-254c311cdf06"},"vehicle_type_id":"4","last_reported":1742400703,"current_range_meters":9200,"station_id":"ce4bhih2rcd13ifvqfs0","pricing_plan_id":"cebpf4jnsgd1na2vs0mg"},{"bike_id":"056c9455-af36-4790-b851-b2581cd69543","system_id":"levelo_inurba_marseille","lat":43.26234,"lon":5.40456,"is_reserved":false,"is_disabled":false,"rental_uris":{"android":"levelo://app?vid=056c9455-af36-4790-b851-b2581cd69543","ios":"levelo://app?vid=056c9455-af36-4790-b851-b2581cd69543"},"vehicle_type_id":"4","last_reported":1742400703,"current_range_meters":9200,"station_id":"ce4bhmh2rcd13ifvqgmg","pricing_plan_id":"cebpf4jnsgd1na2vs0mg"},{"bike_id":"c2f4da44-a44d-44d2-8be6-51648ee37d7f","system_id":"levelo_inurba_marseille","lat":43.25013,"lon":5.38936,"is_reserved":false,"is_disabled":false,"rental_uris":{"android":"levelo://app?vid=c2f4da44-a44d-44d2-8be6-51648ee37d7f","ios":"levelo://app?vid=c2f4da44-a44d-44d2-8be6-51648ee37d7f"},"vehicle_type_id":"4","last_reported":1742400703,"current_range_meters":9200,"station_id":"ce4bhgp2rcd13ifvqfd0","pricing_plan_id":"cebpf4jnsgd1na2vs0mg"},{"bike_id":"b6516885-6b2a-4c3b-b46a-6df7fec02364","system_id":"levelo_inurba_marseille","lat":43.25931,"lon":5.40914,"is_reserved":false,"is_disabled":false,"rental_uris":{"android":"levelo://app?vid=b6516885-6b2a-4c3b-b46a-6df7fec02364","ios":"levelo://app?vid=b6516885-6b2a-4c3b-b46a-6df7fec02364"},"vehicle_type_id":"4","last_reported":1742400703,"current_range_meters":9200,"station_id":"ce4bhm92rcd13ifvqglg","pricing_plan_id":"cebpf4jnsgd1na2vs0mg"},{"bike_id":"054b79e5-3c6c-4562-a1d6-d64bd099ac6b","system_id":"levelo_inurba_marseille","lat":43.24683,"lon":5.38154,"is_reserved":false,"is_disabled":false,"rental_uris":{"android":"levelo://app?vid=054b79e5-3c6c-4562-a1d6-d64bd099ac6b","ios":"levelo://app?vid=054b79e5-3c6c-4562-a1d6-d64bd099ac6b"},"vehicle_type_id":"4","last_reported":1742400703,"current_range_meters":9200,"station_id":"ce4bhih2rcd13ifvqfr0","pricing_plan_id":"cebpf4jnsgd1na2vs0mg"},{"bike_id":"f7317967-208e-4ff6-92ee-920ec06830c4","system_id":"levelo_inurba_marseille","lat":43.25723,"lon":5.4111,"is_reserved":false,"is_disabled":false,"rental_uris":{"android":"levelo://app?vid=f7317967-208e-4ff6-92ee-920ec06830c4","ios":"levelo://app?vid=f7317967-208e-4ff6-92ee-920ec06830c4"},"vehicle_type_id":"4","last_reported":1742400703,"current_range_meters":9600,"station_id":"ce4bhkp2rcd13ifvqgd0","pricing_plan_id":"cebpf4jnsgd1na2vs0mg"},{"bike_id":"2fc59438-bcd7-4fcb-af90-ed004623bdc8","system_id":"levelo_inurba_marseille","lat":43.26224,"lon":5.40455,"is_reserved":false,"is_disabled":false,"rental_uris":{"android":"levelo://app?vid=2fc59438-bcd7-4fcb-af90-ed004623bdc8","ios":"levelo://app?vid=2fc59438-bcd7-4fcb-af90-ed004623bdc8"},"vehicle_type_id":"4","last_reported":1742400703,"current_range_meters":9600,"station_id":"ce4bhmh2rcd13ifvqgmg","pricing_plan_id":"cebpf4jnsgd1na2vs0mg"},{"bike_id":"52d3c986-277e-4b12-8ddc-c46c3c10fb43","system_id":"levelo_inurba_marseille","lat":43.2656,"lon":5.37283,"is_reserved":false,"is_disabled":false,"rental_uris":{"android":"levelo://app?vid=52d3c986-277e-4b12-8ddc-c46c3c10fb43","ios":"levelo://app?vid=52d3c986-277e-4b12-8ddc-c46c3c10fb43"},"vehicle_type_id":"4","last_reported":1742400703,"current_range_meters":9600,"station_id":"ce4bhg12rcd13ifvqf70","pricing_plan_id":"cebpf4jnsgd1na2vs0mg"},{"bike_id":"3455258b-4135-46b9-9a26-10bf95160e40","system_id":"levelo_inurba_marseille","lat":43.23197,"lon":5.35543,"is_reserved":false,"is_disabled":false,"rental_uris":{"android":"levelo://app?vid=3455258b-4135-46b9-9a26-10bf95160e40","ios":"levelo://app?vid=3455258b-4135-46b9-9a26-10bf95160e40"},"vehicle_type_id":"4","last_reported":1742400703,"current_range_meters":9600,"station_id":"ce4bhu92rcd13ifvqi70","pricing_plan_id":"cebpf4jnsgd1na2vs0mg"},{"bike_id":"b3ab2806-f410-4cce-8b04-fb1a4b877921","system_id":"levelo_inurba_marseille","lat":43.24169,"lon":5.39735,"is_reserved":false,"is_disabled":false,"rental_uris":{"android":"levelo://app?vid=b3ab2806-f410-4cce-8b04-fb1a4b877921","ios":"levelo://app?vid=b3ab2806-f410-4cce-8b04-fb1a4b877921"},"vehicle_type_id":"4","last_reported":1742400703,"current_range_meters":9600,"station_id":"ce4bhn12rcd13ifvqgpg","pricing_plan_id":"cebpf4jnsgd1na2vs0mg"},{"bike_id":"3d8dcf13-3c4a-4e14-a3b8-0205ff8c25fb","system_id":"levelo_inurba_marseille","lat":43.24647,"lon":5.38915,"is_reserved":false,"is_disabled":false,"rental_uris":{"android":"levelo://app?vid=3d8dcf13-3c4a-4e14-a3b8-0205ff8c25fb","ios":"levelo://app?vid=3d8dcf13-3c4a-4e14-a3b8-0205ff8c25fb"},"vehicle_type_id":"4","last_reported":1742400703,"current_range_meters":9600,"station_id":"ce4bhg12rcd13ifvqf60","pricing_plan_id":"cebpf4jnsgd1na2vs0mg"},{"bike_id":"cd6f1262-06b9-4383-8718-dbf3ba4fd41e","system_id":"levelo_inurba_marseille","lat":43.26242,"lon":5.4047,"is_reserved":false,"is_disabled":false,"rental_uris":{"android":"levelo://app?vid=cd6f1262-06b9-4383-8718-dbf3ba4fd41e","ios":"levelo://app?vid=cd6f1262-06b9-4383-8718-dbf3ba4fd41e"},"vehicle_type_id":"4","last_reported":1742400703,"current_range_meters":10000,"station_id":"ce4bhmh2rcd13ifvqgmg","pricing_plan_id":"cebpf4jnsgd1na2vs0mg"},{"bike_id":"97f132f3-f25e-4589-ad73-9c5a087e55dd","system_id":"levelo_inurba_marseille","lat":43.30315,"lon":5.38,"is_reserved":false,"is_disabled":false,"rental_uris":{"android":"levelo://app?vid=97f132f3-f25e-4589-ad73-9c5a087e55dd","ios":"levelo://app?vid=97f132f3-f25e-4589-ad73-9c5a087e55dd"},"vehicle_type_id":"4","last_reported":1742400703,"current_range_meters":10000,"station_id":"","pricing_plan_id":"cebpf4jnsgd1na2vs0mg"},{"bike_id":"e8a2c591-d969-4081-8fa3-36e1d0cc4807","system_id":"levelo_inurba_marseille","lat":43.28934,"lon":5.36639,"is_reserved":false,"is_disabled":false,"rental_uris":{"android":"levelo://app?vid=e8a2c591-d969-4081-8fa3-36e1d0cc4807","ios":"levelo://app?vid=e8a2c591-d969-4081-8fa3-36e1d0cc4807"},"vehicle_type_id":"4","last_reported":1742400703,"current_range_meters":10000,"station_id":"ce4bhap2rcd13ifvqek0","pricing_plan_id":"cebpf4jnsgd1na2vs0mg"},{"bike_id":"d45aa902-4bcb-471b-8a0f-8cdc3416ec8c","system_id":"levelo_inurba_marseille","lat":43.27618,"lon":5.36111,"is_reserved":false,"is_disabled":false,"rental_uris":{"android":"levelo://app?vid=d45aa902-4bcb-471b-8a0f-8cdc3416ec8c","ios":"levelo://app?vid=d45aa902-4bcb-471b-8a0f-8cdc3416ec8c"},"vehicle_type_id":"4","last_reported":1742400703,"current_range_meters":10000,"station_id":"ce4bgj92rcd13ifvqbe0","pricing_plan_id":"cebpf4jnsgd1na2vs0mg"},{"bike_id":"c1cb2235-dbe0-4abd-8f7a-8b0cf8ccf472","system_id":"levelo_inurba_marseille","lat":43.28436,"lon":5.39207,"is_reserved":false,"is_disabled":false,"rental_uris":{"android":"levelo://app?vid=c1cb2235-dbe0-4abd-8f7a-8b0cf8ccf472","ios":"levelo://app?vid=c1cb2235-dbe0-4abd-8f7a-8b0cf8ccf472"},"vehicle_type_id":"4","last_reported":1742400703,"current_range_meters":10000,"station_id":"ce4bhoh2rcd13ifvqh5g","pricing_plan_id":"cebpf4jnsgd1na2vs0mg"},{"bike_id":"653f75b0-6869-498b-8f07-50245fa6b2d8","system_id":"levelo_inurba_marseille","lat":43.29973,"lon":5.38497,"is_reserved":false,"is_disabled":false,"rental_uris":{"android":"levelo://app?vid=653f75b0-6869-498b-8f07-50245fa6b2d8","ios":"levelo://app?vid=653f75b0-6869-498b-8f07-50245fa6b2d8"},"vehicle_type_id":"4","last_reported":1742400703,"current_range_meters":10000,"station_id":"ce4bgj92rcd13ifvqbd0","pricing_plan_id":"cebpf4jnsgd1na2vs0mg"},{"bike_id":"36709e93-795b-478f-8261-b7d4eb74a346","system_id":"levelo_inurba_marseille","lat":43.3038,"lon":5.42492,"is_reserved":false,"is_disabled":false,"rental_uris":{"android":"levelo://app?vid=36709e93-795b-478f-8261-b7d4eb74a346","ios":"levelo://app?vid=36709e93-795b-478f-8261-b7d4eb74a346"},"vehicle_type_id":"4","last_reported":1742400703,"current_range_meters":10000,"station_id":"ce4bhoh2rcd13ifvqh6g","pricing_plan_id":"cebpf4jnsgd1na2vs0mg"},{"bike_id":"abc247d2-c10c-446b-b088-d8a951b75e9c","system_id":"levelo_inurba_marseille","lat":43.29099,"lon":5.38177,"is_reserved":false,"is_disabled":false,"rental_uris":{"android":"levelo://app?vid=abc247d2-c10c-446b-b088-d8a951b75e9c","ios":"levelo://app?vid=abc247d2-c10c-446b-b088-d8a951b75e9c"},"vehicle_type_id":"4","last_reported":1742400703,"current_range_meters":10000,"station_id":"ce4bh512rcd13ifvqe2g","pricing_plan_id":"cebpf4jnsgd1na2vs0mg"},{"bike_id":"963a17fa-4222-4f93-b414-09c4cce8d25a","system_id":"levelo_inurba_marseille","lat":43.28407,"lon":5.38487,"is_reserved":false,"is_disabled":false,"rental_uris":{"android":"levelo://app?vid=963a17fa-4222-4f93-b414-09c4cce8d25a","ios":"levelo://app?vid=963a17fa-4222-4f93-b414-09c4cce8d25a"},"vehicle_type_id":"4","last_reported":1742400703,"current_range_meters":10000,"station_id":"","pricing_plan_id":"cebpf4jnsgd1na2vs0mg"},{"bike_id":"725ef1c9-4489-4462-90f0-d0856b8365d5","system_id":"levelo_inurba_marseille","lat":43.29916,"lon":5.36502,"is_reserved":false,"is_disabled":false,"rental_uris":{"android":"levelo://app?vid=725ef1c9-4489-4462-90f0-d0856b8365d5","ios":"levelo://app?vid=725ef1c9-4489-4462-90f0-d0856b8365d5"},"vehicle_type_id":"4","last_reported":1742400703,"current_range_meters":10800,"station_id":"ce4bgm92rcd13ifvqbr0","pricing_plan_id":"cebpf4jnsgd1na2vs0mg"},{"bike_id":"86e409d2-2f2f-4976-bf74-b9c8b064692f","system_id":"levelo_inurba_marseille","lat":43.301303,"lon":5.398772,"is_reserved":false,"is_disabled":false,"rental_uris":{"android":"levelo://app?vid=86e409d2-2f2f-4976-bf74-b9c8b064692f","ios":"levelo://app?vid=86e409d2-2f2f-4976-bf74-b9c8b064692f"},"vehicle_type_id":"4","last_reported":1742400703,"current_range_meters":10000,"station_id":"ce4bgkp2rcd13ifvqbmg","pricing_plan_id":"cebpf4jnsgd1na2vs0mg"},{"bike_id":"c05a222a-acb4-4107-a639-57565133cb78","system_id":"levelo_inurba_marseille","lat":43.29434,"lon":5.38654,"is_reserved":false,"is_disabled":false,"rental_uris":{"android":"levelo://app?vid=c05a222a-acb4-4107-a639-57565133cb78","ios":"levelo://app?vid=c05a222a-acb4-4107-a639-57565133cb78"},"vehicle_type_id":"4","last_reported":1742400703,"current_range_meters":10800,"station_id":"ce4bh2h2rcd13ifvqdh0","pricing_plan_id":"cebpf4jnsgd1na2vs0mg"},{"bike_id":"88ccd002-5cc7-4436-b03a-a5333eda4374","system_id":"levelo_inurba_marseille","lat":43.26692,"lon":5.38274,"is_reserved":false,"is_disabled":false,"rental_uris":{"android":"levelo://app?vid=88ccd002-5cc7-4436-b03a-a5333eda4374","ios":"levelo://app?vid=88ccd002-5cc7-4436-b03a-a5333eda4374"},"vehicle_type_id":"4","last_reported":1742400703,"current_range_meters":10800,"station_id":"ce4bhg92rcd13ifvqf90","pricing_plan_id":"cebpf4jnsgd1na2vs0mg"},{"bike_id":"5fcb8309-0208-48b4-b28d-ff6e405d3efe","system_id":"levelo_inurba_marseille","lat":43.2501,"lon":5.38924,"is_reserved":false,"is_disabled":false,"rental_uris":{"android":"levelo://app?vid=5fcb8309-0208-48b4-b28d-ff6e405d3efe","ios":"levelo://app?vid=5fcb8309-0208-48b4-b28d-ff6e405d3efe"},"vehicle_type_id":"4","last_reported":1742400703,"current_range_meters":10800,"station_id":"ce4bhgp2rcd13ifvqfd0","pricing_plan_id":"cebpf4jnsgd1na2vs0mg"},{"bike_id":"ec7a56e3-b583-4e5e-bf5e-159cb4873f98","system_id":"levelo_inurba_marseille","lat":43.28092,"lon":5.3784,"is_reserved":false,"is_disabled":false,"rental_uris":{"android":"levelo://app?vid=ec7a56e3-b583-4e5e-bf5e-159cb4873f98","ios":"levelo://app?vid=ec7a56e3-b583-4e5e-bf5e-159cb4873f98"},"vehicle_type_id":"4","last_reported":1742400703,"current_range_meters":10000,"station_id":"ce4bha12rcd13ifvqee0","pricing_plan_id":"cebpf4jnsgd1na2vs0mg"},{"bike_id":"b81f5100-48cd-484a-a38f-77673abf4225","system_id":"levelo_inurba_marseille","lat":43.28618,"lon":5.35103,"is_reserved":false,"is_disabled":false,"rental_uris":{"android":"levelo://app?vid=b81f5100-48cd-484a-a38f-77673abf4225","ios":"levelo://app?vid=b81f5100-48cd-484a-a38f-77673abf4225"},"vehicle_type_id":"4","last_reported":1742400703,"current_range_meters":10800,"station_id":"ce4bhch2rcd13ifvqeug","pricing_plan_id":"cebpf4jnsgd1na2vs0mg"},{"bike_id":"e2f2ddd5-2c90-4bd5-9948-f6824751cb16","system_id":"levelo_inurba_marseille","lat":43.2558,"lon":5.38249,"is_reserved":false,"is_disabled":false,"rental_uris":{"android":"levelo://app?vid=e2f2ddd5-2c90-4bd5-9948-f6824751cb16","ios":"levelo://app?vid=e2f2ddd5-2c90-4bd5-9948-f6824751cb16"},"vehicle_type_id":"4","last_reported":1742400703,"current_range_meters":11200,"station_id":"ce4bhih2rcd13ifvqfs0","pricing_plan_id":"cebpf4jnsgd1na2vs0mg"},{"bike_id":"6cc3105f-200d-4a53-b63e-23af0913f914","system_id":"levelo_inurba_marseille","lat":43.29264,"lon":5.36854,"is_reserved":false,"is_disabled":false,"rental_uris":{"android":"levelo://app?vid=6cc3105f-200d-4a53-b63e-23af0913f914","ios":"levelo://app?vid=6cc3105f-200d-4a53-b63e-23af0913f914"},"vehicle_type_id":"4","last_reported":1742400703,"current_range_meters":11200,"station_id":"ce4bhbp2rcd13ifvqesg","pricing_plan_id":"cebpf4jnsgd1na2vs0mg"},{"bike_id":"ee0f687c-08bb-4e36-98a2-e3de6b954481","system_id":"levelo_inurba_marseille","lat":43.24172,"lon":5.39725,"is_reserved":false,"is_disabled":false,"rental_uris":{"android":"levelo://app?vid=ee0f687c-08bb-4e36-98a2-e3de6b954481","ios":"levelo://app?vid=ee0f687c-08bb-4e36-98a2-e3de6b954481"},"vehicle_type_id":"4","last_reported":1742400703,"current_range_meters":11200,"station_id":"ce4bhn12rcd13ifvqgpg","pricing_plan_id":"cebpf4jnsgd1na2vs0mg"},{"bike_id":"02f43b01-3b74-45fa-a40e-2df823c84cda","system_id":"levelo_inurba_marseille","lat":43.24184,"lon":5.39713,"is_reserved":false,"is_disabled":false,"rental_uris":{"android":"levelo://app?vid=02f43b01-3b74-45fa-a40e-2df823c84cda","ios":"levelo://app?vid=02f43b01-3b74-45fa-a40e-2df823c84cda"},"vehicle_type_id":"4","last_reported":1742400703,"current_range_meters":11200,"station_id":"ce4bhn12rcd13ifvqgpg","pricing_plan_id":"cebpf4jnsgd1na2vs0mg"},{"bike_id":"cf9e3004-64b8-46ab-97fb-c0ec380cc653","system_id":"levelo_inurba_marseille","lat":43.26937,"lon":5.40255,"is_reserved":false,"is_disabled":false,"rental_uris":{"android":"levelo://app?vid=cf9e3004-64b8-46ab-97fb-c0ec380cc653","ios":"levelo://app?vid=cf9e3004-64b8-46ab-97fb-c0ec380cc653"},"vehicle_type_id":"4","last_reported":1742400703,"current_range_meters":11200,"station_id":"cjm6bp8fraef2m0cb0m0","pricing_plan_id":"cebpf4jnsgd1na2vs0mg"},{"bike_id":"8cf8f2d1-cd7e-4a3e-a6fe-fc7af9ab3241","system_id":"levelo_inurba_marseille","lat":43.29557,"lon":5.42292,"is_reserved":false,"is_disabled":false,"rental_uris":{"android":"levelo://app?vid=8cf8f2d1-cd7e-4a3e-a6fe-fc7af9ab3241","ios":"levelo://app?vid=8cf8f2d1-cd7e-4a3e-a6fe-fc7af9ab3241"},"vehicle_type_id":"4","last_reported":1742400703,"current_range_meters":11200,"station_id":"ce4bhph2rcd13ifvqhdg","pricing_plan_id":"cebpf4jnsgd1na2vs0mg"},{"bike_id":"6b467574-69f1-40a2-a88f-6859ed54971d","system_id":"levelo_inurba_marseille","lat":43.33405,"lon":5.40042,"is_reserved":false,"is_disabled":false,"rental_uris":{"android":"levelo://app?vid=6b467574-69f1-40a2-a88f-6859ed54971d","ios":"levelo://app?vid=6b467574-69f1-40a2-a88f-6859ed54971d"},"vehicle_type_id":"4","last_reported":1742400703,"current_range_meters":11200,"station_id":"","pricing_plan_id":"cebpf4jnsgd1na2vs0mg"},{"bike_id":"f6d7ec0c-12a9-4a56-84f0-6e30b0160de8","system_id":"levelo_inurba_marseille","lat":43.29273,"lon":5.37627,"is_reserved":false,"is_disabled":false,"rental_uris":{"android":"levelo://app?vid=f6d7ec0c-12a9-4a56-84f0-6e30b0160de8","ios":"levelo://app?vid=f6d7ec0c-12a9-4a56-84f0-6e30b0160de8"},"vehicle_type_id":"4","last_reported":1742400703,"current_range_meters":11600,"station_id":"ce4bgi12rcd13ifvqb80","pricing_plan_id":"cebpf4jnsgd1na2vs0mg"},{"bike_id":"7eedf9e4-2844-4eb7-a904-fb1293c5269d","system_id":"levelo_inurba_marseille","lat":43.29525,"lon":5.39399,"is_reserved":false,"is_disabled":false,"rental_uris":{"android":"levelo://app?vid=7eedf9e4-2844-4eb7-a904-fb1293c5269d","ios":"levelo://app?vid=7eedf9e4-2844-4eb7-a904-fb1293c5269d"},"vehicle_type_id":"4","last_reported":1742400703,"current_range_meters":11600,"station_id":"ce4bh292rcd13ifvqdf0","pricing_plan_id":"cebpf4jnsgd1na2vs0mg"},{"bike_id":"3bbfa2b1-9e55-4858-baed-81eb0c554ec6","system_id":"levelo_inurba_marseille","lat":43.26566,"lon":5.3729,"is_reserved":false,"is_disabled":false,"rental_uris":{"android":"levelo://app?vid=3bbfa2b1-9e55-4858-baed-81eb0c554ec6","ios":"levelo://app?vid=3bbfa2b1-9e55-4858-baed-81eb0c554ec6"},"vehicle_type_id":"4","last_reported":1742400703,"current_range_meters":11600,"station_id":"ce4bhg12rcd13ifvqf70","pricing_plan_id":"cebpf4jnsgd1na2vs0mg"},{"bike_id":"38700e88-0eed-4189-a7cd-49878612c994","system_id":"levelo_inurba_marseille","lat":43.31557,"lon":5.38914,"is_reserved":false,"is_disabled":false,"rental_uris":{"android":"levelo://app?vid=38700e88-0eed-4189-a7cd-49878612c994","ios":"levelo://app?vid=38700e88-0eed-4189-a7cd-49878612c994"},"vehicle_type_id":"4","last_reported":1742400703,"current_range_meters":11600,"station_id":"","pricing_plan_id":"cebpf4jnsgd1na2vs0mg"},{"bike_id":"9d26c008-8ec1-4269-9cd2-f45774f03ccb","system_id":"levelo_inurba_marseille","lat":43.27955,"lon":5.37945,"is_reserved":false,"is_disabled":false,"rental_uris":{"android":"levelo://app?vid=9d26c008-8ec1-4269-9cd2-f45774f03ccb","ios":"levelo://app?vid=9d26c008-8ec1-4269-9cd2-f45774f03ccb"},"vehicle_type_id":"4","last_reported":1742400703,"current_range_meters":11600,"station_id":"","pricing_plan_id":"cebpf4jnsgd1na2vs0mg"},{"bike_id":"0d6bb2cb-1340-46f1-970f-eef0691d43d5","system_id":"levelo_inurba_marseille","lat":43.28621,"lon":5.35103,"is_reserved":false,"is_disabled":false,"rental_uris":{"android":"levelo://app?vid=0d6bb2cb-1340-46f1-970f-eef0691d43d5","ios":"levelo://app?vid=0d6bb2cb-1340-46f1-970f-eef0691d43d5"},"vehicle_type_id":"4","last_reported":1742400703,"current_range_meters":12000,"station_id":"ce4bhch2rcd13ifvqeug","pricing_plan_id":"cebpf4jnsgd1na2vs0mg"},{"bike_id":"234ecabe-d17c-46ff-ac1e-1ec22f977e8d","system_id":"levelo_inurba_marseille","lat":43.2755,"lon":5.38432,"is_reserved":false,"is_disabled":false,"rental_uris":{"android":"levelo://app?vid=234ecabe-d17c-46ff-ac1e-1ec22f977e8d","ios":"levelo://app?vid=234ecabe-d17c-46ff-ac1e-1ec22f977e8d"},"vehicle_type_id":"4","last_reported":1742400703,"current_range_meters":11600,"station_id":"ce4bhh92rcd13ifvqfi0","pricing_plan_id":"cebpf4jnsgd1na2vs0mg"},{"bike_id":"daec0be6-00ee-42fc-bfd6-a5ef8456b0e8","system_id":"levelo_inurba_marseille","lat":43.30295,"lon":5.36914,"is_reserved":false,"is_disabled":false,"rental_uris":{"android":"levelo://app?vid=daec0be6-00ee-42fc-bfd6-a5ef8456b0e8","ios":"levelo://app?vid=daec0be6-00ee-42fc-bfd6-a5ef8456b0e8"},"vehicle_type_id":"4","last_reported":1742400703,"current_range_meters":12000,"station_id":"ce4bgqh2rcd13ifvqc5g","pricing_plan_id":"cebpf4jnsgd1na2vs0mg"},{"bike_id":"fad317af-623d-492b-9be9-2167ca1b984d","system_id":"levelo_inurba_marseille","lat":43.30432,"lon":5.39747,"is_reserved":false,"is_disabled":false,"rental_uris":{"android":"levelo://app?vid=fad317af-623d-492b-9be9-2167ca1b984d","ios":"levelo://app?vid=fad317af-623d-492b-9be9-2167ca1b984d"},"vehicle_type_id":"4","last_reported":1742400703,"current_range_meters":12000,"station_id":"ce4bh092rcd13ifvqd20","pricing_plan_id":"cebpf4jnsgd1na2vs0mg"},{"bike_id":"176d2e0b-da43-4b98-b92e-b45d4ab12b2f","system_id":"levelo_inurba_marseille","lat":43.30216,"lon":5.38442,"is_reserved":false,"is_disabled":false,"rental_uris":{"android":"levelo://app?vid=176d2e0b-da43-4b98-b92e-b45d4ab12b2f","ios":"levelo://app?vid=176d2e0b-da43-4b98-b92e-b45d4ab12b2f"},"vehicle_type_id":"4","last_reported":1742400703,"current_range_meters":12000,"station_id":"","pricing_plan_id":"cebpf4jnsgd1na2vs0mg"},{"bike_id":"01f1211d-3605-4232-9cf2-d792e6257903","system_id":"levelo_inurba_marseille","lat":43.3112,"lon":5.37761,"is_reserved":false,"is_disabled":false,"rental_uris":{"android":"levelo://app?vid=01f1211d-3605-4232-9cf2-d792e6257903","ios":"levelo://app?vid=01f1211d-3605-4232-9cf2-d792e6257903"},"vehicle_type_id":"4","last_reported":1742400703,"current_range_meters":12400,"station_id":"ce4bgt92rcd13ifvqcg0","pricing_plan_id":"cebpf4jnsgd1na2vs0mg"},{"bike_id":"93cb27a6-0805-4f13-8709-6ca3e49a251d","system_id":"levelo_inurba_marseille","lat":43.28457,"lon":5.35888,"is_reserved":false,"is_disabled":false,"rental_uris":{"android":"levelo://app?vid=93cb27a6-0805-4f13-8709-6ca3e49a251d","ios":"levelo://app?vid=93cb27a6-0805-4f13-8709-6ca3e49a251d"},"vehicle_type_id":"4","last_reported":1742400703,"current_range_meters":12000,"station_id":"ce4bhah2rcd13ifvqei0","pricing_plan_id":"cebpf4jnsgd1na2vs0mg"},{"bike_id":"120b4245-36a3-45c5-a6cd-5fe584cb6889","system_id":"levelo_inurba_marseille","lat":43.29979,"lon":5.38497,"is_reserved":false,"is_disabled":false,"rental_uris":{"android":"levelo://app?vid=120b4245-36a3-45c5-a6cd-5fe584cb6889","ios":"levelo://app?vid=120b4245-36a3-45c5-a6cd-5fe584cb6889"},"vehicle_type_id":"4","last_reported":1742400703,"current_range_meters":12400,"station_id":"ce4bgj92rcd13ifvqbd0","pricing_plan_id":"cebpf4jnsgd1na2vs0mg"},{"bike_id":"2841284f-de3f-4cd5-a5a2-d8c36e4314ed","system_id":"levelo_inurba_marseille","lat":43.28937,"lon":5.36638,"is_reserved":false,"is_disabled":false,"rental_uris":{"android":"levelo://app?vid=2841284f-de3f-4cd5-a5a2-d8c36e4314ed","ios":"levelo://app?vid=2841284f-de3f-4cd5-a5a2-d8c36e4314ed"},"vehicle_type_id":"4","last_reported":1742400703,"current_range_meters":12400,"station_id":"ce4bhap2rcd13ifvqek0","pricing_plan_id":"cebpf4jnsgd1na2vs0mg"},{"bike_id":"0d847fbd-0f2a-468b-8e52-023c28901252","system_id":"levelo_inurba_marseille","lat":43.31122,"lon":5.37757,"is_reserved":false,"is_disabled":false,"rental_uris":{"android":"levelo://app?vid=0d847fbd-0f2a-468b-8e52-023c28901252","ios":"levelo://app?vid=0d847fbd-0f2a-468b-8e52-023c28901252"},"vehicle_type_id":"4","last_reported":1742400703,"current_range_meters":12400,"station_id":"ce4bgt92rcd13ifvqcg0","pricing_plan_id":"cebpf4jnsgd1na2vs0mg"},{"bike_id":"c4e7dd83-32e6-4685-98d4-24d42d551d52","system_id":"levelo_inurba_marseille","lat":43.29576,"lon":5.39991,"is_reserved":false,"is_disabled":false,"rental_uris":{"android":"levelo://app?vid=c4e7dd83-32e6-4685-98d4-24d42d551d52","ios":"levelo://app?vid=c4e7dd83-32e6-4685-98d4-24d42d551d52"},"vehicle_type_id":"4","last_reported":1742400703,"current_range_meters":12400,"station_id":"ce4bh312rcd13ifvqdj0","pricing_plan_id":"cebpf4jnsgd1na2vs0mg"},{"bike_id":"a76e350c-5e21-47c6-b5dd-09bc1a58b207","system_id":"levelo_inurba_marseille","lat":43.279427,"lon":5.410483,"is_reserved":false,"is_disabled":false,"rental_uris":{"android":"levelo://app?vid=a76e350c-5e21-47c6-b5dd-09bc1a58b207","ios":"levelo://app?vid=a76e350c-5e21-47c6-b5dd-09bc1a58b207"},"vehicle_type_id":"4","last_reported":1742400703,"current_range_meters":12400,"station_id":"ce4bgt92rcd13ifvqcf0","pricing_plan_id":"cebpf4jnsgd1na2vs0mg"},{"bike_id":"e67f5f80-61e4-4899-8da2-3936308672af","system_id":"levelo_inurba_marseille","lat":43.26216,"lon":5.37444,"is_reserved":false,"is_disabled":false,"rental_uris":{"android":"levelo://app?vid=e67f5f80-61e4-4899-8da2-3936308672af","ios":"levelo://app?vid=e67f5f80-61e4-4899-8da2-3936308672af"},"vehicle_type_id":"4","last_reported":1742400703,"current_range_meters":12400,"station_id":"ce4bhgp2rcd13ifvqfc0","pricing_plan_id":"cebpf4jnsgd1na2vs0mg"},{"bike_id":"7c23dcb0-31a4-457d-8cd5-05a913c017d4","system_id":"levelo_inurba_marseille","lat":43.33041,"lon":5.39035,"is_reserved":false,"is_disabled":false,"rental_uris":{"android":"levelo://app?vid=7c23dcb0-31a4-457d-8cd5-05a913c017d4","ios":"levelo://app?vid=7c23dcb0-31a4-457d-8cd5-05a913c017d4"},"vehicle_type_id":"4","last_reported":1742400703,"current_range_meters":12400,"station_id":"ce4bhr92rcd13ifvqhrg","pricing_plan_id":"cebpf4jnsgd1na2vs0mg"},{"bike_id":"9a407e55-d314-42fc-8c32-c5b5dcba6239","system_id":"levelo_inurba_marseille","lat":43.262319,"lon":5.404538,"is_reserved":false,"is_disabled":false,"rental_uris":{"android":"levelo://app?vid=9a407e55-d314-42fc-8c32-c5b5dcba6239","ios":"levelo://app?vid=9a407e55-d314-42fc-8c32-c5b5dcba6239"},"vehicle_type_id":"4","last_reported":1742400703,"current_range_meters":12800,"station_id":"ce4bhmh2rcd13ifvqgmg","pricing_plan_id":"cebpf4jnsgd1na2vs0mg"},{"bike_id":"934ec32b-b6dd-4d66-bd2c-48956c0ab1fb","system_id":"levelo_inurba_marseille","lat":43.28079,"lon":5.39648,"is_reserved":false,"is_disabled":false,"rental_uris":{"android":"levelo://app?vid=934ec32b-b6dd-4d66-bd2c-48956c0ab1fb","ios":"levelo://app?vid=934ec32b-b6dd-4d66-bd2c-48956c0ab1fb"},"vehicle_type_id":"4","last_reported":1742400703,"current_range_meters":12800,"station_id":"ce4bho12rcd13ifvqh2g","pricing_plan_id":"cebpf4jnsgd1na2vs0mg"},{"bike_id":"3d6e5bb2-49a5-4ae9-ac7c-7c3250491a49","system_id":"levelo_inurba_marseille","lat":43.28844,"lon":5.35908,"is_reserved":false,"is_disabled":false,"rental_uris":{"android":"levelo://app?vid=3d6e5bb2-49a5-4ae9-ac7c-7c3250491a49","ios":"levelo://app?vid=3d6e5bb2-49a5-4ae9-ac7c-7c3250491a49"},"vehicle_type_id":"4","last_reported":1742400703,"current_range_meters":12800,"station_id":"","pricing_plan_id":"cebpf4jnsgd1na2vs0mg"},{"bike_id":"471b8c1a-1a85-4080-b533-fb41f3dbfd81","system_id":"levelo_inurba_marseille","lat":43.23192,"lon":5.35558,"is_reserved":false,"is_disabled":false,"rental_uris":{"android":"levelo://app?vid=471b8c1a-1a85-4080-b533-fb41f3dbfd81","ios":"levelo://app?vid=471b8c1a-1a85-4080-b533-fb41f3dbfd81"},"vehicle_type_id":"4","last_reported":1742400703,"current_range_meters":12800,"station_id":"ce4bhu92rcd13ifvqi70","pricing_plan_id":"cebpf4jnsgd1na2vs0mg"},{"bike_id":"671210b1-9e8f-4893-953f-985ab8b97e34","system_id":"levelo_inurba_marseille","lat":43.32092,"lon":5.36767,"is_reserved":false,"is_disabled":false,"rental_uris":{"android":"levelo://app?vid=671210b1-9e8f-4893-953f-985ab8b97e34","ios":"levelo://app?vid=671210b1-9e8f-4893-953f-985ab8b97e34"},"vehicle_type_id":"4","last_reported":1742400703,"current_range_meters":12800,"station_id":"ce4bhrh2rcd13ifvqhug","pricing_plan_id":"cebpf4jnsgd1na2vs0mg"},{"bike_id":"477b3b7f-28c2-49ea-8f4e-2b4d1861b94d","system_id":"levelo_inurba_marseille","lat":43.2558,"lon":5.38233,"is_reserved":false,"is_disabled":false,"rental_uris":{"android":"levelo://app?vid=477b3b7f-28c2-49ea-8f4e-2b4d1861b94d","ios":"levelo://app?vid=477b3b7f-28c2-49ea-8f4e-2b4d1861b94d"},"vehicle_type_id":"4","last_reported":1742400703,"current_range_meters":12800,"station_id":"ce4bhih2rcd13ifvqfs0","pricing_plan_id":"cebpf4jnsgd1na2vs0mg"},{"bike_id":"cf05a194-6fba-4fdf-b62f-8195f1a28222","system_id":"levelo_inurba_marseille","lat":43.25579,"lon":5.38224,"is_reserved":false,"is_disabled":false,"rental_uris":{"android":"levelo://app?vid=cf05a194-6fba-4fdf-b62f-8195f1a28222","ios":"levelo://app?vid=cf05a194-6fba-4fdf-b62f-8195f1a28222"},"vehicle_type_id":"4","last_reported":1742400703,"current_range_meters":12800,"station_id":"ce4bhih2rcd13ifvqfs0","pricing_plan_id":"cebpf4jnsgd1na2vs0mg"},{"bike_id":"ed63c00c-3437-43c3-bbae-0c61cfd1d89a","system_id":"levelo_inurba_marseille","lat":43.29415,"lon":5.38633,"is_reserved":false,"is_disabled":false,"rental_uris":{"android":"levelo://app?vid=ed63c00c-3437-43c3-bbae-0c61cfd1d89a","ios":"levelo://app?vid=ed63c00c-3437-43c3-bbae-0c61cfd1d89a"},"vehicle_type_id":"4","last_reported":1742400703,"current_range_meters":12800,"station_id":"ce4bh2h2rcd13ifvqdh0","pricing_plan_id":"cebpf4jnsgd1na2vs0mg"},{"bike_id":"6c7e51d2-e2f9-4032-b4ac-95afc513e72e","system_id":"levelo_inurba_marseille","lat":43.27366,"lon":5.36244,"is_reserved":false,"is_disabled":false,"rental_uris":{"android":"levelo://app?vid=6c7e51d2-e2f9-4032-b4ac-95afc513e72e","ios":"levelo://app?vid=6c7e51d2-e2f9-4032-b4ac-95afc513e72e"},"vehicle_type_id":"4","last_reported":1742400703,"current_range_meters":13600,"station_id":"ce4bhbh2rcd13ifvqeo0","pricing_plan_id":"cebpf4jnsgd1na2vs0mg"},{"bike_id":"0af285be-0294-4c23-9728-cedd0c1ca6b2","system_id":"levelo_inurba_marseille","lat":43.23189,"lon":5.39996,"is_reserved":false,"is_disabled":false,"rental_uris":{"android":"levelo://app?vid=0af285be-0294-4c23-9728-cedd0c1ca6b2","ios":"levelo://app?vid=0af285be-0294-4c23-9728-cedd0c1ca6b2"},"vehicle_type_id":"4","last_reported":1742400703,"current_range_meters":13600,"station_id":"ce4bhn12rcd13ifvqgqg","pricing_plan_id":"cebpf4jnsgd1na2vs0mg"},{"bike_id":"815d7014-c6fe-4564-82ce-d8b51f90d2f6","system_id":"levelo_inurba_marseille","lat":43.33771,"lon":5.39163,"is_reserved":false,"is_disabled":false,"rental_uris":{"android":"levelo://app?vid=815d7014-c6fe-4564-82ce-d8b51f90d2f6","ios":"levelo://app?vid=815d7014-c6fe-4564-82ce-d8b51f90d2f6"},"vehicle_type_id":"4","last_reported":1742400703,"current_range_meters":13600,"station_id":"ce4bhr92rcd13ifvqhsg","pricing_plan_id":"cebpf4jnsgd1na2vs0mg"},{"bike_id":"c405ab68-223f-47db-99ed-c18c10d1f19e","system_id":"levelo_inurba_marseille","lat":43.28632,"lon":5.35107,"is_reserved":false,"is_disabled":false,"rental_uris":{"android":"levelo://app?vid=c405ab68-223f-47db-99ed-c18c10d1f19e","ios":"levelo://app?vid=c405ab68-223f-47db-99ed-c18c10d1f19e"},"vehicle_type_id":"4","last_reported":1742400703,"current_range_meters":13600,"station_id":"ce4bhch2rcd13ifvqeug","pricing_plan_id":"cebpf4jnsgd1na2vs0mg"},{"bike_id":"52802b63-8223-4569-bd44-fa9b675f74c2","system_id":"levelo_inurba_marseille","lat":43.29033,"lon":5.3591,"is_reserved":false,"is_disabled":false,"rental_uris":{"android":"levelo://app?vid=52802b63-8223-4569-bd44-fa9b675f74c2","ios":"levelo://app?vid=52802b63-8223-4569-bd44-fa9b675f74c2"},"vehicle_type_id":"4","last_reported":1742400703,"current_range_meters":13600,"station_id":"ce4bha92rcd13ifvqeg0","pricing_plan_id":"cebpf4jnsgd1na2vs0mg"},{"bike_id":"d7645557-54c5-44ed-8c44-41e433a350da","system_id":"levelo_inurba_marseille","lat":43.29481,"lon":5.35568,"is_reserved":false,"is_disabled":false,"rental_uris":{"android":"levelo://app?vid=d7645557-54c5-44ed-8c44-41e433a350da","ios":"levelo://app?vid=d7645557-54c5-44ed-8c44-41e433a350da"},"vehicle_type_id":"4","last_reported":1742400703,"current_range_meters":13600,"station_id":"","pricing_plan_id":"cebpf4jnsgd1na2vs0mg"},{"bike_id":"50052a34-cd4d-455e-89a2-d030d8c6c1ad","system_id":"levelo_inurba_marseille","lat":43.24129,"lon":5.38899,"is_reserved":false,"is_disabled":false,"rental_uris":{"android":"levelo://app?vid=50052a34-cd4d-455e-89a2-d030d8c6c1ad","ios":"levelo://app?vid=50052a34-cd4d-455e-89a2-d030d8c6c1ad"},"vehicle_type_id":"4","last_reported":1742400703,"current_range_meters":14000,"station_id":"","pricing_plan_id":"cebpf4jnsgd1na2vs0mg"},{"bike_id":"e370d722-9f1c-4441-bf6e-59d0c3f4db68","system_id":"levelo_inurba_marseille","lat":43.25587,"lon":5.38237,"is_reserved":false,"is_disabled":false,"rental_uris":{"android":"levelo://app?vid=e370d722-9f1c-4441-bf6e-59d0c3f4db68","ios":"levelo://app?vid=e370d722-9f1c-4441-bf6e-59d0c3f4db68"},"vehicle_type_id":"4","last_reported":1742400703,"current_range_meters":14000,"station_id":"ce4bhih2rcd13ifvqfs0","pricing_plan_id":"cebpf4jnsgd1na2vs0mg"},{"bike_id":"017dbb2f-7efc-4e62-ac50-99dd902efb38","system_id":"levelo_inurba_marseille","lat":43.28927,"lon":5.36637,"is_reserved":false,"is_disabled":false,"rental_uris":{"android":"levelo://app?vid=017dbb2f-7efc-4e62-ac50-99dd902efb38","ios":"levelo://app?vid=017dbb2f-7efc-4e62-ac50-99dd902efb38"},"vehicle_type_id":"4","last_reported":1742400703,"current_range_meters":14000,"station_id":"ce4bhap2rcd13ifvqek0","pricing_plan_id":"cebpf4jnsgd1na2vs0mg"},{"bike_id":"6883c811-8746-429a-bd41-848ecf4dd19e","system_id":"levelo_inurba_marseille","lat":43.23514,"lon":5.37749,"is_reserved":false,"is_disabled":false,"rental_uris":{"android":"levelo://app?vid=6883c811-8746-429a-bd41-848ecf4dd19e","ios":"levelo://app?vid=6883c811-8746-429a-bd41-848ecf4dd19e"},"vehicle_type_id":"4","last_reported":1742400703,"current_range_meters":14000,"station_id":"","pricing_plan_id":"cebpf4jnsgd1na2vs0mg"},{"bike_id":"a8b8dae1-87ef-4f8a-a2c8-fe9fd9bf0f77","system_id":"levelo_inurba_marseille","lat":43.23515,"lon":5.37753,"is_reserved":false,"is_disabled":false,"rental_uris":{"android":"levelo://app?vid=a8b8dae1-87ef-4f8a-a2c8-fe9fd9bf0f77","ios":"levelo://app?vid=a8b8dae1-87ef-4f8a-a2c8-fe9fd9bf0f77"},"vehicle_type_id":"4","last_reported":1742400703,"current_range_meters":14400,"station_id":"","pricing_plan_id":"cebpf4jnsgd1na2vs0mg"},{"bike_id":"884f3629-ae1f-4f3f-8af8-9bf2e5a3bf27","system_id":"levelo_inurba_marseille","lat":43.29571,"lon":5.3998,"is_reserved":false,"is_disabled":false,"rental_uris":{"android":"levelo://app?vid=884f3629-ae1f-4f3f-8af8-9bf2e5a3bf27","ios":"levelo://app?vid=884f3629-ae1f-4f3f-8af8-9bf2e5a3bf27"},"vehicle_type_id":"4","last_reported":1742400703,"current_range_meters":14400,"station_id":"ce4bh312rcd13ifvqdj0","pricing_plan_id":"cebpf4jnsgd1na2vs0mg"},{"bike_id":"973c0ebb-6773-40e0-972a-ac80c64d7bd2","system_id":"levelo_inurba_marseille","lat":43.26488,"lon":5.39542,"is_reserved":false,"is_disabled":false,"rental_uris":{"android":"levelo://app?vid=973c0ebb-6773-40e0-972a-ac80c64d7bd2","ios":"levelo://app?vid=973c0ebb-6773-40e0-972a-ac80c64d7bd2"},"vehicle_type_id":"4","last_reported":1742400703,"current_range_meters":14400,"station_id":"ce4bhi12rcd13ifvqfq0","pricing_plan_id":"cebpf4jnsgd1na2vs0mg"},{"bike_id":"548a41b9-a50b-410c-8341-b8acc31c1d22","system_id":"levelo_inurba_marseille","lat":43.290136,"lon":5.378286,"is_reserved":false,"is_disabled":false,"rental_uris":{"android":"levelo://app?vid=548a41b9-a50b-410c-8341-b8acc31c1d22","ios":"levelo://app?vid=548a41b9-a50b-410c-8341-b8acc31c1d22"},"vehicle_type_id":"4","last_reported":1742400703,"current_range_meters":14400,"station_id":"ce4bh9p2rcd13ifvqed0","pricing_plan_id":"cebpf4jnsgd1na2vs0mg"},{"bike_id":"8c9bf8c2-afc1-4f51-b54c-b326aeda2f86","system_id":"levelo_inurba_marseille","lat":43.30593,"lon":5.3936,"is_reserved":false,"is_disabled":false,"rental_uris":{"android":"levelo://app?vid=8c9bf8c2-afc1-4f51-b54c-b326aeda2f86","ios":"levelo://app?vid=8c9bf8c2-afc1-4f51-b54c-b326aeda2f86"},"vehicle_type_id":"4","last_reported":1742400703,"current_range_meters":14400,"station_id":"ce4bh0p2rcd13ifvqd80","pricing_plan_id":"cebpf4jnsgd1na2vs0mg"},{"bike_id":"a12728e3-977b-4191-ae36-d2e6881774f4","system_id":"levelo_inurba_marseille","lat":43.284671,"lon":5.358816,"is_reserved":false,"is_disabled":false,"rental_uris":{"android":"levelo://app?vid=a12728e3-977b-4191-ae36-d2e6881774f4","ios":"levelo://app?vid=a12728e3-977b-4191-ae36-d2e6881774f4"},"vehicle_type_id":"4","last_reported":1742400703,"current_range_meters":14000,"station_id":"ce4bgi12rcd13ifvqb70","pricing_plan_id":"cebpf4jnsgd1na2vs0mg"},{"bike_id":"ad3afda0-1456-4818-9649-b6a9ac7e535a","system_id":"levelo_inurba_marseille","lat":43.29365,"lon":5.37849,"is_reserved":false,"is_disabled":false,"rental_uris":{"android":"levelo://app?vid=ad3afda0-1456-4818-9649-b6a9ac7e535a","ios":"levelo://app?vid=ad3afda0-1456-4818-9649-b6a9ac7e535a"},"vehicle_type_id":"4","last_reported":1742400703,"current_range_meters":14000,"station_id":"ce4bgjh2rcd13ifvqbf0","pricing_plan_id":"cebpf4jnsgd1na2vs0mg"},{"bike_id":"9c0a63bd-9ef3-43c4-baab-c06e2953cc79","system_id":"levelo_inurba_marseille","lat":43.23965,"lon":5.36628,"is_reserved":false,"is_disabled":false,"rental_uris":{"android":"levelo://app?vid=9c0a63bd-9ef3-43c4-baab-c06e2953cc79","ios":"levelo://app?vid=9c0a63bd-9ef3-43c4-baab-c06e2953cc79"},"vehicle_type_id":"4","last_reported":1742400703,"current_range_meters":14400,"station_id":"ce4bhi12rcd13ifvqfp0","pricing_plan_id":"cebpf4jnsgd1na2vs0mg"},{"bike_id":"eb808616-ead0-44ce-88f3-5093706f7230","system_id":"levelo_inurba_marseille","lat":43.29479,"lon":5.37873,"is_reserved":false,"is_disabled":false,"rental_uris":{"android":"levelo://app?vid=eb808616-ead0-44ce-88f3-5093706f7230","ios":"levelo://app?vid=eb808616-ead0-44ce-88f3-5093706f7230"},"vehicle_type_id":"4","last_reported":1742400703,"current_range_meters":14800,"station_id":"","pricing_plan_id":"cebpf4jnsgd1na2vs0mg"},{"bike_id":"2ce42b76-7b7f-4c73-b00c-00e4b07e529b","system_id":"levelo_inurba_marseille","lat":43.2657,"lon":5.39013,"is_reserved":false,"is_disabled":false,"rental_uris":{"android":"levelo://app?vid=2ce42b76-7b7f-4c73-b00c-00e4b07e529b","ios":"levelo://app?vid=2ce42b76-7b7f-4c73-b00c-00e4b07e529b"},"vehicle_type_id":"4","last_reported":1742400703,"current_range_meters":14800,"station_id":"ce4bhe12rcd13ifvqf30","pricing_plan_id":"cebpf4jnsgd1na2vs0mg"},{"bike_id":"03884f18-ee42-4472-9e46-077b1c697977","system_id":"levelo_inurba_marseille","lat":43.251,"lon":5.40329,"is_reserved":false,"is_disabled":false,"rental_uris":{"android":"levelo://app?vid=03884f18-ee42-4472-9e46-077b1c697977","ios":"levelo://app?vid=03884f18-ee42-4472-9e46-077b1c697977"},"vehicle_type_id":"4","last_reported":1742400703,"current_range_meters":14800,"station_id":"ce4bhlh2rcd13ifvqgig","pricing_plan_id":"cebpf4jnsgd1na2vs0mg"},{"bike_id":"e5aa24d2-d64a-4879-9c13-ecb1444065ef","system_id":"levelo_inurba_marseille","lat":43.27783,"lon":5.40744,"is_reserved":false,"is_disabled":false,"rental_uris":{"android":"levelo://app?vid=e5aa24d2-d64a-4879-9c13-ecb1444065ef","ios":"levelo://app?vid=e5aa24d2-d64a-4879-9c13-ecb1444065ef"},"vehicle_type_id":"4","last_reported":1742400703,"current_range_meters":14800,"station_id":"ce4bhnh2rcd13ifvqgtg","pricing_plan_id":"cebpf4jnsgd1na2vs0mg"},{"bike_id":"4fcd06ae-4851-4c19-aff2-bf420ac261fc","system_id":"levelo_inurba_marseille","lat":43.28357,"lon":5.38645,"is_reserved":false,"is_disabled":true,"rental_uris":{"android":"levelo://app?vid=4fcd06ae-4851-4c19-aff2-bf420ac261fc","ios":"levelo://app?vid=4fcd06ae-4851-4c19-aff2-bf420ac261fc"},"vehicle_type_id":"4","last_reported":1742400703,"current_range_meters":14800,"station_id":"ce4bh492rcd13ifvqdvg","pricing_plan_id":"cebpf4jnsgd1na2vs0mg"},{"bike_id":"fd93ac1b-c8a5-44e1-a82c-4cf82ae799dd","system_id":"levelo_inurba_marseille","lat":43.27581,"lon":5.38419,"is_reserved":false,"is_disabled":false,"rental_uris":{"android":"levelo://app?vid=fd93ac1b-c8a5-44e1-a82c-4cf82ae799dd","ios":"levelo://app?vid=fd93ac1b-c8a5-44e1-a82c-4cf82ae799dd"},"vehicle_type_id":"4","last_reported":1742400703,"current_range_meters":15200,"station_id":"ce4bhh92rcd13ifvqfi0","pricing_plan_id":"cebpf4jnsgd1na2vs0mg"},{"bike_id":"95539059-7b67-4da9-9873-3009f64b1b92","system_id":"levelo_inurba_marseille","lat":43.28156,"lon":5.42644,"is_reserved":false,"is_disabled":false,"rental_uris":{"android":"levelo://app?vid=95539059-7b67-4da9-9873-3009f64b1b92","ios":"levelo://app?vid=95539059-7b67-4da9-9873-3009f64b1b92"},"vehicle_type_id":"4","last_reported":1742400703,"current_range_meters":14800,"station_id":"ce4bhnh2rcd13ifvqgug","pricing_plan_id":"cebpf4jnsgd1na2vs0mg"},{"bike_id":"07e5f3fd-2da2-4c71-bccd-96a631bd8fbf","system_id":"levelo_inurba_marseille","lat":43.30132,"lon":5.3988,"is_reserved":false,"is_disabled":false,"rental_uris":{"android":"levelo://app?vid=07e5f3fd-2da2-4c71-bccd-96a631bd8fbf","ios":"levelo://app?vid=07e5f3fd-2da2-4c71-bccd-96a631bd8fbf"},"vehicle_type_id":"4","last_reported":1742400703,"current_range_meters":15200,"station_id":"ce4bh0h2rcd13ifvqd40","pricing_plan_id":"cebpf4jnsgd1na2vs0mg"},{"bike_id":"0d622f03-de3b-43e3-9dea-e33938f50e14","system_id":"levelo_inurba_marseille","lat":43.25499,"lon":5.3765,"is_reserved":false,"is_disabled":false,"rental_uris":{"android":"levelo://app?vid=0d622f03-de3b-43e3-9dea-e33938f50e14","ios":"levelo://app?vid=0d622f03-de3b-43e3-9dea-e33938f50e14"},"vehicle_type_id":"4","last_reported":1742400703,"current_range_meters":15200,"station_id":"ce4bhh12rcd13ifvqff0","pricing_plan_id":"cebpf4jnsgd1na2vs0mg"},{"bike_id":"92d89544-9c44-471e-8653-f28a9f3ce9e0","system_id":"levelo_inurba_marseille","lat":43.30554,"lon":5.36528,"is_reserved":false,"is_disabled":false,"rental_uris":{"android":"levelo://app?vid=92d89544-9c44-471e-8653-f28a9f3ce9e0","ios":"levelo://app?vid=92d89544-9c44-471e-8653-f28a9f3ce9e0"},"vehicle_type_id":"4","last_reported":1742400703,"current_range_meters":16000,"station_id":"ce4bgs12rcd13ifvqcag","pricing_plan_id":"cebpf4jnsgd1na2vs0mg"},{"bike_id":"cc7cee07-84f3-4b9a-81b0-5cc5f945f8dd","system_id":"levelo_inurba_marseille","lat":43.24703,"lon":5.38116,"is_reserved":false,"is_disabled":false,"rental_uris":{"android":"levelo://app?vid=cc7cee07-84f3-4b9a-81b0-5cc5f945f8dd","ios":"levelo://app?vid=cc7cee07-84f3-4b9a-81b0-5cc5f945f8dd"},"vehicle_type_id":"4","last_reported":1742400703,"current_range_meters":16000,"station_id":"ce4bhih2rcd13ifvqfr0","pricing_plan_id":"cebpf4jnsgd1na2vs0mg"},{"bike_id":"6d7eebad-6a0f-4574-b003-6396a105759e","system_id":"levelo_inurba_marseille","lat":43.28949,"lon":5.36408,"is_reserved":false,"is_disabled":false,"rental_uris":{"android":"levelo://app?vid=6d7eebad-6a0f-4574-b003-6396a105759e","ios":"levelo://app?vid=6d7eebad-6a0f-4574-b003-6396a105759e"},"vehicle_type_id":"4","last_reported":1742400703,"current_range_meters":16000,"station_id":"ce4bhc92rcd13ifvqetg","pricing_plan_id":"cebpf4jnsgd1na2vs0mg"},{"bike_id":"bc1594f0-f23b-46fa-bccc-f3ff1c68a71d","system_id":"levelo_inurba_marseille","lat":43.25803,"lon":5.39447,"is_reserved":false,"is_disabled":false,"rental_uris":{"android":"levelo://app?vid=bc1594f0-f23b-46fa-bccc-f3ff1c68a71d","ios":"levelo://app?vid=bc1594f0-f23b-46fa-bccc-f3ff1c68a71d"},"vehicle_type_id":"4","last_reported":1742400703,"current_range_meters":16000,"station_id":"ce4bhip2rcd13ifvqft0","pricing_plan_id":"cebpf4jnsgd1na2vs0mg"},{"bike_id":"6299667b-20fb-499d-8972-027be0342fa6","system_id":"levelo_inurba_marseille","lat":43.2407,"lon":5.37764,"is_reserved":false,"is_disabled":false,"rental_uris":{"android":"levelo://app?vid=6299667b-20fb-499d-8972-027be0342fa6","ios":"levelo://app?vid=6299667b-20fb-499d-8972-027be0342fa6"},"vehicle_type_id":"4","last_reported":1742400703,"current_range_meters":16000,"station_id":"ce4bhnp2rcd13ifvqgvg","pricing_plan_id":"cebpf4jnsgd1na2vs0mg"},{"bike_id":"d2e79fe0-b0f2-41b1-abc5-91bd07bdae79","system_id":"levelo_inurba_marseille","lat":43.28624,"lon":5.35111,"is_reserved":false,"is_disabled":false,"rental_uris":{"android":"levelo://app?vid=d2e79fe0-b0f2-41b1-abc5-91bd07bdae79","ios":"levelo://app?vid=d2e79fe0-b0f2-41b1-abc5-91bd07bdae79"},"vehicle_type_id":"4","last_reported":1742400703,"current_range_meters":16000,"station_id":"ce4bhch2rcd13ifvqeug","pricing_plan_id":"cebpf4jnsgd1na2vs0mg"},{"bike_id":"0bbd6796-64b2-4395-8176-d81c11a38448","system_id":"levelo_inurba_marseille","lat":43.29271,"lon":5.36847,"is_reserved":false,"is_disabled":false,"rental_uris":{"android":"levelo://app?vid=0bbd6796-64b2-4395-8176-d81c11a38448","ios":"levelo://app?vid=0bbd6796-64b2-4395-8176-d81c11a38448"},"vehicle_type_id":"4","last_reported":1742400703,"current_range_meters":16000,"station_id":"ce4bhbp2rcd13ifvqesg","pricing_plan_id":"cebpf4jnsgd1na2vs0mg"},{"bike_id":"ee440ce8-a07f-4bfb-92d6-e5d19e273246","system_id":"levelo_inurba_marseille","lat":43.2981,"lon":5.38099,"is_reserved":false,"is_disabled":false,"rental_uris":{"android":"levelo://app?vid=ee440ce8-a07f-4bfb-92d6-e5d19e273246","ios":"levelo://app?vid=ee440ce8-a07f-4bfb-92d6-e5d19e273246"},"vehicle_type_id":"4","last_reported":1742400703,"current_range_meters":16000,"station_id":"ce4bgip2rcd13ifvqbb0","pricing_plan_id":"cebpf4jnsgd1na2vs0mg"},{"bike_id":"b9e4bdd0-024c-4547-9a94-39d0c7923642","system_id":"levelo_inurba_marseille","lat":43.24167,"lon":5.36421,"is_reserved":false,"is_disabled":false,"rental_uris":{"android":"levelo://app?vid=b9e4bdd0-024c-4547-9a94-39d0c7923642","ios":"levelo://app?vid=b9e4bdd0-024c-4547-9a94-39d0c7923642"},"vehicle_type_id":"4","last_reported":1742400703,"current_range_meters":16000,"station_id":"cpo36qri1sfpv3e86is0","pricing_plan_id":"cebpf4jnsgd1na2vs0mg"},{"bike_id":"c68f0ca9-9247-4141-bb94-c1f7f0caf485","system_id":"levelo_inurba_marseille","lat":43.28382,"lon":5.38637,"is_reserved":false,"is_disabled":false,"rental_uris":{"android":"levelo://app?vid=c68f0ca9-9247-4141-bb94-c1f7f0caf485","ios":"levelo://app?vid=c68f0ca9-9247-4141-bb94-c1f7f0caf485"},"vehicle_type_id":"4","last_reported":1742400703,"current_range_meters":16000,"station_id":"ce4bh492rcd13ifvqdvg","pricing_plan_id":"cebpf4jnsgd1na2vs0mg"},{"bike_id":"4c3d83b9-e3c6-4a9f-8161-2467f67f22ae","system_id":"levelo_inurba_marseille","lat":43.27053,"lon":5.40258,"is_reserved":false,"is_disabled":false,"rental_uris":{"android":"levelo://app?vid=4c3d83b9-e3c6-4a9f-8161-2467f67f22ae","ios":"levelo://app?vid=4c3d83b9-e3c6-4a9f-8161-2467f67f22ae"},"vehicle_type_id":"4","last_reported":1742400703,"current_range_meters":16000,"station_id":"ce4bhk92rcd13ifvqgc0","pricing_plan_id":"cebpf4jnsgd1na2vs0mg"},{"bike_id":"34e9e833-314a-4535-9291-5cf90ae1029e","system_id":"levelo_inurba_marseille","lat":43.24176,"lon":5.39738,"is_reserved":false,"is_disabled":false,"rental_uris":{"android":"levelo://app?vid=34e9e833-314a-4535-9291-5cf90ae1029e","ios":"levelo://app?vid=34e9e833-314a-4535-9291-5cf90ae1029e"},"vehicle_type_id":"4","last_reported":1742400703,"current_range_meters":16000,"station_id":"ce4bhn12rcd13ifvqgpg","pricing_plan_id":"cebpf4jnsgd1na2vs0mg"},{"bike_id":"c5bb5dca-1dc9-450e-9a3d-9fa737cf345d","system_id":"levelo_inurba_marseille","lat":43.24638,"lon":5.38887,"is_reserved":false,"is_disabled":false,"rental_uris":{"android":"levelo://app?vid=c5bb5dca-1dc9-450e-9a3d-9fa737cf345d","ios":"levelo://app?vid=c5bb5dca-1dc9-450e-9a3d-9fa737cf345d"},"vehicle_type_id":"4","last_reported":1742400703,"current_range_meters":16000,"station_id":"ce4bhg12rcd13ifvqf60","pricing_plan_id":"cebpf4jnsgd1na2vs0mg"},{"bike_id":"8879e25f-e10f-420b-a3cf-17b5a4037281","system_id":"levelo_inurba_marseille","lat":43.25825,"lon":5.39439,"is_reserved":false,"is_disabled":false,"rental_uris":{"android":"levelo://app?vid=8879e25f-e10f-420b-a3cf-17b5a4037281","ios":"levelo://app?vid=8879e25f-e10f-420b-a3cf-17b5a4037281"},"vehicle_type_id":"4","last_reported":1742400703,"current_range_meters":16000,"station_id":"ce4bhip2rcd13ifvqft0","pricing_plan_id":"cebpf4jnsgd1na2vs0mg"},{"bike_id":"54847f11-7a71-4f5c-8a04-db0ae7840457","system_id":"levelo_inurba_marseille","lat":43.305364,"lon":5.365368,"is_reserved":false,"is_disabled":false,"rental_uris":{"android":"levelo://app?vid=54847f11-7a71-4f5c-8a04-db0ae7840457","ios":"levelo://app?vid=54847f11-7a71-4f5c-8a04-db0ae7840457"},"vehicle_type_id":"4","last_reported":1742400703,"current_range_meters":16000,"station_id":"ce4bgs12rcd13ifvqcag","pricing_plan_id":"cebpf4jnsgd1na2vs0mg"},{"bike_id":"000dcaf6-a4f8-40f7-8b7f-250f02823f99","system_id":"levelo_inurba_marseille","lat":43.23185,"lon":5.43691,"is_reserved":false,"is_disabled":false,"rental_uris":{"android":"levelo://app?vid=000dcaf6-a4f8-40f7-8b7f-250f02823f99","ios":"levelo://app?vid=000dcaf6-a4f8-40f7-8b7f-250f02823f99"},"vehicle_type_id":"4","last_reported":1742400703,"current_range_meters":16000,"station_id":"ce4bhmp2rcd13ifvqgog","pricing_plan_id":"cebpf4jnsgd1na2vs0mg"},{"bike_id":"4431087f-8e21-46c3-9f2a-e76abdbeed9c","system_id":"levelo_inurba_marseille","lat":43.3054,"lon":5.36542,"is_reserved":false,"is_disabled":false,"rental_uris":{"android":"levelo://app?vid=4431087f-8e21-46c3-9f2a-e76abdbeed9c","ios":"levelo://app?vid=4431087f-8e21-46c3-9f2a-e76abdbeed9c"},"vehicle_type_id":"4","last_reported":1742400703,"current_range_meters":16400,"station_id":"ce4bgs12rcd13ifvqcag","pricing_plan_id":"cebpf4jnsgd1na2vs0mg"},{"bike_id":"96c9585d-fa41-4246-a532-0d93974cb906","system_id":"levelo_inurba_marseille","lat":43.27789,"lon":5.4073,"is_reserved":false,"is_disabled":false,"rental_uris":{"android":"levelo://app?vid=96c9585d-fa41-4246-a532-0d93974cb906","ios":"levelo://app?vid=96c9585d-fa41-4246-a532-0d93974cb906"},"vehicle_type_id":"4","last_reported":1742400703,"current_range_meters":16400,"station_id":"ce4bhnh2rcd13ifvqgtg","pricing_plan_id":"cebpf4jnsgd1na2vs0mg"},{"bike_id":"ab79f529-3424-4db0-a79d-477dec2b7ea2","system_id":"levelo_inurba_marseille","lat":43.324775,"lon":5.365788,"is_reserved":false,"is_disabled":false,"rental_uris":{"android":"levelo://app?vid=ab79f529-3424-4db0-a79d-477dec2b7ea2","ios":"levelo://app?vid=ab79f529-3424-4db0-a79d-477dec2b7ea2"},"vehicle_type_id":"4","last_reported":1742400703,"current_range_meters":16400,"station_id":"ce4bhs12rcd13ifvqhvg","pricing_plan_id":"cebpf4jnsgd1na2vs0mg"},{"bike_id":"18ece8dc-37bc-442b-a2c8-7555b9224bea","system_id":"levelo_inurba_marseille","lat":43.25094,"lon":5.39519,"is_reserved":false,"is_disabled":false,"rental_uris":{"android":"levelo://app?vid=18ece8dc-37bc-442b-a2c8-7555b9224bea","ios":"levelo://app?vid=18ece8dc-37bc-442b-a2c8-7555b9224bea"},"vehicle_type_id":"4","last_reported":1742400703,"current_range_meters":16400,"station_id":"ce4bhm12rcd13ifvqgkg","pricing_plan_id":"cebpf4jnsgd1na2vs0mg"},{"bike_id":"2fb77943-2d06-42f1-8a7b-cf59bd14535d","system_id":"levelo_inurba_marseille","lat":43.30932,"lon":5.4015,"is_reserved":false,"is_disabled":false,"rental_uris":{"android":"levelo://app?vid=2fb77943-2d06-42f1-8a7b-cf59bd14535d","ios":"levelo://app?vid=2fb77943-2d06-42f1-8a7b-cf59bd14535d"},"vehicle_type_id":"4","last_reported":1742400703,"current_range_meters":16400,"station_id":"ce4bgvp2rcd13ifvqct0","pricing_plan_id":"cebpf4jnsgd1na2vs0mg"},