{"last_updated":1773751481,"ttl":60,"version":"2.2","data":{"bikes":[{"bike_id":"9f96e3e5-0df4-4f85-8707-d098d0747392","system_id":"levelo_inurba_marseille","lat":43.2535,"lon":5.42167,"is_reserved":false,"is_disabled":false,"rental_uris":{"android":"levelo://app?vid=9f96e3e5-0df4-4f85-8707-d098d0747392","ios":"levelo://app?vid=9f96e3e5-0df4-4f85-8707-d098d0747392"},"vehicle_type_id":"4","last_reported":1773751482,"current_range_meters":2800,"station_id":"st_d2m65c5bi1j21697t3ng","pricing_plan_id":"cebpf4jnsgd1na2vs0mg"},{"bike_id":"95f34e09-1654-4555-afb6-03517e5ce755","system_id":"levelo_inurba_marseille","lat":43.32101,"lon":5.36776,"is_reserved":false,"is_disabled":false,"rental_uris":{"android":"levelo://app?vid=95f34e09-1654-4555-afb6-03517e5ce755","ios":"levelo://app?vid=95f34e09-1654-4555-afb6-03517e5ce755"},"vehicle_type_id":"4","last_reported":1773751482,"current_range_meters":2800,"station_id":"ce4bhrh2rcd13ifvqhug","pricing_plan_id":"cebpf4jnsgd1na2vs0mg"},{"bike_id":"ff6903f8-7d6d-4329-9980-dd36491025a5","system_id":"levelo_inurba_marseille","lat":43.28479,"lon":5.48391,"is_reserved":false,"is_disabled":false,"rental_uris":{"android":"levelo://app?vid=ff6903f8-7d6d-4329-9980-dd36491025a5","ios":"levelo://app?vid=ff6903f8-7d6d-4329-9980-dd36491025a5"},"vehicle_type_id":"4","last_reported":1773751482,"current_range_meters":2800,"station_id":"st_d3svhcjqgbts73a3dn0g","pricing_plan_id":"cebpf4jnsgd1na2vs0mg"},{"bike_id":"c8431d5e-fe62-4c51-a67e-06bd269df984","system_id":"levelo_inurba_marseille","lat":43.33629,"lon":5.37444,"is_reserved":false,"is_disabled":false,"rental_uris":{"android":"levelo://app?vid=c8431d5e-fe62-4c51-a67e-06bd269df984","ios":"levelo://app?vid=c8431d5e-fe62-4c51-a67e-06bd269df984"},"vehicle_type_id":"4","last_reported":1773751482,"current_range_meters":2800,"station_id":"","pricing_plan_id":"cebpf4jnsgd1na2vs0mg"},{"bike_id":"a432a4d1-4399-4385-aef5-46928e8b974f","system_id":"levelo_inurba_marseille","lat":43.281035,"lon":5.378337,"is_reserved":false,"is_disabled":false,"rental_uris":{"android":"levelo://app?vid=a432a4d1-4399-4385-aef5-46928e8b974f","ios":"levelo://app?vid=a432a4d1-4399-4385-aef5-46928e8b974f"},"vehicle_type_id":"4","last_reported":1773751482,"current_range_meters":2800,"station_id":"ce4bha12rcd13ifvqee0","pricing_plan_id":"cebpf4jnsgd1na2vs0mg"},{"bike_id":"6b8e78bd-6bec-42f6-b333-284e028c1d04","system_id":"levelo_inurba_marseille","lat":43.28944,"lon":5.36414,"is_reserved":false,"is_disabled":false,"rental_uris":{"android":"levelo://app?vid=6b8e78bd-6bec-42f6-b333-284e028c1d04","ios":"levelo://app?vid=6b8e78bd-6bec-42f6-b333-284e028c1d04"},"vehicle_type_id":"4","last_reported":1773751482,"current_range_meters":2800,"station_id":"ce4bhc92rcd13ifvqetg","pricing_plan_id":"cebpf4jnsgd1na2vs0mg"},{"bike_id":"367d1ebd-1fe7-4381-bb25-dac6bfe4a266","system_id":"levelo_inurba_marseille","lat":43.25337,"lon":5.42173,"is_reserved":false,"is_disabled":false,"rental_uris":{"android":"levelo://app?vid=367d1ebd-1fe7-4381-bb25-dac6bfe4a266","ios":"levelo://app?vid=367d1ebd-1fe7-4381-bb25-dac6bfe4a266"},"vehicle_type_id":"4","last_reported":1773751482,"current_range_meters":2800,"station_id":"st_d2m65c5bi1j21697t3ng","pricing_plan_id":"cebpf4jnsgd1na2vs0mg"},{"bike_id":"2269efb3-822a-4f71-be08-399a11730291","system_id":"levelo_inurba_marseille","lat":43.2679,"lon":5.39408,"is_reserved":false,"is_disabled":false,"rental_uris":{"android":"levelo://app?vid=2269efb3-822a-4f71-be08-399a11730291","ios":"levelo://app?vid=2269efb3-822a-4f71-be08-399a11730291"},"vehicle_type_id":"4","last_reported":1773751482,"current_range_meters":2800,"station_id":"ce4bhh12rcd13ifvqfg0","pricing_plan_id":"cebpf4jnsgd1na2vs0mg"},{"bike_id":"f241c30b-2b1a-4f86-a532-796da72b8ac2","system_id":"levelo_inurba_marseille","lat":43.21185,"lon":5.35083,"is_reserved":false,"is_disabled":false,"rental_uris":{"android":"levelo://app?vid=f241c30b-2b1a-4f86-a532-796da72b8ac2","ios":"levelo://app?vid=f241c30b-2b1a-4f86-a532-796da72b8ac2"},"vehicle_type_id":"4","last_reported":1773751482,"current_range_meters":2800,"station_id":"st_cvj6sg6p6f1abm77japg","pricing_plan_id":"cebpf4jnsgd1na2vs0mg"},{"bike_id":"585fef78-c7cb-48e0-ba66-24aeb2bffec5","system_id":"levelo_inurba_marseille","lat":43.26697,"lon":5.38282,"is_reserved":false,"is_disabled":false,"rental_uris":{"android":"levelo://app?vid=585fef78-c7cb-48e0-ba66-24aeb2bffec5","ios":"levelo://app?vid=585fef78-c7cb-48e0-ba66-24aeb2bffec5"},"vehicle_type_id":"4","last_reported":1773751482,"current_range_meters":2800,"station_id":"ce4bhg92rcd13ifvqf90","pricing_plan_id":"cebpf4jnsgd1na2vs0mg"},{"bike_id":"41a475e8-8f60-49e5-932c-2037737c2411","system_id":"levelo_inurba_marseille","lat":43.33533,"lon":5.37475,"is_reserved":false,"is_disabled":false,"rental_uris":{"android":"levelo://app?vid=41a475e8-8f60-49e5-932c-2037737c2411","ios":"levelo://app?vid=41a475e8-8f60-49e5-932c-2037737c2411"},"vehicle_type_id":"4","last_reported":1773751482,"current_range_meters":2800,"station_id":"st_d46tts09ee8s73dlu43g","pricing_plan_id":"cebpf4jnsgd1na2vs0mg"},{"bike_id":"11809b0a-813e-423a-a613-252792f9918c","system_id":"levelo_inurba_marseille","lat":43.29205,"lon":5.36066,"is_reserved":false,"is_disabled":true,"rental_uris":{"android":"levelo://app?vid=11809b0a-813e-423a-a613-252792f9918c","ios":"levelo://app?vid=11809b0a-813e-423a-a613-252792f9918c"},"vehicle_type_id":"4","last_reported":1773751482,"current_range_meters":2800,"station_id":"ce4bhbh2rcd13ifvqeqg","pricing_plan_id":"cebpf4jnsgd1na2vs0mg"},{"bike_id":"62d7888f-1c72-4b12-ae9b-10994b363957","system_id":"levelo_inurba_marseille","lat":43.23969,"lon":5.36616,"is_reserved":false,"is_disabled":false,"rental_uris":{"android":"levelo://app?vid=62d7888f-1c72-4b12-ae9b-10994b363957","ios":"levelo://app?vid=62d7888f-1c72-4b12-ae9b-10994b363957"},"vehicle_type_id":"4","last_reported":1773751482,"current_range_meters":3200,"station_id":"ce4bhi12rcd13ifvqfp0","pricing_plan_id":"cebpf4jnsgd1na2vs0mg"},{"bike_id":"a3eb6664-f79f-4fcc-a176-332c8301346f","system_id":"levelo_inurba_marseille","lat":43.28408,"lon":5.34989,"is_reserved":false,"is_disabled":true,"rental_uris":{"android":"levelo://app?vid=a3eb6664-f79f-4fcc-a176-332c8301346f","ios":"levelo://app?vid=a3eb6664-f79f-4fcc-a176-332c8301346f"},"vehicle_type_id":"4","last_reported":1773751482,"current_range_meters":3200,"station_id":"ce4bhbh2rcd13ifvqepg","pricing_plan_id":"cebpf4jnsgd1na2vs0mg"},{"bike_id":"7e4878ae-c376-48c8-ad77-0c9152653552","system_id":"levelo_inurba_marseille","lat":43.2753,"lon":5.41569,"is_reserved":false,"is_disabled":false,"rental_uris":{"android":"levelo://app?vid=7e4878ae-c376-48c8-ad77-0c9152653552","ios":"levelo://app?vid=7e4878ae-c376-48c8-ad77-0c9152653552"},"vehicle_type_id":"4","last_reported":1773751482,"current_range_meters":3200,"station_id":"st_d6im8g6chgec73a5pndg","pricing_plan_id":"cebpf4jnsgd1na2vs0mg"},{"bike_id":"a8261f75-c49a-4d8a-8d78-59cefb23f437","system_id":"levelo_inurba_marseille","lat":43.2988,"lon":5.3624,"is_reserved":false,"is_disabled":false,"rental_uris":{"android":"levelo://app?vid=a8261f75-c49a-4d8a-8d78-59cefb23f437","ios":"levelo://app?vid=a8261f75-c49a-4d8a-8d78-59cefb23f437"},"vehicle_type_id":"4","last_reported":1773751482,"current_range_meters":3200,"station_id":"ce4bgpp2rcd13ifvqc3g","pricing_plan_id":"cebpf4jnsgd1na2vs0mg"},{"bike_id":"e7d20ce8-61ee-4df3-9ba4-585a7648c721","system_id":"levelo_inurba_marseille","lat":43.24641,"lon":5.43137,"is_reserved":false,"is_disabled":false,"rental_uris":{"android":"levelo://app?vid=e7d20ce8-61ee-4df3-9ba4-585a7648c721","ios":"levelo://app?vid=e7d20ce8-61ee-4df3-9ba4-585a7648c721"},"vehicle_type_id":"4","last_reported":1773751482,"current_range_meters":3200,"station_id":"","pricing_plan_id":"cebpf4jnsgd1na2vs0mg"},{"bike_id":"7077099d-bec4-45e6-9cb2-740f7185bcfe","system_id":"levelo_inurba_marseille","lat":43.31022,"lon":5.37152,"is_reserved":false,"is_disabled":false,"rental_uris":{"android":"levelo://app?vid=7077099d-bec4-45e6-9cb2-740f7185bcfe","ios":"levelo://app?vid=7077099d-bec4-45e6-9cb2-740f7185bcfe"},"vehicle_type_id":"4","last_reported":1773751482,"current_range_meters":3200,"station_id":"st_d4kl2rp97mjs73e7tdfg","pricing_plan_id":"cebpf4jnsgd1na2vs0mg"},{"bike_id":"30a282b2-1f42-4438-a7f2-3625f0b053f8","system_id":"levelo_inurba_marseille","lat":43.30803,"lon":5.38157,"is_reserved":false,"is_disabled":false,"rental_uris":{"android":"levelo://app?vid=30a282b2-1f42-4438-a7f2-3625f0b053f8","ios":"levelo://app?vid=30a282b2-1f42-4438-a7f2-3625f0b053f8"},"vehicle_type_id":"4","last_reported":1773751482,"current_range_meters":3200,"station_id":"ce4bgt12rcd13ifvqce0","pricing_plan_id":"cebpf4jnsgd1na2vs0mg"},{"bike_id":"87981ea0-583f-4927-b882-81439ce2cb8d","system_id":"levelo_inurba_marseille","lat":43.30897,"lon":5.37175,"is_reserved":false,"is_disabled":false,"rental_uris":{"android":"levelo://app?vid=87981ea0-583f-4927-b882-81439ce2cb8d","ios":"levelo://app?vid=87981ea0-583f-4927-b882-81439ce2cb8d"},"vehicle_type_id":"4","last_reported":1773751482,"current_range_meters":3200,"station_id":"ce4bguh2rcd13ifvqckg","pricing_plan_id":"cebpf4jnsgd1na2vs0mg"},{"bike_id":"aa04c75e-fb6d-4309-8dc1-3490ff952fba","system_id":"levelo_inurba_marseille","lat":43.29011,"lon":5.35612,"is_reserved":false,"is_disabled":false,"rental_uris":{"android":"levelo://app?vid=aa04c75e-fb6d-4309-8dc1-3490ff952fba","ios":"levelo://app?vid=aa04c75e-fb6d-4309-8dc1-3490ff952fba"},"vehicle_type_id":"4","last_reported":1773751482,"current_range_meters":3200,"station_id":"ce4bhb92rcd13ifvqen0","pricing_plan_id":"cebpf4jnsgd1na2vs0mg"},{"bike_id":"ca5af02f-49f7-48db-a0c5-85c6fd8e11c9","system_id":"levelo_inurba_marseille","lat":43.25038,"lon":5.38879,"is_reserved":false,"is_disabled":true,"rental_uris":{"android":"levelo://app?vid=ca5af02f-49f7-48db-a0c5-85c6fd8e11c9","ios":"levelo://app?vid=ca5af02f-49f7-48db-a0c5-85c6fd8e11c9"},"vehicle_type_id":"4","last_reported":1773751482,"current_range_meters":3200,"station_id":"ce4bhgp2rcd13ifvqfd0","pricing_plan_id":"cebpf4jnsgd1na2vs0mg"},{"bike_id":"7d5e5488-b062-4979-8056-f7926cc5db5b","system_id":"levelo_inurba_marseille","lat":43.28521,"lon":5.48376,"is_reserved":false,"is_disabled":false,"rental_uris":{"android":"levelo://app?vid=7d5e5488-b062-4979-8056-f7926cc5db5b","ios":"levelo://app?vid=7d5e5488-b062-4979-8056-f7926cc5db5b"},"vehicle_type_id":"4","last_reported":1773751482,"current_range_meters":3200,"station_id":"","pricing_plan_id":"cebpf4jnsgd1na2vs0mg"},{"bike_id":"ab8ed3cf-dd65-453b-87ca-077ce7ed25e8","system_id":"levelo_inurba_marseille","lat":43.31887,"lon":5.36811,"is_reserved":false,"is_disabled":false,"rental_uris":{"android":"levelo://app?vid=ab8ed3cf-dd65-453b-87ca-077ce7ed25e8","ios":"levelo://app?vid=ab8ed3cf-dd65-453b-87ca-077ce7ed25e8"},"vehicle_type_id":"4","last_reported":1773751482,"current_range_meters":3600,"station_id":"st_d6o2h0d0559c73evc1b0","pricing_plan_id":"cebpf4jnsgd1na2vs0mg"},{"bike_id":"c6d69b4d-4c87-44fe-a02d-92b1370b69aa","system_id":"levelo_inurba_marseille","lat":43.2255,"lon":5.41648,"is_reserved":false,"is_disabled":false,"rental_uris":{"android":"levelo://app?vid=c6d69b4d-4c87-44fe-a02d-92b1370b69aa","ios":"levelo://app?vid=c6d69b4d-4c87-44fe-a02d-92b1370b69aa"},"vehicle_type_id":"4","last_reported":1773751482,"current_range_meters":3600,"station_id":"st_d2o4gvlbi1j2169b742g","pricing_plan_id":"cebpf4jnsgd1na2vs0mg"},{"bike_id":"69dea8c2-6540-4a88-8b04-6c4a3132d70b","system_id":"levelo_inurba_marseille","lat":43.27433,"lon":5.39423,"is_reserved":false,"is_disabled":false,"rental_uris":{"android":"levelo://app?vid=69dea8c2-6540-4a88-8b04-6c4a3132d70b","ios":"levelo://app?vid=69dea8c2-6540-4a88-8b04-6c4a3132d70b"},"vehicle_type_id":"4","last_reported":1773751482,"current_range_meters":3600,"station_id":"ce4bhdp2rcd13ifvqf20","pricing_plan_id":"cebpf4jnsgd1na2vs0mg"},{"bike_id":"253b915e-e370-4f20-b2cd-e00b307e771e","system_id":"levelo_inurba_marseille","lat":43.2971,"lon":5.37706,"is_reserved":false,"is_disabled":false,"rental_uris":{"android":"levelo://app?vid=253b915e-e370-4f20-b2cd-e00b307e771e","ios":"levelo://app?vid=253b915e-e370-4f20-b2cd-e00b307e771e"},"vehicle_type_id":"4","last_reported":1773751482,"current_range_meters":3600,"station_id":"ce4bgkh2rcd13ifvqbl0","pricing_plan_id":"cebpf4jnsgd1na2vs0mg"},{"bike_id":"20dd7d86-c4dc-4d33-83b0-519cc08235a3","system_id":"levelo_inurba_marseille","lat":43.26208,"lon":5.37454,"is_reserved":false,"is_disabled":false,"rental_uris":{"android":"levelo://app?vid=20dd7d86-c4dc-4d33-83b0-519cc08235a3","ios":"levelo://app?vid=20dd7d86-c4dc-4d33-83b0-519cc08235a3"},"vehicle_type_id":"4","last_reported":1773751482,"current_range_meters":3600,"station_id":"ce4bhgp2rcd13ifvqfc0","pricing_plan_id":"cebpf4jnsgd1na2vs0mg"},{"bike_id":"b3fb0cd9-0d50-4402-b1d7-e0ca7cbbf02f","system_id":"levelo_inurba_marseille","lat":43.22571,"lon":5.41621,"is_reserved":false,"is_disabled":false,"rental_uris":{"android":"levelo://app?vid=b3fb0cd9-0d50-4402-b1d7-e0ca7cbbf02f","ios":"levelo://app?vid=b3fb0cd9-0d50-4402-b1d7-e0ca7cbbf02f"},"vehicle_type_id":"4","last_reported":1773751482,"current_range_meters":3600,"station_id":"st_d2o4gvlbi1j2169b742g","pricing_plan_id":"cebpf4jnsgd1na2vs0mg"},{"bike_id":"879a873f-004f-4af1-a55c-41f0a4bec7bc","system_id":"levelo_inurba_marseille","lat":43.21225,"lon":5.35036,"is_reserved":false,"is_disabled":false,"rental_uris":{"android":"levelo://app?vid=879a873f-004f-4af1-a55c-41f0a4bec7bc","ios":"levelo://app?vid=879a873f-004f-4af1-a55c-41f0a4bec7bc"},"vehicle_type_id":"4","last_reported":1773751482,"current_range_meters":3600,"station_id":"st_cvj6sg6p6f1abm77japg","pricing_plan_id":"cebpf4jnsgd1na2vs0mg"},{"bike_id":"e62a4e4c-9fb8-4fb9-88a5-4bc5e03b636b","system_id":"levelo_inurba_marseille","lat":43.31345,"lon":5.36718,"is_reserved":false,"is_disabled":false,"rental_uris":{"android":"levelo://app?vid=e62a4e4c-9fb8-4fb9-88a5-4bc5e03b636b","ios":"levelo://app?vid=e62a4e4c-9fb8-4fb9-88a5-4bc5e03b636b"},"vehicle_type_id":"4","last_reported":1773751482,"current_range_meters":3600,"station_id":"ce4bgr92rcd13ifvqc6g","pricing_plan_id":"cebpf4jnsgd1na2vs0mg"},{"bike_id":"91f440a2-b37f-4186-bada-b6ca9b83b739","system_id":"levelo_inurba_marseille","lat":43.23896,"lon":5.37439,"is_reserved":false,"is_disabled":false,"rental_uris":{"android":"levelo://app?vid=91f440a2-b37f-4186-bada-b6ca9b83b739","ios":"levelo://app?vid=91f440a2-b37f-4186-bada-b6ca9b83b739"},"vehicle_type_id":"4","last_reported":1773751482,"current_range_meters":3600,"station_id":"","pricing_plan_id":"cebpf4jnsgd1na2vs0mg"},{"bike_id":"aab85aec-df30-4ba6-b022-d548491bc394","system_id":"levelo_inurba_marseille","lat":43.25822,"lon":5.39424,"is_reserved":false,"is_disabled":false,"rental_uris":{"android":"levelo://app?vid=aab85aec-df30-4ba6-b022-d548491bc394","ios":"levelo://app?vid=aab85aec-df30-4ba6-b022-d548491bc394"},"vehicle_type_id":"4","last_reported":1773751482,"current_range_meters":3600,"station_id":"ce4bhip2rcd13ifvqft0","pricing_plan_id":"cebpf4jnsgd1na2vs0mg"},{"bike_id":"20d965c2-9356-4a2d-b2d1-b586da5c97e8","system_id":"levelo_inurba_marseille","lat":43.28127,"lon":5.40623,"is_reserved":false,"is_disabled":true,"rental_uris":{"android":"levelo://app?vid=20d965c2-9356-4a2d-b2d1-b586da5c97e8","ios":"levelo://app?vid=20d965c2-9356-4a2d-b2d1-b586da5c97e8"},"vehicle_type_id":"4","last_reported":1773751482,"current_range_meters":4000,"station_id":"","pricing_plan_id":"cebpf4jnsgd1na2vs0mg"},{"bike_id":"87cf2c9e-dd79-479c-9e15-2f0aaae6b8ee","system_id":"levelo_inurba_marseille","lat":43.31422,"lon":5.37322,"is_reserved":false,"is_disabled":false,"rental_uris":{"android":"levelo://app?vid=87cf2c9e-dd79-479c-9e15-2f0aaae6b8ee","ios":"levelo://app?vid=87cf2c9e-dd79-479c-9e15-2f0aaae6b8ee"},"vehicle_type_id":"4","last_reported":1773751482,"current_range_meters":4000,"station_id":"","pricing_plan_id":"cebpf4jnsgd1na2vs0mg"},{"bike_id":"796ed888-5e80-4248-a7be-20570706635d","system_id":"levelo_inurba_marseille","lat":43.23814,"lon":5.36626,"is_reserved":false,"is_disabled":false,"rental_uris":{"android":"levelo://app?vid=796ed888-5e80-4248-a7be-20570706635d","ios":"levelo://app?vid=796ed888-5e80-4248-a7be-20570706635d"},"vehicle_type_id":"4","last_reported":1773751482,"current_range_meters":4000,"station_id":"st_d3nk18o9ro0c73en2l3g","pricing_plan_id":"cebpf4jnsgd1na2vs0mg"},{"bike_id":"8b5ab8a2-31c8-4b66-86fa-4c5e6c92f2d3","system_id":"levelo_inurba_marseille","lat":43.30951,"lon":5.39031,"is_reserved":false,"is_disabled":false,"rental_uris":{"android":"levelo://app?vid=8b5ab8a2-31c8-4b66-86fa-4c5e6c92f2d3","ios":"levelo://app?vid=8b5ab8a2-31c8-4b66-86fa-4c5e6c92f2d3"},"vehicle_type_id":"4","last_reported":1773751482,"current_range_meters":4000,"station_id":"ce4bgup2rcd13ifvqco0","pricing_plan_id":"cebpf4jnsgd1na2vs0mg"},{"bike_id":"5c13d3bc-3946-4016-b223-a96c424763ee","system_id":"levelo_inurba_marseille","lat":43.24162,"lon":5.36394,"is_reserved":false,"is_disabled":false,"rental_uris":{"android":"levelo://app?vid=5c13d3bc-3946-4016-b223-a96c424763ee","ios":"levelo://app?vid=5c13d3bc-3946-4016-b223-a96c424763ee"},"vehicle_type_id":"4","last_reported":1773751482,"current_range_meters":4000,"station_id":"cpo36qri1sfpv3e86is0","pricing_plan_id":"cebpf4jnsgd1na2vs0mg"},{"bike_id":"d06b1804-70fd-40ad-8edd-a00949173812","system_id":"levelo_inurba_marseille","lat":43.23236,"lon":5.39989,"is_reserved":false,"is_disabled":false,"rental_uris":{"android":"levelo://app?vid=d06b1804-70fd-40ad-8edd-a00949173812","ios":"levelo://app?vid=d06b1804-70fd-40ad-8edd-a00949173812"},"vehicle_type_id":"4","last_reported":1773751482,"current_range_meters":4000,"station_id":"","pricing_plan_id":"cebpf4jnsgd1na2vs0mg"},{"bike_id":"d89134ff-a044-45c7-94db-9ed2eccb039f","system_id":"levelo_inurba_marseille","lat":43.3135,"lon":5.38497,"is_reserved":false,"is_disabled":true,"rental_uris":{"android":"levelo://app?vid=d89134ff-a044-45c7-94db-9ed2eccb039f","ios":"levelo://app?vid=d89134ff-a044-45c7-94db-9ed2eccb039f"},"vehicle_type_id":"4","last_reported":1773751482,"current_range_meters":4000,"station_id":"ce4bgt92rcd13ifvqcf0","pricing_plan_id":"cebpf4jnsgd1na2vs0mg"},{"bike_id":"5247c951-a74f-455c-8348-09a4b4062d01","system_id":"levelo_inurba_marseille","lat":43.21766,"lon":5.3459,"is_reserved":false,"is_disabled":false,"rental_uris":{"android":"levelo://app?vid=5247c951-a74f-455c-8348-09a4b4062d01","ios":"levelo://app?vid=5247c951-a74f-455c-8348-09a4b4062d01"},"vehicle_type_id":"4","last_reported":1773751482,"current_range_meters":4000,"station_id":"st_cvj6r9ubvosntc0bgbag","pricing_plan_id":"cebpf4jnsgd1na2vs0mg"},{"bike_id":"70dfd9ae-1ea9-45b0-94d1-55aae33a610e","system_id":"levelo_inurba_marseille","lat":43.26796,"lon":5.39432,"is_reserved":false,"is_disabled":false,"rental_uris":{"android":"levelo://app?vid=70dfd9ae-1ea9-45b0-94d1-55aae33a610e","ios":"levelo://app?vid=70dfd9ae-1ea9-45b0-94d1-55aae33a610e"},"vehicle_type_id":"4","last_reported":1773751482,"current_range_meters":4000,"station_id":"ce4bhh12rcd13ifvqfg0","pricing_plan_id":"cebpf4jnsgd1na2vs0mg"},{"bike_id":"2d475c7c-0764-4ac9-8950-41d5059b573b","system_id":"levelo_inurba_marseille","lat":43.28482,"lon":5.48402,"is_reserved":false,"is_disabled":false,"rental_uris":{"android":"levelo://app?vid=2d475c7c-0764-4ac9-8950-41d5059b573b","ios":"levelo://app?vid=2d475c7c-0764-4ac9-8950-41d5059b573b"},"vehicle_type_id":"4","last_reported":1773751482,"current_range_meters":4400,"station_id":"","pricing_plan_id":"cebpf4jnsgd1na2vs0mg"},{"bike_id":"1a59853e-f4d3-4274-86ac-6431f4f16bde","system_id":"levelo_inurba_marseille","lat":43.27056,"lon":5.40261,"is_reserved":false,"is_disabled":false,"rental_uris":{"android":"levelo://app?vid=1a59853e-f4d3-4274-86ac-6431f4f16bde","ios":"levelo://app?vid=1a59853e-f4d3-4274-86ac-6431f4f16bde"},"vehicle_type_id":"4","last_reported":1773751482,"current_range_meters":4400,"station_id":"ce4bhk92rcd13ifvqgc0","pricing_plan_id":"cebpf4jnsgd1na2vs0mg"},{"bike_id":"0f53d472-bee4-40de-8ab2-7656a789b4f7","system_id":"levelo_inurba_marseille","lat":43.22459,"lon":5.34904,"is_reserved":false,"is_disabled":false,"rental_uris":{"android":"levelo://app?vid=0f53d472-bee4-40de-8ab2-7656a789b4f7","ios":"levelo://app?vid=0f53d472-bee4-40de-8ab2-7656a789b4f7"},"vehicle_type_id":"4","last_reported":1773751482,"current_range_meters":4400,"station_id":"","pricing_plan_id":"cebpf4jnsgd1na2vs0mg"},{"bike_id":"fa36b951-7724-4ec0-937d-26f07e5aa9ed","system_id":"levelo_inurba_marseille","lat":43.30542,"lon":5.36515,"is_reserved":false,"is_disabled":false,"rental_uris":{"android":"levelo://app?vid=fa36b951-7724-4ec0-937d-26f07e5aa9ed","ios":"levelo://app?vid=fa36b951-7724-4ec0-937d-26f07e5aa9ed"},"vehicle_type_id":"4","last_reported":1773751482,"current_range_meters":4400,"station_id":"ce4bgs12rcd13ifvqcag","pricing_plan_id":"cebpf4jnsgd1na2vs0mg"},{"bike_id":"5ceea874-16bc-4dc6-9858-1b3ce34dfda6","system_id":"levelo_inurba_marseille","lat":43.28477,"lon":5.48409,"is_reserved":false,"is_disabled":false,"rental_uris":{"android":"levelo://app?vid=5ceea874-16bc-4dc6-9858-1b3ce34dfda6","ios":"levelo://app?vid=5ceea874-16bc-4dc6-9858-1b3ce34dfda6"},"vehicle_type_id":"4","last_reported":1773751482,"current_range_meters":4400,"station_id":"st_d3svhcjqgbts73a3dn0g","pricing_plan_id":"cebpf4jnsgd1na2vs0mg"},{"bike_id":"7c47e0f6-cb43-444f-8f1a-7fff3473785c","system_id":"levelo_inurba_marseille","lat":43.32051,"lon":5.41542,"is_reserved":false,"is_disabled":false,"rental_uris":{"android":"levelo://app?vid=7c47e0f6-cb43-444f-8f1a-7fff3473785c","ios":"levelo://app?vid=7c47e0f6-cb43-444f-8f1a-7fff3473785c"},"vehicle_type_id":"4","last_reported":1773751482,"current_range_meters":4400,"station_id":"ce4bhq92rcd13ifvqhkg","pricing_plan_id":"cebpf4jnsgd1na2vs0mg"},{"bike_id":"26202659-445f-404d-b446-d181a4a7df71","system_id":"levelo_inurba_marseille","lat":43.33553,"lon":5.37436,"is_reserved":false,"is_disabled":false,"rental_uris":{"android":"levelo://app?vid=26202659-445f-404d-b446-d181a4a7df71","ios":"levelo://app?vid=26202659-445f-404d-b446-d181a4a7df71"},"vehicle_type_id":"4","last_reported":1773751482,"current_range_meters":4400,"station_id":"st_d46tts09ee8s73dlu43g","pricing_plan_id":"cebpf4jnsgd1na2vs0mg"},{"bike_id":"29a54209-1805-4985-95a0-2df2873998c5","system_id":"levelo_inurba_marseille","lat":43.28405,"lon":5.34965,"is_reserved":false,"is_disabled":false,"rental_uris":{"android":"levelo://app?vid=29a54209-1805-4985-95a0-2df2873998c5","ios":"levelo://app?vid=29a54209-1805-4985-95a0-2df2873998c5"},"vehicle_type_id":"4","last_reported":1773751482,"current_range_meters":4400,"station_id":"ce4bhbh2rcd13ifvqepg","pricing_plan_id":"cebpf4jnsgd1na2vs0mg"},{"bike_id":"122f5d1d-9604-4c0a-a7be-524d1227a689","system_id":"levelo_inurba_marseille","lat":43.2861,"lon":5.35102,"is_reserved":false,"is_disabled":false,"rental_uris":{"android":"levelo://app?vid=122f5d1d-9604-4c0a-a7be-524d1227a689","ios":"levelo://app?vid=122f5d1d-9604-4c0a-a7be-524d1227a689"},"vehicle_type_id":"4","last_reported":1773751482,"current_range_meters":4400,"station_id":"ce4bhch2rcd13ifvqeug","pricing_plan_id":"cebpf4jnsgd1na2vs0mg"},{"bike_id":"6a8db732-13be-46dc-aeb4-739cd0155e5a","system_id":"levelo_inurba_marseille","lat":43.28344,"lon":5.3811,"is_reserved":false,"is_disabled":false,"rental_uris":{"android":"levelo://app?vid=6a8db732-13be-46dc-aeb4-739cd0155e5a","ios":"levelo://app?vid=6a8db732-13be-46dc-aeb4-739cd0155e5a"},"vehicle_type_id":"4","last_reported":1773751482,"current_range_meters":4400,"station_id":"ce4bh412rcd13ifvqdr0","pricing_plan_id":"cebpf4jnsgd1na2vs0mg"},{"bike_id":"47df26dd-a8d4-4384-95f9-a4c95f9acd71","system_id":"levelo_inurba_marseille","lat":43.26404,"lon":5.40997,"is_reserved":false,"is_disabled":false,"rental_uris":{"android":"levelo://app?vid=47df26dd-a8d4-4384-95f9-a4c95f9acd71","ios":"levelo://app?vid=47df26dd-a8d4-4384-95f9-a4c95f9acd71"},"vehicle_type_id":"4","last_reported":1773751482,"current_range_meters":4400,"station_id":"","pricing_plan_id":"cebpf4jnsgd1na2vs0mg"},{"bike_id":"05797fa1-accf-4d33-953a-71b7e9c0f32e","system_id":"levelo_inurba_marseille","lat":43.23966,"lon":5.36629,"is_reserved":false,"is_disabled":false,"rental_uris":{"android":"levelo://app?vid=05797fa1-accf-4d33-953a-71b7e9c0f32e","ios":"levelo://app?vid=05797fa1-accf-4d33-953a-71b7e9c0f32e"},"vehicle_type_id":"4","last_reported":1773751482,"current_range_meters":4800,"station_id":"ce4bhi12rcd13ifvqfp0","pricing_plan_id":"cebpf4jnsgd1na2vs0mg"},{"bike_id":"e2075a38-14da-4268-bd1e-f82a57481be5","system_id":"levelo_inurba_marseille","lat":43.2407,"lon":5.37762,"is_reserved":false,"is_disabled":false,"rental_uris":{"android":"levelo://app?vid=e2075a38-14da-4268-bd1e-f82a57481be5","ios":"levelo://app?vid=e2075a38-14da-4268-bd1e-f82a57481be5"},"vehicle_type_id":"4","last_reported":1773751482,"current_range_meters":4800,"station_id":"ce4bhnp2rcd13ifvqgvg","pricing_plan_id":"cebpf4jnsgd1na2vs0mg"},{"bike_id":"7fbc82da-1717-40f5-8e22-a284df5edd5a","system_id":"levelo_inurba_marseille","lat":43.24648,"lon":5.43148,"is_reserved":false,"is_disabled":false,"rental_uris":{"android":"levelo://app?vid=7fbc82da-1717-40f5-8e22-a284df5edd5a","ios":"levelo://app?vid=7fbc82da-1717-40f5-8e22-a284df5edd5a"},"vehicle_type_id":"4","last_reported":1773751482,"current_range_meters":4800,"station_id":"","pricing_plan_id":"cebpf4jnsgd1na2vs0mg"},{"bike_id":"5dc279a2-b673-4bb5-9776-d1514cea2d74","system_id":"levelo_inurba_marseille","lat":43.29728,"lon":5.37684,"is_reserved":false,"is_disabled":false,"rental_uris":{"android":"levelo://app?vid=5dc279a2-b673-4bb5-9776-d1514cea2d74","ios":"levelo://app?vid=5dc279a2-b673-4bb5-9776-d1514cea2d74"},"vehicle_type_id":"4","last_reported":1773751482,"current_range_meters":4800,"station_id":"ce4bgkh2rcd13ifvqbl0","pricing_plan_id":"cebpf4jnsgd1na2vs0mg"},{"bike_id":"c88c3047-1608-4e8b-a80d-195e4c495aaa","system_id":"levelo_inurba_marseille","lat":43.29027,"lon":5.38637,"is_reserved":false,"is_disabled":false,"rental_uris":{"android":"levelo://app?vid=c88c3047-1608-4e8b-a80d-195e4c495aaa","ios":"levelo://app?vid=c88c3047-1608-4e8b-a80d-195e4c495aaa"},"vehicle_type_id":"4","last_reported":1773751482,"current_range_meters":5600,"station_id":"ce4bh4p2rcd13ifvqe0g","pricing_plan_id":"cebpf4jnsgd1na2vs0mg"},{"bike_id":"fcc16676-bdcc-453d-943e-a6082336e83f","system_id":"levelo_inurba_marseille","lat":43.29804,"lon":5.44053,"is_reserved":false,"is_disabled":false,"rental_uris":{"android":"levelo://app?vid=fcc16676-bdcc-453d-943e-a6082336e83f","ios":"levelo://app?vid=fcc16676-bdcc-453d-943e-a6082336e83f"},"vehicle_type_id":"4","last_reported":1773751482,"current_range_meters":5600,"station_id":"st_d3jp68qikq2c7381ktn0","pricing_plan_id":"cebpf4jnsgd1na2vs0mg"},{"bike_id":"69d2e5d2-aab9-4fc9-a42e-b520c7e8b4f1","system_id":"levelo_inurba_marseille","lat":43.23068,"lon":5.35495,"is_reserved":false,"is_disabled":false,"rental_uris":{"android":"levelo://app?vid=69d2e5d2-aab9-4fc9-a42e-b520c7e8b4f1","ios":"levelo://app?vid=69d2e5d2-aab9-4fc9-a42e-b520c7e8b4f1"},"vehicle_type_id":"4","last_reported":1773751482,"current_range_meters":5600,"station_id":"cpo3342slgdg3j2ifvpg","pricing_plan_id":"cebpf4jnsgd1na2vs0mg"},{"bike_id":"15c6f95a-b983-4283-9be7-875f500d7490","system_id":"levelo_inurba_marseille","lat":43.27312,"lon":5.3912,"is_reserved":false,"is_disabled":false,"rental_uris":{"android":"levelo://app?vid=15c6f95a-b983-4283-9be7-875f500d7490","ios":"levelo://app?vid=15c6f95a-b983-4283-9be7-875f500d7490"},"vehicle_type_id":"4","last_reported":1773751482,"current_range_meters":5600,"station_id":"ce4bhgp2rcd13ifvqfe0","pricing_plan_id":"cebpf4jnsgd1na2vs0mg"},{"bike_id":"bf09d751-0302-4a6b-a6ad-15641d43609a","system_id":"levelo_inurba_marseille","lat":43.26566,"lon":5.38995,"is_reserved":false,"is_disabled":false,"rental_uris":{"android":"levelo://app?vid=bf09d751-0302-4a6b-a6ad-15641d43609a","ios":"levelo://app?vid=bf09d751-0302-4a6b-a6ad-15641d43609a"},"vehicle_type_id":"4","last_reported":1773751482,"current_range_meters":5600,"station_id":"ce4bhe12rcd13ifvqf30","pricing_plan_id":"cebpf4jnsgd1na2vs0mg"},{"bike_id":"c6d4b699-87ba-4b42-8001-d8edb2bee0a4","system_id":"levelo_inurba_marseille","lat":43.30533,"lon":5.3842,"is_reserved":false,"is_disabled":false,"rental_uris":{"android":"levelo://app?vid=c6d4b699-87ba-4b42-8001-d8edb2bee0a4","ios":"levelo://app?vid=c6d4b699-87ba-4b42-8001-d8edb2bee0a4"},"vehicle_type_id":"4","last_reported":1773751482,"current_range_meters":5600,"station_id":"ce4bgg92rcd13ifvqb30","pricing_plan_id":"cebpf4jnsgd1na2vs0mg"},{"bike_id":"775ad8b9-2a32-4bde-9613-571a342efb64","system_id":"levelo_inurba_marseille","lat":43.29266,"lon":5.3763,"is_reserved":false,"is_disabled":false,"rental_uris":{"android":"levelo://app?vid=775ad8b9-2a32-4bde-9613-571a342efb64","ios":"levelo://app?vid=775ad8b9-2a32-4bde-9613-571a342efb64"},"vehicle_type_id":"4","last_reported":1773751482,"current_range_meters":5600,"station_id":"ce4bgi12rcd13ifvqb80","pricing_plan_id":"cebpf4jnsgd1na2vs0mg"},{"bike_id":"0fe90fd1-0467-4b67-888a-14ea16663630","system_id":"levelo_inurba_marseille","lat":43.28665,"lon":5.36347,"is_reserved":false,"is_disabled":false,"rental_uris":{"android":"levelo://app?vid=0fe90fd1-0467-4b67-888a-14ea16663630","ios":"levelo://app?vid=0fe90fd1-0467-4b67-888a-14ea16663630"},"vehicle_type_id":"4","last_reported":1773751482,"current_range_meters":5600,"station_id":"ce4bhah2rcd13ifvqej0","pricing_plan_id":"cebpf4jnsgd1na2vs0mg"},{"bike_id":"5546bd0f-7ced-4964-ba48-a430fa2adf47","system_id":"levelo_inurba_marseille","lat":43.2175,"lon":5.34609,"is_reserved":false,"is_disabled":false,"rental_uris":{"android":"levelo://app?vid=5546bd0f-7ced-4964-ba48-a430fa2adf47","ios":"levelo://app?vid=5546bd0f-7ced-4964-ba48-a430fa2adf47"},"vehicle_type_id":"4","last_reported":1773751482,"current_range_meters":6000,"station_id":"st_cvj6r9ubvosntc0bgbag","pricing_plan_id":"cebpf4jnsgd1na2vs0mg"},{"bike_id":"55ad6576-3c79-4a6b-881b-323a7e8b70a1","system_id":"levelo_inurba_marseille","lat":43.24997,"lon":5.38942,"is_reserved":false,"is_disabled":false,"rental_uris":{"android":"levelo://app?vid=55ad6576-3c79-4a6b-881b-323a7e8b70a1","ios":"levelo://app?vid=55ad6576-3c79-4a6b-881b-323a7e8b70a1"},"vehicle_type_id":"4","last_reported":1773751482,"current_range_meters":6000,"station_id":"ce4bhgp2rcd13ifvqfd0","pricing_plan_id":"cebpf4jnsgd1na2vs0mg"},{"bike_id":"1c80d65f-5a5b-4286-b809-cfa0b084b10b","system_id":"levelo_inurba_marseille","lat":43.25923,"lon":5.40872,"is_reserved":false,"is_disabled":false,"rental_uris":{"android":"levelo://app?vid=1c80d65f-5a5b-4286-b809-cfa0b084b10b","ios":"levelo://app?vid=1c80d65f-5a5b-4286-b809-cfa0b084b10b"},"vehicle_type_id":"4","last_reported":1773751482,"current_range_meters":6000,"station_id":"ce4bhm92rcd13ifvqglg","pricing_plan_id":"cebpf4jnsgd1na2vs0mg"},{"bike_id":"54e1430e-f603-4f12-94e1-97898e39d9f4","system_id":"levelo_inurba_marseille","lat":43.31082,"lon":5.37166,"is_reserved":false,"is_disabled":false,"rental_uris":{"android":"levelo://app?vid=54e1430e-f603-4f12-94e1-97898e39d9f4","ios":"levelo://app?vid=54e1430e-f603-4f12-94e1-97898e39d9f4"},"vehicle_type_id":"4","last_reported":1773751482,"current_range_meters":6000,"station_id":"st_d4kl2rp97mjs73e7tdfg","pricing_plan_id":"cebpf4jnsgd1na2vs0mg"},{"bike_id":"9f6ff7d6-66a3-4b0f-bb97-dd2c5a1894a8","system_id":"levelo_inurba_marseille","lat":43.2669,"lon":5.38248,"is_reserved":false,"is_disabled":false,"rental_uris":{"android":"levelo://app?vid=9f6ff7d6-66a3-4b0f-bb97-dd2c5a1894a8","ios":"levelo://app?vid=9f6ff7d6-66a3-4b0f-bb97-dd2c5a1894a8"},"vehicle_type_id":"4","last_reported":1773751482,"current_range_meters":6000,"station_id":"ce4bhg92rcd13ifvqf90","pricing_plan_id":"cebpf4jnsgd1na2vs0mg"},{"bike_id":"88858f89-fe21-45f8-acbb-9ce67472ddb3","system_id":"levelo_inurba_marseille","lat":43.22948,"lon":5.35378,"is_reserved":false,"is_disabled":false,"rental_uris":{"android":"levelo://app?vid=88858f89-fe21-45f8-acbb-9ce67472ddb3","ios":"levelo://app?vid=88858f89-fe21-45f8-acbb-9ce67472ddb3"},"vehicle_type_id":"4","last_reported":1773751482,"current_range_meters":6000,"station_id":"cpo3532slgdg3j2ikp40","pricing_plan_id":"cebpf4jnsgd1na2vs0mg"},{"bike_id":"77441ad7-c2b5-43f8-9f81-2a10eebededf","system_id":"levelo_inurba_marseille","lat":43.28039,"lon":5.36948,"is_reserved":false,"is_disabled":false,"rental_uris":{"android":"levelo://app?vid=77441ad7-c2b5-43f8-9f81-2a10eebededf","ios":"levelo://app?vid=77441ad7-c2b5-43f8-9f81-2a10eebededf"},"vehicle_type_id":"4","last_reported":1773751482,"current_range_meters":6000,"station_id":"ce4bha12rcd13ifvqef0","pricing_plan_id":"cebpf4jnsgd1na2vs0mg"},{"bike_id":"96dac97a-0c76-4079-a74f-d3b50e0ff04c","system_id":"levelo_inurba_marseille","lat":43.21193,"lon":5.35085,"is_reserved":false,"is_disabled":false,"rental_uris":{"android":"levelo://app?vid=96dac97a-0c76-4079-a74f-d3b50e0ff04c","ios":"levelo://app?vid=96dac97a-0c76-4079-a74f-d3b50e0ff04c"},"vehicle_type_id":"4","last_reported":1773751482,"current_range_meters":6000,"station_id":"st_cvj6sg6p6f1abm77japg","pricing_plan_id":"cebpf4jnsgd1na2vs0mg"},{"bike_id":"973e9d7d-6062-49ec-a8d0-d4ea093ef9a6","system_id":"levelo_inurba_marseille","lat":43.28407,"lon":5.39256,"is_reserved":false,"is_disabled":false,"rental_uris":{"android":"levelo://app?vid=973e9d7d-6062-49ec-a8d0-d4ea093ef9a6","ios":"levelo://app?vid=973e9d7d-6062-49ec-a8d0-d4ea093ef9a6"},"vehicle_type_id":"4","last_reported":1773751482,"current_range_meters":6000,"station_id":"ce4bhoh2rcd13ifvqh5g","pricing_plan_id":"cebpf4jnsgd1na2vs0mg"},{"bike_id":"b3e3399c-3837-42b8-afac-39674642005e","system_id":"levelo_inurba_marseille","lat":43.29819,"lon":5.42688,"is_reserved":false,"is_disabled":false,"rental_uris":{"android":"levelo://app?vid=b3e3399c-3837-42b8-afac-39674642005e","ios":"levelo://app?vid=b3e3399c-3837-42b8-afac-39674642005e"},"vehicle_type_id":"4","last_reported":1773751482,"current_range_meters":6000,"station_id":"","pricing_plan_id":"cebpf4jnsgd1na2vs0mg"},{"bike_id":"6b877270-a0c8-4500-a1aa-487633ae6f10","system_id":"levelo_inurba_marseille","lat":43.28639,"lon":5.35067,"is_reserved":false,"is_disabled":false,"rental_uris":{"android":"levelo://app?vid=6b877270-a0c8-4500-a1aa-487633ae6f10","ios":"levelo://app?vid=6b877270-a0c8-4500-a1aa-487633ae6f10"},"vehicle_type_id":"4","last_reported":1773751482,"current_range_meters":6000,"station_id":"ce4bhch2rcd13ifvqeug","pricing_plan_id":"cebpf4jnsgd1na2vs0mg"},{"bike_id":"99b3399f-a7f1-46ba-9d8d-17a6644bc2b4","system_id":"levelo_inurba_marseille","lat":43.21744,"lon":5.34601,"is_reserved":false,"is_disabled":false,"rental_uris":{"android":"levelo://app?vid=99b3399f-a7f1-46ba-9d8d-17a6644bc2b4","ios":"levelo://app?vid=99b3399f-a7f1-46ba-9d8d-17a6644bc2b4"},"vehicle_type_id":"4","last_reported":1773751482,"current_range_meters":6000,"station_id":"st_cvj6r9ubvosntc0bgbag","pricing_plan_id":"cebpf4jnsgd1na2vs0mg"},{"bike_id":"ce68c3f9-59a5-4478-a0dd-f7b079b46480","system_id":"levelo_inurba_marseille","lat":43.29198,"lon":5.35807,"is_reserved":false,"is_disabled":false,"rental_uris":{"android":"levelo://app?vid=ce68c3f9-59a5-4478-a0dd-f7b079b46480","ios":"levelo://app?vid=ce68c3f9-59a5-4478-a0dd-f7b079b46480"},"vehicle_type_id":"4","last_reported":1773751482,"current_range_meters":6400,"station_id":"ce4bhb12rcd13ifvqel0","pricing_plan_id":"cebpf4jnsgd1na2vs0mg"},{"bike_id":"feaf2e83-6bc7-46d3-b8dc-e52b9fc8cf3e","system_id":"levelo_inurba_marseille","lat":43.22579,"lon":5.41635,"is_reserved":false,"is_disabled":false,"rental_uris":{"android":"levelo://app?vid=feaf2e83-6bc7-46d3-b8dc-e52b9fc8cf3e","ios":"levelo://app?vid=feaf2e83-6bc7-46d3-b8dc-e52b9fc8cf3e"},"vehicle_type_id":"4","last_reported":1773751482,"current_range_meters":6400,"station_id":"st_d2o4gvlbi1j2169b742g","pricing_plan_id":"cebpf4jnsgd1na2vs0mg"},{"bike_id":"7c245f6b-63fb-4c36-8493-afb8fd5288f8","system_id":"levelo_inurba_marseille","lat":43.31178,"lon":5.39068,"is_reserved":false,"is_disabled":false,"rental_uris":{"android":"levelo://app?vid=7c245f6b-63fb-4c36-8493-afb8fd5288f8","ios":"levelo://app?vid=7c245f6b-63fb-4c36-8493-afb8fd5288f8"},"vehicle_type_id":"4","last_reported":1773751482,"current_range_meters":6400,"station_id":"","pricing_plan_id":"cebpf4jnsgd1na2vs0mg"},{"bike_id":"4edc1e69-f919-4c2f-a6b8-66257e87a54f","system_id":"levelo_inurba_marseille","lat":43.28493,"lon":5.48391,"is_reserved":false,"is_disabled":false,"rental_uris":{"android":"levelo://app?vid=4edc1e69-f919-4c2f-a6b8-66257e87a54f","ios":"levelo://app?vid=4edc1e69-f919-4c2f-a6b8-66257e87a54f"},"vehicle_type_id":"4","last_reported":1773751482,"current_range_meters":6400,"station_id":"","pricing_plan_id":"cebpf4jnsgd1na2vs0mg"},{"bike_id":"85d2dfc9-0c8f-4271-9217-c26e4e627973","system_id":"levelo_inurba_marseille","lat":43.31883,"lon":5.40747,"is_reserved":false,"is_disabled":false,"rental_uris":{"android":"levelo://app?vid=85d2dfc9-0c8f-4271-9217-c26e4e627973","ios":"levelo://app?vid=85d2dfc9-0c8f-4271-9217-c26e4e627973"},"vehicle_type_id":"4","last_reported":1773751482,"current_range_meters":6400,"station_id":"ce4bhq12rcd13ifvqhig","pricing_plan_id":"cebpf4jnsgd1na2vs0mg"},{"bike_id":"d1f5dd33-9b6a-476c-b78f-96b1a03e7cd7","system_id":"levelo_inurba_marseille","lat":43.28871,"lon":5.35836,"is_reserved":false,"is_disabled":false,"rental_uris":{"android":"levelo://app?vid=d1f5dd33-9b6a-476c-b78f-96b1a03e7cd7","ios":"levelo://app?vid=d1f5dd33-9b6a-476c-b78f-96b1a03e7cd7"},"vehicle_type_id":"4","last_reported":1773751482,"current_range_meters":6400,"station_id":"ce4bhb12rcd13ifvqem0","pricing_plan_id":"cebpf4jnsgd1na2vs0mg"},{"bike_id":"b0d598e0-6a38-4591-99e3-3e0dad30ef08","system_id":"levelo_inurba_marseille","lat":43.27232,"lon":5.39211,"is_reserved":false,"is_disabled":false,"rental_uris":{"android":"levelo://app?vid=b0d598e0-6a38-4591-99e3-3e0dad30ef08","ios":"levelo://app?vid=b0d598e0-6a38-4591-99e3-3e0dad30ef08"},"vehicle_type_id":"4","last_reported":1773751482,"current_range_meters":6400,"station_id":"ce4bhhp2rcd13ifvqfm0","pricing_plan_id":"cebpf4jnsgd1na2vs0mg"},{"bike_id":"78f09825-98cd-4694-8b71-0a34de3f3c94","system_id":"levelo_inurba_marseille","lat":43.21758,"lon":5.34596,"is_reserved":false,"is_disabled":false,"rental_uris":{"android":"levelo://app?vid=78f09825-98cd-4694-8b71-0a34de3f3c94","ios":"levelo://app?vid=78f09825-98cd-4694-8b71-0a34de3f3c94"},"vehicle_type_id":"4","last_reported":1773751482,"current_range_meters":6800,"station_id":"st_cvj6r9ubvosntc0bgbag","pricing_plan_id":"cebpf4jnsgd1na2vs0mg"},{"bike_id":"08889860-c3d9-415f-ada2-b4f20b226c04","system_id":"levelo_inurba_marseille","lat":43.27306,"lon":5.39112,"is_reserved":false,"is_disabled":false,"rental_uris":{"android":"levelo://app?vid=08889860-c3d9-415f-ada2-b4f20b226c04","ios":"levelo://app?vid=08889860-c3d9-415f-ada2-b4f20b226c04"},"vehicle_type_id":"4","last_reported":1773751482,"current_range_meters":6800,"station_id":"ce4bhgp2rcd13ifvqfe0","pricing_plan_id":"cebpf4jnsgd1na2vs0mg"},{"bike_id":"03812eec-b185-465c-8c48-7984e651c3d0","system_id":"levelo_inurba_marseille","lat":43.33049,"lon":5.39046,"is_reserved":false,"is_disabled":false,"rental_uris":{"android":"levelo://app?vid=03812eec-b185-465c-8c48-7984e651c3d0","ios":"levelo://app?vid=03812eec-b185-465c-8c48-7984e651c3d0"},"vehicle_type_id":"4","last_reported":1773751482,"current_range_meters":6800,"station_id":"ce4bhr92rcd13ifvqhrg","pricing_plan_id":"cebpf4jnsgd1na2vs0mg"},{"bike_id":"9ffcd30b-650f-4436-9b49-3da9737f924f","system_id":"levelo_inurba_marseille","lat":43.31054,"lon":5.37189,"is_reserved":false,"is_disabled":false,"rental_uris":{"android":"levelo://app?vid=9ffcd30b-650f-4436-9b49-3da9737f924f","ios":"levelo://app?vid=9ffcd30b-650f-4436-9b49-3da9737f924f"},"vehicle_type_id":"4","last_reported":1773751482,"current_range_meters":6800,"station_id":"st_d4kl2rp97mjs73e7tdfg","pricing_plan_id":"cebpf4jnsgd1na2vs0mg"},{"bike_id":"636bd2fe-b1d0-4947-a49b-be93611aab94","system_id":"levelo_inurba_marseille","lat":43.23965,"lon":5.36629,"is_reserved":false,"is_disabled":false,"rental_uris":{"android":"levelo://app?vid=636bd2fe-b1d0-4947-a49b-be93611aab94","ios":"levelo://app?vid=636bd2fe-b1d0-4947-a49b-be93611aab94"},"vehicle_type_id":"4","last_reported":1773751482,"current_range_meters":6800,"station_id":"ce4bhi12rcd13ifvqfp0","pricing_plan_id":"cebpf4jnsgd1na2vs0mg"},{"bike_id":"c0ddb57f-e5f5-4ce0-b6c4-75fd2010b9ba","system_id":"levelo_inurba_marseille","lat":43.27491,"lon":5.41569,"is_reserved":false,"is_disabled":false,"rental_uris":{"android":"levelo://app?vid=c0ddb57f-e5f5-4ce0-b6c4-75fd2010b9ba","ios":"levelo://app?vid=c0ddb57f-e5f5-4ce0-b6c4-75fd2010b9ba"},"vehicle_type_id":"4","last_reported":1773751482,"current_range_meters":6800,"station_id":"st_d6im8g6chgec73a5pndg","pricing_plan_id":"cebpf4jnsgd1na2vs0mg"},{"bike_id":"78305b48-054e-4dcc-a02d-88f8abd88ef6","system_id":"levelo_inurba_marseille","lat":43.30909,"lon":5.36838,"is_reserved":false,"is_disabled":false,"rental_uris":{"android":"levelo://app?vid=78305b48-054e-4dcc-a02d-88f8abd88ef6","ios":"levelo://app?vid=78305b48-054e-4dcc-a02d-88f8abd88ef6"},"vehicle_type_id":"4","last_reported":1773751482,"current_range_meters":6800,"station_id":"ce4bgn92rcd13ifvqbvg","pricing_plan_id":"cebpf4jnsgd1na2vs0mg"},{"bike_id":"c84865df-58a0-485a-b466-02fb26eb4ff0","system_id":"levelo_inurba_marseille","lat":43.23199,"lon":5.35549,"is_reserved":false,"is_disabled":false,"rental_uris":{"android":"levelo://app?vid=c84865df-58a0-485a-b466-02fb26eb4ff0","ios":"levelo://app?vid=c84865df-58a0-485a-b466-02fb26eb4ff0"},"vehicle_type_id":"4","last_reported":1773751482,"current_range_meters":6800,"station_id":"ce4bhu92rcd13ifvqi70","pricing_plan_id":"cebpf4jnsgd1na2vs0mg"},{"bike_id":"8fb55774-afdc-41a9-8ced-392e6d51b54f","system_id":"levelo_inurba_marseille","lat":43.28851,"lon":5.35841,"is_reserved":false,"is_disabled":false,"rental_uris":{"android":"levelo://app?vid=8fb55774-afdc-41a9-8ced-392e6d51b54f","ios":"levelo://app?vid=8fb55774-afdc-41a9-8ced-392e6d51b54f"},"vehicle_type_id":"4","last_reported":1773751482,"current_range_meters":6800,"station_id":"ce4bhb12rcd13ifvqem0","pricing_plan_id":"cebpf4jnsgd1na2vs0mg"},{"bike_id":"9b44eabc-9473-4aeb-8589-934e8f4a2c0e","system_id":"levelo_inurba_marseille","lat":43.22925,"lon":5.35381,"is_reserved":false,"is_disabled":false,"rental_uris":{"android":"levelo://app?vid=9b44eabc-9473-4aeb-8589-934e8f4a2c0e","ios":"levelo://app?vid=9b44eabc-9473-4aeb-8589-934e8f4a2c0e"},"vehicle_type_id":"4","last_reported":1773751482,"current_range_meters":6800,"station_id":"cpo3532slgdg3j2ikp40","pricing_plan_id":"cebpf4jnsgd1na2vs0mg"},{"bike_id":"3dad20a7-e396-4101-adc6-30f4c7f64d56","system_id":"levelo_inurba_marseille","lat":43.24991,"lon":5.38919,"is_reserved":false,"is_disabled":false,"rental_uris":{"android":"levelo://app?vid=3dad20a7-e396-4101-adc6-30f4c7f64d56","ios":"levelo://app?vid=3dad20a7-e396-4101-adc6-30f4c7f64d56"},"vehicle_type_id":"4","last_reported":1773751482,"current_range_meters":6800,"station_id":"ce4bhgp2rcd13ifvqfd0","pricing_plan_id":"cebpf4jnsgd1na2vs0mg"},{"bike_id":"d6f4fcc9-529e-44c9-8ab1-66a46ec0a2d7","system_id":"levelo_inurba_marseille","lat":43.29658,"lon":5.37461,"is_reserved":false,"is_disabled":false,"rental_uris":{"android":"levelo://app?vid=d6f4fcc9-529e-44c9-8ab1-66a46ec0a2d7","ios":"levelo://app?vid=d6f4fcc9-529e-44c9-8ab1-66a46ec0a2d7"},"vehicle_type_id":"4","last_reported":1773751482,"current_range_meters":6800,"station_id":"","pricing_plan_id":"cebpf4jnsgd1na2vs0mg"},{"bike_id":"89beef35-757c-4048-a33b-ff88cb35d50c","system_id":"levelo_inurba_marseille","lat":43.285753,"lon":5.394977,"is_reserved":false,"is_disabled":false,"rental_uris":{"android":"levelo://app?vid=89beef35-757c-4048-a33b-ff88cb35d50c","ios":"levelo://app?vid=89beef35-757c-4048-a33b-ff88cb35d50c"},"vehicle_type_id":"4","last_reported":1773751482,"current_range_meters":6800,"station_id":"ce4bh292rcd13ifvqdg0","pricing_plan_id":"cebpf4jnsgd1na2vs0mg"},{"bike_id":"e4b515b3-5a64-4f24-8a63-3407e3500a15","system_id":"levelo_inurba_marseille","lat":43.24335,"lon":5.4023,"is_reserved":false,"is_disabled":false,"rental_uris":{"android":"levelo://app?vid=e4b515b3-5a64-4f24-8a63-3407e3500a15","ios":"levelo://app?vid=e4b515b3-5a64-4f24-8a63-3407e3500a15"},"vehicle_type_id":"4","last_reported":1773751482,"current_range_meters":6800,"station_id":"","pricing_plan_id":"cebpf4jnsgd1na2vs0mg"},{"bike_id":"0abe5504-4b79-4fc1-bac9-09f97434d9cc","system_id":"levelo_inurba_marseille","lat":43.3014,"lon":5.37416,"is_reserved":false,"is_disabled":false,"rental_uris":{"android":"levelo://app?vid=0abe5504-4b79-4fc1-bac9-09f97434d9cc","ios":"levelo://app?vid=0abe5504-4b79-4fc1-bac9-09f97434d9cc"},"vehicle_type_id":"4","last_reported":1773751482,"current_range_meters":6800,"station_id":"ce4bgs92rcd13ifvqcc0","pricing_plan_id":"cebpf4jnsgd1na2vs0mg"},{"bike_id":"2b072bbc-0e51-4d02-b170-2847f5f3206f","system_id":"levelo_inurba_marseille","lat":43.28865,"lon":5.35858,"is_reserved":false,"is_disabled":false,"rental_uris":{"android":"levelo://app?vid=2b072bbc-0e51-4d02-b170-2847f5f3206f","ios":"levelo://app?vid=2b072bbc-0e51-4d02-b170-2847f5f3206f"},"vehicle_type_id":"4","last_reported":1773751482,"current_range_meters":7200,"station_id":"ce4bhb12rcd13ifvqem0","pricing_plan_id":"cebpf4jnsgd1na2vs0mg"},{"bike_id":"fe7251cc-f5e9-4cd9-80c1-fef3e2ef626c","system_id":"levelo_inurba_marseille","lat":43.23152,"lon":5.43732,"is_reserved":false,"is_disabled":false,"rental_uris":{"android":"levelo://app?vid=fe7251cc-f5e9-4cd9-80c1-fef3e2ef626c","ios":"levelo://app?vid=fe7251cc-f5e9-4cd9-80c1-fef3e2ef626c"},"vehicle_type_id":"4","last_reported":1773751482,"current_range_meters":7200,"station_id":"ce4bhmp2rcd13ifvqgog","pricing_plan_id":"cebpf4jnsgd1na2vs0mg"},{"bike_id":"57f59ea7-9661-484b-ab62-8930e39b76a3","system_id":"levelo_inurba_marseille","lat":43.23788,"lon":5.36633,"is_reserved":false,"is_disabled":false,"rental_uris":{"android":"levelo://app?vid=57f59ea7-9661-484b-ab62-8930e39b76a3","ios":"levelo://app?vid=57f59ea7-9661-484b-ab62-8930e39b76a3"},"vehicle_type_id":"4","last_reported":1773751482,"current_range_meters":7200,"station_id":"st_d3nk18o9ro0c73en2l3g","pricing_plan_id":"cebpf4jnsgd1na2vs0mg"},{"bike_id":"4eeecf6d-6108-42a0-b77f-fc0c0b55b73c","system_id":"levelo_inurba_marseille","lat":43.2991,"lon":5.3745,"is_reserved":false,"is_disabled":true,"rental_uris":{"android":"levelo://app?vid=4eeecf6d-6108-42a0-b77f-fc0c0b55b73c","ios":"levelo://app?vid=4eeecf6d-6108-42a0-b77f-fc0c0b55b73c"},"vehicle_type_id":"4","last_reported":1773751482,"current_range_meters":7200,"station_id":"ce4bgjh2rcd13ifvqbg0","pricing_plan_id":"cebpf4jnsgd1na2vs0mg"},{"bike_id":"b21e3be4-c7ed-41ef-8b12-6d82d73722e2","system_id":"levelo_inurba_marseille","lat":43.24812,"lon":5.37459,"is_reserved":false,"is_disabled":false,"rental_uris":{"android":"levelo://app?vid=b21e3be4-c7ed-41ef-8b12-6d82d73722e2","ios":"levelo://app?vid=b21e3be4-c7ed-41ef-8b12-6d82d73722e2"},"vehicle_type_id":"4","last_reported":1773751482,"current_range_meters":7200,"station_id":"ce4bhgh2rcd13ifvqfb0","pricing_plan_id":"cebpf4jnsgd1na2vs0mg"},{"bike_id":"94cc2d3f-4d25-4f4c-851a-fdc8f513cd52","system_id":"levelo_inurba_marseille","lat":43.24064,"lon":5.37765,"is_reserved":false,"is_disabled":false,"rental_uris":{"android":"levelo://app?vid=94cc2d3f-4d25-4f4c-851a-fdc8f513cd52","ios":"levelo://app?vid=94cc2d3f-4d25-4f4c-851a-fdc8f513cd52"},"vehicle_type_id":"4","last_reported":1773751482,"current_range_meters":7200,"station_id":"ce4bhnp2rcd13ifvqgvg","pricing_plan_id":"cebpf4jnsgd1na2vs0mg"},{"bike_id":"be47a9f2-05c1-4195-9b42-dbba1a529d20","system_id":"levelo_inurba_marseille","lat":43.26692,"lon":5.38266,"is_reserved":false,"is_disabled":false,"rental_uris":{"android":"levelo://app?vid=be47a9f2-05c1-4195-9b42-dbba1a529d20","ios":"levelo://app?vid=be47a9f2-05c1-4195-9b42-dbba1a529d20"},"vehicle_type_id":"4","last_reported":1773751482,"current_range_meters":7200,"station_id":"ce4bhg92rcd13ifvqf90","pricing_plan_id":"cebpf4jnsgd1na2vs0mg"},{"bike_id":"d9bff880-8c30-4bfa-9adc-09d21cba9a28","system_id":"levelo_inurba_marseille","lat":43.24404,"lon":5.37017,"is_reserved":false,"is_disabled":false,"rental_uris":{"android":"levelo://app?vid=d9bff880-8c30-4bfa-9adc-09d21cba9a28","ios":"levelo://app?vid=d9bff880-8c30-4bfa-9adc-09d21cba9a28"},"vehicle_type_id":"4","last_reported":1773751482,"current_range_meters":7200,"station_id":"ce4bhhh2rcd13ifvqfk0","pricing_plan_id":"cebpf4jnsgd1na2vs0mg"},{"bike_id":"6f83eb31-b48e-41cc-86f8-dc0cead3d767","system_id":"levelo_inurba_marseille","lat":43.21205,"lon":5.35056,"is_reserved":false,"is_disabled":false,"rental_uris":{"android":"levelo://app?vid=6f83eb31-b48e-41cc-86f8-dc0cead3d767","ios":"levelo://app?vid=6f83eb31-b48e-41cc-86f8-dc0cead3d767"},"vehicle_type_id":"4","last_reported":1773751482,"current_range_meters":7200,"station_id":"st_cvj6sg6p6f1abm77japg","pricing_plan_id":"cebpf4jnsgd1na2vs0mg"},{"bike_id":"a650f10d-9ab2-42e1-a1ec-b23d66310508","system_id":"levelo_inurba_marseille","lat":43.27364,"lon":5.42372,"is_reserved":false,"is_disabled":true,"rental_uris":{"android":"levelo://app?vid=a650f10d-9ab2-42e1-a1ec-b23d66310508","ios":"levelo://app?vid=a650f10d-9ab2-42e1-a1ec-b23d66310508"},"vehicle_type_id":"4","last_reported":1773751482,"current_range_meters":7200,"station_id":"","pricing_plan_id":"cebpf4jnsgd1na2vs0mg"},{"bike_id":"99ba46b4-4c6f-44d5-9c27-ad82efd84c9b","system_id":"levelo_inurba_marseille","lat":43.21191,"lon":5.35073,"is_reserved":false,"is_disabled":false,"rental_uris":{"android":"levelo://app?vid=99ba46b4-4c6f-44d5-9c27-ad82efd84c9b","ios":"levelo://app?vid=99ba46b4-4c6f-44d5-9c27-ad82efd84c9b"},"vehicle_type_id":"4","last_reported":1773751482,"current_range_meters":7200,"station_id":"st_cvj6sg6p6f1abm77japg","pricing_plan_id":"cebpf4jnsgd1na2vs0mg"},{"bike_id":"11528a60-2dfa-46ac-84d0-a1182b0410ac","system_id":"levelo_inurba_marseille","lat":43.30431,"lon":5.39763,"is_reserved":false,"is_disabled":false,"rental_uris":{"android":"levelo://app?vid=11528a60-2dfa-46ac-84d0-a1182b0410ac","ios":"levelo://app?vid=11528a60-2dfa-46ac-84d0-a1182b0410ac"},"vehicle_type_id":"4","last_reported":1773751482,"current_range_meters":7200,"station_id":"ce4bh092rcd13ifvqd20","pricing_plan_id":"cebpf4jnsgd1na2vs0mg"},{"bike_id":"36bcefea-1744-478b-a4f4-a282d99e8251","system_id":"levelo_inurba_marseille","lat":43.2455,"lon":5.39518,"is_reserved":false,"is_disabled":true,"rental_uris":{"android":"levelo://app?vid=36bcefea-1744-478b-a4f4-a282d99e8251","ios":"levelo://app?vid=36bcefea-1744-478b-a4f4-a282d99e8251"},"vehicle_type_id":"4","last_reported":1773751482,"current_range_meters":7200,"station_id":"ce4bhlp2rcd13ifvqgjg","pricing_plan_id":"cebpf4jnsgd1na2vs0mg"},{"bike_id":"7d5b3664-02ce-4451-b3f2-afda1ab3ce3d","system_id":"levelo_inurba_marseille","lat":43.33551,"lon":5.37468,"is_reserved":false,"is_disabled":false,"rental_uris":{"android":"levelo://app?vid=7d5b3664-02ce-4451-b3f2-afda1ab3ce3d","ios":"levelo://app?vid=7d5b3664-02ce-4451-b3f2-afda1ab3ce3d"},"vehicle_type_id":"4","last_reported":1773751482,"current_range_meters":7200,"station_id":"st_d46tts09ee8s73dlu43g","pricing_plan_id":"cebpf4jnsgd1na2vs0mg"},{"bike_id":"70fdc065-93d6-4dd2-977b-71ec2a296371","system_id":"levelo_inurba_marseille","lat":43.21751,"lon":5.34616,"is_reserved":false,"is_disabled":false,"rental_uris":{"android":"levelo://app?vid=70fdc065-93d6-4dd2-977b-71ec2a296371","ios":"levelo://app?vid=70fdc065-93d6-4dd2-977b-71ec2a296371"},"vehicle_type_id":"4","last_reported":1773751482,"current_range_meters":8000,"station_id":"st_cvj6r9ubvosntc0bgbag","pricing_plan_id":"cebpf4jnsgd1na2vs0mg"},{"bike_id":"f6c860f4-9c2e-4a13-b509-50fb1709859b","system_id":"levelo_inurba_marseille","lat":43.21199,"lon":5.35067,"is_reserved":false,"is_disabled":false,"rental_uris":{"android":"levelo://app?vid=f6c860f4-9c2e-4a13-b509-50fb1709859b","ios":"levelo://app?vid=f6c860f4-9c2e-4a13-b509-50fb1709859b"},"vehicle_type_id":"4","last_reported":1773751482,"current_range_meters":8000,"station_id":"st_cvj6sg6p6f1abm77japg","pricing_plan_id":"cebpf4jnsgd1na2vs0mg"},{"bike_id":"86f3c3e6-1877-45e4-95fe-47aa36990f39","system_id":"levelo_inurba_marseille","lat":43.3105,"lon":5.37159,"is_reserved":false,"is_disabled":false,"rental_uris":{"android":"levelo://app?vid=86f3c3e6-1877-45e4-95fe-47aa36990f39","ios":"levelo://app?vid=86f3c3e6-1877-45e4-95fe-47aa36990f39"},"vehicle_type_id":"4","last_reported":1773751482,"current_range_meters":8000,"station_id":"st_d4kl2rp97mjs73e7tdfg","pricing_plan_id":"cebpf4jnsgd1na2vs0mg"},{"bike_id":"b5b8b144-cfaf-4287-9933-5469d18ff1ca","system_id":"levelo_inurba_marseille","lat":43.28708,"lon":5.37936,"is_reserved":false,"is_disabled":true,"rental_uris":{"android":"levelo://app?vid=b5b8b144-cfaf-4287-9933-5469d18ff1ca","ios":"levelo://app?vid=b5b8b144-cfaf-4287-9933-5469d18ff1ca"},"vehicle_type_id":"4","last_reported":1773751482,"current_range_meters":8000,"station_id":"ce4bh9p2rcd13ifvqec0","pricing_plan_id":"cebpf4jnsgd1na2vs0mg"},{"bike_id":"a18b068d-ee72-4ec9-8811-6eb4a904a5af","system_id":"levelo_inurba_marseille","lat":43.27378,"lon":5.36236,"is_reserved":false,"is_disabled":false,"rental_uris":{"android":"levelo://app?vid=a18b068d-ee72-4ec9-8811-6eb4a904a5af","ios":"levelo://app?vid=a18b068d-ee72-4ec9-8811-6eb4a904a5af"},"vehicle_type_id":"4","last_reported":1773751482,"current_range_meters":8000,"station_id":"ce4bhbh2rcd13ifvqeo0","pricing_plan_id":"cebpf4jnsgd1na2vs0mg"},{"bike_id":"53336338-5141-44ec-bb59-6df2460b79a8","system_id":"levelo_inurba_marseille","lat":43.30215,"lon":5.39459,"is_reserved":false,"is_disabled":true,"rental_uris":{"android":"levelo://app?vid=53336338-5141-44ec-bb59-6df2460b79a8","ios":"levelo://app?vid=53336338-5141-44ec-bb59-6df2460b79a8"},"vehicle_type_id":"4","last_reported":1773751482,"current_range_meters":8000,"station_id":"ce4bh0p2rcd13ifvqd70","pricing_plan_id":"cebpf4jnsgd1na2vs0mg"},{"bike_id":"1f5bfe55-41d9-43f3-a84f-b130fbed01d6","system_id":"levelo_inurba_marseille","lat":43.21199,"lon":5.35063,"is_reserved":false,"is_disabled":false,"rental_uris":{"android":"levelo://app?vid=1f5bfe55-41d9-43f3-a84f-b130fbed01d6","ios":"levelo://app?vid=1f5bfe55-41d9-43f3-a84f-b130fbed01d6"},"vehicle_type_id":"4","last_reported":1773751482,"current_range_meters":8000,"station_id":"st_cvj6sg6p6f1abm77japg","pricing_plan_id":"cebpf4jnsgd1na2vs0mg"},{"bike_id":"5cbb218e-fedd-4937-b186-707dd986712f","system_id":"levelo_inurba_marseille","lat":43.25339,"lon":5.42137,"is_reserved":false,"is_disabled":false,"rental_uris":{"android":"levelo://app?vid=5cbb218e-fedd-4937-b186-707dd986712f","ios":"levelo://app?vid=5cbb218e-fedd-4937-b186-707dd986712f"},"vehicle_type_id":"4","last_reported":1773751482,"current_range_meters":8000,"station_id":"st_d2m65c5bi1j21697t3ng","pricing_plan_id":"cebpf4jnsgd1na2vs0mg"},{"bike_id":"6c7da26a-6e3c-4915-81a4-435886bc144f","system_id":"levelo_inurba_marseille","lat":43.23209,"lon":5.35531,"is_reserved":false,"is_disabled":false,"rental_uris":{"android":"levelo://app?vid=6c7da26a-6e3c-4915-81a4-435886bc144f","ios":"levelo://app?vid=6c7da26a-6e3c-4915-81a4-435886bc144f"},"vehicle_type_id":"4","last_reported":1773751482,"current_range_meters":8000,"station_id":"ce4bhu92rcd13ifvqi70","pricing_plan_id":"cebpf4jnsgd1na2vs0mg"},{"bike_id":"a0c9ffe0-9b5e-4d8f-99f2-4397444f4643","system_id":"levelo_inurba_marseille","lat":43.23893,"lon":5.37452,"is_reserved":false,"is_disabled":false,"rental_uris":{"android":"levelo://app?vid=a0c9ffe0-9b5e-4d8f-99f2-4397444f4643","ios":"levelo://app?vid=a0c9ffe0-9b5e-4d8f-99f2-4397444f4643"},"vehicle_type_id":"4","last_reported":1773751482,"current_range_meters":8000,"station_id":"","pricing_plan_id":"cebpf4jnsgd1na2vs0mg"},{"bike_id":"a8dc046f-990c-49a1-9464-672c405d7beb","system_id":"levelo_inurba_marseille","lat":43.30572,"lon":5.36558,"is_reserved":false,"is_disabled":false,"rental_uris":{"android":"levelo://app?vid=a8dc046f-990c-49a1-9464-672c405d7beb","ios":"levelo://app?vid=a8dc046f-990c-49a1-9464-672c405d7beb"},"vehicle_type_id":"4","last_reported":1773751482,"current_range_meters":8400,"station_id":"ce4bgs12rcd13ifvqcag","pricing_plan_id":"cebpf4jnsgd1na2vs0mg"},{"bike_id":"458f604b-e062-47bf-ac14-a001a31d10d8","system_id":"levelo_inurba_marseille","lat":43.28474,"lon":5.48395,"is_reserved":false,"is_disabled":false,"rental_uris":{"android":"levelo://app?vid=458f604b-e062-47bf-ac14-a001a31d10d8","ios":"levelo://app?vid=458f604b-e062-47bf-ac14-a001a31d10d8"},"vehicle_type_id":"4","last_reported":1773751482,"current_range_meters":8400,"station_id":"","pricing_plan_id":"cebpf4jnsgd1na2vs0mg"},{"bike_id":"ea68c627-d87d-4361-a9d1-5e99c1d299e5","system_id":"levelo_inurba_marseille","lat":43.23074,"lon":5.35487,"is_reserved":false,"is_disabled":false,"rental_uris":{"android":"levelo://app?vid=ea68c627-d87d-4361-a9d1-5e99c1d299e5","ios":"levelo://app?vid=ea68c627-d87d-4361-a9d1-5e99c1d299e5"},"vehicle_type_id":"4","last_reported":1773751482,"current_range_meters":8400,"station_id":"cpo3342slgdg3j2ifvpg","pricing_plan_id":"cebpf4jnsgd1na2vs0mg"},{"bike_id":"2134a193-4b3a-4038-a280-1a0ba6458570","system_id":"levelo_inurba_marseille","lat":43.29879,"lon":5.42085,"is_reserved":false,"is_disabled":false,"rental_uris":{"android":"levelo://app?vid=2134a193-4b3a-4038-a280-1a0ba6458570","ios":"levelo://app?vid=2134a193-4b3a-4038-a280-1a0ba6458570"},"vehicle_type_id":"4","last_reported":1773751482,"current_range_meters":8400,"station_id":"","pricing_plan_id":"cebpf4jnsgd1na2vs0mg"},{"bike_id":"a198b19a-147f-4fb3-822c-608a1d587cb8","system_id":"levelo_inurba_marseille","lat":43.2176,"lon":5.34602,"is_reserved":false,"is_disabled":false,"rental_uris":{"android":"levelo://app?vid=a198b19a-147f-4fb3-822c-608a1d587cb8","ios":"levelo://app?vid=a198b19a-147f-4fb3-822c-608a1d587cb8"},"vehicle_type_id":"4","last_reported":1773751482,"current_range_meters":8400,"station_id":"st_cvj6r9ubvosntc0bgbag","pricing_plan_id":"cebpf4jnsgd1na2vs0mg"},{"bike_id":"d7b12a29-628f-402c-b2e3-62cf88d4ee2e","system_id":"levelo_inurba_marseille","lat":43.3169,"lon":5.40481,"is_reserved":false,"is_disabled":false,"rental_uris":{"android":"levelo://app?vid=d7b12a29-628f-402c-b2e3-62cf88d4ee2e","ios":"levelo://app?vid=d7b12a29-628f-402c-b2e3-62cf88d4ee2e"},"vehicle_type_id":"4","last_reported":1773751482,"current_range_meters":8400,"station_id":"ce4bh012rcd13ifvqd00","pricing_plan_id":"cebpf4jnsgd1na2vs0mg"},{"bike_id":"a172fb4c-0d89-4238-b899-c9d8e15b8540","system_id":"levelo_inurba_marseille","lat":43.21775,"lon":5.34595,"is_reserved":false,"is_disabled":false,"rental_uris":{"android":"levelo://app?vid=a172fb4c-0d89-4238-b899-c9d8e15b8540","ios":"levelo://app?vid=a172fb4c-0d89-4238-b899-c9d8e15b8540"},"vehicle_type_id":"4","last_reported":1773751482,"current_range_meters":8400,"station_id":"st_cvj6r9ubvosntc0bgbag","pricing_plan_id":"cebpf4jnsgd1na2vs0mg"},{"bike_id":"6dcf64ca-88e3-4dec-bf7c-fa3b38653a60","system_id":"levelo_inurba_marseille","lat":43.2317,"lon":5.43695,"is_reserved":false,"is_disabled":false,"rental_uris":{"android":"levelo://app?vid=6dcf64ca-88e3-4dec-bf7c-fa3b38653a60","ios":"levelo://app?vid=6dcf64ca-88e3-4dec-bf7c-fa3b38653a60"},"vehicle_type_id":"4","last_reported":1773751482,"current_range_meters":8400,"station_id":"ce4bhmp2rcd13ifvqgog","pricing_plan_id":"cebpf4jnsgd1na2vs0mg"},{"bike_id":"7e372e61-a4a4-4320-b78e-0115edf72ed5","system_id":"levelo_inurba_marseille","lat":43.24194,"lon":5.36379,"is_reserved":false,"is_disabled":true,"rental_uris":{"android":"levelo://app?vid=7e372e61-a4a4-4320-b78e-0115edf72ed5","ios":"levelo://app?vid=7e372e61-a4a4-4320-b78e-0115edf72ed5"},"vehicle_type_id":"4","last_reported":1773751482,"current_range_meters":8400,"station_id":"cpo36qri1sfpv3e86is0","pricing_plan_id":"cebpf4jnsgd1na2vs0mg"},{"bike_id":"bd260f4a-7dff-4953-86f0-9c0ac70445d9","system_id":"levelo_inurba_marseille","lat":43.32066,"lon":5.41538,"is_reserved":false,"is_disabled":false,"rental_uris":{"android":"levelo://app?vid=bd260f4a-7dff-4953-86f0-9c0ac70445d9","ios":"levelo://app?vid=bd260f4a-7dff-4953-86f0-9c0ac70445d9"},"vehicle_type_id":"4","last_reported":1773751482,"current_range_meters":8400,"station_id":"ce4bhq92rcd13ifvqhkg","pricing_plan_id":"cebpf4jnsgd1na2vs0mg"},{"bike_id":"9cd8dfdb-b408-4998-9997-2396035a31c8","system_id":"levelo_inurba_marseille","lat":43.31334,"lon":5.39691,"is_reserved":false,"is_disabled":false,"rental_uris":{"android":"levelo://app?vid=9cd8dfdb-b408-4998-9997-2396035a31c8","ios":"levelo://app?vid=9cd8dfdb-b408-4998-9997-2396035a31c8"},"vehicle_type_id":"4","last_reported":1773751482,"current_range_meters":8400,"station_id":"ce4bgvp2rcd13ifvqcu0","pricing_plan_id":"cebpf4jnsgd1na2vs0mg"},{"bike_id":"b9ef10fd-0204-4e5f-bc92-673f50a6fcb4","system_id":"levelo_inurba_marseille","lat":43.21202,"lon":5.35053,"is_reserved":false,"is_disabled":false,"rental_uris":{"android":"levelo://app?vid=b9ef10fd-0204-4e5f-bc92-673f50a6fcb4","ios":"levelo://app?vid=b9ef10fd-0204-4e5f-bc92-673f50a6fcb4"},"vehicle_type_id":"4","last_reported":1773751482,"current_range_meters":8400,"station_id":"","pricing_plan_id":"cebpf4jnsgd1na2vs0mg"},{"bike_id":"5c905397-02bb-4489-bc2a-606670e3b8c3","system_id":"levelo_inurba_marseille","lat":43.27174,"lon":5.40999,"is_reserved":false,"is_disabled":false,"rental_uris":{"android":"levelo://app?vid=5c905397-02bb-4489-bc2a-606670e3b8c3","ios":"levelo://app?vid=5c905397-02bb-4489-bc2a-606670e3b8c3"},"vehicle_type_id":"4","last_reported":1773751482,"current_range_meters":8400,"station_id":"ce4bhl12rcd13ifvqgf0","pricing_plan_id":"cebpf4jnsgd1na2vs0mg"},{"bike_id":"caf2acf5-e04b-4323-bdbb-72fd6015a9d1","system_id":"levelo_inurba_marseille","lat":43.25331,"lon":5.42148,"is_reserved":false,"is_disabled":false,"rental_uris":{"android":"levelo://app?vid=caf2acf5-e04b-4323-bdbb-72fd6015a9d1","ios":"levelo://app?vid=caf2acf5-e04b-4323-bdbb-72fd6015a9d1"},"vehicle_type_id":"4","last_reported":1773751482,"current_range_meters":8400,"station_id":"st_d2m65c5bi1j21697t3ng","pricing_plan_id":"cebpf4jnsgd1na2vs0mg"},{"bike_id":"8a4a129c-900f-4987-8e43-faa3977d59f0","system_id":"levelo_inurba_marseille","lat":43.26554,"lon":5.37285,"is_reserved":false,"is_disabled":false,"rental_uris":{"android":"levelo://app?vid=8a4a129c-900f-4987-8e43-faa3977d59f0","ios":"levelo://app?vid=8a4a129c-900f-4987-8e43-faa3977d59f0"},"vehicle_type_id":"4","last_reported":1773751482,"current_range_meters":8400,"station_id":"ce4bhg12rcd13ifvqf70","pricing_plan_id":"cebpf4jnsgd1na2vs0mg"},{"bike_id":"5efbfe77-f336-4734-90ae-6b59653d3d20","system_id":"levelo_inurba_marseille","lat":43.26566,"lon":5.39041,"is_reserved":false,"is_disabled":false,"rental_uris":{"android":"levelo://app?vid=5efbfe77-f336-4734-90ae-6b59653d3d20","ios":"levelo://app?vid=5efbfe77-f336-4734-90ae-6b59653d3d20"},"vehicle_type_id":"4","last_reported":1773751482,"current_range_meters":8400,"station_id":"ce4bhe12rcd13ifvqf30","pricing_plan_id":"cebpf4jnsgd1na2vs0mg"},{"bike_id":"811cb60e-c2e0-4eff-a720-ab1d90d9f80a","system_id":"levelo_inurba_marseille","lat":43.23394,"lon":5.41236,"is_reserved":false,"is_disabled":false,"rental_uris":{"android":"levelo://app?vid=811cb60e-c2e0-4eff-a720-ab1d90d9f80a","ios":"levelo://app?vid=811cb60e-c2e0-4eff-a720-ab1d90d9f80a"},"vehicle_type_id":"4","last_reported":1773751482,"current_range_meters":8400,"station_id":"","pricing_plan_id":"cebpf4jnsgd1na2vs0mg"},{"bike_id":"0922850f-97f4-4d5f-9c96-79b1b2616092","system_id":"levelo_inurba_marseille","lat":43.29584,"lon":5.37524,"is_reserved":false,"is_disabled":false,"rental_uris":{"android":"levelo://app?vid=0922850f-97f4-4d5f-9c96-79b1b2616092","ios":"levelo://app?vid=0922850f-97f4-4d5f-9c96-79b1b2616092"},"vehicle_type_id":"4","last_reported":1773751482,"current_range_meters":8400,"station_id":"ce4bgh92rcd13ifvqb50","pricing_plan_id":"cebpf4jnsgd1na2vs0mg"},{"bike_id":"c2c7c530-5d90-493e-bc68-4654d00e1dc7","system_id":"levelo_inurba_marseille","lat":43.2521,"lon":5.40613,"is_reserved":false,"is_disabled":false,"rental_uris":{"android":"levelo://app?vid=c2c7c530-5d90-493e-bc68-4654d00e1dc7","ios":"levelo://app?vid=c2c7c530-5d90-493e-bc68-4654d00e1dc7"},"vehicle_type_id":"4","last_reported":1773751482,"current_range_meters":8400,"station_id":"","pricing_plan_id":"cebpf4jnsgd1na2vs0mg"},{"bike_id":"7beceffe-39ea-4ca7-ac60-632f0674c177","system_id":"levelo_inurba_marseille","lat":43.27379,"lon":5.36245,"is_reserved":false,"is_disabled":false,"rental_uris":{"android":"levelo://app?vid=7beceffe-39ea-4ca7-ac60-632f0674c177","ios":"levelo://app?vid=7beceffe-39ea-4ca7-ac60-632f0674c177"},"vehicle_type_id":"4","last_reported":1773751482,"current_range_meters":8800,"station_id":"ce4bhbh2rcd13ifvqeo0","pricing_plan_id":"cebpf4jnsgd1na2vs0mg"},{"bike_id":"7ada2641-316b-4e07-8cf0-f1c79c755356","system_id":"levelo_inurba_marseille","lat":43.2494,"lon":5.40517,"is_reserved":false,"is_disabled":false,"rental_uris":{"android":"levelo://app?vid=7ada2641-316b-4e07-8cf0-f1c79c755356","ios":"levelo://app?vid=7ada2641-316b-4e07-8cf0-f1c79c755356"},"vehicle_type_id":"4","last_reported":1773751482,"current_range_meters":8800,"station_id":"st_d2ngiaodas8pm72gd1h0","pricing_plan_id":"cebpf4jnsgd1na2vs0mg"},{"bike_id":"7f3757cf-f19f-4b39-a6f9-4c890381aaf0","system_id":"levelo_inurba_marseille","lat":43.28438,"lon":5.39203,"is_reserved":false,"is_disabled":false,"rental_uris":{"android":"levelo://app?vid=7f3757cf-f19f-4b39-a6f9-4c890381aaf0","ios":"levelo://app?vid=7f3757cf-f19f-4b39-a6f9-4c890381aaf0"},"vehicle_type_id":"4","last_reported":1773751482,"current_range_meters":8800,"station_id":"ce4bhoh2rcd13ifvqh5g","pricing_plan_id":"cebpf4jnsgd1na2vs0mg"},{"bike_id":"7786c34f-602b-4e9d-a8ca-1802c760d6b9","system_id":"levelo_inurba_marseille","lat":43.27217,"lon":5.39185,"is_reserved":false,"is_disabled":false,"rental_uris":{"android":"levelo://app?vid=7786c34f-602b-4e9d-a8ca-1802c760d6b9","ios":"levelo://app?vid=7786c34f-602b-4e9d-a8ca-1802c760d6b9"},"vehicle_type_id":"4","last_reported":1773751482,"current_range_meters":8800,"station_id":"ce4bhhp2rcd13ifvqfm0","pricing_plan_id":"cebpf4jnsgd1na2vs0mg"},{"bike_id":"73f59619-b8fb-4247-8fd5-e2dcc21c22ed","system_id":"levelo_inurba_marseille","lat":43.30541,"lon":5.36536,"is_reserved":false,"is_disabled":false,"rental_uris":{"android":"levelo://app?vid=73f59619-b8fb-4247-8fd5-e2dcc21c22ed","ios":"levelo://app?vid=73f59619-b8fb-4247-8fd5-e2dcc21c22ed"},"vehicle_type_id":"4","last_reported":1773751482,"current_range_meters":8800,"station_id":"ce4bgs12rcd13ifvqcag","pricing_plan_id":"cebpf4jnsgd1na2vs0mg"},{"bike_id":"c56c6ce4-a976-4142-9d6a-4570e927a31f","system_id":"levelo_inurba_marseille","lat":43.29949,"lon":5.38521,"is_reserved":false,"is_disabled":false,"rental_uris":{"android":"levelo://app?vid=c56c6ce4-a976-4142-9d6a-4570e927a31f","ios":"levelo://app?vid=c56c6ce4-a976-4142-9d6a-4570e927a31f"},"vehicle_type_id":"4","last_reported":1773751482,"current_range_meters":8800,"station_id":"ce4bgj92rcd13ifvqbd0","pricing_plan_id":"cebpf4jnsgd1na2vs0mg"},{"bike_id":"e19bbcec-af9d-483d-ac29-18df3b9c0ab9","system_id":"levelo_inurba_marseille","lat":43.28481,"lon":5.48403,"is_reserved":false,"is_disabled":false,"rental_uris":{"android":"levelo://app?vid=e19bbcec-af9d-483d-ac29-18df3b9c0ab9","ios":"levelo://app?vid=e19bbcec-af9d-483d-ac29-18df3b9c0ab9"},"vehicle_type_id":"4","last_reported":1773751482,"current_range_meters":8800,"station_id":"st_d3svhcjqgbts73a3dn0g","pricing_plan_id":"cebpf4jnsgd1na2vs0mg"},{"bike_id":"f7cad0dd-4929-454b-8848-7575c69435e1","system_id":"levelo_inurba_marseille","lat":43.25872,"lon":5.3991,"is_reserved":false,"is_disabled":true,"rental_uris":{"android":"levelo://app?vid=f7cad0dd-4929-454b-8848-7575c69435e1","ios":"levelo://app?vid=f7cad0dd-4929-454b-8848-7575c69435e1"},"vehicle_type_id":"4","last_reported":1773751482,"current_range_meters":8800,"station_id":"ce4bhl92rcd13ifvqghg","pricing_plan_id":"cebpf4jnsgd1na2vs0mg"},{"bike_id":"cc5fc361-e677-4693-8a3b-54577a2e489f","system_id":"levelo_inurba_marseille","lat":43.30545,"lon":5.36543,"is_reserved":false,"is_disabled":false,"rental_uris":{"android":"levelo://app?vid=cc5fc361-e677-4693-8a3b-54577a2e489f","ios":"levelo://app?vid=cc5fc361-e677-4693-8a3b-54577a2e489f"},"vehicle_type_id":"4","last_reported":1773751482,"current_range_meters":8800,"station_id":"ce4bgs12rcd13ifvqcag","pricing_plan_id":"cebpf4jnsgd1na2vs0mg"},{"bike_id":"db48e8da-f2e3-497c-9806-fc58d05453cc","system_id":"levelo_inurba_marseille","lat":43.26956,"lon":5.38621,"is_reserved":false,"is_disabled":false,"rental_uris":{"android":"levelo://app?vid=db48e8da-f2e3-497c-9806-fc58d05453cc","ios":"levelo://app?vid=db48e8da-f2e3-497c-9806-fc58d05453cc"},"vehicle_type_id":"4","last_reported":1773751482,"current_range_meters":8800,"station_id":"ce4bhh92rcd13ifvqfh0","pricing_plan_id":"cebpf4jnsgd1na2vs0mg"},{"bike_id":"80db3609-75ad-4c89-b2ce-16c9992dcab3","system_id":"levelo_inurba_marseille","lat":43.22943,"lon":5.35387,"is_reserved":false,"is_disabled":false,"rental_uris":{"android":"levelo://app?vid=80db3609-75ad-4c89-b2ce-16c9992dcab3","ios":"levelo://app?vid=80db3609-75ad-4c89-b2ce-16c9992dcab3"},"vehicle_type_id":"4","last_reported":1773751482,"current_range_meters":8800,"station_id":"cpo3532slgdg3j2ikp40","pricing_plan_id":"cebpf4jnsgd1na2vs0mg"},{"bike_id":"69f9e7d0-9e6e-48d9-8402-311a294217e6","system_id":"levelo_inurba_marseille","lat":43.29387,"lon":5.37836,"is_reserved":false,"is_disabled":true,"rental_uris":{"android":"levelo://app?vid=69f9e7d0-9e6e-48d9-8402-311a294217e6","ios":"levelo://app?vid=69f9e7d0-9e6e-48d9-8402-311a294217e6"},"vehicle_type_id":"4","last_reported":1773751482,"current_range_meters":8800,"station_id":"ce4bgjh2rcd13ifvqbf0","pricing_plan_id":"cebpf4jnsgd1na2vs0mg"},{"bike_id":"0bacd49d-1e82-47d0-b9c4-534513f8cc81","system_id":"levelo_inurba_marseille","lat":43.30955,"lon":5.39029,"is_reserved":false,"is_disabled":true,"rental_uris":{"android":"levelo://app?vid=0bacd49d-1e82-47d0-b9c4-534513f8cc81","ios":"levelo://app?vid=0bacd49d-1e82-47d0-b9c4-534513f8cc81"},"vehicle_type_id":"4","last_reported":1773751482,"current_range_meters":8800,"station_id":"ce4bgup2rcd13ifvqco0","pricing_plan_id":"cebpf4jnsgd1na2vs0mg"},{"bike_id":"ff47d2eb-adc7-4bf9-935f-0a6af0342e62","system_id":"levelo_inurba_marseille","lat":43.25857,"lon":5.3992,"is_reserved":false,"is_disabled":false,"rental_uris":{"android":"levelo://app?vid=ff47d2eb-adc7-4bf9-935f-0a6af0342e62","ios":"levelo://app?vid=ff47d2eb-adc7-4bf9-935f-0a6af0342e62"},"vehicle_type_id":"4","last_reported":1773751482,"current_range_meters":8800,"station_id":"ce4bhl92rcd13ifvqghg","pricing_plan_id":"cebpf4jnsgd1na2vs0mg"},{"bike_id":"791ff4c7-210d-4808-b4ce-b1b0de227978","system_id":"levelo_inurba_marseille","lat":43.27329,"lon":5.39105,"is_reserved":false,"is_disabled":false,"rental_uris":{"android":"levelo://app?vid=791ff4c7-210d-4808-b4ce-b1b0de227978","ios":"levelo://app?vid=791ff4c7-210d-4808-b4ce-b1b0de227978"},"vehicle_type_id":"4","last_reported":1773751482,"current_range_meters":8800,"station_id":"ce4bhgp2rcd13ifvqfe0","pricing_plan_id":"cebpf4jnsgd1na2vs0mg"},{"bike_id":"f8a00c49-c93d-41ce-9f11-d81257ca6394","system_id":"levelo_inurba_marseille","lat":43.22943,"lon":5.35387,"is_reserved":false,"is_disabled":false,"rental_uris":{"android":"levelo://app?vid=f8a00c49-c93d-41ce-9f11-d81257ca6394","ios":"levelo://app?vid=f8a00c49-c93d-41ce-9f11-d81257ca6394"},"vehicle_type_id":"4","last_reported":1773751482,"current_range_meters":8800,"station_id":"cpo3532slgdg3j2ikp40","pricing_plan_id":"cebpf4jnsgd1na2vs0mg"},{"bike_id":"68833fe8-11d8-468a-ba50-47fe4b189d25","system_id":"levelo_inurba_marseille","lat":43.26213,"lon":5.3744,"is_reserved":false,"is_disabled":false,"rental_uris":{"android":"levelo://app?vid=68833fe8-11d8-468a-ba50-47fe4b189d25","ios":"levelo://app?vid=68833fe8-11d8-468a-ba50-47fe4b189d25"},"vehicle_type_id":"4","last_reported":1773751482,"current_range_meters":8800,"station_id":"ce4bhgp2rcd13ifvqfc0","pricing_plan_id":"cebpf4jnsgd1na2vs0mg"},{"bike_id":"322b6d83-411f-465e-973f-cdf0699ad9d4","system_id":"levelo_inurba_marseille","lat":43.29528,"lon":5.3751,"is_reserved":false,"is_disabled":false,"rental_uris":{"android":"levelo://app?vid=322b6d83-411f-465e-973f-cdf0699ad9d4","ios":"levelo://app?vid=322b6d83-411f-465e-973f-cdf0699ad9d4"},"vehicle_type_id":"4","last_reported":1773751482,"current_range_meters":8800,"station_id":"ce4bgkp2rcd13ifvqbmg","pricing_plan_id":"cebpf4jnsgd1na2vs0mg"},{"bike_id":"b9f2e5d5-d6ac-4c0d-86f2-4fe1a54ef3b3","system_id":"levelo_inurba_marseille","lat":43.32116,"lon":5.36759,"is_reserved":false,"is_disabled":false,"rental_uris":{"android":"levelo://app?vid=b9f2e5d5-d6ac-4c0d-86f2-4fe1a54ef3b3","ios":"levelo://app?vid=b9f2e5d5-d6ac-4c0d-86f2-4fe1a54ef3b3"},"vehicle_type_id":"4","last_reported":1773751482,"current_range_meters":8800,"station_id":"ce4bhrh2rcd13ifvqhug","pricing_plan_id":"cebpf4jnsgd1na2vs0mg"},{"bike_id":"782c800d-d317-4441-ad4b-531163641a8a","system_id":"levelo_inurba_marseille","lat":43.2668,"lon":5.38279,"is_reserved":false,"is_disabled":false,"rental_uris":{"android":"levelo://app?vid=782c800d-d317-4441-ad4b-531163641a8a","ios":"levelo://app?vid=782c800d-d317-4441-ad4b-531163641a8a"},"vehicle_type_id":"4","last_reported":1773751482,"current_range_meters":9200,"station_id":"ce4bhg92rcd13ifvqf90","pricing_plan_id":"cebpf4jnsgd1na2vs0mg"},{"bike_id":"90b5b896-2848-4692-81ed-7efbdbb05f22","system_id":"levelo_inurba_marseille","lat":43.28102,"lon":5.37832,"is_reserved":false,"is_disabled":false,"rental_uris":{"android":"levelo://app?vid=90b5b896-2848-4692-81ed-7efbdbb05f22","ios":"levelo://app?vid=90b5b896-2848-4692-81ed-7efbdbb05f22"},"vehicle_type_id":"4","last_reported":1773751482,"current_range_meters":9200,"station_id":"ce4bha12rcd13ifvqee0","pricing_plan_id":"cebpf4jnsgd1na2vs0mg"},{"bike_id":"abeed13c-c51b-4739-8fd2-4f8ab70d4f2c","system_id":"levelo_inurba_marseille","lat":43.3173,"lon":5.42377,"is_reserved":false,"is_disabled":false,"rental_uris":{"android":"levelo://app?vid=abeed13c-c51b-4739-8fd2-4f8ab70d4f2c","ios":"levelo://app?vid=abeed13c-c51b-4739-8fd2-4f8ab70d4f2c"},"vehicle_type_id":"4","last_reported":1773751482,"current_range_meters":9200,"station_id":"ce4bhp92rcd13ifvqhbg","pricing_plan_id":"cebpf4jnsgd1na2vs0mg"},{"bike_id":"7d6c96f2-24cd-4abf-80a3-84c4f3df0c41","system_id":"levelo_inurba_marseille","lat":43.23205,"lon":5.35547,"is_reserved":false,"is_disabled":false,"rental_uris":{"android":"levelo://app?vid=7d6c96f2-24cd-4abf-80a3-84c4f3df0c41","ios":"levelo://app?vid=7d6c96f2-24cd-4abf-80a3-84c4f3df0c41"},"vehicle_type_id":"4","last_reported":1773751482,"current_range_meters":9200,"station_id":"ce4bhu92rcd13ifvqi70","pricing_plan_id":"cebpf4jnsgd1na2vs0mg"},{"bike_id":"3b6e0c3e-cbaa-4171-b477-05e2254d111c","system_id":"levelo_inurba_marseille","lat":43.26684,"lon":5.38258,"is_reserved":false,"is_disabled":false,"rental_uris":{"android":"levelo://app?vid=3b6e0c3e-cbaa-4171-b477-05e2254d111c","ios":"levelo://app?vid=3b6e0c3e-cbaa-4171-b477-05e2254d111c"},"vehicle_type_id":"4","last_reported":1773751482,"current_range_meters":9200,"station_id":"ce4bhg92rcd13ifvqf90","pricing_plan_id":"cebpf4jnsgd1na2vs0mg"},{"bike_id":"baf7c1f5-4a85-47f3-9367-3f6d536f083f","system_id":"levelo_inurba_marseille","lat":43.27998,"lon":5.39996,"is_reserved":false,"is_disabled":true,"rental_uris":{"android":"levelo://app?vid=baf7c1f5-4a85-47f3-9367-3f6d536f083f","ios":"levelo://app?vid=baf7c1f5-4a85-47f3-9367-3f6d536f083f"},"vehicle_type_id":"4","last_reported":1773751482,"current_range_meters":9200,"station_id":"ce4bho92rcd13ifvqh4g","pricing_plan_id":"cebpf4jnsgd1na2vs0mg"},{"bike_id":"6ac9fba9-cbd8-4e41-8d10-8d9aa767f584","system_id":"levelo_inurba_marseille","lat":43.27676,"lon":5.38876,"is_reserved":false,"is_disabled":true,"rental_uris":{"android":"levelo://app?vid=6ac9fba9-cbd8-4e41-8d10-8d9aa767f584","ios":"levelo://app?vid=6ac9fba9-cbd8-4e41-8d10-8d9aa767f584"},"vehicle_type_id":"4","last_reported":1773751482,"current_range_meters":9200,"station_id":"ce4bhi12rcd13ifvqfo0","pricing_plan_id":"cebpf4jnsgd1na2vs0mg"},{"bike_id":"aa55bf61-2ca7-41e3-8bb2-254e014eceaa","system_id":"levelo_inurba_marseille","lat":43.24395,"lon":5.37042,"is_reserved":false,"is_disabled":false,"rental_uris":{"android":"levelo://app?vid=aa55bf61-2ca7-41e3-8bb2-254e014eceaa","ios":"levelo://app?vid=aa55bf61-2ca7-41e3-8bb2-254e014eceaa"},"vehicle_type_id":"4","last_reported":1773751482,"current_range_meters":9200,"station_id":"ce4bhhh2rcd13ifvqfk0","pricing_plan_id":"cebpf4jnsgd1na2vs0mg"},{"bike_id":"e563383a-8a89-4304-b11f-18268886193e","system_id":"levelo_inurba_marseille","lat":43.25571,"lon":5.38247,"is_reserved":false,"is_disabled":false,"rental_uris":{"android":"levelo://app?vid=e563383a-8a89-4304-b11f-18268886193e","ios":"levelo://app?vid=e563383a-8a89-4304-b11f-18268886193e"},"vehicle_type_id":"4","last_reported":1773751482,"current_range_meters":9200,"station_id":"ce4bhih2rcd13ifvqfs0","pricing_plan_id":"cebpf4jnsgd1na2vs0mg"},{"bike_id":"145cf909-0a6f-49d8-9ad7-e55b549465ae","system_id":"levelo_inurba_marseille","lat":43.25643,"lon":5.38553,"is_reserved":false,"is_disabled":false,"rental_uris":{"android":"levelo://app?vid=145cf909-0a6f-49d8-9ad7-e55b549465ae","ios":"levelo://app?vid=145cf909-0a6f-49d8-9ad7-e55b549465ae"},"vehicle_type_id":"4","last_reported":1773751482,"current_range_meters":9200,"station_id":"","pricing_plan_id":"cebpf4jnsgd1na2vs0mg"},{"bike_id":"901c28db-c015-4313-845b-db71a8b5949f","system_id":"levelo_inurba_marseille","lat":43.24163,"lon":5.39712,"is_reserved":false,"is_disabled":true,"rental_uris":{"android":"levelo://app?vid=901c28db-c015-4313-845b-db71a8b5949f","ios":"levelo://app?vid=901c28db-c015-4313-845b-db71a8b5949f"},"vehicle_type_id":"4","last_reported":1773751482,"current_range_meters":9200,"station_id":"ce4bhn12rcd13ifvqgpg","pricing_plan_id":"cebpf4jnsgd1na2vs0mg"},{"bike_id":"bf249f81-2ef0-45f9-a595-8436dd14fe0c","system_id":"levelo_inurba_marseille","lat":43.32115,"lon":5.36772,"is_reserved":false,"is_disabled":false,"rental_uris":{"android":"levelo://app?vid=bf249f81-2ef0-45f9-a595-8436dd14fe0c","ios":"levelo://app?vid=bf249f81-2ef0-45f9-a595-8436dd14fe0c"},"vehicle_type_id":"4","last_reported":1773751482,"current_range_meters":9200,"station_id":"ce4bhrh2rcd13ifvqhug","pricing_plan_id":"cebpf4jnsgd1na2vs0mg"},{"bike_id":"9290a8a1-77b9-49b2-876f-adf8cda79ecf","system_id":"levelo_inurba_marseille","lat":43.2438,"lon":5.37041,"is_reserved":false,"is_disabled":false,"rental_uris":{"android":"levelo://app?vid=9290a8a1-77b9-49b2-876f-adf8cda79ecf","ios":"levelo://app?vid=9290a8a1-77b9-49b2-876f-adf8cda79ecf"},"vehicle_type_id":"4","last_reported":1773751482,"current_range_meters":9200,"station_id":"ce4bhhh2rcd13ifvqfk0","pricing_plan_id":"cebpf4jnsgd1na2vs0mg"},{"bike_id":"a48b9ce9-1aff-4126-b7c2-2612edc5f610","system_id":"levelo_inurba_marseille","lat":43.30635,"lon":5.40074,"is_reserved":false,"is_disabled":false,"rental_uris":{"android":"levelo://app?vid=a48b9ce9-1aff-4126-b7c2-2612edc5f610","ios":"levelo://app?vid=a48b9ce9-1aff-4126-b7c2-2612edc5f610"},"vehicle_type_id":"4","last_reported":1773751482,"current_range_meters":9200,"station_id":"ce4bh112rcd13ifvqda0","pricing_plan_id":"cebpf4jnsgd1na2vs0mg"},{"bike_id":"70f98469-d2c0-43f4-9102-c6ad6fb97bca","system_id":"levelo_inurba_marseille","lat":43.21755,"lon":5.34601,"is_reserved":false,"is_disabled":false,"rental_uris":{"android":"levelo://app?vid=70f98469-d2c0-43f4-9102-c6ad6fb97bca","ios":"levelo://app?vid=70f98469-d2c0-43f4-9102-c6ad6fb97bca"},"vehicle_type_id":"4","last_reported":1773751482,"current_range_meters":9200,"station_id":"st_cvj6r9ubvosntc0bgbag","pricing_plan_id":"cebpf4jnsgd1na2vs0mg"},{"bike_id":"fe3f87a8-c799-4e07-8bb7-ce8f93de0014","system_id":"levelo_inurba_marseille","lat":43.2721,"lon":5.39189,"is_reserved":false,"is_disabled":false,"rental_uris":{"android":"levelo://app?vid=fe3f87a8-c799-4e07-8bb7-ce8f93de0014","ios":"levelo://app?vid=fe3f87a8-c799-4e07-8bb7-ce8f93de0014"},"vehicle_type_id":"4","last_reported":1773751482,"current_range_meters":9200,"station_id":"ce4bhhp2rcd13ifvqfm0","pricing_plan_id":"cebpf4jnsgd1na2vs0mg"},{"bike_id":"838396bf-87b9-4c01-a097-e1f8af9e49fd","system_id":"levelo_inurba_marseille","lat":43.34171,"lon":5.40906,"is_reserved":false,"is_disabled":false,"rental_uris":{"android":"levelo://app?vid=838396bf-87b9-4c01-a097-e1f8af9e49fd","ios":"levelo://app?vid=838396bf-87b9-4c01-a097-e1f8af9e49fd"},"vehicle_type_id":"4","last_reported":1773751482,"current_range_meters":9200,"station_id":"ce4bhqh2rcd13ifvqhlg","pricing_plan_id":"cebpf4jnsgd1na2vs0mg"},{"bike_id":"7430ef14-9e76-4339-b5c1-5f21eb2cf31e","system_id":"levelo_inurba_marseille","lat":43.28337,"lon":5.38092,"is_reserved":false,"is_disabled":false,"rental_uris":{"android":"levelo://app?vid=7430ef14-9e76-4339-b5c1-5f21eb2cf31e","ios":"levelo://app?vid=7430ef14-9e76-4339-b5c1-5f21eb2cf31e"},"vehicle_type_id":"4","last_reported":1773751482,"current_range_meters":9200,"station_id":"ce4bh412rcd13ifvqdr0","pricing_plan_id":"cebpf4jnsgd1na2vs0mg"},{"bike_id":"90e3905b-57e6-4282-a1f5-50b7eafc8592","system_id":"levelo_inurba_marseille","lat":43.22563,"lon":5.41631,"is_reserved":false,"is_disabled":false,"rental_uris":{"android":"levelo://app?vid=90e3905b-57e6-4282-a1f5-50b7eafc8592","ios":"levelo://app?vid=90e3905b-57e6-4282-a1f5-50b7eafc8592"},"vehicle_type_id":"4","last_reported":1773751482,"current_range_meters":9600,"station_id":"st_d2o4gvlbi1j2169b742g","pricing_plan_id":"cebpf4jnsgd1na2vs0mg"},{"bike_id":"e9a095ec-646a-47ef-b9a1-632c444faa7c","system_id":"levelo_inurba_marseille","lat":43.26386,"lon":5.41067,"is_reserved":false,"is_disabled":false,"rental_uris":{"android":"levelo://app?vid=e9a095ec-646a-47ef-b9a1-632c444faa7c","ios":"levelo://app?vid=e9a095ec-646a-47ef-b9a1-632c444faa7c"},"vehicle_type_id":"4","last_reported":1773751482,"current_range_meters":9600,"station_id":"st_d4e5ca6na9uc73bfl5fg","pricing_plan_id":"cebpf4jnsgd1na2vs0mg"},{"bike_id":"f77d8ba9-0aa6-4584-bbea-10af3fde7148","system_id":"levelo_inurba_marseille","lat":43.24949,"lon":5.40514,"is_reserved":false,"is_disabled":false,"rental_uris":{"android":"levelo://app?vid=f77d8ba9-0aa6-4584-bbea-10af3fde7148","ios":"levelo://app?vid=f77d8ba9-0aa6-4584-bbea-10af3fde7148"},"vehicle_type_id":"4","last_reported":1773751482,"current_range_meters":9600,"station_id":"st_d2ngiaodas8pm72gd1h0","pricing_plan_id":"cebpf4jnsgd1na2vs0mg"},{"bike_id":"4d03e992-adc4-43be-a78d-aad24ba5b38d","system_id":"levelo_inurba_marseille","lat":43.29187,"lon":5.36071,"is_reserved":false,"is_disabled":false,"rental_uris":{"android":"levelo://app?vid=4d03e992-adc4-43be-a78d-aad24ba5b38d","ios":"levelo://app?vid=4d03e992-adc4-43be-a78d-aad24ba5b38d"},"vehicle_type_id":"4","last_reported":1773751482,"current_range_meters":9600,"station_id":"ce4bhbh2rcd13ifvqeqg","pricing_plan_id":"cebpf4jnsgd1na2vs0mg"},{"bike_id":"b2d32596-5bca-4b9e-ac0d-9f0f2f521e45","system_id":"levelo_inurba_marseille","lat":43.32976,"lon":5.36013,"is_reserved":false,"is_disabled":false,"rental_uris":{"android":"levelo://app?vid=b2d32596-5bca-4b9e-ac0d-9f0f2f521e45","ios":"levelo://app?vid=b2d32596-5bca-4b9e-ac0d-9f0f2f521e45"},"vehicle_type_id":"4","last_reported":1773751482,"current_range_meters":9600,"station_id":"","pricing_plan_id":"cebpf4jnsgd1na2vs0mg"},{"bike_id":"acb233c6-13ae-4c8b-9041-065f7e9b8568","system_id":"levelo_inurba_marseille","lat":43.26569,"lon":5.38988,"is_reserved":false,"is_disabled":false,"rental_uris":{"android":"levelo://app?vid=acb233c6-13ae-4c8b-9041-065f7e9b8568","ios":"levelo://app?vid=acb233c6-13ae-4c8b-9041-065f7e9b8568"},"vehicle_type_id":"4","last_reported":1773751482,"current_range_meters":9600,"station_id":"ce4bhe12rcd13ifvqf30","pricing_plan_id":"cebpf4jnsgd1na2vs0mg"},{"bike_id":"f22c9ef0-2b8b-44ec-853c-827b2f52c93d","system_id":"levelo_inurba_marseille","lat":43.28611,"lon":5.3706,"is_reserved":false,"is_disabled":false,"rental_uris":{"android":"levelo://app?vid=f22c9ef0-2b8b-44ec-853c-827b2f52c93d","ios":"levelo://app?vid=f22c9ef0-2b8b-44ec-853c-827b2f52c93d"},"vehicle_type_id":"4","last_reported":1773751482,"current_range_meters":9600,"station_id":"ce4bht12rcd13ifvqi60","pricing_plan_id":"cebpf4jnsgd1na2vs0mg"},{"bike_id":"af76a918-434d-4373-8fdd-16d8b75e35a1","system_id":"levelo_inurba_marseille","lat":43.21744,"lon":5.34616,"is_reserved":false,"is_disabled":false,"rental_uris":{"android":"levelo://app?vid=af76a918-434d-4373-8fdd-16d8b75e35a1","ios":"levelo://app?vid=af76a918-434d-4373-8fdd-16d8b75e35a1"},"vehicle_type_id":"4","last_reported":1773751482,"current_range_meters":9600,"station_id":"st_cvj6r9ubvosntc0bgbag","pricing_plan_id":"cebpf4jnsgd1na2vs0mg"},{"bike_id":"3feb4c73-6e63-47f9-927f-446525b49f72","system_id":"levelo_inurba_marseille","lat":43.31898,"lon":5.36795,"is_reserved":false,"is_disabled":false,"rental_uris":{"android":"levelo://app?vid=3feb4c73-6e63-47f9-927f-446525b49f72","ios":"levelo://app?vid=3feb4c73-6e63-47f9-927f-446525b49f72"},"vehicle_type_id":"4","last_reported":1773751482,"current_range_meters":9600,"station_id":"ce4bhrh2rcd13ifvqhug","pricing_plan_id":"cebpf4jnsgd1na2vs0mg"},{"bike_id":"c20164ea-e05e-49c4-9d82-24d6524e2489","system_id":"levelo_inurba_marseille","lat":43.28156,"lon":5.42646,"is_reserved":false,"is_disabled":false,"rental_uris":{"android":"levelo://app?vid=c20164ea-e05e-49c4-9d82-24d6524e2489","ios":"levelo://app?vid=c20164ea-e05e-49c4-9d82-24d6524e2489"},"vehicle_type_id":"4","last_reported":1773751482,"current_range_meters":9600,"station_id":"ce4bhnh2rcd13ifvqgug","pricing_plan_id":"cebpf4jnsgd1na2vs0mg"},{"bike_id":"babdd864-8742-41fd-a7e3-70bfe96ff8ef","system_id":"levelo_inurba_marseille","lat":43.24404,"lon":5.3704,"is_reserved":false,"is_disabled":false,"rental_uris":{"android":"levelo://app?vid=babdd864-8742-41fd-a7e3-70bfe96ff8ef","ios":"levelo://app?vid=babdd864-8742-41fd-a7e3-70bfe96ff8ef"},"vehicle_type_id":"4","last_reported":1773751482,"current_range_meters":9600,"station_id":"ce4bhhh2rcd13ifvqfk0","pricing_plan_id":"cebpf4jnsgd1na2vs0mg"},{"bike_id":"ea3c54d1-5815-4c69-bb20-9e5341681cce","system_id":"levelo_inurba_marseille","lat":43.29744,"lon":5.38038,"is_reserved":false,"is_disabled":true,"rental_uris":{"android":"levelo://app?vid=ea3c54d1-5815-4c69-bb20-9e5341681cce","ios":"levelo://app?vid=ea3c54d1-5815-4c69-bb20-9e5341681cce"},"vehicle_type_id":"4","last_reported":1773751482,"current_range_meters":9600,"station_id":"","pricing_plan_id":"cebpf4jnsgd1na2vs0mg"},{"bike_id":"7fefc9b6-5fbf-4935-8bdf-082e7ba9286a","system_id":"levelo_inurba_marseille","lat":43.25955,"lon":5.4087,"is_reserved":false,"is_disabled":false,"rental_uris":{"android":"levelo://app?vid=7fefc9b6-5fbf-4935-8bdf-082e7ba9286a","ios":"levelo://app?vid=7fefc9b6-5fbf-4935-8bdf-082e7ba9286a"},"vehicle_type_id":"4","last_reported":1773751482,"current_range_meters":9600,"station_id":"ce4bhm92rcd13ifvqglg","pricing_plan_id":"cebpf4jnsgd1na2vs0mg"},{"bike_id":"f7149018-82ef-4598-a861-51a45f2db631","system_id":"levelo_inurba_marseille","lat":43.25939,"lon":5.40887,"is_reserved":false,"is_disabled":false,"rental_uris":{"android":"levelo://app?vid=f7149018-82ef-4598-a861-51a45f2db631","ios":"levelo://app?vid=f7149018-82ef-4598-a861-51a45f2db631"},"vehicle_type_id":"4","last_reported":1773751482,"current_range_meters":9600,"station_id":"ce4bhm92rcd13ifvqglg","pricing_plan_id":"cebpf4jnsgd1na2vs0mg"},{"bike_id":"51f460ea-6871-4234-ac8b-cc1fc6e840d1","system_id":"levelo_inurba_marseille","lat":43.29004,"lon":5.35617,"is_reserved":false,"is_disabled":false,"rental_uris":{"android":"levelo://app?vid=51f460ea-6871-4234-ac8b-cc1fc6e840d1","ios":"levelo://app?vid=51f460ea-6871-4234-ac8b-cc1fc6e840d1"},"vehicle_type_id":"4","last_reported":1773751482,"current_range_meters":9600,"station_id":"ce4bhb92rcd13ifvqen0","pricing_plan_id":"cebpf4jnsgd1na2vs0mg"},{"bike_id":"8af0a38f-153c-4dcf-a261-e40583133eb1","system_id":"levelo_inurba_marseille","lat":43.23785,"lon":5.36625,"is_reserved":false,"is_disabled":false,"rental_uris":{"android":"levelo://app?vid=8af0a38f-153c-4dcf-a261-e40583133eb1","ios":"levelo://app?vid=8af0a38f-153c-4dcf-a261-e40583133eb1"},"vehicle_type_id":"4","last_reported":1773751482,"current_range_meters":10000,"station_id":"st_d3nk18o9ro0c73en2l3g","pricing_plan_id":"cebpf4jnsgd1na2vs0mg"},{"bike_id":"fb9f20f0-3d84-4797-ad35-6386c850e491","system_id":"levelo_inurba_marseille","lat":43.23172,"lon":5.43691,"is_reserved":false,"is_disabled":false,"rental_uris":{"android":"levelo://app?vid=fb9f20f0-3d84-4797-ad35-6386c850e491","ios":"levelo://app?vid=fb9f20f0-3d84-4797-ad35-6386c850e491"},"vehicle_type_id":"4","last_reported":1773751482,"current_range_meters":10000,"station_id":"ce4bhmp2rcd13ifvqgog","pricing_plan_id":"cebpf4jnsgd1na2vs0mg"},{"bike_id":"82dcdf4f-8f8d-49c8-bf8f-175264f4f3bd","system_id":"levelo_inurba_marseille","lat":43.22539,"lon":5.34826,"is_reserved":false,"is_disabled":false,"rental_uris":{"android":"levelo://app?vid=82dcdf4f-8f8d-49c8-bf8f-175264f4f3bd","ios":"levelo://app?vid=82dcdf4f-8f8d-49c8-bf8f-175264f4f3bd"},"vehicle_type_id":"4","last_reported":1773751482,"current_range_meters":10000,"station_id":"st_cvj5dfep6f1abm77gieg","pricing_plan_id":"cebpf4jnsgd1na2vs0mg"},{"bike_id":"374e9e14-c800-46ed-83bb-74dfd10456fd","system_id":"levelo_inurba_marseille","lat":43.31542,"lon":5.37205,"is_reserved":false,"is_disabled":false,"rental_uris":{"android":"levelo://app?vid=374e9e14-c800-46ed-83bb-74dfd10456fd","ios":"levelo://app?vid=374e9e14-c800-46ed-83bb-74dfd10456fd"},"vehicle_type_id":"4","last_reported":1773751482,"current_range_meters":10000,"station_id":"","pricing_plan_id":"cebpf4jnsgd1na2vs0mg"},{"bike_id":"3a9bfa46-8ac9-44e1-bc55-99c4bde65c1d","system_id":"levelo_inurba_marseille","lat":43.2707,"lon":5.42267,"is_reserved":false,"is_disabled":false,"rental_uris":{"android":"levelo://app?vid=3a9bfa46-8ac9-44e1-bc55-99c4bde65c1d","ios":"levelo://app?vid=3a9bfa46-8ac9-44e1-bc55-99c4bde65c1d"},"vehicle_type_id":"4","last_reported":1773751482,"current_range_meters":10000,"station_id":"ce4bhk92rcd13ifvqgb0","pricing_plan_id":"cebpf4jnsgd1na2vs0mg"},{"bike_id":"047af0a5-14e2-479e-aa98-65733b038f29","system_id":"levelo_inurba_marseille","lat":43.337444,"lon":5.374475,"is_reserved":false,"is_disabled":true,"rental_uris":{"android":"levelo://app?vid=047af0a5-14e2-479e-aa98-65733b038f29","ios":"levelo://app?vid=047af0a5-14e2-479e-aa98-65733b038f29"},"vehicle_type_id":"4","last_reported":1773751482,"current_range_meters":10000,"station_id":"ce4bgip2rcd13ifvqbb0","pricing_plan_id":"cebpf4jnsgd1na2vs0mg"},{"bike_id":"dd0f55a9-9a48-4f3b-a89c-0f30d5717633","system_id":"levelo_inurba_marseille","lat":43.24074,"lon":5.37768,"is_reserved":false,"is_disabled":false,"rental_uris":{"android":"levelo://app?vid=dd0f55a9-9a48-4f3b-a89c-0f30d5717633","ios":"levelo://app?vid=dd0f55a9-9a48-4f3b-a89c-0f30d5717633"},"vehicle_type_id":"4","last_reported":1773751482,"current_range_meters":10000,"station_id":"ce4bhnp2rcd13ifvqgvg","pricing_plan_id":"cebpf4jnsgd1na2vs0mg"},{"bike_id":"b9664ffb-1617-4a0b-817e-4335957e5ad2","system_id":"levelo_inurba_marseille","lat":43.275,"lon":5.41548,"is_reserved":false,"is_disabled":false,"rental_uris":{"android":"levelo://app?vid=b9664ffb-1617-4a0b-817e-4335957e5ad2","ios":"levelo://app?vid=b9664ffb-1617-4a0b-817e-4335957e5ad2"},"vehicle_type_id":"4","last_reported":1773751482,"current_range_meters":10000,"station_id":"st_d6im8g6chgec73a5pndg","pricing_plan_id":"cebpf4jnsgd1na2vs0mg"},{"bike_id":"3cf0a467-01c5-4c75-99d2-3eec9c832a3d","system_id":"levelo_inurba_marseille","lat":43.30409,"lon":5.42455,"is_reserved":false,"is_disabled":false,"rental_uris":{"android":"levelo://app?vid=3cf0a467-01c5-4c75-99d2-3eec9c832a3d","ios":"levelo://app?vid=3cf0a467-01c5-4c75-99d2-3eec9c832a3d"},"vehicle_type_id":"4","last_reported":1773751482,"current_range_meters":10000,"station_id":"ce4bghh2rcd13ifvqb60","pricing_plan_id":"cebpf4jnsgd1na2vs0mg"},{"bike_id":"b9236ee7-cd1b-4e39-b04e-4a8e959fc4d2","system_id":"levelo_inurba_marseille","lat":43.29765,"lon":5.42784,"is_reserved":false,"is_disabled":false,"rental_uris":{"android":"levelo://app?vid=b9236ee7-cd1b-4e39-b04e-4a8e959fc4d2","ios":"levelo://app?vid=b9236ee7-cd1b-4e39-b04e-4a8e959fc4d2"},"vehicle_type_id":"4","last_reported":1773751482,"current_range_meters":10000,"station_id":"st_d3md5207bmas73dh9klg","pricing_plan_id":"cebpf4jnsgd1na2vs0mg"},{"bike_id":"51408edf-0f5b-4813-998b-3040c9f6bed5","system_id":"levelo_inurba_marseille","lat":43.32361,"lon":5.36734,"is_reserved":false,"is_disabled":false,"rental_uris":{"android":"levelo://app?vid=51408edf-0f5b-4813-998b-3040c9f6bed5","ios":"levelo://app?vid=51408edf-0f5b-4813-998b-3040c9f6bed5"},"vehicle_type_id":"4","last_reported":1773751482,"current_range_meters":10000,"station_id":"ce4bhsh2rcd13ifvqi2g","pricing_plan_id":"cebpf4jnsgd1na2vs0mg"},{"bike_id":"98a37870-e11e-4230-8fa0-e4f360a18493","system_id":"levelo_inurba_marseille","lat":43.23179,"lon":5.43701,"is_reserved":false,"is_disabled":false,"rental_uris":{"android":"levelo://app?vid=98a37870-e11e-4230-8fa0-e4f360a18493","ios":"levelo://app?vid=98a37870-e11e-4230-8fa0-e4f360a18493"},"vehicle_type_id":"4","last_reported":1773751482,"current_range_meters":10000,"station_id":"ce4bhmp2rcd13ifvqgog","pricing_plan_id":"cebpf4jnsgd1na2vs0mg"},{"bike_id":"779b8a3c-1846-46b5-9cab-bf0ec2b1118f","system_id":"levelo_inurba_marseille","lat":43.28501,"lon":5.484,"is_reserved":false,"is_disabled":false,"rental_uris":{"android":"levelo://app?vid=779b8a3c-1846-46b5-9cab-bf0ec2b1118f","ios":"levelo://app?vid=779b8a3c-1846-46b5-9cab-bf0ec2b1118f"},"vehicle_type_id":"4","last_reported":1773751482,"current_range_meters":10000,"station_id":"st_d3svhcjqgbts73a3dn0g","pricing_plan_id":"cebpf4jnsgd1na2vs0mg"},{"bike_id":"1f89aa84-1314-436d-87c1-f1578476bfa0","system_id":"levelo_inurba_marseille","lat":43.29965,"lon":5.41312,"is_reserved":false,"is_disabled":false,"rental_uris":{"android":"levelo://app?vid=1f89aa84-1314-436d-87c1-f1578476bfa0","ios":"levelo://app?vid=1f89aa84-1314-436d-87c1-f1578476bfa0"},"vehicle_type_id":"4","last_reported":1773751482,"current_range_meters":10800,"station_id":"","pricing_plan_id":"cebpf4jnsgd1na2vs0mg"},{"bike_id":"bd60a6ec-18d4-4476-ab1b-f354043c4b72","system_id":"levelo_inurba_marseille","lat":43.29796,"lon":5.42713,"is_reserved":false,"is_disabled":false,"rental_uris":{"android":"levelo://app?vid=bd60a6ec-18d4-4476-ab1b-f354043c4b72","ios":"levelo://app?vid=bd60a6ec-18d4-4476-ab1b-f354043c4b72"},"vehicle_type_id":"4","last_reported":1773751482,"current_range_meters":10800,"station_id":"","pricing_plan_id":"cebpf4jnsgd1na2vs0mg"},{"bike_id":"d0b1f448-6af4-4ef1-a755-e03baf4488aa","system_id":"levelo_inurba_marseille","lat":43.29252,"lon":5.35747,"is_reserved":false,"is_disabled":false,"rental_uris":{"android":"levelo://app?vid=d0b1f448-6af4-4ef1-a755-e03baf4488aa","ios":"levelo://app?vid=d0b1f448-6af4-4ef1-a755-e03baf4488aa"},"vehicle_type_id":"4","last_reported":1773751482,"current_range_meters":10800,"station_id":"","pricing_plan_id":"cebpf4jnsgd1na2vs0mg"},{"bike_id":"e107cb22-a13d-4c03-93ce-8114e06b9a0f","system_id":"levelo_inurba_marseille","lat":43.28482,"lon":5.48383,"is_reserved":false,"is_disabled":false,"rental_uris":{"android":"levelo://app?vid=e107cb22-a13d-4c03-93ce-8114e06b9a0f","ios":"levelo://app?vid=e107cb22-a13d-4c03-93ce-8114e06b9a0f"},"vehicle_type_id":"4","last_reported":1773751482,"current_range_meters":10800,"station_id":"","pricing_plan_id":"cebpf4jnsgd1na2vs0mg"},{"bike_id":"447b11a1-21b5-4523-80dc-ebe593853403","system_id":"levelo_inurba_marseille","lat":43.29178,"lon":5.42635,"is_reserved":false,"is_disabled":false,"rental_uris":{"android":"levelo://app?vid=447b11a1-21b5-4523-80dc-ebe593853403","ios":"levelo://app?vid=447b11a1-21b5-4523-80dc-ebe593853403"},"vehicle_type_id":"4","last_reported":1773751482,"current_range_meters":10800,"station_id":"","pricing_plan_id":"cebpf4jnsgd1na2vs0mg"},{"bike_id":"6776a7f7-d55e-40ac-9119-c9545cf456dd","system_id":"levelo_inurba_marseille","lat":43.29496,"lon":5.43316,"is_reserved":false,"is_disabled":false,"rental_uris":{"android":"levelo://app?vid=6776a7f7-d55e-40ac-9119-c9545cf456dd","ios":"levelo://app?vid=6776a7f7-d55e-40ac-9119-c9545cf456dd"},"vehicle_type_id":"4","last_reported":1773751482,"current_range_meters":10800,"station_id":"st_d3j5ugp08ojc73fj9d10","pricing_plan_id":"cebpf4jnsgd1na2vs0mg"},{"bike_id":"5b73008e-0d76-4724-8abc-99286982d9e3","system_id":"levelo_inurba_marseille","lat":43.30958,"lon":5.36849,"is_reserved":false,"is_disabled":false,"rental_uris":{"android":"levelo://app?vid=5b73008e-0d76-4724-8abc-99286982d9e3","ios":"levelo://app?vid=5b73008e-0d76-4724-8abc-99286982d9e3"},"vehicle_type_id":"4","last_reported":1773751482,"current_range_meters":10800,"station_id":"","pricing_plan_id":"cebpf4jnsgd1na2vs0mg"},{"bike_id":"75373e16-b716-4821-86f8-9cbbf2235649","system_id":"levelo_inurba_marseille","lat":43.23383,"lon":5.41239,"is_reserved":false,"is_disabled":false,"rental_uris":{"android":"levelo://app?vid=75373e16-b716-4821-86f8-9cbbf2235649","ios":"levelo://app?vid=75373e16-b716-4821-86f8-9cbbf2235649"},"vehicle_type_id":"4","last_reported":1773751482,"current_range_meters":10800,"station_id":"","pricing_plan_id":"cebpf4jnsgd1na2vs0mg"},{"bike_id":"8c63035e-f40e-4177-93cb-36e8ff868394","system_id":"levelo_inurba_marseille","lat":43.23155,"lon":5.43713,"is_reserved":false,"is_disabled":false,"rental_uris":{"android":"levelo://app?vid=8c63035e-f40e-4177-93cb-36e8ff868394","ios":"levelo://app?vid=8c63035e-f40e-4177-93cb-36e8ff868394"},"vehicle_type_id":"4","last_reported":1773751482,"current_range_meters":10800,"station_id":"ce4bhmp2rcd13ifvqgog","pricing_plan_id":"cebpf4jnsgd1na2vs0mg"},{"bike_id":"4f0d161a-4703-4d78-adaf-114c5cd94029","system_id":"levelo_inurba_marseille","lat":43.29185,"lon":5.35806,"is_reserved":false,"is_disabled":false,"rental_uris":{"android":"levelo://app?vid=4f0d161a-4703-4d78-adaf-114c5cd94029","ios":"levelo://app?vid=4f0d161a-4703-4d78-adaf-114c5cd94029"},"vehicle_type_id":"4","last_reported":1773751482,"current_range_meters":10800,"station_id":"ce4bhb12rcd13ifvqel0","pricing_plan_id":"cebpf4jnsgd1na2vs0mg"},{"bike_id":"b0faf5bf-6da7-4f99-b1ad-5359624e1166","system_id":"levelo_inurba_marseille","lat":43.23151,"lon":5.43705,"is_reserved":false,"is_disabled":false,"rental_uris":{"android":"levelo://app?vid=b0faf5bf-6da7-4f99-b1ad-5359624e1166","ios":"levelo://app?vid=b0faf5bf-6da7-4f99-b1ad-5359624e1166"},"vehicle_type_id":"4","last_reported":1773751482,"current_range_meters":10800,"station_id":"ce4bhmp2rcd13ifvqgog","pricing_plan_id":"cebpf4jnsgd1na2vs0mg"},{"bike_id":"fce4a7fb-a209-47fd-9d49-bc92563ae001","system_id":"levelo_inurba_marseille","lat":43.24096,"lon":5.37761,"is_reserved":false,"is_disabled":false,"rental_uris":{"android":"levelo://app?vid=fce4a7fb-a209-47fd-9d49-bc92563ae001","ios":"levelo://app?vid=fce4a7fb-a209-47fd-9d49-bc92563ae001"},"vehicle_type_id":"4","last_reported":1773751482,"current_range_meters":10800,"station_id":"ce4bhnp2rcd13ifvqgvg","pricing_plan_id":"cebpf4jnsgd1na2vs0mg"},{"bike_id":"8aa14d29-25bc-4c2c-b18f-6cc4ce5aa96b","system_id":"levelo_inurba_marseille","lat":43.28217,"lon":5.40552,"is_reserved":false,"is_disabled":false,"rental_uris":{"android":"levelo://app?vid=8aa14d29-25bc-4c2c-b18f-6cc4ce5aa96b","ios":"levelo://app?vid=8aa14d29-25bc-4c2c-b18f-6cc4ce5aa96b"},"vehicle_type_id":"4","last_reported":1773751482,"current_range_meters":10800,"station_id":"","pricing_plan_id":"cebpf4jnsgd1na2vs0mg"},