{"last_updated":1778358856,"ttl":60,"version":"2.2","data":{"bikes":[{"bike_id":"23af179d-35e6-43f8-8954-88b3de0a9be4","system_id":"levelo_inurba_marseille","lat":43.25103,"lon":5.40311,"is_reserved":false,"is_disabled":false,"rental_uris":{"android":"levelo://app?vid=23af179d-35e6-43f8-8954-88b3de0a9be4","ios":"levelo://app?vid=23af179d-35e6-43f8-8954-88b3de0a9be4"},"vehicle_type_id":"4","last_reported":1778358857,"current_range_meters":800,"station_id":"ce4bhlh2rcd13ifvqgig","pricing_plan_id":"cebpf4jnsgd1na2vs0mg"},{"bike_id":"63d82ceb-3d09-4ebb-b3a6-e781904d86af","system_id":"levelo_inurba_marseille","lat":43.25817,"lon":5.3942,"is_reserved":false,"is_disabled":false,"rental_uris":{"android":"levelo://app?vid=63d82ceb-3d09-4ebb-b3a6-e781904d86af","ios":"levelo://app?vid=63d82ceb-3d09-4ebb-b3a6-e781904d86af"},"vehicle_type_id":"4","last_reported":1778358857,"current_range_meters":800,"station_id":"ce4bhip2rcd13ifvqft0","pricing_plan_id":"cebpf4jnsgd1na2vs0mg"},{"bike_id":"f03e9416-653d-45fd-aba7-c2ee459eb1bb","system_id":"levelo_inurba_marseille","lat":43.33534,"lon":5.37468,"is_reserved":false,"is_disabled":false,"rental_uris":{"android":"levelo://app?vid=f03e9416-653d-45fd-aba7-c2ee459eb1bb","ios":"levelo://app?vid=f03e9416-653d-45fd-aba7-c2ee459eb1bb"},"vehicle_type_id":"4","last_reported":1778358857,"current_range_meters":2000,"station_id":"st_d46tts09ee8s73dlu43g","pricing_plan_id":"cebpf4jnsgd1na2vs0mg"},{"bike_id":"a3870cbc-357e-40b2-ad53-15607e688e8f","system_id":"levelo_inurba_marseille","lat":43.28099,"lon":5.37833,"is_reserved":false,"is_disabled":false,"rental_uris":{"android":"levelo://app?vid=a3870cbc-357e-40b2-ad53-15607e688e8f","ios":"levelo://app?vid=a3870cbc-357e-40b2-ad53-15607e688e8f"},"vehicle_type_id":"4","last_reported":1778358857,"current_range_meters":2000,"station_id":"ce4bha12rcd13ifvqee0","pricing_plan_id":"cebpf4jnsgd1na2vs0mg"},{"bike_id":"91d78913-28b2-401d-850a-f1af99bf6768","system_id":"levelo_inurba_marseille","lat":43.28832,"lon":5.42515,"is_reserved":false,"is_disabled":false,"rental_uris":{"android":"levelo://app?vid=91d78913-28b2-401d-850a-f1af99bf6768","ios":"levelo://app?vid=91d78913-28b2-401d-850a-f1af99bf6768"},"vehicle_type_id":"4","last_reported":1778358857,"current_range_meters":2800,"station_id":"st_d3b462108ojc7389ooeg","pricing_plan_id":"cebpf4jnsgd1na2vs0mg"},{"bike_id":"7796f6bc-e60b-41b0-889b-d24ebaf7b59a","system_id":"levelo_inurba_marseille","lat":43.30654,"lon":5.40064,"is_reserved":false,"is_disabled":false,"rental_uris":{"android":"levelo://app?vid=7796f6bc-e60b-41b0-889b-d24ebaf7b59a","ios":"levelo://app?vid=7796f6bc-e60b-41b0-889b-d24ebaf7b59a"},"vehicle_type_id":"4","last_reported":1778358857,"current_range_meters":2800,"station_id":"ce4bh112rcd13ifvqda0","pricing_plan_id":"cebpf4jnsgd1na2vs0mg"},{"bike_id":"5f8dc88b-6d44-4c75-ba36-77edb8c5667d","system_id":"levelo_inurba_marseille","lat":43.28187,"lon":5.42649,"is_reserved":false,"is_disabled":false,"rental_uris":{"android":"levelo://app?vid=5f8dc88b-6d44-4c75-ba36-77edb8c5667d","ios":"levelo://app?vid=5f8dc88b-6d44-4c75-ba36-77edb8c5667d"},"vehicle_type_id":"4","last_reported":1778358857,"current_range_meters":2800,"station_id":"ce4bhnh2rcd13ifvqgug","pricing_plan_id":"cebpf4jnsgd1na2vs0mg"},{"bike_id":"32beef37-64ec-4e41-a811-a172ab1b9d29","system_id":"levelo_inurba_marseille","lat":43.27957,"lon":5.38699,"is_reserved":false,"is_disabled":false,"rental_uris":{"android":"levelo://app?vid=32beef37-64ec-4e41-a811-a172ab1b9d29","ios":"levelo://app?vid=32beef37-64ec-4e41-a811-a172ab1b9d29"},"vehicle_type_id":"4","last_reported":1778358857,"current_range_meters":2800,"station_id":"ce4bhg12rcd13ifvqf80","pricing_plan_id":"cebpf4jnsgd1na2vs0mg"},{"bike_id":"bb9fe373-7054-4748-a5d5-db7919e2a47a","system_id":"levelo_inurba_marseille","lat":43.295685,"lon":5.375281,"is_reserved":false,"is_disabled":false,"rental_uris":{"android":"levelo://app?vid=bb9fe373-7054-4748-a5d5-db7919e2a47a","ios":"levelo://app?vid=bb9fe373-7054-4748-a5d5-db7919e2a47a"},"vehicle_type_id":"4","last_reported":1778358857,"current_range_meters":2800,"station_id":"ce4bgh92rcd13ifvqb50","pricing_plan_id":"cebpf4jnsgd1na2vs0mg"},{"bike_id":"a642ff93-23fb-47fe-8f09-c285a40a8425","system_id":"levelo_inurba_marseille","lat":43.31999,"lon":5.38163,"is_reserved":false,"is_disabled":false,"rental_uris":{"android":"levelo://app?vid=a642ff93-23fb-47fe-8f09-c285a40a8425","ios":"levelo://app?vid=a642ff93-23fb-47fe-8f09-c285a40a8425"},"vehicle_type_id":"4","last_reported":1778358857,"current_range_meters":2800,"station_id":"ce4bhr12rcd13ifvqhpg","pricing_plan_id":"cebpf4jnsgd1na2vs0mg"},{"bike_id":"6400099d-f713-4246-a4ce-1b44f22e3329","system_id":"levelo_inurba_marseille","lat":43.32136,"lon":5.36789,"is_reserved":false,"is_disabled":false,"rental_uris":{"android":"levelo://app?vid=6400099d-f713-4246-a4ce-1b44f22e3329","ios":"levelo://app?vid=6400099d-f713-4246-a4ce-1b44f22e3329"},"vehicle_type_id":"4","last_reported":1778358857,"current_range_meters":2800,"station_id":"ce4bhrh2rcd13ifvqhug","pricing_plan_id":"cebpf4jnsgd1na2vs0mg"},{"bike_id":"d887cdf3-66ee-4a37-985b-e7ed35671fff","system_id":"levelo_inurba_marseille","lat":43.2734,"lon":5.39114,"is_reserved":false,"is_disabled":false,"rental_uris":{"android":"levelo://app?vid=d887cdf3-66ee-4a37-985b-e7ed35671fff","ios":"levelo://app?vid=d887cdf3-66ee-4a37-985b-e7ed35671fff"},"vehicle_type_id":"4","last_reported":1778358857,"current_range_meters":2800,"station_id":"ce4bhgp2rcd13ifvqfe0","pricing_plan_id":"cebpf4jnsgd1na2vs0mg"},{"bike_id":"415142c7-f50e-411e-adf6-f39700e22f6d","system_id":"levelo_inurba_marseille","lat":43.3271,"lon":5.35588,"is_reserved":false,"is_disabled":false,"rental_uris":{"android":"levelo://app?vid=415142c7-f50e-411e-adf6-f39700e22f6d","ios":"levelo://app?vid=415142c7-f50e-411e-adf6-f39700e22f6d"},"vehicle_type_id":"4","last_reported":1778358857,"current_range_meters":2800,"station_id":"","pricing_plan_id":"cebpf4jnsgd1na2vs0mg"},{"bike_id":"7fbbaa54-f508-411f-8e1e-c4fe39b1debd","system_id":"levelo_inurba_marseille","lat":43.31753,"lon":5.40425,"is_reserved":false,"is_disabled":false,"rental_uris":{"android":"levelo://app?vid=7fbbaa54-f508-411f-8e1e-c4fe39b1debd","ios":"levelo://app?vid=7fbbaa54-f508-411f-8e1e-c4fe39b1debd"},"vehicle_type_id":"4","last_reported":1778358857,"current_range_meters":2800,"station_id":"","pricing_plan_id":"cebpf4jnsgd1na2vs0mg"},{"bike_id":"89ae5690-28bf-4b15-ae03-941d1c512dfe","system_id":"levelo_inurba_marseille","lat":43.3008,"lon":5.37912,"is_reserved":false,"is_disabled":false,"rental_uris":{"android":"levelo://app?vid=89ae5690-28bf-4b15-ae03-941d1c512dfe","ios":"levelo://app?vid=89ae5690-28bf-4b15-ae03-941d1c512dfe"},"vehicle_type_id":"4","last_reported":1778358857,"current_range_meters":2800,"station_id":"","pricing_plan_id":"cebpf4jnsgd1na2vs0mg"},{"bike_id":"feed6869-4f51-4662-9ae3-00c43cc86309","system_id":"levelo_inurba_marseille","lat":43.27316,"lon":5.39107,"is_reserved":false,"is_disabled":false,"rental_uris":{"android":"levelo://app?vid=feed6869-4f51-4662-9ae3-00c43cc86309","ios":"levelo://app?vid=feed6869-4f51-4662-9ae3-00c43cc86309"},"vehicle_type_id":"4","last_reported":1778358857,"current_range_meters":2800,"station_id":"ce4bhgp2rcd13ifvqfe0","pricing_plan_id":"cebpf4jnsgd1na2vs0mg"},{"bike_id":"8aba812c-c815-4a1c-aa19-2d1b97ab1a6e","system_id":"levelo_inurba_marseille","lat":43.26959,"lon":5.38628,"is_reserved":false,"is_disabled":false,"rental_uris":{"android":"levelo://app?vid=8aba812c-c815-4a1c-aa19-2d1b97ab1a6e","ios":"levelo://app?vid=8aba812c-c815-4a1c-aa19-2d1b97ab1a6e"},"vehicle_type_id":"4","last_reported":1778358857,"current_range_meters":2800,"station_id":"ce4bhh92rcd13ifvqfh0","pricing_plan_id":"cebpf4jnsgd1na2vs0mg"},{"bike_id":"83c53200-e80f-47bb-b870-a7652825089e","system_id":"levelo_inurba_marseille","lat":43.246577,"lon":5.381577,"is_reserved":false,"is_disabled":false,"rental_uris":{"android":"levelo://app?vid=83c53200-e80f-47bb-b870-a7652825089e","ios":"levelo://app?vid=83c53200-e80f-47bb-b870-a7652825089e"},"vehicle_type_id":"4","last_reported":1778358857,"current_range_meters":3200,"station_id":"ce4bhih2rcd13ifvqfr0","pricing_plan_id":"cebpf4jnsgd1na2vs0mg"},{"bike_id":"9b69a00b-cb1a-41a5-ac17-a4ced3b43751","system_id":"levelo_inurba_marseille","lat":43.30607,"lon":5.37221,"is_reserved":false,"is_disabled":false,"rental_uris":{"android":"levelo://app?vid=9b69a00b-cb1a-41a5-ac17-a4ced3b43751","ios":"levelo://app?vid=9b69a00b-cb1a-41a5-ac17-a4ced3b43751"},"vehicle_type_id":"4","last_reported":1778358857,"current_range_meters":3200,"station_id":"ce4bgqh2rcd13ifvqc4g","pricing_plan_id":"cebpf4jnsgd1na2vs0mg"},{"bike_id":"b44a9cd4-5b24-4ba8-878e-e9ddbed75cb6","system_id":"levelo_inurba_marseille","lat":43.27956,"lon":5.38715,"is_reserved":false,"is_disabled":true,"rental_uris":{"android":"levelo://app?vid=b44a9cd4-5b24-4ba8-878e-e9ddbed75cb6","ios":"levelo://app?vid=b44a9cd4-5b24-4ba8-878e-e9ddbed75cb6"},"vehicle_type_id":"4","last_reported":1778358857,"current_range_meters":3200,"station_id":"ce4bhg12rcd13ifvqf80","pricing_plan_id":"cebpf4jnsgd1na2vs0mg"},{"bike_id":"0ecddad9-091b-47fd-a45d-db67559668c1","system_id":"levelo_inurba_marseille","lat":43.27978,"lon":5.38755,"is_reserved":false,"is_disabled":true,"rental_uris":{"android":"levelo://app?vid=0ecddad9-091b-47fd-a45d-db67559668c1","ios":"levelo://app?vid=0ecddad9-091b-47fd-a45d-db67559668c1"},"vehicle_type_id":"4","last_reported":1778358857,"current_range_meters":3200,"station_id":"ce4bhg12rcd13ifvqf80","pricing_plan_id":"cebpf4jnsgd1na2vs0mg"},{"bike_id":"3cea0c61-5600-40f7-8bdd-cd8df0e98936","system_id":"levelo_inurba_marseille","lat":43.31424,"lon":5.383,"is_reserved":false,"is_disabled":false,"rental_uris":{"android":"levelo://app?vid=3cea0c61-5600-40f7-8bdd-cd8df0e98936","ios":"levelo://app?vid=3cea0c61-5600-40f7-8bdd-cd8df0e98936"},"vehicle_type_id":"4","last_reported":1778358857,"current_range_meters":3200,"station_id":"","pricing_plan_id":"cebpf4jnsgd1na2vs0mg"},{"bike_id":"9a3140d6-e3fa-492e-8460-9c6f22636700","system_id":"levelo_inurba_marseille","lat":43.3136,"lon":5.39971,"is_reserved":false,"is_disabled":false,"rental_uris":{"android":"levelo://app?vid=9a3140d6-e3fa-492e-8460-9c6f22636700","ios":"levelo://app?vid=9a3140d6-e3fa-492e-8460-9c6f22636700"},"vehicle_type_id":"4","last_reported":1778358857,"current_range_meters":3200,"station_id":"","pricing_plan_id":"cebpf4jnsgd1na2vs0mg"},{"bike_id":"db1ac9e8-2733-492b-8480-e00e6de58734","system_id":"levelo_inurba_marseille","lat":43.27324,"lon":5.39107,"is_reserved":false,"is_disabled":false,"rental_uris":{"android":"levelo://app?vid=db1ac9e8-2733-492b-8480-e00e6de58734","ios":"levelo://app?vid=db1ac9e8-2733-492b-8480-e00e6de58734"},"vehicle_type_id":"4","last_reported":1778358857,"current_range_meters":3200,"station_id":"ce4bhgp2rcd13ifvqfe0","pricing_plan_id":"cebpf4jnsgd1na2vs0mg"},{"bike_id":"a4e456c2-8ade-4f57-a236-9bd6e0485e2b","system_id":"levelo_inurba_marseille","lat":43.290355,"lon":5.399546,"is_reserved":false,"is_disabled":false,"rental_uris":{"android":"levelo://app?vid=a4e456c2-8ade-4f57-a236-9bd6e0485e2b","ios":"levelo://app?vid=a4e456c2-8ade-4f57-a236-9bd6e0485e2b"},"vehicle_type_id":"4","last_reported":1778358857,"current_range_meters":3200,"station_id":"ce4bh392rcd13ifvqdm0","pricing_plan_id":"cebpf4jnsgd1na2vs0mg"},{"bike_id":"639e2ee0-236e-4cfd-ad26-7e3f6111102b","system_id":"levelo_inurba_marseille","lat":43.26826,"lon":5.3945,"is_reserved":false,"is_disabled":false,"rental_uris":{"android":"levelo://app?vid=639e2ee0-236e-4cfd-ad26-7e3f6111102b","ios":"levelo://app?vid=639e2ee0-236e-4cfd-ad26-7e3f6111102b"},"vehicle_type_id":"4","last_reported":1778358857,"current_range_meters":3200,"station_id":"","pricing_plan_id":"cebpf4jnsgd1na2vs0mg"},{"bike_id":"fa833790-fea7-4b87-ab01-22a9071ab066","system_id":"levelo_inurba_marseille","lat":43.28482,"lon":5.48414,"is_reserved":false,"is_disabled":false,"rental_uris":{"android":"levelo://app?vid=fa833790-fea7-4b87-ab01-22a9071ab066","ios":"levelo://app?vid=fa833790-fea7-4b87-ab01-22a9071ab066"},"vehicle_type_id":"4","last_reported":1778358857,"current_range_meters":3200,"station_id":"","pricing_plan_id":"cebpf4jnsgd1na2vs0mg"},{"bike_id":"95489a07-b280-4aea-935b-70fc8cc33653","system_id":"levelo_inurba_marseille","lat":43.21756,"lon":5.346,"is_reserved":false,"is_disabled":true,"rental_uris":{"android":"levelo://app?vid=95489a07-b280-4aea-935b-70fc8cc33653","ios":"levelo://app?vid=95489a07-b280-4aea-935b-70fc8cc33653"},"vehicle_type_id":"4","last_reported":1778358857,"current_range_meters":3200,"station_id":"st_cvj6r9ubvosntc0bgbag","pricing_plan_id":"cebpf4jnsgd1na2vs0mg"},{"bike_id":"ccce87ca-6e73-4d30-8fae-2d3b2522a21e","system_id":"levelo_inurba_marseille","lat":43.2577,"lon":5.39386,"is_reserved":false,"is_disabled":false,"rental_uris":{"android":"levelo://app?vid=ccce87ca-6e73-4d30-8fae-2d3b2522a21e","ios":"levelo://app?vid=ccce87ca-6e73-4d30-8fae-2d3b2522a21e"},"vehicle_type_id":"4","last_reported":1778358857,"current_range_meters":3200,"station_id":"ce4bhip2rcd13ifvqft0","pricing_plan_id":"cebpf4jnsgd1na2vs0mg"},{"bike_id":"7afac39b-ec7f-441c-854a-bc035a5b385e","system_id":"levelo_inurba_marseille","lat":43.27565,"lon":5.38428,"is_reserved":false,"is_disabled":false,"rental_uris":{"android":"levelo://app?vid=7afac39b-ec7f-441c-854a-bc035a5b385e","ios":"levelo://app?vid=7afac39b-ec7f-441c-854a-bc035a5b385e"},"vehicle_type_id":"4","last_reported":1778358857,"current_range_meters":3200,"station_id":"ce4bhh92rcd13ifvqfi0","pricing_plan_id":"cebpf4jnsgd1na2vs0mg"},{"bike_id":"13b1bcc7-e9d8-48b8-a72f-6d1f9d17e51d","system_id":"levelo_inurba_marseille","lat":43.24989,"lon":5.38888,"is_reserved":false,"is_disabled":false,"rental_uris":{"android":"levelo://app?vid=13b1bcc7-e9d8-48b8-a72f-6d1f9d17e51d","ios":"levelo://app?vid=13b1bcc7-e9d8-48b8-a72f-6d1f9d17e51d"},"vehicle_type_id":"4","last_reported":1778358857,"current_range_meters":3200,"station_id":"ce4bhgp2rcd13ifvqfd0","pricing_plan_id":"cebpf4jnsgd1na2vs0mg"},{"bike_id":"5b17b337-4e55-486b-b310-212b10614e57","system_id":"levelo_inurba_marseille","lat":43.3235,"lon":5.36765,"is_reserved":false,"is_disabled":false,"rental_uris":{"android":"levelo://app?vid=5b17b337-4e55-486b-b310-212b10614e57","ios":"levelo://app?vid=5b17b337-4e55-486b-b310-212b10614e57"},"vehicle_type_id":"4","last_reported":1778358857,"current_range_meters":3200,"station_id":"ce4bhsh2rcd13ifvqi2g","pricing_plan_id":"cebpf4jnsgd1na2vs0mg"},{"bike_id":"b814abf4-d77d-4013-8042-4e39661fb9e7","system_id":"levelo_inurba_marseille","lat":43.27203,"lon":5.39147,"is_reserved":false,"is_disabled":false,"rental_uris":{"android":"levelo://app?vid=b814abf4-d77d-4013-8042-4e39661fb9e7","ios":"levelo://app?vid=b814abf4-d77d-4013-8042-4e39661fb9e7"},"vehicle_type_id":"4","last_reported":1778358857,"current_range_meters":3200,"station_id":"ce4bhhp2rcd13ifvqfm0","pricing_plan_id":"cebpf4jnsgd1na2vs0mg"},{"bike_id":"7926c56b-65bc-49bd-9420-067ff297d361","system_id":"levelo_inurba_marseille","lat":43.29593,"lon":5.38108,"is_reserved":false,"is_disabled":false,"rental_uris":{"android":"levelo://app?vid=7926c56b-65bc-49bd-9420-067ff297d361","ios":"levelo://app?vid=7926c56b-65bc-49bd-9420-067ff297d361"},"vehicle_type_id":"4","last_reported":1778358857,"current_range_meters":3600,"station_id":"ce4bgl12rcd13ifvqbo0","pricing_plan_id":"cebpf4jnsgd1na2vs0mg"},{"bike_id":"4b65741e-5ed9-4da8-8620-3a00f88659d6","system_id":"levelo_inurba_marseille","lat":43.28478,"lon":5.48395,"is_reserved":false,"is_disabled":false,"rental_uris":{"android":"levelo://app?vid=4b65741e-5ed9-4da8-8620-3a00f88659d6","ios":"levelo://app?vid=4b65741e-5ed9-4da8-8620-3a00f88659d6"},"vehicle_type_id":"4","last_reported":1778358857,"current_range_meters":3600,"station_id":"","pricing_plan_id":"cebpf4jnsgd1na2vs0mg"},{"bike_id":"096f1a52-30b5-40ff-95f0-7b521267a2e1","system_id":"levelo_inurba_marseille","lat":43.2509,"lon":5.39526,"is_reserved":false,"is_disabled":false,"rental_uris":{"android":"levelo://app?vid=096f1a52-30b5-40ff-95f0-7b521267a2e1","ios":"levelo://app?vid=096f1a52-30b5-40ff-95f0-7b521267a2e1"},"vehicle_type_id":"4","last_reported":1778358857,"current_range_meters":3600,"station_id":"ce4bhm12rcd13ifvqgkg","pricing_plan_id":"cebpf4jnsgd1na2vs0mg"},{"bike_id":"aea747f8-311b-4ded-9e0e-45c22d0f6c1f","system_id":"levelo_inurba_marseille","lat":43.27307,"lon":5.3916,"is_reserved":false,"is_disabled":false,"rental_uris":{"android":"levelo://app?vid=aea747f8-311b-4ded-9e0e-45c22d0f6c1f","ios":"levelo://app?vid=aea747f8-311b-4ded-9e0e-45c22d0f6c1f"},"vehicle_type_id":"4","last_reported":1778358857,"current_range_meters":3600,"station_id":"","pricing_plan_id":"cebpf4jnsgd1na2vs0mg"},{"bike_id":"075e7a6c-4f4b-400a-a226-e30e8c6d4f53","system_id":"levelo_inurba_marseille","lat":43.2781,"lon":5.40712,"is_reserved":false,"is_disabled":false,"rental_uris":{"android":"levelo://app?vid=075e7a6c-4f4b-400a-a226-e30e8c6d4f53","ios":"levelo://app?vid=075e7a6c-4f4b-400a-a226-e30e8c6d4f53"},"vehicle_type_id":"4","last_reported":1778358857,"current_range_meters":3600,"station_id":"ce4bhnh2rcd13ifvqgtg","pricing_plan_id":"cebpf4jnsgd1na2vs0mg"},{"bike_id":"fab4200b-be1c-47e0-851e-c35e188d9ff8","system_id":"levelo_inurba_marseille","lat":43.31472,"lon":5.37254,"is_reserved":false,"is_disabled":false,"rental_uris":{"android":"levelo://app?vid=fab4200b-be1c-47e0-851e-c35e188d9ff8","ios":"levelo://app?vid=fab4200b-be1c-47e0-851e-c35e188d9ff8"},"vehicle_type_id":"4","last_reported":1778358857,"current_range_meters":3600,"station_id":"ce4bgt12rcd13ifvqcd0","pricing_plan_id":"cebpf4jnsgd1na2vs0mg"},{"bike_id":"c63ff33a-ae31-4c7f-ab16-4903dd497608","system_id":"levelo_inurba_marseille","lat":43.26844,"lon":5.39426,"is_reserved":false,"is_disabled":false,"rental_uris":{"android":"levelo://app?vid=c63ff33a-ae31-4c7f-ab16-4903dd497608","ios":"levelo://app?vid=c63ff33a-ae31-4c7f-ab16-4903dd497608"},"vehicle_type_id":"4","last_reported":1778358857,"current_range_meters":3600,"station_id":"","pricing_plan_id":"cebpf4jnsgd1na2vs0mg"},{"bike_id":"bc3fb06a-20b6-41be-b4bb-38bf731954ef","system_id":"levelo_inurba_marseille","lat":43.295903,"lon":5.381039,"is_reserved":false,"is_disabled":false,"rental_uris":{"android":"levelo://app?vid=bc3fb06a-20b6-41be-b4bb-38bf731954ef","ios":"levelo://app?vid=bc3fb06a-20b6-41be-b4bb-38bf731954ef"},"vehicle_type_id":"4","last_reported":1778358857,"current_range_meters":3600,"station_id":"ce4bgl12rcd13ifvqbo0","pricing_plan_id":"cebpf4jnsgd1na2vs0mg"},{"bike_id":"1939f8b4-784f-442e-b4ef-0bf19df3c51c","system_id":"levelo_inurba_marseille","lat":43.31051,"lon":5.37193,"is_reserved":false,"is_disabled":false,"rental_uris":{"android":"levelo://app?vid=1939f8b4-784f-442e-b4ef-0bf19df3c51c","ios":"levelo://app?vid=1939f8b4-784f-442e-b4ef-0bf19df3c51c"},"vehicle_type_id":"4","last_reported":1778358857,"current_range_meters":3600,"station_id":"st_d4kl2rp97mjs73e7tdfg","pricing_plan_id":"cebpf4jnsgd1na2vs0mg"},{"bike_id":"2b3b86b4-9344-4dff-885f-5396701bc30f","system_id":"levelo_inurba_marseille","lat":43.27814,"lon":5.40707,"is_reserved":false,"is_disabled":false,"rental_uris":{"android":"levelo://app?vid=2b3b86b4-9344-4dff-885f-5396701bc30f","ios":"levelo://app?vid=2b3b86b4-9344-4dff-885f-5396701bc30f"},"vehicle_type_id":"4","last_reported":1778358857,"current_range_meters":3600,"station_id":"ce4bhnh2rcd13ifvqgtg","pricing_plan_id":"cebpf4jnsgd1na2vs0mg"},{"bike_id":"ba1a84df-99bc-4f91-b102-9b8b01f50ffc","system_id":"levelo_inurba_marseille","lat":43.31888,"lon":5.36811,"is_reserved":false,"is_disabled":false,"rental_uris":{"android":"levelo://app?vid=ba1a84df-99bc-4f91-b102-9b8b01f50ffc","ios":"levelo://app?vid=ba1a84df-99bc-4f91-b102-9b8b01f50ffc"},"vehicle_type_id":"4","last_reported":1778358857,"current_range_meters":4000,"station_id":"st_d6o2h0d0559c73evc1b0","pricing_plan_id":"cebpf4jnsgd1na2vs0mg"},{"bike_id":"826e71d3-8f95-44d0-bd2b-371dff283fc8","system_id":"levelo_inurba_marseille","lat":43.32283,"lon":5.38263,"is_reserved":false,"is_disabled":false,"rental_uris":{"android":"levelo://app?vid=826e71d3-8f95-44d0-bd2b-371dff283fc8","ios":"levelo://app?vid=826e71d3-8f95-44d0-bd2b-371dff283fc8"},"vehicle_type_id":"4","last_reported":1778358857,"current_range_meters":4000,"station_id":"ce4bhr12rcd13ifvqhqg","pricing_plan_id":"cebpf4jnsgd1na2vs0mg"},{"bike_id":"cf6ac7b6-7c6f-453e-ba0b-8c375ab02749","system_id":"levelo_inurba_marseille","lat":43.29533,"lon":5.38552,"is_reserved":false,"is_disabled":false,"rental_uris":{"android":"levelo://app?vid=cf6ac7b6-7c6f-453e-ba0b-8c375ab02749","ios":"levelo://app?vid=cf6ac7b6-7c6f-453e-ba0b-8c375ab02749"},"vehicle_type_id":"4","last_reported":1778358857,"current_range_meters":4000,"station_id":"ce4bgih2rcd13ifvqba0","pricing_plan_id":"cebpf4jnsgd1na2vs0mg"},{"bike_id":"eee51eae-5aaa-4a90-b6bb-0ee2250819e2","system_id":"levelo_inurba_marseille","lat":43.27843,"lon":5.38658,"is_reserved":false,"is_disabled":false,"rental_uris":{"android":"levelo://app?vid=eee51eae-5aaa-4a90-b6bb-0ee2250819e2","ios":"levelo://app?vid=eee51eae-5aaa-4a90-b6bb-0ee2250819e2"},"vehicle_type_id":"4","last_reported":1778358857,"current_range_meters":4000,"station_id":"","pricing_plan_id":"cebpf4jnsgd1na2vs0mg"},{"bike_id":"ee08005a-7260-4bbe-a4a3-8b519a01bfe0","system_id":"levelo_inurba_marseille","lat":43.285731,"lon":5.394996,"is_reserved":false,"is_disabled":false,"rental_uris":{"android":"levelo://app?vid=ee08005a-7260-4bbe-a4a3-8b519a01bfe0","ios":"levelo://app?vid=ee08005a-7260-4bbe-a4a3-8b519a01bfe0"},"vehicle_type_id":"4","last_reported":1778358857,"current_range_meters":4000,"station_id":"ce4bh292rcd13ifvqdg0","pricing_plan_id":"cebpf4jnsgd1na2vs0mg"},{"bike_id":"c29e213d-8054-4b1f-ad68-8b60505d46cc","system_id":"levelo_inurba_marseille","lat":43.24674,"lon":5.38145,"is_reserved":false,"is_disabled":true,"rental_uris":{"android":"levelo://app?vid=c29e213d-8054-4b1f-ad68-8b60505d46cc","ios":"levelo://app?vid=c29e213d-8054-4b1f-ad68-8b60505d46cc"},"vehicle_type_id":"4","last_reported":1778358857,"current_range_meters":4000,"station_id":"ce4bhih2rcd13ifvqfr0","pricing_plan_id":"cebpf4jnsgd1na2vs0mg"},{"bike_id":"09f03c71-3135-488b-aa1b-16f1834011a9","system_id":"levelo_inurba_marseille","lat":43.29198,"lon":5.35677,"is_reserved":false,"is_disabled":false,"rental_uris":{"android":"levelo://app?vid=09f03c71-3135-488b-aa1b-16f1834011a9","ios":"levelo://app?vid=09f03c71-3135-488b-aa1b-16f1834011a9"},"vehicle_type_id":"4","last_reported":1778358857,"current_range_meters":4000,"station_id":"","pricing_plan_id":"cebpf4jnsgd1na2vs0mg"},{"bike_id":"e9603e54-ff6b-4fae-9e9b-b17dd395cbe4","system_id":"levelo_inurba_marseille","lat":43.26369,"lon":5.39914,"is_reserved":false,"is_disabled":false,"rental_uris":{"android":"levelo://app?vid=e9603e54-ff6b-4fae-9e9b-b17dd395cbe4","ios":"levelo://app?vid=e9603e54-ff6b-4fae-9e9b-b17dd395cbe4"},"vehicle_type_id":"4","last_reported":1778358857,"current_range_meters":4000,"station_id":"","pricing_plan_id":"cebpf4jnsgd1na2vs0mg"},{"bike_id":"822a9794-704c-4b91-a934-1e7b41fa26dc","system_id":"levelo_inurba_marseille","lat":43.248059,"lon":5.374585,"is_reserved":false,"is_disabled":false,"rental_uris":{"android":"levelo://app?vid=822a9794-704c-4b91-a934-1e7b41fa26dc","ios":"levelo://app?vid=822a9794-704c-4b91-a934-1e7b41fa26dc"},"vehicle_type_id":"4","last_reported":1778358857,"current_range_meters":4000,"station_id":"ce4bhgh2rcd13ifvqfb0","pricing_plan_id":"cebpf4jnsgd1na2vs0mg"},{"bike_id":"c1b768b5-78ad-4562-8b11-acf628f13106","system_id":"levelo_inurba_marseille","lat":43.2796,"lon":5.44179,"is_reserved":false,"is_disabled":false,"rental_uris":{"android":"levelo://app?vid=c1b768b5-78ad-4562-8b11-acf628f13106","ios":"levelo://app?vid=c1b768b5-78ad-4562-8b11-acf628f13106"},"vehicle_type_id":"4","last_reported":1778358857,"current_range_meters":4000,"station_id":"","pricing_plan_id":"cebpf4jnsgd1na2vs0mg"},{"bike_id":"c71959c3-278e-4cd1-92d4-5634e5de46b1","system_id":"levelo_inurba_marseille","lat":43.29995,"lon":5.38503,"is_reserved":false,"is_disabled":false,"rental_uris":{"android":"levelo://app?vid=c71959c3-278e-4cd1-92d4-5634e5de46b1","ios":"levelo://app?vid=c71959c3-278e-4cd1-92d4-5634e5de46b1"},"vehicle_type_id":"4","last_reported":1778358857,"current_range_meters":4000,"station_id":"ce4bgj92rcd13ifvqbd0","pricing_plan_id":"cebpf4jnsgd1na2vs0mg"},{"bike_id":"2604fbbc-e049-4cc7-8069-721d8cb88417","system_id":"levelo_inurba_marseille","lat":43.24495,"lon":5.42539,"is_reserved":false,"is_disabled":false,"rental_uris":{"android":"levelo://app?vid=2604fbbc-e049-4cc7-8069-721d8cb88417","ios":"levelo://app?vid=2604fbbc-e049-4cc7-8069-721d8cb88417"},"vehicle_type_id":"4","last_reported":1778358857,"current_range_meters":4000,"station_id":"st_d4a3vfp97mjs738cd8kg","pricing_plan_id":"cebpf4jnsgd1na2vs0mg"},{"bike_id":"cad34172-e400-49e7-804c-04a869e760a9","system_id":"levelo_inurba_marseille","lat":43.27319,"lon":5.39135,"is_reserved":false,"is_disabled":false,"rental_uris":{"android":"levelo://app?vid=cad34172-e400-49e7-804c-04a869e760a9","ios":"levelo://app?vid=cad34172-e400-49e7-804c-04a869e760a9"},"vehicle_type_id":"4","last_reported":1778358857,"current_range_meters":4000,"station_id":"","pricing_plan_id":"cebpf4jnsgd1na2vs0mg"},{"bike_id":"4acb43ed-3642-4736-9baa-453b9005f3a4","system_id":"levelo_inurba_marseille","lat":43.2955,"lon":5.38687,"is_reserved":false,"is_disabled":false,"rental_uris":{"android":"levelo://app?vid=4acb43ed-3642-4736-9baa-453b9005f3a4","ios":"levelo://app?vid=4acb43ed-3642-4736-9baa-453b9005f3a4"},"vehicle_type_id":"4","last_reported":1778358857,"current_range_meters":4000,"station_id":"","pricing_plan_id":"cebpf4jnsgd1na2vs0mg"},{"bike_id":"2e54878e-62f7-4cf7-8590-3f8ee2a66af5","system_id":"levelo_inurba_marseille","lat":43.27827,"lon":5.40698,"is_reserved":false,"is_disabled":false,"rental_uris":{"android":"levelo://app?vid=2e54878e-62f7-4cf7-8590-3f8ee2a66af5","ios":"levelo://app?vid=2e54878e-62f7-4cf7-8590-3f8ee2a66af5"},"vehicle_type_id":"4","last_reported":1778358857,"current_range_meters":4400,"station_id":"ce4bhnh2rcd13ifvqgtg","pricing_plan_id":"cebpf4jnsgd1na2vs0mg"},{"bike_id":"751cdc66-8641-4875-a1dd-40c6831f96d1","system_id":"levelo_inurba_marseille","lat":43.26816,"lon":5.39404,"is_reserved":false,"is_disabled":false,"rental_uris":{"android":"levelo://app?vid=751cdc66-8641-4875-a1dd-40c6831f96d1","ios":"levelo://app?vid=751cdc66-8641-4875-a1dd-40c6831f96d1"},"vehicle_type_id":"4","last_reported":1778358857,"current_range_meters":4400,"station_id":"ce4bhh12rcd13ifvqfg0","pricing_plan_id":"cebpf4jnsgd1na2vs0mg"},{"bike_id":"48c264b9-5774-4c84-bbfe-2fb5a55e097d","system_id":"levelo_inurba_marseille","lat":43.27241,"lon":5.39131,"is_reserved":false,"is_disabled":false,"rental_uris":{"android":"levelo://app?vid=48c264b9-5774-4c84-bbfe-2fb5a55e097d","ios":"levelo://app?vid=48c264b9-5774-4c84-bbfe-2fb5a55e097d"},"vehicle_type_id":"4","last_reported":1778358857,"current_range_meters":4400,"station_id":"ce4bhhp2rcd13ifvqfm0","pricing_plan_id":"cebpf4jnsgd1na2vs0mg"},{"bike_id":"012436db-213f-4ce3-a46b-2b318f2b65c1","system_id":"levelo_inurba_marseille","lat":43.29568,"lon":5.37517,"is_reserved":false,"is_disabled":true,"rental_uris":{"android":"levelo://app?vid=012436db-213f-4ce3-a46b-2b318f2b65c1","ios":"levelo://app?vid=012436db-213f-4ce3-a46b-2b318f2b65c1"},"vehicle_type_id":"4","last_reported":1778358857,"current_range_meters":4400,"station_id":"ce4bgh92rcd13ifvqb50","pricing_plan_id":"cebpf4jnsgd1na2vs0mg"},{"bike_id":"5361539f-a584-4329-8108-172e9f5f2d2f","system_id":"levelo_inurba_marseille","lat":43.2606,"lon":5.39387,"is_reserved":false,"is_disabled":false,"rental_uris":{"android":"levelo://app?vid=5361539f-a584-4329-8108-172e9f5f2d2f","ios":"levelo://app?vid=5361539f-a584-4329-8108-172e9f5f2d2f"},"vehicle_type_id":"4","last_reported":1778358857,"current_range_meters":4400,"station_id":"ce4bhh92rcd13ifvqfj0","pricing_plan_id":"cebpf4jnsgd1na2vs0mg"},{"bike_id":"88a40003-1a5c-40bd-9f38-cea9463cd4b7","system_id":"levelo_inurba_marseille","lat":43.29301,"lon":5.37432,"is_reserved":false,"is_disabled":false,"rental_uris":{"android":"levelo://app?vid=88a40003-1a5c-40bd-9f38-cea9463cd4b7","ios":"levelo://app?vid=88a40003-1a5c-40bd-9f38-cea9463cd4b7"},"vehicle_type_id":"4","last_reported":1778358857,"current_range_meters":4400,"station_id":"ce4bgi12rcd13ifvqb70","pricing_plan_id":"cebpf4jnsgd1na2vs0mg"},{"bike_id":"2e95cbe4-b1d3-418e-b43c-322812e33691","system_id":"levelo_inurba_marseille","lat":43.27298,"lon":5.39127,"is_reserved":false,"is_disabled":false,"rental_uris":{"android":"levelo://app?vid=2e95cbe4-b1d3-418e-b43c-322812e33691","ios":"levelo://app?vid=2e95cbe4-b1d3-418e-b43c-322812e33691"},"vehicle_type_id":"4","last_reported":1778358857,"current_range_meters":4400,"station_id":"ce4bhgp2rcd13ifvqfe0","pricing_plan_id":"cebpf4jnsgd1na2vs0mg"},{"bike_id":"8e7bacc7-a10b-4c25-9a0c-638743c4cdd3","system_id":"levelo_inurba_marseille","lat":43.30129,"lon":5.38784,"is_reserved":false,"is_disabled":false,"rental_uris":{"android":"levelo://app?vid=8e7bacc7-a10b-4c25-9a0c-638743c4cdd3","ios":"levelo://app?vid=8e7bacc7-a10b-4c25-9a0c-638743c4cdd3"},"vehicle_type_id":"4","last_reported":1778358857,"current_range_meters":4400,"station_id":"ce4bghh2rcd13ifvqb60","pricing_plan_id":"cebpf4jnsgd1na2vs0mg"},{"bike_id":"17719973-6f0d-42f2-b6ba-f02ebaf33472","system_id":"levelo_inurba_marseille","lat":43.303192,"lon":5.404341,"is_reserved":false,"is_disabled":false,"rental_uris":{"android":"levelo://app?vid=17719973-6f0d-42f2-b6ba-f02ebaf33472","ios":"levelo://app?vid=17719973-6f0d-42f2-b6ba-f02ebaf33472"},"vehicle_type_id":"4","last_reported":1778358857,"current_range_meters":4400,"station_id":"ce4bh012rcd13ifvqd10","pricing_plan_id":"cebpf4jnsgd1na2vs0mg"},{"bike_id":"138fd523-ab17-4987-9430-1b46314f5d15","system_id":"levelo_inurba_marseille","lat":43.2694,"lon":5.40253,"is_reserved":false,"is_disabled":false,"rental_uris":{"android":"levelo://app?vid=138fd523-ab17-4987-9430-1b46314f5d15","ios":"levelo://app?vid=138fd523-ab17-4987-9430-1b46314f5d15"},"vehicle_type_id":"4","last_reported":1778358857,"current_range_meters":4400,"station_id":"cjm6bp8fraef2m0cb0m0","pricing_plan_id":"cebpf4jnsgd1na2vs0mg"},{"bike_id":"761ede00-4515-4eff-96c1-9894d0e7deed","system_id":"levelo_inurba_marseille","lat":43.29522,"lon":5.38545,"is_reserved":false,"is_disabled":false,"rental_uris":{"android":"levelo://app?vid=761ede00-4515-4eff-96c1-9894d0e7deed","ios":"levelo://app?vid=761ede00-4515-4eff-96c1-9894d0e7deed"},"vehicle_type_id":"4","last_reported":1778358857,"current_range_meters":4400,"station_id":"ce4bgih2rcd13ifvqba0","pricing_plan_id":"cebpf4jnsgd1na2vs0mg"},{"bike_id":"b888d006-5d40-4555-be47-19d4d1263d91","system_id":"levelo_inurba_marseille","lat":43.27376,"lon":5.39108,"is_reserved":false,"is_disabled":false,"rental_uris":{"android":"levelo://app?vid=b888d006-5d40-4555-be47-19d4d1263d91","ios":"levelo://app?vid=b888d006-5d40-4555-be47-19d4d1263d91"},"vehicle_type_id":"4","last_reported":1778358857,"current_range_meters":4400,"station_id":"","pricing_plan_id":"cebpf4jnsgd1na2vs0mg"},{"bike_id":"348bfdba-9d6e-4aa7-8d67-36f0a3487da5","system_id":"levelo_inurba_marseille","lat":43.3134,"lon":5.38547,"is_reserved":false,"is_disabled":false,"rental_uris":{"android":"levelo://app?vid=348bfdba-9d6e-4aa7-8d67-36f0a3487da5","ios":"levelo://app?vid=348bfdba-9d6e-4aa7-8d67-36f0a3487da5"},"vehicle_type_id":"4","last_reported":1778358857,"current_range_meters":4400,"station_id":"","pricing_plan_id":"cebpf4jnsgd1na2vs0mg"},{"bike_id":"4df25aff-fef0-4554-8578-eda7b7e0492b","system_id":"levelo_inurba_marseille","lat":43.2724,"lon":5.39155,"is_reserved":false,"is_disabled":false,"rental_uris":{"android":"levelo://app?vid=4df25aff-fef0-4554-8578-eda7b7e0492b","ios":"levelo://app?vid=4df25aff-fef0-4554-8578-eda7b7e0492b"},"vehicle_type_id":"4","last_reported":1778358857,"current_range_meters":4400,"station_id":"ce4bhhp2rcd13ifvqfm0","pricing_plan_id":"cebpf4jnsgd1na2vs0mg"},{"bike_id":"92c9d0a0-7699-4a8f-9822-768984018037","system_id":"levelo_inurba_marseille","lat":43.337444,"lon":5.374475,"is_reserved":false,"is_disabled":false,"rental_uris":{"android":"levelo://app?vid=92c9d0a0-7699-4a8f-9822-768984018037","ios":"levelo://app?vid=92c9d0a0-7699-4a8f-9822-768984018037"},"vehicle_type_id":"4","last_reported":1778358857,"current_range_meters":4400,"station_id":"ce4bhbh2rcd13ifvqeqg","pricing_plan_id":"cebpf4jnsgd1na2vs0mg"},{"bike_id":"8127a179-0b6c-4390-978d-34e331e55652","system_id":"levelo_inurba_marseille","lat":43.31679,"lon":5.4047,"is_reserved":false,"is_disabled":false,"rental_uris":{"android":"levelo://app?vid=8127a179-0b6c-4390-978d-34e331e55652","ios":"levelo://app?vid=8127a179-0b6c-4390-978d-34e331e55652"},"vehicle_type_id":"4","last_reported":1778358857,"current_range_meters":4800,"station_id":"ce4bh012rcd13ifvqd00","pricing_plan_id":"cebpf4jnsgd1na2vs0mg"},{"bike_id":"798dd442-ecce-41be-b4b9-436ee7f8a467","system_id":"levelo_inurba_marseille","lat":43.272094,"lon":5.390291,"is_reserved":false,"is_disabled":false,"rental_uris":{"android":"levelo://app?vid=798dd442-ecce-41be-b4b9-436ee7f8a467","ios":"levelo://app?vid=798dd442-ecce-41be-b4b9-436ee7f8a467"},"vehicle_type_id":"4","last_reported":1778358857,"current_range_meters":4800,"station_id":"ce4bhhp2rcd13ifvqfm0","pricing_plan_id":"cebpf4jnsgd1na2vs0mg"},{"bike_id":"1f2e3678-2790-4134-b0b0-63d504b63bcc","system_id":"levelo_inurba_marseille","lat":43.29842,"lon":5.36293,"is_reserved":false,"is_disabled":false,"rental_uris":{"android":"levelo://app?vid=1f2e3678-2790-4134-b0b0-63d504b63bcc","ios":"levelo://app?vid=1f2e3678-2790-4134-b0b0-63d504b63bcc"},"vehicle_type_id":"4","last_reported":1778358857,"current_range_meters":4800,"station_id":"ce4bgpp2rcd13ifvqc3g","pricing_plan_id":"cebpf4jnsgd1na2vs0mg"},{"bike_id":"a342344c-18f2-4197-8318-dd551e4d60ad","system_id":"levelo_inurba_marseille","lat":43.25363,"lon":5.37618,"is_reserved":false,"is_disabled":true,"rental_uris":{"android":"levelo://app?vid=a342344c-18f2-4197-8318-dd551e4d60ad","ios":"levelo://app?vid=a342344c-18f2-4197-8318-dd551e4d60ad"},"vehicle_type_id":"4","last_reported":1778358857,"current_range_meters":4800,"station_id":"","pricing_plan_id":"cebpf4jnsgd1na2vs0mg"},{"bike_id":"8d433cd8-ede2-498a-84f5-0980fac50dc8","system_id":"levelo_inurba_marseille","lat":43.3041,"lon":5.42353,"is_reserved":false,"is_disabled":false,"rental_uris":{"android":"levelo://app?vid=8d433cd8-ede2-498a-84f5-0980fac50dc8","ios":"levelo://app?vid=8d433cd8-ede2-498a-84f5-0980fac50dc8"},"vehicle_type_id":"4","last_reported":1778358857,"current_range_meters":4800,"station_id":"","pricing_plan_id":"cebpf4jnsgd1na2vs0mg"},{"bike_id":"558ecc7a-7ed0-4d4d-8eaf-a0bf6d6ce907","system_id":"levelo_inurba_marseille","lat":43.28218,"lon":5.40574,"is_reserved":false,"is_disabled":false,"rental_uris":{"android":"levelo://app?vid=558ecc7a-7ed0-4d4d-8eaf-a0bf6d6ce907","ios":"levelo://app?vid=558ecc7a-7ed0-4d4d-8eaf-a0bf6d6ce907"},"vehicle_type_id":"4","last_reported":1778358857,"current_range_meters":4800,"station_id":"","pricing_plan_id":"cebpf4jnsgd1na2vs0mg"},{"bike_id":"93b04531-424f-4327-bf0d-4e3bfaedafc0","system_id":"levelo_inurba_marseille","lat":43.30635,"lon":5.40077,"is_reserved":false,"is_disabled":false,"rental_uris":{"android":"levelo://app?vid=93b04531-424f-4327-bf0d-4e3bfaedafc0","ios":"levelo://app?vid=93b04531-424f-4327-bf0d-4e3bfaedafc0"},"vehicle_type_id":"4","last_reported":1778358857,"current_range_meters":4800,"station_id":"ce4bh112rcd13ifvqda0","pricing_plan_id":"cebpf4jnsgd1na2vs0mg"},{"bike_id":"ebc96968-e4b8-40e4-84de-ae7324189aaa","system_id":"levelo_inurba_marseille","lat":43.30797,"lon":5.40957,"is_reserved":false,"is_disabled":false,"rental_uris":{"android":"levelo://app?vid=ebc96968-e4b8-40e4-84de-ae7324189aaa","ios":"levelo://app?vid=ebc96968-e4b8-40e4-84de-ae7324189aaa"},"vehicle_type_id":"4","last_reported":1778358857,"current_range_meters":4800,"station_id":"","pricing_plan_id":"cebpf4jnsgd1na2vs0mg"},{"bike_id":"c5f72ad7-1242-4a4d-ba25-d7d97c483db7","system_id":"levelo_inurba_marseille","lat":43.273,"lon":5.39097,"is_reserved":false,"is_disabled":false,"rental_uris":{"android":"levelo://app?vid=c5f72ad7-1242-4a4d-ba25-d7d97c483db7","ios":"levelo://app?vid=c5f72ad7-1242-4a4d-ba25-d7d97c483db7"},"vehicle_type_id":"4","last_reported":1778358857,"current_range_meters":4800,"station_id":"ce4bhgp2rcd13ifvqfe0","pricing_plan_id":"cebpf4jnsgd1na2vs0mg"},{"bike_id":"43c48c2a-1847-4703-a319-c272ba838420","system_id":"levelo_inurba_marseille","lat":43.29978,"lon":5.37165,"is_reserved":false,"is_disabled":false,"rental_uris":{"android":"levelo://app?vid=43c48c2a-1847-4703-a319-c272ba838420","ios":"levelo://app?vid=43c48c2a-1847-4703-a319-c272ba838420"},"vehicle_type_id":"4","last_reported":1778358857,"current_range_meters":4800,"station_id":"ce4bgr92rcd13ifvqc7g","pricing_plan_id":"cebpf4jnsgd1na2vs0mg"},{"bike_id":"106fd96a-2b21-4b8e-9d50-4d65961b48fa","system_id":"levelo_inurba_marseille","lat":43.29281,"lon":5.40113,"is_reserved":false,"is_disabled":false,"rental_uris":{"android":"levelo://app?vid=106fd96a-2b21-4b8e-9d50-4d65961b48fa","ios":"levelo://app?vid=106fd96a-2b21-4b8e-9d50-4d65961b48fa"},"vehicle_type_id":"4","last_reported":1778358857,"current_range_meters":4800,"station_id":"ce4bh312rcd13ifvqdk0","pricing_plan_id":"cebpf4jnsgd1na2vs0mg"},{"bike_id":"07829fdc-c599-44a2-8a5d-d38b8b9f7bb8","system_id":"levelo_inurba_marseille","lat":43.30378,"lon":5.42497,"is_reserved":false,"is_disabled":true,"rental_uris":{"android":"levelo://app?vid=07829fdc-c599-44a2-8a5d-d38b8b9f7bb8","ios":"levelo://app?vid=07829fdc-c599-44a2-8a5d-d38b8b9f7bb8"},"vehicle_type_id":"4","last_reported":1778358857,"current_range_meters":4800,"station_id":"ce4bhoh2rcd13ifvqh6g","pricing_plan_id":"cebpf4jnsgd1na2vs0mg"},{"bike_id":"b8425fa1-a298-4679-ba8a-777546e14eca","system_id":"levelo_inurba_marseille","lat":43.3377,"lon":5.37458,"is_reserved":false,"is_disabled":false,"rental_uris":{"android":"levelo://app?vid=b8425fa1-a298-4679-ba8a-777546e14eca","ios":"levelo://app?vid=b8425fa1-a298-4679-ba8a-777546e14eca"},"vehicle_type_id":"4","last_reported":1778358857,"current_range_meters":4800,"station_id":"","pricing_plan_id":"cebpf4jnsgd1na2vs0mg"},{"bike_id":"89d22d1a-5846-4ec1-8570-c41c52265392","system_id":"levelo_inurba_marseille","lat":43.26495,"lon":5.39569,"is_reserved":false,"is_disabled":false,"rental_uris":{"android":"levelo://app?vid=89d22d1a-5846-4ec1-8570-c41c52265392","ios":"levelo://app?vid=89d22d1a-5846-4ec1-8570-c41c52265392"},"vehicle_type_id":"4","last_reported":1778358857,"current_range_meters":4800,"station_id":"ce4bhi12rcd13ifvqfq0","pricing_plan_id":"cebpf4jnsgd1na2vs0mg"},{"bike_id":"21a8a262-5f9b-4990-b361-fe99868df2f8","system_id":"levelo_inurba_marseille","lat":43.28996,"lon":5.37827,"is_reserved":false,"is_disabled":false,"rental_uris":{"android":"levelo://app?vid=21a8a262-5f9b-4990-b361-fe99868df2f8","ios":"levelo://app?vid=21a8a262-5f9b-4990-b361-fe99868df2f8"},"vehicle_type_id":"4","last_reported":1778358857,"current_range_meters":4800,"station_id":"ce4bh9p2rcd13ifvqed0","pricing_plan_id":"cebpf4jnsgd1na2vs0mg"},{"bike_id":"5a436f11-afe4-43ad-a9a1-056bd0578be1","system_id":"levelo_inurba_marseille","lat":43.27954,"lon":5.38733,"is_reserved":false,"is_disabled":true,"rental_uris":{"android":"levelo://app?vid=5a436f11-afe4-43ad-a9a1-056bd0578be1","ios":"levelo://app?vid=5a436f11-afe4-43ad-a9a1-056bd0578be1"},"vehicle_type_id":"4","last_reported":1778358857,"current_range_meters":4800,"station_id":"ce4bhg12rcd13ifvqf80","pricing_plan_id":"cebpf4jnsgd1na2vs0mg"},{"bike_id":"7e1f6f30-6af5-44f1-b009-d1525300e76e","system_id":"levelo_inurba_marseille","lat":43.30137,"lon":5.39893,"is_reserved":false,"is_disabled":false,"rental_uris":{"android":"levelo://app?vid=7e1f6f30-6af5-44f1-b009-d1525300e76e","ios":"levelo://app?vid=7e1f6f30-6af5-44f1-b009-d1525300e76e"},"vehicle_type_id":"4","last_reported":1778358857,"current_range_meters":4800,"station_id":"","pricing_plan_id":"cebpf4jnsgd1na2vs0mg"},{"bike_id":"3a7a6490-34c7-4e66-a967-52dc19722c9c","system_id":"levelo_inurba_marseille","lat":43.25398,"lon":5.39418,"is_reserved":false,"is_disabled":false,"rental_uris":{"android":"levelo://app?vid=3a7a6490-34c7-4e66-a967-52dc19722c9c","ios":"levelo://app?vid=3a7a6490-34c7-4e66-a967-52dc19722c9c"},"vehicle_type_id":"4","last_reported":1778358857,"current_range_meters":4800,"station_id":"","pricing_plan_id":"cebpf4jnsgd1na2vs0mg"},{"bike_id":"0cce3dc3-64b9-4d1c-a0cb-73f0c02db627","system_id":"levelo_inurba_marseille","lat":43.295914,"lon":5.381046,"is_reserved":false,"is_disabled":false,"rental_uris":{"android":"levelo://app?vid=0cce3dc3-64b9-4d1c-a0cb-73f0c02db627","ios":"levelo://app?vid=0cce3dc3-64b9-4d1c-a0cb-73f0c02db627"},"vehicle_type_id":"4","last_reported":1778358857,"current_range_meters":4800,"station_id":"ce4bgl12rcd13ifvqbo0","pricing_plan_id":"cebpf4jnsgd1na2vs0mg"},{"bike_id":"496d9d23-0758-4b07-831b-1c112b733a7b","system_id":"levelo_inurba_marseille","lat":43.27917,"lon":5.38018,"is_reserved":false,"is_disabled":false,"rental_uris":{"android":"levelo://app?vid=496d9d23-0758-4b07-831b-1c112b733a7b","ios":"levelo://app?vid=496d9d23-0758-4b07-831b-1c112b733a7b"},"vehicle_type_id":"4","last_reported":1778358857,"current_range_meters":4800,"station_id":"ce4bhf92rcd13ifvqf50","pricing_plan_id":"cebpf4jnsgd1na2vs0mg"},{"bike_id":"ef4c0d2f-d37c-409b-be4c-7cceaa4aabfa","system_id":"levelo_inurba_marseille","lat":43.28485,"lon":5.48403,"is_reserved":false,"is_disabled":false,"rental_uris":{"android":"levelo://app?vid=ef4c0d2f-d37c-409b-be4c-7cceaa4aabfa","ios":"levelo://app?vid=ef4c0d2f-d37c-409b-be4c-7cceaa4aabfa"},"vehicle_type_id":"4","last_reported":1778358857,"current_range_meters":5600,"station_id":"","pricing_plan_id":"cebpf4jnsgd1na2vs0mg"},{"bike_id":"8fdbe986-716a-4dce-a50d-3af695e9688c","system_id":"levelo_inurba_marseille","lat":43.33545,"lon":5.37454,"is_reserved":false,"is_disabled":false,"rental_uris":{"android":"levelo://app?vid=8fdbe986-716a-4dce-a50d-3af695e9688c","ios":"levelo://app?vid=8fdbe986-716a-4dce-a50d-3af695e9688c"},"vehicle_type_id":"4","last_reported":1778358857,"current_range_meters":5600,"station_id":"st_d46tts09ee8s73dlu43g","pricing_plan_id":"cebpf4jnsgd1na2vs0mg"},{"bike_id":"64ca439b-a2a6-4835-bc6b-b3a491984dcf","system_id":"levelo_inurba_marseille","lat":43.27309,"lon":5.39052,"is_reserved":false,"is_disabled":false,"rental_uris":{"android":"levelo://app?vid=64ca439b-a2a6-4835-bc6b-b3a491984dcf","ios":"levelo://app?vid=64ca439b-a2a6-4835-bc6b-b3a491984dcf"},"vehicle_type_id":"4","last_reported":1778358857,"current_range_meters":5600,"station_id":"ce4bhgp2rcd13ifvqfe0","pricing_plan_id":"cebpf4jnsgd1na2vs0mg"},{"bike_id":"50fa021d-df15-48f2-92e6-6589de12b692","system_id":"levelo_inurba_marseille","lat":43.25505,"lon":5.37647,"is_reserved":false,"is_disabled":false,"rental_uris":{"android":"levelo://app?vid=50fa021d-df15-48f2-92e6-6589de12b692","ios":"levelo://app?vid=50fa021d-df15-48f2-92e6-6589de12b692"},"vehicle_type_id":"4","last_reported":1778358857,"current_range_meters":5600,"station_id":"ce4bhh12rcd13ifvqff0","pricing_plan_id":"cebpf4jnsgd1na2vs0mg"},{"bike_id":"e744fd51-d53a-4993-92a1-3a6752e7a33c","system_id":"levelo_inurba_marseille","lat":43.3213,"lon":5.3677,"is_reserved":false,"is_disabled":false,"rental_uris":{"android":"levelo://app?vid=e744fd51-d53a-4993-92a1-3a6752e7a33c","ios":"levelo://app?vid=e744fd51-d53a-4993-92a1-3a6752e7a33c"},"vehicle_type_id":"4","last_reported":1778358857,"current_range_meters":5600,"station_id":"ce4bhrh2rcd13ifvqhug","pricing_plan_id":"cebpf4jnsgd1na2vs0mg"},{"bike_id":"6084befa-84c6-4142-adec-b82f1677a0f1","system_id":"levelo_inurba_marseille","lat":43.26762,"lon":5.39443,"is_reserved":false,"is_disabled":false,"rental_uris":{"android":"levelo://app?vid=6084befa-84c6-4142-adec-b82f1677a0f1","ios":"levelo://app?vid=6084befa-84c6-4142-adec-b82f1677a0f1"},"vehicle_type_id":"4","last_reported":1778358857,"current_range_meters":5600,"station_id":"","pricing_plan_id":"cebpf4jnsgd1na2vs0mg"},{"bike_id":"edd39cc9-0ca9-4de9-bb9c-cdf6105a047f","system_id":"levelo_inurba_marseille","lat":43.29542,"lon":5.38543,"is_reserved":false,"is_disabled":true,"rental_uris":{"android":"levelo://app?vid=edd39cc9-0ca9-4de9-bb9c-cdf6105a047f","ios":"levelo://app?vid=edd39cc9-0ca9-4de9-bb9c-cdf6105a047f"},"vehicle_type_id":"4","last_reported":1778358857,"current_range_meters":5600,"station_id":"ce4bgih2rcd13ifvqba0","pricing_plan_id":"cebpf4jnsgd1na2vs0mg"},{"bike_id":"c8839437-c286-4318-b7be-1ada9dfcd256","system_id":"levelo_inurba_marseille","lat":43.26369,"lon":5.41039,"is_reserved":false,"is_disabled":false,"rental_uris":{"android":"levelo://app?vid=c8839437-c286-4318-b7be-1ada9dfcd256","ios":"levelo://app?vid=c8839437-c286-4318-b7be-1ada9dfcd256"},"vehicle_type_id":"4","last_reported":1778358857,"current_range_meters":5600,"station_id":"st_d4e5ca6na9uc73bfl5fg","pricing_plan_id":"cebpf4jnsgd1na2vs0mg"},{"bike_id":"cbafac35-5a72-40ac-b42e-16f78af9e942","system_id":"levelo_inurba_marseille","lat":43.2927,"lon":5.38456,"is_reserved":false,"is_disabled":false,"rental_uris":{"android":"levelo://app?vid=cbafac35-5a72-40ac-b42e-16f78af9e942","ios":"levelo://app?vid=cbafac35-5a72-40ac-b42e-16f78af9e942"},"vehicle_type_id":"4","last_reported":1778358857,"current_range_meters":5600,"station_id":"ce4bh692rcd13ifvqea0","pricing_plan_id":"cebpf4jnsgd1na2vs0mg"},{"bike_id":"b34e11b9-3c68-4409-b941-ded8e7d7974e","system_id":"levelo_inurba_marseille","lat":43.30211,"lon":5.39453,"is_reserved":false,"is_disabled":true,"rental_uris":{"android":"levelo://app?vid=b34e11b9-3c68-4409-b941-ded8e7d7974e","ios":"levelo://app?vid=b34e11b9-3c68-4409-b941-ded8e7d7974e"},"vehicle_type_id":"4","last_reported":1778358857,"current_range_meters":5600,"station_id":"ce4bh0p2rcd13ifvqd70","pricing_plan_id":"cebpf4jnsgd1na2vs0mg"},{"bike_id":"136865c1-861e-4808-bdd6-86bfc13f7ee6","system_id":"levelo_inurba_marseille","lat":43.24595,"lon":5.41822,"is_reserved":false,"is_disabled":false,"rental_uris":{"android":"levelo://app?vid=136865c1-861e-4808-bdd6-86bfc13f7ee6","ios":"levelo://app?vid=136865c1-861e-4808-bdd6-86bfc13f7ee6"},"vehicle_type_id":"4","last_reported":1778358857,"current_range_meters":5600,"station_id":"","pricing_plan_id":"cebpf4jnsgd1na2vs0mg"},{"bike_id":"3b46339e-6e57-4d42-ae54-3f93484308eb","system_id":"levelo_inurba_marseille","lat":43.30332,"lon":5.40437,"is_reserved":false,"is_disabled":false,"rental_uris":{"android":"levelo://app?vid=3b46339e-6e57-4d42-ae54-3f93484308eb","ios":"levelo://app?vid=3b46339e-6e57-4d42-ae54-3f93484308eb"},"vehicle_type_id":"4","last_reported":1778358857,"current_range_meters":5600,"station_id":"ce4bh012rcd13ifvqd10","pricing_plan_id":"cebpf4jnsgd1na2vs0mg"},{"bike_id":"052ba0ff-1efd-45bf-a179-9941738bf622","system_id":"levelo_inurba_marseille","lat":43.27345,"lon":5.39081,"is_reserved":false,"is_disabled":false,"rental_uris":{"android":"levelo://app?vid=052ba0ff-1efd-45bf-a179-9941738bf622","ios":"levelo://app?vid=052ba0ff-1efd-45bf-a179-9941738bf622"},"vehicle_type_id":"4","last_reported":1778358857,"current_range_meters":6000,"station_id":"ce4bhgp2rcd13ifvqfe0","pricing_plan_id":"cebpf4jnsgd1na2vs0mg"},{"bike_id":"c697e4ab-e311-4735-b88a-50c7c706d7e6","system_id":"levelo_inurba_marseille","lat":43.26939,"lon":5.40245,"is_reserved":false,"is_disabled":false,"rental_uris":{"android":"levelo://app?vid=c697e4ab-e311-4735-b88a-50c7c706d7e6","ios":"levelo://app?vid=c697e4ab-e311-4735-b88a-50c7c706d7e6"},"vehicle_type_id":"4","last_reported":1778358857,"current_range_meters":6000,"station_id":"cjm6bp8fraef2m0cb0m0","pricing_plan_id":"cebpf4jnsgd1na2vs0mg"},{"bike_id":"0905bf26-d1df-4967-bcf7-a2c7f347956a","system_id":"levelo_inurba_marseille","lat":43.28951,"lon":5.39625,"is_reserved":false,"is_disabled":true,"rental_uris":{"android":"levelo://app?vid=0905bf26-d1df-4967-bcf7-a2c7f347956a","ios":"levelo://app?vid=0905bf26-d1df-4967-bcf7-a2c7f347956a"},"vehicle_type_id":"4","last_reported":1778358857,"current_range_meters":6000,"station_id":"ce4bh3h2rcd13ifvqdn0","pricing_plan_id":"cebpf4jnsgd1na2vs0mg"},{"bike_id":"7c7b344b-413d-40d3-808c-226d16a297cd","system_id":"levelo_inurba_marseille","lat":43.28549,"lon":5.39501,"is_reserved":false,"is_disabled":false,"rental_uris":{"android":"levelo://app?vid=7c7b344b-413d-40d3-808c-226d16a297cd","ios":"levelo://app?vid=7c7b344b-413d-40d3-808c-226d16a297cd"},"vehicle_type_id":"4","last_reported":1778358857,"current_range_meters":6000,"station_id":"ce4bh292rcd13ifvqdg0","pricing_plan_id":"cebpf4jnsgd1na2vs0mg"},{"bike_id":"a72a4bad-7473-4221-b947-1493b6657f86","system_id":"levelo_inurba_marseille","lat":43.2926,"lon":5.38432,"is_reserved":false,"is_disabled":false,"rental_uris":{"android":"levelo://app?vid=a72a4bad-7473-4221-b947-1493b6657f86","ios":"levelo://app?vid=a72a4bad-7473-4221-b947-1493b6657f86"},"vehicle_type_id":"4","last_reported":1778358857,"current_range_meters":6000,"station_id":"ce4bh692rcd13ifvqea0","pricing_plan_id":"cebpf4jnsgd1na2vs0mg"},{"bike_id":"3d6aabb2-897c-462b-b2a5-511a9ca22a13","system_id":"levelo_inurba_marseille","lat":43.29531,"lon":5.38551,"is_reserved":false,"is_disabled":false,"rental_uris":{"android":"levelo://app?vid=3d6aabb2-897c-462b-b2a5-511a9ca22a13","ios":"levelo://app?vid=3d6aabb2-897c-462b-b2a5-511a9ca22a13"},"vehicle_type_id":"4","last_reported":1778358857,"current_range_meters":6000,"station_id":"ce4bgih2rcd13ifvqba0","pricing_plan_id":"cebpf4jnsgd1na2vs0mg"},{"bike_id":"a20a2d39-2574-4c17-82d6-5d8d47cf07ff","system_id":"levelo_inurba_marseille","lat":43.30297,"lon":5.36903,"is_reserved":false,"is_disabled":false,"rental_uris":{"android":"levelo://app?vid=a20a2d39-2574-4c17-82d6-5d8d47cf07ff","ios":"levelo://app?vid=a20a2d39-2574-4c17-82d6-5d8d47cf07ff"},"vehicle_type_id":"4","last_reported":1778358857,"current_range_meters":6000,"station_id":"ce4bgqh2rcd13ifvqc5g","pricing_plan_id":"cebpf4jnsgd1na2vs0mg"},{"bike_id":"aad10db8-b026-409c-9558-2748d08f6222","system_id":"levelo_inurba_marseille","lat":43.29255,"lon":5.38447,"is_reserved":false,"is_disabled":false,"rental_uris":{"android":"levelo://app?vid=aad10db8-b026-409c-9558-2748d08f6222","ios":"levelo://app?vid=aad10db8-b026-409c-9558-2748d08f6222"},"vehicle_type_id":"4","last_reported":1778358857,"current_range_meters":6000,"station_id":"ce4bh692rcd13ifvqea0","pricing_plan_id":"cebpf4jnsgd1na2vs0mg"},{"bike_id":"ede8a63a-2c56-46c1-b549-940b666fa307","system_id":"levelo_inurba_marseille","lat":43.27318,"lon":5.39094,"is_reserved":false,"is_disabled":false,"rental_uris":{"android":"levelo://app?vid=ede8a63a-2c56-46c1-b549-940b666fa307","ios":"levelo://app?vid=ede8a63a-2c56-46c1-b549-940b666fa307"},"vehicle_type_id":"4","last_reported":1778358857,"current_range_meters":6000,"station_id":"ce4bhgp2rcd13ifvqfe0","pricing_plan_id":"cebpf4jnsgd1na2vs0mg"},{"bike_id":"5dda00a1-f787-488a-aa64-058079c40c64","system_id":"levelo_inurba_marseille","lat":43.26965,"lon":5.39349,"is_reserved":false,"is_disabled":false,"rental_uris":{"android":"levelo://app?vid=5dda00a1-f787-488a-aa64-058079c40c64","ios":"levelo://app?vid=5dda00a1-f787-488a-aa64-058079c40c64"},"vehicle_type_id":"4","last_reported":1778358857,"current_range_meters":6000,"station_id":"","pricing_plan_id":"cebpf4jnsgd1na2vs0mg"},{"bike_id":"cbae987d-4b84-417e-bd1f-38e21a9853b9","system_id":"levelo_inurba_marseille","lat":43.29282,"lon":5.38431,"is_reserved":false,"is_disabled":false,"rental_uris":{"android":"levelo://app?vid=cbae987d-4b84-417e-bd1f-38e21a9853b9","ios":"levelo://app?vid=cbae987d-4b84-417e-bd1f-38e21a9853b9"},"vehicle_type_id":"4","last_reported":1778358857,"current_range_meters":6000,"station_id":"ce4bh692rcd13ifvqea0","pricing_plan_id":"cebpf4jnsgd1na2vs0mg"},{"bike_id":"4e439951-b038-4836-9ad5-387115b4b494","system_id":"levelo_inurba_marseille","lat":43.313612,"lon":5.38488,"is_reserved":false,"is_disabled":false,"rental_uris":{"android":"levelo://app?vid=4e439951-b038-4836-9ad5-387115b4b494","ios":"levelo://app?vid=4e439951-b038-4836-9ad5-387115b4b494"},"vehicle_type_id":"4","last_reported":1778358857,"current_range_meters":6000,"station_id":"ce4bgt92rcd13ifvqcf0","pricing_plan_id":"cebpf4jnsgd1na2vs0mg"},{"bike_id":"08e29f24-b26e-4e3f-a25f-c08599a622d5","system_id":"levelo_inurba_marseille","lat":43.29029,"lon":5.38642,"is_reserved":false,"is_disabled":false,"rental_uris":{"android":"levelo://app?vid=08e29f24-b26e-4e3f-a25f-c08599a622d5","ios":"levelo://app?vid=08e29f24-b26e-4e3f-a25f-c08599a622d5"},"vehicle_type_id":"4","last_reported":1778358857,"current_range_meters":6000,"station_id":"ce4bh4p2rcd13ifvqe0g","pricing_plan_id":"cebpf4jnsgd1na2vs0mg"},{"bike_id":"c32661d8-2da8-4ddd-b087-54ab5080d50c","system_id":"levelo_inurba_marseille","lat":43.24941,"lon":5.40495,"is_reserved":false,"is_disabled":false,"rental_uris":{"android":"levelo://app?vid=c32661d8-2da8-4ddd-b087-54ab5080d50c","ios":"levelo://app?vid=c32661d8-2da8-4ddd-b087-54ab5080d50c"},"vehicle_type_id":"4","last_reported":1778358857,"current_range_meters":6000,"station_id":"st_d2ngiaodas8pm72gd1h0","pricing_plan_id":"cebpf4jnsgd1na2vs0mg"},{"bike_id":"2ff9251c-7b0d-4f23-9ffb-0b20d3d095d6","system_id":"levelo_inurba_marseille","lat":43.29278,"lon":5.37625,"is_reserved":false,"is_disabled":false,"rental_uris":{"android":"levelo://app?vid=2ff9251c-7b0d-4f23-9ffb-0b20d3d095d6","ios":"levelo://app?vid=2ff9251c-7b0d-4f23-9ffb-0b20d3d095d6"},"vehicle_type_id":"4","last_reported":1778358857,"current_range_meters":6000,"station_id":"ce4bgi12rcd13ifvqb80","pricing_plan_id":"cebpf4jnsgd1na2vs0mg"},{"bike_id":"0259c7f9-4a67-468b-967d-555f1f780b18","system_id":"levelo_inurba_marseille","lat":43.24636,"lon":5.38176,"is_reserved":false,"is_disabled":false,"rental_uris":{"android":"levelo://app?vid=0259c7f9-4a67-468b-967d-555f1f780b18","ios":"levelo://app?vid=0259c7f9-4a67-468b-967d-555f1f780b18"},"vehicle_type_id":"4","last_reported":1778358857,"current_range_meters":6000,"station_id":"ce4bhih2rcd13ifvqfr0","pricing_plan_id":"cebpf4jnsgd1na2vs0mg"},{"bike_id":"7f40cbde-87c3-42fc-aa50-19e2d097a2b7","system_id":"levelo_inurba_marseille","lat":43.27192,"lon":5.39197,"is_reserved":false,"is_disabled":false,"rental_uris":{"android":"levelo://app?vid=7f40cbde-87c3-42fc-aa50-19e2d097a2b7","ios":"levelo://app?vid=7f40cbde-87c3-42fc-aa50-19e2d097a2b7"},"vehicle_type_id":"4","last_reported":1778358857,"current_range_meters":6000,"station_id":"ce4bhhp2rcd13ifvqfm0","pricing_plan_id":"cebpf4jnsgd1na2vs0mg"},{"bike_id":"9a1f8574-8e1d-406f-8cbe-db5fc10d7aee","system_id":"levelo_inurba_marseille","lat":43.296,"lon":5.38097,"is_reserved":false,"is_disabled":false,"rental_uris":{"android":"levelo://app?vid=9a1f8574-8e1d-406f-8cbe-db5fc10d7aee","ios":"levelo://app?vid=9a1f8574-8e1d-406f-8cbe-db5fc10d7aee"},"vehicle_type_id":"4","last_reported":1778358857,"current_range_meters":6000,"station_id":"ce4bgl12rcd13ifvqbo0","pricing_plan_id":"cebpf4jnsgd1na2vs0mg"},{"bike_id":"80ce62aa-95db-4134-a27f-af6f321881d8","system_id":"levelo_inurba_marseille","lat":43.3303,"lon":5.39033,"is_reserved":false,"is_disabled":false,"rental_uris":{"android":"levelo://app?vid=80ce62aa-95db-4134-a27f-af6f321881d8","ios":"levelo://app?vid=80ce62aa-95db-4134-a27f-af6f321881d8"},"vehicle_type_id":"4","last_reported":1778358857,"current_range_meters":6000,"station_id":"ce4bhr92rcd13ifvqhrg","pricing_plan_id":"cebpf4jnsgd1na2vs0mg"},{"bike_id":"627ea465-4e71-4046-a508-023e31352421","system_id":"levelo_inurba_marseille","lat":43.25059,"lon":5.40518,"is_reserved":false,"is_disabled":false,"rental_uris":{"android":"levelo://app?vid=627ea465-4e71-4046-a508-023e31352421","ios":"levelo://app?vid=627ea465-4e71-4046-a508-023e31352421"},"vehicle_type_id":"4","last_reported":1778358857,"current_range_meters":6000,"station_id":"","pricing_plan_id":"cebpf4jnsgd1na2vs0mg"},{"bike_id":"038f20db-53a0-417e-8564-80b1b53a64be","system_id":"levelo_inurba_marseille","lat":43.29566,"lon":5.38517,"is_reserved":false,"is_disabled":false,"rental_uris":{"android":"levelo://app?vid=038f20db-53a0-417e-8564-80b1b53a64be","ios":"levelo://app?vid=038f20db-53a0-417e-8564-80b1b53a64be"},"vehicle_type_id":"4","last_reported":1778358857,"current_range_meters":6000,"station_id":"","pricing_plan_id":"cebpf4jnsgd1na2vs0mg"},{"bike_id":"b04be0b9-e1f1-4b3a-a624-da85cca3a01a","system_id":"levelo_inurba_marseille","lat":43.24615,"lon":5.38184,"is_reserved":false,"is_disabled":false,"rental_uris":{"android":"levelo://app?vid=b04be0b9-e1f1-4b3a-a624-da85cca3a01a","ios":"levelo://app?vid=b04be0b9-e1f1-4b3a-a624-da85cca3a01a"},"vehicle_type_id":"4","last_reported":1778358857,"current_range_meters":6000,"station_id":"","pricing_plan_id":"cebpf4jnsgd1na2vs0mg"},{"bike_id":"6eec760c-5e8b-4ec2-8818-5088580d0e9c","system_id":"levelo_inurba_marseille","lat":43.25181,"lon":5.37447,"is_reserved":false,"is_disabled":false,"rental_uris":{"android":"levelo://app?vid=6eec760c-5e8b-4ec2-8818-5088580d0e9c","ios":"levelo://app?vid=6eec760c-5e8b-4ec2-8818-5088580d0e9c"},"vehicle_type_id":"4","last_reported":1778358857,"current_range_meters":6000,"station_id":"","pricing_plan_id":"cebpf4jnsgd1na2vs0mg"},{"bike_id":"45f8fdb7-2cb1-45b9-8a88-adeab1f325d7","system_id":"levelo_inurba_marseille","lat":43.2922,"lon":5.38333,"is_reserved":false,"is_disabled":false,"rental_uris":{"android":"levelo://app?vid=45f8fdb7-2cb1-45b9-8a88-adeab1f325d7","ios":"levelo://app?vid=45f8fdb7-2cb1-45b9-8a88-adeab1f325d7"},"vehicle_type_id":"4","last_reported":1778358857,"current_range_meters":6000,"station_id":"","pricing_plan_id":"cebpf4jnsgd1na2vs0mg"},{"bike_id":"dcc622bc-d142-4ca4-bb20-5dfba74f86fe","system_id":"levelo_inurba_marseille","lat":43.29024,"lon":5.38625,"is_reserved":false,"is_disabled":false,"rental_uris":{"android":"levelo://app?vid=dcc622bc-d142-4ca4-bb20-5dfba74f86fe","ios":"levelo://app?vid=dcc622bc-d142-4ca4-bb20-5dfba74f86fe"},"vehicle_type_id":"4","last_reported":1778358857,"current_range_meters":6000,"station_id":"ce4bh4p2rcd13ifvqe0g","pricing_plan_id":"cebpf4jnsgd1na2vs0mg"},{"bike_id":"ae1a1fa1-0ba2-444a-aafb-fc7dc82385cb","system_id":"levelo_inurba_marseille","lat":43.27357,"lon":5.39087,"is_reserved":false,"is_disabled":false,"rental_uris":{"android":"levelo://app?vid=ae1a1fa1-0ba2-444a-aafb-fc7dc82385cb","ios":"levelo://app?vid=ae1a1fa1-0ba2-444a-aafb-fc7dc82385cb"},"vehicle_type_id":"4","last_reported":1778358857,"current_range_meters":6400,"station_id":"","pricing_plan_id":"cebpf4jnsgd1na2vs0mg"},{"bike_id":"e6bd8138-3d56-4ae6-9878-8794caa087c5","system_id":"levelo_inurba_marseille","lat":43.24464,"lon":5.42495,"is_reserved":false,"is_disabled":true,"rental_uris":{"android":"levelo://app?vid=e6bd8138-3d56-4ae6-9878-8794caa087c5","ios":"levelo://app?vid=e6bd8138-3d56-4ae6-9878-8794caa087c5"},"vehicle_type_id":"4","last_reported":1778358857,"current_range_meters":6400,"station_id":"st_d4a3vfp97mjs738cd8kg","pricing_plan_id":"cebpf4jnsgd1na2vs0mg"},{"bike_id":"3ec74314-bbf4-429f-ac5e-6a4b6cc1e740","system_id":"levelo_inurba_marseille","lat":43.29608,"lon":5.38088,"is_reserved":false,"is_disabled":false,"rental_uris":{"android":"levelo://app?vid=3ec74314-bbf4-429f-ac5e-6a4b6cc1e740","ios":"levelo://app?vid=3ec74314-bbf4-429f-ac5e-6a4b6cc1e740"},"vehicle_type_id":"4","last_reported":1778358857,"current_range_meters":6400,"station_id":"ce4bgl12rcd13ifvqbo0","pricing_plan_id":"cebpf4jnsgd1na2vs0mg"},{"bike_id":"b78f3633-ae6f-4946-91a4-54af91fb66d0","system_id":"levelo_inurba_marseille","lat":43.279694,"lon":5.387402,"is_reserved":false,"is_disabled":false,"rental_uris":{"android":"levelo://app?vid=b78f3633-ae6f-4946-91a4-54af91fb66d0","ios":"levelo://app?vid=b78f3633-ae6f-4946-91a4-54af91fb66d0"},"vehicle_type_id":"4","last_reported":1778358857,"current_range_meters":6400,"station_id":"ce4bhg12rcd13ifvqf80","pricing_plan_id":"cebpf4jnsgd1na2vs0mg"},{"bike_id":"9c6f744c-0e72-49bc-9387-3a540d0fe052","system_id":"levelo_inurba_marseille","lat":43.2482,"lon":5.37449,"is_reserved":false,"is_disabled":false,"rental_uris":{"android":"levelo://app?vid=9c6f744c-0e72-49bc-9387-3a540d0fe052","ios":"levelo://app?vid=9c6f744c-0e72-49bc-9387-3a540d0fe052"},"vehicle_type_id":"4","last_reported":1778358857,"current_range_meters":6400,"station_id":"ce4bhgh2rcd13ifvqfb0","pricing_plan_id":"cebpf4jnsgd1na2vs0mg"},{"bike_id":"678a30d2-248b-46db-8533-df98d2d1b864","system_id":"levelo_inurba_marseille","lat":43.29636,"lon":5.40603,"is_reserved":false,"is_disabled":false,"rental_uris":{"android":"levelo://app?vid=678a30d2-248b-46db-8533-df98d2d1b864","ios":"levelo://app?vid=678a30d2-248b-46db-8533-df98d2d1b864"},"vehicle_type_id":"4","last_reported":1778358857,"current_range_meters":6400,"station_id":"ce4bh0h2rcd13ifvqd60","pricing_plan_id":"cebpf4jnsgd1na2vs0mg"},{"bike_id":"ed48bdde-5fab-468a-9175-6b9f745e29ac","system_id":"levelo_inurba_marseille","lat":43.30843,"lon":5.38311,"is_reserved":false,"is_disabled":false,"rental_uris":{"android":"levelo://app?vid=ed48bdde-5fab-468a-9175-6b9f745e29ac","ios":"levelo://app?vid=ed48bdde-5fab-468a-9175-6b9f745e29ac"},"vehicle_type_id":"4","last_reported":1778358857,"current_range_meters":6400,"station_id":"ce4bgt12rcd13ifvqce0","pricing_plan_id":"cebpf4jnsgd1na2vs0mg"},{"bike_id":"7a97d9f9-918f-460d-89df-53a0f74093da","system_id":"levelo_inurba_marseille","lat":43.29219,"lon":5.39631,"is_reserved":false,"is_disabled":false,"rental_uris":{"android":"levelo://app?vid=7a97d9f9-918f-460d-89df-53a0f74093da","ios":"levelo://app?vid=7a97d9f9-918f-460d-89df-53a0f74093da"},"vehicle_type_id":"4","last_reported":1778358857,"current_range_meters":6400,"station_id":"","pricing_plan_id":"cebpf4jnsgd1na2vs0mg"},{"bike_id":"a30008ae-a2df-4129-8ea6-0f377536b8ba","system_id":"levelo_inurba_marseille","lat":43.32108,"lon":5.36771,"is_reserved":false,"is_disabled":false,"rental_uris":{"android":"levelo://app?vid=a30008ae-a2df-4129-8ea6-0f377536b8ba","ios":"levelo://app?vid=a30008ae-a2df-4129-8ea6-0f377536b8ba"},"vehicle_type_id":"4","last_reported":1778358857,"current_range_meters":6400,"station_id":"ce4bhrh2rcd13ifvqhug","pricing_plan_id":"cebpf4jnsgd1na2vs0mg"},{"bike_id":"ac669cf6-3802-49e7-8567-a514ce79081d","system_id":"levelo_inurba_marseille","lat":43.29138,"lon":5.38513,"is_reserved":false,"is_disabled":true,"rental_uris":{"android":"levelo://app?vid=ac669cf6-3802-49e7-8567-a514ce79081d","ios":"levelo://app?vid=ac669cf6-3802-49e7-8567-a514ce79081d"},"vehicle_type_id":"4","last_reported":1778358857,"current_range_meters":6400,"station_id":"","pricing_plan_id":"cebpf4jnsgd1na2vs0mg"},{"bike_id":"b1eefa37-96ae-4f95-a344-438091e1d04d","system_id":"levelo_inurba_marseille","lat":43.31043,"lon":5.39385,"is_reserved":false,"is_disabled":false,"rental_uris":{"android":"levelo://app?vid=b1eefa37-96ae-4f95-a344-438091e1d04d","ios":"levelo://app?vid=b1eefa37-96ae-4f95-a344-438091e1d04d"},"vehicle_type_id":"4","last_reported":1778358857,"current_range_meters":6400,"station_id":"","pricing_plan_id":"cebpf4jnsgd1na2vs0mg"},{"bike_id":"296921d4-d837-47f5-8f08-d0f78154b13e","system_id":"levelo_inurba_marseille","lat":43.29775,"lon":5.38098,"is_reserved":false,"is_disabled":false,"rental_uris":{"android":"levelo://app?vid=296921d4-d837-47f5-8f08-d0f78154b13e","ios":"levelo://app?vid=296921d4-d837-47f5-8f08-d0f78154b13e"},"vehicle_type_id":"4","last_reported":1778358857,"current_range_meters":6400,"station_id":"ce4bgip2rcd13ifvqbb0","pricing_plan_id":"cebpf4jnsgd1na2vs0mg"},{"bike_id":"56f49e50-6a83-4394-9824-60e644a739ee","system_id":"levelo_inurba_marseille","lat":43.25088,"lon":5.3953,"is_reserved":false,"is_disabled":false,"rental_uris":{"android":"levelo://app?vid=56f49e50-6a83-4394-9824-60e644a739ee","ios":"levelo://app?vid=56f49e50-6a83-4394-9824-60e644a739ee"},"vehicle_type_id":"4","last_reported":1778358857,"current_range_meters":6400,"station_id":"ce4bhm12rcd13ifvqgkg","pricing_plan_id":"cebpf4jnsgd1na2vs0mg"},{"bike_id":"fd15faf6-f969-4bda-be30-e042b3108596","system_id":"levelo_inurba_marseille","lat":43.2634,"lon":5.41067,"is_reserved":false,"is_disabled":false,"rental_uris":{"android":"levelo://app?vid=fd15faf6-f969-4bda-be30-e042b3108596","ios":"levelo://app?vid=fd15faf6-f969-4bda-be30-e042b3108596"},"vehicle_type_id":"4","last_reported":1778358857,"current_range_meters":6400,"station_id":"st_d4e5ca6na9uc73bfl5fg","pricing_plan_id":"cebpf4jnsgd1na2vs0mg"},{"bike_id":"6dfe43ac-6131-42a7-8c3d-86b7cfec6e79","system_id":"levelo_inurba_marseille","lat":43.29026,"lon":5.37226,"is_reserved":false,"is_disabled":false,"rental_uris":{"android":"levelo://app?vid=6dfe43ac-6131-42a7-8c3d-86b7cfec6e79","ios":"levelo://app?vid=6dfe43ac-6131-42a7-8c3d-86b7cfec6e79"},"vehicle_type_id":"4","last_reported":1778358857,"current_range_meters":6400,"station_id":"","pricing_plan_id":"cebpf4jnsgd1na2vs0mg"},{"bike_id":"d9bc5efb-4529-4c79-b551-213ef29ab0f9","system_id":"levelo_inurba_marseille","lat":43.30104,"lon":5.39076,"is_reserved":false,"is_disabled":false,"rental_uris":{"android":"levelo://app?vid=d9bc5efb-4529-4c79-b551-213ef29ab0f9","ios":"levelo://app?vid=d9bc5efb-4529-4c79-b551-213ef29ab0f9"},"vehicle_type_id":"4","last_reported":1778358857,"current_range_meters":6400,"station_id":"ce4bh192rcd13ifvqdb0","pricing_plan_id":"cebpf4jnsgd1na2vs0mg"},{"bike_id":"21b72ef0-e32d-4da9-a60f-18c773ef3a3c","system_id":"levelo_inurba_marseille","lat":43.326706,"lon":5.409814,"is_reserved":false,"is_disabled":false,"rental_uris":{"android":"levelo://app?vid=21b72ef0-e32d-4da9-a60f-18c773ef3a3c","ios":"levelo://app?vid=21b72ef0-e32d-4da9-a60f-18c773ef3a3c"},"vehicle_type_id":"4","last_reported":1778358857,"current_range_meters":6400,"station_id":"ce4bhpp2rcd13ifvqhgg","pricing_plan_id":"cebpf4jnsgd1na2vs0mg"},{"bike_id":"f9cd1877-8be7-4d35-854e-6ed158a6225e","system_id":"levelo_inurba_marseille","lat":43.29794,"lon":5.39341,"is_reserved":false,"is_disabled":false,"rental_uris":{"android":"levelo://app?vid=f9cd1877-8be7-4d35-854e-6ed158a6225e","ios":"levelo://app?vid=f9cd1877-8be7-4d35-854e-6ed158a6225e"},"vehicle_type_id":"4","last_reported":1778358857,"current_range_meters":6400,"station_id":"chh1huq6cuj3fo74tm60","pricing_plan_id":"cebpf4jnsgd1na2vs0mg"},{"bike_id":"f2e0a9d2-4cb3-4210-b0c1-de06ef4c5c90","system_id":"levelo_inurba_marseille","lat":43.29263,"lon":5.38431,"is_reserved":false,"is_disabled":false,"rental_uris":{"android":"levelo://app?vid=f2e0a9d2-4cb3-4210-b0c1-de06ef4c5c90","ios":"levelo://app?vid=f2e0a9d2-4cb3-4210-b0c1-de06ef4c5c90"},"vehicle_type_id":"4","last_reported":1778358857,"current_range_meters":6400,"station_id":"ce4bh692rcd13ifvqea0","pricing_plan_id":"cebpf4jnsgd1na2vs0mg"},{"bike_id":"15302377-13d7-47ae-ad35-76e3359c1b35","system_id":"levelo_inurba_marseille","lat":43.29524,"lon":5.39042,"is_reserved":false,"is_disabled":false,"rental_uris":{"android":"levelo://app?vid=15302377-13d7-47ae-ad35-76e3359c1b35","ios":"levelo://app?vid=15302377-13d7-47ae-ad35-76e3359c1b35"},"vehicle_type_id":"4","last_reported":1778358857,"current_range_meters":6400,"station_id":"ce4bh3p2rcd13ifvqdp0","pricing_plan_id":"cebpf4jnsgd1na2vs0mg"},{"bike_id":"cccda472-7561-4978-9b74-a8c6197a578e","system_id":"levelo_inurba_marseille","lat":43.33181,"lon":5.37669,"is_reserved":false,"is_disabled":false,"rental_uris":{"android":"levelo://app?vid=cccda472-7561-4978-9b74-a8c6197a578e","ios":"levelo://app?vid=cccda472-7561-4978-9b74-a8c6197a578e"},"vehicle_type_id":"4","last_reported":1778358857,"current_range_meters":6400,"station_id":"st_d46cu089ee8s73dldbu0","pricing_plan_id":"cebpf4jnsgd1na2vs0mg"},{"bike_id":"73bc25c7-39eb-477e-83c7-de1bd76a48d7","system_id":"levelo_inurba_marseille","lat":43.29698,"lon":5.37288,"is_reserved":false,"is_disabled":false,"rental_uris":{"android":"levelo://app?vid=73bc25c7-39eb-477e-83c7-de1bd76a48d7","ios":"levelo://app?vid=73bc25c7-39eb-477e-83c7-de1bd76a48d7"},"vehicle_type_id":"4","last_reported":1778358857,"current_range_meters":6800,"station_id":"ce4bgk12rcd13ifvqbj0","pricing_plan_id":"cebpf4jnsgd1na2vs0mg"},{"bike_id":"a59e4862-a677-4338-acb9-45b1ca5db8d4","system_id":"levelo_inurba_marseille","lat":43.29552,"lon":5.38531,"is_reserved":false,"is_disabled":false,"rental_uris":{"android":"levelo://app?vid=a59e4862-a677-4338-acb9-45b1ca5db8d4","ios":"levelo://app?vid=a59e4862-a677-4338-acb9-45b1ca5db8d4"},"vehicle_type_id":"4","last_reported":1778358857,"current_range_meters":6800,"station_id":"ce4bgih2rcd13ifvqba0","pricing_plan_id":"cebpf4jnsgd1na2vs0mg"},{"bike_id":"2a1755c6-621b-4ee0-b02e-fcd7e30106ff","system_id":"levelo_inurba_marseille","lat":43.29793,"lon":5.39366,"is_reserved":false,"is_disabled":true,"rental_uris":{"android":"levelo://app?vid=2a1755c6-621b-4ee0-b02e-fcd7e30106ff","ios":"levelo://app?vid=2a1755c6-621b-4ee0-b02e-fcd7e30106ff"},"vehicle_type_id":"4","last_reported":1778358857,"current_range_meters":6800,"station_id":"chh1huq6cuj3fo74tm60","pricing_plan_id":"cebpf4jnsgd1na2vs0mg"},{"bike_id":"f539bb17-16cf-4505-8a99-d64e79a69d9e","system_id":"levelo_inurba_marseille","lat":43.32123,"lon":5.36759,"is_reserved":false,"is_disabled":false,"rental_uris":{"android":"levelo://app?vid=f539bb17-16cf-4505-8a99-d64e79a69d9e","ios":"levelo://app?vid=f539bb17-16cf-4505-8a99-d64e79a69d9e"},"vehicle_type_id":"4","last_reported":1778358857,"current_range_meters":6800,"station_id":"ce4bhrh2rcd13ifvqhug","pricing_plan_id":"cebpf4jnsgd1na2vs0mg"},{"bike_id":"234d937c-0a51-4b7b-a5da-54c58b1cfe2d","system_id":"levelo_inurba_marseille","lat":43.30528,"lon":5.36703,"is_reserved":false,"is_disabled":true,"rental_uris":{"android":"levelo://app?vid=234d937c-0a51-4b7b-a5da-54c58b1cfe2d","ios":"levelo://app?vid=234d937c-0a51-4b7b-a5da-54c58b1cfe2d"},"vehicle_type_id":"4","last_reported":1778358857,"current_range_meters":6800,"station_id":"ce4bgrp2rcd13ifvqc9g","pricing_plan_id":"cebpf4jnsgd1na2vs0mg"},{"bike_id":"a0bd567e-1c56-4070-a0d6-197fcb4bf449","system_id":"levelo_inurba_marseille","lat":43.262194,"lon":5.404515,"is_reserved":false,"is_disabled":false,"rental_uris":{"android":"levelo://app?vid=a0bd567e-1c56-4070-a0d6-197fcb4bf449","ios":"levelo://app?vid=a0bd567e-1c56-4070-a0d6-197fcb4bf449"},"vehicle_type_id":"4","last_reported":1778358857,"current_range_meters":6800,"station_id":"ce4bhmh2rcd13ifvqgmg","pricing_plan_id":"cebpf4jnsgd1na2vs0mg"},{"bike_id":"cdd278be-6985-4e01-a1e8-4899861427d9","system_id":"levelo_inurba_marseille","lat":43.25822,"lon":5.39422,"is_reserved":false,"is_disabled":false,"rental_uris":{"android":"levelo://app?vid=cdd278be-6985-4e01-a1e8-4899861427d9","ios":"levelo://app?vid=cdd278be-6985-4e01-a1e8-4899861427d9"},"vehicle_type_id":"4","last_reported":1778358857,"current_range_meters":6800,"station_id":"ce4bhip2rcd13ifvqft0","pricing_plan_id":"cebpf4jnsgd1na2vs0mg"},{"bike_id":"f422b51e-1ef9-42a2-8365-1d33f807a8e0","system_id":"levelo_inurba_marseille","lat":43.23893,"lon":5.37454,"is_reserved":false,"is_disabled":true,"rental_uris":{"android":"levelo://app?vid=f422b51e-1ef9-42a2-8365-1d33f807a8e0","ios":"levelo://app?vid=f422b51e-1ef9-42a2-8365-1d33f807a8e0"},"vehicle_type_id":"4","last_reported":1778358857,"current_range_meters":6800,"station_id":"st_d6sm7csbq4hs73f8fpjg","pricing_plan_id":"cebpf4jnsgd1na2vs0mg"},{"bike_id":"d5b1780b-e346-4f12-b171-c0fd994c9f82","system_id":"levelo_inurba_marseille","lat":43.2693,"lon":5.40248,"is_reserved":false,"is_disabled":false,"rental_uris":{"android":"levelo://app?vid=d5b1780b-e346-4f12-b171-c0fd994c9f82","ios":"levelo://app?vid=d5b1780b-e346-4f12-b171-c0fd994c9f82"},"vehicle_type_id":"4","last_reported":1778358857,"current_range_meters":6800,"station_id":"cjm6bp8fraef2m0cb0m0","pricing_plan_id":"cebpf4jnsgd1na2vs0mg"},{"bike_id":"32795945-afa6-4fab-a236-e6fc5b6d6f56","system_id":"levelo_inurba_marseille","lat":43.24176,"lon":5.39729,"is_reserved":false,"is_disabled":false,"rental_uris":{"android":"levelo://app?vid=32795945-afa6-4fab-a236-e6fc5b6d6f56","ios":"levelo://app?vid=32795945-afa6-4fab-a236-e6fc5b6d6f56"},"vehicle_type_id":"4","last_reported":1778358857,"current_range_meters":6800,"station_id":"ce4bhn12rcd13ifvqgpg","pricing_plan_id":"cebpf4jnsgd1na2vs0mg"},{"bike_id":"264dd0a7-16d8-48c6-b8bf-1ef756773377","system_id":"levelo_inurba_marseille","lat":43.31895,"lon":5.36803,"is_reserved":false,"is_disabled":false,"rental_uris":{"android":"levelo://app?vid=264dd0a7-16d8-48c6-b8bf-1ef756773377","ios":"levelo://app?vid=264dd0a7-16d8-48c6-b8bf-1ef756773377"},"vehicle_type_id":"4","last_reported":1778358857,"current_range_meters":6800,"station_id":"st_d6o2h0d0559c73evc1b0","pricing_plan_id":"cebpf4jnsgd1na2vs0mg"},{"bike_id":"4bc6302e-723c-444e-9c1c-2353d2969136","system_id":"levelo_inurba_marseille","lat":43.2944,"lon":5.39652,"is_reserved":false,"is_disabled":true,"rental_uris":{"android":"levelo://app?vid=4bc6302e-723c-444e-9c1c-2353d2969136","ios":"levelo://app?vid=4bc6302e-723c-444e-9c1c-2353d2969136"},"vehicle_type_id":"4","last_reported":1778358857,"current_range_meters":6800,"station_id":"","pricing_plan_id":"cebpf4jnsgd1na2vs0mg"},{"bike_id":"74a938f2-f578-4294-9976-174677fe2f35","system_id":"levelo_inurba_marseille","lat":43.29487,"lon":5.43302,"is_reserved":false,"is_disabled":false,"rental_uris":{"android":"levelo://app?vid=74a938f2-f578-4294-9976-174677fe2f35","ios":"levelo://app?vid=74a938f2-f578-4294-9976-174677fe2f35"},"vehicle_type_id":"4","last_reported":1778358857,"current_range_meters":6800,"station_id":"st_d3j5ugp08ojc73fj9d10","pricing_plan_id":"cebpf4jnsgd1na2vs0mg"},{"bike_id":"ea809557-96ce-4ffd-9234-542c0e95bbcc","system_id":"levelo_inurba_marseille","lat":43.29272,"lon":5.40129,"is_reserved":false,"is_disabled":false,"rental_uris":{"android":"levelo://app?vid=ea809557-96ce-4ffd-9234-542c0e95bbcc","ios":"levelo://app?vid=ea809557-96ce-4ffd-9234-542c0e95bbcc"},"vehicle_type_id":"4","last_reported":1778358857,"current_range_meters":6800,"station_id":"ce4bh312rcd13ifvqdk0","pricing_plan_id":"cebpf4jnsgd1na2vs0mg"},{"bike_id":"0459c2a8-c413-48e7-a118-d2b5e126c8f8","system_id":"levelo_inurba_marseille","lat":43.2689,"lon":5.3935,"is_reserved":false,"is_disabled":false,"rental_uris":{"android":"levelo://app?vid=0459c2a8-c413-48e7-a118-d2b5e126c8f8","ios":"levelo://app?vid=0459c2a8-c413-48e7-a118-d2b5e126c8f8"},"vehicle_type_id":"4","last_reported":1778358857,"current_range_meters":6800,"station_id":"","pricing_plan_id":"cebpf4jnsgd1na2vs0mg"},{"bike_id":"0152740e-06db-4ade-88eb-e3632fbb8a1f","system_id":"levelo_inurba_marseille","lat":43.28287,"lon":5.35036,"is_reserved":false,"is_disabled":true,"rental_uris":{"android":"levelo://app?vid=0152740e-06db-4ade-88eb-e3632fbb8a1f","ios":"levelo://app?vid=0152740e-06db-4ade-88eb-e3632fbb8a1f"},"vehicle_type_id":"4","last_reported":1778358857,"current_range_meters":6800,"station_id":"ce4bhbp2rcd13ifvqerg","pricing_plan_id":"cebpf4jnsgd1na2vs0mg"},{"bike_id":"34c52beb-803f-44a3-b338-152c98936048","system_id":"levelo_inurba_marseille","lat":43.23148,"lon":5.43715,"is_reserved":false,"is_disabled":false,"rental_uris":{"android":"levelo://app?vid=34c52beb-803f-44a3-b338-152c98936048","ios":"levelo://app?vid=34c52beb-803f-44a3-b338-152c98936048"},"vehicle_type_id":"4","last_reported":1778358857,"current_range_meters":6800,"station_id":"ce4bhmp2rcd13ifvqgog","pricing_plan_id":"cebpf4jnsgd1na2vs0mg"},{"bike_id":"35ffeb93-50ad-479e-a2e7-f048358d90b6","system_id":"levelo_inurba_marseille","lat":43.28943,"lon":5.36653,"is_reserved":false,"is_disabled":false,"rental_uris":{"android":"levelo://app?vid=35ffeb93-50ad-479e-a2e7-f048358d90b6","ios":"levelo://app?vid=35ffeb93-50ad-479e-a2e7-f048358d90b6"},"vehicle_type_id":"4","last_reported":1778358857,"current_range_meters":6800,"station_id":"ce4bhap2rcd13ifvqek0","pricing_plan_id":"cebpf4jnsgd1na2vs0mg"},{"bike_id":"f62f892b-35da-4575-91cd-6ff29b858255","system_id":"levelo_inurba_marseille","lat":43.29982,"lon":5.38484,"is_reserved":false,"is_disabled":true,"rental_uris":{"android":"levelo://app?vid=f62f892b-35da-4575-91cd-6ff29b858255","ios":"levelo://app?vid=f62f892b-35da-4575-91cd-6ff29b858255"},"vehicle_type_id":"4","last_reported":1778358857,"current_range_meters":6800,"station_id":"ce4bgj92rcd13ifvqbd0","pricing_plan_id":"cebpf4jnsgd1na2vs0mg"},{"bike_id":"d450aa31-a41b-4132-b097-69a46cdb9c7c","system_id":"levelo_inurba_marseille","lat":43.29606,"lon":5.38088,"is_reserved":false,"is_disabled":false,"rental_uris":{"android":"levelo://app?vid=d450aa31-a41b-4132-b097-69a46cdb9c7c","ios":"levelo://app?vid=d450aa31-a41b-4132-b097-69a46cdb9c7c"},"vehicle_type_id":"4","last_reported":1778358857,"current_range_meters":6800,"station_id":"ce4bgl12rcd13ifvqbo0","pricing_plan_id":"cebpf4jnsgd1na2vs0mg"},{"bike_id":"7ab5c60f-aa12-49fb-978d-56d9b566674c","system_id":"levelo_inurba_marseille","lat":43.29273,"lon":5.38432,"is_reserved":false,"is_disabled":false,"rental_uris":{"android":"levelo://app?vid=7ab5c60f-aa12-49fb-978d-56d9b566674c","ios":"levelo://app?vid=7ab5c60f-aa12-49fb-978d-56d9b566674c"},"vehicle_type_id":"4","last_reported":1778358857,"current_range_meters":6800,"station_id":"ce4bh692rcd13ifvqea0","pricing_plan_id":"cebpf4jnsgd1na2vs0mg"},{"bike_id":"d0422a3d-e193-4cef-8d02-e1260b86002b","system_id":"levelo_inurba_marseille","lat":43.29263,"lon":5.3762,"is_reserved":false,"is_disabled":true,"rental_uris":{"android":"levelo://app?vid=d0422a3d-e193-4cef-8d02-e1260b86002b","ios":"levelo://app?vid=d0422a3d-e193-4cef-8d02-e1260b86002b"},"vehicle_type_id":"4","last_reported":1778358857,"current_range_meters":7200,"station_id":"ce4bgi12rcd13ifvqb80","pricing_plan_id":"cebpf4jnsgd1na2vs0mg"},{"bike_id":"261442be-df01-487c-b82d-848abe824608","system_id":"levelo_inurba_marseille","lat":43.26238,"lon":5.40437,"is_reserved":false,"is_disabled":false,"rental_uris":{"android":"levelo://app?vid=261442be-df01-487c-b82d-848abe824608","ios":"levelo://app?vid=261442be-df01-487c-b82d-848abe824608"},"vehicle_type_id":"4","last_reported":1778358857,"current_range_meters":7200,"station_id":"ce4bhmh2rcd13ifvqgmg","pricing_plan_id":"cebpf4jnsgd1na2vs0mg"},{"bike_id":"6185c6b4-782e-4ff8-b9f0-cc828921242d","system_id":"levelo_inurba_marseille","lat":43.27102,"lon":5.42252,"is_reserved":false,"is_disabled":false,"rental_uris":{"android":"levelo://app?vid=6185c6b4-782e-4ff8-b9f0-cc828921242d","ios":"levelo://app?vid=6185c6b4-782e-4ff8-b9f0-cc828921242d"},"vehicle_type_id":"4","last_reported":1778358857,"current_range_meters":7200,"station_id":"ce4bhk92rcd13ifvqgb0","pricing_plan_id":"cebpf4jnsgd1na2vs0mg"},{"bike_id":"0f37d20d-e5fe-4f59-9ef1-d7a0e54fc89a","system_id":"levelo_inurba_marseille","lat":43.24554,"lon":5.39526,"is_reserved":false,"is_disabled":false,"rental_uris":{"android":"levelo://app?vid=0f37d20d-e5fe-4f59-9ef1-d7a0e54fc89a","ios":"levelo://app?vid=0f37d20d-e5fe-4f59-9ef1-d7a0e54fc89a"},"vehicle_type_id":"4","last_reported":1778358857,"current_range_meters":7200,"station_id":"ce4bhlp2rcd13ifvqgjg","pricing_plan_id":"cebpf4jnsgd1na2vs0mg"},{"bike_id":"4fd5b212-cba9-47fe-a389-1fe7b66457c2","system_id":"levelo_inurba_marseille","lat":43.30349,"lon":5.36911,"is_reserved":false,"is_disabled":false,"rental_uris":{"android":"levelo://app?vid=4fd5b212-cba9-47fe-a389-1fe7b66457c2","ios":"levelo://app?vid=4fd5b212-cba9-47fe-a389-1fe7b66457c2"},"vehicle_type_id":"4","last_reported":1778358857,"current_range_meters":7200,"station_id":"","pricing_plan_id":"cebpf4jnsgd1na2vs0mg"},{"bike_id":"a6b34c8d-c704-404f-82c4-c636dae58815","system_id":"levelo_inurba_marseille","lat":43.30007,"lon":5.38788,"is_reserved":false,"is_disabled":false,"rental_uris":{"android":"levelo://app?vid=a6b34c8d-c704-404f-82c4-c636dae58815","ios":"levelo://app?vid=a6b34c8d-c704-404f-82c4-c636dae58815"},"vehicle_type_id":"4","last_reported":1778358857,"current_range_meters":7200,"station_id":"","pricing_plan_id":"cebpf4jnsgd1na2vs0mg"},{"bike_id":"3c5f0f52-deec-4478-b1b8-43df5890b0b6","system_id":"levelo_inurba_marseille","lat":43.23947,"lon":5.36632,"is_reserved":false,"is_disabled":false,"rental_uris":{"android":"levelo://app?vid=3c5f0f52-deec-4478-b1b8-43df5890b0b6","ios":"levelo://app?vid=3c5f0f52-deec-4478-b1b8-43df5890b0b6"},"vehicle_type_id":"4","last_reported":1778358857,"current_range_meters":7200,"station_id":"ce4bhi12rcd13ifvqfp0","pricing_plan_id":"cebpf4jnsgd1na2vs0mg"},{"bike_id":"5128aeda-bc18-4029-839a-d140ab1c6a85","system_id":"levelo_inurba_marseille","lat":43.29304,"lon":5.37175,"is_reserved":false,"is_disabled":false,"rental_uris":{"android":"levelo://app?vid=5128aeda-bc18-4029-839a-d140ab1c6a85","ios":"levelo://app?vid=5128aeda-bc18-4029-839a-d140ab1c6a85"},"vehicle_type_id":"4","last_reported":1778358857,"current_range_meters":7200,"station_id":"ce4bgh92rcd13ifvqb40","pricing_plan_id":"cebpf4jnsgd1na2vs0mg"},{"bike_id":"eb11192f-01b0-4426-8f8a-bb511c2fd599","system_id":"levelo_inurba_marseille","lat":43.24791,"lon":5.37462,"is_reserved":false,"is_disabled":false,"rental_uris":{"android":"levelo://app?vid=eb11192f-01b0-4426-8f8a-bb511c2fd599","ios":"levelo://app?vid=eb11192f-01b0-4426-8f8a-bb511c2fd599"},"vehicle_type_id":"4","last_reported":1778358857,"current_range_meters":7200,"station_id":"ce4bhgh2rcd13ifvqfb0","pricing_plan_id":"cebpf4jnsgd1na2vs0mg"},{"bike_id":"6027c78f-4acb-4c82-b846-a908464aca88","system_id":"levelo_inurba_marseille","lat":43.30323,"lon":5.36904,"is_reserved":false,"is_disabled":false,"rental_uris":{"android":"levelo://app?vid=6027c78f-4acb-4c82-b846-a908464aca88","ios":"levelo://app?vid=6027c78f-4acb-4c82-b846-a908464aca88"},"vehicle_type_id":"4","last_reported":1778358857,"current_range_meters":7200,"station_id":"ce4bgqh2rcd13ifvqc5g","pricing_plan_id":"cebpf4jnsgd1na2vs0mg"},{"bike_id":"8c366214-b9d5-4d0c-8737-9ef65f05b69f","system_id":"levelo_inurba_marseille","lat":43.29255,"lon":5.36845,"is_reserved":false,"is_disabled":false,"rental_uris":{"android":"levelo://app?vid=8c366214-b9d5-4d0c-8737-9ef65f05b69f","ios":"levelo://app?vid=8c366214-b9d5-4d0c-8737-9ef65f05b69f"},"vehicle_type_id":"4","last_reported":1778358857,"current_range_meters":7200,"station_id":"ce4bhbp2rcd13ifvqesg","pricing_plan_id":"cebpf4jnsgd1na2vs0mg"},{"bike_id":"f43779d5-16c9-4f97-95b2-2f1f51b6ba6b","system_id":"levelo_inurba_marseille","lat":43.30891,"lon":5.37222,"is_reserved":false,"is_disabled":false,"rental_uris":{"android":"levelo://app?vid=f43779d5-16c9-4f97-95b2-2f1f51b6ba6b","ios":"levelo://app?vid=f43779d5-16c9-4f97-95b2-2f1f51b6ba6b"},"vehicle_type_id":"4","last_reported":1778358857,"current_range_meters":7200,"station_id":"ce4bguh2rcd13ifvqckg","pricing_plan_id":"cebpf4jnsgd1na2vs0mg"},{"bike_id":"79f2a195-c1d7-4545-8ee1-e2f28860b4d7","system_id":"levelo_inurba_marseille","lat":43.30965,"lon":5.39027,"is_reserved":false,"is_disabled":false,"rental_uris":{"android":"levelo://app?vid=79f2a195-c1d7-4545-8ee1-e2f28860b4d7","ios":"levelo://app?vid=79f2a195-c1d7-4545-8ee1-e2f28860b4d7"},"vehicle_type_id":"4","last_reported":1778358857,"current_range_meters":7200,"station_id":"ce4bgup2rcd13ifvqco0","pricing_plan_id":"cebpf4jnsgd1na2vs0mg"},{"bike_id":"51d5b294-35d0-46bc-bba3-28f79376e313","system_id":"levelo_inurba_marseille","lat":43.28412,"lon":5.37529,"is_reserved":false,"is_disabled":false,"rental_uris":{"android":"levelo://app?vid=51d5b294-35d0-46bc-bba3-28f79376e313","ios":"levelo://app?vid=51d5b294-35d0-46bc-bba3-28f79376e313"},"vehicle_type_id":"4","last_reported":1778358857,"current_range_meters":7200,"station_id":"ce4bh412rcd13ifvqds0","pricing_plan_id":"cebpf4jnsgd1na2vs0mg"},{"bike_id":"9ad0ed79-58f9-4fdb-a428-5fe7fae086e3","system_id":"levelo_inurba_marseille","lat":43.27947,"lon":5.39546,"is_reserved":false,"is_disabled":false,"rental_uris":{"android":"levelo://app?vid=9ad0ed79-58f9-4fdb-a428-5fe7fae086e3","ios":"levelo://app?vid=9ad0ed79-58f9-4fdb-a428-5fe7fae086e3"},"vehicle_type_id":"4","last_reported":1778358857,"current_range_meters":7200,"station_id":"ce4bhf92rcd13ifvqf40","pricing_plan_id":"cebpf4jnsgd1na2vs0mg"},{"bike_id":"9e9ec8bd-39f4-44d5-9150-2fe5a0480717","system_id":"levelo_inurba_marseille","lat":43.2903,"lon":5.38619,"is_reserved":false,"is_disabled":false,"rental_uris":{"android":"levelo://app?vid=9e9ec8bd-39f4-44d5-9150-2fe5a0480717","ios":"levelo://app?vid=9e9ec8bd-39f4-44d5-9150-2fe5a0480717"},"vehicle_type_id":"4","last_reported":1778358857,"current_range_meters":7200,"station_id":"ce4bh4p2rcd13ifvqe0g","pricing_plan_id":"cebpf4jnsgd1na2vs0mg"},{"bike_id":"887fd6a9-4130-4158-a98a-2d6a96c9d6a7","system_id":"levelo_inurba_marseille","lat":43.27948,"lon":5.41044,"is_reserved":false,"is_disabled":false,"rental_uris":{"android":"levelo://app?vid=887fd6a9-4130-4158-a98a-2d6a96c9d6a7","ios":"levelo://app?vid=887fd6a9-4130-4158-a98a-2d6a96c9d6a7"},"vehicle_type_id":"4","last_reported":1778358857,"current_range_meters":7200,"station_id":"ce4bhnp2rcd13ifvqh0g","pricing_plan_id":"cebpf4jnsgd1na2vs0mg"},{"bike_id":"6c5cb9c0-f3ca-403c-9e9d-b0fda60f7067","system_id":"levelo_inurba_marseille","lat":43.29599,"lon":5.38092,"is_reserved":false,"is_disabled":false,"rental_uris":{"android":"levelo://app?vid=6c5cb9c0-f3ca-403c-9e9d-b0fda60f7067","ios":"levelo://app?vid=6c5cb9c0-f3ca-403c-9e9d-b0fda60f7067"},"vehicle_type_id":"4","last_reported":1778358857,"current_range_meters":7200,"station_id":"ce4bgl12rcd13ifvqbo0","pricing_plan_id":"cebpf4jnsgd1na2vs0mg"},{"bike_id":"3e63ca9f-52b9-4901-a1d9-7f430e423bd0","system_id":"levelo_inurba_marseille","lat":43.31423,"lon":5.44135,"is_reserved":false,"is_disabled":false,"rental_uris":{"android":"levelo://app?vid=3e63ca9f-52b9-4901-a1d9-7f430e423bd0","ios":"levelo://app?vid=3e63ca9f-52b9-4901-a1d9-7f430e423bd0"},"vehicle_type_id":"4","last_reported":1778358857,"current_range_meters":7200,"station_id":"","pricing_plan_id":"cebpf4jnsgd1na2vs0mg"},{"bike_id":"dc87449b-f301-4325-8e2c-79f4142b584d","system_id":"levelo_inurba_marseille","lat":43.27334,"lon":5.39074,"is_reserved":false,"is_disabled":false,"rental_uris":{"android":"levelo://app?vid=dc87449b-f301-4325-8e2c-79f4142b584d","ios":"levelo://app?vid=dc87449b-f301-4325-8e2c-79f4142b584d"},"vehicle_type_id":"4","last_reported":1778358857,"current_range_meters":7200,"station_id":"ce4bhgp2rcd13ifvqfe0","pricing_plan_id":"cebpf4jnsgd1na2vs0mg"},{"bike_id":"f58ac520-cd56-416a-8d23-332b7152192f","system_id":"levelo_inurba_marseille","lat":43.24077,"lon":5.37753,"is_reserved":false,"is_disabled":false,"rental_uris":{"android":"levelo://app?vid=f58ac520-cd56-416a-8d23-332b7152192f","ios":"levelo://app?vid=f58ac520-cd56-416a-8d23-332b7152192f"},"vehicle_type_id":"4","last_reported":1778358857,"current_range_meters":7200,"station_id":"ce4bhnp2rcd13ifvqgvg","pricing_plan_id":"cebpf4jnsgd1na2vs0mg"},{"bike_id":"1e0ff7a5-cf49-44a5-8fcd-1964e4c88462","system_id":"levelo_inurba_marseille","lat":43.28559,"lon":5.39475,"is_reserved":false,"is_disabled":false,"rental_uris":{"android":"levelo://app?vid=1e0ff7a5-cf49-44a5-8fcd-1964e4c88462","ios":"levelo://app?vid=1e0ff7a5-cf49-44a5-8fcd-1964e4c88462"},"vehicle_type_id":"4","last_reported":1778358857,"current_range_meters":7200,"station_id":"ce4bh292rcd13ifvqdg0","pricing_plan_id":"cebpf4jnsgd1na2vs0mg"},{"bike_id":"c9d6b417-ceb2-4a18-94a4-0b85c4bee9c1","system_id":"levelo_inurba_marseille","lat":43.2718,"lon":5.4099,"is_reserved":false,"is_disabled":false,"rental_uris":{"android":"levelo://app?vid=c9d6b417-ceb2-4a18-94a4-0b85c4bee9c1","ios":"levelo://app?vid=c9d6b417-ceb2-4a18-94a4-0b85c4bee9c1"},"vehicle_type_id":"4","last_reported":1778358857,"current_range_meters":7200,"station_id":"ce4bhl12rcd13ifvqgf0","pricing_plan_id":"cebpf4jnsgd1na2vs0mg"},{"bike_id":"4291119f-83bb-4de1-936a-967208c453d2","system_id":"levelo_inurba_marseille","lat":43.29566,"lon":5.39963,"is_reserved":false,"is_disabled":false,"rental_uris":{"android":"levelo://app?vid=4291119f-83bb-4de1-936a-967208c453d2","ios":"levelo://app?vid=4291119f-83bb-4de1-936a-967208c453d2"},"vehicle_type_id":"4","last_reported":1778358857,"current_range_meters":7200,"station_id":"ce4bh312rcd13ifvqdj0","pricing_plan_id":"cebpf4jnsgd1na2vs0mg"},{"bike_id":"97f964d8-1b4e-4439-a5e5-5bf9eca1819d","system_id":"levelo_inurba_marseille","lat":43.26373,"lon":5.41053,"is_reserved":false,"is_disabled":false,"rental_uris":{"android":"levelo://app?vid=97f964d8-1b4e-4439-a5e5-5bf9eca1819d","ios":"levelo://app?vid=97f964d8-1b4e-4439-a5e5-5bf9eca1819d"},"vehicle_type_id":"4","last_reported":1778358857,"current_range_meters":8000,"station_id":"st_d4e5ca6na9uc73bfl5fg","pricing_plan_id":"cebpf4jnsgd1na2vs0mg"},{"bike_id":"798edaef-bd54-4368-9500-a6ad4811f4c9","system_id":"levelo_inurba_marseille","lat":43.27187,"lon":5.39169,"is_reserved":false,"is_disabled":false,"rental_uris":{"android":"levelo://app?vid=798edaef-bd54-4368-9500-a6ad4811f4c9","ios":"levelo://app?vid=798edaef-bd54-4368-9500-a6ad4811f4c9"},"vehicle_type_id":"4","last_reported":1778358857,"current_range_meters":8000,"station_id":"ce4bhhp2rcd13ifvqfm0","pricing_plan_id":"cebpf4jnsgd1na2vs0mg"},{"bike_id":"24b614b1-21fe-4a2b-a521-7a850622da21","system_id":"levelo_inurba_marseille","lat":43.23957,"lon":5.36657,"is_reserved":false,"is_disabled":false,"rental_uris":{"android":"levelo://app?vid=24b614b1-21fe-4a2b-a521-7a850622da21","ios":"levelo://app?vid=24b614b1-21fe-4a2b-a521-7a850622da21"},"vehicle_type_id":"4","last_reported":1778358857,"current_range_meters":8000,"station_id":"ce4bhi12rcd13ifvqfp0","pricing_plan_id":"cebpf4jnsgd1na2vs0mg"},{"bike_id":"58f02a01-2d6b-42fb-b6cf-a6eb2f8162a4","system_id":"levelo_inurba_marseille","lat":43.26082,"lon":5.39634,"is_reserved":false,"is_disabled":false,"rental_uris":{"android":"levelo://app?vid=58f02a01-2d6b-42fb-b6cf-a6eb2f8162a4","ios":"levelo://app?vid=58f02a01-2d6b-42fb-b6cf-a6eb2f8162a4"},"vehicle_type_id":"4","last_reported":1778358857,"current_range_meters":8000,"station_id":"","pricing_plan_id":"cebpf4jnsgd1na2vs0mg"},{"bike_id":"d6aa3b2f-3029-4676-9089-14b4fb6bf286","system_id":"levelo_inurba_marseille","lat":43.28705,"lon":5.46679,"is_reserved":false,"is_disabled":false,"rental_uris":{"android":"levelo://app?vid=d6aa3b2f-3029-4676-9089-14b4fb6bf286","ios":"levelo://app?vid=d6aa3b2f-3029-4676-9089-14b4fb6bf286"},"vehicle_type_id":"4","last_reported":1778358857,"current_range_meters":8000,"station_id":"st_d6tc3vkotcvc738tfjhg","pricing_plan_id":"cebpf4jnsgd1na2vs0mg"},{"bike_id":"c31f8dc1-48f0-4c4a-868e-cc2eddf36421","system_id":"levelo_inurba_marseille","lat":43.28928,"lon":5.38362,"is_reserved":false,"is_disabled":false,"rental_uris":{"android":"levelo://app?vid=c31f8dc1-48f0-4c4a-868e-cc2eddf36421","ios":"levelo://app?vid=c31f8dc1-48f0-4c4a-868e-cc2eddf36421"},"vehicle_type_id":"4","last_reported":1778358857,"current_range_meters":8000,"station_id":"ce4bh612rcd13ifvqe6g","pricing_plan_id":"cebpf4jnsgd1na2vs0mg"},{"bike_id":"f3e5f4c8-4e21-43e7-b783-e32e46d7b1d8","system_id":"levelo_inurba_marseille","lat":43.3125,"lon":5.37272,"is_reserved":false,"is_disabled":false,"rental_uris":{"android":"levelo://app?vid=f3e5f4c8-4e21-43e7-b783-e32e46d7b1d8","ios":"levelo://app?vid=f3e5f4c8-4e21-43e7-b783-e32e46d7b1d8"},"vehicle_type_id":"4","last_reported":1778358857,"current_range_meters":8000,"station_id":"","pricing_plan_id":"cebpf4jnsgd1na2vs0mg"},{"bike_id":"c8ab128c-d505-40a6-89d2-6fbad2c876bc","system_id":"levelo_inurba_marseille","lat":43.29596,"lon":5.38099,"is_reserved":false,"is_disabled":false,"rental_uris":{"android":"levelo://app?vid=c8ab128c-d505-40a6-89d2-6fbad2c876bc","ios":"levelo://app?vid=c8ab128c-d505-40a6-89d2-6fbad2c876bc"},"vehicle_type_id":"4","last_reported":1778358857,"current_range_meters":8000,"station_id":"ce4bgl12rcd13ifvqbo0","pricing_plan_id":"cebpf4jnsgd1na2vs0mg"},{"bike_id":"08424806-7ea5-4e26-ae15-622ce86a1c11","system_id":"levelo_inurba_marseille","lat":43.31642,"lon":5.37042,"is_reserved":false,"is_disabled":false,"rental_uris":{"android":"levelo://app?vid=08424806-7ea5-4e26-ae15-622ce86a1c11","ios":"levelo://app?vid=08424806-7ea5-4e26-ae15-622ce86a1c11"},"vehicle_type_id":"4","last_reported":1778358857,"current_range_meters":8000,"station_id":"","pricing_plan_id":"cebpf4jnsgd1na2vs0mg"},{"bike_id":"bbc5eaaa-c7a6-4f97-9d2a-14d778cbe3cb","system_id":"levelo_inurba_marseille","lat":43.3065,"lon":5.40075,"is_reserved":false,"is_disabled":false,"rental_uris":{"android":"levelo://app?vid=bbc5eaaa-c7a6-4f97-9d2a-14d778cbe3cb","ios":"levelo://app?vid=bbc5eaaa-c7a6-4f97-9d2a-14d778cbe3cb"},"vehicle_type_id":"4","last_reported":1778358857,"current_range_meters":8000,"station_id":"ce4bh112rcd13ifvqda0","pricing_plan_id":"cebpf4jnsgd1na2vs0mg"},{"bike_id":"7f562e44-f80d-4039-a13e-86e1d369b931","system_id":"levelo_inurba_marseille","lat":43.248,"lon":5.37466,"is_reserved":false,"is_disabled":false,"rental_uris":{"android":"levelo://app?vid=7f562e44-f80d-4039-a13e-86e1d369b931","ios":"levelo://app?vid=7f562e44-f80d-4039-a13e-86e1d369b931"},"vehicle_type_id":"4","last_reported":1778358857,"current_range_meters":8000,"station_id":"ce4bhgh2rcd13ifvqfb0","pricing_plan_id":"cebpf4jnsgd1na2vs0mg"},{"bike_id":"41e821f9-d05f-4ef8-a6d6-c613a1df1d14","system_id":"levelo_inurba_marseille","lat":43.26784,"lon":5.39408,"is_reserved":false,"is_disabled":false,"rental_uris":{"android":"levelo://app?vid=41e821f9-d05f-4ef8-a6d6-c613a1df1d14","ios":"levelo://app?vid=41e821f9-d05f-4ef8-a6d6-c613a1df1d14"},"vehicle_type_id":"4","last_reported":1778358857,"current_range_meters":8000,"station_id":"ce4bhh12rcd13ifvqfg0","pricing_plan_id":"cebpf4jnsgd1na2vs0mg"},{"bike_id":"455ccaf4-898e-4fdd-9d56-aaa2e17ac25f","system_id":"levelo_inurba_marseille","lat":43.29261,"lon":5.36845,"is_reserved":false,"is_disabled":false,"rental_uris":{"android":"levelo://app?vid=455ccaf4-898e-4fdd-9d56-aaa2e17ac25f","ios":"levelo://app?vid=455ccaf4-898e-4fdd-9d56-aaa2e17ac25f"},"vehicle_type_id":"4","last_reported":1778358857,"current_range_meters":8000,"station_id":"ce4bhbp2rcd13ifvqesg","pricing_plan_id":"cebpf4jnsgd1na2vs0mg"},{"bike_id":"68234306-3737-4701-9a6f-8b470725aad8","system_id":"levelo_inurba_marseille","lat":43.29822,"lon":5.38082,"is_reserved":false,"is_disabled":false,"rental_uris":{"android":"levelo://app?vid=68234306-3737-4701-9a6f-8b470725aad8","ios":"levelo://app?vid=68234306-3737-4701-9a6f-8b470725aad8"},"vehicle_type_id":"4","last_reported":1778358857,"current_range_meters":8000,"station_id":"ce4bgip2rcd13ifvqbb0","pricing_plan_id":"cebpf4jnsgd1na2vs0mg"},{"bike_id":"808c4ecd-9bba-4ef5-91dc-62b4109dcc93","system_id":"levelo_inurba_marseille","lat":43.29529,"lon":5.3856,"is_reserved":false,"is_disabled":true,"rental_uris":{"android":"levelo://app?vid=808c4ecd-9bba-4ef5-91dc-62b4109dcc93","ios":"levelo://app?vid=808c4ecd-9bba-4ef5-91dc-62b4109dcc93"},"vehicle_type_id":"4","last_reported":1778358857,"current_range_meters":8000,"station_id":"ce4bgih2rcd13ifvqba0","pricing_plan_id":"cebpf4jnsgd1na2vs0mg"},{"bike_id":"5e1f5986-ff69-4a2b-bb48-a1076b1b32aa","system_id":"levelo_inurba_marseille","lat":43.29297,"lon":5.37441,"is_reserved":false,"is_disabled":true,"rental_uris":{"android":"levelo://app?vid=5e1f5986-ff69-4a2b-bb48-a1076b1b32aa","ios":"levelo://app?vid=5e1f5986-ff69-4a2b-bb48-a1076b1b32aa"},"vehicle_type_id":"4","last_reported":1778358857,"current_range_meters":8000,"station_id":"ce4bgi12rcd13ifvqb70","pricing_plan_id":"cebpf4jnsgd1na2vs0mg"},{"bike_id":"62a2c5ca-d5ea-4f60-aa75-5a78e5abdef8","system_id":"levelo_inurba_marseille","lat":43.29955,"lon":5.41315,"is_reserved":false,"is_disabled":false,"rental_uris":{"android":"levelo://app?vid=62a2c5ca-d5ea-4f60-aa75-5a78e5abdef8","ios":"levelo://app?vid=62a2c5ca-d5ea-4f60-aa75-5a78e5abdef8"},"vehicle_type_id":"4","last_reported":1778358857,"current_range_meters":8000,"station_id":"ce4bhp12rcd13ifvqh9g","pricing_plan_id":"cebpf4jnsgd1na2vs0mg"},{"bike_id":"6825fd32-589e-4656-8500-7978ff9fcbd1","system_id":"levelo_inurba_marseille","lat":43.2893,"lon":5.38401,"is_reserved":false,"is_disabled":false,"rental_uris":{"android":"levelo://app?vid=6825fd32-589e-4656-8500-7978ff9fcbd1","ios":"levelo://app?vid=6825fd32-589e-4656-8500-7978ff9fcbd1"},"vehicle_type_id":"4","last_reported":1778358857,"current_range_meters":8000,"station_id":"ce4bh612rcd13ifvqe6g","pricing_plan_id":"cebpf4jnsgd1na2vs0mg"},{"bike_id":"723180a2-46e6-40de-8f0a-9b3af8fce124","system_id":"levelo_inurba_marseille","lat":43.23788,"lon":5.36632,"is_reserved":false,"is_disabled":false,"rental_uris":{"android":"levelo://app?vid=723180a2-46e6-40de-8f0a-9b3af8fce124","ios":"levelo://app?vid=723180a2-46e6-40de-8f0a-9b3af8fce124"},"vehicle_type_id":"4","last_reported":1778358857,"current_range_meters":8000,"station_id":"st_d3nk18o9ro0c73en2l3g","pricing_plan_id":"cebpf4jnsgd1na2vs0mg"},{"bike_id":"b3ac8f68-68e4-4ef8-9c40-d7768eb2450e","system_id":"levelo_inurba_marseille","lat":43.29268,"lon":5.38434,"is_reserved":false,"is_disabled":false,"rental_uris":{"android":"levelo://app?vid=b3ac8f68-68e4-4ef8-9c40-d7768eb2450e","ios":"levelo://app?vid=b3ac8f68-68e4-4ef8-9c40-d7768eb2450e"},"vehicle_type_id":"4","last_reported":1778358857,"current_range_meters":8000,"station_id":"","pricing_plan_id":"cebpf4jnsgd1na2vs0mg"},{"bike_id":"1f1c8728-65cc-46c5-93b2-06b0a305699b","system_id":"levelo_inurba_marseille","lat":43.27344,"lon":5.39088,"is_reserved":false,"is_disabled":false,"rental_uris":{"android":"levelo://app?vid=1f1c8728-65cc-46c5-93b2-06b0a305699b","ios":"levelo://app?vid=1f1c8728-65cc-46c5-93b2-06b0a305699b"},"vehicle_type_id":"4","last_reported":1778358857,"current_range_meters":8400,"station_id":"ce4bhgp2rcd13ifvqfe0","pricing_plan_id":"cebpf4jnsgd1na2vs0mg"},{"bike_id":"07ceebd4-8cd5-4e3a-b42c-ee9c84889ec7","system_id":"levelo_inurba_marseille","lat":43.29504,"lon":5.38011,"is_reserved":false,"is_disabled":false,"rental_uris":{"android":"levelo://app?vid=07ceebd4-8cd5-4e3a-b42c-ee9c84889ec7","ios":"levelo://app?vid=07ceebd4-8cd5-4e3a-b42c-ee9c84889ec7"},"vehicle_type_id":"4","last_reported":1778358857,"current_range_meters":8400,"station_id":"","pricing_plan_id":"cebpf4jnsgd1na2vs0mg"},{"bike_id":"6c99e384-f2ed-40d2-bb5c-9b5a6238f924","system_id":"levelo_inurba_marseille","lat":43.27315,"lon":5.39078,"is_reserved":false,"is_disabled":false,"rental_uris":{"android":"levelo://app?vid=6c99e384-f2ed-40d2-bb5c-9b5a6238f924","ios":"levelo://app?vid=6c99e384-f2ed-40d2-bb5c-9b5a6238f924"},"vehicle_type_id":"4","last_reported":1778358857,"current_range_meters":8400,"station_id":"ce4bhgp2rcd13ifvqfe0","pricing_plan_id":"cebpf4jnsgd1na2vs0mg"},{"bike_id":"eb04548f-e300-4df1-8e71-32a3dbc02430","system_id":"levelo_inurba_marseille","lat":43.29987,"lon":5.38487,"is_reserved":false,"is_disabled":false,"rental_uris":{"android":"levelo://app?vid=eb04548f-e300-4df1-8e71-32a3dbc02430","ios":"levelo://app?vid=eb04548f-e300-4df1-8e71-32a3dbc02430"},"vehicle_type_id":"4","last_reported":1778358857,"current_range_meters":8400,"station_id":"ce4bgj92rcd13ifvqbd0","pricing_plan_id":"cebpf4jnsgd1na2vs0mg"},{"bike_id":"9978bf29-8be4-416d-9e1c-7cc044f2b9f1","system_id":"levelo_inurba_marseille","lat":43.32994,"lon":5.37496,"is_reserved":false,"is_disabled":false,"rental_uris":{"android":"levelo://app?vid=9978bf29-8be4-416d-9e1c-7cc044f2b9f1","ios":"levelo://app?vid=9978bf29-8be4-416d-9e1c-7cc044f2b9f1"},"vehicle_type_id":"4","last_reported":1778358857,"current_range_meters":8400,"station_id":"","pricing_plan_id":"cebpf4jnsgd1na2vs0mg"},{"bike_id":"42e8bf69-6a1c-415d-9c2e-0b916b382bd0","system_id":"levelo_inurba_marseille","lat":43.29279,"lon":5.3844,"is_reserved":false,"is_disabled":false,"rental_uris":{"android":"levelo://app?vid=42e8bf69-6a1c-415d-9c2e-0b916b382bd0","ios":"levelo://app?vid=42e8bf69-6a1c-415d-9c2e-0b916b382bd0"},"vehicle_type_id":"4","last_reported":1778358857,"current_range_meters":8400,"station_id":"ce4bh692rcd13ifvqea0","pricing_plan_id":"cebpf4jnsgd1na2vs0mg"},