{"last_updated":1748888101,"ttl":60,"version":"2.2","data":{"bikes":[{"bike_id":"61e58f1f-ec72-498f-b698-abc34db11561","system_id":"levelo_inurba_marseille","lat":43.29272,"lon":5.36843,"is_reserved":false,"is_disabled":false,"rental_uris":{"android":"levelo://app?vid=61e58f1f-ec72-498f-b698-abc34db11561","ios":"levelo://app?vid=61e58f1f-ec72-498f-b698-abc34db11561"},"vehicle_type_id":"4","last_reported":1748888101,"current_range_meters":3600,"station_id":"ce4bhbp2rcd13ifvqesg","pricing_plan_id":"cebpf4jnsgd1na2vs0mg"},{"bike_id":"392aba08-8c80-4f58-bd27-a0f1e97f2380","system_id":"levelo_inurba_marseille","lat":43.34141,"lon":5.40899,"is_reserved":false,"is_disabled":false,"rental_uris":{"android":"levelo://app?vid=392aba08-8c80-4f58-bd27-a0f1e97f2380","ios":"levelo://app?vid=392aba08-8c80-4f58-bd27-a0f1e97f2380"},"vehicle_type_id":"4","last_reported":1748888101,"current_range_meters":2000,"station_id":"ce4bhqh2rcd13ifvqhlg","pricing_plan_id":"cebpf4jnsgd1na2vs0mg"},{"bike_id":"e20bcbc1-7eff-409b-8484-6b97c4c475be","system_id":"levelo_inurba_marseille","lat":43.29525,"lon":5.39024,"is_reserved":false,"is_disabled":false,"rental_uris":{"android":"levelo://app?vid=e20bcbc1-7eff-409b-8484-6b97c4c475be","ios":"levelo://app?vid=e20bcbc1-7eff-409b-8484-6b97c4c475be"},"vehicle_type_id":"4","last_reported":1748888101,"current_range_meters":2800,"station_id":"ce4bh3p2rcd13ifvqdp0","pricing_plan_id":"cebpf4jnsgd1na2vs0mg"},{"bike_id":"2bf97827-b856-47f5-9fd6-b38b5cc6b563","system_id":"levelo_inurba_marseille","lat":43.29314,"lon":5.35643,"is_reserved":false,"is_disabled":false,"rental_uris":{"android":"levelo://app?vid=2bf97827-b856-47f5-9fd6-b38b5cc6b563","ios":"levelo://app?vid=2bf97827-b856-47f5-9fd6-b38b5cc6b563"},"vehicle_type_id":"4","last_reported":1748888101,"current_range_meters":2800,"station_id":"ce4bhb12rcd13ifvqel0","pricing_plan_id":"cebpf4jnsgd1na2vs0mg"},{"bike_id":"069b28eb-2d12-40cd-a460-b5a47e6199ee","system_id":"levelo_inurba_marseille","lat":43.27208,"lon":5.3918,"is_reserved":false,"is_disabled":false,"rental_uris":{"android":"levelo://app?vid=069b28eb-2d12-40cd-a460-b5a47e6199ee","ios":"levelo://app?vid=069b28eb-2d12-40cd-a460-b5a47e6199ee"},"vehicle_type_id":"4","last_reported":1748888101,"current_range_meters":2800,"station_id":"ce4bhhp2rcd13ifvqfm0","pricing_plan_id":"cebpf4jnsgd1na2vs0mg"},{"bike_id":"995631db-f68b-4bd3-aab4-ea62cd353b89","system_id":"levelo_inurba_marseille","lat":43.30134,"lon":5.39859,"is_reserved":false,"is_disabled":false,"rental_uris":{"android":"levelo://app?vid=995631db-f68b-4bd3-aab4-ea62cd353b89","ios":"levelo://app?vid=995631db-f68b-4bd3-aab4-ea62cd353b89"},"vehicle_type_id":"4","last_reported":1748888101,"current_range_meters":2800,"station_id":"ce4bh0h2rcd13ifvqd40","pricing_plan_id":"cebpf4jnsgd1na2vs0mg"},{"bike_id":"4f527468-ac90-425f-9bf6-9d9ac1ac1ced","system_id":"levelo_inurba_marseille","lat":43.262092,"lon":5.374423,"is_reserved":false,"is_disabled":true,"rental_uris":{"android":"levelo://app?vid=4f527468-ac90-425f-9bf6-9d9ac1ac1ced","ios":"levelo://app?vid=4f527468-ac90-425f-9bf6-9d9ac1ac1ced"},"vehicle_type_id":"4","last_reported":1748888101,"current_range_meters":2800,"station_id":"ce4bhgp2rcd13ifvqfc0","pricing_plan_id":"cebpf4jnsgd1na2vs0mg"},{"bike_id":"fbc97e20-8e8a-412d-9b49-bc511141126a","system_id":"levelo_inurba_marseille","lat":43.28703,"lon":5.37386,"is_reserved":false,"is_disabled":false,"rental_uris":{"android":"levelo://app?vid=fbc97e20-8e8a-412d-9b49-bc511141126a","ios":"levelo://app?vid=fbc97e20-8e8a-412d-9b49-bc511141126a"},"vehicle_type_id":"4","last_reported":1748888101,"current_range_meters":3200,"station_id":"ce4bh3p2rcd13ifvqdq0","pricing_plan_id":"cebpf4jnsgd1na2vs0mg"},{"bike_id":"fb223d78-6a35-44bd-9bb1-79d5abaefe53","system_id":"levelo_inurba_marseille","lat":43.29093,"lon":5.38174,"is_reserved":false,"is_disabled":false,"rental_uris":{"android":"levelo://app?vid=fb223d78-6a35-44bd-9bb1-79d5abaefe53","ios":"levelo://app?vid=fb223d78-6a35-44bd-9bb1-79d5abaefe53"},"vehicle_type_id":"4","last_reported":1748888101,"current_range_meters":3600,"station_id":"ce4bh512rcd13ifvqe2g","pricing_plan_id":"cebpf4jnsgd1na2vs0mg"},{"bike_id":"da5a683c-a88f-41a7-82bc-72aa70bb0e7a","system_id":"levelo_inurba_marseille","lat":43.28736,"lon":5.36092,"is_reserved":false,"is_disabled":false,"rental_uris":{"android":"levelo://app?vid=da5a683c-a88f-41a7-82bc-72aa70bb0e7a","ios":"levelo://app?vid=da5a683c-a88f-41a7-82bc-72aa70bb0e7a"},"vehicle_type_id":"4","last_reported":1748888101,"current_range_meters":3200,"station_id":"cki0cbj6b192h4jlfktg","pricing_plan_id":"cebpf4jnsgd1na2vs0mg"},{"bike_id":"6cca9215-7e1b-4126-a603-eb903405914e","system_id":"levelo_inurba_marseille","lat":43.28646,"lon":5.3509,"is_reserved":false,"is_disabled":false,"rental_uris":{"android":"levelo://app?vid=6cca9215-7e1b-4126-a603-eb903405914e","ios":"levelo://app?vid=6cca9215-7e1b-4126-a603-eb903405914e"},"vehicle_type_id":"4","last_reported":1748888101,"current_range_meters":3600,"station_id":"ce4bhch2rcd13ifvqeug","pricing_plan_id":"cebpf4jnsgd1na2vs0mg"},{"bike_id":"d415d574-2071-4785-8f26-07556c08dea0","system_id":"levelo_inurba_marseille","lat":43.292784,"lon":5.384121,"is_reserved":false,"is_disabled":false,"rental_uris":{"android":"levelo://app?vid=d415d574-2071-4785-8f26-07556c08dea0","ios":"levelo://app?vid=d415d574-2071-4785-8f26-07556c08dea0"},"vehicle_type_id":"4","last_reported":1748888101,"current_range_meters":3600,"station_id":"ce4bh692rcd13ifvqea0","pricing_plan_id":"cebpf4jnsgd1na2vs0mg"},{"bike_id":"a770a2b3-443f-4bbb-b0fc-f18c0e98be4c","system_id":"levelo_inurba_marseille","lat":43.25817,"lon":5.39435,"is_reserved":false,"is_disabled":false,"rental_uris":{"android":"levelo://app?vid=a770a2b3-443f-4bbb-b0fc-f18c0e98be4c","ios":"levelo://app?vid=a770a2b3-443f-4bbb-b0fc-f18c0e98be4c"},"vehicle_type_id":"4","last_reported":1748888101,"current_range_meters":4000,"station_id":"ce4bhip2rcd13ifvqft0","pricing_plan_id":"cebpf4jnsgd1na2vs0mg"},{"bike_id":"da1dc72c-55fc-44a7-8db1-28de381939e4","system_id":"levelo_inurba_marseille","lat":43.31713,"lon":5.43709,"is_reserved":false,"is_disabled":false,"rental_uris":{"android":"levelo://app?vid=da1dc72c-55fc-44a7-8db1-28de381939e4","ios":"levelo://app?vid=da1dc72c-55fc-44a7-8db1-28de381939e4"},"vehicle_type_id":"4","last_reported":1748888101,"current_range_meters":4400,"station_id":"ce4bhp92rcd13ifvqhcg","pricing_plan_id":"cebpf4jnsgd1na2vs0mg"},{"bike_id":"c97038f3-4518-4c9d-afaa-4920937e02fa","system_id":"levelo_inurba_marseille","lat":43.246271,"lon":5.393179,"is_reserved":false,"is_disabled":false,"rental_uris":{"android":"levelo://app?vid=c97038f3-4518-4c9d-afaa-4920937e02fa","ios":"levelo://app?vid=c97038f3-4518-4c9d-afaa-4920937e02fa"},"vehicle_type_id":"4","last_reported":1748888101,"current_range_meters":4400,"station_id":"","pricing_plan_id":"cebpf4jnsgd1na2vs0mg"},{"bike_id":"a7047fcd-71af-45de-9710-594d62b61377","system_id":"levelo_inurba_marseille","lat":43.30637,"lon":5.40091,"is_reserved":false,"is_disabled":false,"rental_uris":{"android":"levelo://app?vid=a7047fcd-71af-45de-9710-594d62b61377","ios":"levelo://app?vid=a7047fcd-71af-45de-9710-594d62b61377"},"vehicle_type_id":"4","last_reported":1748888101,"current_range_meters":4800,"station_id":"ce4bh112rcd13ifvqda0","pricing_plan_id":"cebpf4jnsgd1na2vs0mg"},{"bike_id":"bff91e46-d50f-47f4-abcc-a302e9440288","system_id":"levelo_inurba_marseille","lat":43.33012,"lon":5.39288,"is_reserved":false,"is_disabled":false,"rental_uris":{"android":"levelo://app?vid=bff91e46-d50f-47f4-abcc-a302e9440288","ios":"levelo://app?vid=bff91e46-d50f-47f4-abcc-a302e9440288"},"vehicle_type_id":"4","last_reported":1748888101,"current_range_meters":4800,"station_id":"","pricing_plan_id":"cebpf4jnsgd1na2vs0mg"},{"bike_id":"c88d1bc2-4cbb-4ddd-bf83-5706c74e19fe","system_id":"levelo_inurba_marseille","lat":43.27369,"lon":5.3625,"is_reserved":false,"is_disabled":false,"rental_uris":{"android":"levelo://app?vid=c88d1bc2-4cbb-4ddd-bf83-5706c74e19fe","ios":"levelo://app?vid=c88d1bc2-4cbb-4ddd-bf83-5706c74e19fe"},"vehicle_type_id":"4","last_reported":1748888101,"current_range_meters":5600,"station_id":"ce4bhbh2rcd13ifvqeo0","pricing_plan_id":"cebpf4jnsgd1na2vs0mg"},{"bike_id":"aadb95fc-d156-41e0-9614-75d762b11d28","system_id":"levelo_inurba_marseille","lat":43.31961,"lon":5.44025,"is_reserved":false,"is_disabled":false,"rental_uris":{"android":"levelo://app?vid=aadb95fc-d156-41e0-9614-75d762b11d28","ios":"levelo://app?vid=aadb95fc-d156-41e0-9614-75d762b11d28"},"vehicle_type_id":"4","last_reported":1748888101,"current_range_meters":5600,"station_id":"","pricing_plan_id":"cebpf4jnsgd1na2vs0mg"},{"bike_id":"8033c027-4d01-4761-95a4-b04c20640fad","system_id":"levelo_inurba_marseille","lat":43.2176,"lon":5.34593,"is_reserved":false,"is_disabled":false,"rental_uris":{"android":"levelo://app?vid=8033c027-4d01-4761-95a4-b04c20640fad","ios":"levelo://app?vid=8033c027-4d01-4761-95a4-b04c20640fad"},"vehicle_type_id":"4","last_reported":1748888101,"current_range_meters":6000,"station_id":"","pricing_plan_id":"cebpf4jnsgd1na2vs0mg"},{"bike_id":"a00b7b49-aa7c-472d-a6da-34cff4ed7cea","system_id":"levelo_inurba_marseille","lat":43.28653,"lon":5.36359,"is_reserved":false,"is_disabled":false,"rental_uris":{"android":"levelo://app?vid=a00b7b49-aa7c-472d-a6da-34cff4ed7cea","ios":"levelo://app?vid=a00b7b49-aa7c-472d-a6da-34cff4ed7cea"},"vehicle_type_id":"4","last_reported":1748888101,"current_range_meters":6000,"station_id":"ce4bhah2rcd13ifvqej0","pricing_plan_id":"cebpf4jnsgd1na2vs0mg"},{"bike_id":"3bb92c33-91d8-4f88-8f2c-672c7868f4ad","system_id":"levelo_inurba_marseille","lat":43.32924,"lon":5.40525,"is_reserved":false,"is_disabled":false,"rental_uris":{"android":"levelo://app?vid=3bb92c33-91d8-4f88-8f2c-672c7868f4ad","ios":"levelo://app?vid=3bb92c33-91d8-4f88-8f2c-672c7868f4ad"},"vehicle_type_id":"4","last_reported":1748888101,"current_range_meters":6000,"station_id":"","pricing_plan_id":"cebpf4jnsgd1na2vs0mg"},{"bike_id":"bfc5ef3f-b45a-4475-9ae4-9a0465f66e15","system_id":"levelo_inurba_marseille","lat":43.25117,"lon":5.39358,"is_reserved":false,"is_disabled":false,"rental_uris":{"android":"levelo://app?vid=bfc5ef3f-b45a-4475-9ae4-9a0465f66e15","ios":"levelo://app?vid=bfc5ef3f-b45a-4475-9ae4-9a0465f66e15"},"vehicle_type_id":"4","last_reported":1748888101,"current_range_meters":6000,"station_id":"","pricing_plan_id":"cebpf4jnsgd1na2vs0mg"},{"bike_id":"f8aa3121-79b2-4bd2-bd0b-3f69c464de27","system_id":"levelo_inurba_marseille","lat":43.30317,"lon":5.40414,"is_reserved":false,"is_disabled":false,"rental_uris":{"android":"levelo://app?vid=f8aa3121-79b2-4bd2-bd0b-3f69c464de27","ios":"levelo://app?vid=f8aa3121-79b2-4bd2-bd0b-3f69c464de27"},"vehicle_type_id":"4","last_reported":1748888101,"current_range_meters":6000,"station_id":"ce4bh012rcd13ifvqd10","pricing_plan_id":"cebpf4jnsgd1na2vs0mg"},{"bike_id":"0876cd5b-2756-4fa5-8a3c-263ac5785f85","system_id":"levelo_inurba_marseille","lat":43.22934,"lon":5.35378,"is_reserved":false,"is_disabled":false,"rental_uris":{"android":"levelo://app?vid=0876cd5b-2756-4fa5-8a3c-263ac5785f85","ios":"levelo://app?vid=0876cd5b-2756-4fa5-8a3c-263ac5785f85"},"vehicle_type_id":"4","last_reported":1748888101,"current_range_meters":6400,"station_id":"cpo3532slgdg3j2ikp40","pricing_plan_id":"cebpf4jnsgd1na2vs0mg"},{"bike_id":"d52e0403-2b9e-4365-b4cf-e34a85e3dcec","system_id":"levelo_inurba_marseille","lat":43.24389,"lon":5.370642,"is_reserved":false,"is_disabled":true,"rental_uris":{"android":"levelo://app?vid=d52e0403-2b9e-4365-b4cf-e34a85e3dcec","ios":"levelo://app?vid=d52e0403-2b9e-4365-b4cf-e34a85e3dcec"},"vehicle_type_id":"4","last_reported":1748888101,"current_range_meters":6800,"station_id":"","pricing_plan_id":"cebpf4jnsgd1na2vs0mg"},{"bike_id":"37f7b3ce-f3de-4779-9b77-0f86b7f81264","system_id":"levelo_inurba_marseille","lat":43.28457,"lon":5.35885,"is_reserved":false,"is_disabled":false,"rental_uris":{"android":"levelo://app?vid=37f7b3ce-f3de-4779-9b77-0f86b7f81264","ios":"levelo://app?vid=37f7b3ce-f3de-4779-9b77-0f86b7f81264"},"vehicle_type_id":"4","last_reported":1748888101,"current_range_meters":6800,"station_id":"ce4bhah2rcd13ifvqei0","pricing_plan_id":"cebpf4jnsgd1na2vs0mg"},{"bike_id":"da33724b-c1e7-4971-b7ac-bd0d304ba3da","system_id":"levelo_inurba_marseille","lat":43.28353,"lon":5.38097,"is_reserved":false,"is_disabled":false,"rental_uris":{"android":"levelo://app?vid=da33724b-c1e7-4971-b7ac-bd0d304ba3da","ios":"levelo://app?vid=da33724b-c1e7-4971-b7ac-bd0d304ba3da"},"vehicle_type_id":"4","last_reported":1748888101,"current_range_meters":6800,"station_id":"ce4bh412rcd13ifvqdr0","pricing_plan_id":"cebpf4jnsgd1na2vs0mg"},{"bike_id":"77563c89-0ac2-4043-bd50-220ab97bc1f7","system_id":"levelo_inurba_marseille","lat":43.322975,"lon":5.382783,"is_reserved":false,"is_disabled":false,"rental_uris":{"android":"levelo://app?vid=77563c89-0ac2-4043-bd50-220ab97bc1f7","ios":"levelo://app?vid=77563c89-0ac2-4043-bd50-220ab97bc1f7"},"vehicle_type_id":"4","last_reported":1748888101,"current_range_meters":6800,"station_id":"ce4bhr12rcd13ifvqhqg","pricing_plan_id":"cebpf4jnsgd1na2vs0mg"},{"bike_id":"036a3f84-6c04-4f85-bd69-c60fcc1a093a","system_id":"levelo_inurba_marseille","lat":43.33319,"lon":5.39805,"is_reserved":false,"is_disabled":false,"rental_uris":{"android":"levelo://app?vid=036a3f84-6c04-4f85-bd69-c60fcc1a093a","ios":"levelo://app?vid=036a3f84-6c04-4f85-bd69-c60fcc1a093a"},"vehicle_type_id":"4","last_reported":1748888101,"current_range_meters":6800,"station_id":"","pricing_plan_id":"cebpf4jnsgd1na2vs0mg"},{"bike_id":"53d79f2d-6b3b-42e5-9cfc-81299542182a","system_id":"levelo_inurba_marseille","lat":43.28614,"lon":5.35104,"is_reserved":false,"is_disabled":false,"rental_uris":{"android":"levelo://app?vid=53d79f2d-6b3b-42e5-9cfc-81299542182a","ios":"levelo://app?vid=53d79f2d-6b3b-42e5-9cfc-81299542182a"},"vehicle_type_id":"4","last_reported":1748888101,"current_range_meters":6800,"station_id":"ce4bhch2rcd13ifvqeug","pricing_plan_id":"cebpf4jnsgd1na2vs0mg"},{"bike_id":"40412445-69a7-44dd-a92d-731a52934f19","system_id":"levelo_inurba_marseille","lat":43.30535,"lon":5.38415,"is_reserved":false,"is_disabled":false,"rental_uris":{"android":"levelo://app?vid=40412445-69a7-44dd-a92d-731a52934f19","ios":"levelo://app?vid=40412445-69a7-44dd-a92d-731a52934f19"},"vehicle_type_id":"4","last_reported":1748888101,"current_range_meters":7200,"station_id":"ce4bgg92rcd13ifvqb30","pricing_plan_id":"cebpf4jnsgd1na2vs0mg"},{"bike_id":"4aa47be6-8aff-4971-b9be-23c1a2077a0e","system_id":"levelo_inurba_marseille","lat":43.29268,"lon":5.38441,"is_reserved":false,"is_disabled":false,"rental_uris":{"android":"levelo://app?vid=4aa47be6-8aff-4971-b9be-23c1a2077a0e","ios":"levelo://app?vid=4aa47be6-8aff-4971-b9be-23c1a2077a0e"},"vehicle_type_id":"4","last_reported":1748888101,"current_range_meters":7200,"station_id":"ce4bh692rcd13ifvqea0","pricing_plan_id":"cebpf4jnsgd1na2vs0mg"},{"bike_id":"736b79fe-1d86-467b-b84b-660e9b89f8bd","system_id":"levelo_inurba_marseille","lat":43.24803,"lon":5.37463,"is_reserved":false,"is_disabled":false,"rental_uris":{"android":"levelo://app?vid=736b79fe-1d86-467b-b84b-660e9b89f8bd","ios":"levelo://app?vid=736b79fe-1d86-467b-b84b-660e9b89f8bd"},"vehicle_type_id":"4","last_reported":1748888101,"current_range_meters":7200,"station_id":"ce4bhgh2rcd13ifvqfb0","pricing_plan_id":"cebpf4jnsgd1na2vs0mg"},{"bike_id":"0696da8b-4728-429c-9ea4-c52113b76844","system_id":"levelo_inurba_marseille","lat":43.317647,"lon":5.398523,"is_reserved":false,"is_disabled":false,"rental_uris":{"android":"levelo://app?vid=0696da8b-4728-429c-9ea4-c52113b76844","ios":"levelo://app?vid=0696da8b-4728-429c-9ea4-c52113b76844"},"vehicle_type_id":"4","last_reported":1748888101,"current_range_meters":8000,"station_id":"","pricing_plan_id":"cebpf4jnsgd1na2vs0mg"},{"bike_id":"c11b70c7-cef3-417e-8652-71093411ae42","system_id":"levelo_inurba_marseille","lat":43.28643,"lon":5.35094,"is_reserved":false,"is_disabled":false,"rental_uris":{"android":"levelo://app?vid=c11b70c7-cef3-417e-8652-71093411ae42","ios":"levelo://app?vid=c11b70c7-cef3-417e-8652-71093411ae42"},"vehicle_type_id":"4","last_reported":1748888101,"current_range_meters":8000,"station_id":"ce4bhch2rcd13ifvqeug","pricing_plan_id":"cebpf4jnsgd1na2vs0mg"},{"bike_id":"c00a4779-7442-49ef-9f4c-2a6af0baf955","system_id":"levelo_inurba_marseille","lat":43.330233,"lon":5.390429,"is_reserved":false,"is_disabled":false,"rental_uris":{"android":"levelo://app?vid=c00a4779-7442-49ef-9f4c-2a6af0baf955","ios":"levelo://app?vid=c00a4779-7442-49ef-9f4c-2a6af0baf955"},"vehicle_type_id":"4","last_reported":1748888101,"current_range_meters":8000,"station_id":"ce4bhr92rcd13ifvqhrg","pricing_plan_id":"cebpf4jnsgd1na2vs0mg"},{"bike_id":"7490d5dc-735e-4375-8341-6d53750855b2","system_id":"levelo_inurba_marseille","lat":43.29021,"lon":5.37858,"is_reserved":false,"is_disabled":false,"rental_uris":{"android":"levelo://app?vid=7490d5dc-735e-4375-8341-6d53750855b2","ios":"levelo://app?vid=7490d5dc-735e-4375-8341-6d53750855b2"},"vehicle_type_id":"4","last_reported":1748888101,"current_range_meters":8000,"station_id":"","pricing_plan_id":"cebpf4jnsgd1na2vs0mg"},{"bike_id":"1b2dbb69-6f3d-4182-bf73-0119755a8252","system_id":"levelo_inurba_marseille","lat":43.29005,"lon":5.35605,"is_reserved":false,"is_disabled":false,"rental_uris":{"android":"levelo://app?vid=1b2dbb69-6f3d-4182-bf73-0119755a8252","ios":"levelo://app?vid=1b2dbb69-6f3d-4182-bf73-0119755a8252"},"vehicle_type_id":"4","last_reported":1748888101,"current_range_meters":8000,"station_id":"ce4bhb92rcd13ifvqen0","pricing_plan_id":"cebpf4jnsgd1na2vs0mg"},{"bike_id":"0b3654db-33dc-4a56-850c-0b6b7ac0b481","system_id":"levelo_inurba_marseille","lat":43.23084,"lon":5.40177,"is_reserved":false,"is_disabled":false,"rental_uris":{"android":"levelo://app?vid=0b3654db-33dc-4a56-850c-0b6b7ac0b481","ios":"levelo://app?vid=0b3654db-33dc-4a56-850c-0b6b7ac0b481"},"vehicle_type_id":"4","last_reported":1748888101,"current_range_meters":8000,"station_id":"","pricing_plan_id":"cebpf4jnsgd1na2vs0mg"},{"bike_id":"45b1020b-9c63-4b05-9d84-5fbcb9c3c209","system_id":"levelo_inurba_marseille","lat":43.2942,"lon":5.38622,"is_reserved":false,"is_disabled":false,"rental_uris":{"android":"levelo://app?vid=45b1020b-9c63-4b05-9d84-5fbcb9c3c209","ios":"levelo://app?vid=45b1020b-9c63-4b05-9d84-5fbcb9c3c209"},"vehicle_type_id":"4","last_reported":1748888101,"current_range_meters":8400,"station_id":"ce4bh2h2rcd13ifvqdh0","pricing_plan_id":"cebpf4jnsgd1na2vs0mg"},{"bike_id":"5dead81c-52cf-467b-885d-461d40fb80a5","system_id":"levelo_inurba_marseille","lat":43.251036,"lon":5.409665,"is_reserved":false,"is_disabled":false,"rental_uris":{"android":"levelo://app?vid=5dead81c-52cf-467b-885d-461d40fb80a5","ios":"levelo://app?vid=5dead81c-52cf-467b-885d-461d40fb80a5"},"vehicle_type_id":"4","last_reported":1748888101,"current_range_meters":8400,"station_id":"","pricing_plan_id":"cebpf4jnsgd1na2vs0mg"},{"bike_id":"b1075261-665b-4a76-ba52-aad27a3b2279","system_id":"levelo_inurba_marseille","lat":43.286551,"lon":5.363567,"is_reserved":false,"is_disabled":false,"rental_uris":{"android":"levelo://app?vid=b1075261-665b-4a76-ba52-aad27a3b2279","ios":"levelo://app?vid=b1075261-665b-4a76-ba52-aad27a3b2279"},"vehicle_type_id":"4","last_reported":1748888101,"current_range_meters":8400,"station_id":"ce4bhah2rcd13ifvqej0","pricing_plan_id":"cebpf4jnsgd1na2vs0mg"},{"bike_id":"d72d5a5e-a033-4555-a5b7-2e9b101d2f01","system_id":"levelo_inurba_marseille","lat":43.24355,"lon":5.41154,"is_reserved":false,"is_disabled":false,"rental_uris":{"android":"levelo://app?vid=d72d5a5e-a033-4555-a5b7-2e9b101d2f01","ios":"levelo://app?vid=d72d5a5e-a033-4555-a5b7-2e9b101d2f01"},"vehicle_type_id":"4","last_reported":1748888101,"current_range_meters":8400,"station_id":"","pricing_plan_id":"cebpf4jnsgd1na2vs0mg"},{"bike_id":"b8b09c5a-9099-4234-ae20-c919e9f82aac","system_id":"levelo_inurba_marseille","lat":43.241976,"lon":5.437327,"is_reserved":false,"is_disabled":false,"rental_uris":{"android":"levelo://app?vid=b8b09c5a-9099-4234-ae20-c919e9f82aac","ios":"levelo://app?vid=b8b09c5a-9099-4234-ae20-c919e9f82aac"},"vehicle_type_id":"4","last_reported":1748888101,"current_range_meters":8400,"station_id":"ce4bhmp2rcd13ifvqgog","pricing_plan_id":"cebpf4jnsgd1na2vs0mg"},{"bike_id":"49ef0875-6329-4624-8315-d720ab9a0413","system_id":"levelo_inurba_marseille","lat":43.29032,"lon":5.38651,"is_reserved":false,"is_disabled":false,"rental_uris":{"android":"levelo://app?vid=49ef0875-6329-4624-8315-d720ab9a0413","ios":"levelo://app?vid=49ef0875-6329-4624-8315-d720ab9a0413"},"vehicle_type_id":"4","last_reported":1748888101,"current_range_meters":8400,"station_id":"ce4bh4p2rcd13ifvqe0g","pricing_plan_id":"cebpf4jnsgd1na2vs0mg"},{"bike_id":"ad40e183-ae7f-4c75-95d9-c97cc6dc865d","system_id":"levelo_inurba_marseille","lat":43.27811,"lon":5.40707,"is_reserved":false,"is_disabled":false,"rental_uris":{"android":"levelo://app?vid=ad40e183-ae7f-4c75-95d9-c97cc6dc865d","ios":"levelo://app?vid=ad40e183-ae7f-4c75-95d9-c97cc6dc865d"},"vehicle_type_id":"4","last_reported":1748888101,"current_range_meters":8400,"station_id":"ce4bhnh2rcd13ifvqgtg","pricing_plan_id":"cebpf4jnsgd1na2vs0mg"},{"bike_id":"73a4770d-0c02-48d5-a0f7-4d250b83527c","system_id":"levelo_inurba_marseille","lat":43.324747,"lon":5.424768,"is_reserved":false,"is_disabled":false,"rental_uris":{"android":"levelo://app?vid=73a4770d-0c02-48d5-a0f7-4d250b83527c","ios":"levelo://app?vid=73a4770d-0c02-48d5-a0f7-4d250b83527c"},"vehicle_type_id":"4","last_reported":1748888101,"current_range_meters":8400,"station_id":"","pricing_plan_id":"cebpf4jnsgd1na2vs0mg"},{"bike_id":"b1e3d74e-ae4f-44b5-8e7b-b05717f18661","system_id":"levelo_inurba_marseille","lat":43.30262,"lon":5.40076,"is_reserved":false,"is_disabled":false,"rental_uris":{"android":"levelo://app?vid=b1e3d74e-ae4f-44b5-8e7b-b05717f18661","ios":"levelo://app?vid=b1e3d74e-ae4f-44b5-8e7b-b05717f18661"},"vehicle_type_id":"4","last_reported":1748888101,"current_range_meters":8400,"station_id":"ce4bgvh2rcd13ifvqcs0","pricing_plan_id":"cebpf4jnsgd1na2vs0mg"},{"bike_id":"5ae35ae3-f5b9-4ffe-96c7-e8b084a90970","system_id":"levelo_inurba_marseille","lat":43.27557,"lon":5.38433,"is_reserved":false,"is_disabled":false,"rental_uris":{"android":"levelo://app?vid=5ae35ae3-f5b9-4ffe-96c7-e8b084a90970","ios":"levelo://app?vid=5ae35ae3-f5b9-4ffe-96c7-e8b084a90970"},"vehicle_type_id":"4","last_reported":1748888101,"current_range_meters":8800,"station_id":"ce4bhh92rcd13ifvqfi0","pricing_plan_id":"cebpf4jnsgd1na2vs0mg"},{"bike_id":"dbf726cd-e132-4d33-a6ff-19ef8ad76afc","system_id":"levelo_inurba_marseille","lat":43.28615,"lon":5.35106,"is_reserved":false,"is_disabled":false,"rental_uris":{"android":"levelo://app?vid=dbf726cd-e132-4d33-a6ff-19ef8ad76afc","ios":"levelo://app?vid=dbf726cd-e132-4d33-a6ff-19ef8ad76afc"},"vehicle_type_id":"4","last_reported":1748888101,"current_range_meters":8800,"station_id":"ce4bhch2rcd13ifvqeug","pricing_plan_id":"cebpf4jnsgd1na2vs0mg"},{"bike_id":"09bd764c-5135-4d01-b1f8-df4f4545894e","system_id":"levelo_inurba_marseille","lat":43.26062,"lon":5.39399,"is_reserved":false,"is_disabled":false,"rental_uris":{"android":"levelo://app?vid=09bd764c-5135-4d01-b1f8-df4f4545894e","ios":"levelo://app?vid=09bd764c-5135-4d01-b1f8-df4f4545894e"},"vehicle_type_id":"4","last_reported":1748888101,"current_range_meters":8800,"station_id":"ce4bhh92rcd13ifvqfj0","pricing_plan_id":"cebpf4jnsgd1na2vs0mg"},{"bike_id":"d5955930-a54a-47c2-a1c0-f55d751f10c7","system_id":"levelo_inurba_marseille","lat":43.290298,"lon":5.375674,"is_reserved":false,"is_disabled":false,"rental_uris":{"android":"levelo://app?vid=d5955930-a54a-47c2-a1c0-f55d751f10c7","ios":"levelo://app?vid=d5955930-a54a-47c2-a1c0-f55d751f10c7"},"vehicle_type_id":"4","last_reported":1748888101,"current_range_meters":8800,"station_id":"ce4bh692rcd13ifvqe90","pricing_plan_id":"cebpf4jnsgd1na2vs0mg"},{"bike_id":"870e85a4-34f2-4c5a-84ac-b06300b125a4","system_id":"levelo_inurba_marseille","lat":43.30427,"lon":5.39748,"is_reserved":false,"is_disabled":false,"rental_uris":{"android":"levelo://app?vid=870e85a4-34f2-4c5a-84ac-b06300b125a4","ios":"levelo://app?vid=870e85a4-34f2-4c5a-84ac-b06300b125a4"},"vehicle_type_id":"4","last_reported":1748888101,"current_range_meters":8800,"station_id":"ce4bh092rcd13ifvqd20","pricing_plan_id":"cebpf4jnsgd1na2vs0mg"},{"bike_id":"afe42cf5-b493-4fb7-b710-2b3f0a107bae","system_id":"levelo_inurba_marseille","lat":43.31742,"lon":5.38803,"is_reserved":false,"is_disabled":false,"rental_uris":{"android":"levelo://app?vid=afe42cf5-b493-4fb7-b710-2b3f0a107bae","ios":"levelo://app?vid=afe42cf5-b493-4fb7-b710-2b3f0a107bae"},"vehicle_type_id":"4","last_reported":1748888101,"current_range_meters":9200,"station_id":"","pricing_plan_id":"cebpf4jnsgd1na2vs0mg"},{"bike_id":"91ee8ac6-2cf9-42ae-b4b1-f3ce24bbd0e9","system_id":"levelo_inurba_marseille","lat":43.28231,"lon":5.39053,"is_reserved":false,"is_disabled":false,"rental_uris":{"android":"levelo://app?vid=91ee8ac6-2cf9-42ae-b4b1-f3ce24bbd0e9","ios":"levelo://app?vid=91ee8ac6-2cf9-42ae-b4b1-f3ce24bbd0e9"},"vehicle_type_id":"4","last_reported":1748888101,"current_range_meters":9600,"station_id":"","pricing_plan_id":"cebpf4jnsgd1na2vs0mg"},{"bike_id":"99d59ddb-ca3d-43a4-b2ac-7c92aea831a5","system_id":"levelo_inurba_marseille","lat":43.31337,"lon":5.36778,"is_reserved":false,"is_disabled":true,"rental_uris":{"android":"levelo://app?vid=99d59ddb-ca3d-43a4-b2ac-7c92aea831a5","ios":"levelo://app?vid=99d59ddb-ca3d-43a4-b2ac-7c92aea831a5"},"vehicle_type_id":"4","last_reported":1748888101,"current_range_meters":9600,"station_id":"","pricing_plan_id":"cebpf4jnsgd1na2vs0mg"},{"bike_id":"d07eca8c-13c1-4d98-b776-fab88319b298","system_id":"levelo_inurba_marseille","lat":43.31078,"lon":5.42433,"is_reserved":false,"is_disabled":false,"rental_uris":{"android":"levelo://app?vid=d07eca8c-13c1-4d98-b776-fab88319b298","ios":"levelo://app?vid=d07eca8c-13c1-4d98-b776-fab88319b298"},"vehicle_type_id":"4","last_reported":1748888101,"current_range_meters":9200,"station_id":"ce4bhp92rcd13ifvqhag","pricing_plan_id":"cebpf4jnsgd1na2vs0mg"},{"bike_id":"749302ed-af7e-4bc7-a15d-9e39b5c6daf4","system_id":"levelo_inurba_marseille","lat":43.28842,"lon":5.35856,"is_reserved":false,"is_disabled":false,"rental_uris":{"android":"levelo://app?vid=749302ed-af7e-4bc7-a15d-9e39b5c6daf4","ios":"levelo://app?vid=749302ed-af7e-4bc7-a15d-9e39b5c6daf4"},"vehicle_type_id":"4","last_reported":1748888101,"current_range_meters":9600,"station_id":"ce4bhb12rcd13ifvqem0","pricing_plan_id":"cebpf4jnsgd1na2vs0mg"},{"bike_id":"24b5a71f-fabf-4fa6-9fec-f2c7385ad3aa","system_id":"levelo_inurba_marseille","lat":43.33018,"lon":5.39033,"is_reserved":false,"is_disabled":false,"rental_uris":{"android":"levelo://app?vid=24b5a71f-fabf-4fa6-9fec-f2c7385ad3aa","ios":"levelo://app?vid=24b5a71f-fabf-4fa6-9fec-f2c7385ad3aa"},"vehicle_type_id":"4","last_reported":1748888101,"current_range_meters":9600,"station_id":"ce4bhr92rcd13ifvqhrg","pricing_plan_id":"cebpf4jnsgd1na2vs0mg"},{"bike_id":"6f8c6a27-f420-4ef2-bbdc-5c545a7a44b1","system_id":"levelo_inurba_marseille","lat":43.29529,"lon":5.38541,"is_reserved":false,"is_disabled":false,"rental_uris":{"android":"levelo://app?vid=6f8c6a27-f420-4ef2-bbdc-5c545a7a44b1","ios":"levelo://app?vid=6f8c6a27-f420-4ef2-bbdc-5c545a7a44b1"},"vehicle_type_id":"4","last_reported":1748888101,"current_range_meters":9600,"station_id":"ce4bgih2rcd13ifvqba0","pricing_plan_id":"cebpf4jnsgd1na2vs0mg"},{"bike_id":"da93c331-ec7e-4b7d-aedd-73a43c4357f4","system_id":"levelo_inurba_marseille","lat":43.30648,"lon":5.40094,"is_reserved":false,"is_disabled":false,"rental_uris":{"android":"levelo://app?vid=da93c331-ec7e-4b7d-aedd-73a43c4357f4","ios":"levelo://app?vid=da93c331-ec7e-4b7d-aedd-73a43c4357f4"},"vehicle_type_id":"4","last_reported":1748888101,"current_range_meters":10000,"station_id":"ce4bh112rcd13ifvqda0","pricing_plan_id":"cebpf4jnsgd1na2vs0mg"},{"bike_id":"21e81c34-57b5-4fdd-b37b-4e43760acac6","system_id":"levelo_inurba_marseille","lat":43.30352,"lon":5.41879,"is_reserved":false,"is_disabled":false,"rental_uris":{"android":"levelo://app?vid=21e81c34-57b5-4fdd-b37b-4e43760acac6","ios":"levelo://app?vid=21e81c34-57b5-4fdd-b37b-4e43760acac6"},"vehicle_type_id":"4","last_reported":1748888101,"current_range_meters":10000,"station_id":"ce4bhop2rcd13ifvqh7g","pricing_plan_id":"cebpf4jnsgd1na2vs0mg"},{"bike_id":"94bc5842-711b-4197-9d71-6c03c353f1e4","system_id":"levelo_inurba_marseille","lat":43.29277,"lon":5.36853,"is_reserved":false,"is_disabled":false,"rental_uris":{"android":"levelo://app?vid=94bc5842-711b-4197-9d71-6c03c353f1e4","ios":"levelo://app?vid=94bc5842-711b-4197-9d71-6c03c353f1e4"},"vehicle_type_id":"4","last_reported":1748888101,"current_range_meters":10000,"station_id":"ce4bhbp2rcd13ifvqesg","pricing_plan_id":"cebpf4jnsgd1na2vs0mg"},{"bike_id":"4a17e578-8ba7-4077-bd7a-f269ff1c5123","system_id":"levelo_inurba_marseille","lat":43.255,"lon":5.37651,"is_reserved":false,"is_disabled":false,"rental_uris":{"android":"levelo://app?vid=4a17e578-8ba7-4077-bd7a-f269ff1c5123","ios":"levelo://app?vid=4a17e578-8ba7-4077-bd7a-f269ff1c5123"},"vehicle_type_id":"4","last_reported":1748888101,"current_range_meters":10000,"station_id":"ce4bhh12rcd13ifvqff0","pricing_plan_id":"cebpf4jnsgd1na2vs0mg"},{"bike_id":"a0888236-4e90-4aeb-b880-7b9acc4d2d36","system_id":"levelo_inurba_marseille","lat":43.33046,"lon":5.39031,"is_reserved":false,"is_disabled":false,"rental_uris":{"android":"levelo://app?vid=a0888236-4e90-4aeb-b880-7b9acc4d2d36","ios":"levelo://app?vid=a0888236-4e90-4aeb-b880-7b9acc4d2d36"},"vehicle_type_id":"4","last_reported":1748888101,"current_range_meters":10000,"station_id":"ce4bhr92rcd13ifvqhrg","pricing_plan_id":"cebpf4jnsgd1na2vs0mg"},{"bike_id":"d54bad3a-7ff1-4a15-aeab-92cdac98e952","system_id":"levelo_inurba_marseille","lat":43.27868,"lon":5.39574,"is_reserved":false,"is_disabled":true,"rental_uris":{"android":"levelo://app?vid=d54bad3a-7ff1-4a15-aeab-92cdac98e952","ios":"levelo://app?vid=d54bad3a-7ff1-4a15-aeab-92cdac98e952"},"vehicle_type_id":"4","last_reported":1748888101,"current_range_meters":10000,"station_id":"","pricing_plan_id":"cebpf4jnsgd1na2vs0mg"},{"bike_id":"6946a15d-703c-4d48-b447-9287ec305dc0","system_id":"levelo_inurba_marseille","lat":43.31718,"lon":5.42392,"is_reserved":false,"is_disabled":false,"rental_uris":{"android":"levelo://app?vid=6946a15d-703c-4d48-b447-9287ec305dc0","ios":"levelo://app?vid=6946a15d-703c-4d48-b447-9287ec305dc0"},"vehicle_type_id":"4","last_reported":1748888101,"current_range_meters":10800,"station_id":"ce4bhp92rcd13ifvqhbg","pricing_plan_id":"cebpf4jnsgd1na2vs0mg"},{"bike_id":"ae506c81-3a4d-4a59-af75-e12beab6ad6b","system_id":"levelo_inurba_marseille","lat":43.3111,"lon":5.37756,"is_reserved":false,"is_disabled":false,"rental_uris":{"android":"levelo://app?vid=ae506c81-3a4d-4a59-af75-e12beab6ad6b","ios":"levelo://app?vid=ae506c81-3a4d-4a59-af75-e12beab6ad6b"},"vehicle_type_id":"4","last_reported":1748888101,"current_range_meters":10800,"station_id":"ce4bgt92rcd13ifvqcg0","pricing_plan_id":"cebpf4jnsgd1na2vs0mg"},{"bike_id":"8e094376-e6a3-4c1a-89a8-c1e26eb81392","system_id":"levelo_inurba_marseille","lat":43.25131,"lon":5.40315,"is_reserved":false,"is_disabled":false,"rental_uris":{"android":"levelo://app?vid=8e094376-e6a3-4c1a-89a8-c1e26eb81392","ios":"levelo://app?vid=8e094376-e6a3-4c1a-89a8-c1e26eb81392"},"vehicle_type_id":"4","last_reported":1748888101,"current_range_meters":10800,"station_id":"ce4bhlh2rcd13ifvqgig","pricing_plan_id":"cebpf4jnsgd1na2vs0mg"},{"bike_id":"a0699d20-1b3c-43d8-9de6-4ede71c17cc9","system_id":"levelo_inurba_marseille","lat":43.30427,"lon":5.38888,"is_reserved":false,"is_disabled":false,"rental_uris":{"android":"levelo://app?vid=a0699d20-1b3c-43d8-9de6-4ede71c17cc9","ios":"levelo://app?vid=a0699d20-1b3c-43d8-9de6-4ede71c17cc9"},"vehicle_type_id":"4","last_reported":1748888101,"current_range_meters":10800,"station_id":"ce4bgk12rcd13ifvqbi0","pricing_plan_id":"cebpf4jnsgd1na2vs0mg"},{"bike_id":"3547bd25-f2e7-4c05-b113-26ca593f4b9c","system_id":"levelo_inurba_marseille","lat":43.29281,"lon":5.36851,"is_reserved":false,"is_disabled":false,"rental_uris":{"android":"levelo://app?vid=3547bd25-f2e7-4c05-b113-26ca593f4b9c","ios":"levelo://app?vid=3547bd25-f2e7-4c05-b113-26ca593f4b9c"},"vehicle_type_id":"4","last_reported":1748888101,"current_range_meters":10800,"station_id":"ce4bhbp2rcd13ifvqesg","pricing_plan_id":"cebpf4jnsgd1na2vs0mg"},{"bike_id":"885e4a33-80ca-461a-83b2-a7861cbd2c18","system_id":"levelo_inurba_marseille","lat":43.28157,"lon":5.42653,"is_reserved":false,"is_disabled":true,"rental_uris":{"android":"levelo://app?vid=885e4a33-80ca-461a-83b2-a7861cbd2c18","ios":"levelo://app?vid=885e4a33-80ca-461a-83b2-a7861cbd2c18"},"vehicle_type_id":"4","last_reported":1748888101,"current_range_meters":10800,"station_id":"ce4bhnh2rcd13ifvqgug","pricing_plan_id":"cebpf4jnsgd1na2vs0mg"},{"bike_id":"a9edb4af-71b0-4ea4-9f8f-d3a61e27cf8e","system_id":"levelo_inurba_marseille","lat":43.28344,"lon":5.38096,"is_reserved":false,"is_disabled":false,"rental_uris":{"android":"levelo://app?vid=a9edb4af-71b0-4ea4-9f8f-d3a61e27cf8e","ios":"levelo://app?vid=a9edb4af-71b0-4ea4-9f8f-d3a61e27cf8e"},"vehicle_type_id":"4","last_reported":1748888101,"current_range_meters":10800,"station_id":"ce4bh412rcd13ifvqdr0","pricing_plan_id":"cebpf4jnsgd1na2vs0mg"},{"bike_id":"67d580ae-eace-4fcb-adc6-a5af7b405ae4","system_id":"levelo_inurba_marseille","lat":43.28416,"lon":5.37517,"is_reserved":false,"is_disabled":false,"rental_uris":{"android":"levelo://app?vid=67d580ae-eace-4fcb-adc6-a5af7b405ae4","ios":"levelo://app?vid=67d580ae-eace-4fcb-adc6-a5af7b405ae4"},"vehicle_type_id":"4","last_reported":1748888101,"current_range_meters":10800,"station_id":"ce4bh412rcd13ifvqds0","pricing_plan_id":"cebpf4jnsgd1na2vs0mg"},{"bike_id":"76c71c99-daad-4fc9-8ee0-55d5c8223ba1","system_id":"levelo_inurba_marseille","lat":43.26501,"lon":5.39539,"is_reserved":false,"is_disabled":false,"rental_uris":{"android":"levelo://app?vid=76c71c99-daad-4fc9-8ee0-55d5c8223ba1","ios":"levelo://app?vid=76c71c99-daad-4fc9-8ee0-55d5c8223ba1"},"vehicle_type_id":"4","last_reported":1748888101,"current_range_meters":11200,"station_id":"ce4bhi12rcd13ifvqfq0","pricing_plan_id":"cebpf4jnsgd1na2vs0mg"},{"bike_id":"c7e99c65-e01c-45e2-a445-c402fd27152c","system_id":"levelo_inurba_marseille","lat":43.29831,"lon":5.40395,"is_reserved":false,"is_disabled":false,"rental_uris":{"android":"levelo://app?vid=c7e99c65-e01c-45e2-a445-c402fd27152c","ios":"levelo://app?vid=c7e99c65-e01c-45e2-a445-c402fd27152c"},"vehicle_type_id":"4","last_reported":1748888101,"current_range_meters":11200,"station_id":"ce4bh112rcd13ifvqd90","pricing_plan_id":"cebpf4jnsgd1na2vs0mg"},{"bike_id":"3d198ff6-05f2-45a8-865d-e7c57a757d18","system_id":"levelo_inurba_marseille","lat":43.32334,"lon":5.4062,"is_reserved":false,"is_disabled":false,"rental_uris":{"android":"levelo://app?vid=3d198ff6-05f2-45a8-865d-e7c57a757d18","ios":"levelo://app?vid=3d198ff6-05f2-45a8-865d-e7c57a757d18"},"vehicle_type_id":"4","last_reported":1748888101,"current_range_meters":11200,"station_id":"","pricing_plan_id":"cebpf4jnsgd1na2vs0mg"},{"bike_id":"6d6c7298-3b2e-459d-ab5d-288c7dbf41bb","system_id":"levelo_inurba_marseille","lat":43.23171,"lon":5.39994,"is_reserved":false,"is_disabled":false,"rental_uris":{"android":"levelo://app?vid=6d6c7298-3b2e-459d-ab5d-288c7dbf41bb","ios":"levelo://app?vid=6d6c7298-3b2e-459d-ab5d-288c7dbf41bb"},"vehicle_type_id":"4","last_reported":1748888101,"current_range_meters":11200,"station_id":"ce4bhn12rcd13ifvqgqg","pricing_plan_id":"cebpf4jnsgd1na2vs0mg"},{"bike_id":"b374cc52-17c2-4409-8dff-65f6c456fd0f","system_id":"levelo_inurba_marseille","lat":43.29705,"lon":5.37689,"is_reserved":false,"is_disabled":false,"rental_uris":{"android":"levelo://app?vid=b374cc52-17c2-4409-8dff-65f6c456fd0f","ios":"levelo://app?vid=b374cc52-17c2-4409-8dff-65f6c456fd0f"},"vehicle_type_id":"4","last_reported":1748888101,"current_range_meters":11200,"station_id":"ce4bgkh2rcd13ifvqbl0","pricing_plan_id":"cebpf4jnsgd1na2vs0mg"},{"bike_id":"6e99c6cf-9cf6-4d86-bc03-8166873c6460","system_id":"levelo_inurba_marseille","lat":43.28273,"lon":5.35055,"is_reserved":false,"is_disabled":false,"rental_uris":{"android":"levelo://app?vid=6e99c6cf-9cf6-4d86-bc03-8166873c6460","ios":"levelo://app?vid=6e99c6cf-9cf6-4d86-bc03-8166873c6460"},"vehicle_type_id":"4","last_reported":1748888101,"current_range_meters":11200,"station_id":"ce4bhbp2rcd13ifvqerg","pricing_plan_id":"cebpf4jnsgd1na2vs0mg"},{"bike_id":"f40c42d0-7cc5-413f-875f-e15cd0659f45","system_id":"levelo_inurba_marseille","lat":43.25719,"lon":5.41114,"is_reserved":false,"is_disabled":false,"rental_uris":{"android":"levelo://app?vid=f40c42d0-7cc5-413f-875f-e15cd0659f45","ios":"levelo://app?vid=f40c42d0-7cc5-413f-875f-e15cd0659f45"},"vehicle_type_id":"4","last_reported":1748888101,"current_range_meters":11600,"station_id":"ce4bhkp2rcd13ifvqgd0","pricing_plan_id":"cebpf4jnsgd1na2vs0mg"},{"bike_id":"7cc939c8-73ec-4d74-8ddc-5c63cf34185f","system_id":"levelo_inurba_marseille","lat":43.3073,"lon":5.42443,"is_reserved":false,"is_disabled":false,"rental_uris":{"android":"levelo://app?vid=7cc939c8-73ec-4d74-8ddc-5c63cf34185f","ios":"levelo://app?vid=7cc939c8-73ec-4d74-8ddc-5c63cf34185f"},"vehicle_type_id":"4","last_reported":1748888101,"current_range_meters":11600,"station_id":"st_cvj6ca6bvosntc0bfgr0","pricing_plan_id":"cebpf4jnsgd1na2vs0mg"},{"bike_id":"6457604d-7985-4a8c-b33d-d2225ffa1435","system_id":"levelo_inurba_marseille","lat":43.27887,"lon":5.38012,"is_reserved":false,"is_disabled":false,"rental_uris":{"android":"levelo://app?vid=6457604d-7985-4a8c-b33d-d2225ffa1435","ios":"levelo://app?vid=6457604d-7985-4a8c-b33d-d2225ffa1435"},"vehicle_type_id":"4","last_reported":1748888101,"current_range_meters":11600,"station_id":"ce4bhf92rcd13ifvqf50","pricing_plan_id":"cebpf4jnsgd1na2vs0mg"},{"bike_id":"9873ea8e-c2af-49bc-9f62-b61d54c33967","system_id":"levelo_inurba_marseille","lat":43.28946,"lon":5.36389,"is_reserved":false,"is_disabled":false,"rental_uris":{"android":"levelo://app?vid=9873ea8e-c2af-49bc-9f62-b61d54c33967","ios":"levelo://app?vid=9873ea8e-c2af-49bc-9f62-b61d54c33967"},"vehicle_type_id":"4","last_reported":1748888101,"current_range_meters":11600,"station_id":"ce4bhc92rcd13ifvqetg","pricing_plan_id":"cebpf4jnsgd1na2vs0mg"},{"bike_id":"0e265079-603b-4b16-bb16-50ff7d63d104","system_id":"levelo_inurba_marseille","lat":43.28653,"lon":5.35073,"is_reserved":false,"is_disabled":false,"rental_uris":{"android":"levelo://app?vid=0e265079-603b-4b16-bb16-50ff7d63d104","ios":"levelo://app?vid=0e265079-603b-4b16-bb16-50ff7d63d104"},"vehicle_type_id":"4","last_reported":1748888101,"current_range_meters":11600,"station_id":"ce4bhch2rcd13ifvqeug","pricing_plan_id":"cebpf4jnsgd1na2vs0mg"},{"bike_id":"6060549f-f072-4ec6-941d-b7a4686fef7a","system_id":"levelo_inurba_marseille","lat":43.25119,"lon":5.40321,"is_reserved":false,"is_disabled":false,"rental_uris":{"android":"levelo://app?vid=6060549f-f072-4ec6-941d-b7a4686fef7a","ios":"levelo://app?vid=6060549f-f072-4ec6-941d-b7a4686fef7a"},"vehicle_type_id":"4","last_reported":1748888101,"current_range_meters":12000,"station_id":"ce4bhlh2rcd13ifvqgig","pricing_plan_id":"cebpf4jnsgd1na2vs0mg"},{"bike_id":"682b774d-d73c-4bf8-ae8e-4e9627d17b63","system_id":"levelo_inurba_marseille","lat":43.2991,"lon":5.38146,"is_reserved":false,"is_disabled":false,"rental_uris":{"android":"levelo://app?vid=682b774d-d73c-4bf8-ae8e-4e9627d17b63","ios":"levelo://app?vid=682b774d-d73c-4bf8-ae8e-4e9627d17b63"},"vehicle_type_id":"4","last_reported":1748888101,"current_range_meters":8000,"station_id":"ce4bgj12rcd13ifvqbc0","pricing_plan_id":"cebpf4jnsgd1na2vs0mg"},{"bike_id":"f1c8c7e1-3f34-4d38-a503-caa580ebde75","system_id":"levelo_inurba_marseille","lat":43.22503,"lon":5.34778,"is_reserved":false,"is_disabled":false,"rental_uris":{"android":"levelo://app?vid=f1c8c7e1-3f34-4d38-a503-caa580ebde75","ios":"levelo://app?vid=f1c8c7e1-3f34-4d38-a503-caa580ebde75"},"vehicle_type_id":"4","last_reported":1748888101,"current_range_meters":12400,"station_id":"st_cvj5dfep6f1abm77gieg","pricing_plan_id":"cebpf4jnsgd1na2vs0mg"},{"bike_id":"cd693c4f-7556-46d4-b51d-98253789afd6","system_id":"levelo_inurba_marseille","lat":43.28413,"lon":5.37515,"is_reserved":false,"is_disabled":false,"rental_uris":{"android":"levelo://app?vid=cd693c4f-7556-46d4-b51d-98253789afd6","ios":"levelo://app?vid=cd693c4f-7556-46d4-b51d-98253789afd6"},"vehicle_type_id":"4","last_reported":1748888101,"current_range_meters":12400,"station_id":"ce4bh412rcd13ifvqds0","pricing_plan_id":"cebpf4jnsgd1na2vs0mg"},{"bike_id":"4808fe1b-b0b0-4f13-bacf-2941d6f4a4ee","system_id":"levelo_inurba_marseille","lat":43.28081,"lon":5.3966,"is_reserved":false,"is_disabled":false,"rental_uris":{"android":"levelo://app?vid=4808fe1b-b0b0-4f13-bacf-2941d6f4a4ee","ios":"levelo://app?vid=4808fe1b-b0b0-4f13-bacf-2941d6f4a4ee"},"vehicle_type_id":"4","last_reported":1748888101,"current_range_meters":12400,"station_id":"ce4bho12rcd13ifvqh2g","pricing_plan_id":"cebpf4jnsgd1na2vs0mg"},{"bike_id":"f50d430a-2621-48a4-a7f9-7c737b03fce7","system_id":"levelo_inurba_marseille","lat":43.26057,"lon":5.39393,"is_reserved":false,"is_disabled":false,"rental_uris":{"android":"levelo://app?vid=f50d430a-2621-48a4-a7f9-7c737b03fce7","ios":"levelo://app?vid=f50d430a-2621-48a4-a7f9-7c737b03fce7"},"vehicle_type_id":"4","last_reported":1748888101,"current_range_meters":12400,"station_id":"ce4bhh92rcd13ifvqfj0","pricing_plan_id":"cebpf4jnsgd1na2vs0mg"},{"bike_id":"f9ba8850-482d-43cd-93c6-da015477c7af","system_id":"levelo_inurba_marseille","lat":43.286215,"lon":5.383495,"is_reserved":false,"is_disabled":false,"rental_uris":{"android":"levelo://app?vid=f9ba8850-482d-43cd-93c6-da015477c7af","ios":"levelo://app?vid=f9ba8850-482d-43cd-93c6-da015477c7af"},"vehicle_type_id":"4","last_reported":1748888101,"current_range_meters":12400,"station_id":"","pricing_plan_id":"cebpf4jnsgd1na2vs0mg"},{"bike_id":"14ebe50f-f087-42c1-92a2-b76b150e1640","system_id":"levelo_inurba_marseille","lat":43.31328,"lon":5.3969,"is_reserved":false,"is_disabled":false,"rental_uris":{"android":"levelo://app?vid=14ebe50f-f087-42c1-92a2-b76b150e1640","ios":"levelo://app?vid=14ebe50f-f087-42c1-92a2-b76b150e1640"},"vehicle_type_id":"4","last_reported":1748888101,"current_range_meters":12400,"station_id":"ce4bgvp2rcd13ifvqcu0","pricing_plan_id":"cebpf4jnsgd1na2vs0mg"},{"bike_id":"6c842597-662d-4008-b404-86e67251dde8","system_id":"levelo_inurba_marseille","lat":43.28196,"lon":5.39076,"is_reserved":false,"is_disabled":false,"rental_uris":{"android":"levelo://app?vid=6c842597-662d-4008-b404-86e67251dde8","ios":"levelo://app?vid=6c842597-662d-4008-b404-86e67251dde8"},"vehicle_type_id":"4","last_reported":1748888101,"current_range_meters":12400,"station_id":"","pricing_plan_id":"cebpf4jnsgd1na2vs0mg"},{"bike_id":"5216ea0a-4a9a-4c23-890b-e86dc38c8051","system_id":"levelo_inurba_marseille","lat":43.26239,"lon":5.40444,"is_reserved":false,"is_disabled":false,"rental_uris":{"android":"levelo://app?vid=5216ea0a-4a9a-4c23-890b-e86dc38c8051","ios":"levelo://app?vid=5216ea0a-4a9a-4c23-890b-e86dc38c8051"},"vehicle_type_id":"4","last_reported":1748888101,"current_range_meters":12400,"station_id":"ce4bhmh2rcd13ifvqgmg","pricing_plan_id":"cebpf4jnsgd1na2vs0mg"},{"bike_id":"5b0c04c7-3e5d-4981-ba91-7d65704822b2","system_id":"levelo_inurba_marseille","lat":43.279072,"lon":5.380073,"is_reserved":false,"is_disabled":false,"rental_uris":{"android":"levelo://app?vid=5b0c04c7-3e5d-4981-ba91-7d65704822b2","ios":"levelo://app?vid=5b0c04c7-3e5d-4981-ba91-7d65704822b2"},"vehicle_type_id":"4","last_reported":1748888101,"current_range_meters":12800,"station_id":"ce4bhf92rcd13ifvqf50","pricing_plan_id":"cebpf4jnsgd1na2vs0mg"},{"bike_id":"e504d028-81d5-4fdd-b505-e1a9127c4754","system_id":"levelo_inurba_marseille","lat":43.29039,"lon":5.3757,"is_reserved":false,"is_disabled":false,"rental_uris":{"android":"levelo://app?vid=e504d028-81d5-4fdd-b505-e1a9127c4754","ios":"levelo://app?vid=e504d028-81d5-4fdd-b505-e1a9127c4754"},"vehicle_type_id":"4","last_reported":1748888101,"current_range_meters":12800,"station_id":"ce4bh692rcd13ifvqe90","pricing_plan_id":"cebpf4jnsgd1na2vs0mg"},{"bike_id":"9ab5259f-de9c-4acb-94b3-ff8b023536b0","system_id":"levelo_inurba_marseille","lat":43.298783,"lon":5.389028,"is_reserved":false,"is_disabled":false,"rental_uris":{"android":"levelo://app?vid=9ab5259f-de9c-4acb-94b3-ff8b023536b0","ios":"levelo://app?vid=9ab5259f-de9c-4acb-94b3-ff8b023536b0"},"vehicle_type_id":"4","last_reported":1748888101,"current_range_meters":12800,"station_id":"ce4bh392rcd13ifvqdl0","pricing_plan_id":"cebpf4jnsgd1na2vs0mg"},{"bike_id":"332a026e-c7b6-4c2d-9fc1-ec976142e094","system_id":"levelo_inurba_marseille","lat":43.28581,"lon":5.39495,"is_reserved":false,"is_disabled":false,"rental_uris":{"android":"levelo://app?vid=332a026e-c7b6-4c2d-9fc1-ec976142e094","ios":"levelo://app?vid=332a026e-c7b6-4c2d-9fc1-ec976142e094"},"vehicle_type_id":"4","last_reported":1748888101,"current_range_meters":12400,"station_id":"ce4bh292rcd13ifvqdg0","pricing_plan_id":"cebpf4jnsgd1na2vs0mg"},{"bike_id":"dcc6d195-f7b7-48c1-b708-11934032ebb6","system_id":"levelo_inurba_marseille","lat":43.27617,"lon":5.36109,"is_reserved":false,"is_disabled":false,"rental_uris":{"android":"levelo://app?vid=dcc6d195-f7b7-48c1-b708-11934032ebb6","ios":"levelo://app?vid=dcc6d195-f7b7-48c1-b708-11934032ebb6"},"vehicle_type_id":"4","last_reported":1748888101,"current_range_meters":12400,"station_id":"ce4bgj92rcd13ifvqbe0","pricing_plan_id":"cebpf4jnsgd1na2vs0mg"},{"bike_id":"211d17a0-c262-4168-b2ba-30cde1dcb270","system_id":"levelo_inurba_marseille","lat":43.2871,"lon":5.36104,"is_reserved":false,"is_disabled":false,"rental_uris":{"android":"levelo://app?vid=211d17a0-c262-4168-b2ba-30cde1dcb270","ios":"levelo://app?vid=211d17a0-c262-4168-b2ba-30cde1dcb270"},"vehicle_type_id":"4","last_reported":1748888101,"current_range_meters":12800,"station_id":"cki0cbj6b192h4jlfktg","pricing_plan_id":"cebpf4jnsgd1na2vs0mg"},{"bike_id":"fa62253e-e4db-42d1-9a63-6ab16922bf00","system_id":"levelo_inurba_marseille","lat":43.32002,"lon":5.3682,"is_reserved":false,"is_disabled":false,"rental_uris":{"android":"levelo://app?vid=fa62253e-e4db-42d1-9a63-6ab16922bf00","ios":"levelo://app?vid=fa62253e-e4db-42d1-9a63-6ab16922bf00"},"vehicle_type_id":"4","last_reported":1748888101,"current_range_meters":13600,"station_id":"","pricing_plan_id":"cebpf4jnsgd1na2vs0mg"},{"bike_id":"2e0494df-b34d-4651-a623-02314619e7ed","system_id":"levelo_inurba_marseille","lat":43.30134,"lon":5.39864,"is_reserved":false,"is_disabled":false,"rental_uris":{"android":"levelo://app?vid=2e0494df-b34d-4651-a623-02314619e7ed","ios":"levelo://app?vid=2e0494df-b34d-4651-a623-02314619e7ed"},"vehicle_type_id":"4","last_reported":1748888101,"current_range_meters":13600,"station_id":"ce4bh0h2rcd13ifvqd40","pricing_plan_id":"cebpf4jnsgd1na2vs0mg"},{"bike_id":"99a7610a-de90-4553-8e05-1b55c9ac98f2","system_id":"levelo_inurba_marseille","lat":43.29277,"lon":5.36838,"is_reserved":false,"is_disabled":false,"rental_uris":{"android":"levelo://app?vid=99a7610a-de90-4553-8e05-1b55c9ac98f2","ios":"levelo://app?vid=99a7610a-de90-4553-8e05-1b55c9ac98f2"},"vehicle_type_id":"4","last_reported":1748888101,"current_range_meters":13600,"station_id":"ce4bhbp2rcd13ifvqesg","pricing_plan_id":"cebpf4jnsgd1na2vs0mg"},{"bike_id":"9502e981-ce46-4b9a-8b7e-98a2e5d8fb57","system_id":"levelo_inurba_marseille","lat":43.32344,"lon":5.40615,"is_reserved":false,"is_disabled":false,"rental_uris":{"android":"levelo://app?vid=9502e981-ce46-4b9a-8b7e-98a2e5d8fb57","ios":"levelo://app?vid=9502e981-ce46-4b9a-8b7e-98a2e5d8fb57"},"vehicle_type_id":"4","last_reported":1748888101,"current_range_meters":13600,"station_id":"ce4bhq92rcd13ifvqhjg","pricing_plan_id":"cebpf4jnsgd1na2vs0mg"},{"bike_id":"d76f67b2-801c-439c-b042-145ebe9176f8","system_id":"levelo_inurba_marseille","lat":43.29268,"lon":5.36852,"is_reserved":false,"is_disabled":false,"rental_uris":{"android":"levelo://app?vid=d76f67b2-801c-439c-b042-145ebe9176f8","ios":"levelo://app?vid=d76f67b2-801c-439c-b042-145ebe9176f8"},"vehicle_type_id":"4","last_reported":1748888101,"current_range_meters":13600,"station_id":"ce4bhbp2rcd13ifvqesg","pricing_plan_id":"cebpf4jnsgd1na2vs0mg"},{"bike_id":"27339aa2-4cb7-4d3d-b966-6af74225f207","system_id":"levelo_inurba_marseille","lat":43.29866,"lon":5.39733,"is_reserved":false,"is_disabled":false,"rental_uris":{"android":"levelo://app?vid=27339aa2-4cb7-4d3d-b966-6af74225f207","ios":"levelo://app?vid=27339aa2-4cb7-4d3d-b966-6af74225f207"},"vehicle_type_id":"4","last_reported":1748888101,"current_range_meters":12800,"station_id":"ce4bh0h2rcd13ifvqd50","pricing_plan_id":"cebpf4jnsgd1na2vs0mg"},{"bike_id":"cfd8a61b-5b9f-4b59-b997-bf8355304b02","system_id":"levelo_inurba_marseille","lat":43.28845,"lon":5.35851,"is_reserved":false,"is_disabled":false,"rental_uris":{"android":"levelo://app?vid=cfd8a61b-5b9f-4b59-b997-bf8355304b02","ios":"levelo://app?vid=cfd8a61b-5b9f-4b59-b997-bf8355304b02"},"vehicle_type_id":"4","last_reported":1748888101,"current_range_meters":13600,"station_id":"ce4bhb12rcd13ifvqem0","pricing_plan_id":"cebpf4jnsgd1na2vs0mg"},{"bike_id":"1733e739-d6a1-48d7-bc95-e4da2deeb8a9","system_id":"levelo_inurba_marseille","lat":43.28458,"lon":5.35889,"is_reserved":false,"is_disabled":false,"rental_uris":{"android":"levelo://app?vid=1733e739-d6a1-48d7-bc95-e4da2deeb8a9","ios":"levelo://app?vid=1733e739-d6a1-48d7-bc95-e4da2deeb8a9"},"vehicle_type_id":"4","last_reported":1748888101,"current_range_meters":13600,"station_id":"ce4bhah2rcd13ifvqei0","pricing_plan_id":"cebpf4jnsgd1na2vs0mg"},{"bike_id":"20f489ce-1213-41ff-b00a-d6103b01b6cf","system_id":"levelo_inurba_marseille","lat":43.301447,"lon":5.398513,"is_reserved":false,"is_disabled":false,"rental_uris":{"android":"levelo://app?vid=20f489ce-1213-41ff-b00a-d6103b01b6cf","ios":"levelo://app?vid=20f489ce-1213-41ff-b00a-d6103b01b6cf"},"vehicle_type_id":"4","last_reported":1748888101,"current_range_meters":13600,"station_id":"ce4bh0h2rcd13ifvqd40","pricing_plan_id":"cebpf4jnsgd1na2vs0mg"},{"bike_id":"3ebdd401-b80a-4fca-a4ae-7f76492c481d","system_id":"levelo_inurba_marseille","lat":43.23168,"lon":5.40011,"is_reserved":false,"is_disabled":true,"rental_uris":{"android":"levelo://app?vid=3ebdd401-b80a-4fca-a4ae-7f76492c481d","ios":"levelo://app?vid=3ebdd401-b80a-4fca-a4ae-7f76492c481d"},"vehicle_type_id":"4","last_reported":1748888101,"current_range_meters":13600,"station_id":"ce4bhn12rcd13ifvqgqg","pricing_plan_id":"cebpf4jnsgd1na2vs0mg"},{"bike_id":"3bc9b687-1341-46df-b11a-bee13d4a9ac9","system_id":"levelo_inurba_marseille","lat":43.32,"lon":5.38158,"is_reserved":false,"is_disabled":false,"rental_uris":{"android":"levelo://app?vid=3bc9b687-1341-46df-b11a-bee13d4a9ac9","ios":"levelo://app?vid=3bc9b687-1341-46df-b11a-bee13d4a9ac9"},"vehicle_type_id":"4","last_reported":1748888101,"current_range_meters":14000,"station_id":"ce4bhr12rcd13ifvqhpg","pricing_plan_id":"cebpf4jnsgd1na2vs0mg"},{"bike_id":"a90480e9-88c3-4c75-9768-b6e4da5bfc09","system_id":"levelo_inurba_marseille","lat":43.2862,"lon":5.351,"is_reserved":false,"is_disabled":false,"rental_uris":{"android":"levelo://app?vid=a90480e9-88c3-4c75-9768-b6e4da5bfc09","ios":"levelo://app?vid=a90480e9-88c3-4c75-9768-b6e4da5bfc09"},"vehicle_type_id":"4","last_reported":1748888101,"current_range_meters":14000,"station_id":"ce4bhch2rcd13ifvqeug","pricing_plan_id":"cebpf4jnsgd1na2vs0mg"},{"bike_id":"60fc5f45-4b88-49a6-a088-b19fe6d1420b","system_id":"levelo_inurba_marseille","lat":43.27375,"lon":5.36247,"is_reserved":false,"is_disabled":false,"rental_uris":{"android":"levelo://app?vid=60fc5f45-4b88-49a6-a088-b19fe6d1420b","ios":"levelo://app?vid=60fc5f45-4b88-49a6-a088-b19fe6d1420b"},"vehicle_type_id":"4","last_reported":1748888101,"current_range_meters":14000,"station_id":"ce4bhbh2rcd13ifvqeo0","pricing_plan_id":"cebpf4jnsgd1na2vs0mg"},{"bike_id":"3082751b-d3f4-42ac-b6c0-bf946931c7e5","system_id":"levelo_inurba_marseille","lat":43.21191,"lon":5.35072,"is_reserved":false,"is_disabled":false,"rental_uris":{"android":"levelo://app?vid=3082751b-d3f4-42ac-b6c0-bf946931c7e5","ios":"levelo://app?vid=3082751b-d3f4-42ac-b6c0-bf946931c7e5"},"vehicle_type_id":"4","last_reported":1748888101,"current_range_meters":14000,"station_id":"st_cvj6sg6p6f1abm77japg","pricing_plan_id":"cebpf4jnsgd1na2vs0mg"},{"bike_id":"f5cb770c-864c-402a-9473-5c3f691aa53d","system_id":"levelo_inurba_marseille","lat":43.29529,"lon":5.39037,"is_reserved":false,"is_disabled":false,"rental_uris":{"android":"levelo://app?vid=f5cb770c-864c-402a-9473-5c3f691aa53d","ios":"levelo://app?vid=f5cb770c-864c-402a-9473-5c3f691aa53d"},"vehicle_type_id":"4","last_reported":1748888101,"current_range_meters":14000,"station_id":"ce4bh3p2rcd13ifvqdp0","pricing_plan_id":"cebpf4jnsgd1na2vs0mg"},{"bike_id":"45d9f80f-e143-4ccb-8fcb-fa9d13bc6d1a","system_id":"levelo_inurba_marseille","lat":43.28724,"lon":5.36096,"is_reserved":false,"is_disabled":false,"rental_uris":{"android":"levelo://app?vid=45d9f80f-e143-4ccb-8fcb-fa9d13bc6d1a","ios":"levelo://app?vid=45d9f80f-e143-4ccb-8fcb-fa9d13bc6d1a"},"vehicle_type_id":"4","last_reported":1748888101,"current_range_meters":14000,"station_id":"cki0cbj6b192h4jlfktg","pricing_plan_id":"cebpf4jnsgd1na2vs0mg"},{"bike_id":"132751d0-a1d2-4547-8139-b08ba3b87187","system_id":"levelo_inurba_marseille","lat":43.32345,"lon":5.4062,"is_reserved":false,"is_disabled":false,"rental_uris":{"android":"levelo://app?vid=132751d0-a1d2-4547-8139-b08ba3b87187","ios":"levelo://app?vid=132751d0-a1d2-4547-8139-b08ba3b87187"},"vehicle_type_id":"4","last_reported":1748888101,"current_range_meters":14000,"station_id":"ce4bhq92rcd13ifvqhjg","pricing_plan_id":"cebpf4jnsgd1na2vs0mg"},{"bike_id":"4403c097-3135-4dca-9b42-43dc1fc70640","system_id":"levelo_inurba_marseille","lat":43.29311,"lon":5.37165,"is_reserved":false,"is_disabled":false,"rental_uris":{"android":"levelo://app?vid=4403c097-3135-4dca-9b42-43dc1fc70640","ios":"levelo://app?vid=4403c097-3135-4dca-9b42-43dc1fc70640"},"vehicle_type_id":"4","last_reported":1748888101,"current_range_meters":14000,"station_id":"ce4bgh92rcd13ifvqb40","pricing_plan_id":"cebpf4jnsgd1na2vs0mg"},{"bike_id":"22edef8a-1976-40d2-9bd4-cfba24ec9ce7","system_id":"levelo_inurba_marseille","lat":43.29849,"lon":5.36288,"is_reserved":false,"is_disabled":false,"rental_uris":{"android":"levelo://app?vid=22edef8a-1976-40d2-9bd4-cfba24ec9ce7","ios":"levelo://app?vid=22edef8a-1976-40d2-9bd4-cfba24ec9ce7"},"vehicle_type_id":"4","last_reported":1748888101,"current_range_meters":14000,"station_id":"ce4bgpp2rcd13ifvqc3g","pricing_plan_id":"cebpf4jnsgd1na2vs0mg"},{"bike_id":"04891d7b-2980-496e-8b56-7a69e666a251","system_id":"levelo_inurba_marseille","lat":43.2621,"lon":5.37442,"is_reserved":false,"is_disabled":false,"rental_uris":{"android":"levelo://app?vid=04891d7b-2980-496e-8b56-7a69e666a251","ios":"levelo://app?vid=04891d7b-2980-496e-8b56-7a69e666a251"},"vehicle_type_id":"4","last_reported":1748888101,"current_range_meters":14400,"station_id":"ce4bhgp2rcd13ifvqfc0","pricing_plan_id":"cebpf4jnsgd1na2vs0mg"},{"bike_id":"a33c9ded-afda-47fd-87fa-ac593a798cfa","system_id":"levelo_inurba_marseille","lat":43.26846,"lon":5.38912,"is_reserved":false,"is_disabled":false,"rental_uris":{"android":"levelo://app?vid=a33c9ded-afda-47fd-87fa-ac593a798cfa","ios":"levelo://app?vid=a33c9ded-afda-47fd-87fa-ac593a798cfa"},"vehicle_type_id":"4","last_reported":1748888101,"current_range_meters":14800,"station_id":"","pricing_plan_id":"cebpf4jnsgd1na2vs0mg"},{"bike_id":"8e0a5f84-05c8-42a5-8f96-55f5b63122cb","system_id":"levelo_inurba_marseille","lat":43.28612,"lon":5.35111,"is_reserved":false,"is_disabled":false,"rental_uris":{"android":"levelo://app?vid=8e0a5f84-05c8-42a5-8f96-55f5b63122cb","ios":"levelo://app?vid=8e0a5f84-05c8-42a5-8f96-55f5b63122cb"},"vehicle_type_id":"4","last_reported":1748888101,"current_range_meters":14400,"station_id":"ce4bhch2rcd13ifvqeug","pricing_plan_id":"cebpf4jnsgd1na2vs0mg"},{"bike_id":"2e454d1b-7315-4339-b29b-5b569ba90d7a","system_id":"levelo_inurba_marseille","lat":43.282286,"lon":5.390678,"is_reserved":false,"is_disabled":false,"rental_uris":{"android":"levelo://app?vid=2e454d1b-7315-4339-b29b-5b569ba90d7a","ios":"levelo://app?vid=2e454d1b-7315-4339-b29b-5b569ba90d7a"},"vehicle_type_id":"4","last_reported":1748888101,"current_range_meters":14400,"station_id":"","pricing_plan_id":"cebpf4jnsgd1na2vs0mg"},{"bike_id":"d1694400-2c42-4086-947c-527f9edc4925","system_id":"levelo_inurba_marseille","lat":43.31338,"lon":5.39649,"is_reserved":false,"is_disabled":false,"rental_uris":{"android":"levelo://app?vid=d1694400-2c42-4086-947c-527f9edc4925","ios":"levelo://app?vid=d1694400-2c42-4086-947c-527f9edc4925"},"vehicle_type_id":"4","last_reported":1748888101,"current_range_meters":14800,"station_id":"ce4bgvp2rcd13ifvqcu0","pricing_plan_id":"cebpf4jnsgd1na2vs0mg"},{"bike_id":"4cb65288-83f5-43b7-b669-cd1b42db0937","system_id":"levelo_inurba_marseille","lat":43.29032,"lon":5.35586,"is_reserved":false,"is_disabled":false,"rental_uris":{"android":"levelo://app?vid=4cb65288-83f5-43b7-b669-cd1b42db0937","ios":"levelo://app?vid=4cb65288-83f5-43b7-b669-cd1b42db0937"},"vehicle_type_id":"4","last_reported":1748888101,"current_range_meters":14800,"station_id":"ce4bhb92rcd13ifvqen0","pricing_plan_id":"cebpf4jnsgd1na2vs0mg"},{"bike_id":"54b1f985-02a4-4680-a106-409bc18665c8","system_id":"levelo_inurba_marseille","lat":43.27999,"lon":5.41661,"is_reserved":false,"is_disabled":false,"rental_uris":{"android":"levelo://app?vid=54b1f985-02a4-4680-a106-409bc18665c8","ios":"levelo://app?vid=54b1f985-02a4-4680-a106-409bc18665c8"},"vehicle_type_id":"4","last_reported":1748888101,"current_range_meters":14800,"station_id":"ce4bho12rcd13ifvqh1g","pricing_plan_id":"cebpf4jnsgd1na2vs0mg"},{"bike_id":"6b0c7ade-5985-4cf9-8314-a3d44bb4c37b","system_id":"levelo_inurba_marseille","lat":43.30314,"lon":5.40436,"is_reserved":false,"is_disabled":false,"rental_uris":{"android":"levelo://app?vid=6b0c7ade-5985-4cf9-8314-a3d44bb4c37b","ios":"levelo://app?vid=6b0c7ade-5985-4cf9-8314-a3d44bb4c37b"},"vehicle_type_id":"4","last_reported":1748888101,"current_range_meters":14800,"station_id":"ce4bh012rcd13ifvqd10","pricing_plan_id":"cebpf4jnsgd1na2vs0mg"},{"bike_id":"2ea19fc5-df2f-4b1e-9c37-7a737a40b076","system_id":"levelo_inurba_marseille","lat":43.248061,"lon":5.374606,"is_reserved":false,"is_disabled":false,"rental_uris":{"android":"levelo://app?vid=2ea19fc5-df2f-4b1e-9c37-7a737a40b076","ios":"levelo://app?vid=2ea19fc5-df2f-4b1e-9c37-7a737a40b076"},"vehicle_type_id":"4","last_reported":1748888101,"current_range_meters":15200,"station_id":"ce4bhgh2rcd13ifvqfb0","pricing_plan_id":"cebpf4jnsgd1na2vs0mg"},{"bike_id":"276688ec-5590-4d0f-b654-b963d615a6c8","system_id":"levelo_inurba_marseille","lat":43.27496,"lon":5.4245,"is_reserved":false,"is_disabled":false,"rental_uris":{"android":"levelo://app?vid=276688ec-5590-4d0f-b654-b963d615a6c8","ios":"levelo://app?vid=276688ec-5590-4d0f-b654-b963d615a6c8"},"vehicle_type_id":"4","last_reported":1748888101,"current_range_meters":15200,"station_id":"ce4bhn92rcd13ifvqgrg","pricing_plan_id":"cebpf4jnsgd1na2vs0mg"},{"bike_id":"8a3df9e9-52cf-4cc9-b0b8-7d633d41edf2","system_id":"levelo_inurba_marseille","lat":43.251073,"lon":5.40329,"is_reserved":false,"is_disabled":false,"rental_uris":{"android":"levelo://app?vid=8a3df9e9-52cf-4cc9-b0b8-7d633d41edf2","ios":"levelo://app?vid=8a3df9e9-52cf-4cc9-b0b8-7d633d41edf2"},"vehicle_type_id":"4","last_reported":1748888101,"current_range_meters":15200,"station_id":"ce4bhlh2rcd13ifvqgig","pricing_plan_id":"cebpf4jnsgd1na2vs0mg"},{"bike_id":"ac2caa47-de50-4eb2-a0a2-d67e53dc1071","system_id":"levelo_inurba_marseille","lat":43.301424,"lon":5.374193,"is_reserved":false,"is_disabled":false,"rental_uris":{"android":"levelo://app?vid=ac2caa47-de50-4eb2-a0a2-d67e53dc1071","ios":"levelo://app?vid=ac2caa47-de50-4eb2-a0a2-d67e53dc1071"},"vehicle_type_id":"4","last_reported":1748888101,"current_range_meters":15200,"station_id":"ce4bgs92rcd13ifvqcc0","pricing_plan_id":"cebpf4jnsgd1na2vs0mg"},{"bike_id":"216b1f6d-7802-455a-a0ea-4a7d4f5deeb7","system_id":"levelo_inurba_marseille","lat":43.24806,"lon":5.37458,"is_reserved":false,"is_disabled":false,"rental_uris":{"android":"levelo://app?vid=216b1f6d-7802-455a-a0ea-4a7d4f5deeb7","ios":"levelo://app?vid=216b1f6d-7802-455a-a0ea-4a7d4f5deeb7"},"vehicle_type_id":"4","last_reported":1748888101,"current_range_meters":15200,"station_id":"ce4bhgh2rcd13ifvqfb0","pricing_plan_id":"cebpf4jnsgd1na2vs0mg"},{"bike_id":"2462565a-f74a-4d24-8c1a-705b5b36c3ac","system_id":"levelo_inurba_marseille","lat":43.27904,"lon":5.38007,"is_reserved":false,"is_disabled":false,"rental_uris":{"android":"levelo://app?vid=2462565a-f74a-4d24-8c1a-705b5b36c3ac","ios":"levelo://app?vid=2462565a-f74a-4d24-8c1a-705b5b36c3ac"},"vehicle_type_id":"4","last_reported":1748888101,"current_range_meters":14800,"station_id":"ce4bhf92rcd13ifvqf50","pricing_plan_id":"cebpf4jnsgd1na2vs0mg"},{"bike_id":"dba232dd-05ec-4177-8fee-3d3dc476d851","system_id":"levelo_inurba_marseille","lat":43.27999,"lon":5.41658,"is_reserved":false,"is_disabled":false,"rental_uris":{"android":"levelo://app?vid=dba232dd-05ec-4177-8fee-3d3dc476d851","ios":"levelo://app?vid=dba232dd-05ec-4177-8fee-3d3dc476d851"},"vehicle_type_id":"4","last_reported":1748888101,"current_range_meters":15200,"station_id":"ce4bho12rcd13ifvqh1g","pricing_plan_id":"cebpf4jnsgd1na2vs0mg"},{"bike_id":"e8f7b961-e6b1-4b1b-b292-cfb847237f6b","system_id":"levelo_inurba_marseille","lat":43.2738,"lon":5.36258,"is_reserved":false,"is_disabled":false,"rental_uris":{"android":"levelo://app?vid=e8f7b961-e6b1-4b1b-b292-cfb847237f6b","ios":"levelo://app?vid=e8f7b961-e6b1-4b1b-b292-cfb847237f6b"},"vehicle_type_id":"4","last_reported":1748888101,"current_range_meters":16000,"station_id":"ce4bhbh2rcd13ifvqeo0","pricing_plan_id":"cebpf4jnsgd1na2vs0mg"},{"bike_id":"ca0b3444-318f-4cd4-973f-dcffb61c7ad1","system_id":"levelo_inurba_marseille","lat":43.28452,"lon":5.35879,"is_reserved":false,"is_disabled":false,"rental_uris":{"android":"levelo://app?vid=ca0b3444-318f-4cd4-973f-dcffb61c7ad1","ios":"levelo://app?vid=ca0b3444-318f-4cd4-973f-dcffb61c7ad1"},"vehicle_type_id":"4","last_reported":1748888101,"current_range_meters":16000,"station_id":"ce4bhah2rcd13ifvqei0","pricing_plan_id":"cebpf4jnsgd1na2vs0mg"},{"bike_id":"cf9a9959-303f-40f9-b57e-3ca93b1edd13","system_id":"levelo_inurba_marseille","lat":43.2884,"lon":5.35852,"is_reserved":false,"is_disabled":false,"rental_uris":{"android":"levelo://app?vid=cf9a9959-303f-40f9-b57e-3ca93b1edd13","ios":"levelo://app?vid=cf9a9959-303f-40f9-b57e-3ca93b1edd13"},"vehicle_type_id":"4","last_reported":1748888101,"current_range_meters":16000,"station_id":"ce4bhb12rcd13ifvqem0","pricing_plan_id":"cebpf4jnsgd1na2vs0mg"},{"bike_id":"57612df2-479d-4703-9220-a7ac0073a4dd","system_id":"levelo_inurba_marseille","lat":43.26207,"lon":5.3793,"is_reserved":false,"is_disabled":false,"rental_uris":{"android":"levelo://app?vid=57612df2-479d-4703-9220-a7ac0073a4dd","ios":"levelo://app?vid=57612df2-479d-4703-9220-a7ac0073a4dd"},"vehicle_type_id":"4","last_reported":1748888101,"current_range_meters":16000,"station_id":"ce4bhjp2rcd13ifvqg90","pricing_plan_id":"cebpf4jnsgd1na2vs0mg"},{"bike_id":"96b5af2e-b5c9-4213-aee5-8574fa85dc0a","system_id":"levelo_inurba_marseille","lat":43.29892,"lon":5.39726,"is_reserved":false,"is_disabled":true,"rental_uris":{"android":"levelo://app?vid=96b5af2e-b5c9-4213-aee5-8574fa85dc0a","ios":"levelo://app?vid=96b5af2e-b5c9-4213-aee5-8574fa85dc0a"},"vehicle_type_id":"4","last_reported":1748888101,"current_range_meters":16000,"station_id":"ce4bh0h2rcd13ifvqd50","pricing_plan_id":"cebpf4jnsgd1na2vs0mg"},{"bike_id":"39c34166-7a86-4987-aa9c-ccf6be1a1286","system_id":"levelo_inurba_marseille","lat":43.28571,"lon":5.39497,"is_reserved":false,"is_disabled":false,"rental_uris":{"android":"levelo://app?vid=39c34166-7a86-4987-aa9c-ccf6be1a1286","ios":"levelo://app?vid=39c34166-7a86-4987-aa9c-ccf6be1a1286"},"vehicle_type_id":"4","last_reported":1748888101,"current_range_meters":16000,"station_id":"ce4bh292rcd13ifvqdg0","pricing_plan_id":"cebpf4jnsgd1na2vs0mg"},{"bike_id":"82762f70-216b-4762-9e82-daaa45d19a35","system_id":"levelo_inurba_marseille","lat":43.24152,"lon":5.36415,"is_reserved":false,"is_disabled":false,"rental_uris":{"android":"levelo://app?vid=82762f70-216b-4762-9e82-daaa45d19a35","ios":"levelo://app?vid=82762f70-216b-4762-9e82-daaa45d19a35"},"vehicle_type_id":"4","last_reported":1748888101,"current_range_meters":16400,"station_id":"cpo36qri1sfpv3e86is0","pricing_plan_id":"cebpf4jnsgd1na2vs0mg"},{"bike_id":"f24e2b9c-e2b1-4088-81d6-6a4d9fc61cdb","system_id":"levelo_inurba_marseille","lat":43.29318,"lon":5.37163,"is_reserved":false,"is_disabled":false,"rental_uris":{"android":"levelo://app?vid=f24e2b9c-e2b1-4088-81d6-6a4d9fc61cdb","ios":"levelo://app?vid=f24e2b9c-e2b1-4088-81d6-6a4d9fc61cdb"},"vehicle_type_id":"4","last_reported":1748888101,"current_range_meters":16800,"station_id":"ce4bgh92rcd13ifvqb40","pricing_plan_id":"cebpf4jnsgd1na2vs0mg"},{"bike_id":"49d8c1d3-42d0-49d5-aa51-c11ee75a8849","system_id":"levelo_inurba_marseille","lat":43.27376,"lon":5.36254,"is_reserved":false,"is_disabled":false,"rental_uris":{"android":"levelo://app?vid=49d8c1d3-42d0-49d5-aa51-c11ee75a8849","ios":"levelo://app?vid=49d8c1d3-42d0-49d5-aa51-c11ee75a8849"},"vehicle_type_id":"4","last_reported":1748888101,"current_range_meters":16400,"station_id":"ce4bhbh2rcd13ifvqeo0","pricing_plan_id":"cebpf4jnsgd1na2vs0mg"},{"bike_id":"27cc41f3-589f-40ca-8115-aab0272336bd","system_id":"levelo_inurba_marseille","lat":43.2573,"lon":5.41066,"is_reserved":false,"is_disabled":false,"rental_uris":{"android":"levelo://app?vid=27cc41f3-589f-40ca-8115-aab0272336bd","ios":"levelo://app?vid=27cc41f3-589f-40ca-8115-aab0272336bd"},"vehicle_type_id":"4","last_reported":1748888101,"current_range_meters":16400,"station_id":"ce4bhkp2rcd13ifvqgd0","pricing_plan_id":"cebpf4jnsgd1na2vs0mg"},{"bike_id":"16d13b30-f10d-419c-bd76-e6c03add2951","system_id":"levelo_inurba_marseille","lat":43.28412,"lon":5.37512,"is_reserved":false,"is_disabled":false,"rental_uris":{"android":"levelo://app?vid=16d13b30-f10d-419c-bd76-e6c03add2951","ios":"levelo://app?vid=16d13b30-f10d-419c-bd76-e6c03add2951"},"vehicle_type_id":"4","last_reported":1748888101,"current_range_meters":16400,"station_id":"ce4bh412rcd13ifvqds0","pricing_plan_id":"cebpf4jnsgd1na2vs0mg"},{"bike_id":"181ebdd0-ad43-4dcf-812d-f078ef078593","system_id":"levelo_inurba_marseille","lat":43.3064,"lon":5.40093,"is_reserved":false,"is_disabled":false,"rental_uris":{"android":"levelo://app?vid=181ebdd0-ad43-4dcf-812d-f078ef078593","ios":"levelo://app?vid=181ebdd0-ad43-4dcf-812d-f078ef078593"},"vehicle_type_id":"4","last_reported":1748888101,"current_range_meters":17200,"station_id":"ce4bh112rcd13ifvqda0","pricing_plan_id":"cebpf4jnsgd1na2vs0mg"},{"bike_id":"d92cc0ac-6b9b-43e8-a05c-e4bc4851fc65","system_id":"levelo_inurba_marseille","lat":43.29525,"lon":5.37511,"is_reserved":false,"is_disabled":false,"rental_uris":{"android":"levelo://app?vid=d92cc0ac-6b9b-43e8-a05c-e4bc4851fc65","ios":"levelo://app?vid=d92cc0ac-6b9b-43e8-a05c-e4bc4851fc65"},"vehicle_type_id":"4","last_reported":1748888101,"current_range_meters":16400,"station_id":"ce4bgkp2rcd13ifvqbmg","pricing_plan_id":"cebpf4jnsgd1na2vs0mg"},{"bike_id":"b13af6b4-afe1-4aa5-afa5-1986316bc961","system_id":"levelo_inurba_marseille","lat":43.29924,"lon":5.36535,"is_reserved":false,"is_disabled":false,"rental_uris":{"android":"levelo://app?vid=b13af6b4-afe1-4aa5-afa5-1986316bc961","ios":"levelo://app?vid=b13af6b4-afe1-4aa5-afa5-1986316bc961"},"vehicle_type_id":"4","last_reported":1748888101,"current_range_meters":16400,"station_id":"ce4bgm92rcd13ifvqbr0","pricing_plan_id":"cebpf4jnsgd1na2vs0mg"},{"bike_id":"0acdeec4-3017-41e3-bdf4-e29c93c77164","system_id":"levelo_inurba_marseille","lat":43.279416,"lon":5.410522,"is_reserved":false,"is_disabled":false,"rental_uris":{"android":"levelo://app?vid=0acdeec4-3017-41e3-bdf4-e29c93c77164","ios":"levelo://app?vid=0acdeec4-3017-41e3-bdf4-e29c93c77164"},"vehicle_type_id":"4","last_reported":1748888101,"current_range_meters":16400,"station_id":"ce4bhnp2rcd13ifvqh0g","pricing_plan_id":"cebpf4jnsgd1na2vs0mg"},{"bike_id":"c5340962-bc09-4a51-973d-99c9a315a333","system_id":"levelo_inurba_marseille","lat":43.28098,"lon":5.37842,"is_reserved":false,"is_disabled":false,"rental_uris":{"android":"levelo://app?vid=c5340962-bc09-4a51-973d-99c9a315a333","ios":"levelo://app?vid=c5340962-bc09-4a51-973d-99c9a315a333"},"vehicle_type_id":"4","last_reported":1748888101,"current_range_meters":16400,"station_id":"ce4bha12rcd13ifvqee0","pricing_plan_id":"cebpf4jnsgd1na2vs0mg"},{"bike_id":"16b2977e-19e6-4fbb-b244-2b32031fef8d","system_id":"levelo_inurba_marseille","lat":43.24803,"lon":5.37452,"is_reserved":false,"is_disabled":false,"rental_uris":{"android":"levelo://app?vid=16b2977e-19e6-4fbb-b244-2b32031fef8d","ios":"levelo://app?vid=16b2977e-19e6-4fbb-b244-2b32031fef8d"},"vehicle_type_id":"4","last_reported":1748888101,"current_range_meters":16800,"station_id":"ce4bhgh2rcd13ifvqfb0","pricing_plan_id":"cebpf4jnsgd1na2vs0mg"},{"bike_id":"be37cc48-431d-4b6d-8b16-08b50146c95c","system_id":"levelo_inurba_marseille","lat":43.26064,"lon":5.39392,"is_reserved":false,"is_disabled":false,"rental_uris":{"android":"levelo://app?vid=be37cc48-431d-4b6d-8b16-08b50146c95c","ios":"levelo://app?vid=be37cc48-431d-4b6d-8b16-08b50146c95c"},"vehicle_type_id":"4","last_reported":1748888101,"current_range_meters":16800,"station_id":"ce4bhh92rcd13ifvqfj0","pricing_plan_id":"cebpf4jnsgd1na2vs0mg"},{"bike_id":"8b9f9b7b-013d-425e-af4e-f80f1922b769","system_id":"levelo_inurba_marseille","lat":43.25572,"lon":5.38247,"is_reserved":false,"is_disabled":false,"rental_uris":{"android":"levelo://app?vid=8b9f9b7b-013d-425e-af4e-f80f1922b769","ios":"levelo://app?vid=8b9f9b7b-013d-425e-af4e-f80f1922b769"},"vehicle_type_id":"4","last_reported":1748888101,"current_range_meters":16800,"station_id":"ce4bhih2rcd13ifvqfs0","pricing_plan_id":"cebpf4jnsgd1na2vs0mg"},{"bike_id":"7b537ce6-5f0c-43ab-81c7-49b9c75e1391","system_id":"levelo_inurba_marseille","lat":43.28934,"lon":5.36637,"is_reserved":false,"is_disabled":false,"rental_uris":{"android":"levelo://app?vid=7b537ce6-5f0c-43ab-81c7-49b9c75e1391","ios":"levelo://app?vid=7b537ce6-5f0c-43ab-81c7-49b9c75e1391"},"vehicle_type_id":"4","last_reported":1748888101,"current_range_meters":17200,"station_id":"ce4bhap2rcd13ifvqek0","pricing_plan_id":"cebpf4jnsgd1na2vs0mg"},{"bike_id":"25bc5ed4-be64-495c-9d3f-33cd26602301","system_id":"levelo_inurba_marseille","lat":43.30805,"lon":5.4352,"is_reserved":false,"is_disabled":false,"rental_uris":{"android":"levelo://app?vid=25bc5ed4-be64-495c-9d3f-33cd26602301","ios":"levelo://app?vid=25bc5ed4-be64-495c-9d3f-33cd26602301"},"vehicle_type_id":"4","last_reported":1748888101,"current_range_meters":16800,"station_id":"ce4bhph2rcd13ifvqheg","pricing_plan_id":"cebpf4jnsgd1na2vs0mg"},{"bike_id":"d0a38fbf-480a-44f9-8c88-81888fc6618a","system_id":"levelo_inurba_marseille","lat":43.29423,"lon":5.38636,"is_reserved":false,"is_disabled":false,"rental_uris":{"android":"levelo://app?vid=d0a38fbf-480a-44f9-8c88-81888fc6618a","ios":"levelo://app?vid=d0a38fbf-480a-44f9-8c88-81888fc6618a"},"vehicle_type_id":"4","last_reported":1748888101,"current_range_meters":16800,"station_id":"ce4bh2h2rcd13ifvqdh0","pricing_plan_id":"cebpf4jnsgd1na2vs0mg"},{"bike_id":"6fedc378-f6ed-40ac-a195-34e6eda2b847","system_id":"levelo_inurba_marseille","lat":43.28669,"lon":5.38675,"is_reserved":false,"is_disabled":false,"rental_uris":{"android":"levelo://app?vid=6fedc378-f6ed-40ac-a195-34e6eda2b847","ios":"levelo://app?vid=6fedc378-f6ed-40ac-a195-34e6eda2b847"},"vehicle_type_id":"4","last_reported":1748888101,"current_range_meters":16800,"station_id":"ce4bh492rcd13ifvqdug","pricing_plan_id":"cebpf4jnsgd1na2vs0mg"},{"bike_id":"88f6a620-f32b-4106-8b28-9204e3787c24","system_id":"levelo_inurba_marseille","lat":43.29026,"lon":5.38646,"is_reserved":false,"is_disabled":true,"rental_uris":{"android":"levelo://app?vid=88f6a620-f32b-4106-8b28-9204e3787c24","ios":"levelo://app?vid=88f6a620-f32b-4106-8b28-9204e3787c24"},"vehicle_type_id":"4","last_reported":1748888101,"current_range_meters":17200,"station_id":"ce4bh4p2rcd13ifvqe0g","pricing_plan_id":"cebpf4jnsgd1na2vs0mg"},{"bike_id":"bf2e7a06-3f1e-4bde-be70-c1b331dc5cfc","system_id":"levelo_inurba_marseille","lat":43.26569,"lon":5.39003,"is_reserved":false,"is_disabled":true,"rental_uris":{"android":"levelo://app?vid=bf2e7a06-3f1e-4bde-be70-c1b331dc5cfc","ios":"levelo://app?vid=bf2e7a06-3f1e-4bde-be70-c1b331dc5cfc"},"vehicle_type_id":"4","last_reported":1748888101,"current_range_meters":17200,"station_id":"ce4bhe12rcd13ifvqf30","pricing_plan_id":"cebpf4jnsgd1na2vs0mg"},{"bike_id":"1e18ddb6-11e2-459f-9d76-ccf384c2cf2b","system_id":"levelo_inurba_marseille","lat":43.29067,"lon":5.37149,"is_reserved":false,"is_disabled":false,"rental_uris":{"android":"levelo://app?vid=1e18ddb6-11e2-459f-9d76-ccf384c2cf2b","ios":"levelo://app?vid=1e18ddb6-11e2-459f-9d76-ccf384c2cf2b"},"vehicle_type_id":"4","last_reported":1748888101,"current_range_meters":18800,"station_id":"ce4bh5p2rcd13ifvqe4g","pricing_plan_id":"cebpf4jnsgd1na2vs0mg"},{"bike_id":"b6d59a33-65b2-49ff-aeb6-a458e602cc9b","system_id":"levelo_inurba_marseille","lat":43.27495,"lon":5.42451,"is_reserved":false,"is_disabled":false,"rental_uris":{"android":"levelo://app?vid=b6d59a33-65b2-49ff-aeb6-a458e602cc9b","ios":"levelo://app?vid=b6d59a33-65b2-49ff-aeb6-a458e602cc9b"},"vehicle_type_id":"4","last_reported":1748888101,"current_range_meters":17200,"station_id":"ce4bhn92rcd13ifvqgrg","pricing_plan_id":"cebpf4jnsgd1na2vs0mg"},{"bike_id":"149f35ad-7083-4e3e-bc26-10c3f4561735","system_id":"levelo_inurba_marseille","lat":43.28961,"lon":5.36391,"is_reserved":false,"is_disabled":false,"rental_uris":{"android":"levelo://app?vid=149f35ad-7083-4e3e-bc26-10c3f4561735","ios":"levelo://app?vid=149f35ad-7083-4e3e-bc26-10c3f4561735"},"vehicle_type_id":"4","last_reported":1748888101,"current_range_meters":17200,"station_id":"ce4bhc92rcd13ifvqetg","pricing_plan_id":"cebpf4jnsgd1na2vs0mg"},{"bike_id":"c82b5027-8222-4a9f-a8f4-a0a1a2eef0c3","system_id":"levelo_inurba_marseille","lat":43.28945,"lon":5.366357,"is_reserved":false,"is_disabled":false,"rental_uris":{"android":"levelo://app?vid=c82b5027-8222-4a9f-a8f4-a0a1a2eef0c3","ios":"levelo://app?vid=c82b5027-8222-4a9f-a8f4-a0a1a2eef0c3"},"vehicle_type_id":"4","last_reported":1748888101,"current_range_meters":17600,"station_id":"ce4bhap2rcd13ifvqek0","pricing_plan_id":"cebpf4jnsgd1na2vs0mg"},{"bike_id":"b7557344-82f1-4a35-96d4-b128a1446f19","system_id":"levelo_inurba_marseille","lat":43.32372,"lon":5.38884,"is_reserved":false,"is_disabled":false,"rental_uris":{"android":"levelo://app?vid=b7557344-82f1-4a35-96d4-b128a1446f19","ios":"levelo://app?vid=b7557344-82f1-4a35-96d4-b128a1446f19"},"vehicle_type_id":"4","last_reported":1748888101,"current_range_meters":17200,"station_id":"ce4bhqp2rcd13ifvqhog","pricing_plan_id":"cebpf4jnsgd1na2vs0mg"},{"bike_id":"64bb3847-00c9-4dc0-b6f3-d3ad704790d7","system_id":"levelo_inurba_marseille","lat":43.29184,"lon":5.37126,"is_reserved":false,"is_disabled":false,"rental_uris":{"android":"levelo://app?vid=64bb3847-00c9-4dc0-b6f3-d3ad704790d7","ios":"levelo://app?vid=64bb3847-00c9-4dc0-b6f3-d3ad704790d7"},"vehicle_type_id":"4","last_reported":1748888101,"current_range_meters":17200,"station_id":"ce4bha92rcd13ifvqeh0","pricing_plan_id":"cebpf4jnsgd1na2vs0mg"},{"bike_id":"56ebd079-5325-4146-a252-c6e09bfabc00","system_id":"levelo_inurba_marseille","lat":43.318987,"lon":5.407341,"is_reserved":false,"is_disabled":false,"rental_uris":{"android":"levelo://app?vid=56ebd079-5325-4146-a252-c6e09bfabc00","ios":"levelo://app?vid=56ebd079-5325-4146-a252-c6e09bfabc00"},"vehicle_type_id":"4","last_reported":1748888101,"current_range_meters":17200,"station_id":"ce4bhq12rcd13ifvqhig","pricing_plan_id":"cebpf4jnsgd1na2vs0mg"},{"bike_id":"404a398b-2f3a-45d7-8b46-44561785e996","system_id":"levelo_inurba_marseille","lat":43.28079,"lon":5.39641,"is_reserved":false,"is_disabled":false,"rental_uris":{"android":"levelo://app?vid=404a398b-2f3a-45d7-8b46-44561785e996","ios":"levelo://app?vid=404a398b-2f3a-45d7-8b46-44561785e996"},"vehicle_type_id":"4","last_reported":1748888101,"current_range_meters":17200,"station_id":"ce4bho12rcd13ifvqh2g","pricing_plan_id":"cebpf4jnsgd1na2vs0mg"},{"bike_id":"05d79a84-39e8-4c20-923b-51b1f1dae499","system_id":"levelo_inurba_marseille","lat":43.29602,"lon":5.38111,"is_reserved":false,"is_disabled":false,"rental_uris":{"android":"levelo://app?vid=05d79a84-39e8-4c20-923b-51b1f1dae499","ios":"levelo://app?vid=05d79a84-39e8-4c20-923b-51b1f1dae499"},"vehicle_type_id":"4","last_reported":1748888101,"current_range_meters":17200,"station_id":"ce4bgl12rcd13ifvqbo0","pricing_plan_id":"cebpf4jnsgd1na2vs0mg"},{"bike_id":"a504d7e3-6d4c-46f5-9924-ab0f7e40c4b8","system_id":"levelo_inurba_marseille","lat":43.28569,"lon":5.39495,"is_reserved":false,"is_disabled":false,"rental_uris":{"android":"levelo://app?vid=a504d7e3-6d4c-46f5-9924-ab0f7e40c4b8","ios":"levelo://app?vid=a504d7e3-6d4c-46f5-9924-ab0f7e40c4b8"},"vehicle_type_id":"4","last_reported":1748888101,"current_range_meters":17600,"station_id":"ce4bh292rcd13ifvqdg0","pricing_plan_id":"cebpf4jnsgd1na2vs0mg"},{"bike_id":"b223b201-45c7-4df3-9afc-bec6d4855aba","system_id":"levelo_inurba_marseille","lat":43.31721,"lon":5.42403,"is_reserved":false,"is_disabled":false,"rental_uris":{"android":"levelo://app?vid=b223b201-45c7-4df3-9afc-bec6d4855aba","ios":"levelo://app?vid=b223b201-45c7-4df3-9afc-bec6d4855aba"},"vehicle_type_id":"4","last_reported":1748888101,"current_range_meters":17200,"station_id":"ce4bhp92rcd13ifvqhbg","pricing_plan_id":"cebpf4jnsgd1na2vs0mg"},{"bike_id":"50afdb6d-9661-46b8-a33b-aef0cb162e5c","system_id":"levelo_inurba_marseille","lat":43.29601,"lon":5.38098,"is_reserved":false,"is_disabled":false,"rental_uris":{"android":"levelo://app?vid=50afdb6d-9661-46b8-a33b-aef0cb162e5c","ios":"levelo://app?vid=50afdb6d-9661-46b8-a33b-aef0cb162e5c"},"vehicle_type_id":"4","last_reported":1748888101,"current_range_meters":17600,"station_id":"ce4bgl12rcd13ifvqbo0","pricing_plan_id":"cebpf4jnsgd1na2vs0mg"},{"bike_id":"f3254fa9-5ad1-4846-bfd4-4f8bc3692f7a","system_id":"levelo_inurba_marseille","lat":43.32613,"lon":5.42514,"is_reserved":false,"is_disabled":false,"rental_uris":{"android":"levelo://app?vid=f3254fa9-5ad1-4846-bfd4-4f8bc3692f7a","ios":"levelo://app?vid=f3254fa9-5ad1-4846-bfd4-4f8bc3692f7a"},"vehicle_type_id":"4","last_reported":1748888101,"current_range_meters":17600,"station_id":"","pricing_plan_id":"cebpf4jnsgd1na2vs0mg"},{"bike_id":"65cabaf6-be58-4526-8142-5f36324ed8b5","system_id":"levelo_inurba_marseille","lat":43.2937,"lon":5.37836,"is_reserved":false,"is_disabled":false,"rental_uris":{"android":"levelo://app?vid=65cabaf6-be58-4526-8142-5f36324ed8b5","ios":"levelo://app?vid=65cabaf6-be58-4526-8142-5f36324ed8b5"},"vehicle_type_id":"4","last_reported":1748888101,"current_range_meters":17600,"station_id":"ce4bgjh2rcd13ifvqbf0","pricing_plan_id":"cebpf4jnsgd1na2vs0mg"},{"bike_id":"25ce0f47-de9d-4e1d-8f73-064fa852fcec","system_id":"levelo_inurba_marseille","lat":43.27397,"lon":5.36274,"is_reserved":false,"is_disabled":false,"rental_uris":{"android":"levelo://app?vid=25ce0f47-de9d-4e1d-8f73-064fa852fcec","ios":"levelo://app?vid=25ce0f47-de9d-4e1d-8f73-064fa852fcec"},"vehicle_type_id":"4","last_reported":1748888101,"current_range_meters":17600,"station_id":"ce4bhbh2rcd13ifvqeo0","pricing_plan_id":"cebpf4jnsgd1na2vs0mg"},{"bike_id":"206735aa-cc71-47f7-9c67-d08fbdf682ee","system_id":"levelo_inurba_marseille","lat":43.25109,"lon":5.40334,"is_reserved":false,"is_disabled":false,"rental_uris":{"android":"levelo://app?vid=206735aa-cc71-47f7-9c67-d08fbdf682ee","ios":"levelo://app?vid=206735aa-cc71-47f7-9c67-d08fbdf682ee"},"vehicle_type_id":"4","last_reported":1748888101,"current_range_meters":17600,"station_id":"ce4bhlh2rcd13ifvqgig","pricing_plan_id":"cebpf4jnsgd1na2vs0mg"},{"bike_id":"e31c84f5-c44b-48e2-adf2-52a2beace6c7","system_id":"levelo_inurba_marseille","lat":43.31696,"lon":5.37426,"is_reserved":false,"is_disabled":false,"rental_uris":{"android":"levelo://app?vid=e31c84f5-c44b-48e2-adf2-52a2beace6c7","ios":"levelo://app?vid=e31c84f5-c44b-48e2-adf2-52a2beace6c7"},"vehicle_type_id":"4","last_reported":1748888101,"current_range_meters":17600,"station_id":"","pricing_plan_id":"cebpf4jnsgd1na2vs0mg"},{"bike_id":"54f805d3-8f24-4968-94ed-5856c60b2fe9","system_id":"levelo_inurba_marseille","lat":43.3053,"lon":5.38428,"is_reserved":false,"is_disabled":false,"rental_uris":{"android":"levelo://app?vid=54f805d3-8f24-4968-94ed-5856c60b2fe9","ios":"levelo://app?vid=54f805d3-8f24-4968-94ed-5856c60b2fe9"},"vehicle_type_id":"4","last_reported":1748888101,"current_range_meters":17600,"station_id":"ce4bgg92rcd13ifvqb30","pricing_plan_id":"cebpf4jnsgd1na2vs0mg"},{"bike_id":"1cb7c0a1-48f8-49ab-9106-52040059037c","system_id":"levelo_inurba_marseille","lat":43.23074,"lon":5.35493,"is_reserved":false,"is_disabled":false,"rental_uris":{"android":"levelo://app?vid=1cb7c0a1-48f8-49ab-9106-52040059037c","ios":"levelo://app?vid=1cb7c0a1-48f8-49ab-9106-52040059037c"},"vehicle_type_id":"4","last_reported":1748888101,"current_range_meters":17600,"station_id":"cpo3342slgdg3j2ifvpg","pricing_plan_id":"cebpf4jnsgd1na2vs0mg"},{"bike_id":"baddd368-6a8a-4241-92db-eb8820df5d32","system_id":"levelo_inurba_marseille","lat":43.265634,"lon":5.390027,"is_reserved":false,"is_disabled":false,"rental_uris":{"android":"levelo://app?vid=baddd368-6a8a-4241-92db-eb8820df5d32","ios":"levelo://app?vid=baddd368-6a8a-4241-92db-eb8820df5d32"},"vehicle_type_id":"4","last_reported":1748888101,"current_range_meters":17600,"station_id":"ce4bhe12rcd13ifvqf30","pricing_plan_id":"cebpf4jnsgd1na2vs0mg"},{"bike_id":"37bb9d36-2d72-43d2-86ad-a712780cacba","system_id":"levelo_inurba_marseille","lat":43.301375,"lon":5.398735,"is_reserved":false,"is_disabled":false,"rental_uris":{"android":"levelo://app?vid=37bb9d36-2d72-43d2-86ad-a712780cacba","ios":"levelo://app?vid=37bb9d36-2d72-43d2-86ad-a712780cacba"},"vehicle_type_id":"4","last_reported":1748888101,"current_range_meters":17600,"station_id":"ce4bh0h2rcd13ifvqd40","pricing_plan_id":"cebpf4jnsgd1na2vs0mg"},{"bike_id":"62ebcf99-52d8-4ec8-a1af-b944e399c355","system_id":"levelo_inurba_marseille","lat":43.27378,"lon":5.36256,"is_reserved":false,"is_disabled":false,"rental_uris":{"android":"levelo://app?vid=62ebcf99-52d8-4ec8-a1af-b944e399c355","ios":"levelo://app?vid=62ebcf99-52d8-4ec8-a1af-b944e399c355"},"vehicle_type_id":"4","last_reported":1748888101,"current_range_meters":17600,"station_id":"ce4bhbh2rcd13ifvqeo0","pricing_plan_id":"cebpf4jnsgd1na2vs0mg"},{"bike_id":"b1153d7a-f598-49a6-9d84-21fd5bc68506","system_id":"levelo_inurba_marseille","lat":43.30908,"lon":5.36845,"is_reserved":false,"is_disabled":false,"rental_uris":{"android":"levelo://app?vid=b1153d7a-f598-49a6-9d84-21fd5bc68506","ios":"levelo://app?vid=b1153d7a-f598-49a6-9d84-21fd5bc68506"},"vehicle_type_id":"4","last_reported":1748888101,"current_range_meters":18000,"station_id":"ce4bgn92rcd13ifvqbvg","pricing_plan_id":"cebpf4jnsgd1na2vs0mg"},{"bike_id":"6db8da9d-ed27-45cf-9935-6e37c99d0be9","system_id":"levelo_inurba_marseille","lat":43.262242,"lon":5.40158,"is_reserved":false,"is_disabled":false,"rental_uris":{"android":"levelo://app?vid=6db8da9d-ed27-45cf-9935-6e37c99d0be9","ios":"levelo://app?vid=6db8da9d-ed27-45cf-9935-6e37c99d0be9"},"vehicle_type_id":"4","last_reported":1748888101,"current_range_meters":18000,"station_id":"","pricing_plan_id":"cebpf4jnsgd1na2vs0mg"},{"bike_id":"a082cfc8-70c0-4316-b58b-8dca0406cb1a","system_id":"levelo_inurba_marseille","lat":43.25521,"lon":5.41755,"is_reserved":false,"is_disabled":false,"rental_uris":{"android":"levelo://app?vid=a082cfc8-70c0-4316-b58b-8dca0406cb1a","ios":"levelo://app?vid=a082cfc8-70c0-4316-b58b-8dca0406cb1a"},"vehicle_type_id":"4","last_reported":1748888101,"current_range_meters":18000,"station_id":"","pricing_plan_id":"cebpf4jnsgd1na2vs0mg"},{"bike_id":"e4a4f2e6-4427-4ee3-9200-c5f638b5fe70","system_id":"levelo_inurba_marseille","lat":43.31337,"lon":5.39698,"is_reserved":false,"is_disabled":false,"rental_uris":{"android":"levelo://app?vid=e4a4f2e6-4427-4ee3-9200-c5f638b5fe70","ios":"levelo://app?vid=e4a4f2e6-4427-4ee3-9200-c5f638b5fe70"},"vehicle_type_id":"4","last_reported":1748888101,"current_range_meters":18000,"station_id":"ce4bgvp2rcd13ifvqcu0","pricing_plan_id":"cebpf4jnsgd1na2vs0mg"},{"bike_id":"84d4ee4c-18b5-4754-9b0b-0a56caa66298","system_id":"levelo_inurba_marseille","lat":43.30163,"lon":5.39885,"is_reserved":false,"is_disabled":false,"rental_uris":{"android":"levelo://app?vid=84d4ee4c-18b5-4754-9b0b-0a56caa66298","ios":"levelo://app?vid=84d4ee4c-18b5-4754-9b0b-0a56caa66298"},"vehicle_type_id":"4","last_reported":1748888101,"current_range_meters":18000,"station_id":"ce4bh0h2rcd13ifvqd40","pricing_plan_id":"cebpf4jnsgd1na2vs0mg"},{"bike_id":"1eb5fdf7-8d1d-459a-97e0-84dc4c574ab5","system_id":"levelo_inurba_marseille","lat":43.258204,"lon":5.394461,"is_reserved":false,"is_disabled":false,"rental_uris":{"android":"levelo://app?vid=1eb5fdf7-8d1d-459a-97e0-84dc4c574ab5","ios":"levelo://app?vid=1eb5fdf7-8d1d-459a-97e0-84dc4c574ab5"},"vehicle_type_id":"4","last_reported":1748888101,"current_range_meters":18000,"station_id":"ce4bhip2rcd13ifvqft0","pricing_plan_id":"cebpf4jnsgd1na2vs0mg"},{"bike_id":"fe719a31-043d-4762-aa13-0736c163cf9a","system_id":"levelo_inurba_marseille","lat":43.28621,"lon":5.37058,"is_reserved":false,"is_disabled":false,"rental_uris":{"android":"levelo://app?vid=fe719a31-043d-4762-aa13-0736c163cf9a","ios":"levelo://app?vid=fe719a31-043d-4762-aa13-0736c163cf9a"},"vehicle_type_id":"4","last_reported":1748888101,"current_range_meters":18000,"station_id":"ce4bht12rcd13ifvqi60","pricing_plan_id":"cebpf4jnsgd1na2vs0mg"},{"bike_id":"4ea58469-eef3-410d-a8f2-e4b535817272","system_id":"levelo_inurba_marseille","lat":43.30951,"lon":5.39029,"is_reserved":false,"is_disabled":false,"rental_uris":{"android":"levelo://app?vid=4ea58469-eef3-410d-a8f2-e4b535817272","ios":"levelo://app?vid=4ea58469-eef3-410d-a8f2-e4b535817272"},"vehicle_type_id":"4","last_reported":1748888101,"current_range_meters":17600,"station_id":"ce4bgup2rcd13ifvqco0","pricing_plan_id":"cebpf4jnsgd1na2vs0mg"},{"bike_id":"1a7b95ab-af94-45a2-84c9-27c831bd8c47","system_id":"levelo_inurba_marseille","lat":43.31353,"lon":5.38496,"is_reserved":false,"is_disabled":false,"rental_uris":{"android":"levelo://app?vid=1a7b95ab-af94-45a2-84c9-27c831bd8c47","ios":"levelo://app?vid=1a7b95ab-af94-45a2-84c9-27c831bd8c47"},"vehicle_type_id":"4","last_reported":1748888101,"current_range_meters":18000,"station_id":"ce4bgt92rcd13ifvqcf0","pricing_plan_id":"cebpf4jnsgd1na2vs0mg"},{"bike_id":"7c5c8d5e-8cb6-4e7b-947f-01adf91171f6","system_id":"levelo_inurba_marseille","lat":43.286102,"lon":5.351139,"is_reserved":false,"is_disabled":false,"rental_uris":{"android":"levelo://app?vid=7c5c8d5e-8cb6-4e7b-947f-01adf91171f6","ios":"levelo://app?vid=7c5c8d5e-8cb6-4e7b-947f-01adf91171f6"},"vehicle_type_id":"4","last_reported":1748888101,"current_range_meters":18000,"station_id":"ce4bhch2rcd13ifvqeug","pricing_plan_id":"cebpf4jnsgd1na2vs0mg"},{"bike_id":"8a923581-a3c0-40d7-a981-8fceb2da8200","system_id":"levelo_inurba_marseille","lat":43.29603,"lon":5.38117,"is_reserved":false,"is_disabled":false,"rental_uris":{"android":"levelo://app?vid=8a923581-a3c0-40d7-a981-8fceb2da8200","ios":"levelo://app?vid=8a923581-a3c0-40d7-a981-8fceb2da8200"},"vehicle_type_id":"4","last_reported":1748888101,"current_range_meters":18000,"station_id":"ce4bgl12rcd13ifvqbo0","pricing_plan_id":"cebpf4jnsgd1na2vs0mg"},{"bike_id":"63739e37-248c-4b3d-88ee-45b4d48fec55","system_id":"levelo_inurba_marseille","lat":43.273722,"lon":5.362653,"is_reserved":false,"is_disabled":false,"rental_uris":{"android":"levelo://app?vid=63739e37-248c-4b3d-88ee-45b4d48fec55","ios":"levelo://app?vid=63739e37-248c-4b3d-88ee-45b4d48fec55"},"vehicle_type_id":"4","last_reported":1748888101,"current_range_meters":18000,"station_id":"","pricing_plan_id":"cebpf4jnsgd1na2vs0mg"},{"bike_id":"4db3c6d9-8cce-4462-80e5-9992e824999e","system_id":"levelo_inurba_marseille","lat":43.23179,"lon":5.39994,"is_reserved":false,"is_disabled":false,"rental_uris":{"android":"levelo://app?vid=4db3c6d9-8cce-4462-80e5-9992e824999e","ios":"levelo://app?vid=4db3c6d9-8cce-4462-80e5-9992e824999e"},"vehicle_type_id":"4","last_reported":1748888101,"current_range_meters":18800,"station_id":"ce4bhn12rcd13ifvqgqg","pricing_plan_id":"cebpf4jnsgd1na2vs0mg"},{"bike_id":"f63933a6-b91b-45de-8bc7-b4f655856c28","system_id":"levelo_inurba_marseille","lat":43.29274,"lon":5.36843,"is_reserved":false,"is_disabled":false,"rental_uris":{"android":"levelo://app?vid=f63933a6-b91b-45de-8bc7-b4f655856c28","ios":"levelo://app?vid=f63933a6-b91b-45de-8bc7-b4f655856c28"},"vehicle_type_id":"4","last_reported":1748888101,"current_range_meters":18800,"station_id":"ce4bhbp2rcd13ifvqesg","pricing_plan_id":"cebpf4jnsgd1na2vs0mg"},{"bike_id":"6b6b4a19-af88-4afc-a6a7-fecec84ebf4d","system_id":"levelo_inurba_marseille","lat":43.33604,"lon":5.41025,"is_reserved":false,"is_disabled":false,"rental_uris":{"android":"levelo://app?vid=6b6b4a19-af88-4afc-a6a7-fecec84ebf4d","ios":"levelo://app?vid=6b6b4a19-af88-4afc-a6a7-fecec84ebf4d"},"vehicle_type_id":"4","last_reported":1748888101,"current_range_meters":18800,"station_id":"ce4bhqh2rcd13ifvqhmg","pricing_plan_id":"cebpf4jnsgd1na2vs0mg"},{"bike_id":"a1bc7c0e-4e66-4b42-a1c3-d0c07ce1d655","system_id":"levelo_inurba_marseille","lat":43.26073,"lon":5.3939,"is_reserved":false,"is_disabled":false,"rental_uris":{"android":"levelo://app?vid=a1bc7c0e-4e66-4b42-a1c3-d0c07ce1d655","ios":"levelo://app?vid=a1bc7c0e-4e66-4b42-a1c3-d0c07ce1d655"},"vehicle_type_id":"4","last_reported":1748888101,"current_range_meters":18800,"station_id":"ce4bhh92rcd13ifvqfj0","pricing_plan_id":"cebpf4jnsgd1na2vs0mg"},{"bike_id":"859fcab1-74b2-40a1-b9e6-866c899a681e","system_id":"levelo_inurba_marseille","lat":43.27994,"lon":5.40017,"is_reserved":false,"is_disabled":false,"rental_uris":{"android":"levelo://app?vid=859fcab1-74b2-40a1-b9e6-866c899a681e","ios":"levelo://app?vid=859fcab1-74b2-40a1-b9e6-866c899a681e"},"vehicle_type_id":"4","last_reported":1748888101,"current_range_meters":18800,"station_id":"ce4bho92rcd13ifvqh4g","pricing_plan_id":"cebpf4jnsgd1na2vs0mg"},{"bike_id":"643129b5-e2fd-4deb-a71d-2e01d0877211","system_id":"levelo_inurba_marseille","lat":43.29976,"lon":5.37169,"is_reserved":false,"is_disabled":false,"rental_uris":{"android":"levelo://app?vid=643129b5-e2fd-4deb-a71d-2e01d0877211","ios":"levelo://app?vid=643129b5-e2fd-4deb-a71d-2e01d0877211"},"vehicle_type_id":"4","last_reported":1748888101,"current_range_meters":18800,"station_id":"ce4bgr92rcd13ifvqc7g","pricing_plan_id":"cebpf4jnsgd1na2vs0mg"},{"bike_id":"52815b2c-5295-4b36-bbbd-098a77e83b63","system_id":"levelo_inurba_marseille","lat":43.29003,"lon":5.35599,"is_reserved":false,"is_disabled":false,"rental_uris":{"android":"levelo://app?vid=52815b2c-5295-4b36-bbbd-098a77e83b63","ios":"levelo://app?vid=52815b2c-5295-4b36-bbbd-098a77e83b63"},"vehicle_type_id":"4","last_reported":1748888101,"current_range_meters":18800,"station_id":"ce4bhb92rcd13ifvqen0","pricing_plan_id":"cebpf4jnsgd1na2vs0mg"},{"bike_id":"8e45c534-9f38-4aaf-bfc0-20831aa0c778","system_id":"levelo_inurba_marseille","lat":43.26069,"lon":5.39372,"is_reserved":false,"is_disabled":false,"rental_uris":{"android":"levelo://app?vid=8e45c534-9f38-4aaf-bfc0-20831aa0c778","ios":"levelo://app?vid=8e45c534-9f38-4aaf-bfc0-20831aa0c778"},"vehicle_type_id":"4","last_reported":1748888101,"current_range_meters":18800,"station_id":"ce4bhh92rcd13ifvqfj0","pricing_plan_id":"cebpf4jnsgd1na2vs0mg"},{"bike_id":"4bc2c521-96b5-4a41-9f6d-af288057d939","system_id":"levelo_inurba_marseille","lat":43.24801,"lon":5.37449,"is_reserved":false,"is_disabled":false,"rental_uris":{"android":"levelo://app?vid=4bc2c521-96b5-4a41-9f6d-af288057d939","ios":"levelo://app?vid=4bc2c521-96b5-4a41-9f6d-af288057d939"},"vehicle_type_id":"4","last_reported":1748888101,"current_range_meters":18800,"station_id":"ce4bhgh2rcd13ifvqfb0","pricing_plan_id":"cebpf4jnsgd1na2vs0mg"},{"bike_id":"3f3ab5f9-427a-4ca3-a6bb-5d197065b941","system_id":"levelo_inurba_marseille","lat":43.29528,"lon":5.38548,"is_reserved":false,"is_disabled":false,"rental_uris":{"android":"levelo://app?vid=3f3ab5f9-427a-4ca3-a6bb-5d197065b941","ios":"levelo://app?vid=3f3ab5f9-427a-4ca3-a6bb-5d197065b941"},"vehicle_type_id":"4","last_reported":1748888101,"current_range_meters":18800,"station_id":"ce4bgih2rcd13ifvqba0","pricing_plan_id":"cebpf4jnsgd1na2vs0mg"},{"bike_id":"1c0d1be6-a5fc-47ef-9364-f57695611439","system_id":"levelo_inurba_marseille","lat":43.33204,"lon":5.413,"is_reserved":false,"is_disabled":false,"rental_uris":{"android":"levelo://app?vid=1c0d1be6-a5fc-47ef-9364-f57695611439","ios":"levelo://app?vid=1c0d1be6-a5fc-47ef-9364-f57695611439"},"vehicle_type_id":"4","last_reported":1748888101,"current_range_meters":18800,"station_id":"","pricing_plan_id":"cebpf4jnsgd1na2vs0mg"},{"bike_id":"2bddebcb-a82e-43fa-af7e-1afd480a67ed","system_id":"levelo_inurba_marseille","lat":43.33153,"lon":5.38164,"is_reserved":false,"is_disabled":false,"rental_uris":{"android":"levelo://app?vid=2bddebcb-a82e-43fa-af7e-1afd480a67ed","ios":"levelo://app?vid=2bddebcb-a82e-43fa-af7e-1afd480a67ed"},"vehicle_type_id":"4","last_reported":1748888101,"current_range_meters":19200,"station_id":"","pricing_plan_id":"cebpf4jnsgd1na2vs0mg"},{"bike_id":"24300ffc-8f39-4d85-b0a9-36ecfb95fcf1","system_id":"levelo_inurba_marseille","lat":43.28034,"lon":5.36951,"is_reserved":false,"is_disabled":false,"rental_uris":{"android":"levelo://app?vid=24300ffc-8f39-4d85-b0a9-36ecfb95fcf1","ios":"levelo://app?vid=24300ffc-8f39-4d85-b0a9-36ecfb95fcf1"},"vehicle_type_id":"4","last_reported":1748888101,"current_range_meters":19200,"station_id":"ce4bha12rcd13ifvqef0","pricing_plan_id":"cebpf4jnsgd1na2vs0mg"},{"bike_id":"e073c3b9-579e-431b-8c54-b6a28caa0933","system_id":"levelo_inurba_marseille","lat":43.229344,"lon":5.353862,"is_reserved":false,"is_disabled":false,"rental_uris":{"android":"levelo://app?vid=e073c3b9-579e-431b-8c54-b6a28caa0933","ios":"levelo://app?vid=e073c3b9-579e-431b-8c54-b6a28caa0933"},"vehicle_type_id":"4","last_reported":1748888101,"current_range_meters":19200,"station_id":"cpo3532slgdg3j2ikp40","pricing_plan_id":"cebpf4jnsgd1na2vs0mg"},{"bike_id":"688fc325-533f-4f3b-84a5-f23dce7e3c29","system_id":"levelo_inurba_marseille","lat":43.28614,"lon":5.35106,"is_reserved":false,"is_disabled":false,"rental_uris":{"android":"levelo://app?vid=688fc325-533f-4f3b-84a5-f23dce7e3c29","ios":"levelo://app?vid=688fc325-533f-4f3b-84a5-f23dce7e3c29"},"vehicle_type_id":"4","last_reported":1748888101,"current_range_meters":19200,"station_id":"ce4bhch2rcd13ifvqeug","pricing_plan_id":"cebpf4jnsgd1na2vs0mg"},{"bike_id":"3a88b10b-dbf8-425a-944c-99ea78003db4","system_id":"levelo_inurba_marseille","lat":43.29611,"lon":5.38096,"is_reserved":false,"is_disabled":false,"rental_uris":{"android":"levelo://app?vid=3a88b10b-dbf8-425a-944c-99ea78003db4","ios":"levelo://app?vid=3a88b10b-dbf8-425a-944c-99ea78003db4"},"vehicle_type_id":"4","last_reported":1748888101,"current_range_meters":19200,"station_id":"ce4bgl12rcd13ifvqbo0","pricing_plan_id":"cebpf4jnsgd1na2vs0mg"},{"bike_id":"e0730ca5-5bae-479d-bde9-c0a0eca973f7","system_id":"levelo_inurba_marseille","lat":43.28662,"lon":5.36361,"is_reserved":false,"is_disabled":false,"rental_uris":{"android":"levelo://app?vid=e0730ca5-5bae-479d-bde9-c0a0eca973f7","ios":"levelo://app?vid=e0730ca5-5bae-479d-bde9-c0a0eca973f7"},"vehicle_type_id":"4","last_reported":1748888101,"current_range_meters":19200,"station_id":"ce4bhah2rcd13ifvqej0","pricing_plan_id":"cebpf4jnsgd1na2vs0mg"},{"bike_id":"54a0fab2-5088-492a-b433-f8c4e0a11dfa","system_id":"levelo_inurba_marseille","lat":43.30136,"lon":5.39879,"is_reserved":false,"is_disabled":false,"rental_uris":{"android":"levelo://app?vid=54a0fab2-5088-492a-b433-f8c4e0a11dfa","ios":"levelo://app?vid=54a0fab2-5088-492a-b433-f8c4e0a11dfa"},"vehicle_type_id":"4","last_reported":1748888101,"current_range_meters":19600,"station_id":"ce4bh0h2rcd13ifvqd40","pricing_plan_id":"cebpf4jnsgd1na2vs0mg"},{"bike_id":"c9fd76a4-aeda-46a4-9cba-2a82f752217f","system_id":"levelo_inurba_marseille","lat":43.27999,"lon":5.41661,"is_reserved":false,"is_disabled":false,"rental_uris":{"android":"levelo://app?vid=c9fd76a4-aeda-46a4-9cba-2a82f752217f","ios":"levelo://app?vid=c9fd76a4-aeda-46a4-9cba-2a82f752217f"},"vehicle_type_id":"4","last_reported":1748888101,"current_range_meters":19600,"station_id":"ce4bho12rcd13ifvqh1g","pricing_plan_id":"cebpf4jnsgd1na2vs0mg"},{"bike_id":"67699d38-c111-46d8-97cd-e0d9e4fbd93a","system_id":"levelo_inurba_marseille","lat":43.25115,"lon":5.4032,"is_reserved":false,"is_disabled":false,"rental_uris":{"android":"levelo://app?vid=67699d38-c111-46d8-97cd-e0d9e4fbd93a","ios":"levelo://app?vid=67699d38-c111-46d8-97cd-e0d9e4fbd93a"},"vehicle_type_id":"4","last_reported":1748888101,"current_range_meters":19600,"station_id":"ce4bhlh2rcd13ifvqgig","pricing_plan_id":"cebpf4jnsgd1na2vs0mg"},{"bike_id":"5b536054-600d-4e23-8558-f74f4f3ec365","system_id":"levelo_inurba_marseille","lat":43.330248,"lon":5.390406,"is_reserved":false,"is_disabled":false,"rental_uris":{"android":"levelo://app?vid=5b536054-600d-4e23-8558-f74f4f3ec365","ios":"levelo://app?vid=5b536054-600d-4e23-8558-f74f4f3ec365"},"vehicle_type_id":"4","last_reported":1748888101,"current_range_meters":19600,"station_id":"ce4bhr92rcd13ifvqhrg","pricing_plan_id":"cebpf4jnsgd1na2vs0mg"},{"bike_id":"4e17c123-8236-4a02-a8a2-a61cdc625d7e","system_id":"levelo_inurba_marseille","lat":43.30482,"lon":5.37089,"is_reserved":false,"is_disabled":false,"rental_uris":{"android":"levelo://app?vid=4e17c123-8236-4a02-a8a2-a61cdc625d7e","ios":"levelo://app?vid=4e17c123-8236-4a02-a8a2-a61cdc625d7e"},"vehicle_type_id":"4","last_reported":1748888101,"current_range_meters":19600,"station_id":"","pricing_plan_id":"cebpf4jnsgd1na2vs0mg"},{"bike_id":"f76fef82-f050-49ee-893b-b71824e9c659","system_id":"levelo_inurba_marseille","lat":43.28699,"lon":5.37392,"is_reserved":false,"is_disabled":false,"rental_uris":{"android":"levelo://app?vid=f76fef82-f050-49ee-893b-b71824e9c659","ios":"levelo://app?vid=f76fef82-f050-49ee-893b-b71824e9c659"},"vehicle_type_id":"4","last_reported":1748888101,"current_range_meters":19600,"station_id":"ce4bh3p2rcd13ifvqdq0","pricing_plan_id":"cebpf4jnsgd1na2vs0mg"},{"bike_id":"df8a6a96-0f89-4d7e-904c-ba52e557937a","system_id":"levelo_inurba_marseille","lat":43.28417,"lon":5.35004,"is_reserved":false,"is_disabled":false,"rental_uris":{"android":"levelo://app?vid=df8a6a96-0f89-4d7e-904c-ba52e557937a","ios":"levelo://app?vid=df8a6a96-0f89-4d7e-904c-ba52e557937a"},"vehicle_type_id":"4","last_reported":1748888101,"current_range_meters":20000,"station_id":"ce4bhbh2rcd13ifvqepg","pricing_plan_id":"cebpf4jnsgd1na2vs0mg"},{"bike_id":"737c878b-043d-4dac-9456-78be4bab53ca","system_id":"levelo_inurba_marseille","lat":43.34139,"lon":5.40909,"is_reserved":false,"is_disabled":false,"rental_uris":{"android":"levelo://app?vid=737c878b-043d-4dac-9456-78be4bab53ca","ios":"levelo://app?vid=737c878b-043d-4dac-9456-78be4bab53ca"},"vehicle_type_id":"4","last_reported":1748888101,"current_range_meters":19200,"station_id":"ce4bhqh2rcd13ifvqhlg","pricing_plan_id":"cebpf4jnsgd1na2vs0mg"},