{"last_updated":1683547995,"ttl":30,"version":"2.2","data":{"bikes":[{"bike_id":"7c92b4ce-1f2d-4a0b-befa-a36d167ee8b0","system_id":"levelo_inurba_marseille","lat":43.309076,"lon":5.368465,"is_reserved":false,"is_disabled":false,"rental_uris":{"android":"levelo://app?vid=7c92b4ce-1f2d-4a0b-befa-a36d167ee8b0","ios":"levelo://app?vid=7c92b4ce-1f2d-4a0b-befa-a36d167ee8b0"},"vehicle_type_id":"4","last_reported":1683547996,"current_range_meters":20000,"station_id":"ce4bgn92rcd13ifvqbvg","pricing_plan_id":"free"},{"bike_id":"b129ce1f-bed3-47aa-959f-78e9b51c9800","system_id":"levelo_inurba_marseille","lat":43.309076,"lon":5.368465,"is_reserved":false,"is_disabled":false,"rental_uris":{"android":"levelo://app?vid=b129ce1f-bed3-47aa-959f-78e9b51c9800","ios":"levelo://app?vid=b129ce1f-bed3-47aa-959f-78e9b51c9800"},"vehicle_type_id":"4","last_reported":1683547996,"current_range_meters":25600,"station_id":"ce4bgn92rcd13ifvqbvg","pricing_plan_id":"free"},{"bike_id":"9da21343-2e90-49c0-8078-26d32d4fe9ef","system_id":"levelo_inurba_marseille","lat":43.309076,"lon":5.368465,"is_reserved":false,"is_disabled":false,"rental_uris":{"android":"levelo://app?vid=9da21343-2e90-49c0-8078-26d32d4fe9ef","ios":"levelo://app?vid=9da21343-2e90-49c0-8078-26d32d4fe9ef"},"vehicle_type_id":"4","last_reported":1683547996,"current_range_meters":0,"station_id":"ce4bgn92rcd13ifvqbvg","pricing_plan_id":"free"},{"bike_id":"fc345fab-b0ec-4371-a408-88fea7370824","system_id":"levelo_inurba_marseille","lat":43.305706,"lon":5.365654,"is_reserved":false,"is_disabled":false,"rental_uris":{"android":"levelo://app?vid=fc345fab-b0ec-4371-a408-88fea7370824","ios":"levelo://app?vid=fc345fab-b0ec-4371-a408-88fea7370824"},"vehicle_type_id":"4","last_reported":1683547996,"current_range_meters":22000,"station_id":"ce4bgs12rcd13ifvqcag","pricing_plan_id":"free"},{"bike_id":"53e1f022-50ac-4557-9b75-9c0cec590d29","system_id":"levelo_inurba_marseille","lat":43.305706,"lon":5.365654,"is_reserved":false,"is_disabled":false,"rental_uris":{"android":"levelo://app?vid=53e1f022-50ac-4557-9b75-9c0cec590d29","ios":"levelo://app?vid=53e1f022-50ac-4557-9b75-9c0cec590d29"},"vehicle_type_id":"4","last_reported":1683547996,"current_range_meters":17600,"station_id":"ce4bgs12rcd13ifvqcag","pricing_plan_id":"free"},{"bike_id":"601ad10a-f076-4932-be91-a556ec34e1b6","system_id":"levelo_inurba_marseille","lat":43.30535,"lon":5.36554,"is_reserved":false,"is_disabled":false,"rental_uris":{"android":"levelo://app?vid=601ad10a-f076-4932-be91-a556ec34e1b6","ios":"levelo://app?vid=601ad10a-f076-4932-be91-a556ec34e1b6"},"vehicle_type_id":"4","last_reported":1683547996,"current_range_meters":20400,"station_id":"","pricing_plan_id":"free"},{"bike_id":"6b7ffb23-1214-486b-a0dd-d055a3f41fa6","system_id":"levelo_inurba_marseille","lat":43.31116,"lon":5.37766,"is_reserved":false,"is_disabled":false,"rental_uris":{"android":"levelo://app?vid=6b7ffb23-1214-486b-a0dd-d055a3f41fa6","ios":"levelo://app?vid=6b7ffb23-1214-486b-a0dd-d055a3f41fa6"},"vehicle_type_id":"4","last_reported":1683547996,"current_range_meters":20000,"station_id":"ce4bgt92rcd13ifvqcg0","pricing_plan_id":"free"},{"bike_id":"d261c220-2cf1-4f3c-99cd-92024a9dc4bb","system_id":"levelo_inurba_marseille","lat":43.30297,"lon":5.36861,"is_reserved":false,"is_disabled":false,"rental_uris":{"android":"levelo://app?vid=d261c220-2cf1-4f3c-99cd-92024a9dc4bb","ios":"levelo://app?vid=d261c220-2cf1-4f3c-99cd-92024a9dc4bb"},"vehicle_type_id":"4","last_reported":1683547996,"current_range_meters":0,"station_id":"","pricing_plan_id":"free"},{"bike_id":"243d58c6-677a-4ef5-ac10-1ca5621449fc","system_id":"levelo_inurba_marseille","lat":43.30303,"lon":5.36445,"is_reserved":false,"is_disabled":false,"rental_uris":{"android":"levelo://app?vid=243d58c6-677a-4ef5-ac10-1ca5621449fc","ios":"levelo://app?vid=243d58c6-677a-4ef5-ac10-1ca5621449fc"},"vehicle_type_id":"4","last_reported":1683547996,"current_range_meters":9600,"station_id":"","pricing_plan_id":"free"},{"bike_id":"26a54936-aee3-461c-9d72-83644180986d","system_id":"levelo_inurba_marseille","lat":43.315289,"lon":5.380349,"is_reserved":false,"is_disabled":false,"rental_uris":{"android":"levelo://app?vid=26a54936-aee3-461c-9d72-83644180986d","ios":"levelo://app?vid=26a54936-aee3-461c-9d72-83644180986d"},"vehicle_type_id":"4","last_reported":1683547996,"current_range_meters":4800,"station_id":"ce4bhsp2rcd13ifvqi50","pricing_plan_id":"free"},{"bike_id":"23dea781-409e-4a3e-ba82-bc8f8011fb7e","system_id":"levelo_inurba_marseille","lat":43.30803,"lon":5.38155,"is_reserved":false,"is_disabled":false,"rental_uris":{"android":"levelo://app?vid=23dea781-409e-4a3e-ba82-bc8f8011fb7e","ios":"levelo://app?vid=23dea781-409e-4a3e-ba82-bc8f8011fb7e"},"vehicle_type_id":"4","last_reported":1683547996,"current_range_meters":12400,"station_id":"ce4bgt12rcd13ifvqce0","pricing_plan_id":"free"},{"bike_id":"1b0aab92-141f-4e9c-9255-b0fb34f5e652","system_id":"levelo_inurba_marseille","lat":43.308012,"lon":5.381511,"is_reserved":false,"is_disabled":false,"rental_uris":{"android":"levelo://app?vid=1b0aab92-141f-4e9c-9255-b0fb34f5e652","ios":"levelo://app?vid=1b0aab92-141f-4e9c-9255-b0fb34f5e652"},"vehicle_type_id":"4","last_reported":1683547996,"current_range_meters":12000,"station_id":"ce4bgt12rcd13ifvqce0","pricing_plan_id":"free"},{"bike_id":"12b09a8f-4393-4158-8524-10c961332826","system_id":"levelo_inurba_marseille","lat":43.313571,"lon":5.384829,"is_reserved":false,"is_disabled":false,"rental_uris":{"android":"levelo://app?vid=12b09a8f-4393-4158-8524-10c961332826","ios":"levelo://app?vid=12b09a8f-4393-4158-8524-10c961332826"},"vehicle_type_id":"4","last_reported":1683547996,"current_range_meters":6400,"station_id":"ce4bgt92rcd13ifvqcf0","pricing_plan_id":"free"},{"bike_id":"56525555-2719-43a7-b6e9-31a899e769c2","system_id":"levelo_inurba_marseille","lat":43.313571,"lon":5.384829,"is_reserved":false,"is_disabled":false,"rental_uris":{"android":"levelo://app?vid=56525555-2719-43a7-b6e9-31a899e769c2","ios":"levelo://app?vid=56525555-2719-43a7-b6e9-31a899e769c2"},"vehicle_type_id":"4","last_reported":1683547996,"current_range_meters":19200,"station_id":"ce4bgt92rcd13ifvqcf0","pricing_plan_id":"free"},{"bike_id":"11355a26-ce04-4637-b186-e63c722271b4","system_id":"levelo_inurba_marseille","lat":43.31375,"lon":5.38518,"is_reserved":false,"is_disabled":false,"rental_uris":{"android":"levelo://app?vid=11355a26-ce04-4637-b186-e63c722271b4","ios":"levelo://app?vid=11355a26-ce04-4637-b186-e63c722271b4"},"vehicle_type_id":"4","last_reported":1683547996,"current_range_meters":27600,"station_id":"ce4bgt92rcd13ifvqcf0","pricing_plan_id":"free"},{"bike_id":"e67e733c-6b53-4c7c-8dea-0693ac61a34c","system_id":"levelo_inurba_marseille","lat":43.32631,"lon":5.36109,"is_reserved":false,"is_disabled":false,"rental_uris":{"android":"levelo://app?vid=e67e733c-6b53-4c7c-8dea-0693ac61a34c","ios":"levelo://app?vid=e67e733c-6b53-4c7c-8dea-0693ac61a34c"},"vehicle_type_id":"4","last_reported":1683547996,"current_range_meters":10000,"station_id":"","pricing_plan_id":"free"},{"bike_id":"bce049de-ebb8-476c-a439-b2024351ea7f","system_id":"levelo_inurba_marseille","lat":43.299243,"lon":5.374807,"is_reserved":false,"is_disabled":false,"rental_uris":{"android":"levelo://app?vid=bce049de-ebb8-476c-a439-b2024351ea7f","ios":"levelo://app?vid=bce049de-ebb8-476c-a439-b2024351ea7f"},"vehicle_type_id":"4","last_reported":1683547996,"current_range_meters":31200,"station_id":"ce4bgjh2rcd13ifvqbg0","pricing_plan_id":"free"},{"bike_id":"f91de8b4-023e-4799-a0a1-2e86398c6909","system_id":"levelo_inurba_marseille","lat":43.32828,"lon":5.36679,"is_reserved":false,"is_disabled":false,"rental_uris":{"android":"levelo://app?vid=f91de8b4-023e-4799-a0a1-2e86398c6909","ios":"levelo://app?vid=f91de8b4-023e-4799-a0a1-2e86398c6909"},"vehicle_type_id":"4","last_reported":1683547996,"current_range_meters":0,"station_id":"ce4bhs92rcd13ifvqi0g","pricing_plan_id":"free"},{"bike_id":"10901652-e96d-4443-bce3-b057adbb5a10","system_id":"levelo_inurba_marseille","lat":43.3283,"lon":5.3669,"is_reserved":false,"is_disabled":false,"rental_uris":{"android":"levelo://app?vid=10901652-e96d-4443-bce3-b057adbb5a10","ios":"levelo://app?vid=10901652-e96d-4443-bce3-b057adbb5a10"},"vehicle_type_id":"4","last_reported":1683547996,"current_range_meters":15200,"station_id":"ce4bhs92rcd13ifvqi0g","pricing_plan_id":"free"},{"bike_id":"bdcb3609-3046-4ad3-91e1-d02ffa249be7","system_id":"levelo_inurba_marseille","lat":43.328371,"lon":5.366909,"is_reserved":false,"is_disabled":false,"rental_uris":{"android":"levelo://app?vid=bdcb3609-3046-4ad3-91e1-d02ffa249be7","ios":"levelo://app?vid=bdcb3609-3046-4ad3-91e1-d02ffa249be7"},"vehicle_type_id":"4","last_reported":1683547996,"current_range_meters":22400,"station_id":"ce4bhs92rcd13ifvqi0g","pricing_plan_id":"free"},{"bike_id":"78692c98-4d5e-49dd-933a-ce0eaa7b7cb2","system_id":"levelo_inurba_marseille","lat":43.328371,"lon":5.366909,"is_reserved":false,"is_disabled":false,"rental_uris":{"android":"levelo://app?vid=78692c98-4d5e-49dd-933a-ce0eaa7b7cb2","ios":"levelo://app?vid=78692c98-4d5e-49dd-933a-ce0eaa7b7cb2"},"vehicle_type_id":"4","last_reported":1683547996,"current_range_meters":5200,"station_id":"ce4bhs92rcd13ifvqi0g","pricing_plan_id":"free"},{"bike_id":"3110ca4e-35a4-40cf-b257-a851b9586fe6","system_id":"levelo_inurba_marseille","lat":43.32746,"lon":5.37616,"is_reserved":false,"is_disabled":false,"rental_uris":{"android":"levelo://app?vid=3110ca4e-35a4-40cf-b257-a851b9586fe6","ios":"levelo://app?vid=3110ca4e-35a4-40cf-b257-a851b9586fe6"},"vehicle_type_id":"4","last_reported":1683547996,"current_range_meters":0,"station_id":"","pricing_plan_id":"free"},{"bike_id":"946d8039-9965-495b-90d5-72fc78ec45e4","system_id":"levelo_inurba_marseille","lat":43.29618,"lon":5.37155,"is_reserved":false,"is_disabled":false,"rental_uris":{"android":"levelo://app?vid=946d8039-9965-495b-90d5-72fc78ec45e4","ios":"levelo://app?vid=946d8039-9965-495b-90d5-72fc78ec45e4"},"vehicle_type_id":"4","last_reported":1683547996,"current_range_meters":20000,"station_id":"","pricing_plan_id":"free"},{"bike_id":"2a9c521d-aab4-47a8-ae0f-d712c8a8f7cf","system_id":"levelo_inurba_marseille","lat":43.309589,"lon":5.390258,"is_reserved":false,"is_disabled":false,"rental_uris":{"android":"levelo://app?vid=2a9c521d-aab4-47a8-ae0f-d712c8a8f7cf","ios":"levelo://app?vid=2a9c521d-aab4-47a8-ae0f-d712c8a8f7cf"},"vehicle_type_id":"4","last_reported":1683547996,"current_range_meters":21200,"station_id":"ce4bgup2rcd13ifvqco0","pricing_plan_id":"free"},{"bike_id":"f4993f49-7624-4b70-8ba2-5cb550bdda83","system_id":"levelo_inurba_marseille","lat":43.29606,"lon":5.37372,"is_reserved":false,"is_disabled":false,"rental_uris":{"android":"levelo://app?vid=f4993f49-7624-4b70-8ba2-5cb550bdda83","ios":"levelo://app?vid=f4993f49-7624-4b70-8ba2-5cb550bdda83"},"vehicle_type_id":"4","last_reported":1683547996,"current_range_meters":19200,"station_id":"","pricing_plan_id":"free"},{"bike_id":"42651365-18f0-4c50-8a0d-e703b39c6f6b","system_id":"levelo_inurba_marseille","lat":43.309589,"lon":5.390258,"is_reserved":false,"is_disabled":false,"rental_uris":{"android":"levelo://app?vid=42651365-18f0-4c50-8a0d-e703b39c6f6b","ios":"levelo://app?vid=42651365-18f0-4c50-8a0d-e703b39c6f6b"},"vehicle_type_id":"4","last_reported":1683547996,"current_range_meters":16000,"station_id":"ce4bgup2rcd13ifvqco0","pricing_plan_id":"free"},{"bike_id":"8cb35e39-5968-414e-baf7-621e9818e214","system_id":"levelo_inurba_marseille","lat":43.2997,"lon":5.38493,"is_reserved":false,"is_disabled":false,"rental_uris":{"android":"levelo://app?vid=8cb35e39-5968-414e-baf7-621e9818e214","ios":"levelo://app?vid=8cb35e39-5968-414e-baf7-621e9818e214"},"vehicle_type_id":"4","last_reported":1683547996,"current_range_meters":0,"station_id":"ce4bgj92rcd13ifvqbd0","pricing_plan_id":"free"},{"bike_id":"d32d2105-d4ba-4b9e-bc29-8de9c2e83804","system_id":"levelo_inurba_marseille","lat":43.29279,"lon":5.368418,"is_reserved":false,"is_disabled":false,"rental_uris":{"android":"levelo://app?vid=d32d2105-d4ba-4b9e-bc29-8de9c2e83804","ios":"levelo://app?vid=d32d2105-d4ba-4b9e-bc29-8de9c2e83804"},"vehicle_type_id":"4","last_reported":1683547996,"current_range_meters":13600,"station_id":"ce4bhbp2rcd13ifvqesg","pricing_plan_id":"free"},{"bike_id":"828b7ca4-5578-4bb3-bfe2-d53af4e50c5a","system_id":"levelo_inurba_marseille","lat":43.29229,"lon":5.36055,"is_reserved":false,"is_disabled":false,"rental_uris":{"android":"levelo://app?vid=828b7ca4-5578-4bb3-bfe2-d53af4e50c5a","ios":"levelo://app?vid=828b7ca4-5578-4bb3-bfe2-d53af4e50c5a"},"vehicle_type_id":"4","last_reported":1683547996,"current_range_meters":20400,"station_id":"ce4bhbh2rcd13ifvqeqg","pricing_plan_id":"free"},{"bike_id":"88efc600-59ab-4021-b07c-0a2d4d48f7e4","system_id":"levelo_inurba_marseille","lat":43.298764,"lon":5.388973,"is_reserved":false,"is_disabled":false,"rental_uris":{"android":"levelo://app?vid=88efc600-59ab-4021-b07c-0a2d4d48f7e4","ios":"levelo://app?vid=88efc600-59ab-4021-b07c-0a2d4d48f7e4"},"vehicle_type_id":"4","last_reported":1683547996,"current_range_meters":7600,"station_id":"ce4bh392rcd13ifvqdl0","pricing_plan_id":"free"},{"bike_id":"d39d90bd-f1b6-4a5b-853a-067c439e5eb5","system_id":"levelo_inurba_marseille","lat":43.309038,"lon":5.396546,"is_reserved":false,"is_disabled":false,"rental_uris":{"android":"levelo://app?vid=d39d90bd-f1b6-4a5b-853a-067c439e5eb5","ios":"levelo://app?vid=d39d90bd-f1b6-4a5b-853a-067c439e5eb5"},"vehicle_type_id":"4","last_reported":1683547996,"current_range_meters":18400,"station_id":"ce4bh012rcd13ifvqcv0","pricing_plan_id":"free"},{"bike_id":"05b49843-c81e-4079-b32a-c8b796a668fc","system_id":"levelo_inurba_marseille","lat":43.29068,"lon":5.37173,"is_reserved":false,"is_disabled":false,"rental_uris":{"android":"levelo://app?vid=05b49843-c81e-4079-b32a-c8b796a668fc","ios":"levelo://app?vid=05b49843-c81e-4079-b32a-c8b796a668fc"},"vehicle_type_id":"4","last_reported":1683547996,"current_range_meters":14400,"station_id":"ce4bh5p2rcd13ifvqe4g","pricing_plan_id":"free"},{"bike_id":"ae125e54-ec42-436c-a056-d3873cffdbf8","system_id":"levelo_inurba_marseille","lat":43.290624,"lon":5.359245,"is_reserved":false,"is_disabled":false,"rental_uris":{"android":"levelo://app?vid=ae125e54-ec42-436c-a056-d3873cffdbf8","ios":"levelo://app?vid=ae125e54-ec42-436c-a056-d3873cffdbf8"},"vehicle_type_id":"4","last_reported":1683547996,"current_range_meters":30000,"station_id":"ce4bha92rcd13ifvqeg0","pricing_plan_id":"free"},{"bike_id":"09731f6e-88a4-4130-a067-1981df68a531","system_id":"levelo_inurba_marseille","lat":43.290452,"lon":5.359134,"is_reserved":false,"is_disabled":false,"rental_uris":{"android":"levelo://app?vid=09731f6e-88a4-4130-a067-1981df68a531","ios":"levelo://app?vid=09731f6e-88a4-4130-a067-1981df68a531"},"vehicle_type_id":"4","last_reported":1683547996,"current_range_meters":16000,"station_id":"","pricing_plan_id":"free"},{"bike_id":"85f10dfd-90c6-4c2b-bf64-d7e5956eb6f5","system_id":"levelo_inurba_marseille","lat":43.290624,"lon":5.359245,"is_reserved":false,"is_disabled":false,"rental_uris":{"android":"levelo://app?vid=85f10dfd-90c6-4c2b-bf64-d7e5956eb6f5","ios":"levelo://app?vid=85f10dfd-90c6-4c2b-bf64-d7e5956eb6f5"},"vehicle_type_id":"4","last_reported":1683547996,"current_range_meters":0,"station_id":"ce4bha92rcd13ifvqeg0","pricing_plan_id":"free"},{"bike_id":"e81ff2e7-8040-4fb8-98e9-59088d8b945a","system_id":"levelo_inurba_marseille","lat":43.289184,"lon":5.366408,"is_reserved":false,"is_disabled":false,"rental_uris":{"android":"levelo://app?vid=e81ff2e7-8040-4fb8-98e9-59088d8b945a","ios":"levelo://app?vid=e81ff2e7-8040-4fb8-98e9-59088d8b945a"},"vehicle_type_id":"4","last_reported":1683547996,"current_range_meters":4400,"station_id":"ce4bhap2rcd13ifvqek0","pricing_plan_id":"free"},{"bike_id":"66fbc1f8-e46b-4c0b-bfbd-c9672b377265","system_id":"levelo_inurba_marseille","lat":43.3304,"lon":5.38914,"is_reserved":false,"is_disabled":false,"rental_uris":{"android":"levelo://app?vid=66fbc1f8-e46b-4c0b-bfbd-c9672b377265","ios":"levelo://app?vid=66fbc1f8-e46b-4c0b-bfbd-c9672b377265"},"vehicle_type_id":"4","last_reported":1683547996,"current_range_meters":7600,"station_id":"ce4bhr92rcd13ifvqhrg","pricing_plan_id":"free"},{"bike_id":"a2c97554-4a5d-444a-a4eb-63522066da9a","system_id":"levelo_inurba_marseille","lat":43.33044,"lon":5.38921,"is_reserved":false,"is_disabled":false,"rental_uris":{"android":"levelo://app?vid=a2c97554-4a5d-444a-a4eb-63522066da9a","ios":"levelo://app?vid=a2c97554-4a5d-444a-a4eb-63522066da9a"},"vehicle_type_id":"4","last_reported":1683547996,"current_range_meters":21200,"station_id":"ce4bhr92rcd13ifvqhrg","pricing_plan_id":"free"},{"bike_id":"7c196c04-2ed0-423d-ac7f-1269dbf5c203","system_id":"levelo_inurba_marseille","lat":43.295169,"lon":5.390426,"is_reserved":false,"is_disabled":false,"rental_uris":{"android":"levelo://app?vid=7c196c04-2ed0-423d-ac7f-1269dbf5c203","ios":"levelo://app?vid=7c196c04-2ed0-423d-ac7f-1269dbf5c203"},"vehicle_type_id":"4","last_reported":1683547996,"current_range_meters":9200,"station_id":"ce4bh3p2rcd13ifvqdp0","pricing_plan_id":"free"},{"bike_id":"78725f08-8d42-4f1a-9002-0d0b35dc7efd","system_id":"levelo_inurba_marseille","lat":43.33748,"lon":5.37446,"is_reserved":false,"is_disabled":false,"rental_uris":{"android":"levelo://app?vid=78725f08-8d42-4f1a-9002-0d0b35dc7efd","ios":"levelo://app?vid=78725f08-8d42-4f1a-9002-0d0b35dc7efd"},"vehicle_type_id":"4","last_reported":1683547996,"current_range_meters":15200,"station_id":"","pricing_plan_id":"free"},{"bike_id":"b4d2bbff-b2dd-43d4-b642-cbde7c159902","system_id":"levelo_inurba_marseille","lat":43.3377,"lon":5.3747,"is_reserved":false,"is_disabled":false,"rental_uris":{"android":"levelo://app?vid=b4d2bbff-b2dd-43d4-b642-cbde7c159902","ios":"levelo://app?vid=b4d2bbff-b2dd-43d4-b642-cbde7c159902"},"vehicle_type_id":"4","last_reported":1683547996,"current_range_meters":28000,"station_id":"","pricing_plan_id":"free"},{"bike_id":"a9abecab-29f7-44a5-b151-8024ddaecc17","system_id":"levelo_inurba_marseille","lat":43.301117,"lon":5.398795,"is_reserved":false,"is_disabled":false,"rental_uris":{"android":"levelo://app?vid=a9abecab-29f7-44a5-b151-8024ddaecc17","ios":"levelo://app?vid=a9abecab-29f7-44a5-b151-8024ddaecc17"},"vehicle_type_id":"4","last_reported":1683547996,"current_range_meters":800,"station_id":"ce4bh0h2rcd13ifvqd40","pricing_plan_id":"free"},{"bike_id":"83079dda-4dad-4bf8-b244-474d0b2dfb12","system_id":"levelo_inurba_marseille","lat":43.286591,"lon":5.363346,"is_reserved":false,"is_disabled":false,"rental_uris":{"android":"levelo://app?vid=83079dda-4dad-4bf8-b244-474d0b2dfb12","ios":"levelo://app?vid=83079dda-4dad-4bf8-b244-474d0b2dfb12"},"vehicle_type_id":"4","last_reported":1683547996,"current_range_meters":14000,"station_id":"ce4bhah2rcd13ifvqej0","pricing_plan_id":"free"},{"bike_id":"4b010d64-62c6-4164-8ba3-474a1307c8d6","system_id":"levelo_inurba_marseille","lat":43.302759,"lon":5.400793,"is_reserved":false,"is_disabled":false,"rental_uris":{"android":"levelo://app?vid=4b010d64-62c6-4164-8ba3-474a1307c8d6","ios":"levelo://app?vid=4b010d64-62c6-4164-8ba3-474a1307c8d6"},"vehicle_type_id":"4","last_reported":1683547996,"current_range_meters":3200,"station_id":"ce4bgvh2rcd13ifvqcs0","pricing_plan_id":"free"},{"bike_id":"6ecbd75e-4417-4fab-a0f6-a842d9471912","system_id":"levelo_inurba_marseille","lat":43.30238,"lon":5.40052,"is_reserved":false,"is_disabled":false,"rental_uris":{"android":"levelo://app?vid=6ecbd75e-4417-4fab-a0f6-a842d9471912","ios":"levelo://app?vid=6ecbd75e-4417-4fab-a0f6-a842d9471912"},"vehicle_type_id":"4","last_reported":1683547996,"current_range_meters":26000,"station_id":"","pricing_plan_id":"free"},{"bike_id":"2f6c67ca-3471-481c-9a25-d7db2e8c72b1","system_id":"levelo_inurba_marseille","lat":43.316517,"lon":5.404375,"is_reserved":false,"is_disabled":false,"rental_uris":{"android":"levelo://app?vid=2f6c67ca-3471-481c-9a25-d7db2e8c72b1","ios":"levelo://app?vid=2f6c67ca-3471-481c-9a25-d7db2e8c72b1"},"vehicle_type_id":"4","last_reported":1683547996,"current_range_meters":4400,"station_id":"ce4bh012rcd13ifvqd00","pricing_plan_id":"free"},{"bike_id":"a81e1a22-9f85-44d9-9827-ac37f0e90c9b","system_id":"levelo_inurba_marseille","lat":43.316517,"lon":5.404375,"is_reserved":false,"is_disabled":false,"rental_uris":{"android":"levelo://app?vid=a81e1a22-9f85-44d9-9827-ac37f0e90c9b","ios":"levelo://app?vid=a81e1a22-9f85-44d9-9827-ac37f0e90c9b"},"vehicle_type_id":"4","last_reported":1683547996,"current_range_meters":10000,"station_id":"ce4bh012rcd13ifvqd00","pricing_plan_id":"free"},{"bike_id":"67af1d6b-1e53-4573-a84d-d33fbf422fb4","system_id":"levelo_inurba_marseille","lat":43.284534,"lon":5.358662,"is_reserved":false,"is_disabled":false,"rental_uris":{"android":"levelo://app?vid=67af1d6b-1e53-4573-a84d-d33fbf422fb4","ios":"levelo://app?vid=67af1d6b-1e53-4573-a84d-d33fbf422fb4"},"vehicle_type_id":"4","last_reported":1683547996,"current_range_meters":14400,"station_id":"ce4bhah2rcd13ifvqei0","pricing_plan_id":"free"},{"bike_id":"a0c053bc-ae16-45e6-8e7b-80dc076ead57","system_id":"levelo_inurba_marseille","lat":43.285856,"lon":5.350771,"is_reserved":false,"is_disabled":false,"rental_uris":{"android":"levelo://app?vid=a0c053bc-ae16-45e6-8e7b-80dc076ead57","ios":"levelo://app?vid=a0c053bc-ae16-45e6-8e7b-80dc076ead57"},"vehicle_type_id":"4","last_reported":1683547996,"current_range_meters":29200,"station_id":"ce4bhch2rcd13ifvqeug","pricing_plan_id":"free"},{"bike_id":"804cc3f7-6844-4110-a823-2b4d77c3eb75","system_id":"levelo_inurba_marseille","lat":43.285856,"lon":5.350771,"is_reserved":false,"is_disabled":false,"rental_uris":{"android":"levelo://app?vid=804cc3f7-6844-4110-a823-2b4d77c3eb75","ios":"levelo://app?vid=804cc3f7-6844-4110-a823-2b4d77c3eb75"},"vehicle_type_id":"4","last_reported":1683547996,"current_range_meters":24000,"station_id":"ce4bhch2rcd13ifvqeug","pricing_plan_id":"free"},{"bike_id":"b5c46aad-80d9-49b2-a4fa-24eef3d30a40","system_id":"levelo_inurba_marseille","lat":43.285856,"lon":5.350771,"is_reserved":false,"is_disabled":false,"rental_uris":{"android":"levelo://app?vid=b5c46aad-80d9-49b2-a4fa-24eef3d30a40","ios":"levelo://app?vid=b5c46aad-80d9-49b2-a4fa-24eef3d30a40"},"vehicle_type_id":"4","last_reported":1683547996,"current_range_meters":26400,"station_id":"ce4bhch2rcd13ifvqeug","pricing_plan_id":"free"},{"bike_id":"a8c6725b-a328-4a5e-b4dc-25ea2923f88f","system_id":"levelo_inurba_marseille","lat":43.285856,"lon":5.350771,"is_reserved":false,"is_disabled":false,"rental_uris":{"android":"levelo://app?vid=a8c6725b-a328-4a5e-b4dc-25ea2923f88f","ios":"levelo://app?vid=a8c6725b-a328-4a5e-b4dc-25ea2923f88f"},"vehicle_type_id":"4","last_reported":1683547996,"current_range_meters":30400,"station_id":"ce4bhch2rcd13ifvqeug","pricing_plan_id":"free"},{"bike_id":"fef6b1c9-2660-4679-9fef-69c43aaffc4b","system_id":"levelo_inurba_marseille","lat":43.285856,"lon":5.350771,"is_reserved":false,"is_disabled":false,"rental_uris":{"android":"levelo://app?vid=fef6b1c9-2660-4679-9fef-69c43aaffc4b","ios":"levelo://app?vid=fef6b1c9-2660-4679-9fef-69c43aaffc4b"},"vehicle_type_id":"4","last_reported":1683547996,"current_range_meters":25600,"station_id":"ce4bhch2rcd13ifvqeug","pricing_plan_id":"free"},{"bike_id":"5a67765b-277e-477b-8046-d344c4fbff01","system_id":"levelo_inurba_marseille","lat":43.28616,"lon":5.35105,"is_reserved":false,"is_disabled":false,"rental_uris":{"android":"levelo://app?vid=5a67765b-277e-477b-8046-d344c4fbff01","ios":"levelo://app?vid=5a67765b-277e-477b-8046-d344c4fbff01"},"vehicle_type_id":"4","last_reported":1683547996,"current_range_meters":21200,"station_id":"","pricing_plan_id":"free"},{"bike_id":"00df7a49-7205-41e8-b6f0-c388c2819036","system_id":"levelo_inurba_marseille","lat":43.28617,"lon":5.35101,"is_reserved":false,"is_disabled":false,"rental_uris":{"android":"levelo://app?vid=00df7a49-7205-41e8-b6f0-c388c2819036","ios":"levelo://app?vid=00df7a49-7205-41e8-b6f0-c388c2819036"},"vehicle_type_id":"4","last_reported":1683547996,"current_range_meters":20800,"station_id":"","pricing_plan_id":"free"},{"bike_id":"8965dc90-a03a-4a87-8fa4-571b42ea7ee5","system_id":"levelo_inurba_marseille","lat":43.285856,"lon":5.350771,"is_reserved":false,"is_disabled":false,"rental_uris":{"android":"levelo://app?vid=8965dc90-a03a-4a87-8fa4-571b42ea7ee5","ios":"levelo://app?vid=8965dc90-a03a-4a87-8fa4-571b42ea7ee5"},"vehicle_type_id":"4","last_reported":1683547996,"current_range_meters":30000,"station_id":"ce4bhch2rcd13ifvqeug","pricing_plan_id":"free"},{"bike_id":"73f9a7f7-ecb7-4723-a912-22cbc4a46fa4","system_id":"levelo_inurba_marseille","lat":43.285856,"lon":5.350771,"is_reserved":false,"is_disabled":false,"rental_uris":{"android":"levelo://app?vid=73f9a7f7-ecb7-4723-a912-22cbc4a46fa4","ios":"levelo://app?vid=73f9a7f7-ecb7-4723-a912-22cbc4a46fa4"},"vehicle_type_id":"4","last_reported":1683547996,"current_range_meters":13200,"station_id":"ce4bhch2rcd13ifvqeug","pricing_plan_id":"free"},{"bike_id":"a52be6f1-7533-4d3e-bd88-01baf840ec6c","system_id":"levelo_inurba_marseille","lat":43.28614,"lon":5.35106,"is_reserved":false,"is_disabled":false,"rental_uris":{"android":"levelo://app?vid=a52be6f1-7533-4d3e-bd88-01baf840ec6c","ios":"levelo://app?vid=a52be6f1-7533-4d3e-bd88-01baf840ec6c"},"vehicle_type_id":"4","last_reported":1683547996,"current_range_meters":24000,"station_id":"","pricing_plan_id":"free"},{"bike_id":"ab5400f1-6ef1-4a97-8d04-369dcf579f68","system_id":"levelo_inurba_marseille","lat":43.285856,"lon":5.350771,"is_reserved":false,"is_disabled":false,"rental_uris":{"android":"levelo://app?vid=ab5400f1-6ef1-4a97-8d04-369dcf579f68","ios":"levelo://app?vid=ab5400f1-6ef1-4a97-8d04-369dcf579f68"},"vehicle_type_id":"4","last_reported":1683547996,"current_range_meters":0,"station_id":"ce4bhch2rcd13ifvqeug","pricing_plan_id":"free"},{"bike_id":"de076868-7eec-4a06-a47b-24240758503b","system_id":"levelo_inurba_marseille","lat":43.28614,"lon":5.35102,"is_reserved":false,"is_disabled":false,"rental_uris":{"android":"levelo://app?vid=de076868-7eec-4a06-a47b-24240758503b","ios":"levelo://app?vid=de076868-7eec-4a06-a47b-24240758503b"},"vehicle_type_id":"4","last_reported":1683547996,"current_range_meters":16000,"station_id":"","pricing_plan_id":"free"},{"bike_id":"bc44a630-c344-4081-bea1-1b5991ca0a1c","system_id":"levelo_inurba_marseille","lat":43.285856,"lon":5.350771,"is_reserved":false,"is_disabled":false,"rental_uris":{"android":"levelo://app?vid=bc44a630-c344-4081-bea1-1b5991ca0a1c","ios":"levelo://app?vid=bc44a630-c344-4081-bea1-1b5991ca0a1c"},"vehicle_type_id":"4","last_reported":1683547996,"current_range_meters":24400,"station_id":"ce4bhch2rcd13ifvqeug","pricing_plan_id":"free"},{"bike_id":"bfbf21bf-3f49-4863-b2fd-796452316abe","system_id":"levelo_inurba_marseille","lat":43.28613,"lon":5.35104,"is_reserved":false,"is_disabled":false,"rental_uris":{"android":"levelo://app?vid=bfbf21bf-3f49-4863-b2fd-796452316abe","ios":"levelo://app?vid=bfbf21bf-3f49-4863-b2fd-796452316abe"},"vehicle_type_id":"4","last_reported":1683547996,"current_range_meters":0,"station_id":"","pricing_plan_id":"free"},{"bike_id":"16fd3806-3418-418a-bdb9-6021a32fbded","system_id":"levelo_inurba_marseille","lat":43.28613,"lon":5.35099,"is_reserved":false,"is_disabled":false,"rental_uris":{"android":"levelo://app?vid=16fd3806-3418-418a-bdb9-6021a32fbded","ios":"levelo://app?vid=16fd3806-3418-418a-bdb9-6021a32fbded"},"vehicle_type_id":"4","last_reported":1683547996,"current_range_meters":10400,"station_id":"","pricing_plan_id":"free"},{"bike_id":"4ad63acb-f7cd-4a4d-a917-6f01d1468a48","system_id":"levelo_inurba_marseille","lat":43.285856,"lon":5.350771,"is_reserved":false,"is_disabled":false,"rental_uris":{"android":"levelo://app?vid=4ad63acb-f7cd-4a4d-a917-6f01d1468a48","ios":"levelo://app?vid=4ad63acb-f7cd-4a4d-a917-6f01d1468a48"},"vehicle_type_id":"4","last_reported":1683547996,"current_range_meters":27600,"station_id":"ce4bhch2rcd13ifvqeug","pricing_plan_id":"free"},{"bike_id":"d05b13e3-4ed2-433b-bb9f-48e352caa560","system_id":"levelo_inurba_marseille","lat":43.28611,"lon":5.35102,"is_reserved":false,"is_disabled":false,"rental_uris":{"android":"levelo://app?vid=d05b13e3-4ed2-433b-bb9f-48e352caa560","ios":"levelo://app?vid=d05b13e3-4ed2-433b-bb9f-48e352caa560"},"vehicle_type_id":"4","last_reported":1683547996,"current_range_meters":400,"station_id":"","pricing_plan_id":"free"},{"bike_id":"50828c65-0e3d-42c4-960f-829ea8e51563","system_id":"levelo_inurba_marseille","lat":43.28594,"lon":5.351051,"is_reserved":false,"is_disabled":false,"rental_uris":{"android":"levelo://app?vid=50828c65-0e3d-42c4-960f-829ea8e51563","ios":"levelo://app?vid=50828c65-0e3d-42c4-960f-829ea8e51563"},"vehicle_type_id":"4","last_reported":1683547996,"current_range_meters":2000,"station_id":"","pricing_plan_id":"free"},{"bike_id":"7cdb1143-1df3-41fc-a179-c2f32ca67ebe","system_id":"levelo_inurba_marseille","lat":43.28509,"lon":5.35131,"is_reserved":false,"is_disabled":false,"rental_uris":{"android":"levelo://app?vid=7cdb1143-1df3-41fc-a179-c2f32ca67ebe","ios":"levelo://app?vid=7cdb1143-1df3-41fc-a179-c2f32ca67ebe"},"vehicle_type_id":"4","last_reported":1683547996,"current_range_meters":0,"station_id":"","pricing_plan_id":"free"},{"bike_id":"b4b0acb3-c28c-4dcd-b0d7-90d90b848d96","system_id":"levelo_inurba_marseille","lat":43.323464,"lon":5.406297,"is_reserved":false,"is_disabled":false,"rental_uris":{"android":"levelo://app?vid=b4b0acb3-c28c-4dcd-b0d7-90d90b848d96","ios":"levelo://app?vid=b4b0acb3-c28c-4dcd-b0d7-90d90b848d96"},"vehicle_type_id":"4","last_reported":1683547996,"current_range_meters":29600,"station_id":"ce4bhq92rcd13ifvqhjg","pricing_plan_id":"free"},{"bike_id":"d88b9571-8f30-47b8-b0df-5f3e62834bac","system_id":"levelo_inurba_marseille","lat":43.337168,"lon":5.391825,"is_reserved":false,"is_disabled":false,"rental_uris":{"android":"levelo://app?vid=d88b9571-8f30-47b8-b0df-5f3e62834bac","ios":"levelo://app?vid=d88b9571-8f30-47b8-b0df-5f3e62834bac"},"vehicle_type_id":"4","last_reported":1683547996,"current_range_meters":5200,"station_id":"ce4bhr92rcd13ifvqhsg","pricing_plan_id":"free"},{"bike_id":"7df44294-8889-4c17-be72-c4b8ea5ba4fe","system_id":"levelo_inurba_marseille","lat":43.33725,"lon":5.39186,"is_reserved":false,"is_disabled":false,"rental_uris":{"android":"levelo://app?vid=7df44294-8889-4c17-be72-c4b8ea5ba4fe","ios":"levelo://app?vid=7df44294-8889-4c17-be72-c4b8ea5ba4fe"},"vehicle_type_id":"4","last_reported":1683547996,"current_range_meters":7200,"station_id":"ce4bhr92rcd13ifvqhsg","pricing_plan_id":"free"},{"bike_id":"f4ff0315-959c-4ef0-ba74-c5016cf91ea0","system_id":"levelo_inurba_marseille","lat":43.323464,"lon":5.406297,"is_reserved":false,"is_disabled":false,"rental_uris":{"android":"levelo://app?vid=f4ff0315-959c-4ef0-ba74-c5016cf91ea0","ios":"levelo://app?vid=f4ff0315-959c-4ef0-ba74-c5016cf91ea0"},"vehicle_type_id":"4","last_reported":1683547996,"current_range_meters":25200,"station_id":"ce4bhq92rcd13ifvqhjg","pricing_plan_id":"free"},{"bike_id":"eeed33b8-4405-4fee-8d96-fecd07572891","system_id":"levelo_inurba_marseille","lat":43.323464,"lon":5.406297,"is_reserved":false,"is_disabled":false,"rental_uris":{"android":"levelo://app?vid=eeed33b8-4405-4fee-8d96-fecd07572891","ios":"levelo://app?vid=eeed33b8-4405-4fee-8d96-fecd07572891"},"vehicle_type_id":"4","last_reported":1683547996,"current_range_meters":30400,"station_id":"ce4bhq92rcd13ifvqhjg","pricing_plan_id":"free"},{"bike_id":"f0e64e2e-7b84-48d5-841a-99c6134ce8e4","system_id":"levelo_inurba_marseille","lat":43.323464,"lon":5.406297,"is_reserved":false,"is_disabled":false,"rental_uris":{"android":"levelo://app?vid=f0e64e2e-7b84-48d5-841a-99c6134ce8e4","ios":"levelo://app?vid=f0e64e2e-7b84-48d5-841a-99c6134ce8e4"},"vehicle_type_id":"4","last_reported":1683547996,"current_range_meters":31200,"station_id":"ce4bhq92rcd13ifvqhjg","pricing_plan_id":"free"},{"bike_id":"ad3cdfdb-0864-4cce-8a5d-05a05de94244","system_id":"levelo_inurba_marseille","lat":43.30091,"lon":5.40562,"is_reserved":false,"is_disabled":false,"rental_uris":{"android":"levelo://app?vid=ad3cdfdb-0864-4cce-8a5d-05a05de94244","ios":"levelo://app?vid=ad3cdfdb-0864-4cce-8a5d-05a05de94244"},"vehicle_type_id":"4","last_reported":1683547996,"current_range_meters":11200,"station_id":"","pricing_plan_id":"free"},{"bike_id":"653a4382-265a-4c65-aa99-fbf08f56a5a2","system_id":"levelo_inurba_marseille","lat":43.28437,"lon":5.34992,"is_reserved":false,"is_disabled":false,"rental_uris":{"android":"levelo://app?vid=653a4382-265a-4c65-aa99-fbf08f56a5a2","ios":"levelo://app?vid=653a4382-265a-4c65-aa99-fbf08f56a5a2"},"vehicle_type_id":"4","last_reported":1683547996,"current_range_meters":5200,"station_id":"ce4bhbh2rcd13ifvqepg","pricing_plan_id":"free"},{"bike_id":"9e784d6d-12e7-471a-b47a-76186c2a0231","system_id":"levelo_inurba_marseille","lat":43.28433,"lon":5.35003,"is_reserved":false,"is_disabled":false,"rental_uris":{"android":"levelo://app?vid=9e784d6d-12e7-471a-b47a-76186c2a0231","ios":"levelo://app?vid=9e784d6d-12e7-471a-b47a-76186c2a0231"},"vehicle_type_id":"4","last_reported":1683547996,"current_range_meters":2000,"station_id":"ce4bhbh2rcd13ifvqepg","pricing_plan_id":"free"},{"bike_id":"beaa6399-7b71-4550-a1b9-a1f1eed626da","system_id":"levelo_inurba_marseille","lat":43.283498,"lon":5.380948,"is_reserved":false,"is_disabled":false,"rental_uris":{"android":"levelo://app?vid=beaa6399-7b71-4550-a1b9-a1f1eed626da","ios":"levelo://app?vid=beaa6399-7b71-4550-a1b9-a1f1eed626da"},"vehicle_type_id":"4","last_reported":1683547996,"current_range_meters":26400,"station_id":"ce4bh412rcd13ifvqdr0","pricing_plan_id":"free"},{"bike_id":"3306c683-e449-46c2-b997-0d411f56338b","system_id":"levelo_inurba_marseille","lat":43.28431,"lon":5.34999,"is_reserved":false,"is_disabled":false,"rental_uris":{"android":"levelo://app?vid=3306c683-e449-46c2-b997-0d411f56338b","ios":"levelo://app?vid=3306c683-e449-46c2-b997-0d411f56338b"},"vehicle_type_id":"4","last_reported":1683547996,"current_range_meters":11200,"station_id":"ce4bhbh2rcd13ifvqepg","pricing_plan_id":"free"},{"bike_id":"5be6217e-084f-4e4e-912b-589ac158e358","system_id":"levelo_inurba_marseille","lat":43.28428,"lon":5.35005,"is_reserved":false,"is_disabled":false,"rental_uris":{"android":"levelo://app?vid=5be6217e-084f-4e4e-912b-589ac158e358","ios":"levelo://app?vid=5be6217e-084f-4e4e-912b-589ac158e358"},"vehicle_type_id":"4","last_reported":1683547996,"current_range_meters":27600,"station_id":"ce4bhbh2rcd13ifvqepg","pricing_plan_id":"free"},{"bike_id":"c5bc730c-0a5c-4008-8b1a-2cda37abb98c","system_id":"levelo_inurba_marseille","lat":43.28428,"lon":5.35001,"is_reserved":false,"is_disabled":false,"rental_uris":{"android":"levelo://app?vid=c5bc730c-0a5c-4008-8b1a-2cda37abb98c","ios":"levelo://app?vid=c5bc730c-0a5c-4008-8b1a-2cda37abb98c"},"vehicle_type_id":"4","last_reported":1683547996,"current_range_meters":27200,"station_id":"ce4bhbh2rcd13ifvqepg","pricing_plan_id":"free"},{"bike_id":"9385093c-34fc-4d5a-b6e4-23f05c459ca9","system_id":"levelo_inurba_marseille","lat":43.284219,"lon":5.3497,"is_reserved":false,"is_disabled":false,"rental_uris":{"android":"levelo://app?vid=9385093c-34fc-4d5a-b6e4-23f05c459ca9","ios":"levelo://app?vid=9385093c-34fc-4d5a-b6e4-23f05c459ca9"},"vehicle_type_id":"4","last_reported":1683547996,"current_range_meters":19600,"station_id":"ce4bhbh2rcd13ifvqepg","pricing_plan_id":"free"},{"bike_id":"6e460171-7ba9-4e35-810d-2b4a31d7827f","system_id":"levelo_inurba_marseille","lat":43.28425,"lon":5.35005,"is_reserved":false,"is_disabled":false,"rental_uris":{"android":"levelo://app?vid=6e460171-7ba9-4e35-810d-2b4a31d7827f","ios":"levelo://app?vid=6e460171-7ba9-4e35-810d-2b4a31d7827f"},"vehicle_type_id":"4","last_reported":1683547996,"current_range_meters":25600,"station_id":"","pricing_plan_id":"free"},{"bike_id":"7b38cc5c-b29e-4e31-8737-d234e002df5b","system_id":"levelo_inurba_marseille","lat":43.28425,"lon":5.35004,"is_reserved":false,"is_disabled":false,"rental_uris":{"android":"levelo://app?vid=7b38cc5c-b29e-4e31-8737-d234e002df5b","ios":"levelo://app?vid=7b38cc5c-b29e-4e31-8737-d234e002df5b"},"vehicle_type_id":"4","last_reported":1683547996,"current_range_meters":4400,"station_id":"ce4bhbh2rcd13ifvqepg","pricing_plan_id":"free"},{"bike_id":"6778731f-75cb-43a3-bffa-e5b1d48652e2","system_id":"levelo_inurba_marseille","lat":43.28425,"lon":5.34997,"is_reserved":false,"is_disabled":false,"rental_uris":{"android":"levelo://app?vid=6778731f-75cb-43a3-bffa-e5b1d48652e2","ios":"levelo://app?vid=6778731f-75cb-43a3-bffa-e5b1d48652e2"},"vehicle_type_id":"4","last_reported":1683547996,"current_range_meters":7200,"station_id":"ce4bhbh2rcd13ifvqepg","pricing_plan_id":"free"},{"bike_id":"35ae92de-1309-4fae-8e20-912af2dcddf5","system_id":"levelo_inurba_marseille","lat":43.28424,"lon":5.34996,"is_reserved":false,"is_disabled":false,"rental_uris":{"android":"levelo://app?vid=35ae92de-1309-4fae-8e20-912af2dcddf5","ios":"levelo://app?vid=35ae92de-1309-4fae-8e20-912af2dcddf5"},"vehicle_type_id":"4","last_reported":1683547996,"current_range_meters":3200,"station_id":"ce4bhbh2rcd13ifvqepg","pricing_plan_id":"free"},{"bike_id":"8c50d67a-090e-4da3-a177-8c66882d34c4","system_id":"levelo_inurba_marseille","lat":43.28421,"lon":5.35004,"is_reserved":false,"is_disabled":false,"rental_uris":{"android":"levelo://app?vid=8c50d67a-090e-4da3-a177-8c66882d34c4","ios":"levelo://app?vid=8c50d67a-090e-4da3-a177-8c66882d34c4"},"vehicle_type_id":"4","last_reported":1683547996,"current_range_meters":800,"station_id":"","pricing_plan_id":"free"},{"bike_id":"2a511c83-0fc1-4453-93dd-9540628e33ac","system_id":"levelo_inurba_marseille","lat":43.284219,"lon":5.3497,"is_reserved":false,"is_disabled":false,"rental_uris":{"android":"levelo://app?vid=2a511c83-0fc1-4453-93dd-9540628e33ac","ios":"levelo://app?vid=2a511c83-0fc1-4453-93dd-9540628e33ac"},"vehicle_type_id":"4","last_reported":1683547996,"current_range_meters":11600,"station_id":"ce4bhbh2rcd13ifvqepg","pricing_plan_id":"free"},{"bike_id":"e191e413-38ce-4ea1-bbf8-4c2b159ace2a","system_id":"levelo_inurba_marseille","lat":43.28423,"lon":5.34996,"is_reserved":false,"is_disabled":false,"rental_uris":{"android":"levelo://app?vid=e191e413-38ce-4ea1-bbf8-4c2b159ace2a","ios":"levelo://app?vid=e191e413-38ce-4ea1-bbf8-4c2b159ace2a"},"vehicle_type_id":"4","last_reported":1683547996,"current_range_meters":14000,"station_id":"ce4bhbh2rcd13ifvqepg","pricing_plan_id":"free"},{"bike_id":"fc15d2c3-7d02-469a-9704-226c1011f666","system_id":"levelo_inurba_marseille","lat":43.284219,"lon":5.3497,"is_reserved":false,"is_disabled":false,"rental_uris":{"android":"levelo://app?vid=fc15d2c3-7d02-469a-9704-226c1011f666","ios":"levelo://app?vid=fc15d2c3-7d02-469a-9704-226c1011f666"},"vehicle_type_id":"4","last_reported":1683547996,"current_range_meters":15600,"station_id":"ce4bhbh2rcd13ifvqepg","pricing_plan_id":"free"},{"bike_id":"3097e127-d6e8-4cfe-b523-ba780550b753","system_id":"levelo_inurba_marseille","lat":43.28421,"lon":5.35002,"is_reserved":false,"is_disabled":false,"rental_uris":{"android":"levelo://app?vid=3097e127-d6e8-4cfe-b523-ba780550b753","ios":"levelo://app?vid=3097e127-d6e8-4cfe-b523-ba780550b753"},"vehicle_type_id":"4","last_reported":1683547996,"current_range_meters":27600,"station_id":"ce4bhbh2rcd13ifvqepg","pricing_plan_id":"free"},{"bike_id":"c8e5295f-ccde-458d-86d6-6053efd6e802","system_id":"levelo_inurba_marseille","lat":43.284217,"lon":5.349697,"is_reserved":false,"is_disabled":false,"rental_uris":{"android":"levelo://app?vid=c8e5295f-ccde-458d-86d6-6053efd6e802","ios":"levelo://app?vid=c8e5295f-ccde-458d-86d6-6053efd6e802"},"vehicle_type_id":"4","last_reported":1683547996,"current_range_meters":31200,"station_id":"ce4bhbh2rcd13ifvqepg","pricing_plan_id":"free"},{"bike_id":"7ed83cea-587c-41c4-b65b-bace62121ef3","system_id":"levelo_inurba_marseille","lat":43.28419,"lon":5.35007,"is_reserved":false,"is_disabled":false,"rental_uris":{"android":"levelo://app?vid=7ed83cea-587c-41c4-b65b-bace62121ef3","ios":"levelo://app?vid=7ed83cea-587c-41c4-b65b-bace62121ef3"},"vehicle_type_id":"4","last_reported":1683547996,"current_range_meters":17200,"station_id":"","pricing_plan_id":"free"},{"bike_id":"d8659fbd-42f2-4cfa-ac0b-1279388d472c","system_id":"levelo_inurba_marseille","lat":43.28419,"lon":5.35006,"is_reserved":false,"is_disabled":false,"rental_uris":{"android":"levelo://app?vid=d8659fbd-42f2-4cfa-ac0b-1279388d472c","ios":"levelo://app?vid=d8659fbd-42f2-4cfa-ac0b-1279388d472c"},"vehicle_type_id":"4","last_reported":1683547996,"current_range_meters":24400,"station_id":"","pricing_plan_id":"free"},{"bike_id":"8706d912-114e-48a7-9e62-ad446a898009","system_id":"levelo_inurba_marseille","lat":43.28423,"lon":5.34993,"is_reserved":false,"is_disabled":false,"rental_uris":{"android":"levelo://app?vid=8706d912-114e-48a7-9e62-ad446a898009","ios":"levelo://app?vid=8706d912-114e-48a7-9e62-ad446a898009"},"vehicle_type_id":"4","last_reported":1683547996,"current_range_meters":26800,"station_id":"ce4bhbh2rcd13ifvqepg","pricing_plan_id":"free"},{"bike_id":"473b40c8-24db-42cd-9eaa-0b475c227c61","system_id":"levelo_inurba_marseille","lat":43.28419,"lon":5.35003,"is_reserved":false,"is_disabled":false,"rental_uris":{"android":"levelo://app?vid=473b40c8-24db-42cd-9eaa-0b475c227c61","ios":"levelo://app?vid=473b40c8-24db-42cd-9eaa-0b475c227c61"},"vehicle_type_id":"4","last_reported":1683547996,"current_range_meters":22000,"station_id":"ce4bhbh2rcd13ifvqepg","pricing_plan_id":"free"},{"bike_id":"2e0cae07-0e30-4e4e-92c9-73929729869c","system_id":"levelo_inurba_marseille","lat":43.28419,"lon":5.34997,"is_reserved":false,"is_disabled":false,"rental_uris":{"android":"levelo://app?vid=2e0cae07-0e30-4e4e-92c9-73929729869c","ios":"levelo://app?vid=2e0cae07-0e30-4e4e-92c9-73929729869c"},"vehicle_type_id":"4","last_reported":1683547996,"current_range_meters":24800,"station_id":"ce4bhbh2rcd13ifvqepg","pricing_plan_id":"free"},{"bike_id":"4f9bac14-3495-4349-a16c-4514ef8f1202","system_id":"levelo_inurba_marseille","lat":43.28416,"lon":5.35006,"is_reserved":false,"is_disabled":false,"rental_uris":{"android":"levelo://app?vid=4f9bac14-3495-4349-a16c-4514ef8f1202","ios":"levelo://app?vid=4f9bac14-3495-4349-a16c-4514ef8f1202"},"vehicle_type_id":"4","last_reported":1683547996,"current_range_meters":17600,"station_id":"","pricing_plan_id":"free"},{"bike_id":"9df6b1ea-0a0b-4915-9b0b-2dd19fa8534c","system_id":"levelo_inurba_marseille","lat":43.28416,"lon":5.35004,"is_reserved":false,"is_disabled":false,"rental_uris":{"android":"levelo://app?vid=9df6b1ea-0a0b-4915-9b0b-2dd19fa8534c","ios":"levelo://app?vid=9df6b1ea-0a0b-4915-9b0b-2dd19fa8534c"},"vehicle_type_id":"4","last_reported":1683547996,"current_range_meters":12000,"station_id":"ce4bhbh2rcd13ifvqepg","pricing_plan_id":"free"},{"bike_id":"d23ba795-b4e6-4138-8475-ea477b43f324","system_id":"levelo_inurba_marseille","lat":43.284219,"lon":5.3497,"is_reserved":false,"is_disabled":false,"rental_uris":{"android":"levelo://app?vid=d23ba795-b4e6-4138-8475-ea477b43f324","ios":"levelo://app?vid=d23ba795-b4e6-4138-8475-ea477b43f324"},"vehicle_type_id":"4","last_reported":1683547996,"current_range_meters":21200,"station_id":"ce4bhbh2rcd13ifvqepg","pricing_plan_id":"free"},{"bike_id":"5285da43-c6de-45ce-ba4d-dd01a74b4cb6","system_id":"levelo_inurba_marseille","lat":43.28418,"lon":5.34995,"is_reserved":false,"is_disabled":false,"rental_uris":{"android":"levelo://app?vid=5285da43-c6de-45ce-ba4d-dd01a74b4cb6","ios":"levelo://app?vid=5285da43-c6de-45ce-ba4d-dd01a74b4cb6"},"vehicle_type_id":"4","last_reported":1683547996,"current_range_meters":12800,"station_id":"ce4bhbh2rcd13ifvqepg","pricing_plan_id":"free"},{"bike_id":"27d9dfab-e90d-4e31-b730-717ef614a535","system_id":"levelo_inurba_marseille","lat":43.28417,"lon":5.34998,"is_reserved":false,"is_disabled":false,"rental_uris":{"android":"levelo://app?vid=27d9dfab-e90d-4e31-b730-717ef614a535","ios":"levelo://app?vid=27d9dfab-e90d-4e31-b730-717ef614a535"},"vehicle_type_id":"4","last_reported":1683547996,"current_range_meters":14400,"station_id":"ce4bhbh2rcd13ifvqepg","pricing_plan_id":"free"},{"bike_id":"8ab75a12-681b-4a37-8431-7b1fd2eb6104","system_id":"levelo_inurba_marseille","lat":43.28419,"lon":5.3499,"is_reserved":false,"is_disabled":false,"rental_uris":{"android":"levelo://app?vid=8ab75a12-681b-4a37-8431-7b1fd2eb6104","ios":"levelo://app?vid=8ab75a12-681b-4a37-8431-7b1fd2eb6104"},"vehicle_type_id":"4","last_reported":1683547996,"current_range_meters":14000,"station_id":"ce4bhbh2rcd13ifvqepg","pricing_plan_id":"free"},{"bike_id":"ff72f6fb-f988-4f8e-b20b-06350ca56e56","system_id":"levelo_inurba_marseille","lat":43.28418,"lon":5.3499,"is_reserved":false,"is_disabled":false,"rental_uris":{"android":"levelo://app?vid=ff72f6fb-f988-4f8e-b20b-06350ca56e56","ios":"levelo://app?vid=ff72f6fb-f988-4f8e-b20b-06350ca56e56"},"vehicle_type_id":"4","last_reported":1683547996,"current_range_meters":26400,"station_id":"ce4bhbh2rcd13ifvqepg","pricing_plan_id":"free"},{"bike_id":"d53ab74d-d5a8-407f-ad81-dcb7146db7a1","system_id":"levelo_inurba_marseille","lat":43.28417,"lon":5.34992,"is_reserved":false,"is_disabled":false,"rental_uris":{"android":"levelo://app?vid=d53ab74d-d5a8-407f-ad81-dcb7146db7a1","ios":"levelo://app?vid=d53ab74d-d5a8-407f-ad81-dcb7146db7a1"},"vehicle_type_id":"4","last_reported":1683547996,"current_range_meters":18800,"station_id":"ce4bhbh2rcd13ifvqepg","pricing_plan_id":"free"},{"bike_id":"955fb7d3-677d-424f-8361-d7b7ba0f61bc","system_id":"levelo_inurba_marseille","lat":43.284183,"lon":5.34987,"is_reserved":false,"is_disabled":false,"rental_uris":{"android":"levelo://app?vid=955fb7d3-677d-424f-8361-d7b7ba0f61bc","ios":"levelo://app?vid=955fb7d3-677d-424f-8361-d7b7ba0f61bc"},"vehicle_type_id":"4","last_reported":1683547996,"current_range_meters":8400,"station_id":"ce4bhbh2rcd13ifvqepg","pricing_plan_id":"free"},{"bike_id":"1305a86a-eac4-4530-8989-67c1d4b19b6e","system_id":"levelo_inurba_marseille","lat":43.2842,"lon":5.34977,"is_reserved":false,"is_disabled":false,"rental_uris":{"android":"levelo://app?vid=1305a86a-eac4-4530-8989-67c1d4b19b6e","ios":"levelo://app?vid=1305a86a-eac4-4530-8989-67c1d4b19b6e"},"vehicle_type_id":"4","last_reported":1683547996,"current_range_meters":22800,"station_id":"ce4bhbh2rcd13ifvqepg","pricing_plan_id":"free"},{"bike_id":"95479741-dd0a-43d7-ae30-9404c5aafc81","system_id":"levelo_inurba_marseille","lat":43.28415,"lon":5.34988,"is_reserved":false,"is_disabled":false,"rental_uris":{"android":"levelo://app?vid=95479741-dd0a-43d7-ae30-9404c5aafc81","ios":"levelo://app?vid=95479741-dd0a-43d7-ae30-9404c5aafc81"},"vehicle_type_id":"4","last_reported":1683547996,"current_range_meters":8400,"station_id":"ce4bhbh2rcd13ifvqepg","pricing_plan_id":"free"},{"bike_id":"aaa538ff-e314-4b5f-81fb-34d132333bf6","system_id":"levelo_inurba_marseille","lat":43.28416,"lon":5.349653,"is_reserved":false,"is_disabled":false,"rental_uris":{"android":"levelo://app?vid=aaa538ff-e314-4b5f-81fb-34d132333bf6","ios":"levelo://app?vid=aaa538ff-e314-4b5f-81fb-34d132333bf6"},"vehicle_type_id":"4","last_reported":1683547996,"current_range_meters":0,"station_id":"","pricing_plan_id":"free"},{"bike_id":"019498f9-0e61-477e-af64-a1965286448d","system_id":"levelo_inurba_marseille","lat":43.28935,"lon":5.39627,"is_reserved":false,"is_disabled":false,"rental_uris":{"android":"levelo://app?vid=019498f9-0e61-477e-af64-a1965286448d","ios":"levelo://app?vid=019498f9-0e61-477e-af64-a1965286448d"},"vehicle_type_id":"4","last_reported":1683547996,"current_range_meters":9200,"station_id":"ce4bh3h2rcd13ifvqdn0","pricing_plan_id":"free"},{"bike_id":"ede5d17d-be78-4a48-972f-75476437e5e7","system_id":"levelo_inurba_marseille","lat":43.28287,"lon":5.3509,"is_reserved":false,"is_disabled":false,"rental_uris":{"android":"levelo://app?vid=ede5d17d-be78-4a48-972f-75476437e5e7","ios":"levelo://app?vid=ede5d17d-be78-4a48-972f-75476437e5e7"},"vehicle_type_id":"4","last_reported":1683547996,"current_range_meters":29600,"station_id":"ce4bhbp2rcd13ifvqerg","pricing_plan_id":"free"},{"bike_id":"0a3d2f0b-a441-4fe3-8e6e-01b702dcf0f2","system_id":"levelo_inurba_marseille","lat":43.28283,"lon":5.35097,"is_reserved":false,"is_disabled":false,"rental_uris":{"android":"levelo://app?vid=0a3d2f0b-a441-4fe3-8e6e-01b702dcf0f2","ios":"levelo://app?vid=0a3d2f0b-a441-4fe3-8e6e-01b702dcf0f2"},"vehicle_type_id":"4","last_reported":1683547996,"current_range_meters":15200,"station_id":"","pricing_plan_id":"free"},{"bike_id":"fdc8c920-523e-47f7-bcc1-bb3517321e58","system_id":"levelo_inurba_marseille","lat":43.2828,"lon":5.35091,"is_reserved":false,"is_disabled":false,"rental_uris":{"android":"levelo://app?vid=fdc8c920-523e-47f7-bcc1-bb3517321e58","ios":"levelo://app?vid=fdc8c920-523e-47f7-bcc1-bb3517321e58"},"vehicle_type_id":"4","last_reported":1683547996,"current_range_meters":20000,"station_id":"ce4bhbp2rcd13ifvqerg","pricing_plan_id":"free"},{"bike_id":"3bb784eb-f0d3-4eb1-b0f6-94fc8106bda7","system_id":"levelo_inurba_marseille","lat":43.2828,"lon":5.35084,"is_reserved":false,"is_disabled":false,"rental_uris":{"android":"levelo://app?vid=3bb784eb-f0d3-4eb1-b0f6-94fc8106bda7","ios":"levelo://app?vid=3bb784eb-f0d3-4eb1-b0f6-94fc8106bda7"},"vehicle_type_id":"4","last_reported":1683547996,"current_range_meters":14000,"station_id":"ce4bhbp2rcd13ifvqerg","pricing_plan_id":"free"},{"bike_id":"a20c3be1-2edb-4d73-a7ec-ca5b46e54533","system_id":"levelo_inurba_marseille","lat":43.28279,"lon":5.35087,"is_reserved":false,"is_disabled":false,"rental_uris":{"android":"levelo://app?vid=a20c3be1-2edb-4d73-a7ec-ca5b46e54533","ios":"levelo://app?vid=a20c3be1-2edb-4d73-a7ec-ca5b46e54533"},"vehicle_type_id":"4","last_reported":1683547996,"current_range_meters":26000,"station_id":"ce4bhbp2rcd13ifvqerg","pricing_plan_id":"free"},{"bike_id":"c3038cc6-532c-4a24-a08e-9b5f864aa49e","system_id":"levelo_inurba_marseille","lat":43.2828,"lon":5.35082,"is_reserved":false,"is_disabled":false,"rental_uris":{"android":"levelo://app?vid=c3038cc6-532c-4a24-a08e-9b5f864aa49e","ios":"levelo://app?vid=c3038cc6-532c-4a24-a08e-9b5f864aa49e"},"vehicle_type_id":"4","last_reported":1683547996,"current_range_meters":16000,"station_id":"","pricing_plan_id":"free"},{"bike_id":"49a800bd-a158-4ac8-bc52-30014dfa9e05","system_id":"levelo_inurba_marseille","lat":43.2828,"lon":5.35079,"is_reserved":false,"is_disabled":false,"rental_uris":{"android":"levelo://app?vid=49a800bd-a158-4ac8-bc52-30014dfa9e05","ios":"levelo://app?vid=49a800bd-a158-4ac8-bc52-30014dfa9e05"},"vehicle_type_id":"4","last_reported":1683547996,"current_range_meters":26000,"station_id":"ce4bhbp2rcd13ifvqerg","pricing_plan_id":"free"},{"bike_id":"3699c439-78a2-4004-bd94-a4236a395020","system_id":"levelo_inurba_marseille","lat":43.2828,"lon":5.35079,"is_reserved":false,"is_disabled":false,"rental_uris":{"android":"levelo://app?vid=3699c439-78a2-4004-bd94-a4236a395020","ios":"levelo://app?vid=3699c439-78a2-4004-bd94-a4236a395020"},"vehicle_type_id":"4","last_reported":1683547996,"current_range_meters":24000,"station_id":"","pricing_plan_id":"free"},{"bike_id":"87111178-9ff6-45fb-b907-b0cf07a672bc","system_id":"levelo_inurba_marseille","lat":43.28277,"lon":5.35086,"is_reserved":false,"is_disabled":false,"rental_uris":{"android":"levelo://app?vid=87111178-9ff6-45fb-b907-b0cf07a672bc","ios":"levelo://app?vid=87111178-9ff6-45fb-b907-b0cf07a672bc"},"vehicle_type_id":"4","last_reported":1683547996,"current_range_meters":14000,"station_id":"","pricing_plan_id":"free"},{"bike_id":"4cf8a002-3857-486a-abae-d85e6e41e347","system_id":"levelo_inurba_marseille","lat":43.28277,"lon":5.35086,"is_reserved":false,"is_disabled":false,"rental_uris":{"android":"levelo://app?vid=4cf8a002-3857-486a-abae-d85e6e41e347","ios":"levelo://app?vid=4cf8a002-3857-486a-abae-d85e6e41e347"},"vehicle_type_id":"4","last_reported":1683547996,"current_range_meters":10400,"station_id":"ce4bhbp2rcd13ifvqerg","pricing_plan_id":"free"},{"bike_id":"7683cb1a-9544-4518-9844-f2fc429990df","system_id":"levelo_inurba_marseille","lat":43.28276,"lon":5.35088,"is_reserved":false,"is_disabled":false,"rental_uris":{"android":"levelo://app?vid=7683cb1a-9544-4518-9844-f2fc429990df","ios":"levelo://app?vid=7683cb1a-9544-4518-9844-f2fc429990df"},"vehicle_type_id":"4","last_reported":1683547996,"current_range_meters":28400,"station_id":"","pricing_plan_id":"free"},{"bike_id":"8f570d76-84f8-4338-a85c-c2ba86499149","system_id":"levelo_inurba_marseille","lat":43.28279,"lon":5.35075,"is_reserved":false,"is_disabled":false,"rental_uris":{"android":"levelo://app?vid=8f570d76-84f8-4338-a85c-c2ba86499149","ios":"levelo://app?vid=8f570d76-84f8-4338-a85c-c2ba86499149"},"vehicle_type_id":"4","last_reported":1683547996,"current_range_meters":14800,"station_id":"ce4bhbp2rcd13ifvqerg","pricing_plan_id":"free"},{"bike_id":"659db7a0-4da9-4474-9d4b-164a15486608","system_id":"levelo_inurba_marseille","lat":43.28276,"lon":5.35083,"is_reserved":false,"is_disabled":false,"rental_uris":{"android":"levelo://app?vid=659db7a0-4da9-4474-9d4b-164a15486608","ios":"levelo://app?vid=659db7a0-4da9-4474-9d4b-164a15486608"},"vehicle_type_id":"4","last_reported":1683547996,"current_range_meters":9600,"station_id":"ce4bhbp2rcd13ifvqerg","pricing_plan_id":"free"},{"bike_id":"66a28ad7-b044-410e-a143-48f61f5813f8","system_id":"levelo_inurba_marseille","lat":43.28274,"lon":5.35087,"is_reserved":false,"is_disabled":false,"rental_uris":{"android":"levelo://app?vid=66a28ad7-b044-410e-a143-48f61f5813f8","ios":"levelo://app?vid=66a28ad7-b044-410e-a143-48f61f5813f8"},"vehicle_type_id":"4","last_reported":1683547996,"current_range_meters":22000,"station_id":"ce4bhbp2rcd13ifvqerg","pricing_plan_id":"free"},{"bike_id":"623ca7bf-8b02-43df-8455-60436dac4889","system_id":"levelo_inurba_marseille","lat":43.28275,"lon":5.35083,"is_reserved":false,"is_disabled":false,"rental_uris":{"android":"levelo://app?vid=623ca7bf-8b02-43df-8455-60436dac4889","ios":"levelo://app?vid=623ca7bf-8b02-43df-8455-60436dac4889"},"vehicle_type_id":"4","last_reported":1683547996,"current_range_meters":2400,"station_id":"ce4bhbp2rcd13ifvqerg","pricing_plan_id":"free"},{"bike_id":"dbd71d04-e371-40ce-9141-6f32dea3b088","system_id":"levelo_inurba_marseille","lat":43.28272,"lon":5.35083,"is_reserved":false,"is_disabled":false,"rental_uris":{"android":"levelo://app?vid=dbd71d04-e371-40ce-9141-6f32dea3b088","ios":"levelo://app?vid=dbd71d04-e371-40ce-9141-6f32dea3b088"},"vehicle_type_id":"4","last_reported":1683547996,"current_range_meters":31200,"station_id":"ce4bhbp2rcd13ifvqerg","pricing_plan_id":"free"},{"bike_id":"9475d3fd-6453-4826-a501-08ab05101164","system_id":"levelo_inurba_marseille","lat":43.28273,"lon":5.35078,"is_reserved":false,"is_disabled":false,"rental_uris":{"android":"levelo://app?vid=9475d3fd-6453-4826-a501-08ab05101164","ios":"levelo://app?vid=9475d3fd-6453-4826-a501-08ab05101164"},"vehicle_type_id":"4","last_reported":1683547996,"current_range_meters":24800,"station_id":"ce4bhbp2rcd13ifvqerg","pricing_plan_id":"free"},{"bike_id":"1426cfa1-b262-4bfc-9679-04415df6a3db","system_id":"levelo_inurba_marseille","lat":43.28271,"lon":5.35085,"is_reserved":false,"is_disabled":false,"rental_uris":{"android":"levelo://app?vid=1426cfa1-b262-4bfc-9679-04415df6a3db","ios":"levelo://app?vid=1426cfa1-b262-4bfc-9679-04415df6a3db"},"vehicle_type_id":"4","last_reported":1683547996,"current_range_meters":20400,"station_id":"ce4bhbp2rcd13ifvqerg","pricing_plan_id":"free"},{"bike_id":"834e0b10-7178-471f-93b2-60219e9c87e8","system_id":"levelo_inurba_marseille","lat":43.28272,"lon":5.35079,"is_reserved":false,"is_disabled":false,"rental_uris":{"android":"levelo://app?vid=834e0b10-7178-471f-93b2-60219e9c87e8","ios":"levelo://app?vid=834e0b10-7178-471f-93b2-60219e9c87e8"},"vehicle_type_id":"4","last_reported":1683547996,"current_range_meters":31200,"station_id":"ce4bhbp2rcd13ifvqerg","pricing_plan_id":"free"},{"bike_id":"0b18a94b-8838-466b-87ca-eaa536f1bed3","system_id":"levelo_inurba_marseille","lat":43.282744,"lon":5.350533,"is_reserved":false,"is_disabled":false,"rental_uris":{"android":"levelo://app?vid=0b18a94b-8838-466b-87ca-eaa536f1bed3","ios":"levelo://app?vid=0b18a94b-8838-466b-87ca-eaa536f1bed3"},"vehicle_type_id":"4","last_reported":1683547996,"current_range_meters":6800,"station_id":"ce4bhbp2rcd13ifvqerg","pricing_plan_id":"free"},{"bike_id":"a12cf28b-594f-46f1-a043-a0c66906a595","system_id":"levelo_inurba_marseille","lat":43.28273,"lon":5.35075,"is_reserved":false,"is_disabled":false,"rental_uris":{"android":"levelo://app?vid=a12cf28b-594f-46f1-a043-a0c66906a595","ios":"levelo://app?vid=a12cf28b-594f-46f1-a043-a0c66906a595"},"vehicle_type_id":"4","last_reported":1683547996,"current_range_meters":21600,"station_id":"","pricing_plan_id":"free"},{"bike_id":"2940a9ef-79c8-4524-a7e4-f05f28b54870","system_id":"levelo_inurba_marseille","lat":43.28271,"lon":5.35082,"is_reserved":false,"is_disabled":false,"rental_uris":{"android":"levelo://app?vid=2940a9ef-79c8-4524-a7e4-f05f28b54870","ios":"levelo://app?vid=2940a9ef-79c8-4524-a7e4-f05f28b54870"},"vehicle_type_id":"4","last_reported":1683547996,"current_range_meters":20000,"station_id":"ce4bhbp2rcd13ifvqerg","pricing_plan_id":"free"},{"bike_id":"0010e7fb-d7d1-48fc-b999-6263620ec172","system_id":"levelo_inurba_marseille","lat":43.282744,"lon":5.350533,"is_reserved":false,"is_disabled":false,"rental_uris":{"android":"levelo://app?vid=0010e7fb-d7d1-48fc-b999-6263620ec172","ios":"levelo://app?vid=0010e7fb-d7d1-48fc-b999-6263620ec172"},"vehicle_type_id":"4","last_reported":1683547996,"current_range_meters":31200,"station_id":"ce4bhbp2rcd13ifvqerg","pricing_plan_id":"free"},{"bike_id":"d0d4bf12-a6e0-43da-8aa6-0e82c9c8431f","system_id":"levelo_inurba_marseille","lat":43.28271,"lon":5.35081,"is_reserved":false,"is_disabled":false,"rental_uris":{"android":"levelo://app?vid=d0d4bf12-a6e0-43da-8aa6-0e82c9c8431f","ios":"levelo://app?vid=d0d4bf12-a6e0-43da-8aa6-0e82c9c8431f"},"vehicle_type_id":"4","last_reported":1683547996,"current_range_meters":28800,"station_id":"ce4bhbp2rcd13ifvqerg","pricing_plan_id":"free"},{"bike_id":"65925f9b-ef3a-4b5c-adf2-627a213cd002","system_id":"levelo_inurba_marseille","lat":43.28272,"lon":5.35077,"is_reserved":false,"is_disabled":false,"rental_uris":{"android":"levelo://app?vid=65925f9b-ef3a-4b5c-adf2-627a213cd002","ios":"levelo://app?vid=65925f9b-ef3a-4b5c-adf2-627a213cd002"},"vehicle_type_id":"4","last_reported":1683547996,"current_range_meters":31200,"station_id":"ce4bhbp2rcd13ifvqerg","pricing_plan_id":"free"},{"bike_id":"137d4907-04a5-43b4-8718-b2f5cb241a7a","system_id":"levelo_inurba_marseille","lat":43.28272,"lon":5.35077,"is_reserved":false,"is_disabled":false,"rental_uris":{"android":"levelo://app?vid=137d4907-04a5-43b4-8718-b2f5cb241a7a","ios":"levelo://app?vid=137d4907-04a5-43b4-8718-b2f5cb241a7a"},"vehicle_type_id":"4","last_reported":1683547996,"current_range_meters":12800,"station_id":"ce4bhbp2rcd13ifvqerg","pricing_plan_id":"free"},{"bike_id":"d9584419-27e1-452b-88e9-e988b38d1d42","system_id":"levelo_inurba_marseille","lat":43.2827,"lon":5.35084,"is_reserved":false,"is_disabled":false,"rental_uris":{"android":"levelo://app?vid=d9584419-27e1-452b-88e9-e988b38d1d42","ios":"levelo://app?vid=d9584419-27e1-452b-88e9-e988b38d1d42"},"vehicle_type_id":"4","last_reported":1683547996,"current_range_meters":15600,"station_id":"ce4bhbp2rcd13ifvqerg","pricing_plan_id":"free"},{"bike_id":"0f8bd757-28da-494f-958b-2f075a5bc9b5","system_id":"levelo_inurba_marseille","lat":43.28269,"lon":5.35082,"is_reserved":false,"is_disabled":false,"rental_uris":{"android":"levelo://app?vid=0f8bd757-28da-494f-958b-2f075a5bc9b5","ios":"levelo://app?vid=0f8bd757-28da-494f-958b-2f075a5bc9b5"},"vehicle_type_id":"4","last_reported":1683547996,"current_range_meters":24800,"station_id":"ce4bhbp2rcd13ifvqerg","pricing_plan_id":"free"},{"bike_id":"4be5e93e-ac06-4ca2-b04f-a84fc3f2f014","system_id":"levelo_inurba_marseille","lat":43.28269,"lon":5.3508,"is_reserved":false,"is_disabled":false,"rental_uris":{"android":"levelo://app?vid=4be5e93e-ac06-4ca2-b04f-a84fc3f2f014","ios":"levelo://app?vid=4be5e93e-ac06-4ca2-b04f-a84fc3f2f014"},"vehicle_type_id":"4","last_reported":1683547996,"current_range_meters":14800,"station_id":"ce4bhbp2rcd13ifvqerg","pricing_plan_id":"free"},{"bike_id":"859786cd-b8f6-43d6-8055-584c99abaa08","system_id":"levelo_inurba_marseille","lat":43.282744,"lon":5.350533,"is_reserved":false,"is_disabled":false,"rental_uris":{"android":"levelo://app?vid=859786cd-b8f6-43d6-8055-584c99abaa08","ios":"levelo://app?vid=859786cd-b8f6-43d6-8055-584c99abaa08"},"vehicle_type_id":"4","last_reported":1683547996,"current_range_meters":6800,"station_id":"ce4bhbp2rcd13ifvqerg","pricing_plan_id":"free"},{"bike_id":"1291d072-bbf8-4e5b-9e5b-0056917f71c6","system_id":"levelo_inurba_marseille","lat":43.2827,"lon":5.35075,"is_reserved":false,"is_disabled":false,"rental_uris":{"android":"levelo://app?vid=1291d072-bbf8-4e5b-9e5b-0056917f71c6","ios":"levelo://app?vid=1291d072-bbf8-4e5b-9e5b-0056917f71c6"},"vehicle_type_id":"4","last_reported":1683547996,"current_range_meters":14000,"station_id":"ce4bhbp2rcd13ifvqerg","pricing_plan_id":"free"},{"bike_id":"4ac14ff6-d9a2-47ab-8b00-fca20447d35c","system_id":"levelo_inurba_marseille","lat":43.282744,"lon":5.350533,"is_reserved":false,"is_disabled":false,"rental_uris":{"android":"levelo://app?vid=4ac14ff6-d9a2-47ab-8b00-fca20447d35c","ios":"levelo://app?vid=4ac14ff6-d9a2-47ab-8b00-fca20447d35c"},"vehicle_type_id":"4","last_reported":1683547996,"current_range_meters":18800,"station_id":"ce4bhbp2rcd13ifvqerg","pricing_plan_id":"free"},{"bike_id":"82dbb452-8a53-4220-9b52-ec92678c6a90","system_id":"levelo_inurba_marseille","lat":43.28271,"lon":5.35071,"is_reserved":false,"is_disabled":false,"rental_uris":{"android":"levelo://app?vid=82dbb452-8a53-4220-9b52-ec92678c6a90","ios":"levelo://app?vid=82dbb452-8a53-4220-9b52-ec92678c6a90"},"vehicle_type_id":"4","last_reported":1683547996,"current_range_meters":22800,"station_id":"ce4bhbp2rcd13ifvqerg","pricing_plan_id":"free"},{"bike_id":"8feb8585-713c-4215-bdbb-cc31e8c6ac19","system_id":"levelo_inurba_marseille","lat":43.28269,"lon":5.35074,"is_reserved":false,"is_disabled":false,"rental_uris":{"android":"levelo://app?vid=8feb8585-713c-4215-bdbb-cc31e8c6ac19","ios":"levelo://app?vid=8feb8585-713c-4215-bdbb-cc31e8c6ac19"},"vehicle_type_id":"4","last_reported":1683547996,"current_range_meters":10800,"station_id":"ce4bhbp2rcd13ifvqerg","pricing_plan_id":"free"},{"bike_id":"1a48086d-f9f7-45fd-bc65-29aefece912c","system_id":"levelo_inurba_marseille","lat":43.282754,"lon":5.350519,"is_reserved":false,"is_disabled":false,"rental_uris":{"android":"levelo://app?vid=1a48086d-f9f7-45fd-bc65-29aefece912c","ios":"levelo://app?vid=1a48086d-f9f7-45fd-bc65-29aefece912c"},"vehicle_type_id":"4","last_reported":1683547996,"current_range_meters":13200,"station_id":"ce4bhbp2rcd13ifvqerg","pricing_plan_id":"free"},{"bike_id":"e949b8c0-07ee-40b3-8bbe-64292b6d2149","system_id":"levelo_inurba_marseille","lat":43.282744,"lon":5.350533,"is_reserved":false,"is_disabled":false,"rental_uris":{"android":"levelo://app?vid=e949b8c0-07ee-40b3-8bbe-64292b6d2149","ios":"levelo://app?vid=e949b8c0-07ee-40b3-8bbe-64292b6d2149"},"vehicle_type_id":"4","last_reported":1683547996,"current_range_meters":20800,"station_id":"ce4bhbp2rcd13ifvqerg","pricing_plan_id":"free"},{"bike_id":"76242f32-c407-44d4-84d7-fa1d50b0f9dc","system_id":"levelo_inurba_marseille","lat":43.32444,"lon":5.40831,"is_reserved":false,"is_disabled":false,"rental_uris":{"android":"levelo://app?vid=76242f32-c407-44d4-84d7-fa1d50b0f9dc","ios":"levelo://app?vid=76242f32-c407-44d4-84d7-fa1d50b0f9dc"},"vehicle_type_id":"4","last_reported":1683547996,"current_range_meters":0,"station_id":"","pricing_plan_id":"free"},{"bike_id":"9c0f8385-bb76-4737-8f2b-bdc31e6292f1","system_id":"levelo_inurba_marseille","lat":43.282744,"lon":5.350533,"is_reserved":false,"is_disabled":false,"rental_uris":{"android":"levelo://app?vid=9c0f8385-bb76-4737-8f2b-bdc31e6292f1","ios":"levelo://app?vid=9c0f8385-bb76-4737-8f2b-bdc31e6292f1"},"vehicle_type_id":"4","last_reported":1683547996,"current_range_meters":4400,"station_id":"ce4bhbp2rcd13ifvqerg","pricing_plan_id":"free"},{"bike_id":"b12e2e33-d168-4ede-9d98-12950a037bb9","system_id":"levelo_inurba_marseille","lat":43.28269,"lon":5.35059,"is_reserved":false,"is_disabled":false,"rental_uris":{"android":"levelo://app?vid=b12e2e33-d168-4ede-9d98-12950a037bb9","ios":"levelo://app?vid=b12e2e33-d168-4ede-9d98-12950a037bb9"},"vehicle_type_id":"4","last_reported":1683547996,"current_range_meters":13200,"station_id":"ce4bhbp2rcd13ifvqerg","pricing_plan_id":"free"},{"bike_id":"306aedfe-b45a-4eed-b9a5-841653072bd1","system_id":"levelo_inurba_marseille","lat":43.28265,"lon":5.35063,"is_reserved":false,"is_disabled":false,"rental_uris":{"android":"levelo://app?vid=306aedfe-b45a-4eed-b9a5-841653072bd1","ios":"levelo://app?vid=306aedfe-b45a-4eed-b9a5-841653072bd1"},"vehicle_type_id":"4","last_reported":1683547996,"current_range_meters":12400,"station_id":"ce4bhbp2rcd13ifvqerg","pricing_plan_id":"free"},{"bike_id":"fa245d1d-849e-4921-ae83-482825d65053","system_id":"levelo_inurba_marseille","lat":43.28262,"lon":5.3507,"is_reserved":false,"is_disabled":false,"rental_uris":{"android":"levelo://app?vid=fa245d1d-849e-4921-ae83-482825d65053","ios":"levelo://app?vid=fa245d1d-849e-4921-ae83-482825d65053"},"vehicle_type_id":"4","last_reported":1683547996,"current_range_meters":23600,"station_id":"ce4bhbp2rcd13ifvqerg","pricing_plan_id":"free"},{"bike_id":"ba4293af-6344-459c-ab70-d4a491f954f2","system_id":"levelo_inurba_marseille","lat":43.28262,"lon":5.35065,"is_reserved":false,"is_disabled":false,"rental_uris":{"android":"levelo://app?vid=ba4293af-6344-459c-ab70-d4a491f954f2","ios":"levelo://app?vid=ba4293af-6344-459c-ab70-d4a491f954f2"},"vehicle_type_id":"4","last_reported":1683547996,"current_range_meters":14800,"station_id":"ce4bhbp2rcd13ifvqerg","pricing_plan_id":"free"},{"bike_id":"d4a4470c-6174-4d45-bba3-8faddf92ded4","system_id":"levelo_inurba_marseille","lat":43.28039,"lon":5.369297,"is_reserved":false,"is_disabled":false,"rental_uris":{"android":"levelo://app?vid=d4a4470c-6174-4d45-bba3-8faddf92ded4","ios":"levelo://app?vid=d4a4470c-6174-4d45-bba3-8faddf92ded4"},"vehicle_type_id":"4","last_reported":1683547996,"current_range_meters":26000,"station_id":"ce4bha12rcd13ifvqef0","pricing_plan_id":"free"},{"bike_id":"f09c0fb0-45e9-4f29-966d-6b7dcb071200","system_id":"levelo_inurba_marseille","lat":43.296263,"lon":5.40601,"is_reserved":false,"is_disabled":false,"rental_uris":{"android":"levelo://app?vid=f09c0fb0-45e9-4f29-966d-6b7dcb071200","ios":"levelo://app?vid=f09c0fb0-45e9-4f29-966d-6b7dcb071200"},"vehicle_type_id":"4","last_reported":1683547996,"current_range_meters":20000,"station_id":"ce4bh0h2rcd13ifvqd60","pricing_plan_id":"free"},{"bike_id":"de7ea1e6-fa43-469e-b37b-7f7dd52fa4a5","system_id":"levelo_inurba_marseille","lat":43.32611,"lon":5.41048,"is_reserved":false,"is_disabled":false,"rental_uris":{"android":"levelo://app?vid=de7ea1e6-fa43-469e-b37b-7f7dd52fa4a5","ios":"levelo://app?vid=de7ea1e6-fa43-469e-b37b-7f7dd52fa4a5"},"vehicle_type_id":"4","last_reported":1683547996,"current_range_meters":2400,"station_id":"ce4bhpp2rcd13ifvqhgg","pricing_plan_id":"free"},{"bike_id":"4aa47510-e8bb-47b5-9b7a-e2e8ad677a9b","system_id":"levelo_inurba_marseille","lat":43.304188,"lon":5.412904,"is_reserved":false,"is_disabled":false,"rental_uris":{"android":"levelo://app?vid=4aa47510-e8bb-47b5-9b7a-e2e8ad677a9b","ios":"levelo://app?vid=4aa47510-e8bb-47b5-9b7a-e2e8ad677a9b"},"vehicle_type_id":"4","last_reported":1683547996,"current_range_meters":30400,"station_id":"ce4bhop2rcd13ifvqh8g","pricing_plan_id":"free"},{"bike_id":"41f013db-e245-4523-ab6b-b0465990c210","system_id":"levelo_inurba_marseille","lat":43.304188,"lon":5.412904,"is_reserved":false,"is_disabled":false,"rental_uris":{"android":"levelo://app?vid=41f013db-e245-4523-ab6b-b0465990c210","ios":"levelo://app?vid=41f013db-e245-4523-ab6b-b0465990c210"},"vehicle_type_id":"4","last_reported":1683547996,"current_range_meters":28400,"station_id":"ce4bhop2rcd13ifvqh8g","pricing_plan_id":"free"},{"bike_id":"9c7d69a6-2d06-42c0-82fa-a385c3c12ffd","system_id":"levelo_inurba_marseille","lat":43.28135,"lon":5.34622,"is_reserved":false,"is_disabled":false,"rental_uris":{"android":"levelo://app?vid=9c7d69a6-2d06-42c0-82fa-a385c3c12ffd","ios":"levelo://app?vid=9c7d69a6-2d06-42c0-82fa-a385c3c12ffd"},"vehicle_type_id":"4","last_reported":1683547996,"current_range_meters":8800,"station_id":"","pricing_plan_id":"free"},{"bike_id":"61de6e0d-fb85-4a11-be1e-d6b66c70e872","system_id":"levelo_inurba_marseille","lat":43.299577,"lon":5.413277,"is_reserved":false,"is_disabled":false,"rental_uris":{"android":"levelo://app?vid=61de6e0d-fb85-4a11-be1e-d6b66c70e872","ios":"levelo://app?vid=61de6e0d-fb85-4a11-be1e-d6b66c70e872"},"vehicle_type_id":"4","last_reported":1683547996,"current_range_meters":31200,"station_id":"ce4bhp12rcd13ifvqh9g","pricing_plan_id":"free"},{"bike_id":"9223d2ef-e8ce-4316-9464-8bfe6dbcf887","system_id":"levelo_inurba_marseille","lat":43.299577,"lon":5.413277,"is_reserved":false,"is_disabled":false,"rental_uris":{"android":"levelo://app?vid=9223d2ef-e8ce-4316-9464-8bfe6dbcf887","ios":"levelo://app?vid=9223d2ef-e8ce-4316-9464-8bfe6dbcf887"},"vehicle_type_id":"4","last_reported":1683547996,"current_range_meters":17600,"station_id":"ce4bhp12rcd13ifvqh9g","pricing_plan_id":"free"},{"bike_id":"2973726b-ebd2-4274-9faf-5a43cd56390a","system_id":"levelo_inurba_marseille","lat":43.320045,"lon":5.415048,"is_reserved":false,"is_disabled":false,"rental_uris":{"android":"levelo://app?vid=2973726b-ebd2-4274-9faf-5a43cd56390a","ios":"levelo://app?vid=2973726b-ebd2-4274-9faf-5a43cd56390a"},"vehicle_type_id":"4","last_reported":1683547996,"current_range_meters":24000,"station_id":"ce4bhq92rcd13ifvqhkg","pricing_plan_id":"free"},{"bike_id":"61f420b0-f1b3-468f-9dcd-bff90ce0f0e9","system_id":"levelo_inurba_marseille","lat":43.27618,"lon":5.361009,"is_reserved":false,"is_disabled":false,"rental_uris":{"android":"levelo://app?vid=61f420b0-f1b3-468f-9dcd-bff90ce0f0e9","ios":"levelo://app?vid=61f420b0-f1b3-468f-9dcd-bff90ce0f0e9"},"vehicle_type_id":"4","last_reported":1683547996,"current_range_meters":30000,"station_id":"ce4bgj92rcd13ifvqbe0","pricing_plan_id":"free"},{"bike_id":"1c2a22c5-6330-4a39-9235-617c098450bf","system_id":"levelo_inurba_marseille","lat":43.27618,"lon":5.361009,"is_reserved":false,"is_disabled":false,"rental_uris":{"android":"levelo://app?vid=1c2a22c5-6330-4a39-9235-617c098450bf","ios":"levelo://app?vid=1c2a22c5-6330-4a39-9235-617c098450bf"},"vehicle_type_id":"4","last_reported":1683547996,"current_range_meters":11200,"station_id":"ce4bgj92rcd13ifvqbe0","pricing_plan_id":"free"},{"bike_id":"1cbe7a30-8218-45d3-a325-6a9ce7afcee6","system_id":"levelo_inurba_marseille","lat":43.27618,"lon":5.361009,"is_reserved":false,"is_disabled":false,"rental_uris":{"android":"levelo://app?vid=1cbe7a30-8218-45d3-a325-6a9ce7afcee6","ios":"levelo://app?vid=1cbe7a30-8218-45d3-a325-6a9ce7afcee6"},"vehicle_type_id":"4","last_reported":1683547996,"current_range_meters":30400,"station_id":"ce4bgj92rcd13ifvqbe0","pricing_plan_id":"free"},{"bike_id":"f99d7321-e2b2-465d-91a6-4b665a3c5439","system_id":"levelo_inurba_marseille","lat":43.27618,"lon":5.361009,"is_reserved":false,"is_disabled":false,"rental_uris":{"android":"levelo://app?vid=f99d7321-e2b2-465d-91a6-4b665a3c5439","ios":"levelo://app?vid=f99d7321-e2b2-465d-91a6-4b665a3c5439"},"vehicle_type_id":"4","last_reported":1683547996,"current_range_meters":7200,"station_id":"ce4bgj92rcd13ifvqbe0","pricing_plan_id":"free"},{"bike_id":"ac19d7fd-ec2f-4f19-a106-96d79320ee4d","system_id":"levelo_inurba_marseille","lat":43.27618,"lon":5.361009,"is_reserved":false,"is_disabled":false,"rental_uris":{"android":"levelo://app?vid=ac19d7fd-ec2f-4f19-a106-96d79320ee4d","ios":"levelo://app?vid=ac19d7fd-ec2f-4f19-a106-96d79320ee4d"},"vehicle_type_id":"4","last_reported":1683547996,"current_range_meters":6000,"station_id":"ce4bgj92rcd13ifvqbe0","pricing_plan_id":"free"},{"bike_id":"e7352c3e-1bb9-430b-b6c2-6e5d96eb4ddb","system_id":"levelo_inurba_marseille","lat":43.27618,"lon":5.361009,"is_reserved":false,"is_disabled":false,"rental_uris":{"android":"levelo://app?vid=e7352c3e-1bb9-430b-b6c2-6e5d96eb4ddb","ios":"levelo://app?vid=e7352c3e-1bb9-430b-b6c2-6e5d96eb4ddb"},"vehicle_type_id":"4","last_reported":1683547996,"current_range_meters":21200,"station_id":"ce4bgj92rcd13ifvqbe0","pricing_plan_id":"free"},{"bike_id":"a1038d55-a182-4647-b312-0591199e9189","system_id":"levelo_inurba_marseille","lat":43.325233,"lon":5.414318,"is_reserved":false,"is_disabled":false,"rental_uris":{"android":"levelo://app?vid=a1038d55-a182-4647-b312-0591199e9189","ios":"levelo://app?vid=a1038d55-a182-4647-b312-0591199e9189"},"vehicle_type_id":"4","last_reported":1683547996,"current_range_meters":31200,"station_id":"ce4bhq12rcd13ifvqhhg","pricing_plan_id":"free"},{"bike_id":"98e8fc1f-8ca2-4e2c-a083-1efe6e8e661a","system_id":"levelo_inurba_marseille","lat":43.325233,"lon":5.414318,"is_reserved":false,"is_disabled":false,"rental_uris":{"android":"levelo://app?vid=98e8fc1f-8ca2-4e2c-a083-1efe6e8e661a","ios":"levelo://app?vid=98e8fc1f-8ca2-4e2c-a083-1efe6e8e661a"},"vehicle_type_id":"4","last_reported":1683547996,"current_range_meters":29600,"station_id":"ce4bhq12rcd13ifvqhhg","pricing_plan_id":"free"},{"bike_id":"5b6d23db-9482-4dfa-ad4d-0a12ff12f09b","system_id":"levelo_inurba_marseille","lat":43.325233,"lon":5.414318,"is_reserved":false,"is_disabled":false,"rental_uris":{"android":"levelo://app?vid=5b6d23db-9482-4dfa-ad4d-0a12ff12f09b","ios":"levelo://app?vid=5b6d23db-9482-4dfa-ad4d-0a12ff12f09b"},"vehicle_type_id":"4","last_reported":1683547996,"current_range_meters":17600,"station_id":"ce4bhq12rcd13ifvqhhg","pricing_plan_id":"free"},{"bike_id":"eb4f510a-b4f2-4513-9e9f-c4b14f0b0170","system_id":"levelo_inurba_marseille","lat":43.325233,"lon":5.414318,"is_reserved":false,"is_disabled":false,"rental_uris":{"android":"levelo://app?vid=eb4f510a-b4f2-4513-9e9f-c4b14f0b0170","ios":"levelo://app?vid=eb4f510a-b4f2-4513-9e9f-c4b14f0b0170"},"vehicle_type_id":"4","last_reported":1683547996,"current_range_meters":31200,"station_id":"ce4bhq12rcd13ifvqhhg","pricing_plan_id":"free"},{"bike_id":"f9764df3-4651-4fa2-a4e5-661ee224c0dc","system_id":"levelo_inurba_marseille","lat":43.276179,"lon":5.361009,"is_reserved":false,"is_disabled":false,"rental_uris":{"android":"levelo://app?vid=f9764df3-4651-4fa2-a4e5-661ee224c0dc","ios":"levelo://app?vid=f9764df3-4651-4fa2-a4e5-661ee224c0dc"},"vehicle_type_id":"4","last_reported":1683547996,"current_range_meters":15600,"station_id":"ce4bgj92rcd13ifvqbe0","pricing_plan_id":"free"},{"bike_id":"1e12c9cc-e46f-4db5-96a1-e9619a12fafe","system_id":"levelo_inurba_marseille","lat":43.325233,"lon":5.414318,"is_reserved":false,"is_disabled":false,"rental_uris":{"android":"levelo://app?vid=1e12c9cc-e46f-4db5-96a1-e9619a12fafe","ios":"levelo://app?vid=1e12c9cc-e46f-4db5-96a1-e9619a12fafe"},"vehicle_type_id":"4","last_reported":1683547996,"current_range_meters":31200,"station_id":"ce4bhq12rcd13ifvqhhg","pricing_plan_id":"free"},{"bike_id":"2f7e5d7c-56b8-4085-9693-fae39fa688b3","system_id":"levelo_inurba_marseille","lat":43.32543,"lon":5.41454,"is_reserved":false,"is_disabled":false,"rental_uris":{"android":"levelo://app?vid=2f7e5d7c-56b8-4085-9693-fae39fa688b3","ios":"levelo://app?vid=2f7e5d7c-56b8-4085-9693-fae39fa688b3"},"vehicle_type_id":"4","last_reported":1683547996,"current_range_meters":26800,"station_id":"","pricing_plan_id":"free"},{"bike_id":"d12ec49d-0c1d-4a93-a1d3-6b67fcd32ee2","system_id":"levelo_inurba_marseille","lat":43.27543,"lon":5.35977,"is_reserved":false,"is_disabled":false,"rental_uris":{"android":"levelo://app?vid=d12ec49d-0c1d-4a93-a1d3-6b67fcd32ee2","ios":"levelo://app?vid=d12ec49d-0c1d-4a93-a1d3-6b67fcd32ee2"},"vehicle_type_id":"4","last_reported":1683547996,"current_range_meters":4400,"station_id":"ce4bgj92rcd13ifvqbe0","pricing_plan_id":"free"},{"bike_id":"8c0d0c2f-87a5-4954-badf-59feacb5863e","system_id":"levelo_inurba_marseille","lat":43.28082,"lon":5.39659,"is_reserved":false,"is_disabled":false,"rental_uris":{"android":"levelo://app?vid=8c0d0c2f-87a5-4954-badf-59feacb5863e","ios":"levelo://app?vid=8c0d0c2f-87a5-4954-badf-59feacb5863e"},"vehicle_type_id":"4","last_reported":1683547996,"current_range_meters":0,"station_id":"ce4bho12rcd13ifvqh2g","pricing_plan_id":"free"},{"bike_id":"c7a6292e-1412-4cfb-8d76-4db9810ceb06","system_id":"levelo_inurba_marseille","lat":43.280784,"lon":5.396622,"is_reserved":false,"is_disabled":false,"rental_uris":{"android":"levelo://app?vid=c7a6292e-1412-4cfb-8d76-4db9810ceb06","ios":"levelo://app?vid=c7a6292e-1412-4cfb-8d76-4db9810ceb06"},"vehicle_type_id":"4","last_reported":1683547996,"current_range_meters":28400,"station_id":"ce4bho12rcd13ifvqh2g","pricing_plan_id":"free"},{"bike_id":"1b800103-0627-4b64-981f-95582883c8d7","system_id":"levelo_inurba_marseille","lat":43.27385,"lon":5.3625,"is_reserved":false,"is_disabled":false,"rental_uris":{"android":"levelo://app?vid=1b800103-0627-4b64-981f-95582883c8d7","ios":"levelo://app?vid=1b800103-0627-4b64-981f-95582883c8d7"},"vehicle_type_id":"4","last_reported":1683547996,"current_range_meters":20400,"station_id":"","pricing_plan_id":"free"},{"bike_id":"3f0a468b-2809-46ac-ab0f-3908e1cff71c","system_id":"levelo_inurba_marseille","lat":43.273613,"lon":5.362705,"is_reserved":false,"is_disabled":false,"rental_uris":{"android":"levelo://app?vid=3f0a468b-2809-46ac-ab0f-3908e1cff71c","ios":"levelo://app?vid=3f0a468b-2809-46ac-ab0f-3908e1cff71c"},"vehicle_type_id":"4","last_reported":1683547996,"current_range_meters":28800,"station_id":"ce4bhbh2rcd13ifvqeo0","pricing_plan_id":"free"},{"bike_id":"2a9f1b7b-efb3-4af7-a41e-2c9daedd92d8","system_id":"levelo_inurba_marseille","lat":43.273613,"lon":5.362705,"is_reserved":false,"is_disabled":false,"rental_uris":{"android":"levelo://app?vid=2a9f1b7b-efb3-4af7-a41e-2c9daedd92d8","ios":"levelo://app?vid=2a9f1b7b-efb3-4af7-a41e-2c9daedd92d8"},"vehicle_type_id":"4","last_reported":1683547996,"current_range_meters":24800,"station_id":"ce4bhbh2rcd13ifvqeo0","pricing_plan_id":"free"},{"bike_id":"21b23107-ef1a-4c23-ac17-2895ce3d923e","system_id":"levelo_inurba_marseille","lat":43.273613,"lon":5.362705,"is_reserved":false,"is_disabled":false,"rental_uris":{"android":"levelo://app?vid=21b23107-ef1a-4c23-ac17-2895ce3d923e","ios":"levelo://app?vid=21b23107-ef1a-4c23-ac17-2895ce3d923e"},"vehicle_type_id":"4","last_reported":1683547996,"current_range_meters":19200,"station_id":"ce4bhbh2rcd13ifvqeo0","pricing_plan_id":"free"},{"bike_id":"61596c98-86ef-4d32-9647-6aa648f6a64a","system_id":"levelo_inurba_marseille","lat":43.273613,"lon":5.362705,"is_reserved":false,"is_disabled":false,"rental_uris":{"android":"levelo://app?vid=61596c98-86ef-4d32-9647-6aa648f6a64a","ios":"levelo://app?vid=61596c98-86ef-4d32-9647-6aa648f6a64a"},"vehicle_type_id":"4","last_reported":1683547996,"current_range_meters":6000,"station_id":"ce4bhbh2rcd13ifvqeo0","pricing_plan_id":"free"},{"bike_id":"3a53e1b5-55da-4ce0-ad8b-f7d49f4a5cc0","system_id":"levelo_inurba_marseille","lat":43.273613,"lon":5.362705,"is_reserved":false,"is_disabled":false,"rental_uris":{"android":"levelo://app?vid=3a53e1b5-55da-4ce0-ad8b-f7d49f4a5cc0","ios":"levelo://app?vid=3a53e1b5-55da-4ce0-ad8b-f7d49f4a5cc0"},"vehicle_type_id":"4","last_reported":1683547996,"current_range_meters":26000,"station_id":"ce4bhbh2rcd13ifvqeo0","pricing_plan_id":"free"},{"bike_id":"1615f1e4-0a0e-45eb-b49a-3741a572d394","system_id":"levelo_inurba_marseille","lat":43.273613,"lon":5.362705,"is_reserved":false,"is_disabled":false,"rental_uris":{"android":"levelo://app?vid=1615f1e4-0a0e-45eb-b49a-3741a572d394","ios":"levelo://app?vid=1615f1e4-0a0e-45eb-b49a-3741a572d394"},"vehicle_type_id":"4","last_reported":1683547996,"current_range_meters":1200,"station_id":"ce4bhbh2rcd13ifvqeo0","pricing_plan_id":"free"},{"bike_id":"a5a37aac-cf92-49c1-903a-20e4b210ebd8","system_id":"levelo_inurba_marseille","lat":43.273609,"lon":5.362708,"is_reserved":false,"is_disabled":false,"rental_uris":{"android":"levelo://app?vid=a5a37aac-cf92-49c1-903a-20e4b210ebd8","ios":"levelo://app?vid=a5a37aac-cf92-49c1-903a-20e4b210ebd8"},"vehicle_type_id":"4","last_reported":1683547996,"current_range_meters":27200,"station_id":"ce4bhbh2rcd13ifvqeo0","pricing_plan_id":"free"},{"bike_id":"53e93082-f099-4945-91f9-1db4344d62b4","system_id":"levelo_inurba_marseille","lat":43.27376,"lon":5.3626,"is_reserved":false,"is_disabled":false,"rental_uris":{"android":"levelo://app?vid=53e93082-f099-4945-91f9-1db4344d62b4","ios":"levelo://app?vid=53e93082-f099-4945-91f9-1db4344d62b4"},"vehicle_type_id":"4","last_reported":1683547996,"current_range_meters":27200,"station_id":"ce4bhbh2rcd13ifvqeo0","pricing_plan_id":"free"},{"bike_id":"b522f12c-5bba-4cd0-879e-437e44703205","system_id":"levelo_inurba_marseille","lat":43.273609,"lon":5.362708,"is_reserved":false,"is_disabled":false,"rental_uris":{"android":"levelo://app?vid=b522f12c-5bba-4cd0-879e-437e44703205","ios":"levelo://app?vid=b522f12c-5bba-4cd0-879e-437e44703205"},"vehicle_type_id":"4","last_reported":1683547996,"current_range_meters":26800,"station_id":"ce4bhbh2rcd13ifvqeo0","pricing_plan_id":"free"},{"bike_id":"917010e9-146a-49bb-847a-43f85ccba8c3","system_id":"levelo_inurba_marseille","lat":43.273613,"lon":5.362705,"is_reserved":false,"is_disabled":false,"rental_uris":{"android":"levelo://app?vid=917010e9-146a-49bb-847a-43f85ccba8c3","ios":"levelo://app?vid=917010e9-146a-49bb-847a-43f85ccba8c3"},"vehicle_type_id":"4","last_reported":1683547996,"current_range_meters":20000,"station_id":"ce4bhbh2rcd13ifvqeo0","pricing_plan_id":"free"},{"bike_id":"3f956054-a2de-42ad-9559-94cdb162c013","system_id":"levelo_inurba_marseille","lat":43.273609,"lon":5.362708,"is_reserved":false,"is_disabled":false,"rental_uris":{"android":"levelo://app?vid=3f956054-a2de-42ad-9559-94cdb162c013","ios":"levelo://app?vid=3f956054-a2de-42ad-9559-94cdb162c013"},"vehicle_type_id":"4","last_reported":1683547996,"current_range_meters":31200,"station_id":"ce4bhbh2rcd13ifvqeo0","pricing_plan_id":"free"},{"bike_id":"fb6aa1fa-0947-48b2-bed7-a5f1a3958ca7","system_id":"levelo_inurba_marseille","lat":43.273609,"lon":5.362708,"is_reserved":false,"is_disabled":false,"rental_uris":{"android":"levelo://app?vid=fb6aa1fa-0947-48b2-bed7-a5f1a3958ca7","ios":"levelo://app?vid=fb6aa1fa-0947-48b2-bed7-a5f1a3958ca7"},"vehicle_type_id":"4","last_reported":1683547996,"current_range_meters":16000,"station_id":"ce4bhbh2rcd13ifvqeo0","pricing_plan_id":"free"},{"bike_id":"5468653c-6058-4968-a126-fc1b5af8e921","system_id":"levelo_inurba_marseille","lat":43.27375,"lon":5.36257,"is_reserved":false,"is_disabled":false,"rental_uris":{"android":"levelo://app?vid=5468653c-6058-4968-a126-fc1b5af8e921","ios":"levelo://app?vid=5468653c-6058-4968-a126-fc1b5af8e921"},"vehicle_type_id":"4","last_reported":1683547996,"current_range_meters":12400,"station_id":"ce4bhbh2rcd13ifvqeo0","pricing_plan_id":"free"},{"bike_id":"43b6a5d0-c1ed-4018-8aca-98fac210ab3a","system_id":"levelo_inurba_marseille","lat":43.273609,"lon":5.362708,"is_reserved":false,"is_disabled":false,"rental_uris":{"android":"levelo://app?vid=43b6a5d0-c1ed-4018-8aca-98fac210ab3a","ios":"levelo://app?vid=43b6a5d0-c1ed-4018-8aca-98fac210ab3a"},"vehicle_type_id":"4","last_reported":1683547996,"current_range_meters":31200,"station_id":"ce4bhbh2rcd13ifvqeo0","pricing_plan_id":"free"},{"bike_id":"7aeb8413-9a3b-4f7f-bb35-0e698677b64b","system_id":"levelo_inurba_marseille","lat":43.273609,"lon":5.362708,"is_reserved":false,"is_disabled":false,"rental_uris":{"android":"levelo://app?vid=7aeb8413-9a3b-4f7f-bb35-0e698677b64b","ios":"levelo://app?vid=7aeb8413-9a3b-4f7f-bb35-0e698677b64b"},"vehicle_type_id":"4","last_reported":1683547996,"current_range_meters":5600,"station_id":"ce4bhbh2rcd13ifvqeo0","pricing_plan_id":"free"},{"bike_id":"79e92e05-1cde-4218-b66e-b723b9a0f114","system_id":"levelo_inurba_marseille","lat":43.273609,"lon":5.362708,"is_reserved":false,"is_disabled":false,"rental_uris":{"android":"levelo://app?vid=79e92e05-1cde-4218-b66e-b723b9a0f114","ios":"levelo://app?vid=79e92e05-1cde-4218-b66e-b723b9a0f114"},"vehicle_type_id":"4","last_reported":1683547996,"current_range_meters":20400,"station_id":"ce4bhbh2rcd13ifvqeo0","pricing_plan_id":"free"},{"bike_id":"5bc8eca8-3b5b-4ed6-9d2a-30e08b85ae08","system_id":"levelo_inurba_marseille","lat":43.27373,"lon":5.36258,"is_reserved":false,"is_disabled":false,"rental_uris":{"android":"levelo://app?vid=5bc8eca8-3b5b-4ed6-9d2a-30e08b85ae08","ios":"levelo://app?vid=5bc8eca8-3b5b-4ed6-9d2a-30e08b85ae08"},"vehicle_type_id":"4","last_reported":1683547996,"current_range_meters":20000,"station_id":"ce4bhbh2rcd13ifvqeo0","pricing_plan_id":"free"},{"bike_id":"fd21131b-c049-487d-bffb-c12c88eb5442","system_id":"levelo_inurba_marseille","lat":43.273613,"lon":5.362705,"is_reserved":false,"is_disabled":false,"rental_uris":{"android":"levelo://app?vid=fd21131b-c049-487d-bffb-c12c88eb5442","ios":"levelo://app?vid=fd21131b-c049-487d-bffb-c12c88eb5442"},"vehicle_type_id":"4","last_reported":1683547996,"current_range_meters":28800,"station_id":"ce4bhbh2rcd13ifvqeo0","pricing_plan_id":"free"},{"bike_id":"5c45b351-8e45-4ce5-b467-e516e498c069","system_id":"levelo_inurba_marseille","lat":43.273609,"lon":5.362708,"is_reserved":false,"is_disabled":false,"rental_uris":{"android":"levelo://app?vid=5c45b351-8e45-4ce5-b467-e516e498c069","ios":"levelo://app?vid=5c45b351-8e45-4ce5-b467-e516e498c069"},"vehicle_type_id":"4","last_reported":1683547996,"current_range_meters":10000,"station_id":"ce4bhbh2rcd13ifvqeo0","pricing_plan_id":"free"},{"bike_id":"de259f98-5707-45d0-8351-bcd6d903837b","system_id":"levelo_inurba_marseille","lat":43.273609,"lon":5.362708,"is_reserved":false,"is_disabled":false,"rental_uris":{"android":"levelo://app?vid=de259f98-5707-45d0-8351-bcd6d903837b","ios":"levelo://app?vid=de259f98-5707-45d0-8351-bcd6d903837b"},"vehicle_type_id":"4","last_reported":1683547996,"current_range_meters":30400,"station_id":"ce4bhbh2rcd13ifvqeo0","pricing_plan_id":"free"},{"bike_id":"58d25a49-f622-4129-ae7c-1c754fb2c98e","system_id":"levelo_inurba_marseille","lat":43.273609,"lon":5.362708,"is_reserved":false,"is_disabled":false,"rental_uris":{"android":"levelo://app?vid=58d25a49-f622-4129-ae7c-1c754fb2c98e","ios":"levelo://app?vid=58d25a49-f622-4129-ae7c-1c754fb2c98e"},"vehicle_type_id":"4","last_reported":1683547996,"current_range_meters":3200,"station_id":"ce4bhbh2rcd13ifvqeo0","pricing_plan_id":"free"},{"bike_id":"5bad95ee-15b4-4563-8dae-a9e73b24b764","system_id":"levelo_inurba_marseille","lat":43.273613,"lon":5.362705,"is_reserved":false,"is_disabled":false,"rental_uris":{"android":"levelo://app?vid=5bad95ee-15b4-4563-8dae-a9e73b24b764","ios":"levelo://app?vid=5bad95ee-15b4-4563-8dae-a9e73b24b764"},"vehicle_type_id":"4","last_reported":1683547996,"current_range_meters":31200,"station_id":"ce4bhbh2rcd13ifvqeo0","pricing_plan_id":"free"},{"bike_id":"3f0c2974-eaa9-4702-9b5d-c19311382717","system_id":"levelo_inurba_marseille","lat":43.273613,"lon":5.362705,"is_reserved":false,"is_disabled":false,"rental_uris":{"android":"levelo://app?vid=3f0c2974-eaa9-4702-9b5d-c19311382717","ios":"levelo://app?vid=3f0c2974-eaa9-4702-9b5d-c19311382717"},"vehicle_type_id":"4","last_reported":1683547996,"current_range_meters":31200,"station_id":"ce4bhbh2rcd13ifvqeo0","pricing_plan_id":"free"},{"bike_id":"d8551755-d15f-47fc-93b8-26dad3d6c6e5","system_id":"levelo_inurba_marseille","lat":43.33612,"lon":5.410321,"is_reserved":false,"is_disabled":false,"rental_uris":{"android":"levelo://app?vid=d8551755-d15f-47fc-93b8-26dad3d6c6e5","ios":"levelo://app?vid=d8551755-d15f-47fc-93b8-26dad3d6c6e5"},"vehicle_type_id":"4","last_reported":1683547996,"current_range_meters":4400,"station_id":"ce4bhqh2rcd13ifvqhmg","pricing_plan_id":"free"},{"bike_id":"3c74701a-f6a0-435d-9b34-35e94fed7183","system_id":"levelo_inurba_marseille","lat":43.32777,"lon":5.41784,"is_reserved":false,"is_disabled":false,"rental_uris":{"android":"levelo://app?vid=3c74701a-f6a0-435d-9b34-35e94fed7183","ios":"levelo://app?vid=3c74701a-f6a0-435d-9b34-35e94fed7183"},"vehicle_type_id":"4","last_reported":1683547996,"current_range_meters":14000,"station_id":"","pricing_plan_id":"free"},{"bike_id":"732847bc-f425-418b-be21-fc527ebcdc13","system_id":"levelo_inurba_marseille","lat":43.317121,"lon":5.423936,"is_reserved":false,"is_disabled":false,"rental_uris":{"android":"levelo://app?vid=732847bc-f425-418b-be21-fc527ebcdc13","ios":"levelo://app?vid=732847bc-f425-418b-be21-fc527ebcdc13"},"vehicle_type_id":"4","last_reported":1683547996,"current_range_meters":31200,"station_id":"ce4bhp92rcd13ifvqhbg","pricing_plan_id":"free"},{"bike_id":"9f4068d5-0f8d-45ff-b73e-5175a92f78a2","system_id":"levelo_inurba_marseille","lat":43.31726,"lon":5.42399,"is_reserved":false,"is_disabled":false,"rental_uris":{"android":"levelo://app?vid=9f4068d5-0f8d-45ff-b73e-5175a92f78a2","ios":"levelo://app?vid=9f4068d5-0f8d-45ff-b73e-5175a92f78a2"},"vehicle_type_id":"4","last_reported":1683547996,"current_range_meters":0,"station_id":"ce4bhp92rcd13ifvqhbg","pricing_plan_id":"free"},{"bike_id":"687ac03d-a5c0-4259-9591-cb0a98ee6881","system_id":"levelo_inurba_marseille","lat":43.3172,"lon":5.424,"is_reserved":false,"is_disabled":false,"rental_uris":{"android":"levelo://app?vid=687ac03d-a5c0-4259-9591-cb0a98ee6881","ios":"levelo://app?vid=687ac03d-a5c0-4259-9591-cb0a98ee6881"},"vehicle_type_id":"4","last_reported":1683547996,"current_range_meters":19600,"station_id":"ce4bhp92rcd13ifvqhbg","pricing_plan_id":"free"},{"bike_id":"431dd2df-89ec-45d8-b518-26c549834949","system_id":"levelo_inurba_marseille","lat":43.317121,"lon":5.423936,"is_reserved":false,"is_disabled":false,"rental_uris":{"android":"levelo://app?vid=431dd2df-89ec-45d8-b518-26c549834949","ios":"levelo://app?vid=431dd2df-89ec-45d8-b518-26c549834949"},"vehicle_type_id":"4","last_reported":1683547996,"current_range_meters":28400,"station_id":"ce4bhp92rcd13ifvqhbg","pricing_plan_id":"free"},{"bike_id":"db3dca1b-0d01-4ca7-838c-23ee8a122c54","system_id":"levelo_inurba_marseille","lat":43.31718,"lon":5.42401,"is_reserved":false,"is_disabled":false,"rental_uris":{"android":"levelo://app?vid=db3dca1b-0d01-4ca7-838c-23ee8a122c54","ios":"levelo://app?vid=db3dca1b-0d01-4ca7-838c-23ee8a122c54"},"vehicle_type_id":"4","last_reported":1683547996,"current_range_meters":23600,"station_id":"ce4bhp92rcd13ifvqhbg","pricing_plan_id":"free"},{"bike_id":"c6a9ea4c-cd04-47af-86cd-05883b979dbe","system_id":"levelo_inurba_marseille","lat":43.310785,"lon":5.424305,"is_reserved":false,"is_disabled":false,"rental_uris":{"android":"levelo://app?vid=c6a9ea4c-cd04-47af-86cd-05883b979dbe","ios":"levelo://app?vid=c6a9ea4c-cd04-47af-86cd-05883b979dbe"},"vehicle_type_id":"4","last_reported":1683547996,"current_range_meters":18000,"station_id":"ce4bhp92rcd13ifvqhag","pricing_plan_id":"free"},{"bike_id":"39f3cf26-9fe6-4afc-a0f9-88761b3f487e","system_id":"levelo_inurba_marseille","lat":43.310785,"lon":5.424305,"is_reserved":false,"is_disabled":false,"rental_uris":{"android":"levelo://app?vid=39f3cf26-9fe6-4afc-a0f9-88761b3f487e","ios":"levelo://app?vid=39f3cf26-9fe6-4afc-a0f9-88761b3f487e"},"vehicle_type_id":"4","last_reported":1683547996,"current_range_meters":28000,"station_id":"ce4bhp92rcd13ifvqhag","pricing_plan_id":"free"},{"bike_id":"83d90a67-703a-47e9-a0c8-486659e4ab33","system_id":"levelo_inurba_marseille","lat":43.310785,"lon":5.424305,"is_reserved":false,"is_disabled":false,"rental_uris":{"android":"levelo://app?vid=83d90a67-703a-47e9-a0c8-486659e4ab33","ios":"levelo://app?vid=83d90a67-703a-47e9-a0c8-486659e4ab33"},"vehicle_type_id":"4","last_reported":1683547996,"current_range_meters":31200,"station_id":"ce4bhp92rcd13ifvqhag","pricing_plan_id":"free"},{"bike_id":"01e1bc03-ba75-41c4-acd4-93e87df5598d","system_id":"levelo_inurba_marseille","lat":43.304096,"lon":5.425385,"is_reserved":false,"is_disabled":false,"rental_uris":{"android":"levelo://app?vid=01e1bc03-ba75-41c4-acd4-93e87df5598d","ios":"levelo://app?vid=01e1bc03-ba75-41c4-acd4-93e87df5598d"},"vehicle_type_id":"4","last_reported":1683547996,"current_range_meters":16800,"station_id":"ce4bhoh2rcd13ifvqh6g","pricing_plan_id":"free"},{"bike_id":"1cbc85ae-104d-4dde-84ca-b49c9c9fcf94","system_id":"levelo_inurba_marseille","lat":43.304096,"lon":5.425385,"is_reserved":false,"is_disabled":false,"rental_uris":{"android":"levelo://app?vid=1cbc85ae-104d-4dde-84ca-b49c9c9fcf94","ios":"levelo://app?vid=1cbc85ae-104d-4dde-84ca-b49c9c9fcf94"},"vehicle_type_id":"4","last_reported":1683547996,"current_range_meters":31200,"station_id":"ce4bhoh2rcd13ifvqh6g","pricing_plan_id":"free"},{"bike_id":"a09b5167-4a4a-4e38-8b9d-47cee2412737","system_id":"levelo_inurba_marseille","lat":43.29555,"lon":5.42289,"is_reserved":false,"is_disabled":false,"rental_uris":{"android":"levelo://app?vid=a09b5167-4a4a-4e38-8b9d-47cee2412737","ios":"levelo://app?vid=a09b5167-4a4a-4e38-8b9d-47cee2412737"},"vehicle_type_id":"4","last_reported":1683547996,"current_range_meters":7200,"station_id":"ce4bhph2rcd13ifvqhdg","pricing_plan_id":"free"},{"bike_id":"b925277e-99fe-4503-95b7-7d4a54a8e550","system_id":"levelo_inurba_marseille","lat":43.272116,"lon":5.391747,"is_reserved":false,"is_disabled":false,"rental_uris":{"android":"levelo://app?vid=b925277e-99fe-4503-95b7-7d4a54a8e550","ios":"levelo://app?vid=b925277e-99fe-4503-95b7-7d4a54a8e550"},"vehicle_type_id":"4","last_reported":1683547996,"current_range_meters":19600,"station_id":"ce4bhhp2rcd13ifvqfm0","pricing_plan_id":"free"},{"bike_id":"89dc895f-7307-427a-8e6c-f3dc69593cba","system_id":"levelo_inurba_marseille","lat":43.26562,"lon":5.37285,"is_reserved":false,"is_disabled":false,"rental_uris":{"android":"levelo://app?vid=89dc895f-7307-427a-8e6c-f3dc69593cba","ios":"levelo://app?vid=89dc895f-7307-427a-8e6c-f3dc69593cba"},"vehicle_type_id":"4","last_reported":1683547996,"current_range_meters":15600,"station_id":"ce4bhg12rcd13ifvqf70","pricing_plan_id":"free"},{"bike_id":"bd8909da-6d02-4427-bffb-f0f1e36da558","system_id":"levelo_inurba_marseille","lat":43.265714,"lon":5.372891,"is_reserved":false,"is_disabled":false,"rental_uris":{"android":"levelo://app?vid=bd8909da-6d02-4427-bffb-f0f1e36da558","ios":"levelo://app?vid=bd8909da-6d02-4427-bffb-f0f1e36da558"},"vehicle_type_id":"4","last_reported":1683547996,"current_range_meters":28000,"station_id":"ce4bhg12rcd13ifvqf70","pricing_plan_id":"free"},{"bike_id":"1ff15c34-267e-47cc-bc00-5d5778aea174","system_id":"levelo_inurba_marseille","lat":43.265714,"lon":5.372891,"is_reserved":false,"is_disabled":false,"rental_uris":{"android":"levelo://app?vid=1ff15c34-267e-47cc-bc00-5d5778aea174","ios":"levelo://app?vid=1ff15c34-267e-47cc-bc00-5d5778aea174"},"vehicle_type_id":"4","last_reported":1683547996,"current_range_meters":31200,"station_id":"ce4bhg12rcd13ifvqf70","pricing_plan_id":"free"},{"bike_id":"c1fcbc11-e33b-441e-b1b2-4c3416ca5758","system_id":"levelo_inurba_marseille","lat":43.265714,"lon":5.372891,"is_reserved":false,"is_disabled":false,"rental_uris":{"android":"levelo://app?vid=c1fcbc11-e33b-441e-b1b2-4c3416ca5758","ios":"levelo://app?vid=c1fcbc11-e33b-441e-b1b2-4c3416ca5758"},"vehicle_type_id":"4","last_reported":1683547996,"current_range_meters":31200,"station_id":"ce4bhg12rcd13ifvqf70","pricing_plan_id":"free"},{"bike_id":"fa7f0099-5b08-4660-b9c5-db406f2f0a0e","system_id":"levelo_inurba_marseille","lat":43.265714,"lon":5.372891,"is_reserved":false,"is_disabled":false,"rental_uris":{"android":"levelo://app?vid=fa7f0099-5b08-4660-b9c5-db406f2f0a0e","ios":"levelo://app?vid=fa7f0099-5b08-4660-b9c5-db406f2f0a0e"},"vehicle_type_id":"4","last_reported":1683547996,"current_range_meters":14800,"station_id":"ce4bhg12rcd13ifvqf70","pricing_plan_id":"free"},{"bike_id":"610b0295-a67b-4ef2-aa6f-fcd5f1ba63ee","system_id":"levelo_inurba_marseille","lat":43.26558,"lon":5.37288,"is_reserved":false,"is_disabled":false,"rental_uris":{"android":"levelo://app?vid=610b0295-a67b-4ef2-aa6f-fcd5f1ba63ee","ios":"levelo://app?vid=610b0295-a67b-4ef2-aa6f-fcd5f1ba63ee"},"vehicle_type_id":"4","last_reported":1683547996,"current_range_meters":17200,"station_id":"ce4bhg12rcd13ifvqf70","pricing_plan_id":"free"},{"bike_id":"07a45141-17b6-4713-91ad-1e35bda79e18","system_id":"levelo_inurba_marseille","lat":43.265714,"lon":5.372891,"is_reserved":false,"is_disabled":false,"rental_uris":{"android":"levelo://app?vid=07a45141-17b6-4713-91ad-1e35bda79e18","ios":"levelo://app?vid=07a45141-17b6-4713-91ad-1e35bda79e18"},"vehicle_type_id":"4","last_reported":1683547996,"current_range_meters":24000,"station_id":"ce4bhg12rcd13ifvqf70","pricing_plan_id":"free"},{"bike_id":"3fd94513-d742-4282-8162-6de694b430a0","system_id":"levelo_inurba_marseille","lat":43.265714,"lon":5.372891,"is_reserved":false,"is_disabled":false,"rental_uris":{"android":"levelo://app?vid=3fd94513-d742-4282-8162-6de694b430a0","ios":"levelo://app?vid=3fd94513-d742-4282-8162-6de694b430a0"},"vehicle_type_id":"4","last_reported":1683547996,"current_range_meters":20400,"station_id":"ce4bhg12rcd13ifvqf70","pricing_plan_id":"free"},{"bike_id":"29ed7f1c-98d1-4bb9-9361-4f0b6fbfd130","system_id":"levelo_inurba_marseille","lat":43.26557,"lon":5.37286,"is_reserved":false,"is_disabled":false,"rental_uris":{"android":"levelo://app?vid=29ed7f1c-98d1-4bb9-9361-4f0b6fbfd130","ios":"levelo://app?vid=29ed7f1c-98d1-4bb9-9361-4f0b6fbfd130"},"vehicle_type_id":"4","last_reported":1683547996,"current_range_meters":30000,"station_id":"ce4bhg12rcd13ifvqf70","pricing_plan_id":"free"},{"bike_id":"3f1c5339-115d-4ac9-afbb-255ae2226b97","system_id":"levelo_inurba_marseille","lat":43.26557,"lon":5.37288,"is_reserved":false,"is_disabled":false,"rental_uris":{"android":"levelo://app?vid=3f1c5339-115d-4ac9-afbb-255ae2226b97","ios":"levelo://app?vid=3f1c5339-115d-4ac9-afbb-255ae2226b97"},"vehicle_type_id":"4","last_reported":1683547996,"current_range_meters":26400,"station_id":"ce4bhg12rcd13ifvqf70","pricing_plan_id":"free"},{"bike_id":"ea6f76f1-79b7-41ad-8e19-b7f2ce528588","system_id":"levelo_inurba_marseille","lat":43.265714,"lon":5.372891,"is_reserved":false,"is_disabled":false,"rental_uris":{"android":"levelo://app?vid=ea6f76f1-79b7-41ad-8e19-b7f2ce528588","ios":"levelo://app?vid=ea6f76f1-79b7-41ad-8e19-b7f2ce528588"},"vehicle_type_id":"4","last_reported":1683547996,"current_range_meters":31200,"station_id":"ce4bhg12rcd13ifvqf70","pricing_plan_id":"free"},{"bike_id":"a375e6ac-b5be-4672-92b6-2e950e2e0901","system_id":"levelo_inurba_marseille","lat":43.26556,"lon":5.37277,"is_reserved":false,"is_disabled":false,"rental_uris":{"android":"levelo://app?vid=a375e6ac-b5be-4672-92b6-2e950e2e0901","ios":"levelo://app?vid=a375e6ac-b5be-4672-92b6-2e950e2e0901"},"vehicle_type_id":"4","last_reported":1683547996,"current_range_meters":20800,"station_id":"ce4bhg12rcd13ifvqf70","pricing_plan_id":"free"},{"bike_id":"81a1c1a7-8c46-4ab9-ba96-7ae46111f476","system_id":"levelo_inurba_marseille","lat":43.26555,"lon":5.37283,"is_reserved":false,"is_disabled":false,"rental_uris":{"android":"levelo://app?vid=81a1c1a7-8c46-4ab9-ba96-7ae46111f476","ios":"levelo://app?vid=81a1c1a7-8c46-4ab9-ba96-7ae46111f476"},"vehicle_type_id":"4","last_reported":1683547996,"current_range_meters":0,"station_id":"ce4bhg12rcd13ifvqf70","pricing_plan_id":"free"},{"bike_id":"73a1fab4-fd5e-4e3f-a86b-36dd46703901","system_id":"levelo_inurba_marseille","lat":43.265714,"lon":5.372891,"is_reserved":false,"is_disabled":false,"rental_uris":{"android":"levelo://app?vid=73a1fab4-fd5e-4e3f-a86b-36dd46703901","ios":"levelo://app?vid=73a1fab4-fd5e-4e3f-a86b-36dd46703901"},"vehicle_type_id":"4","last_reported":1683547996,"current_range_meters":14000,"station_id":"ce4bhg12rcd13ifvqf70","pricing_plan_id":"free"},