{"last_updated":1768126266,"ttl":60,"version":"2.2","data":{"bikes":[{"bike_id":"968f5650-f7ac-46b6-a51a-97011a0e57d4","system_id":"levelo_inurba_marseille","lat":43.337568,"lon":5.374423,"is_reserved":false,"is_disabled":false,"rental_uris":{"android":"levelo://app?vid=968f5650-f7ac-46b6-a51a-97011a0e57d4","ios":"levelo://app?vid=968f5650-f7ac-46b6-a51a-97011a0e57d4"},"vehicle_type_id":"4","last_reported":1768126266,"current_range_meters":2800,"station_id":"","pricing_plan_id":"cebpf4jnsgd1na2vs0mg"},{"bike_id":"48b0096b-4b93-4282-970e-7e8c3824dede","system_id":"levelo_inurba_marseille","lat":43.22566,"lon":5.4162,"is_reserved":false,"is_disabled":false,"rental_uris":{"android":"levelo://app?vid=48b0096b-4b93-4282-970e-7e8c3824dede","ios":"levelo://app?vid=48b0096b-4b93-4282-970e-7e8c3824dede"},"vehicle_type_id":"4","last_reported":1768126266,"current_range_meters":2800,"station_id":"st_d2o4gvlbi1j2169b742g","pricing_plan_id":"cebpf4jnsgd1na2vs0mg"},{"bike_id":"56657ac7-08e9-465e-86c9-99fb0ade98c1","system_id":"levelo_inurba_marseille","lat":43.257278,"lon":5.411046,"is_reserved":false,"is_disabled":false,"rental_uris":{"android":"levelo://app?vid=56657ac7-08e9-465e-86c9-99fb0ade98c1","ios":"levelo://app?vid=56657ac7-08e9-465e-86c9-99fb0ade98c1"},"vehicle_type_id":"4","last_reported":1768126266,"current_range_meters":2800,"station_id":"ce4bhkp2rcd13ifvqgd0","pricing_plan_id":"cebpf4jnsgd1na2vs0mg"},{"bike_id":"8925de67-46a6-4c30-94d8-302161298623","system_id":"levelo_inurba_marseille","lat":43.31052,"lon":5.36976,"is_reserved":false,"is_disabled":false,"rental_uris":{"android":"levelo://app?vid=8925de67-46a6-4c30-94d8-302161298623","ios":"levelo://app?vid=8925de67-46a6-4c30-94d8-302161298623"},"vehicle_type_id":"4","last_reported":1768126266,"current_range_meters":2800,"station_id":"","pricing_plan_id":"cebpf4jnsgd1na2vs0mg"},{"bike_id":"6773efea-6de1-4eff-881d-9d3652930047","system_id":"levelo_inurba_marseille","lat":43.29848,"lon":5.37569,"is_reserved":false,"is_disabled":false,"rental_uris":{"android":"levelo://app?vid=6773efea-6de1-4eff-881d-9d3652930047","ios":"levelo://app?vid=6773efea-6de1-4eff-881d-9d3652930047"},"vehicle_type_id":"4","last_reported":1768126266,"current_range_meters":2800,"station_id":"","pricing_plan_id":"cebpf4jnsgd1na2vs0mg"},{"bike_id":"42bcbd37-e62c-4d61-9439-2d309432c971","system_id":"levelo_inurba_marseille","lat":43.25075,"lon":5.39516,"is_reserved":false,"is_disabled":false,"rental_uris":{"android":"levelo://app?vid=42bcbd37-e62c-4d61-9439-2d309432c971","ios":"levelo://app?vid=42bcbd37-e62c-4d61-9439-2d309432c971"},"vehicle_type_id":"4","last_reported":1768126266,"current_range_meters":2800,"station_id":"ce4bhm12rcd13ifvqgkg","pricing_plan_id":"cebpf4jnsgd1na2vs0mg"},{"bike_id":"1cc81c4f-52c4-428c-948e-0d9ca8c80cd9","system_id":"levelo_inurba_marseille","lat":43.25342,"lon":5.4219,"is_reserved":false,"is_disabled":false,"rental_uris":{"android":"levelo://app?vid=1cc81c4f-52c4-428c-948e-0d9ca8c80cd9","ios":"levelo://app?vid=1cc81c4f-52c4-428c-948e-0d9ca8c80cd9"},"vehicle_type_id":"4","last_reported":1768126266,"current_range_meters":2800,"station_id":"st_d2m65c5bi1j21697t3ng","pricing_plan_id":"cebpf4jnsgd1na2vs0mg"},{"bike_id":"040b9c6c-9df2-4007-9dda-b857783456c7","system_id":"levelo_inurba_marseille","lat":43.25504,"lon":5.37663,"is_reserved":false,"is_disabled":false,"rental_uris":{"android":"levelo://app?vid=040b9c6c-9df2-4007-9dda-b857783456c7","ios":"levelo://app?vid=040b9c6c-9df2-4007-9dda-b857783456c7"},"vehicle_type_id":"4","last_reported":1768126266,"current_range_meters":2800,"station_id":"ce4bhh12rcd13ifvqff0","pricing_plan_id":"cebpf4jnsgd1na2vs0mg"},{"bike_id":"95382051-2edc-4c1a-ac56-d197c3294bdd","system_id":"levelo_inurba_marseille","lat":43.27988,"lon":5.41654,"is_reserved":false,"is_disabled":false,"rental_uris":{"android":"levelo://app?vid=95382051-2edc-4c1a-ac56-d197c3294bdd","ios":"levelo://app?vid=95382051-2edc-4c1a-ac56-d197c3294bdd"},"vehicle_type_id":"4","last_reported":1768126266,"current_range_meters":3200,"station_id":"ce4bho12rcd13ifvqh1g","pricing_plan_id":"cebpf4jnsgd1na2vs0mg"},{"bike_id":"7a9ad836-4d79-4ba9-98d7-2ef50a4c96b5","system_id":"levelo_inurba_marseille","lat":43.29038,"lon":5.35913,"is_reserved":false,"is_disabled":false,"rental_uris":{"android":"levelo://app?vid=7a9ad836-4d79-4ba9-98d7-2ef50a4c96b5","ios":"levelo://app?vid=7a9ad836-4d79-4ba9-98d7-2ef50a4c96b5"},"vehicle_type_id":"4","last_reported":1768126266,"current_range_meters":3200,"station_id":"ce4bha92rcd13ifvqeg0","pricing_plan_id":"cebpf4jnsgd1na2vs0mg"},{"bike_id":"9ef5c7cf-da71-4612-9646-f64e3744543c","system_id":"levelo_inurba_marseille","lat":43.22935,"lon":5.35378,"is_reserved":false,"is_disabled":false,"rental_uris":{"android":"levelo://app?vid=9ef5c7cf-da71-4612-9646-f64e3744543c","ios":"levelo://app?vid=9ef5c7cf-da71-4612-9646-f64e3744543c"},"vehicle_type_id":"4","last_reported":1768126266,"current_range_meters":3200,"station_id":"cpo3532slgdg3j2ikp40","pricing_plan_id":"cebpf4jnsgd1na2vs0mg"},{"bike_id":"ad41c0f7-771d-4855-a9c8-7ed87d5e9445","system_id":"levelo_inurba_marseille","lat":43.29744,"lon":5.38524,"is_reserved":false,"is_disabled":false,"rental_uris":{"android":"levelo://app?vid=ad41c0f7-771d-4855-a9c8-7ed87d5e9445","ios":"levelo://app?vid=ad41c0f7-771d-4855-a9c8-7ed87d5e9445"},"vehicle_type_id":"4","last_reported":1768126266,"current_range_meters":3200,"station_id":"","pricing_plan_id":"cebpf4jnsgd1na2vs0mg"},{"bike_id":"2fc4d63c-75cf-4784-8fe2-aa12e75a0d53","system_id":"levelo_inurba_marseille","lat":43.31066,"lon":5.39335,"is_reserved":false,"is_disabled":false,"rental_uris":{"android":"levelo://app?vid=2fc4d63c-75cf-4784-8fe2-aa12e75a0d53","ios":"levelo://app?vid=2fc4d63c-75cf-4784-8fe2-aa12e75a0d53"},"vehicle_type_id":"4","last_reported":1768126266,"current_range_meters":3200,"station_id":"","pricing_plan_id":"cebpf4jnsgd1na2vs0mg"},{"bike_id":"7e98743c-9f47-417e-8fbe-0862a28b7794","system_id":"levelo_inurba_marseille","lat":43.286695,"lon":5.363472,"is_reserved":false,"is_disabled":false,"rental_uris":{"android":"levelo://app?vid=7e98743c-9f47-417e-8fbe-0862a28b7794","ios":"levelo://app?vid=7e98743c-9f47-417e-8fbe-0862a28b7794"},"vehicle_type_id":"4","last_reported":1768126266,"current_range_meters":3200,"station_id":"ce4bhah2rcd13ifvqej0","pricing_plan_id":"cebpf4jnsgd1na2vs0mg"},{"bike_id":"0d4e5ddc-b292-4c0e-8986-9cde00922dd9","system_id":"levelo_inurba_marseille","lat":43.30168,"lon":5.43202,"is_reserved":false,"is_disabled":false,"rental_uris":{"android":"levelo://app?vid=0d4e5ddc-b292-4c0e-8986-9cde00922dd9","ios":"levelo://app?vid=0d4e5ddc-b292-4c0e-8986-9cde00922dd9"},"vehicle_type_id":"4","last_reported":1768126266,"current_range_meters":3200,"station_id":"","pricing_plan_id":"cebpf4jnsgd1na2vs0mg"},{"bike_id":"3e43e6d0-69d6-49e4-a4c9-b669ddd069e1","system_id":"levelo_inurba_marseille","lat":43.299593,"lon":5.384965,"is_reserved":false,"is_disabled":false,"rental_uris":{"android":"levelo://app?vid=3e43e6d0-69d6-49e4-a4c9-b669ddd069e1","ios":"levelo://app?vid=3e43e6d0-69d6-49e4-a4c9-b669ddd069e1"},"vehicle_type_id":"4","last_reported":1768126266,"current_range_meters":3200,"station_id":"ce4bgj92rcd13ifvqbd0","pricing_plan_id":"cebpf4jnsgd1na2vs0mg"},{"bike_id":"8dbc6796-10ad-485e-bfaa-05f30cae6c7d","system_id":"levelo_inurba_marseille","lat":43.29752,"lon":5.38027,"is_reserved":false,"is_disabled":true,"rental_uris":{"android":"levelo://app?vid=8dbc6796-10ad-485e-bfaa-05f30cae6c7d","ios":"levelo://app?vid=8dbc6796-10ad-485e-bfaa-05f30cae6c7d"},"vehicle_type_id":"4","last_reported":1768126266,"current_range_meters":3200,"station_id":"","pricing_plan_id":"cebpf4jnsgd1na2vs0mg"},{"bike_id":"ff3d50e0-84d7-4480-8463-680e83cf9f97","system_id":"levelo_inurba_marseille","lat":43.24969,"lon":5.4053,"is_reserved":false,"is_disabled":false,"rental_uris":{"android":"levelo://app?vid=ff3d50e0-84d7-4480-8463-680e83cf9f97","ios":"levelo://app?vid=ff3d50e0-84d7-4480-8463-680e83cf9f97"},"vehicle_type_id":"4","last_reported":1768126266,"current_range_meters":3200,"station_id":"st_d2ngiaodas8pm72gd1h0","pricing_plan_id":"cebpf4jnsgd1na2vs0mg"},{"bike_id":"1347a05a-fe6b-495b-96d9-20a9a96846e2","system_id":"levelo_inurba_marseille","lat":43.278323,"lon":5.392054,"is_reserved":false,"is_disabled":false,"rental_uris":{"android":"levelo://app?vid=1347a05a-fe6b-495b-96d9-20a9a96846e2","ios":"levelo://app?vid=1347a05a-fe6b-495b-96d9-20a9a96846e2"},"vehicle_type_id":"4","last_reported":1768126266,"current_range_meters":3600,"station_id":"ce4bhjp2rcd13ifvqga0","pricing_plan_id":"cebpf4jnsgd1na2vs0mg"},{"bike_id":"5094aeb9-ac3f-47d1-a484-8aeeb36f0571","system_id":"levelo_inurba_marseille","lat":43.27992,"lon":5.41688,"is_reserved":false,"is_disabled":false,"rental_uris":{"android":"levelo://app?vid=5094aeb9-ac3f-47d1-a484-8aeeb36f0571","ios":"levelo://app?vid=5094aeb9-ac3f-47d1-a484-8aeeb36f0571"},"vehicle_type_id":"4","last_reported":1768126266,"current_range_meters":3600,"station_id":"ce4bho12rcd13ifvqh1g","pricing_plan_id":"cebpf4jnsgd1na2vs0mg"},{"bike_id":"ec2c36ed-79e6-401c-b68a-6c26524403de","system_id":"levelo_inurba_marseille","lat":43.29497,"lon":5.43309,"is_reserved":false,"is_disabled":false,"rental_uris":{"android":"levelo://app?vid=ec2c36ed-79e6-401c-b68a-6c26524403de","ios":"levelo://app?vid=ec2c36ed-79e6-401c-b68a-6c26524403de"},"vehicle_type_id":"4","last_reported":1768126266,"current_range_meters":3600,"station_id":"st_d3j5ugp08ojc73fj9d10","pricing_plan_id":"cebpf4jnsgd1na2vs0mg"},{"bike_id":"87f67e97-3d5d-4e9b-a43f-2ccacab47334","system_id":"levelo_inurba_marseille","lat":43.26682,"lon":5.38259,"is_reserved":false,"is_disabled":false,"rental_uris":{"android":"levelo://app?vid=87f67e97-3d5d-4e9b-a43f-2ccacab47334","ios":"levelo://app?vid=87f67e97-3d5d-4e9b-a43f-2ccacab47334"},"vehicle_type_id":"4","last_reported":1768126266,"current_range_meters":3600,"station_id":"ce4bhg92rcd13ifvqf90","pricing_plan_id":"cebpf4jnsgd1na2vs0mg"},{"bike_id":"d036b849-3104-46e1-8fb1-f8d5be60e569","system_id":"levelo_inurba_marseille","lat":43.30137,"lon":5.43113,"is_reserved":false,"is_disabled":false,"rental_uris":{"android":"levelo://app?vid=d036b849-3104-46e1-8fb1-f8d5be60e569","ios":"levelo://app?vid=d036b849-3104-46e1-8fb1-f8d5be60e569"},"vehicle_type_id":"4","last_reported":1768126266,"current_range_meters":3600,"station_id":"st_d3js3co5814s73ftftug","pricing_plan_id":"cebpf4jnsgd1na2vs0mg"},{"bike_id":"5f22f2f6-e38e-4ab5-b4b3-0df07f258114","system_id":"levelo_inurba_marseille","lat":43.25334,"lon":5.42174,"is_reserved":false,"is_disabled":false,"rental_uris":{"android":"levelo://app?vid=5f22f2f6-e38e-4ab5-b4b3-0df07f258114","ios":"levelo://app?vid=5f22f2f6-e38e-4ab5-b4b3-0df07f258114"},"vehicle_type_id":"4","last_reported":1768126266,"current_range_meters":3600,"station_id":"st_d2m65c5bi1j21697t3ng","pricing_plan_id":"cebpf4jnsgd1na2vs0mg"},{"bike_id":"df548035-cee1-4f4d-b0ba-fa4f5834db8f","system_id":"levelo_inurba_marseille","lat":43.24812,"lon":5.37449,"is_reserved":false,"is_disabled":false,"rental_uris":{"android":"levelo://app?vid=df548035-cee1-4f4d-b0ba-fa4f5834db8f","ios":"levelo://app?vid=df548035-cee1-4f4d-b0ba-fa4f5834db8f"},"vehicle_type_id":"4","last_reported":1768126266,"current_range_meters":3600,"station_id":"ce4bhgh2rcd13ifvqfb0","pricing_plan_id":"cebpf4jnsgd1na2vs0mg"},{"bike_id":"1fd825a3-f083-4e3f-b148-fa3f989542db","system_id":"levelo_inurba_marseille","lat":43.28207,"lon":5.39065,"is_reserved":false,"is_disabled":false,"rental_uris":{"android":"levelo://app?vid=1fd825a3-f083-4e3f-b148-fa3f989542db","ios":"levelo://app?vid=1fd825a3-f083-4e3f-b148-fa3f989542db"},"vehicle_type_id":"4","last_reported":1768126266,"current_range_meters":3600,"station_id":"ce4bhn92rcd13ifvqgsg","pricing_plan_id":"cebpf4jnsgd1na2vs0mg"},{"bike_id":"15705fcb-fc6a-4f08-9895-a6a73b2606cb","system_id":"levelo_inurba_marseille","lat":43.26074,"lon":5.39428,"is_reserved":false,"is_disabled":false,"rental_uris":{"android":"levelo://app?vid=15705fcb-fc6a-4f08-9895-a6a73b2606cb","ios":"levelo://app?vid=15705fcb-fc6a-4f08-9895-a6a73b2606cb"},"vehicle_type_id":"4","last_reported":1768126266,"current_range_meters":3600,"station_id":"ce4bhh92rcd13ifvqfj0","pricing_plan_id":"cebpf4jnsgd1na2vs0mg"},{"bike_id":"78533221-0292-46cc-9ec2-a5294797e756","system_id":"levelo_inurba_marseille","lat":43.3168,"lon":5.38255,"is_reserved":false,"is_disabled":false,"rental_uris":{"android":"levelo://app?vid=78533221-0292-46cc-9ec2-a5294797e756","ios":"levelo://app?vid=78533221-0292-46cc-9ec2-a5294797e756"},"vehicle_type_id":"4","last_reported":1768126266,"current_range_meters":3600,"station_id":"","pricing_plan_id":"cebpf4jnsgd1na2vs0mg"},{"bike_id":"dbb60bc6-4fb6-45fc-959a-667b177859f9","system_id":"levelo_inurba_marseille","lat":43.24143,"lon":5.36431,"is_reserved":false,"is_disabled":false,"rental_uris":{"android":"levelo://app?vid=dbb60bc6-4fb6-45fc-959a-667b177859f9","ios":"levelo://app?vid=dbb60bc6-4fb6-45fc-959a-667b177859f9"},"vehicle_type_id":"4","last_reported":1768126266,"current_range_meters":3600,"station_id":"cpo36qri1sfpv3e86is0","pricing_plan_id":"cebpf4jnsgd1na2vs0mg"},{"bike_id":"f807eb45-2249-4a58-ad9a-c278e707985e","system_id":"levelo_inurba_marseille","lat":43.28952,"lon":5.38553,"is_reserved":false,"is_disabled":false,"rental_uris":{"android":"levelo://app?vid=f807eb45-2249-4a58-ad9a-c278e707985e","ios":"levelo://app?vid=f807eb45-2249-4a58-ad9a-c278e707985e"},"vehicle_type_id":"4","last_reported":1768126266,"current_range_meters":3600,"station_id":"","pricing_plan_id":"cebpf4jnsgd1na2vs0mg"},{"bike_id":"ea6d6938-b142-4f82-b16c-70bde5034ab8","system_id":"levelo_inurba_marseille","lat":43.2291,"lon":5.35387,"is_reserved":false,"is_disabled":false,"rental_uris":{"android":"levelo://app?vid=ea6d6938-b142-4f82-b16c-70bde5034ab8","ios":"levelo://app?vid=ea6d6938-b142-4f82-b16c-70bde5034ab8"},"vehicle_type_id":"4","last_reported":1768126266,"current_range_meters":3600,"station_id":"cpo3532slgdg3j2ikp40","pricing_plan_id":"cebpf4jnsgd1na2vs0mg"},{"bike_id":"b1de97eb-9987-4268-a3de-fad899a3da21","system_id":"levelo_inurba_marseille","lat":43.25743,"lon":5.41061,"is_reserved":false,"is_disabled":false,"rental_uris":{"android":"levelo://app?vid=b1de97eb-9987-4268-a3de-fad899a3da21","ios":"levelo://app?vid=b1de97eb-9987-4268-a3de-fad899a3da21"},"vehicle_type_id":"4","last_reported":1768126266,"current_range_meters":4000,"station_id":"","pricing_plan_id":"cebpf4jnsgd1na2vs0mg"},{"bike_id":"2009d16f-a111-47b1-bf4d-7669b4a86902","system_id":"levelo_inurba_marseille","lat":43.22571,"lon":5.41639,"is_reserved":false,"is_disabled":false,"rental_uris":{"android":"levelo://app?vid=2009d16f-a111-47b1-bf4d-7669b4a86902","ios":"levelo://app?vid=2009d16f-a111-47b1-bf4d-7669b4a86902"},"vehicle_type_id":"4","last_reported":1768126266,"current_range_meters":4000,"station_id":"st_d2o4gvlbi1j2169b742g","pricing_plan_id":"cebpf4jnsgd1na2vs0mg"},{"bike_id":"5fa8b028-dea1-4d0b-9ab7-6f153862b562","system_id":"levelo_inurba_marseille","lat":43.25718,"lon":5.41119,"is_reserved":false,"is_disabled":false,"rental_uris":{"android":"levelo://app?vid=5fa8b028-dea1-4d0b-9ab7-6f153862b562","ios":"levelo://app?vid=5fa8b028-dea1-4d0b-9ab7-6f153862b562"},"vehicle_type_id":"4","last_reported":1768126266,"current_range_meters":4000,"station_id":"ce4bhkp2rcd13ifvqgd0","pricing_plan_id":"cebpf4jnsgd1na2vs0mg"},{"bike_id":"31ddb865-11db-4d02-a42e-59f8adbeb38f","system_id":"levelo_inurba_marseille","lat":43.24051,"lon":5.37771,"is_reserved":false,"is_disabled":false,"rental_uris":{"android":"levelo://app?vid=31ddb865-11db-4d02-a42e-59f8adbeb38f","ios":"levelo://app?vid=31ddb865-11db-4d02-a42e-59f8adbeb38f"},"vehicle_type_id":"4","last_reported":1768126266,"current_range_meters":4000,"station_id":"ce4bhnp2rcd13ifvqgvg","pricing_plan_id":"cebpf4jnsgd1na2vs0mg"},{"bike_id":"b6c9b9bc-0d5d-4627-93ab-609e93bc034a","system_id":"levelo_inurba_marseille","lat":43.30154,"lon":5.3808,"is_reserved":false,"is_disabled":false,"rental_uris":{"android":"levelo://app?vid=b6c9b9bc-0d5d-4627-93ab-609e93bc034a","ios":"levelo://app?vid=b6c9b9bc-0d5d-4627-93ab-609e93bc034a"},"vehicle_type_id":"4","last_reported":1768126266,"current_range_meters":4000,"station_id":"ce4bgjp2rcd13ifvqbh0","pricing_plan_id":"cebpf4jnsgd1na2vs0mg"},{"bike_id":"7e72a930-d1d5-437d-9a7d-0685de38c257","system_id":"levelo_inurba_marseille","lat":43.31327,"lon":5.39697,"is_reserved":false,"is_disabled":false,"rental_uris":{"android":"levelo://app?vid=7e72a930-d1d5-437d-9a7d-0685de38c257","ios":"levelo://app?vid=7e72a930-d1d5-437d-9a7d-0685de38c257"},"vehicle_type_id":"4","last_reported":1768126266,"current_range_meters":4000,"station_id":"ce4bgvp2rcd13ifvqcu0","pricing_plan_id":"cebpf4jnsgd1na2vs0mg"},{"bike_id":"e9fbaaf6-7c5d-4c35-a579-61ed89f7a8a8","system_id":"levelo_inurba_marseille","lat":43.23952,"lon":5.36643,"is_reserved":false,"is_disabled":false,"rental_uris":{"android":"levelo://app?vid=e9fbaaf6-7c5d-4c35-a579-61ed89f7a8a8","ios":"levelo://app?vid=e9fbaaf6-7c5d-4c35-a579-61ed89f7a8a8"},"vehicle_type_id":"4","last_reported":1768126266,"current_range_meters":4000,"station_id":"ce4bhi12rcd13ifvqfp0","pricing_plan_id":"cebpf4jnsgd1na2vs0mg"},{"bike_id":"2f105e06-b85c-4039-8bf0-4e881c40778f","system_id":"levelo_inurba_marseille","lat":43.26551,"lon":5.37308,"is_reserved":false,"is_disabled":false,"rental_uris":{"android":"levelo://app?vid=2f105e06-b85c-4039-8bf0-4e881c40778f","ios":"levelo://app?vid=2f105e06-b85c-4039-8bf0-4e881c40778f"},"vehicle_type_id":"4","last_reported":1768126266,"current_range_meters":4400,"station_id":"ce4bhg12rcd13ifvqf70","pricing_plan_id":"cebpf4jnsgd1na2vs0mg"},{"bike_id":"d29147e9-12b9-49d5-9a41-487e37c613b5","system_id":"levelo_inurba_marseille","lat":43.22564,"lon":5.41634,"is_reserved":false,"is_disabled":false,"rental_uris":{"android":"levelo://app?vid=d29147e9-12b9-49d5-9a41-487e37c613b5","ios":"levelo://app?vid=d29147e9-12b9-49d5-9a41-487e37c613b5"},"vehicle_type_id":"4","last_reported":1768126266,"current_range_meters":4400,"station_id":"st_d2o4gvlbi1j2169b742g","pricing_plan_id":"cebpf4jnsgd1na2vs0mg"},{"bike_id":"a1dcd8bf-b300-4092-8c84-5204375249a5","system_id":"levelo_inurba_marseille","lat":43.24808,"lon":5.37458,"is_reserved":false,"is_disabled":false,"rental_uris":{"android":"levelo://app?vid=a1dcd8bf-b300-4092-8c84-5204375249a5","ios":"levelo://app?vid=a1dcd8bf-b300-4092-8c84-5204375249a5"},"vehicle_type_id":"4","last_reported":1768126266,"current_range_meters":4400,"station_id":"ce4bhgh2rcd13ifvqfb0","pricing_plan_id":"cebpf4jnsgd1na2vs0mg"},{"bike_id":"b2295231-8d7a-4a3c-8ee1-7dbae04933b0","system_id":"levelo_inurba_marseille","lat":43.26901,"lon":5.40358,"is_reserved":false,"is_disabled":false,"rental_uris":{"android":"levelo://app?vid=b2295231-8d7a-4a3c-8ee1-7dbae04933b0","ios":"levelo://app?vid=b2295231-8d7a-4a3c-8ee1-7dbae04933b0"},"vehicle_type_id":"4","last_reported":1768126266,"current_range_meters":4400,"station_id":"cjm6bp8fraef2m0cb0m0","pricing_plan_id":"cebpf4jnsgd1na2vs0mg"},{"bike_id":"2f94929b-7e6c-4e24-b276-2f585e92f29a","system_id":"levelo_inurba_marseille","lat":43.297576,"lon":5.427726,"is_reserved":false,"is_disabled":true,"rental_uris":{"android":"levelo://app?vid=2f94929b-7e6c-4e24-b276-2f585e92f29a","ios":"levelo://app?vid=2f94929b-7e6c-4e24-b276-2f585e92f29a"},"vehicle_type_id":"4","last_reported":1768126266,"current_range_meters":4400,"station_id":"st_d3md5207bmas73dh9klg","pricing_plan_id":"cebpf4jnsgd1na2vs0mg"},{"bike_id":"e3f8a098-8639-446b-9c17-a55f46262e9c","system_id":"levelo_inurba_marseille","lat":43.25344,"lon":5.42152,"is_reserved":false,"is_disabled":false,"rental_uris":{"android":"levelo://app?vid=e3f8a098-8639-446b-9c17-a55f46262e9c","ios":"levelo://app?vid=e3f8a098-8639-446b-9c17-a55f46262e9c"},"vehicle_type_id":"4","last_reported":1768126266,"current_range_meters":4400,"station_id":"st_d2m65c5bi1j21697t3ng","pricing_plan_id":"cebpf4jnsgd1na2vs0mg"},{"bike_id":"1d2da464-79bc-4f4a-9df3-99a307867c6a","system_id":"levelo_inurba_marseille","lat":43.283017,"lon":5.352182,"is_reserved":false,"is_disabled":false,"rental_uris":{"android":"levelo://app?vid=1d2da464-79bc-4f4a-9df3-99a307867c6a","ios":"levelo://app?vid=1d2da464-79bc-4f4a-9df3-99a307867c6a"},"vehicle_type_id":"4","last_reported":1768126266,"current_range_meters":4400,"station_id":"","pricing_plan_id":"cebpf4jnsgd1na2vs0mg"},{"bike_id":"0b09aa27-0b01-4b3a-8132-f473500df553","system_id":"levelo_inurba_marseille","lat":43.29029,"lon":5.43969,"is_reserved":false,"is_disabled":false,"rental_uris":{"android":"levelo://app?vid=0b09aa27-0b01-4b3a-8132-f473500df553","ios":"levelo://app?vid=0b09aa27-0b01-4b3a-8132-f473500df553"},"vehicle_type_id":"4","last_reported":1768126266,"current_range_meters":4400,"station_id":"","pricing_plan_id":"cebpf4jnsgd1na2vs0mg"},{"bike_id":"b1764e4c-a901-41ad-88fb-d93a1e39a2fc","system_id":"levelo_inurba_marseille","lat":43.26545,"lon":5.37291,"is_reserved":false,"is_disabled":false,"rental_uris":{"android":"levelo://app?vid=b1764e4c-a901-41ad-88fb-d93a1e39a2fc","ios":"levelo://app?vid=b1764e4c-a901-41ad-88fb-d93a1e39a2fc"},"vehicle_type_id":"4","last_reported":1768126266,"current_range_meters":4400,"station_id":"ce4bhg12rcd13ifvqf70","pricing_plan_id":"cebpf4jnsgd1na2vs0mg"},{"bike_id":"8e708209-13e3-4875-b4ab-ab873b475e16","system_id":"levelo_inurba_marseille","lat":43.28489,"lon":5.3842,"is_reserved":false,"is_disabled":false,"rental_uris":{"android":"levelo://app?vid=8e708209-13e3-4875-b4ab-ab873b475e16","ios":"levelo://app?vid=8e708209-13e3-4875-b4ab-ab873b475e16"},"vehicle_type_id":"4","last_reported":1768126266,"current_range_meters":4400,"station_id":"ce4bh512rcd13ifvqe3g","pricing_plan_id":"cebpf4jnsgd1na2vs0mg"},{"bike_id":"21fd000f-f4ce-4f18-a6a2-88e29d9458f7","system_id":"levelo_inurba_marseille","lat":43.23784,"lon":5.36594,"is_reserved":false,"is_disabled":false,"rental_uris":{"android":"levelo://app?vid=21fd000f-f4ce-4f18-a6a2-88e29d9458f7","ios":"levelo://app?vid=21fd000f-f4ce-4f18-a6a2-88e29d9458f7"},"vehicle_type_id":"4","last_reported":1768126266,"current_range_meters":4400,"station_id":"st_d3nk18o9ro0c73en2l3g","pricing_plan_id":"cebpf4jnsgd1na2vs0mg"},{"bike_id":"8107c8b8-d50c-4f52-a1a9-470dbb17fd33","system_id":"levelo_inurba_marseille","lat":43.25004,"lon":5.38939,"is_reserved":false,"is_disabled":false,"rental_uris":{"android":"levelo://app?vid=8107c8b8-d50c-4f52-a1a9-470dbb17fd33","ios":"levelo://app?vid=8107c8b8-d50c-4f52-a1a9-470dbb17fd33"},"vehicle_type_id":"4","last_reported":1768126266,"current_range_meters":4400,"station_id":"ce4bhgp2rcd13ifvqfd0","pricing_plan_id":"cebpf4jnsgd1na2vs0mg"},{"bike_id":"611d5909-481c-4108-a2ce-d73d9b8234f6","system_id":"levelo_inurba_marseille","lat":43.261999,"lon":5.374492,"is_reserved":false,"is_disabled":false,"rental_uris":{"android":"levelo://app?vid=611d5909-481c-4108-a2ce-d73d9b8234f6","ios":"levelo://app?vid=611d5909-481c-4108-a2ce-d73d9b8234f6"},"vehicle_type_id":"4","last_reported":1768126266,"current_range_meters":4800,"station_id":"ce4bhgp2rcd13ifvqfc0","pricing_plan_id":"cebpf4jnsgd1na2vs0mg"},{"bike_id":"fff142c7-31f0-4b2f-b861-1bf12da7a7f6","system_id":"levelo_inurba_marseille","lat":43.27911,"lon":5.39584,"is_reserved":false,"is_disabled":false,"rental_uris":{"android":"levelo://app?vid=fff142c7-31f0-4b2f-b861-1bf12da7a7f6","ios":"levelo://app?vid=fff142c7-31f0-4b2f-b861-1bf12da7a7f6"},"vehicle_type_id":"4","last_reported":1768126266,"current_range_meters":4800,"station_id":"ce4bhf92rcd13ifvqf40","pricing_plan_id":"cebpf4jnsgd1na2vs0mg"},{"bike_id":"9ba3abdd-ccf0-4033-8df7-7454ef98b00e","system_id":"levelo_inurba_marseille","lat":43.23797,"lon":5.36635,"is_reserved":false,"is_disabled":false,"rental_uris":{"android":"levelo://app?vid=9ba3abdd-ccf0-4033-8df7-7454ef98b00e","ios":"levelo://app?vid=9ba3abdd-ccf0-4033-8df7-7454ef98b00e"},"vehicle_type_id":"4","last_reported":1768126266,"current_range_meters":4800,"station_id":"st_d3nk18o9ro0c73en2l3g","pricing_plan_id":"cebpf4jnsgd1na2vs0mg"},{"bike_id":"1b1b65f2-5621-43a3-8721-1a01794caa40","system_id":"levelo_inurba_marseille","lat":43.23965,"lon":5.36626,"is_reserved":false,"is_disabled":false,"rental_uris":{"android":"levelo://app?vid=1b1b65f2-5621-43a3-8721-1a01794caa40","ios":"levelo://app?vid=1b1b65f2-5621-43a3-8721-1a01794caa40"},"vehicle_type_id":"4","last_reported":1768126266,"current_range_meters":4800,"station_id":"ce4bhi12rcd13ifvqfp0","pricing_plan_id":"cebpf4jnsgd1na2vs0mg"},{"bike_id":"6b468f87-c778-443b-b772-9f7ef9ff4c87","system_id":"levelo_inurba_marseille","lat":43.24382,"lon":5.37061,"is_reserved":false,"is_disabled":false,"rental_uris":{"android":"levelo://app?vid=6b468f87-c778-443b-b772-9f7ef9ff4c87","ios":"levelo://app?vid=6b468f87-c778-443b-b772-9f7ef9ff4c87"},"vehicle_type_id":"4","last_reported":1768126266,"current_range_meters":4800,"station_id":"ce4bhhh2rcd13ifvqfk0","pricing_plan_id":"cebpf4jnsgd1na2vs0mg"},{"bike_id":"1492fbda-feb3-4d1c-bc73-c6bd931a3454","system_id":"levelo_inurba_marseille","lat":43.29748,"lon":5.42772,"is_reserved":false,"is_disabled":false,"rental_uris":{"android":"levelo://app?vid=1492fbda-feb3-4d1c-bc73-c6bd931a3454","ios":"levelo://app?vid=1492fbda-feb3-4d1c-bc73-c6bd931a3454"},"vehicle_type_id":"4","last_reported":1768126266,"current_range_meters":4800,"station_id":"st_d3md5207bmas73dh9klg","pricing_plan_id":"cebpf4jnsgd1na2vs0mg"},{"bike_id":"8aaea6af-d1ab-4bd6-b265-9c5432cea819","system_id":"levelo_inurba_marseille","lat":43.305939,"lon":5.393395,"is_reserved":false,"is_disabled":false,"rental_uris":{"android":"levelo://app?vid=8aaea6af-d1ab-4bd6-b265-9c5432cea819","ios":"levelo://app?vid=8aaea6af-d1ab-4bd6-b265-9c5432cea819"},"vehicle_type_id":"4","last_reported":1768126266,"current_range_meters":4800,"station_id":"ce4bh0p2rcd13ifvqd80","pricing_plan_id":"cebpf4jnsgd1na2vs0mg"},{"bike_id":"dbe9e179-37a7-4bf6-8958-b4f7e3523bb3","system_id":"levelo_inurba_marseille","lat":43.28291,"lon":5.4303,"is_reserved":false,"is_disabled":false,"rental_uris":{"android":"levelo://app?vid=dbe9e179-37a7-4bf6-8958-b4f7e3523bb3","ios":"levelo://app?vid=dbe9e179-37a7-4bf6-8958-b4f7e3523bb3"},"vehicle_type_id":"4","last_reported":1768126266,"current_range_meters":4800,"station_id":"","pricing_plan_id":"cebpf4jnsgd1na2vs0mg"},{"bike_id":"d26f4054-daa5-4936-9c27-6bfc7457f4e6","system_id":"levelo_inurba_marseille","lat":43.28841,"lon":5.35839,"is_reserved":false,"is_disabled":false,"rental_uris":{"android":"levelo://app?vid=d26f4054-daa5-4936-9c27-6bfc7457f4e6","ios":"levelo://app?vid=d26f4054-daa5-4936-9c27-6bfc7457f4e6"},"vehicle_type_id":"4","last_reported":1768126266,"current_range_meters":4800,"station_id":"ce4bhb12rcd13ifvqem0","pricing_plan_id":"cebpf4jnsgd1na2vs0mg"},{"bike_id":"b7cfa0ac-5144-404d-9e6c-29ba027d4bb5","system_id":"levelo_inurba_marseille","lat":43.28613,"lon":5.35116,"is_reserved":false,"is_disabled":false,"rental_uris":{"android":"levelo://app?vid=b7cfa0ac-5144-404d-9e6c-29ba027d4bb5","ios":"levelo://app?vid=b7cfa0ac-5144-404d-9e6c-29ba027d4bb5"},"vehicle_type_id":"4","last_reported":1768126266,"current_range_meters":5600,"station_id":"ce4bhch2rcd13ifvqeug","pricing_plan_id":"cebpf4jnsgd1na2vs0mg"},{"bike_id":"3298400b-a581-435c-aa7d-6c0aebe8e78f","system_id":"levelo_inurba_marseille","lat":43.32479,"lon":5.36561,"is_reserved":false,"is_disabled":false,"rental_uris":{"android":"levelo://app?vid=3298400b-a581-435c-aa7d-6c0aebe8e78f","ios":"levelo://app?vid=3298400b-a581-435c-aa7d-6c0aebe8e78f"},"vehicle_type_id":"4","last_reported":1768126266,"current_range_meters":5600,"station_id":"ce4bhs12rcd13ifvqhvg","pricing_plan_id":"cebpf4jnsgd1na2vs0mg"},{"bike_id":"f8075f9d-b8a7-4230-8aa6-7f7f95cc5413","system_id":"levelo_inurba_marseille","lat":43.28219,"lon":5.39063,"is_reserved":false,"is_disabled":true,"rental_uris":{"android":"levelo://app?vid=f8075f9d-b8a7-4230-8aa6-7f7f95cc5413","ios":"levelo://app?vid=f8075f9d-b8a7-4230-8aa6-7f7f95cc5413"},"vehicle_type_id":"4","last_reported":1768126266,"current_range_meters":5600,"station_id":"ce4bhn92rcd13ifvqgsg","pricing_plan_id":"cebpf4jnsgd1na2vs0mg"},{"bike_id":"73aa8b26-ad51-4672-82b0-eabd4ddaa3c3","system_id":"levelo_inurba_marseille","lat":43.288563,"lon":5.358204,"is_reserved":false,"is_disabled":false,"rental_uris":{"android":"levelo://app?vid=73aa8b26-ad51-4672-82b0-eabd4ddaa3c3","ios":"levelo://app?vid=73aa8b26-ad51-4672-82b0-eabd4ddaa3c3"},"vehicle_type_id":"4","last_reported":1768126266,"current_range_meters":5600,"station_id":"ce4bhb12rcd13ifvqem0","pricing_plan_id":"cebpf4jnsgd1na2vs0mg"},{"bike_id":"ff43ef99-a2e3-42cb-a87f-e919c3749872","system_id":"levelo_inurba_marseille","lat":43.29717,"lon":5.41478,"is_reserved":false,"is_disabled":false,"rental_uris":{"android":"levelo://app?vid=ff43ef99-a2e3-42cb-a87f-e919c3749872","ios":"levelo://app?vid=ff43ef99-a2e3-42cb-a87f-e919c3749872"},"vehicle_type_id":"4","last_reported":1768126266,"current_range_meters":5600,"station_id":"","pricing_plan_id":"cebpf4jnsgd1na2vs0mg"},{"bike_id":"499b63c7-d47c-4bda-89d6-56b8c0a94a03","system_id":"levelo_inurba_marseille","lat":43.3167,"lon":5.43053,"is_reserved":false,"is_disabled":false,"rental_uris":{"android":"levelo://app?vid=499b63c7-d47c-4bda-89d6-56b8c0a94a03","ios":"levelo://app?vid=499b63c7-d47c-4bda-89d6-56b8c0a94a03"},"vehicle_type_id":"4","last_reported":1768126266,"current_range_meters":5600,"station_id":"","pricing_plan_id":"cebpf4jnsgd1na2vs0mg"},{"bike_id":"4949cb6e-d9e4-4d5e-b3bc-16a67e8de49b","system_id":"levelo_inurba_marseille","lat":43.28476,"lon":5.38589,"is_reserved":false,"is_disabled":false,"rental_uris":{"android":"levelo://app?vid=4949cb6e-d9e4-4d5e-b3bc-16a67e8de49b","ios":"levelo://app?vid=4949cb6e-d9e4-4d5e-b3bc-16a67e8de49b"},"vehicle_type_id":"4","last_reported":1768126266,"current_range_meters":5600,"station_id":"ce4bh8p2rcd13ifvqeb0","pricing_plan_id":"cebpf4jnsgd1na2vs0mg"},{"bike_id":"ff91d566-89da-4f23-a85f-8fe443e9709a","system_id":"levelo_inurba_marseille","lat":43.21767,"lon":5.34618,"is_reserved":false,"is_disabled":false,"rental_uris":{"android":"levelo://app?vid=ff91d566-89da-4f23-a85f-8fe443e9709a","ios":"levelo://app?vid=ff91d566-89da-4f23-a85f-8fe443e9709a"},"vehicle_type_id":"4","last_reported":1768126266,"current_range_meters":5600,"station_id":"st_cvj6r9ubvosntc0bgbag","pricing_plan_id":"cebpf4jnsgd1na2vs0mg"},{"bike_id":"9695ced4-9069-43de-9381-414e38a96d05","system_id":"levelo_inurba_marseille","lat":43.30051,"lon":5.37165,"is_reserved":false,"is_disabled":false,"rental_uris":{"android":"levelo://app?vid=9695ced4-9069-43de-9381-414e38a96d05","ios":"levelo://app?vid=9695ced4-9069-43de-9381-414e38a96d05"},"vehicle_type_id":"4","last_reported":1768126266,"current_range_meters":5600,"station_id":"","pricing_plan_id":"cebpf4jnsgd1na2vs0mg"},{"bike_id":"7f391882-abdd-4a67-9c14-bc81f5c2dbfb","system_id":"levelo_inurba_marseille","lat":43.24067,"lon":5.37763,"is_reserved":false,"is_disabled":false,"rental_uris":{"android":"levelo://app?vid=7f391882-abdd-4a67-9c14-bc81f5c2dbfb","ios":"levelo://app?vid=7f391882-abdd-4a67-9c14-bc81f5c2dbfb"},"vehicle_type_id":"4","last_reported":1768126266,"current_range_meters":5600,"station_id":"ce4bhnp2rcd13ifvqgvg","pricing_plan_id":"cebpf4jnsgd1na2vs0mg"},{"bike_id":"1b3bfb24-a9b3-432e-a377-81ff67edd865","system_id":"levelo_inurba_marseille","lat":43.24462,"lon":5.42557,"is_reserved":false,"is_disabled":false,"rental_uris":{"android":"levelo://app?vid=1b3bfb24-a9b3-432e-a377-81ff67edd865","ios":"levelo://app?vid=1b3bfb24-a9b3-432e-a377-81ff67edd865"},"vehicle_type_id":"4","last_reported":1768126266,"current_range_meters":5600,"station_id":"st_d4a3vfp97mjs738cd8kg","pricing_plan_id":"cebpf4jnsgd1na2vs0mg"},{"bike_id":"7c6e8543-32df-4a27-bc11-b68f55311974","system_id":"levelo_inurba_marseille","lat":43.28474,"lon":5.48413,"is_reserved":false,"is_disabled":false,"rental_uris":{"android":"levelo://app?vid=7c6e8543-32df-4a27-bc11-b68f55311974","ios":"levelo://app?vid=7c6e8543-32df-4a27-bc11-b68f55311974"},"vehicle_type_id":"4","last_reported":1768126266,"current_range_meters":5600,"station_id":"","pricing_plan_id":"cebpf4jnsgd1na2vs0mg"},{"bike_id":"c7c2fb25-2812-4554-a688-8c1334dc293c","system_id":"levelo_inurba_marseille","lat":43.33359,"lon":5.41124,"is_reserved":false,"is_disabled":false,"rental_uris":{"android":"levelo://app?vid=c7c2fb25-2812-4554-a688-8c1334dc293c","ios":"levelo://app?vid=c7c2fb25-2812-4554-a688-8c1334dc293c"},"vehicle_type_id":"4","last_reported":1768126266,"current_range_meters":5600,"station_id":"","pricing_plan_id":"cebpf4jnsgd1na2vs0mg"},{"bike_id":"2a9201d3-7ab5-4fe8-9e24-acec22c37a2c","system_id":"levelo_inurba_marseille","lat":43.246627,"lon":5.381516,"is_reserved":false,"is_disabled":false,"rental_uris":{"android":"levelo://app?vid=2a9201d3-7ab5-4fe8-9e24-acec22c37a2c","ios":"levelo://app?vid=2a9201d3-7ab5-4fe8-9e24-acec22c37a2c"},"vehicle_type_id":"4","last_reported":1768126266,"current_range_meters":5600,"station_id":"ce4bhih2rcd13ifvqfr0","pricing_plan_id":"cebpf4jnsgd1na2vs0mg"},{"bike_id":"3a7d4bf0-4f04-4cf8-b966-90e49b6d003c","system_id":"levelo_inurba_marseille","lat":43.26558,"lon":5.39047,"is_reserved":false,"is_disabled":false,"rental_uris":{"android":"levelo://app?vid=3a7d4bf0-4f04-4cf8-b966-90e49b6d003c","ios":"levelo://app?vid=3a7d4bf0-4f04-4cf8-b966-90e49b6d003c"},"vehicle_type_id":"4","last_reported":1768126266,"current_range_meters":6000,"station_id":"ce4bhe12rcd13ifvqf30","pricing_plan_id":"cebpf4jnsgd1na2vs0mg"},{"bike_id":"520f905b-9190-4407-aa69-8696aaa8c86e","system_id":"levelo_inurba_marseille","lat":43.29762,"lon":5.37082,"is_reserved":false,"is_disabled":false,"rental_uris":{"android":"levelo://app?vid=520f905b-9190-4407-aa69-8696aaa8c86e","ios":"levelo://app?vid=520f905b-9190-4407-aa69-8696aaa8c86e"},"vehicle_type_id":"4","last_reported":1768126266,"current_range_meters":6000,"station_id":"ce4bgop2rcd13ifvqc1g","pricing_plan_id":"cebpf4jnsgd1na2vs0mg"},{"bike_id":"a815540b-72e6-4e6f-b923-e273e879b5e8","system_id":"levelo_inurba_marseille","lat":43.25577,"lon":5.3824,"is_reserved":false,"is_disabled":false,"rental_uris":{"android":"levelo://app?vid=a815540b-72e6-4e6f-b923-e273e879b5e8","ios":"levelo://app?vid=a815540b-72e6-4e6f-b923-e273e879b5e8"},"vehicle_type_id":"4","last_reported":1768126266,"current_range_meters":6000,"station_id":"ce4bhih2rcd13ifvqfs0","pricing_plan_id":"cebpf4jnsgd1na2vs0mg"},{"bike_id":"d047f3e6-5232-4d8a-a716-cf93d04ed4b1","system_id":"levelo_inurba_marseille","lat":43.27171,"lon":5.41002,"is_reserved":false,"is_disabled":false,"rental_uris":{"android":"levelo://app?vid=d047f3e6-5232-4d8a-a716-cf93d04ed4b1","ios":"levelo://app?vid=d047f3e6-5232-4d8a-a716-cf93d04ed4b1"},"vehicle_type_id":"4","last_reported":1768126266,"current_range_meters":6000,"station_id":"ce4bhl12rcd13ifvqgf0","pricing_plan_id":"cebpf4jnsgd1na2vs0mg"},{"bike_id":"6074d460-8355-43c9-ad00-28e850a7492f","system_id":"levelo_inurba_marseille","lat":43.28877,"lon":5.42504,"is_reserved":false,"is_disabled":false,"rental_uris":{"android":"levelo://app?vid=6074d460-8355-43c9-ad00-28e850a7492f","ios":"levelo://app?vid=6074d460-8355-43c9-ad00-28e850a7492f"},"vehicle_type_id":"4","last_reported":1768126266,"current_range_meters":6000,"station_id":"st_d3b462108ojc7389ooeg","pricing_plan_id":"cebpf4jnsgd1na2vs0mg"},{"bike_id":"3a944ff1-8f80-4b3a-87d1-40b3f03c9b0c","system_id":"levelo_inurba_marseille","lat":43.31093,"lon":5.38634,"is_reserved":false,"is_disabled":false,"rental_uris":{"android":"levelo://app?vid=3a944ff1-8f80-4b3a-87d1-40b3f03c9b0c","ios":"levelo://app?vid=3a944ff1-8f80-4b3a-87d1-40b3f03c9b0c"},"vehicle_type_id":"4","last_reported":1768126266,"current_range_meters":6000,"station_id":"","pricing_plan_id":"cebpf4jnsgd1na2vs0mg"},{"bike_id":"a20e324f-461e-49f1-9758-c1dce453e58f","system_id":"levelo_inurba_marseille","lat":43.229295,"lon":5.353799,"is_reserved":false,"is_disabled":false,"rental_uris":{"android":"levelo://app?vid=a20e324f-461e-49f1-9758-c1dce453e58f","ios":"levelo://app?vid=a20e324f-461e-49f1-9758-c1dce453e58f"},"vehicle_type_id":"4","last_reported":1768126266,"current_range_meters":6000,"station_id":"cpo3532slgdg3j2ikp40","pricing_plan_id":"cebpf4jnsgd1na2vs0mg"},{"bike_id":"7d830b5d-9ecf-4784-ac40-38317f2e4419","system_id":"levelo_inurba_marseille","lat":43.27605,"lon":5.36118,"is_reserved":false,"is_disabled":false,"rental_uris":{"android":"levelo://app?vid=7d830b5d-9ecf-4784-ac40-38317f2e4419","ios":"levelo://app?vid=7d830b5d-9ecf-4784-ac40-38317f2e4419"},"vehicle_type_id":"4","last_reported":1768126266,"current_range_meters":6000,"station_id":"ce4bgj92rcd13ifvqbe0","pricing_plan_id":"cebpf4jnsgd1na2vs0mg"},{"bike_id":"e7e6cb92-4ba6-4878-a96f-e087afdbdbc0","system_id":"levelo_inurba_marseille","lat":43.229259,"lon":5.353846,"is_reserved":false,"is_disabled":false,"rental_uris":{"android":"levelo://app?vid=e7e6cb92-4ba6-4878-a96f-e087afdbdbc0","ios":"levelo://app?vid=e7e6cb92-4ba6-4878-a96f-e087afdbdbc0"},"vehicle_type_id":"4","last_reported":1768126266,"current_range_meters":6400,"station_id":"cpo3532slgdg3j2ikp40","pricing_plan_id":"cebpf4jnsgd1na2vs0mg"},{"bike_id":"6051ea28-4252-4234-a1eb-0b453028ae6e","system_id":"levelo_inurba_marseille","lat":43.28608,"lon":5.35118,"is_reserved":false,"is_disabled":false,"rental_uris":{"android":"levelo://app?vid=6051ea28-4252-4234-a1eb-0b453028ae6e","ios":"levelo://app?vid=6051ea28-4252-4234-a1eb-0b453028ae6e"},"vehicle_type_id":"4","last_reported":1768126266,"current_range_meters":6400,"station_id":"ce4bhch2rcd13ifvqeug","pricing_plan_id":"cebpf4jnsgd1na2vs0mg"},{"bike_id":"de025d8b-9701-499a-99d0-5a88bfb4d63f","system_id":"levelo_inurba_marseille","lat":43.25579,"lon":5.38244,"is_reserved":false,"is_disabled":false,"rental_uris":{"android":"levelo://app?vid=de025d8b-9701-499a-99d0-5a88bfb4d63f","ios":"levelo://app?vid=de025d8b-9701-499a-99d0-5a88bfb4d63f"},"vehicle_type_id":"4","last_reported":1768126266,"current_range_meters":6400,"station_id":"ce4bhih2rcd13ifvqfs0","pricing_plan_id":"cebpf4jnsgd1na2vs0mg"},{"bike_id":"9e546458-c3a8-4e35-9b2b-b0910317fcfc","system_id":"levelo_inurba_marseille","lat":43.22928,"lon":5.35379,"is_reserved":false,"is_disabled":false,"rental_uris":{"android":"levelo://app?vid=9e546458-c3a8-4e35-9b2b-b0910317fcfc","ios":"levelo://app?vid=9e546458-c3a8-4e35-9b2b-b0910317fcfc"},"vehicle_type_id":"4","last_reported":1768126266,"current_range_meters":6400,"station_id":"cpo3532slgdg3j2ikp40","pricing_plan_id":"cebpf4jnsgd1na2vs0mg"},{"bike_id":"604f78fd-36d7-4821-843f-e68feb228a98","system_id":"levelo_inurba_marseille","lat":43.241607,"lon":5.364217,"is_reserved":false,"is_disabled":false,"rental_uris":{"android":"levelo://app?vid=604f78fd-36d7-4821-843f-e68feb228a98","ios":"levelo://app?vid=604f78fd-36d7-4821-843f-e68feb228a98"},"vehicle_type_id":"4","last_reported":1768126266,"current_range_meters":6400,"station_id":"cpo36qri1sfpv3e86is0","pricing_plan_id":"cebpf4jnsgd1na2vs0mg"},{"bike_id":"37285173-7629-4cca-86c4-ad83064b32f4","system_id":"levelo_inurba_marseille","lat":43.26547,"lon":5.37298,"is_reserved":false,"is_disabled":false,"rental_uris":{"android":"levelo://app?vid=37285173-7629-4cca-86c4-ad83064b32f4","ios":"levelo://app?vid=37285173-7629-4cca-86c4-ad83064b32f4"},"vehicle_type_id":"4","last_reported":1768126266,"current_range_meters":6400,"station_id":"ce4bhg12rcd13ifvqf70","pricing_plan_id":"cebpf4jnsgd1na2vs0mg"},{"bike_id":"937eaf44-6d62-4c5c-959b-f6586d2b8682","system_id":"levelo_inurba_marseille","lat":43.30148,"lon":5.3736,"is_reserved":false,"is_disabled":false,"rental_uris":{"android":"levelo://app?vid=937eaf44-6d62-4c5c-959b-f6586d2b8682","ios":"levelo://app?vid=937eaf44-6d62-4c5c-959b-f6586d2b8682"},"vehicle_type_id":"4","last_reported":1768126266,"current_range_meters":6400,"station_id":"ce4bgs92rcd13ifvqcc0","pricing_plan_id":"cebpf4jnsgd1na2vs0mg"},{"bike_id":"9aa890a4-64b5-44a3-a409-538be65a0895","system_id":"levelo_inurba_marseille","lat":43.29407,"lon":5.39745,"is_reserved":false,"is_disabled":false,"rental_uris":{"android":"levelo://app?vid=9aa890a4-64b5-44a3-a409-538be65a0895","ios":"levelo://app?vid=9aa890a4-64b5-44a3-a409-538be65a0895"},"vehicle_type_id":"4","last_reported":1768126266,"current_range_meters":6400,"station_id":"ce4bh3h2rcd13ifvqdo0","pricing_plan_id":"cebpf4jnsgd1na2vs0mg"},{"bike_id":"6fdf77f4-df4a-4c49-9e87-7104cf455c2b","system_id":"levelo_inurba_marseille","lat":43.31332,"lon":5.39691,"is_reserved":false,"is_disabled":true,"rental_uris":{"android":"levelo://app?vid=6fdf77f4-df4a-4c49-9e87-7104cf455c2b","ios":"levelo://app?vid=6fdf77f4-df4a-4c49-9e87-7104cf455c2b"},"vehicle_type_id":"4","last_reported":1768126266,"current_range_meters":6400,"station_id":"ce4bgvp2rcd13ifvqcu0","pricing_plan_id":"cebpf4jnsgd1na2vs0mg"},{"bike_id":"f0b507e4-289a-47f5-91bc-6cb1950546cc","system_id":"levelo_inurba_marseille","lat":43.26561,"lon":5.40316,"is_reserved":false,"is_disabled":false,"rental_uris":{"android":"levelo://app?vid=f0b507e4-289a-47f5-91bc-6cb1950546cc","ios":"levelo://app?vid=f0b507e4-289a-47f5-91bc-6cb1950546cc"},"vehicle_type_id":"4","last_reported":1768126266,"current_range_meters":6400,"station_id":"ce4bhmp2rcd13ifvqgng","pricing_plan_id":"cebpf4jnsgd1na2vs0mg"},{"bike_id":"202b9ed5-8993-43b0-b2e5-5a58a7060431","system_id":"levelo_inurba_marseille","lat":43.28082,"lon":5.39656,"is_reserved":false,"is_disabled":false,"rental_uris":{"android":"levelo://app?vid=202b9ed5-8993-43b0-b2e5-5a58a7060431","ios":"levelo://app?vid=202b9ed5-8993-43b0-b2e5-5a58a7060431"},"vehicle_type_id":"4","last_reported":1768126266,"current_range_meters":6400,"station_id":"ce4bho12rcd13ifvqh2g","pricing_plan_id":"cebpf4jnsgd1na2vs0mg"},{"bike_id":"ee66d2db-c17a-4b2a-83f9-37da596d1de5","system_id":"levelo_inurba_marseille","lat":43.24166,"lon":5.3639,"is_reserved":false,"is_disabled":false,"rental_uris":{"android":"levelo://app?vid=ee66d2db-c17a-4b2a-83f9-37da596d1de5","ios":"levelo://app?vid=ee66d2db-c17a-4b2a-83f9-37da596d1de5"},"vehicle_type_id":"4","last_reported":1768126266,"current_range_meters":6400,"station_id":"cpo36qri1sfpv3e86is0","pricing_plan_id":"cebpf4jnsgd1na2vs0mg"},{"bike_id":"fe2bc6fa-f446-40d0-baed-54c9cf9ce6c8","system_id":"levelo_inurba_marseille","lat":43.26564,"lon":5.40329,"is_reserved":false,"is_disabled":false,"rental_uris":{"android":"levelo://app?vid=fe2bc6fa-f446-40d0-baed-54c9cf9ce6c8","ios":"levelo://app?vid=fe2bc6fa-f446-40d0-baed-54c9cf9ce6c8"},"vehicle_type_id":"4","last_reported":1768126266,"current_range_meters":6400,"station_id":"ce4bhmp2rcd13ifvqgng","pricing_plan_id":"cebpf4jnsgd1na2vs0mg"},{"bike_id":"26201a0e-2fa7-46bf-adb4-65d194f95ff4","system_id":"levelo_inurba_marseille","lat":43.28714,"lon":5.37391,"is_reserved":false,"is_disabled":true,"rental_uris":{"android":"levelo://app?vid=26201a0e-2fa7-46bf-adb4-65d194f95ff4","ios":"levelo://app?vid=26201a0e-2fa7-46bf-adb4-65d194f95ff4"},"vehicle_type_id":"4","last_reported":1768126266,"current_range_meters":6400,"station_id":"ce4bh3p2rcd13ifvqdq0","pricing_plan_id":"cebpf4jnsgd1na2vs0mg"},{"bike_id":"f4a60f1b-2920-4fb8-8f42-1eaeaa00e372","system_id":"levelo_inurba_marseille","lat":43.301308,"lon":5.431316,"is_reserved":false,"is_disabled":false,"rental_uris":{"android":"levelo://app?vid=f4a60f1b-2920-4fb8-8f42-1eaeaa00e372","ios":"levelo://app?vid=f4a60f1b-2920-4fb8-8f42-1eaeaa00e372"},"vehicle_type_id":"4","last_reported":1768126266,"current_range_meters":6400,"station_id":"st_d3js3co5814s73ftftug","pricing_plan_id":"cebpf4jnsgd1na2vs0mg"},{"bike_id":"15acaff8-889e-4081-ae54-8b8658492504","system_id":"levelo_inurba_marseille","lat":43.31411,"lon":5.40344,"is_reserved":false,"is_disabled":false,"rental_uris":{"android":"levelo://app?vid=15acaff8-889e-4081-ae54-8b8658492504","ios":"levelo://app?vid=15acaff8-889e-4081-ae54-8b8658492504"},"vehicle_type_id":"4","last_reported":1768126266,"current_range_meters":6400,"station_id":"","pricing_plan_id":"cebpf4jnsgd1na2vs0mg"},{"bike_id":"65ad97e6-aef1-40d9-8756-ec2d6c923c46","system_id":"levelo_inurba_marseille","lat":43.22923,"lon":5.35388,"is_reserved":false,"is_disabled":false,"rental_uris":{"android":"levelo://app?vid=65ad97e6-aef1-40d9-8756-ec2d6c923c46","ios":"levelo://app?vid=65ad97e6-aef1-40d9-8756-ec2d6c923c46"},"vehicle_type_id":"4","last_reported":1768126266,"current_range_meters":6400,"station_id":"cpo3532slgdg3j2ikp40","pricing_plan_id":"cebpf4jnsgd1na2vs0mg"},{"bike_id":"819abc07-7269-4452-9510-4304b1b016c0","system_id":"levelo_inurba_marseille","lat":43.24075,"lon":5.37759,"is_reserved":false,"is_disabled":false,"rental_uris":{"android":"levelo://app?vid=819abc07-7269-4452-9510-4304b1b016c0","ios":"levelo://app?vid=819abc07-7269-4452-9510-4304b1b016c0"},"vehicle_type_id":"4","last_reported":1768126266,"current_range_meters":6400,"station_id":"ce4bhnp2rcd13ifvqgvg","pricing_plan_id":"cebpf4jnsgd1na2vs0mg"},{"bike_id":"c22fc62d-d913-4bcf-b10a-97ae9940046d","system_id":"levelo_inurba_marseille","lat":43.28721,"lon":5.36097,"is_reserved":false,"is_disabled":false,"rental_uris":{"android":"levelo://app?vid=c22fc62d-d913-4bcf-b10a-97ae9940046d","ios":"levelo://app?vid=c22fc62d-d913-4bcf-b10a-97ae9940046d"},"vehicle_type_id":"4","last_reported":1768126266,"current_range_meters":6400,"station_id":"cki0cbj6b192h4jlfktg","pricing_plan_id":"cebpf4jnsgd1na2vs0mg"},{"bike_id":"baebb161-7721-4b4d-afb9-a5c5e1f5e9ac","system_id":"levelo_inurba_marseille","lat":43.26189,"lon":5.37943,"is_reserved":false,"is_disabled":false,"rental_uris":{"android":"levelo://app?vid=baebb161-7721-4b4d-afb9-a5c5e1f5e9ac","ios":"levelo://app?vid=baebb161-7721-4b4d-afb9-a5c5e1f5e9ac"},"vehicle_type_id":"4","last_reported":1768126266,"current_range_meters":6800,"station_id":"ce4bhjp2rcd13ifvqg90","pricing_plan_id":"cebpf4jnsgd1na2vs0mg"},{"bike_id":"2f7f8ed0-abfd-41e3-bc34-9299a62bf687","system_id":"levelo_inurba_marseille","lat":43.2406,"lon":5.37781,"is_reserved":false,"is_disabled":false,"rental_uris":{"android":"levelo://app?vid=2f7f8ed0-abfd-41e3-bc34-9299a62bf687","ios":"levelo://app?vid=2f7f8ed0-abfd-41e3-bc34-9299a62bf687"},"vehicle_type_id":"4","last_reported":1768126266,"current_range_meters":6800,"station_id":"ce4bhnp2rcd13ifvqgvg","pricing_plan_id":"cebpf4jnsgd1na2vs0mg"},{"bike_id":"a086ce0c-3cff-47d2-ac7e-009ad7c5e69f","system_id":"levelo_inurba_marseille","lat":43.24075,"lon":5.37763,"is_reserved":false,"is_disabled":false,"rental_uris":{"android":"levelo://app?vid=a086ce0c-3cff-47d2-ac7e-009ad7c5e69f","ios":"levelo://app?vid=a086ce0c-3cff-47d2-ac7e-009ad7c5e69f"},"vehicle_type_id":"4","last_reported":1768126266,"current_range_meters":6800,"station_id":"ce4bhnp2rcd13ifvqgvg","pricing_plan_id":"cebpf4jnsgd1na2vs0mg"},{"bike_id":"c46739cb-8652-48d3-972f-9096dc83781a","system_id":"levelo_inurba_marseille","lat":43.2319,"lon":5.35562,"is_reserved":false,"is_disabled":false,"rental_uris":{"android":"levelo://app?vid=c46739cb-8652-48d3-972f-9096dc83781a","ios":"levelo://app?vid=c46739cb-8652-48d3-972f-9096dc83781a"},"vehicle_type_id":"4","last_reported":1768126266,"current_range_meters":6800,"station_id":"ce4bhu92rcd13ifvqi70","pricing_plan_id":"cebpf4jnsgd1na2vs0mg"},{"bike_id":"ae427873-2ce0-47ee-826b-d04d8e4f867a","system_id":"levelo_inurba_marseille","lat":43.30091,"lon":5.43172,"is_reserved":false,"is_disabled":false,"rental_uris":{"android":"levelo://app?vid=ae427873-2ce0-47ee-826b-d04d8e4f867a","ios":"levelo://app?vid=ae427873-2ce0-47ee-826b-d04d8e4f867a"},"vehicle_type_id":"4","last_reported":1768126266,"current_range_meters":6800,"station_id":"","pricing_plan_id":"cebpf4jnsgd1na2vs0mg"},{"bike_id":"f5d05e6a-80fa-4bfe-a9ae-266042cfbf63","system_id":"levelo_inurba_marseille","lat":43.3136,"lon":5.38489,"is_reserved":false,"is_disabled":false,"rental_uris":{"android":"levelo://app?vid=f5d05e6a-80fa-4bfe-a9ae-266042cfbf63","ios":"levelo://app?vid=f5d05e6a-80fa-4bfe-a9ae-266042cfbf63"},"vehicle_type_id":"4","last_reported":1768126266,"current_range_meters":6800,"station_id":"ce4bgt92rcd13ifvqcf0","pricing_plan_id":"cebpf4jnsgd1na2vs0mg"},{"bike_id":"1a57bf80-d95f-4df4-85ec-7a70570ac48b","system_id":"levelo_inurba_marseille","lat":43.28962,"lon":5.36374,"is_reserved":false,"is_disabled":false,"rental_uris":{"android":"levelo://app?vid=1a57bf80-d95f-4df4-85ec-7a70570ac48b","ios":"levelo://app?vid=1a57bf80-d95f-4df4-85ec-7a70570ac48b"},"vehicle_type_id":"4","last_reported":1768126266,"current_range_meters":6800,"station_id":"ce4bhc92rcd13ifvqetg","pricing_plan_id":"cebpf4jnsgd1na2vs0mg"},{"bike_id":"2a198934-afbb-4530-8fe1-3a8f307792a1","system_id":"levelo_inurba_marseille","lat":43.30125,"lon":5.39878,"is_reserved":false,"is_disabled":false,"rental_uris":{"android":"levelo://app?vid=2a198934-afbb-4530-8fe1-3a8f307792a1","ios":"levelo://app?vid=2a198934-afbb-4530-8fe1-3a8f307792a1"},"vehicle_type_id":"4","last_reported":1768126266,"current_range_meters":6800,"station_id":"ce4bh0h2rcd13ifvqd40","pricing_plan_id":"cebpf4jnsgd1na2vs0mg"},{"bike_id":"077c8981-bea2-4e23-9f90-a06cf25901d0","system_id":"levelo_inurba_marseille","lat":43.29585,"lon":5.38041,"is_reserved":false,"is_disabled":false,"rental_uris":{"android":"levelo://app?vid=077c8981-bea2-4e23-9f90-a06cf25901d0","ios":"levelo://app?vid=077c8981-bea2-4e23-9f90-a06cf25901d0"},"vehicle_type_id":"4","last_reported":1768126266,"current_range_meters":6800,"station_id":"","pricing_plan_id":"cebpf4jnsgd1na2vs0mg"},{"bike_id":"2576b791-89b9-436c-883e-3191d9c51a32","system_id":"levelo_inurba_marseille","lat":43.225257,"lon":5.348438,"is_reserved":false,"is_disabled":false,"rental_uris":{"android":"levelo://app?vid=2576b791-89b9-436c-883e-3191d9c51a32","ios":"levelo://app?vid=2576b791-89b9-436c-883e-3191d9c51a32"},"vehicle_type_id":"4","last_reported":1768126266,"current_range_meters":6800,"station_id":"","pricing_plan_id":"cebpf4jnsgd1na2vs0mg"},{"bike_id":"239a18cd-6c0d-43fb-8897-a3f843c7752a","system_id":"levelo_inurba_marseille","lat":43.248064,"lon":5.374555,"is_reserved":false,"is_disabled":false,"rental_uris":{"android":"levelo://app?vid=239a18cd-6c0d-43fb-8897-a3f843c7752a","ios":"levelo://app?vid=239a18cd-6c0d-43fb-8897-a3f843c7752a"},"vehicle_type_id":"4","last_reported":1768126266,"current_range_meters":6800,"station_id":"ce4bhgh2rcd13ifvqfb0","pricing_plan_id":"cebpf4jnsgd1na2vs0mg"},{"bike_id":"6f7b8899-58f0-4e9d-991f-0ba19143e03d","system_id":"levelo_inurba_marseille","lat":43.27063,"lon":5.38316,"is_reserved":false,"is_disabled":false,"rental_uris":{"android":"levelo://app?vid=6f7b8899-58f0-4e9d-991f-0ba19143e03d","ios":"levelo://app?vid=6f7b8899-58f0-4e9d-991f-0ba19143e03d"},"vehicle_type_id":"4","last_reported":1768126266,"current_range_meters":6800,"station_id":"st_d3n2fo6cfp8s73cte1j0","pricing_plan_id":"cebpf4jnsgd1na2vs0mg"},{"bike_id":"17f66319-ac3b-44f3-9f86-4da99c24d4a6","system_id":"levelo_inurba_marseille","lat":43.26034,"lon":5.37559,"is_reserved":false,"is_disabled":false,"rental_uris":{"android":"levelo://app?vid=17f66319-ac3b-44f3-9f86-4da99c24d4a6","ios":"levelo://app?vid=17f66319-ac3b-44f3-9f86-4da99c24d4a6"},"vehicle_type_id":"4","last_reported":1768126266,"current_range_meters":6800,"station_id":"ce4bhgh2rcd13ifvqfa0","pricing_plan_id":"cebpf4jnsgd1na2vs0mg"},{"bike_id":"bec1bdf7-8c3e-466a-9564-9717af11359e","system_id":"levelo_inurba_marseille","lat":43.2464,"lon":5.38152,"is_reserved":false,"is_disabled":true,"rental_uris":{"android":"levelo://app?vid=bec1bdf7-8c3e-466a-9564-9717af11359e","ios":"levelo://app?vid=bec1bdf7-8c3e-466a-9564-9717af11359e"},"vehicle_type_id":"4","last_reported":1768126266,"current_range_meters":6800,"station_id":"ce4bhih2rcd13ifvqfr0","pricing_plan_id":"cebpf4jnsgd1na2vs0mg"},{"bike_id":"d4287e0d-2f6f-4e66-9572-51a24be57a06","system_id":"levelo_inurba_marseille","lat":43.30264,"lon":5.40086,"is_reserved":false,"is_disabled":false,"rental_uris":{"android":"levelo://app?vid=d4287e0d-2f6f-4e66-9572-51a24be57a06","ios":"levelo://app?vid=d4287e0d-2f6f-4e66-9572-51a24be57a06"},"vehicle_type_id":"4","last_reported":1768126266,"current_range_meters":6800,"station_id":"ce4bgvh2rcd13ifvqcs0","pricing_plan_id":"cebpf4jnsgd1na2vs0mg"},{"bike_id":"87d5c75a-ce16-46ad-a6dd-f7088e8ac2aa","system_id":"levelo_inurba_marseille","lat":43.258602,"lon":5.399013,"is_reserved":false,"is_disabled":false,"rental_uris":{"android":"levelo://app?vid=87d5c75a-ce16-46ad-a6dd-f7088e8ac2aa","ios":"levelo://app?vid=87d5c75a-ce16-46ad-a6dd-f7088e8ac2aa"},"vehicle_type_id":"4","last_reported":1768126266,"current_range_meters":6800,"station_id":"ce4bhl92rcd13ifvqghg","pricing_plan_id":"cebpf4jnsgd1na2vs0mg"},{"bike_id":"78190b18-d4f6-4583-b796-9b44806d2811","system_id":"levelo_inurba_marseille","lat":43.28476,"lon":5.48406,"is_reserved":false,"is_disabled":false,"rental_uris":{"android":"levelo://app?vid=78190b18-d4f6-4583-b796-9b44806d2811","ios":"levelo://app?vid=78190b18-d4f6-4583-b796-9b44806d2811"},"vehicle_type_id":"4","last_reported":1768126266,"current_range_meters":6800,"station_id":"","pricing_plan_id":"cebpf4jnsgd1na2vs0mg"},{"bike_id":"0737c10a-d287-45c3-a7cb-fc329a4255fd","system_id":"levelo_inurba_marseille","lat":43.21744,"lon":5.346196,"is_reserved":false,"is_disabled":false,"rental_uris":{"android":"levelo://app?vid=0737c10a-d287-45c3-a7cb-fc329a4255fd","ios":"levelo://app?vid=0737c10a-d287-45c3-a7cb-fc329a4255fd"},"vehicle_type_id":"4","last_reported":1768126266,"current_range_meters":6800,"station_id":"ce4bgkh2rcd13ifvqbl0","pricing_plan_id":"cebpf4jnsgd1na2vs0mg"},{"bike_id":"9227257d-26df-4311-bdb9-080324817f5d","system_id":"levelo_inurba_marseille","lat":43.2176,"lon":5.34605,"is_reserved":false,"is_disabled":true,"rental_uris":{"android":"levelo://app?vid=9227257d-26df-4311-bdb9-080324817f5d","ios":"levelo://app?vid=9227257d-26df-4311-bdb9-080324817f5d"},"vehicle_type_id":"4","last_reported":1768126266,"current_range_meters":6800,"station_id":"","pricing_plan_id":"cebpf4jnsgd1na2vs0mg"},{"bike_id":"3b3cbc0c-d0ae-4867-be9f-be613186797d","system_id":"levelo_inurba_marseille","lat":43.302836,"lon":5.400711,"is_reserved":false,"is_disabled":false,"rental_uris":{"android":"levelo://app?vid=3b3cbc0c-d0ae-4867-be9f-be613186797d","ios":"levelo://app?vid=3b3cbc0c-d0ae-4867-be9f-be613186797d"},"vehicle_type_id":"4","last_reported":1768126266,"current_range_meters":6800,"station_id":"ce4bgvh2rcd13ifvqcs0","pricing_plan_id":"cebpf4jnsgd1na2vs0mg"},{"bike_id":"b555239d-2168-4ba9-bdf4-8b711ca32acb","system_id":"levelo_inurba_marseille","lat":43.28469,"lon":5.48397,"is_reserved":false,"is_disabled":false,"rental_uris":{"android":"levelo://app?vid=b555239d-2168-4ba9-bdf4-8b711ca32acb","ios":"levelo://app?vid=b555239d-2168-4ba9-bdf4-8b711ca32acb"},"vehicle_type_id":"4","last_reported":1768126266,"current_range_meters":6800,"station_id":"","pricing_plan_id":"cebpf4jnsgd1na2vs0mg"},{"bike_id":"fa4bb0d8-ba68-465b-864b-6be18ff84a1b","system_id":"levelo_inurba_marseille","lat":43.231916,"lon":5.3555,"is_reserved":false,"is_disabled":false,"rental_uris":{"android":"levelo://app?vid=fa4bb0d8-ba68-465b-864b-6be18ff84a1b","ios":"levelo://app?vid=fa4bb0d8-ba68-465b-864b-6be18ff84a1b"},"vehicle_type_id":"4","last_reported":1768126266,"current_range_meters":6800,"station_id":"ce4bhu92rcd13ifvqi70","pricing_plan_id":"cebpf4jnsgd1na2vs0mg"},{"bike_id":"363a3d5b-3786-4d7e-b660-b96d0f1b5e53","system_id":"levelo_inurba_marseille","lat":43.3093,"lon":5.40144,"is_reserved":false,"is_disabled":false,"rental_uris":{"android":"levelo://app?vid=363a3d5b-3786-4d7e-b660-b96d0f1b5e53","ios":"levelo://app?vid=363a3d5b-3786-4d7e-b660-b96d0f1b5e53"},"vehicle_type_id":"4","last_reported":1768126266,"current_range_meters":7200,"station_id":"ce4bgvp2rcd13ifvqct0","pricing_plan_id":"cebpf4jnsgd1na2vs0mg"},{"bike_id":"3632ea8b-40de-4396-b94a-0af04633fa3b","system_id":"levelo_inurba_marseille","lat":43.26549,"lon":5.37331,"is_reserved":false,"is_disabled":false,"rental_uris":{"android":"levelo://app?vid=3632ea8b-40de-4396-b94a-0af04633fa3b","ios":"levelo://app?vid=3632ea8b-40de-4396-b94a-0af04633fa3b"},"vehicle_type_id":"4","last_reported":1768126266,"current_range_meters":7200,"station_id":"ce4bhg12rcd13ifvqf70","pricing_plan_id":"cebpf4jnsgd1na2vs0mg"},{"bike_id":"f0ebc8c2-e687-4bde-b3f8-6d500df6884a","system_id":"levelo_inurba_marseille","lat":43.29889,"lon":5.43671,"is_reserved":false,"is_disabled":false,"rental_uris":{"android":"levelo://app?vid=f0ebc8c2-e687-4bde-b3f8-6d500df6884a","ios":"levelo://app?vid=f0ebc8c2-e687-4bde-b3f8-6d500df6884a"},"vehicle_type_id":"4","last_reported":1768126266,"current_range_meters":7200,"station_id":"ce4bhpp2rcd13ifvqhfg","pricing_plan_id":"cebpf4jnsgd1na2vs0mg"},{"bike_id":"8d3f99e8-e0d3-4ac2-bf02-cbd27ce4a64f","system_id":"levelo_inurba_marseille","lat":43.28614,"lon":5.35096,"is_reserved":false,"is_disabled":false,"rental_uris":{"android":"levelo://app?vid=8d3f99e8-e0d3-4ac2-bf02-cbd27ce4a64f","ios":"levelo://app?vid=8d3f99e8-e0d3-4ac2-bf02-cbd27ce4a64f"},"vehicle_type_id":"4","last_reported":1768126266,"current_range_meters":7200,"station_id":"ce4bhch2rcd13ifvqeug","pricing_plan_id":"cebpf4jnsgd1na2vs0mg"},{"bike_id":"c41b4833-7081-4824-aaec-8187326c374d","system_id":"levelo_inurba_marseille","lat":43.279212,"lon":5.39583,"is_reserved":false,"is_disabled":false,"rental_uris":{"android":"levelo://app?vid=c41b4833-7081-4824-aaec-8187326c374d","ios":"levelo://app?vid=c41b4833-7081-4824-aaec-8187326c374d"},"vehicle_type_id":"4","last_reported":1768126266,"current_range_meters":7200,"station_id":"ce4bhf92rcd13ifvqf40","pricing_plan_id":"cebpf4jnsgd1na2vs0mg"},{"bike_id":"5aa482e6-221b-4498-a6a2-fec31f16d788","system_id":"levelo_inurba_marseille","lat":43.284699,"lon":5.484113,"is_reserved":false,"is_disabled":false,"rental_uris":{"android":"levelo://app?vid=5aa482e6-221b-4498-a6a2-fec31f16d788","ios":"levelo://app?vid=5aa482e6-221b-4498-a6a2-fec31f16d788"},"vehicle_type_id":"4","last_reported":1768126266,"current_range_meters":7200,"station_id":"","pricing_plan_id":"cebpf4jnsgd1na2vs0mg"},{"bike_id":"8f97d907-0afa-48c9-9def-458ed100166b","system_id":"levelo_inurba_marseille","lat":43.28867,"lon":5.42534,"is_reserved":false,"is_disabled":false,"rental_uris":{"android":"levelo://app?vid=8f97d907-0afa-48c9-9def-458ed100166b","ios":"levelo://app?vid=8f97d907-0afa-48c9-9def-458ed100166b"},"vehicle_type_id":"4","last_reported":1768126266,"current_range_meters":7200,"station_id":"st_d3b462108ojc7389ooeg","pricing_plan_id":"cebpf4jnsgd1na2vs0mg"},{"bike_id":"e5b413dd-385d-495a-838b-428921a667ff","system_id":"levelo_inurba_marseille","lat":43.30598,"lon":5.37263,"is_reserved":false,"is_disabled":false,"rental_uris":{"android":"levelo://app?vid=e5b413dd-385d-495a-838b-428921a667ff","ios":"levelo://app?vid=e5b413dd-385d-495a-838b-428921a667ff"},"vehicle_type_id":"4","last_reported":1768126266,"current_range_meters":7200,"station_id":"ce4bgqh2rcd13ifvqc4g","pricing_plan_id":"cebpf4jnsgd1na2vs0mg"},{"bike_id":"71b2703a-10b0-4767-968a-df4bb78082d2","system_id":"levelo_inurba_marseille","lat":43.291617,"lon":5.374943,"is_reserved":false,"is_disabled":false,"rental_uris":{"android":"levelo://app?vid=71b2703a-10b0-4767-968a-df4bb78082d2","ios":"levelo://app?vid=71b2703a-10b0-4767-968a-df4bb78082d2"},"vehicle_type_id":"4","last_reported":1768126266,"current_range_meters":7200,"station_id":"","pricing_plan_id":"cebpf4jnsgd1na2vs0mg"},{"bike_id":"e6f34154-a48e-49f3-9790-37e1b4a4c491","system_id":"levelo_inurba_marseille","lat":43.30041,"lon":5.38192,"is_reserved":false,"is_disabled":false,"rental_uris":{"android":"levelo://app?vid=e6f34154-a48e-49f3-9790-37e1b4a4c491","ios":"levelo://app?vid=e6f34154-a48e-49f3-9790-37e1b4a4c491"},"vehicle_type_id":"4","last_reported":1768126266,"current_range_meters":7200,"station_id":"","pricing_plan_id":"cebpf4jnsgd1na2vs0mg"},{"bike_id":"77ebb402-c310-4819-a3c5-7760e39e1d8f","system_id":"levelo_inurba_marseille","lat":43.28852,"lon":5.3987,"is_reserved":false,"is_disabled":false,"rental_uris":{"android":"levelo://app?vid=77ebb402-c310-4819-a3c5-7760e39e1d8f","ios":"levelo://app?vid=77ebb402-c310-4819-a3c5-7760e39e1d8f"},"vehicle_type_id":"4","last_reported":1768126266,"current_range_meters":7200,"station_id":"","pricing_plan_id":"cebpf4jnsgd1na2vs0mg"},{"bike_id":"d1291e49-4160-472c-94ec-e611b2f0932c","system_id":"levelo_inurba_marseille","lat":43.21752,"lon":5.34596,"is_reserved":false,"is_disabled":false,"rental_uris":{"android":"levelo://app?vid=d1291e49-4160-472c-94ec-e611b2f0932c","ios":"levelo://app?vid=d1291e49-4160-472c-94ec-e611b2f0932c"},"vehicle_type_id":"4","last_reported":1768126266,"current_range_meters":7200,"station_id":"st_cvj6r9ubvosntc0bgbag","pricing_plan_id":"cebpf4jnsgd1na2vs0mg"},{"bike_id":"d01cbaf4-4f71-47f8-877a-c178b0fccc8f","system_id":"levelo_inurba_marseille","lat":43.28072,"lon":5.39656,"is_reserved":false,"is_disabled":false,"rental_uris":{"android":"levelo://app?vid=d01cbaf4-4f71-47f8-877a-c178b0fccc8f","ios":"levelo://app?vid=d01cbaf4-4f71-47f8-877a-c178b0fccc8f"},"vehicle_type_id":"4","last_reported":1768126266,"current_range_meters":7200,"station_id":"ce4bho12rcd13ifvqh2g","pricing_plan_id":"cebpf4jnsgd1na2vs0mg"},{"bike_id":"be8576a8-995a-45d7-bc62-cb26c280bb04","system_id":"levelo_inurba_marseille","lat":43.23217,"lon":5.35556,"is_reserved":false,"is_disabled":false,"rental_uris":{"android":"levelo://app?vid=be8576a8-995a-45d7-bc62-cb26c280bb04","ios":"levelo://app?vid=be8576a8-995a-45d7-bc62-cb26c280bb04"},"vehicle_type_id":"4","last_reported":1768126266,"current_range_meters":7200,"station_id":"ce4bhu92rcd13ifvqi70","pricing_plan_id":"cebpf4jnsgd1na2vs0mg"},{"bike_id":"5ae46213-526f-49bc-859d-bd77a6272ad3","system_id":"levelo_inurba_marseille","lat":43.23189,"lon":5.39989,"is_reserved":false,"is_disabled":true,"rental_uris":{"android":"levelo://app?vid=5ae46213-526f-49bc-859d-bd77a6272ad3","ios":"levelo://app?vid=5ae46213-526f-49bc-859d-bd77a6272ad3"},"vehicle_type_id":"4","last_reported":1768126266,"current_range_meters":8000,"station_id":"ce4bhn12rcd13ifvqgqg","pricing_plan_id":"cebpf4jnsgd1na2vs0mg"},{"bike_id":"f71d23bb-0817-4575-bf00-a7284c6a3bb5","system_id":"levelo_inurba_marseille","lat":43.29485,"lon":5.43336,"is_reserved":false,"is_disabled":false,"rental_uris":{"android":"levelo://app?vid=f71d23bb-0817-4575-bf00-a7284c6a3bb5","ios":"levelo://app?vid=f71d23bb-0817-4575-bf00-a7284c6a3bb5"},"vehicle_type_id":"4","last_reported":1768126266,"current_range_meters":8000,"station_id":"st_d3j5ugp08ojc73fj9d10","pricing_plan_id":"cebpf4jnsgd1na2vs0mg"},{"bike_id":"ca35d045-2c1b-44bb-b957-8f4166968359","system_id":"levelo_inurba_marseille","lat":43.26049,"lon":5.39405,"is_reserved":false,"is_disabled":false,"rental_uris":{"android":"levelo://app?vid=ca35d045-2c1b-44bb-b957-8f4166968359","ios":"levelo://app?vid=ca35d045-2c1b-44bb-b957-8f4166968359"},"vehicle_type_id":"4","last_reported":1768126266,"current_range_meters":8000,"station_id":"ce4bhh92rcd13ifvqfj0","pricing_plan_id":"cebpf4jnsgd1na2vs0mg"},{"bike_id":"fd9b57dc-ce5c-49cc-ad1e-075480186edc","system_id":"levelo_inurba_marseille","lat":43.29898,"lon":5.43658,"is_reserved":false,"is_disabled":false,"rental_uris":{"android":"levelo://app?vid=fd9b57dc-ce5c-49cc-ad1e-075480186edc","ios":"levelo://app?vid=fd9b57dc-ce5c-49cc-ad1e-075480186edc"},"vehicle_type_id":"4","last_reported":1768126266,"current_range_meters":8000,"station_id":"ce4bhpp2rcd13ifvqhfg","pricing_plan_id":"cebpf4jnsgd1na2vs0mg"},{"bike_id":"3d9ca8f9-ac9d-41f8-ad50-df6291e7a4c4","system_id":"levelo_inurba_marseille","lat":43.23196,"lon":5.355516,"is_reserved":false,"is_disabled":false,"rental_uris":{"android":"levelo://app?vid=3d9ca8f9-ac9d-41f8-ad50-df6291e7a4c4","ios":"levelo://app?vid=3d9ca8f9-ac9d-41f8-ad50-df6291e7a4c4"},"vehicle_type_id":"4","last_reported":1768126266,"current_range_meters":8000,"station_id":"ce4bhu92rcd13ifvqi70","pricing_plan_id":"cebpf4jnsgd1na2vs0mg"},{"bike_id":"2bbac75b-b725-44b5-b9cb-b8e39bea2819","system_id":"levelo_inurba_marseille","lat":43.292977,"lon":5.37,"is_reserved":false,"is_disabled":true,"rental_uris":{"android":"levelo://app?vid=2bbac75b-b725-44b5-b9cb-b8e39bea2819","ios":"levelo://app?vid=2bbac75b-b725-44b5-b9cb-b8e39bea2819"},"vehicle_type_id":"4","last_reported":1768126266,"current_range_meters":8000,"station_id":"","pricing_plan_id":"cebpf4jnsgd1na2vs0mg"},{"bike_id":"f7b46d8b-21f8-4f13-ab03-93f5f94c03cc","system_id":"levelo_inurba_marseille","lat":43.310798,"lon":5.424324,"is_reserved":false,"is_disabled":false,"rental_uris":{"android":"levelo://app?vid=f7b46d8b-21f8-4f13-ab03-93f5f94c03cc","ios":"levelo://app?vid=f7b46d8b-21f8-4f13-ab03-93f5f94c03cc"},"vehicle_type_id":"4","last_reported":1768126266,"current_range_meters":8000,"station_id":"ce4bhp92rcd13ifvqhag","pricing_plan_id":"cebpf4jnsgd1na2vs0mg"},{"bike_id":"8708ff7a-0d67-45df-a37c-7e83ef319635","system_id":"levelo_inurba_marseille","lat":43.310756,"lon":5.424486,"is_reserved":false,"is_disabled":false,"rental_uris":{"android":"levelo://app?vid=8708ff7a-0d67-45df-a37c-7e83ef319635","ios":"levelo://app?vid=8708ff7a-0d67-45df-a37c-7e83ef319635"},"vehicle_type_id":"4","last_reported":1768126266,"current_range_meters":8000,"station_id":"ce4bhp92rcd13ifvqhag","pricing_plan_id":"cebpf4jnsgd1na2vs0mg"},{"bike_id":"6f4243d7-a899-45df-9f36-5a28e263a49a","system_id":"levelo_inurba_marseille","lat":43.24457,"lon":5.42551,"is_reserved":false,"is_disabled":false,"rental_uris":{"android":"levelo://app?vid=6f4243d7-a899-45df-9f36-5a28e263a49a","ios":"levelo://app?vid=6f4243d7-a899-45df-9f36-5a28e263a49a"},"vehicle_type_id":"4","last_reported":1768126266,"current_range_meters":8000,"station_id":"st_d4a3vfp97mjs738cd8kg","pricing_plan_id":"cebpf4jnsgd1na2vs0mg"},{"bike_id":"4c3558f2-faf6-43e6-a593-3aae3d520ba3","system_id":"levelo_inurba_marseille","lat":43.30319,"lon":5.36908,"is_reserved":false,"is_disabled":false,"rental_uris":{"android":"levelo://app?vid=4c3558f2-faf6-43e6-a593-3aae3d520ba3","ios":"levelo://app?vid=4c3558f2-faf6-43e6-a593-3aae3d520ba3"},"vehicle_type_id":"4","last_reported":1768126266,"current_range_meters":8000,"station_id":"ce4bgqh2rcd13ifvqc5g","pricing_plan_id":"cebpf4jnsgd1na2vs0mg"},{"bike_id":"bb2344d8-a1ee-4d35-a630-9f7958cde331","system_id":"levelo_inurba_marseille","lat":43.25572,"lon":5.38239,"is_reserved":false,"is_disabled":true,"rental_uris":{"android":"levelo://app?vid=bb2344d8-a1ee-4d35-a630-9f7958cde331","ios":"levelo://app?vid=bb2344d8-a1ee-4d35-a630-9f7958cde331"},"vehicle_type_id":"4","last_reported":1768126266,"current_range_meters":8000,"station_id":"ce4bhih2rcd13ifvqfs0","pricing_plan_id":"cebpf4jnsgd1na2vs0mg"},{"bike_id":"5a828171-37e3-4937-8eaa-03dcee500f40","system_id":"levelo_inurba_marseille","lat":43.22553,"lon":5.41644,"is_reserved":false,"is_disabled":false,"rental_uris":{"android":"levelo://app?vid=5a828171-37e3-4937-8eaa-03dcee500f40","ios":"levelo://app?vid=5a828171-37e3-4937-8eaa-03dcee500f40"},"vehicle_type_id":"4","last_reported":1768126266,"current_range_meters":8000,"station_id":"st_d2o4gvlbi1j2169b742g","pricing_plan_id":"cebpf4jnsgd1na2vs0mg"},{"bike_id":"e1da14db-feb3-4fed-a06d-e6257e743ccf","system_id":"levelo_inurba_marseille","lat":43.26206,"lon":5.37464,"is_reserved":false,"is_disabled":false,"rental_uris":{"android":"levelo://app?vid=e1da14db-feb3-4fed-a06d-e6257e743ccf","ios":"levelo://app?vid=e1da14db-feb3-4fed-a06d-e6257e743ccf"},"vehicle_type_id":"4","last_reported":1768126266,"current_range_meters":8000,"station_id":"ce4bhgp2rcd13ifvqfc0","pricing_plan_id":"cebpf4jnsgd1na2vs0mg"},{"bike_id":"2b6998d3-7e21-4afd-93ec-d8addd6ce876","system_id":"levelo_inurba_marseille","lat":43.24179,"lon":5.39739,"is_reserved":false,"is_disabled":false,"rental_uris":{"android":"levelo://app?vid=2b6998d3-7e21-4afd-93ec-d8addd6ce876","ios":"levelo://app?vid=2b6998d3-7e21-4afd-93ec-d8addd6ce876"},"vehicle_type_id":"4","last_reported":1768126266,"current_range_meters":8000,"station_id":"ce4bhn12rcd13ifvqgpg","pricing_plan_id":"cebpf4jnsgd1na2vs0mg"},{"bike_id":"c59f5a79-013e-434e-937e-1cdde0b23ac2","system_id":"levelo_inurba_marseille","lat":43.25347,"lon":5.4219,"is_reserved":false,"is_disabled":false,"rental_uris":{"android":"levelo://app?vid=c59f5a79-013e-434e-937e-1cdde0b23ac2","ios":"levelo://app?vid=c59f5a79-013e-434e-937e-1cdde0b23ac2"},"vehicle_type_id":"4","last_reported":1768126266,"current_range_meters":8000,"station_id":"st_d2m65c5bi1j21697t3ng","pricing_plan_id":"cebpf4jnsgd1na2vs0mg"},{"bike_id":"8dcc3f24-04ca-4d68-aee2-a943b9feb5d7","system_id":"levelo_inurba_marseille","lat":43.31113,"lon":5.37782,"is_reserved":false,"is_disabled":false,"rental_uris":{"android":"levelo://app?vid=8dcc3f24-04ca-4d68-aee2-a943b9feb5d7","ios":"levelo://app?vid=8dcc3f24-04ca-4d68-aee2-a943b9feb5d7"},"vehicle_type_id":"4","last_reported":1768126266,"current_range_meters":8000,"station_id":"ce4bgt92rcd13ifvqcg0","pricing_plan_id":"cebpf4jnsgd1na2vs0mg"},{"bike_id":"8a7ee903-e4c0-4637-b8c6-905f7f6393e5","system_id":"levelo_inurba_marseille","lat":43.24173,"lon":5.364,"is_reserved":false,"is_disabled":false,"rental_uris":{"android":"levelo://app?vid=8a7ee903-e4c0-4637-b8c6-905f7f6393e5","ios":"levelo://app?vid=8a7ee903-e4c0-4637-b8c6-905f7f6393e5"},"vehicle_type_id":"4","last_reported":1768126266,"current_range_meters":8000,"station_id":"cpo36qri1sfpv3e86is0","pricing_plan_id":"cebpf4jnsgd1na2vs0mg"},{"bike_id":"6869894f-67a0-4b58-8bae-911192c83f2f","system_id":"levelo_inurba_marseille","lat":43.318736,"lon":5.400011,"is_reserved":false,"is_disabled":false,"rental_uris":{"android":"levelo://app?vid=6869894f-67a0-4b58-8bae-911192c83f2f","ios":"levelo://app?vid=6869894f-67a0-4b58-8bae-911192c83f2f"},"vehicle_type_id":"4","last_reported":1768126266,"current_range_meters":8000,"station_id":"","pricing_plan_id":"cebpf4jnsgd1na2vs0mg"},{"bike_id":"7228822e-9f0b-4520-b9d9-366f5b339f57","system_id":"levelo_inurba_marseille","lat":43.31267,"lon":5.40198,"is_reserved":false,"is_disabled":false,"rental_uris":{"android":"levelo://app?vid=7228822e-9f0b-4520-b9d9-366f5b339f57","ios":"levelo://app?vid=7228822e-9f0b-4520-b9d9-366f5b339f57"},"vehicle_type_id":"4","last_reported":1768126266,"current_range_meters":8000,"station_id":"ce4bh092rcd13ifvqd30","pricing_plan_id":"cebpf4jnsgd1na2vs0mg"},{"bike_id":"7e4c3cab-d4ba-4aa6-b043-2b7eccecc327","system_id":"levelo_inurba_marseille","lat":43.28472,"lon":5.35877,"is_reserved":false,"is_disabled":false,"rental_uris":{"android":"levelo://app?vid=7e4c3cab-d4ba-4aa6-b043-2b7eccecc327","ios":"levelo://app?vid=7e4c3cab-d4ba-4aa6-b043-2b7eccecc327"},"vehicle_type_id":"4","last_reported":1768126266,"current_range_meters":8000,"station_id":"ce4bhah2rcd13ifvqei0","pricing_plan_id":"cebpf4jnsgd1na2vs0mg"},{"bike_id":"4895e95e-0ba0-404d-aa4f-264512b4d831","system_id":"levelo_inurba_marseille","lat":43.28199,"lon":5.39062,"is_reserved":false,"is_disabled":false,"rental_uris":{"android":"levelo://app?vid=4895e95e-0ba0-404d-aa4f-264512b4d831","ios":"levelo://app?vid=4895e95e-0ba0-404d-aa4f-264512b4d831"},"vehicle_type_id":"4","last_reported":1768126266,"current_range_meters":8400,"station_id":"ce4bhn92rcd13ifvqgsg","pricing_plan_id":"cebpf4jnsgd1na2vs0mg"},{"bike_id":"947ce4af-bec6-4b27-9e63-ce65682eb248","system_id":"levelo_inurba_marseille","lat":43.323554,"lon":5.367382,"is_reserved":false,"is_disabled":false,"rental_uris":{"android":"levelo://app?vid=947ce4af-bec6-4b27-9e63-ce65682eb248","ios":"levelo://app?vid=947ce4af-bec6-4b27-9e63-ce65682eb248"},"vehicle_type_id":"4","last_reported":1768126266,"current_range_meters":8400,"station_id":"ce4bhsh2rcd13ifvqi2g","pricing_plan_id":"cebpf4jnsgd1na2vs0mg"},{"bike_id":"cc33db29-e715-4e2a-bbcf-c8a79f3ef57b","system_id":"levelo_inurba_marseille","lat":43.25491,"lon":5.37651,"is_reserved":false,"is_disabled":false,"rental_uris":{"android":"levelo://app?vid=cc33db29-e715-4e2a-bbcf-c8a79f3ef57b","ios":"levelo://app?vid=cc33db29-e715-4e2a-bbcf-c8a79f3ef57b"},"vehicle_type_id":"4","last_reported":1768126266,"current_range_meters":8400,"station_id":"ce4bhh12rcd13ifvqff0","pricing_plan_id":"cebpf4jnsgd1na2vs0mg"},{"bike_id":"9970f978-d332-4998-b118-01bc35c6b403","system_id":"levelo_inurba_marseille","lat":43.25566,"lon":5.38227,"is_reserved":false,"is_disabled":false,"rental_uris":{"android":"levelo://app?vid=9970f978-d332-4998-b118-01bc35c6b403","ios":"levelo://app?vid=9970f978-d332-4998-b118-01bc35c6b403"},"vehicle_type_id":"4","last_reported":1768126266,"current_range_meters":8400,"station_id":"ce4bhih2rcd13ifvqfs0","pricing_plan_id":"cebpf4jnsgd1na2vs0mg"},{"bike_id":"899dfdc6-8979-46c3-bf54-4210ff2a5829","system_id":"levelo_inurba_marseille","lat":43.24542,"lon":5.39534,"is_reserved":false,"is_disabled":false,"rental_uris":{"android":"levelo://app?vid=899dfdc6-8979-46c3-bf54-4210ff2a5829","ios":"levelo://app?vid=899dfdc6-8979-46c3-bf54-4210ff2a5829"},"vehicle_type_id":"4","last_reported":1768126266,"current_range_meters":8400,"station_id":"ce4bhlp2rcd13ifvqgjg","pricing_plan_id":"cebpf4jnsgd1na2vs0mg"},{"bike_id":"0e83d0ec-1a6f-4181-995b-eb0e176954db","system_id":"levelo_inurba_marseille","lat":43.29282,"lon":5.36852,"is_reserved":false,"is_disabled":false,"rental_uris":{"android":"levelo://app?vid=0e83d0ec-1a6f-4181-995b-eb0e176954db","ios":"levelo://app?vid=0e83d0ec-1a6f-4181-995b-eb0e176954db"},"vehicle_type_id":"4","last_reported":1768126266,"current_range_meters":8400,"station_id":"ce4bhbp2rcd13ifvqesg","pricing_plan_id":"cebpf4jnsgd1na2vs0mg"},{"bike_id":"6d6cbbe4-0c80-467d-ae93-ee9f98cc2d47","system_id":"levelo_inurba_marseille","lat":43.27615,"lon":5.36107,"is_reserved":false,"is_disabled":false,"rental_uris":{"android":"levelo://app?vid=6d6cbbe4-0c80-467d-ae93-ee9f98cc2d47","ios":"levelo://app?vid=6d6cbbe4-0c80-467d-ae93-ee9f98cc2d47"},"vehicle_type_id":"4","last_reported":1768126266,"current_range_meters":8400,"station_id":"ce4bgj92rcd13ifvqbe0","pricing_plan_id":"cebpf4jnsgd1na2vs0mg"},{"bike_id":"fa978f85-8fd8-4bcd-bd90-2c68404c4c9c","system_id":"levelo_inurba_marseille","lat":43.28546,"lon":5.44087,"is_reserved":false,"is_disabled":false,"rental_uris":{"android":"levelo://app?vid=fa978f85-8fd8-4bcd-bd90-2c68404c4c9c","ios":"levelo://app?vid=fa978f85-8fd8-4bcd-bd90-2c68404c4c9c"},"vehicle_type_id":"4","last_reported":1768126266,"current_range_meters":8400,"station_id":"st_d3j3df2ikq2c7380ej80","pricing_plan_id":"cebpf4jnsgd1na2vs0mg"},{"bike_id":"a91695ee-af8f-4e73-8e7f-a8deb13a52eb","system_id":"levelo_inurba_marseille","lat":43.27998,"lon":5.40016,"is_reserved":false,"is_disabled":false,"rental_uris":{"android":"levelo://app?vid=a91695ee-af8f-4e73-8e7f-a8deb13a52eb","ios":"levelo://app?vid=a91695ee-af8f-4e73-8e7f-a8deb13a52eb"},"vehicle_type_id":"4","last_reported":1768126266,"current_range_meters":8400,"station_id":"ce4bho92rcd13ifvqh4g","pricing_plan_id":"cebpf4jnsgd1na2vs0mg"},{"bike_id":"1f38f0a0-9d5e-4cb4-93c5-d4ef43fbf00e","system_id":"levelo_inurba_marseille","lat":43.306086,"lon":5.371372,"is_reserved":false,"is_disabled":false,"rental_uris":{"android":"levelo://app?vid=1f38f0a0-9d5e-4cb4-93c5-d4ef43fbf00e","ios":"levelo://app?vid=1f38f0a0-9d5e-4cb4-93c5-d4ef43fbf00e"},"vehicle_type_id":"4","last_reported":1768126266,"current_range_meters":8400,"station_id":"","pricing_plan_id":"cebpf4jnsgd1na2vs0mg"},{"bike_id":"f1738cae-b37c-436c-93e9-f046d263b6fa","system_id":"levelo_inurba_marseille","lat":43.225301,"lon":5.348359,"is_reserved":false,"is_disabled":false,"rental_uris":{"android":"levelo://app?vid=f1738cae-b37c-436c-93e9-f046d263b6fa","ios":"levelo://app?vid=f1738cae-b37c-436c-93e9-f046d263b6fa"},"vehicle_type_id":"4","last_reported":1768126266,"current_range_meters":8400,"station_id":"","pricing_plan_id":"cebpf4jnsgd1na2vs0mg"},{"bike_id":"c45769ad-3c79-4738-a862-73653de80b69","system_id":"levelo_inurba_marseille","lat":43.31479,"lon":5.37986,"is_reserved":false,"is_disabled":false,"rental_uris":{"android":"levelo://app?vid=c45769ad-3c79-4738-a862-73653de80b69","ios":"levelo://app?vid=c45769ad-3c79-4738-a862-73653de80b69"},"vehicle_type_id":"4","last_reported":1768126266,"current_range_meters":8400,"station_id":"","pricing_plan_id":"cebpf4jnsgd1na2vs0mg"},{"bike_id":"52dff970-e8fe-496e-90db-d00fae639b50","system_id":"levelo_inurba_marseille","lat":43.30467,"lon":5.37904,"is_reserved":false,"is_disabled":false,"rental_uris":{"android":"levelo://app?vid=52dff970-e8fe-496e-90db-d00fae639b50","ios":"levelo://app?vid=52dff970-e8fe-496e-90db-d00fae639b50"},"vehicle_type_id":"4","last_reported":1768126266,"current_range_meters":8400,"station_id":"ce4bgup2rcd13ifvqcn0","pricing_plan_id":"cebpf4jnsgd1na2vs0mg"},{"bike_id":"cfa9d431-0c3a-47b2-bafd-95922015c415","system_id":"levelo_inurba_marseille","lat":43.31855,"lon":5.37735,"is_reserved":false,"is_disabled":false,"rental_uris":{"android":"levelo://app?vid=cfa9d431-0c3a-47b2-bafd-95922015c415","ios":"levelo://app?vid=cfa9d431-0c3a-47b2-bafd-95922015c415"},"vehicle_type_id":"4","last_reported":1768126266,"current_range_meters":8400,"station_id":"","pricing_plan_id":"cebpf4jnsgd1na2vs0mg"},{"bike_id":"551e9f37-b525-4909-9e6e-0277dfd85b6b","system_id":"levelo_inurba_marseille","lat":43.22561,"lon":5.4163,"is_reserved":false,"is_disabled":false,"rental_uris":{"android":"levelo://app?vid=551e9f37-b525-4909-9e6e-0277dfd85b6b","ios":"levelo://app?vid=551e9f37-b525-4909-9e6e-0277dfd85b6b"},"vehicle_type_id":"4","last_reported":1768126266,"current_range_meters":8400,"station_id":"st_d2o4gvlbi1j2169b742g","pricing_plan_id":"cebpf4jnsgd1na2vs0mg"},{"bike_id":"0fee359e-fd0a-419a-8bad-68dfffe61373","system_id":"levelo_inurba_marseille","lat":43.32535,"lon":5.40677,"is_reserved":false,"is_disabled":false,"rental_uris":{"android":"levelo://app?vid=0fee359e-fd0a-419a-8bad-68dfffe61373","ios":"levelo://app?vid=0fee359e-fd0a-419a-8bad-68dfffe61373"},"vehicle_type_id":"4","last_reported":1768126266,"current_range_meters":8400,"station_id":"","pricing_plan_id":"cebpf4jnsgd1na2vs0mg"},{"bike_id":"353c2d61-b12a-4a69-b157-33f5d3fad8b9","system_id":"levelo_inurba_marseille","lat":43.27379,"lon":5.36267,"is_reserved":false,"is_disabled":false,"rental_uris":{"android":"levelo://app?vid=353c2d61-b12a-4a69-b157-33f5d3fad8b9","ios":"levelo://app?vid=353c2d61-b12a-4a69-b157-33f5d3fad8b9"},"vehicle_type_id":"4","last_reported":1768126266,"current_range_meters":8400,"station_id":"ce4bhbh2rcd13ifvqeo0","pricing_plan_id":"cebpf4jnsgd1na2vs0mg"},{"bike_id":"784bade9-de85-4c9f-99c1-e1f7d025a70e","system_id":"levelo_inurba_marseille","lat":43.22587,"lon":5.41554,"is_reserved":false,"is_disabled":false,"rental_uris":{"android":"levelo://app?vid=784bade9-de85-4c9f-99c1-e1f7d025a70e","ios":"levelo://app?vid=784bade9-de85-4c9f-99c1-e1f7d025a70e"},"vehicle_type_id":"4","last_reported":1768126266,"current_range_meters":8800,"station_id":"","pricing_plan_id":"cebpf4jnsgd1na2vs0mg"},{"bike_id":"a3c69de6-7103-4ac2-9b38-a981d00b0612","system_id":"levelo_inurba_marseille","lat":43.29082,"lon":5.37186,"is_reserved":false,"is_disabled":false,"rental_uris":{"android":"levelo://app?vid=a3c69de6-7103-4ac2-9b38-a981d00b0612","ios":"levelo://app?vid=a3c69de6-7103-4ac2-9b38-a981d00b0612"},"vehicle_type_id":"4","last_reported":1768126266,"current_range_meters":8800,"station_id":"ce4bh5p2rcd13ifvqe4g","pricing_plan_id":"cebpf4jnsgd1na2vs0mg"},{"bike_id":"ce168850-ad18-4118-b8c3-4df4ab978171","system_id":"levelo_inurba_marseille","lat":43.2954,"lon":5.3854,"is_reserved":false,"is_disabled":false,"rental_uris":{"android":"levelo://app?vid=ce168850-ad18-4118-b8c3-4df4ab978171","ios":"levelo://app?vid=ce168850-ad18-4118-b8c3-4df4ab978171"},"vehicle_type_id":"4","last_reported":1768126266,"current_range_meters":8800,"station_id":"ce4bgih2rcd13ifvqba0","pricing_plan_id":"cebpf4jnsgd1na2vs0mg"},{"bike_id":"262e3e96-b101-4813-a83b-25a8cb086f56","system_id":"levelo_inurba_marseille","lat":43.28991,"lon":5.35601,"is_reserved":false,"is_disabled":false,"rental_uris":{"android":"levelo://app?vid=262e3e96-b101-4813-a83b-25a8cb086f56","ios":"levelo://app?vid=262e3e96-b101-4813-a83b-25a8cb086f56"},"vehicle_type_id":"4","last_reported":1768126266,"current_range_meters":8800,"station_id":"ce4bhb92rcd13ifvqen0","pricing_plan_id":"cebpf4jnsgd1na2vs0mg"},{"bike_id":"472b679c-dae4-4412-a95e-40758e9750ae","system_id":"levelo_inurba_marseille","lat":43.28519,"lon":5.4412,"is_reserved":false,"is_disabled":false,"rental_uris":{"android":"levelo://app?vid=472b679c-dae4-4412-a95e-40758e9750ae","ios":"levelo://app?vid=472b679c-dae4-4412-a95e-40758e9750ae"},"vehicle_type_id":"4","last_reported":1768126266,"current_range_meters":8800,"station_id":"st_d3j3df2ikq2c7380ej80","pricing_plan_id":"cebpf4jnsgd1na2vs0mg"},{"bike_id":"4bb0d39c-53f9-41fa-85e4-2bccc60ee9cf","system_id":"levelo_inurba_marseille","lat":43.31992,"lon":5.38156,"is_reserved":false,"is_disabled":false,"rental_uris":{"android":"levelo://app?vid=4bb0d39c-53f9-41fa-85e4-2bccc60ee9cf","ios":"levelo://app?vid=4bb0d39c-53f9-41fa-85e4-2bccc60ee9cf"},"vehicle_type_id":"4","last_reported":1768126266,"current_range_meters":8800,"station_id":"ce4bhr12rcd13ifvqhpg","pricing_plan_id":"cebpf4jnsgd1na2vs0mg"},{"bike_id":"453a4b29-502c-44b9-a42a-a0a968e6d21d","system_id":"levelo_inurba_marseille","lat":43.237827,"lon":5.366351,"is_reserved":false,"is_disabled":false,"rental_uris":{"android":"levelo://app?vid=453a4b29-502c-44b9-a42a-a0a968e6d21d","ios":"levelo://app?vid=453a4b29-502c-44b9-a42a-a0a968e6d21d"},"vehicle_type_id":"4","last_reported":1768126266,"current_range_meters":8800,"station_id":"st_d3nk18o9ro0c73en2l3g","pricing_plan_id":"cebpf4jnsgd1na2vs0mg"},{"bike_id":"439a61d5-d051-40af-9b0f-2926884e52eb","system_id":"levelo_inurba_marseille","lat":43.30736,"lon":5.40989,"is_reserved":false,"is_disabled":false,"rental_uris":{"android":"levelo://app?vid=439a61d5-d051-40af-9b0f-2926884e52eb","ios":"levelo://app?vid=439a61d5-d051-40af-9b0f-2926884e52eb"},"vehicle_type_id":"4","last_reported":1768126266,"current_range_meters":8800,"station_id":"","pricing_plan_id":"cebpf4jnsgd1na2vs0mg"},{"bike_id":"96da8319-bc33-42c6-a13f-b9592c55e3af","system_id":"levelo_inurba_marseille","lat":43.27932,"lon":5.41057,"is_reserved":false,"is_disabled":false,"rental_uris":{"android":"levelo://app?vid=96da8319-bc33-42c6-a13f-b9592c55e3af","ios":"levelo://app?vid=96da8319-bc33-42c6-a13f-b9592c55e3af"},"vehicle_type_id":"4","last_reported":1768126266,"current_range_meters":8800,"station_id":"ce4bhnp2rcd13ifvqh0g","pricing_plan_id":"cebpf4jnsgd1na2vs0mg"},{"bike_id":"33c371c5-1678-4ca0-8789-dd86c964bd26","system_id":"levelo_inurba_marseille","lat":43.27939,"lon":5.41055,"is_reserved":false,"is_disabled":false,"rental_uris":{"android":"levelo://app?vid=33c371c5-1678-4ca0-8789-dd86c964bd26","ios":"levelo://app?vid=33c371c5-1678-4ca0-8789-dd86c964bd26"},"vehicle_type_id":"4","last_reported":1768126266,"current_range_meters":8800,"station_id":"ce4bhnp2rcd13ifvqh0g","pricing_plan_id":"cebpf4jnsgd1na2vs0mg"},{"bike_id":"097b1db9-7cfb-4c5a-94d5-72ec3ba5c8b3","system_id":"levelo_inurba_marseille","lat":43.28008,"lon":5.40934,"is_reserved":false,"is_disabled":false,"rental_uris":{"android":"levelo://app?vid=097b1db9-7cfb-4c5a-94d5-72ec3ba5c8b3","ios":"levelo://app?vid=097b1db9-7cfb-4c5a-94d5-72ec3ba5c8b3"},"vehicle_type_id":"4","last_reported":1768126266,"current_range_meters":8800,"station_id":"","pricing_plan_id":"cebpf4jnsgd1na2vs0mg"},{"bike_id":"ed2cd03a-66bb-4e81-9432-86bceab963be","system_id":"levelo_inurba_marseille","lat":43.2257,"lon":5.41628,"is_reserved":false,"is_disabled":false,"rental_uris":{"android":"levelo://app?vid=ed2cd03a-66bb-4e81-9432-86bceab963be","ios":"levelo://app?vid=ed2cd03a-66bb-4e81-9432-86bceab963be"},"vehicle_type_id":"4","last_reported":1768126266,"current_range_meters":8800,"station_id":"st_d2o4gvlbi1j2169b742g","pricing_plan_id":"cebpf4jnsgd1na2vs0mg"},{"bike_id":"ddca8b76-308e-4bd5-893c-d3fca5b2f318","system_id":"levelo_inurba_marseille","lat":43.2822,"lon":5.40317,"is_reserved":false,"is_disabled":false,"rental_uris":{"android":"levelo://app?vid=ddca8b76-308e-4bd5-893c-d3fca5b2f318","ios":"levelo://app?vid=ddca8b76-308e-4bd5-893c-d3fca5b2f318"},"vehicle_type_id":"4","last_reported":1768126266,"current_range_meters":8800,"station_id":"","pricing_plan_id":"cebpf4jnsgd1na2vs0mg"},{"bike_id":"d8755b01-f3a4-45d0-9782-07d7ef00b236","system_id":"levelo_inurba_marseille","lat":43.28039,"lon":5.4166,"is_reserved":false,"is_disabled":false,"rental_uris":{"android":"levelo://app?vid=d8755b01-f3a4-45d0-9782-07d7ef00b236","ios":"levelo://app?vid=d8755b01-f3a4-45d0-9782-07d7ef00b236"},"vehicle_type_id":"4","last_reported":1768126266,"current_range_meters":8800,"station_id":"ce4bho12rcd13ifvqh1g","pricing_plan_id":"cebpf4jnsgd1na2vs0mg"},{"bike_id":"e0f8e1bc-c594-4e06-8b57-bbf9bdfb0bca","system_id":"levelo_inurba_marseille","lat":43.29005,"lon":5.35602,"is_reserved":false,"is_disabled":false,"rental_uris":{"android":"levelo://app?vid=e0f8e1bc-c594-4e06-8b57-bbf9bdfb0bca","ios":"levelo://app?vid=e0f8e1bc-c594-4e06-8b57-bbf9bdfb0bca"},"vehicle_type_id":"4","last_reported":1768126266,"current_range_meters":8800,"station_id":"ce4bhb92rcd13ifvqen0","pricing_plan_id":"cebpf4jnsgd1na2vs0mg"},{"bike_id":"4c7b2ffd-ccb0-48ab-a409-0108095ad067","system_id":"levelo_inurba_marseille","lat":43.23195,"lon":5.39972,"is_reserved":false,"is_disabled":true,"rental_uris":{"android":"levelo://app?vid=4c7b2ffd-ccb0-48ab-a409-0108095ad067","ios":"levelo://app?vid=4c7b2ffd-ccb0-48ab-a409-0108095ad067"},"vehicle_type_id":"4","last_reported":1768126266,"current_range_meters":8800,"station_id":"ce4bhn12rcd13ifvqgqg","pricing_plan_id":"cebpf4jnsgd1na2vs0mg"},{"bike_id":"10c0b1c4-7d2b-417e-87d0-9f8889d09f30","system_id":"levelo_inurba_marseille","lat":43.22563,"lon":5.41618,"is_reserved":false,"is_disabled":false,"rental_uris":{"android":"levelo://app?vid=10c0b1c4-7d2b-417e-87d0-9f8889d09f30","ios":"levelo://app?vid=10c0b1c4-7d2b-417e-87d0-9f8889d09f30"},"vehicle_type_id":"4","last_reported":1768126266,"current_range_meters":8800,"station_id":"st_d2o4gvlbi1j2169b742g","pricing_plan_id":"cebpf4jnsgd1na2vs0mg"},{"bike_id":"cfc31cb0-49ca-4b30-8c65-0b6d74754b4a","system_id":"levelo_inurba_marseille","lat":43.28623,"lon":5.42622,"is_reserved":false,"is_disabled":false,"rental_uris":{"android":"levelo://app?vid=cfc31cb0-49ca-4b30-8c65-0b6d74754b4a","ios":"levelo://app?vid=cfc31cb0-49ca-4b30-8c65-0b6d74754b4a"},"vehicle_type_id":"4","last_reported":1768126266,"current_range_meters":8800,"station_id":"","pricing_plan_id":"cebpf4jnsgd1na2vs0mg"},{"bike_id":"cf90968e-ada7-4ab1-b6b5-5073f7049580","system_id":"levelo_inurba_marseille","lat":43.24174,"lon":5.36401,"is_reserved":false,"is_disabled":false,"rental_uris":{"android":"levelo://app?vid=cf90968e-ada7-4ab1-b6b5-5073f7049580","ios":"levelo://app?vid=cf90968e-ada7-4ab1-b6b5-5073f7049580"},"vehicle_type_id":"4","last_reported":1768126266,"current_range_meters":8800,"station_id":"cpo36qri1sfpv3e86is0","pricing_plan_id":"cebpf4jnsgd1na2vs0mg"},{"bike_id":"ccf3df2d-2595-4e60-bc12-4ee57003c1b4","system_id":"levelo_inurba_marseille","lat":43.28675,"lon":5.38712,"is_reserved":false,"is_disabled":false,"rental_uris":{"android":"levelo://app?vid=ccf3df2d-2595-4e60-bc12-4ee57003c1b4","ios":"levelo://app?vid=ccf3df2d-2595-4e60-bc12-4ee57003c1b4"},"vehicle_type_id":"4","last_reported":1768126266,"current_range_meters":8800,"station_id":"ce4bh492rcd13ifvqdug","pricing_plan_id":"cebpf4jnsgd1na2vs0mg"},{"bike_id":"4ddffc0c-a073-4800-9872-80f96d7a4252","system_id":"levelo_inurba_marseille","lat":43.25336,"lon":5.4217,"is_reserved":false,"is_disabled":false,"rental_uris":{"android":"levelo://app?vid=4ddffc0c-a073-4800-9872-80f96d7a4252","ios":"levelo://app?vid=4ddffc0c-a073-4800-9872-80f96d7a4252"},"vehicle_type_id":"4","last_reported":1768126266,"current_range_meters":8800,"station_id":"st_d2m65c5bi1j21697t3ng","pricing_plan_id":"cebpf4jnsgd1na2vs0mg"},{"bike_id":"c09077fd-b45e-4923-87ed-8f3d3b3f4e4e","system_id":"levelo_inurba_marseille","lat":43.28492,"lon":5.4841,"is_reserved":false,"is_disabled":false,"rental_uris":{"android":"levelo://app?vid=c09077fd-b45e-4923-87ed-8f3d3b3f4e4e","ios":"levelo://app?vid=c09077fd-b45e-4923-87ed-8f3d3b3f4e4e"},"vehicle_type_id":"4","last_reported":1768126266,"current_range_meters":8800,"station_id":"","pricing_plan_id":"cebpf4jnsgd1na2vs0mg"},{"bike_id":"8bd52a25-434c-461e-b322-20219bba3e38","system_id":"levelo_inurba_marseille","lat":43.26548,"lon":5.37293,"is_reserved":false,"is_disabled":false,"rental_uris":{"android":"levelo://app?vid=8bd52a25-434c-461e-b322-20219bba3e38","ios":"levelo://app?vid=8bd52a25-434c-461e-b322-20219bba3e38"},"vehicle_type_id":"4","last_reported":1768126266,"current_range_meters":9200,"station_id":"ce4bhg12rcd13ifvqf70","pricing_plan_id":"cebpf4jnsgd1na2vs0mg"},{"bike_id":"5eb236d0-c732-47a3-b4ae-bebb81ae84fb","system_id":"levelo_inurba_marseille","lat":43.30863,"lon":5.40586,"is_reserved":false,"is_disabled":false,"rental_uris":{"android":"levelo://app?vid=5eb236d0-c732-47a3-b4ae-bebb81ae84fb","ios":"levelo://app?vid=5eb236d0-c732-47a3-b4ae-bebb81ae84fb"},"vehicle_type_id":"4","last_reported":1768126266,"current_range_meters":9200,"station_id":"","pricing_plan_id":"cebpf4jnsgd1na2vs0mg"},{"bike_id":"c7aa20f8-983d-45fa-8f15-bc3b76c15f97","system_id":"levelo_inurba_marseille","lat":43.32332,"lon":5.37064,"is_reserved":false,"is_disabled":false,"rental_uris":{"android":"levelo://app?vid=c7aa20f8-983d-45fa-8f15-bc3b76c15f97","ios":"levelo://app?vid=c7aa20f8-983d-45fa-8f15-bc3b76c15f97"},"vehicle_type_id":"4","last_reported":1768126266,"current_range_meters":9200,"station_id":"","pricing_plan_id":"cebpf4jnsgd1na2vs0mg"},{"bike_id":"38a5a6be-7a66-462f-bfdd-a381aa75e6d3","system_id":"levelo_inurba_marseille","lat":43.28675,"lon":5.38667,"is_reserved":false,"is_disabled":true,"rental_uris":{"android":"levelo://app?vid=38a5a6be-7a66-462f-bfdd-a381aa75e6d3","ios":"levelo://app?vid=38a5a6be-7a66-462f-bfdd-a381aa75e6d3"},"vehicle_type_id":"4","last_reported":1768126266,"current_range_meters":9200,"station_id":"ce4bh492rcd13ifvqdug","pricing_plan_id":"cebpf4jnsgd1na2vs0mg"},{"bike_id":"b5e622b0-5126-4c46-aea7-514865fdad46","system_id":"levelo_inurba_marseille","lat":43.225,"lon":5.34836,"is_reserved":false,"is_disabled":false,"rental_uris":{"android":"levelo://app?vid=b5e622b0-5126-4c46-aea7-514865fdad46","ios":"levelo://app?vid=b5e622b0-5126-4c46-aea7-514865fdad46"},"vehicle_type_id":"4","last_reported":1768126266,"current_range_meters":9200,"station_id":"st_cvj5dfep6f1abm77gieg","pricing_plan_id":"cebpf4jnsgd1na2vs0mg"},{"bike_id":"71f6a12e-0176-43f2-88a4-80c6e5aa7f62","system_id":"levelo_inurba_marseille","lat":43.261897,"lon":5.374489,"is_reserved":false,"is_disabled":true,"rental_uris":{"android":"levelo://app?vid=71f6a12e-0176-43f2-88a4-80c6e5aa7f62","ios":"levelo://app?vid=71f6a12e-0176-43f2-88a4-80c6e5aa7f62"},"vehicle_type_id":"4","last_reported":1768126266,"current_range_meters":9200,"station_id":"ce4bhgp2rcd13ifvqfc0","pricing_plan_id":"cebpf4jnsgd1na2vs0mg"},{"bike_id":"e48607cd-b2f5-4b5a-9c6c-86ffe0a63554","system_id":"levelo_inurba_marseille","lat":43.24391,"lon":5.37087,"is_reserved":false,"is_disabled":false,"rental_uris":{"android":"levelo://app?vid=e48607cd-b2f5-4b5a-9c6c-86ffe0a63554","ios":"levelo://app?vid=e48607cd-b2f5-4b5a-9c6c-86ffe0a63554"},"vehicle_type_id":"4","last_reported":1768126266,"current_range_meters":9200,"station_id":"ce4bhhh2rcd13ifvqfk0","pricing_plan_id":"cebpf4jnsgd1na2vs0mg"},{"bike_id":"dfd48d63-e5d1-4425-97d5-a11fee772bb6","system_id":"levelo_inurba_marseille","lat":43.25572,"lon":5.38248,"is_reserved":false,"is_disabled":false,"rental_uris":{"android":"levelo://app?vid=dfd48d63-e5d1-4425-97d5-a11fee772bb6","ios":"levelo://app?vid=dfd48d63-e5d1-4425-97d5-a11fee772bb6"},"vehicle_type_id":"4","last_reported":1768126266,"current_range_meters":9200,"station_id":"ce4bhih2rcd13ifvqfs0","pricing_plan_id":"cebpf4jnsgd1na2vs0mg"},{"bike_id":"60ac9e41-58fb-435b-91cd-61a2280b9470","system_id":"levelo_inurba_marseille","lat":43.29757,"lon":5.42768,"is_reserved":false,"is_disabled":false,"rental_uris":{"android":"levelo://app?vid=60ac9e41-58fb-435b-91cd-61a2280b9470","ios":"levelo://app?vid=60ac9e41-58fb-435b-91cd-61a2280b9470"},"vehicle_type_id":"4","last_reported":1768126266,"current_range_meters":9200,"station_id":"st_d3md5207bmas73dh9klg","pricing_plan_id":"cebpf4jnsgd1na2vs0mg"},{"bike_id":"88dc48cc-7688-4653-b309-1b26d8b097b6","system_id":"levelo_inurba_marseille","lat":43.24819,"lon":5.37454,"is_reserved":false,"is_disabled":false,"rental_uris":{"android":"levelo://app?vid=88dc48cc-7688-4653-b309-1b26d8b097b6","ios":"levelo://app?vid=88dc48cc-7688-4653-b309-1b26d8b097b6"},"vehicle_type_id":"4","last_reported":1768126266,"current_range_meters":9200,"station_id":"ce4bhgh2rcd13ifvqfb0","pricing_plan_id":"cebpf4jnsgd1na2vs0mg"},{"bike_id":"53285794-c62b-442b-9e6a-233ce6590272","system_id":"levelo_inurba_marseille","lat":43.245826,"lon":5.374825,"is_reserved":false,"is_disabled":false,"rental_uris":{"android":"levelo://app?vid=53285794-c62b-442b-9e6a-233ce6590272","ios":"levelo://app?vid=53285794-c62b-442b-9e6a-233ce6590272"},"vehicle_type_id":"4","last_reported":1768126266,"current_range_meters":9200,"station_id":"","pricing_plan_id":"cebpf4jnsgd1na2vs0mg"},{"bike_id":"7413d72d-ed5d-47c9-852c-370bd68b4a0a","system_id":"levelo_inurba_marseille","lat":43.27062,"lon":5.42288,"is_reserved":false,"is_disabled":false,"rental_uris":{"android":"levelo://app?vid=7413d72d-ed5d-47c9-852c-370bd68b4a0a","ios":"levelo://app?vid=7413d72d-ed5d-47c9-852c-370bd68b4a0a"},"vehicle_type_id":"4","last_reported":1768126266,"current_range_meters":9200,"station_id":"ce4bhk92rcd13ifvqgb0","pricing_plan_id":"cebpf4jnsgd1na2vs0mg"},{"bike_id":"58d347ff-010e-4169-9b45-cdd64d9941d4","system_id":"levelo_inurba_marseille","lat":43.27367,"lon":5.36261,"is_reserved":false,"is_disabled":false,"rental_uris":{"android":"levelo://app?vid=58d347ff-010e-4169-9b45-cdd64d9941d4","ios":"levelo://app?vid=58d347ff-010e-4169-9b45-cdd64d9941d4"},"vehicle_type_id":"4","last_reported":1768126266,"current_range_meters":9200,"station_id":"ce4bhbh2rcd13ifvqeo0","pricing_plan_id":"cebpf4jnsgd1na2vs0mg"},{"bike_id":"3b9a0dd9-72d5-46a5-9d61-30db38cf632c","system_id":"levelo_inurba_marseille","lat":43.28727,"lon":5.36089,"is_reserved":false,"is_disabled":false,"rental_uris":{"android":"levelo://app?vid=3b9a0dd9-72d5-46a5-9d61-30db38cf632c","ios":"levelo://app?vid=3b9a0dd9-72d5-46a5-9d61-30db38cf632c"},"vehicle_type_id":"4","last_reported":1768126266,"current_range_meters":9200,"station_id":"cki0cbj6b192h4jlfktg","pricing_plan_id":"cebpf4jnsgd1na2vs0mg"},{"bike_id":"10e43cbf-0f44-49ad-a438-525b9f0a29f8","system_id":"levelo_inurba_marseille","lat":43.24655,"lon":5.38168,"is_reserved":false,"is_disabled":false,"rental_uris":{"android":"levelo://app?vid=10e43cbf-0f44-49ad-a438-525b9f0a29f8","ios":"levelo://app?vid=10e43cbf-0f44-49ad-a438-525b9f0a29f8"},"vehicle_type_id":"4","last_reported":1768126266,"current_range_meters":9200,"station_id":"ce4bhih2rcd13ifvqfr0","pricing_plan_id":"cebpf4jnsgd1na2vs0mg"},{"bike_id":"7b7a7db0-6b75-4625-b258-05545f8c1d49","system_id":"levelo_inurba_marseille","lat":43.25582,"lon":5.38232,"is_reserved":false,"is_disabled":false,"rental_uris":{"android":"levelo://app?vid=7b7a7db0-6b75-4625-b258-05545f8c1d49","ios":"levelo://app?vid=7b7a7db0-6b75-4625-b258-05545f8c1d49"},"vehicle_type_id":"4","last_reported":1768126266,"current_range_meters":9200,"station_id":"ce4bhih2rcd13ifvqfs0","pricing_plan_id":"cebpf4jnsgd1na2vs0mg"},{"bike_id":"c2c1ba97-a941-4092-a943-5a77dff3cad5","system_id":"levelo_inurba_marseille","lat":43.30445,"lon":5.39747,"is_reserved":false,"is_disabled":true,"rental_uris":{"android":"levelo://app?vid=c2c1ba97-a941-4092-a943-5a77dff3cad5","ios":"levelo://app?vid=c2c1ba97-a941-4092-a943-5a77dff3cad5"},"vehicle_type_id":"4","last_reported":1768126266,"current_range_meters":9200,"station_id":"ce4bh092rcd13ifvqd20","pricing_plan_id":"cebpf4jnsgd1na2vs0mg"},{"bike_id":"1dc13ad6-9843-4964-bab1-0cee05b69f0e","system_id":"levelo_inurba_marseille","lat":43.28696,"lon":5.36078,"is_reserved":false,"is_disabled":false,"rental_uris":{"android":"levelo://app?vid=1dc13ad6-9843-4964-bab1-0cee05b69f0e","ios":"levelo://app?vid=1dc13ad6-9843-4964-bab1-0cee05b69f0e"},"vehicle_type_id":"4","last_reported":1768126266,"current_range_meters":9600,"station_id":"cki0cbj6b192h4jlfktg","pricing_plan_id":"cebpf4jnsgd1na2vs0mg"},{"bike_id":"36ffbd15-3b45-4724-86db-461ef951debf","system_id":"levelo_inurba_marseille","lat":43.21745,"lon":5.34606,"is_reserved":false,"is_disabled":false,"rental_uris":{"android":"levelo://app?vid=36ffbd15-3b45-4724-86db-461ef951debf","ios":"levelo://app?vid=36ffbd15-3b45-4724-86db-461ef951debf"},"vehicle_type_id":"4","last_reported":1768126266,"current_range_meters":9600,"station_id":"st_cvj6r9ubvosntc0bgbag","pricing_plan_id":"cebpf4jnsgd1na2vs0mg"},{"bike_id":"7391bea9-cf28-4483-bef1-ec64b236fa58","system_id":"levelo_inurba_marseille","lat":43.22934,"lon":5.35377,"is_reserved":false,"is_disabled":false,"rental_uris":{"android":"levelo://app?vid=7391bea9-cf28-4483-bef1-ec64b236fa58","ios":"levelo://app?vid=7391bea9-cf28-4483-bef1-ec64b236fa58"},"vehicle_type_id":"4","last_reported":1768126266,"current_range_meters":9600,"station_id":"cpo3532slgdg3j2ikp40","pricing_plan_id":"cebpf4jnsgd1na2vs0mg"},{"bike_id":"42f33adc-fe65-4ac4-9016-fac52b6274ac","system_id":"levelo_inurba_marseille","lat":43.25343,"lon":5.42172,"is_reserved":false,"is_disabled":false,"rental_uris":{"android":"levelo://app?vid=42f33adc-fe65-4ac4-9016-fac52b6274ac","ios":"levelo://app?vid=42f33adc-fe65-4ac4-9016-fac52b6274ac"},"vehicle_type_id":"4","last_reported":1768126266,"current_range_meters":9600,"station_id":"st_d2m65c5bi1j21697t3ng","pricing_plan_id":"cebpf4jnsgd1na2vs0mg"},{"bike_id":"7c190b52-2796-4573-a966-3125884374da","system_id":"levelo_inurba_marseille","lat":43.29594,"lon":5.36749,"is_reserved":false,"is_disabled":false,"rental_uris":{"android":"levelo://app?vid=7c190b52-2796-4573-a966-3125884374da","ios":"levelo://app?vid=7c190b52-2796-4573-a966-3125884374da"},"vehicle_type_id":"4","last_reported":1768126266,"current_range_meters":9600,"station_id":"ce4bgph2rcd13ifvqc2g","pricing_plan_id":"cebpf4jnsgd1na2vs0mg"},{"bike_id":"d162d197-a0fd-462d-a34b-b55f6754275b","system_id":"levelo_inurba_marseille","lat":43.26065,"lon":5.39375,"is_reserved":false,"is_disabled":false,"rental_uris":{"android":"levelo://app?vid=d162d197-a0fd-462d-a34b-b55f6754275b","ios":"levelo://app?vid=d162d197-a0fd-462d-a34b-b55f6754275b"},"vehicle_type_id":"4","last_reported":1768126266,"current_range_meters":9600,"station_id":"ce4bhh92rcd13ifvqfj0","pricing_plan_id":"cebpf4jnsgd1na2vs0mg"},{"bike_id":"748968f8-327c-4969-9ba7-2d3fe0ea40f7","system_id":"levelo_inurba_marseille","lat":43.29488,"lon":5.39634,"is_reserved":false,"is_disabled":false,"rental_uris":{"android":"levelo://app?vid=748968f8-327c-4969-9ba7-2d3fe0ea40f7","ios":"levelo://app?vid=748968f8-327c-4969-9ba7-2d3fe0ea40f7"},"vehicle_type_id":"4","last_reported":1768126266,"current_range_meters":9600,"station_id":"","pricing_plan_id":"cebpf4jnsgd1na2vs0mg"},{"bike_id":"cadf5afa-e442-4a91-b495-1e3edce0a0b6","system_id":"levelo_inurba_marseille","lat":43.28209,"lon":5.39056,"is_reserved":false,"is_disabled":false,"rental_uris":{"android":"levelo://app?vid=cadf5afa-e442-4a91-b495-1e3edce0a0b6","ios":"levelo://app?vid=cadf5afa-e442-4a91-b495-1e3edce0a0b6"},"vehicle_type_id":"4","last_reported":1768126266,"current_range_meters":9600,"station_id":"ce4bhn92rcd13ifvqgsg","pricing_plan_id":"cebpf4jnsgd1na2vs0mg"},{"bike_id":"1ea802fd-f66e-4c41-8354-41e1828b1dc4","system_id":"levelo_inurba_marseille","lat":43.28611,"lon":5.3511,"is_reserved":false,"is_disabled":false,"rental_uris":{"android":"levelo://app?vid=1ea802fd-f66e-4c41-8354-41e1828b1dc4","ios":"levelo://app?vid=1ea802fd-f66e-4c41-8354-41e1828b1dc4"},