{"last_updated":1737634673,"ttl":60,"version":"2.2","data":{"bikes":[{"bike_id":"5178c5bb-726f-440f-bcde-ea1a168a22c5","system_id":"levelo_inurba_marseille","lat":43.30209,"lon":5.39451,"is_reserved":false,"is_disabled":true,"rental_uris":{"android":"levelo://app?vid=5178c5bb-726f-440f-bcde-ea1a168a22c5","ios":"levelo://app?vid=5178c5bb-726f-440f-bcde-ea1a168a22c5"},"vehicle_type_id":"4","last_reported":1737634673,"current_range_meters":24400,"station_id":"ce4bh0p2rcd13ifvqd70","pricing_plan_id":"cebpf4jnsgd1na2vs0mg"},{"bike_id":"c3fa857d-6c16-4a35-a19b-32c6da4e6156","system_id":"levelo_inurba_marseille","lat":43.324775,"lon":5.365791,"is_reserved":false,"is_disabled":false,"rental_uris":{"android":"levelo://app?vid=c3fa857d-6c16-4a35-a19b-32c6da4e6156","ios":"levelo://app?vid=c3fa857d-6c16-4a35-a19b-32c6da4e6156"},"vehicle_type_id":"4","last_reported":1737634673,"current_range_meters":13600,"station_id":"ce4bhs12rcd13ifvqhvg","pricing_plan_id":"cebpf4jnsgd1na2vs0mg"},{"bike_id":"9aff2613-f85d-49aa-a3c3-3c3e7031c8e3","system_id":"levelo_inurba_marseille","lat":43.26984,"lon":5.38644,"is_reserved":false,"is_disabled":false,"rental_uris":{"android":"levelo://app?vid=9aff2613-f85d-49aa-a3c3-3c3e7031c8e3","ios":"levelo://app?vid=9aff2613-f85d-49aa-a3c3-3c3e7031c8e3"},"vehicle_type_id":"4","last_reported":1737634673,"current_range_meters":38800,"station_id":"ce4bhh92rcd13ifvqfh0","pricing_plan_id":"cebpf4jnsgd1na2vs0mg"},{"bike_id":"9c193c04-a02c-40ff-bcdf-123a59a9064e","system_id":"levelo_inurba_marseille","lat":43.3013,"lon":5.3987,"is_reserved":false,"is_disabled":false,"rental_uris":{"android":"levelo://app?vid=9c193c04-a02c-40ff-bcdf-123a59a9064e","ios":"levelo://app?vid=9c193c04-a02c-40ff-bcdf-123a59a9064e"},"vehicle_type_id":"4","last_reported":1737634673,"current_range_meters":11600,"station_id":"ce4bh0h2rcd13ifvqd40","pricing_plan_id":"cebpf4jnsgd1na2vs0mg"},{"bike_id":"f7287b9a-d591-427c-a646-35e4fb4a8649","system_id":"levelo_inurba_marseille","lat":43.26192,"lon":5.37446,"is_reserved":false,"is_disabled":false,"rental_uris":{"android":"levelo://app?vid=f7287b9a-d591-427c-a646-35e4fb4a8649","ios":"levelo://app?vid=f7287b9a-d591-427c-a646-35e4fb4a8649"},"vehicle_type_id":"4","last_reported":1737634673,"current_range_meters":34000,"station_id":"ce4bhgp2rcd13ifvqfc0","pricing_plan_id":"cebpf4jnsgd1na2vs0mg"},{"bike_id":"dcf4555a-aebc-4561-8ac8-3e8a57d63da1","system_id":"levelo_inurba_marseille","lat":43.29592,"lon":5.36746,"is_reserved":false,"is_disabled":false,"rental_uris":{"android":"levelo://app?vid=dcf4555a-aebc-4561-8ac8-3e8a57d63da1","ios":"levelo://app?vid=dcf4555a-aebc-4561-8ac8-3e8a57d63da1"},"vehicle_type_id":"4","last_reported":1737634673,"current_range_meters":33200,"station_id":"ce4bgph2rcd13ifvqc2g","pricing_plan_id":"cebpf4jnsgd1na2vs0mg"},{"bike_id":"9f8cefed-c709-460b-b1cb-099ed83fc32c","system_id":"levelo_inurba_marseille","lat":43.3301,"lon":5.39037,"is_reserved":false,"is_disabled":false,"rental_uris":{"android":"levelo://app?vid=9f8cefed-c709-460b-b1cb-099ed83fc32c","ios":"levelo://app?vid=9f8cefed-c709-460b-b1cb-099ed83fc32c"},"vehicle_type_id":"4","last_reported":1737634673,"current_range_meters":39200,"station_id":"ce4bhr92rcd13ifvqhrg","pricing_plan_id":"cebpf4jnsgd1na2vs0mg"},{"bike_id":"6eb2e4ba-52be-4994-856c-5e938ae795fa","system_id":"levelo_inurba_marseille","lat":43.31334,"lon":5.3671,"is_reserved":false,"is_disabled":false,"rental_uris":{"android":"levelo://app?vid=6eb2e4ba-52be-4994-856c-5e938ae795fa","ios":"levelo://app?vid=6eb2e4ba-52be-4994-856c-5e938ae795fa"},"vehicle_type_id":"4","last_reported":1737634673,"current_range_meters":26800,"station_id":"ce4bgr92rcd13ifvqc6g","pricing_plan_id":"cebpf4jnsgd1na2vs0mg"},{"bike_id":"aeaca8d7-5123-4cf1-8327-1f6ed73d3177","system_id":"levelo_inurba_marseille","lat":43.28857,"lon":5.35848,"is_reserved":false,"is_disabled":false,"rental_uris":{"android":"levelo://app?vid=aeaca8d7-5123-4cf1-8327-1f6ed73d3177","ios":"levelo://app?vid=aeaca8d7-5123-4cf1-8327-1f6ed73d3177"},"vehicle_type_id":"4","last_reported":1737634673,"current_range_meters":5600,"station_id":"ce4bhb12rcd13ifvqem0","pricing_plan_id":"cebpf4jnsgd1na2vs0mg"},{"bike_id":"4ccb3b83-dbf2-46d5-a518-1a9673a1ea7a","system_id":"levelo_inurba_marseille","lat":43.29713,"lon":5.3769,"is_reserved":false,"is_disabled":false,"rental_uris":{"android":"levelo://app?vid=4ccb3b83-dbf2-46d5-a518-1a9673a1ea7a","ios":"levelo://app?vid=4ccb3b83-dbf2-46d5-a518-1a9673a1ea7a"},"vehicle_type_id":"4","last_reported":1737634673,"current_range_meters":19200,"station_id":"ce4bgkh2rcd13ifvqbl0","pricing_plan_id":"cebpf4jnsgd1na2vs0mg"},{"bike_id":"b5cb07e6-6ffd-4db4-8954-0084503b2aef","system_id":"levelo_inurba_marseille","lat":43.330226,"lon":5.390343,"is_reserved":false,"is_disabled":false,"rental_uris":{"android":"levelo://app?vid=b5cb07e6-6ffd-4db4-8954-0084503b2aef","ios":"levelo://app?vid=b5cb07e6-6ffd-4db4-8954-0084503b2aef"},"vehicle_type_id":"4","last_reported":1737634673,"current_range_meters":37600,"station_id":"ce4bhr92rcd13ifvqhrg","pricing_plan_id":"cebpf4jnsgd1na2vs0mg"},{"bike_id":"ce2b86ec-5c6e-436b-bbf1-eb1b6c761903","system_id":"levelo_inurba_marseille","lat":43.27682,"lon":5.38956,"is_reserved":false,"is_disabled":false,"rental_uris":{"android":"levelo://app?vid=ce2b86ec-5c6e-436b-bbf1-eb1b6c761903","ios":"levelo://app?vid=ce2b86ec-5c6e-436b-bbf1-eb1b6c761903"},"vehicle_type_id":"4","last_reported":1737634673,"current_range_meters":36800,"station_id":"","pricing_plan_id":"cebpf4jnsgd1na2vs0mg"},{"bike_id":"060d1e32-7b0e-423f-8e03-2b630da0d6e8","system_id":"levelo_inurba_marseille","lat":43.2926,"lon":5.40909,"is_reserved":false,"is_disabled":false,"rental_uris":{"android":"levelo://app?vid=060d1e32-7b0e-423f-8e03-2b630da0d6e8","ios":"levelo://app?vid=060d1e32-7b0e-423f-8e03-2b630da0d6e8"},"vehicle_type_id":"4","last_reported":1737634673,"current_range_meters":39200,"station_id":"ce4bh192rcd13ifvqdc0","pricing_plan_id":"cebpf4jnsgd1na2vs0mg"},{"bike_id":"aca32369-78ec-4092-8abd-808716542a49","system_id":"levelo_inurba_marseille","lat":43.2909,"lon":5.38148,"is_reserved":false,"is_disabled":false,"rental_uris":{"android":"levelo://app?vid=aca32369-78ec-4092-8abd-808716542a49","ios":"levelo://app?vid=aca32369-78ec-4092-8abd-808716542a49"},"vehicle_type_id":"4","last_reported":1737634673,"current_range_meters":32000,"station_id":"ce4bh512rcd13ifvqe2g","pricing_plan_id":"cebpf4jnsgd1na2vs0mg"},{"bike_id":"4cfc2deb-eb42-4c1a-88d8-8106a56ed6a1","system_id":"levelo_inurba_marseille","lat":43.29875,"lon":5.39734,"is_reserved":false,"is_disabled":false,"rental_uris":{"android":"levelo://app?vid=4cfc2deb-eb42-4c1a-88d8-8106a56ed6a1","ios":"levelo://app?vid=4cfc2deb-eb42-4c1a-88d8-8106a56ed6a1"},"vehicle_type_id":"4","last_reported":1737634673,"current_range_meters":39200,"station_id":"ce4bh0h2rcd13ifvqd50","pricing_plan_id":"cebpf4jnsgd1na2vs0mg"},{"bike_id":"30ed2cc6-f71f-42ec-a788-fecd9edec9ce","system_id":"levelo_inurba_marseille","lat":43.30947,"lon":5.3904,"is_reserved":false,"is_disabled":false,"rental_uris":{"android":"levelo://app?vid=30ed2cc6-f71f-42ec-a788-fecd9edec9ce","ios":"levelo://app?vid=30ed2cc6-f71f-42ec-a788-fecd9edec9ce"},"vehicle_type_id":"4","last_reported":1737634673,"current_range_meters":8400,"station_id":"ce4bgup2rcd13ifvqco0","pricing_plan_id":"cebpf4jnsgd1na2vs0mg"},{"bike_id":"2b6096cf-e92f-48f9-b9d9-5d9bcc3c820c","system_id":"levelo_inurba_marseille","lat":43.27492,"lon":5.42455,"is_reserved":false,"is_disabled":false,"rental_uris":{"android":"levelo://app?vid=2b6096cf-e92f-48f9-b9d9-5d9bcc3c820c","ios":"levelo://app?vid=2b6096cf-e92f-48f9-b9d9-5d9bcc3c820c"},"vehicle_type_id":"4","last_reported":1737634673,"current_range_meters":26800,"station_id":"ce4bhn92rcd13ifvqgrg","pricing_plan_id":"cebpf4jnsgd1na2vs0mg"},{"bike_id":"ef139172-a058-47a6-a2f7-760a1d9e13a3","system_id":"levelo_inurba_marseille","lat":43.29583,"lon":5.36745,"is_reserved":false,"is_disabled":false,"rental_uris":{"android":"levelo://app?vid=ef139172-a058-47a6-a2f7-760a1d9e13a3","ios":"levelo://app?vid=ef139172-a058-47a6-a2f7-760a1d9e13a3"},"vehicle_type_id":"4","last_reported":1737634673,"current_range_meters":30800,"station_id":"ce4bgph2rcd13ifvqc2g","pricing_plan_id":"cebpf4jnsgd1na2vs0mg"},{"bike_id":"2a80df51-a758-43ec-8377-7504eaafab77","system_id":"levelo_inurba_marseille","lat":43.25926,"lon":5.40906,"is_reserved":false,"is_disabled":false,"rental_uris":{"android":"levelo://app?vid=2a80df51-a758-43ec-8377-7504eaafab77","ios":"levelo://app?vid=2a80df51-a758-43ec-8377-7504eaafab77"},"vehicle_type_id":"4","last_reported":1737634673,"current_range_meters":38800,"station_id":"ce4bhm92rcd13ifvqglg","pricing_plan_id":"cebpf4jnsgd1na2vs0mg"},{"bike_id":"62deda02-398b-428c-93c7-c43dbeb4b460","system_id":"levelo_inurba_marseille","lat":43.31995,"lon":5.38161,"is_reserved":false,"is_disabled":false,"rental_uris":{"android":"levelo://app?vid=62deda02-398b-428c-93c7-c43dbeb4b460","ios":"levelo://app?vid=62deda02-398b-428c-93c7-c43dbeb4b460"},"vehicle_type_id":"4","last_reported":1737634673,"current_range_meters":38800,"station_id":"ce4bhr12rcd13ifvqhpg","pricing_plan_id":"cebpf4jnsgd1na2vs0mg"},{"bike_id":"4b99948f-ea48-4383-875e-b58ed823d600","system_id":"levelo_inurba_marseille","lat":43.30535,"lon":5.36711,"is_reserved":false,"is_disabled":false,"rental_uris":{"android":"levelo://app?vid=4b99948f-ea48-4383-875e-b58ed823d600","ios":"levelo://app?vid=4b99948f-ea48-4383-875e-b58ed823d600"},"vehicle_type_id":"4","last_reported":1737634673,"current_range_meters":39200,"station_id":"ce4bgrp2rcd13ifvqc9g","pricing_plan_id":"cebpf4jnsgd1na2vs0mg"},{"bike_id":"61735e4e-49a8-43e1-8f04-18589875b8d4","system_id":"levelo_inurba_marseille","lat":43.30471,"lon":5.37913,"is_reserved":false,"is_disabled":false,"rental_uris":{"android":"levelo://app?vid=61735e4e-49a8-43e1-8f04-18589875b8d4","ios":"levelo://app?vid=61735e4e-49a8-43e1-8f04-18589875b8d4"},"vehicle_type_id":"4","last_reported":1737634673,"current_range_meters":27200,"station_id":"ce4bgup2rcd13ifvqcn0","pricing_plan_id":"cebpf4jnsgd1na2vs0mg"},{"bike_id":"3738187d-a33d-446f-9860-887cd47163c3","system_id":"levelo_inurba_marseille","lat":43.30906,"lon":5.36853,"is_reserved":false,"is_disabled":false,"rental_uris":{"android":"levelo://app?vid=3738187d-a33d-446f-9860-887cd47163c3","ios":"levelo://app?vid=3738187d-a33d-446f-9860-887cd47163c3"},"vehicle_type_id":"4","last_reported":1737634673,"current_range_meters":20800,"station_id":"ce4bgn92rcd13ifvqbvg","pricing_plan_id":"cebpf4jnsgd1na2vs0mg"},{"bike_id":"e38da209-d8d9-4680-be99-11d1954272ef","system_id":"levelo_inurba_marseille","lat":43.26203,"lon":5.37929,"is_reserved":false,"is_disabled":false,"rental_uris":{"android":"levelo://app?vid=e38da209-d8d9-4680-be99-11d1954272ef","ios":"levelo://app?vid=e38da209-d8d9-4680-be99-11d1954272ef"},"vehicle_type_id":"4","last_reported":1737634673,"current_range_meters":38000,"station_id":"ce4bhjp2rcd13ifvqg90","pricing_plan_id":"cebpf4jnsgd1na2vs0mg"},{"bike_id":"160c4fbb-2af3-439e-9ef6-41c92148fa08","system_id":"levelo_inurba_marseille","lat":43.30465,"lon":5.37914,"is_reserved":false,"is_disabled":true,"rental_uris":{"android":"levelo://app?vid=160c4fbb-2af3-439e-9ef6-41c92148fa08","ios":"levelo://app?vid=160c4fbb-2af3-439e-9ef6-41c92148fa08"},"vehicle_type_id":"4","last_reported":1737634673,"current_range_meters":0,"station_id":"ce4bgup2rcd13ifvqcn0","pricing_plan_id":"cebpf4jnsgd1na2vs0mg"},{"bike_id":"5d4fa761-e480-4599-a18e-55917918b6b9","system_id":"levelo_inurba_marseille","lat":43.23149,"lon":5.4372,"is_reserved":false,"is_disabled":false,"rental_uris":{"android":"levelo://app?vid=5d4fa761-e480-4599-a18e-55917918b6b9","ios":"levelo://app?vid=5d4fa761-e480-4599-a18e-55917918b6b9"},"vehicle_type_id":"4","last_reported":1737634673,"current_range_meters":18000,"station_id":"ce4bhmp2rcd13ifvqgog","pricing_plan_id":"cebpf4jnsgd1na2vs0mg"},{"bike_id":"b79fd583-0f35-4890-bc5b-c92796d8cb12","system_id":"levelo_inurba_marseille","lat":43.30164,"lon":5.38098,"is_reserved":false,"is_disabled":false,"rental_uris":{"android":"levelo://app?vid=b79fd583-0f35-4890-bc5b-c92796d8cb12","ios":"levelo://app?vid=b79fd583-0f35-4890-bc5b-c92796d8cb12"},"vehicle_type_id":"4","last_reported":1737634673,"current_range_meters":12400,"station_id":"ce4bgjp2rcd13ifvqbh0","pricing_plan_id":"cebpf4jnsgd1na2vs0mg"},{"bike_id":"f83e41b8-2a3e-451e-998d-f6afc6eaffb0","system_id":"levelo_inurba_marseille","lat":43.30622,"lon":5.37241,"is_reserved":false,"is_disabled":false,"rental_uris":{"android":"levelo://app?vid=f83e41b8-2a3e-451e-998d-f6afc6eaffb0","ios":"levelo://app?vid=f83e41b8-2a3e-451e-998d-f6afc6eaffb0"},"vehicle_type_id":"4","last_reported":1737634673,"current_range_meters":33600,"station_id":"ce4bgjp2rcd13ifvqbh0","pricing_plan_id":"cebpf4jnsgd1na2vs0mg"},{"bike_id":"7ac4acd4-bd74-4db4-b010-03d6a4eb59a1","system_id":"levelo_inurba_marseille","lat":43.29514,"lon":5.37507,"is_reserved":false,"is_disabled":false,"rental_uris":{"android":"levelo://app?vid=7ac4acd4-bd74-4db4-b010-03d6a4eb59a1","ios":"levelo://app?vid=7ac4acd4-bd74-4db4-b010-03d6a4eb59a1"},"vehicle_type_id":"4","last_reported":1737634673,"current_range_meters":39200,"station_id":"ce4bgkp2rcd13ifvqbmg","pricing_plan_id":"cebpf4jnsgd1na2vs0mg"},{"bike_id":"78e04b22-500f-4fc2-b600-8f3fdd81bda1","system_id":"levelo_inurba_marseille","lat":43.25578,"lon":5.38239,"is_reserved":false,"is_disabled":false,"rental_uris":{"android":"levelo://app?vid=78e04b22-500f-4fc2-b600-8f3fdd81bda1","ios":"levelo://app?vid=78e04b22-500f-4fc2-b600-8f3fdd81bda1"},"vehicle_type_id":"4","last_reported":1737634673,"current_range_meters":16800,"station_id":"ce4bhih2rcd13ifvqfs0","pricing_plan_id":"cebpf4jnsgd1na2vs0mg"},{"bike_id":"c198fbae-2e27-4752-bbdf-3956b6f7fdc4","system_id":"levelo_inurba_marseille","lat":43.29292,"lon":5.37469,"is_reserved":false,"is_disabled":false,"rental_uris":{"android":"levelo://app?vid=c198fbae-2e27-4752-bbdf-3956b6f7fdc4","ios":"levelo://app?vid=c198fbae-2e27-4752-bbdf-3956b6f7fdc4"},"vehicle_type_id":"4","last_reported":1737634673,"current_range_meters":8400,"station_id":"ce4bgi12rcd13ifvqb70","pricing_plan_id":"cebpf4jnsgd1na2vs0mg"},{"bike_id":"4009dd64-873a-4481-8b93-0e777b86238d","system_id":"levelo_inurba_marseille","lat":43.29517,"lon":5.38554,"is_reserved":false,"is_disabled":false,"rental_uris":{"android":"levelo://app?vid=4009dd64-873a-4481-8b93-0e777b86238d","ios":"levelo://app?vid=4009dd64-873a-4481-8b93-0e777b86238d"},"vehicle_type_id":"4","last_reported":1737634673,"current_range_meters":8400,"station_id":"ce4bgih2rcd13ifvqba0","pricing_plan_id":"cebpf4jnsgd1na2vs0mg"},{"bike_id":"27d26ff8-8938-41ce-9279-d280c54fdb66","system_id":"levelo_inurba_marseille","lat":43.28916,"lon":5.36645,"is_reserved":false,"is_disabled":false,"rental_uris":{"android":"levelo://app?vid=27d26ff8-8938-41ce-9279-d280c54fdb66","ios":"levelo://app?vid=27d26ff8-8938-41ce-9279-d280c54fdb66"},"vehicle_type_id":"4","last_reported":1737634673,"current_range_meters":22400,"station_id":"ce4bhap2rcd13ifvqek0","pricing_plan_id":"cebpf4jnsgd1na2vs0mg"},{"bike_id":"9885c3b6-bcd1-4482-97df-d738948a9fd6","system_id":"levelo_inurba_marseille","lat":43.33603,"lon":5.40937,"is_reserved":false,"is_disabled":false,"rental_uris":{"android":"levelo://app?vid=9885c3b6-bcd1-4482-97df-d738948a9fd6","ios":"levelo://app?vid=9885c3b6-bcd1-4482-97df-d738948a9fd6"},"vehicle_type_id":"4","last_reported":1737634673,"current_range_meters":27600,"station_id":"","pricing_plan_id":"cebpf4jnsgd1na2vs0mg"},{"bike_id":"c535ef4e-d44e-4978-ba7e-b7fce2addae6","system_id":"levelo_inurba_marseille","lat":43.32058,"lon":5.41537,"is_reserved":false,"is_disabled":false,"rental_uris":{"android":"levelo://app?vid=c535ef4e-d44e-4978-ba7e-b7fce2addae6","ios":"levelo://app?vid=c535ef4e-d44e-4978-ba7e-b7fce2addae6"},"vehicle_type_id":"4","last_reported":1737634673,"current_range_meters":19600,"station_id":"ce4bhq92rcd13ifvqhkg","pricing_plan_id":"cebpf4jnsgd1na2vs0mg"},{"bike_id":"a13abb27-e665-43e9-87a9-b8e3e0cbc35c","system_id":"levelo_inurba_marseille","lat":43.305359,"lon":5.367154,"is_reserved":false,"is_disabled":false,"rental_uris":{"android":"levelo://app?vid=a13abb27-e665-43e9-87a9-b8e3e0cbc35c","ios":"levelo://app?vid=a13abb27-e665-43e9-87a9-b8e3e0cbc35c"},"vehicle_type_id":"4","last_reported":1737634673,"current_range_meters":5600,"station_id":"ce4bgrp2rcd13ifvqc9g","pricing_plan_id":"cebpf4jnsgd1na2vs0mg"},{"bike_id":"2915c817-107d-4311-a6d6-68dc1087e51b","system_id":"levelo_inurba_marseille","lat":43.2549,"lon":5.37653,"is_reserved":false,"is_disabled":false,"rental_uris":{"android":"levelo://app?vid=2915c817-107d-4311-a6d6-68dc1087e51b","ios":"levelo://app?vid=2915c817-107d-4311-a6d6-68dc1087e51b"},"vehicle_type_id":"4","last_reported":1737634673,"current_range_meters":20400,"station_id":"ce4bhh12rcd13ifvqff0","pricing_plan_id":"cebpf4jnsgd1na2vs0mg"},{"bike_id":"9bea1868-79ba-495c-add5-0b85315892ca","system_id":"levelo_inurba_marseille","lat":43.30456,"lon":5.379283,"is_reserved":false,"is_disabled":false,"rental_uris":{"android":"levelo://app?vid=9bea1868-79ba-495c-add5-0b85315892ca","ios":"levelo://app?vid=9bea1868-79ba-495c-add5-0b85315892ca"},"vehicle_type_id":"4","last_reported":1737634673,"current_range_meters":16400,"station_id":"ce4bgup2rcd13ifvqcn0","pricing_plan_id":"cebpf4jnsgd1na2vs0mg"},{"bike_id":"8b1db7fb-3f92-4839-8a1b-2cf6afc9c963","system_id":"levelo_inurba_marseille","lat":43.24996,"lon":5.3895,"is_reserved":false,"is_disabled":false,"rental_uris":{"android":"levelo://app?vid=8b1db7fb-3f92-4839-8a1b-2cf6afc9c963","ios":"levelo://app?vid=8b1db7fb-3f92-4839-8a1b-2cf6afc9c963"},"vehicle_type_id":"4","last_reported":1737634673,"current_range_meters":17600,"station_id":"ce4bhgp2rcd13ifvqfd0","pricing_plan_id":"cebpf4jnsgd1na2vs0mg"},{"bike_id":"7ace546e-9c67-4124-8420-9ed07a575e5a","system_id":"levelo_inurba_marseille","lat":43.3163,"lon":5.40554,"is_reserved":false,"is_disabled":true,"rental_uris":{"android":"levelo://app?vid=7ace546e-9c67-4124-8420-9ed07a575e5a","ios":"levelo://app?vid=7ace546e-9c67-4124-8420-9ed07a575e5a"},"vehicle_type_id":"4","last_reported":1737634673,"current_range_meters":0,"station_id":"","pricing_plan_id":"cebpf4jnsgd1na2vs0mg"},{"bike_id":"c3429ea1-0b50-4872-941e-40962b8f6e76","system_id":"levelo_inurba_marseille","lat":43.23963,"lon":5.36637,"is_reserved":false,"is_disabled":false,"rental_uris":{"android":"levelo://app?vid=c3429ea1-0b50-4872-941e-40962b8f6e76","ios":"levelo://app?vid=c3429ea1-0b50-4872-941e-40962b8f6e76"},"vehicle_type_id":"4","last_reported":1737634673,"current_range_meters":33600,"station_id":"ce4bhi12rcd13ifvqfp0","pricing_plan_id":"cebpf4jnsgd1na2vs0mg"},{"bike_id":"e628bcc2-e5bc-420a-b837-a52b8ae708fe","system_id":"levelo_inurba_marseille","lat":43.26553,"lon":5.373,"is_reserved":false,"is_disabled":false,"rental_uris":{"android":"levelo://app?vid=e628bcc2-e5bc-420a-b837-a52b8ae708fe","ios":"levelo://app?vid=e628bcc2-e5bc-420a-b837-a52b8ae708fe"},"vehicle_type_id":"4","last_reported":1737634673,"current_range_meters":21600,"station_id":"ce4bhg12rcd13ifvqf70","pricing_plan_id":"cebpf4jnsgd1na2vs0mg"},{"bike_id":"5e75dd30-ab3b-44d3-8dcb-cb5fd4a0eb65","system_id":"levelo_inurba_marseille","lat":43.24647,"lon":5.38872,"is_reserved":false,"is_disabled":false,"rental_uris":{"android":"levelo://app?vid=5e75dd30-ab3b-44d3-8dcb-cb5fd4a0eb65","ios":"levelo://app?vid=5e75dd30-ab3b-44d3-8dcb-cb5fd4a0eb65"},"vehicle_type_id":"4","last_reported":1737634673,"current_range_meters":38000,"station_id":"ce4bhg12rcd13ifvqf60","pricing_plan_id":"cebpf4jnsgd1na2vs0mg"},{"bike_id":"6e1ffca6-fea0-4e84-8a1a-4264c17e882d","system_id":"levelo_inurba_marseille","lat":43.24176,"lon":5.39732,"is_reserved":false,"is_disabled":false,"rental_uris":{"android":"levelo://app?vid=6e1ffca6-fea0-4e84-8a1a-4264c17e882d","ios":"levelo://app?vid=6e1ffca6-fea0-4e84-8a1a-4264c17e882d"},"vehicle_type_id":"4","last_reported":1737634673,"current_range_meters":16000,"station_id":"ce4bhn12rcd13ifvqgpg","pricing_plan_id":"cebpf4jnsgd1na2vs0mg"},{"bike_id":"6d736148-0838-4827-bf70-745978854c80","system_id":"levelo_inurba_marseille","lat":43.2619,"lon":5.37933,"is_reserved":false,"is_disabled":false,"rental_uris":{"android":"levelo://app?vid=6d736148-0838-4827-bf70-745978854c80","ios":"levelo://app?vid=6d736148-0838-4827-bf70-745978854c80"},"vehicle_type_id":"4","last_reported":1737634673,"current_range_meters":38800,"station_id":"ce4bhjp2rcd13ifvqg90","pricing_plan_id":"cebpf4jnsgd1na2vs0mg"},{"bike_id":"ad8a9661-4749-405d-b10d-dfa4648bca2c","system_id":"levelo_inurba_marseille","lat":43.2871,"lon":5.39996,"is_reserved":false,"is_disabled":false,"rental_uris":{"android":"levelo://app?vid=ad8a9661-4749-405d-b10d-dfa4648bca2c","ios":"levelo://app?vid=ad8a9661-4749-405d-b10d-dfa4648bca2c"},"vehicle_type_id":"4","last_reported":1737634673,"current_range_meters":34800,"station_id":"ce4bho92rcd13ifvqh3g","pricing_plan_id":"cebpf4jnsgd1na2vs0mg"},{"bike_id":"6c2e2f41-9c52-4308-86ab-09129b1176ab","system_id":"levelo_inurba_marseille","lat":43.30525,"lon":5.36543,"is_reserved":false,"is_disabled":false,"rental_uris":{"android":"levelo://app?vid=6c2e2f41-9c52-4308-86ab-09129b1176ab","ios":"levelo://app?vid=6c2e2f41-9c52-4308-86ab-09129b1176ab"},"vehicle_type_id":"4","last_reported":1737634673,"current_range_meters":32400,"station_id":"ce4bgs12rcd13ifvqcag","pricing_plan_id":"cebpf4jnsgd1na2vs0mg"},{"bike_id":"02b45201-016a-4b5e-8350-e461573f4d54","system_id":"levelo_inurba_marseille","lat":43.29887,"lon":5.38909,"is_reserved":false,"is_disabled":false,"rental_uris":{"android":"levelo://app?vid=02b45201-016a-4b5e-8350-e461573f4d54","ios":"levelo://app?vid=02b45201-016a-4b5e-8350-e461573f4d54"},"vehicle_type_id":"4","last_reported":1737634673,"current_range_meters":38000,"station_id":"ce4bh392rcd13ifvqdl0","pricing_plan_id":"cebpf4jnsgd1na2vs0mg"},{"bike_id":"a695a873-45d1-49e6-b8eb-728801324142","system_id":"levelo_inurba_marseille","lat":43.30882,"lon":5.39654,"is_reserved":false,"is_disabled":false,"rental_uris":{"android":"levelo://app?vid=a695a873-45d1-49e6-b8eb-728801324142","ios":"levelo://app?vid=a695a873-45d1-49e6-b8eb-728801324142"},"vehicle_type_id":"4","last_reported":1737634673,"current_range_meters":16400,"station_id":"ce4bh012rcd13ifvqcv0","pricing_plan_id":"cebpf4jnsgd1na2vs0mg"},{"bike_id":"72b27e72-0a7f-444e-8089-b40480a90960","system_id":"levelo_inurba_marseille","lat":43.29559,"lon":5.37517,"is_reserved":false,"is_disabled":false,"rental_uris":{"android":"levelo://app?vid=72b27e72-0a7f-444e-8089-b40480a90960","ios":"levelo://app?vid=72b27e72-0a7f-444e-8089-b40480a90960"},"vehicle_type_id":"4","last_reported":1737634673,"current_range_meters":28800,"station_id":"ce4bgh92rcd13ifvqb50","pricing_plan_id":"cebpf4jnsgd1na2vs0mg"},{"bike_id":"9838cc78-2b53-49d3-ae13-82df62c4fd64","system_id":"levelo_inurba_marseille","lat":43.28411,"lon":5.409417,"is_reserved":false,"is_disabled":false,"rental_uris":{"android":"levelo://app?vid=9838cc78-2b53-49d3-ae13-82df62c4fd64","ios":"levelo://app?vid=9838cc78-2b53-49d3-ae13-82df62c4fd64"},"vehicle_type_id":"4","last_reported":1737634673,"current_range_meters":6400,"station_id":"","pricing_plan_id":"cebpf4jnsgd1na2vs0mg"},{"bike_id":"d9d67e50-ff60-4024-bb97-06b4cc192a7e","system_id":"levelo_inurba_marseille","lat":43.30215,"lon":5.37473,"is_reserved":false,"is_disabled":true,"rental_uris":{"android":"levelo://app?vid=d9d67e50-ff60-4024-bb97-06b4cc192a7e","ios":"levelo://app?vid=d9d67e50-ff60-4024-bb97-06b4cc192a7e"},"vehicle_type_id":"4","last_reported":1737634673,"current_range_meters":38800,"station_id":"","pricing_plan_id":"cebpf4jnsgd1na2vs0mg"},{"bike_id":"119214ee-6b87-4f01-9e11-980178b3273a","system_id":"levelo_inurba_marseille","lat":43.29569,"lon":5.39965,"is_reserved":false,"is_disabled":true,"rental_uris":{"android":"levelo://app?vid=119214ee-6b87-4f01-9e11-980178b3273a","ios":"levelo://app?vid=119214ee-6b87-4f01-9e11-980178b3273a"},"vehicle_type_id":"4","last_reported":1737634673,"current_range_meters":35200,"station_id":"ce4bh312rcd13ifvqdj0","pricing_plan_id":"cebpf4jnsgd1na2vs0mg"},{"bike_id":"19b8198b-0b8b-41c2-8c4a-a703ec5c010b","system_id":"levelo_inurba_marseille","lat":43.30165,"lon":5.38083,"is_reserved":false,"is_disabled":false,"rental_uris":{"android":"levelo://app?vid=19b8198b-0b8b-41c2-8c4a-a703ec5c010b","ios":"levelo://app?vid=19b8198b-0b8b-41c2-8c4a-a703ec5c010b"},"vehicle_type_id":"4","last_reported":1737634673,"current_range_meters":38800,"station_id":"ce4bgjp2rcd13ifvqbh0","pricing_plan_id":"cebpf4jnsgd1na2vs0mg"},{"bike_id":"8e9b16d7-aa98-4495-aaff-c04ab1afcc63","system_id":"levelo_inurba_marseille","lat":43.3017,"lon":5.38095,"is_reserved":false,"is_disabled":false,"rental_uris":{"android":"levelo://app?vid=8e9b16d7-aa98-4495-aaff-c04ab1afcc63","ios":"levelo://app?vid=8e9b16d7-aa98-4495-aaff-c04ab1afcc63"},"vehicle_type_id":"4","last_reported":1737634673,"current_range_meters":33600,"station_id":"ce4bgjp2rcd13ifvqbh0","pricing_plan_id":"cebpf4jnsgd1na2vs0mg"},{"bike_id":"9f96de60-ba44-4c93-9707-a282028a4274","system_id":"levelo_inurba_marseille","lat":43.24176,"lon":5.39771,"is_reserved":false,"is_disabled":false,"rental_uris":{"android":"levelo://app?vid=9f96de60-ba44-4c93-9707-a282028a4274","ios":"levelo://app?vid=9f96de60-ba44-4c93-9707-a282028a4274"},"vehicle_type_id":"4","last_reported":1737634673,"current_range_meters":37600,"station_id":"ce4bhn12rcd13ifvqgpg","pricing_plan_id":"cebpf4jnsgd1na2vs0mg"},{"bike_id":"453049cf-9b62-421e-aca6-df9a4afd0bf0","system_id":"levelo_inurba_marseille","lat":43.28119,"lon":5.37838,"is_reserved":false,"is_disabled":false,"rental_uris":{"android":"levelo://app?vid=453049cf-9b62-421e-aca6-df9a4afd0bf0","ios":"levelo://app?vid=453049cf-9b62-421e-aca6-df9a4afd0bf0"},"vehicle_type_id":"4","last_reported":1737634673,"current_range_meters":12000,"station_id":"ce4bha12rcd13ifvqee0","pricing_plan_id":"cebpf4jnsgd1na2vs0mg"},{"bike_id":"2d9b8ff6-0b19-40ac-9e6a-735b8d977091","system_id":"levelo_inurba_marseille","lat":43.32662,"lon":5.41003,"is_reserved":false,"is_disabled":false,"rental_uris":{"android":"levelo://app?vid=2d9b8ff6-0b19-40ac-9e6a-735b8d977091","ios":"levelo://app?vid=2d9b8ff6-0b19-40ac-9e6a-735b8d977091"},"vehicle_type_id":"4","last_reported":1737634673,"current_range_meters":38400,"station_id":"ce4bhpp2rcd13ifvqhgg","pricing_plan_id":"cebpf4jnsgd1na2vs0mg"},{"bike_id":"a8f7c7b7-4ab3-4d0b-9e6e-6aa85ab9f131","system_id":"levelo_inurba_marseille","lat":43.26943,"lon":5.38646,"is_reserved":false,"is_disabled":false,"rental_uris":{"android":"levelo://app?vid=a8f7c7b7-4ab3-4d0b-9e6e-6aa85ab9f131","ios":"levelo://app?vid=a8f7c7b7-4ab3-4d0b-9e6e-6aa85ab9f131"},"vehicle_type_id":"4","last_reported":1737634673,"current_range_meters":16800,"station_id":"ce4bhh92rcd13ifvqfh0","pricing_plan_id":"cebpf4jnsgd1na2vs0mg"},{"bike_id":"b6a17ddb-9bbb-49ff-bd70-8900a4bca0f7","system_id":"levelo_inurba_marseille","lat":43.30944,"lon":5.39069,"is_reserved":false,"is_disabled":false,"rental_uris":{"android":"levelo://app?vid=b6a17ddb-9bbb-49ff-bd70-8900a4bca0f7","ios":"levelo://app?vid=b6a17ddb-9bbb-49ff-bd70-8900a4bca0f7"},"vehicle_type_id":"4","last_reported":1737634673,"current_range_meters":30800,"station_id":"ce4bgup2rcd13ifvqco0","pricing_plan_id":"cebpf4jnsgd1na2vs0mg"},{"bike_id":"68b608b1-4b2e-42e4-afbb-5cdcf5bc15cf","system_id":"levelo_inurba_marseille","lat":43.26678,"lon":5.38276,"is_reserved":false,"is_disabled":false,"rental_uris":{"android":"levelo://app?vid=68b608b1-4b2e-42e4-afbb-5cdcf5bc15cf","ios":"levelo://app?vid=68b608b1-4b2e-42e4-afbb-5cdcf5bc15cf"},"vehicle_type_id":"4","last_reported":1737634673,"current_range_meters":24400,"station_id":"ce4bhg92rcd13ifvqf90","pricing_plan_id":"cebpf4jnsgd1na2vs0mg"},{"bike_id":"5726e564-2df5-4035-bef5-f2e9c718301b","system_id":"levelo_inurba_marseille","lat":43.32336,"lon":5.40633,"is_reserved":false,"is_disabled":false,"rental_uris":{"android":"levelo://app?vid=5726e564-2df5-4035-bef5-f2e9c718301b","ios":"levelo://app?vid=5726e564-2df5-4035-bef5-f2e9c718301b"},"vehicle_type_id":"4","last_reported":1737634673,"current_range_meters":36000,"station_id":"ce4bhq92rcd13ifvqhjg","pricing_plan_id":"cebpf4jnsgd1na2vs0mg"},{"bike_id":"70e221d4-5ddb-4286-8d5d-b3444c37d503","system_id":"levelo_inurba_marseille","lat":43.29568,"lon":5.37521,"is_reserved":false,"is_disabled":true,"rental_uris":{"android":"levelo://app?vid=70e221d4-5ddb-4286-8d5d-b3444c37d503","ios":"levelo://app?vid=70e221d4-5ddb-4286-8d5d-b3444c37d503"},"vehicle_type_id":"4","last_reported":1737634673,"current_range_meters":10800,"station_id":"ce4bgh92rcd13ifvqb50","pricing_plan_id":"cebpf4jnsgd1na2vs0mg"},{"bike_id":"e2151eb3-314b-404c-b259-cf12a3a3e0c6","system_id":"levelo_inurba_marseille","lat":43.31633,"lon":5.40291,"is_reserved":false,"is_disabled":false,"rental_uris":{"android":"levelo://app?vid=e2151eb3-314b-404c-b259-cf12a3a3e0c6","ios":"levelo://app?vid=e2151eb3-314b-404c-b259-cf12a3a3e0c6"},"vehicle_type_id":"4","last_reported":1737634673,"current_range_meters":23200,"station_id":"","pricing_plan_id":"cebpf4jnsgd1na2vs0mg"},{"bike_id":"fe1d98f5-afb0-4b9a-9249-4ac090fab3cc","system_id":"levelo_inurba_marseille","lat":43.32364,"lon":5.42049,"is_reserved":false,"is_disabled":false,"rental_uris":{"android":"levelo://app?vid=fe1d98f5-afb0-4b9a-9249-4ac090fab3cc","ios":"levelo://app?vid=fe1d98f5-afb0-4b9a-9249-4ac090fab3cc"},"vehicle_type_id":"4","last_reported":1737634673,"current_range_meters":22400,"station_id":"","pricing_plan_id":"cebpf4jnsgd1na2vs0mg"},{"bike_id":"c446ad5f-fc4f-4fc2-a7ec-32df569ac582","system_id":"levelo_inurba_marseille","lat":43.31698,"lon":5.404673,"is_reserved":false,"is_disabled":false,"rental_uris":{"android":"levelo://app?vid=c446ad5f-fc4f-4fc2-a7ec-32df569ac582","ios":"levelo://app?vid=c446ad5f-fc4f-4fc2-a7ec-32df569ac582"},"vehicle_type_id":"4","last_reported":1737634673,"current_range_meters":16800,"station_id":"ce4bh012rcd13ifvqd00","pricing_plan_id":"cebpf4jnsgd1na2vs0mg"},{"bike_id":"04de6f23-407d-4fcf-b28c-ee2a21a52bbe","system_id":"levelo_inurba_marseille","lat":43.23166,"lon":5.43697,"is_reserved":false,"is_disabled":false,"rental_uris":{"android":"levelo://app?vid=04de6f23-407d-4fcf-b28c-ee2a21a52bbe","ios":"levelo://app?vid=04de6f23-407d-4fcf-b28c-ee2a21a52bbe"},"vehicle_type_id":"4","last_reported":1737634673,"current_range_meters":38800,"station_id":"ce4bhmp2rcd13ifvqgog","pricing_plan_id":"cebpf4jnsgd1na2vs0mg"},{"bike_id":"346f7406-18a7-4ef7-a717-e872e228d4ab","system_id":"levelo_inurba_marseille","lat":43.25086,"lon":5.39528,"is_reserved":false,"is_disabled":false,"rental_uris":{"android":"levelo://app?vid=346f7406-18a7-4ef7-a717-e872e228d4ab","ios":"levelo://app?vid=346f7406-18a7-4ef7-a717-e872e228d4ab"},"vehicle_type_id":"4","last_reported":1737634673,"current_range_meters":28000,"station_id":"ce4bhm12rcd13ifvqgkg","pricing_plan_id":"cebpf4jnsgd1na2vs0mg"},{"bike_id":"14f2b8f6-5774-4871-8a2f-d86951c8fb94","system_id":"levelo_inurba_marseille","lat":43.30952,"lon":5.39039,"is_reserved":false,"is_disabled":false,"rental_uris":{"android":"levelo://app?vid=14f2b8f6-5774-4871-8a2f-d86951c8fb94","ios":"levelo://app?vid=14f2b8f6-5774-4871-8a2f-d86951c8fb94"},"vehicle_type_id":"4","last_reported":1737634673,"current_range_meters":12800,"station_id":"ce4bgup2rcd13ifvqco0","pricing_plan_id":"cebpf4jnsgd1na2vs0mg"},{"bike_id":"050bd42b-0fa4-4ea3-8a02-3c1196960ece","system_id":"levelo_inurba_marseille","lat":43.31651,"lon":5.374,"is_reserved":false,"is_disabled":false,"rental_uris":{"android":"levelo://app?vid=050bd42b-0fa4-4ea3-8a02-3c1196960ece","ios":"levelo://app?vid=050bd42b-0fa4-4ea3-8a02-3c1196960ece"},"vehicle_type_id":"4","last_reported":1737634673,"current_range_meters":27600,"station_id":"","pricing_plan_id":"cebpf4jnsgd1na2vs0mg"},{"bike_id":"3a59db95-3ba3-45d9-9d51-35faeb1e0f2b","system_id":"levelo_inurba_marseille","lat":43.25118,"lon":5.40326,"is_reserved":false,"is_disabled":false,"rental_uris":{"android":"levelo://app?vid=3a59db95-3ba3-45d9-9d51-35faeb1e0f2b","ios":"levelo://app?vid=3a59db95-3ba3-45d9-9d51-35faeb1e0f2b"},"vehicle_type_id":"4","last_reported":1737634673,"current_range_meters":22400,"station_id":"ce4bhlh2rcd13ifvqgig","pricing_plan_id":"cebpf4jnsgd1na2vs0mg"},{"bike_id":"3b78501e-373d-4af9-a07c-c1a27585fc17","system_id":"levelo_inurba_marseille","lat":43.29966,"lon":5.41333,"is_reserved":false,"is_disabled":false,"rental_uris":{"android":"levelo://app?vid=3b78501e-373d-4af9-a07c-c1a27585fc17","ios":"levelo://app?vid=3b78501e-373d-4af9-a07c-c1a27585fc17"},"vehicle_type_id":"4","last_reported":1737634673,"current_range_meters":29600,"station_id":"ce4bhp12rcd13ifvqh9g","pricing_plan_id":"cebpf4jnsgd1na2vs0mg"},{"bike_id":"1970fe03-2a19-4871-a01b-17809d851312","system_id":"levelo_inurba_marseille","lat":43.24389,"lon":5.37032,"is_reserved":false,"is_disabled":false,"rental_uris":{"android":"levelo://app?vid=1970fe03-2a19-4871-a01b-17809d851312","ios":"levelo://app?vid=1970fe03-2a19-4871-a01b-17809d851312"},"vehicle_type_id":"4","last_reported":1737634673,"current_range_meters":39200,"station_id":"ce4bhhh2rcd13ifvqfk0","pricing_plan_id":"cebpf4jnsgd1na2vs0mg"},{"bike_id":"2c79079a-42ff-472f-8a01-e9cc8770acac","system_id":"levelo_inurba_marseille","lat":43.30152,"lon":5.37391,"is_reserved":false,"is_disabled":false,"rental_uris":{"android":"levelo://app?vid=2c79079a-42ff-472f-8a01-e9cc8770acac","ios":"levelo://app?vid=2c79079a-42ff-472f-8a01-e9cc8770acac"},"vehicle_type_id":"4","last_reported":1737634673,"current_range_meters":9600,"station_id":"ce4bgs92rcd13ifvqcc0","pricing_plan_id":"cebpf4jnsgd1na2vs0mg"},{"bike_id":"1ac06258-ad9a-434b-839f-fd5f6c847dd6","system_id":"levelo_inurba_marseille","lat":43.30532,"lon":5.36714,"is_reserved":false,"is_disabled":false,"rental_uris":{"android":"levelo://app?vid=1ac06258-ad9a-434b-839f-fd5f6c847dd6","ios":"levelo://app?vid=1ac06258-ad9a-434b-839f-fd5f6c847dd6"},"vehicle_type_id":"4","last_reported":1737634673,"current_range_meters":38400,"station_id":"ce4bgrp2rcd13ifvqc9g","pricing_plan_id":"cebpf4jnsgd1na2vs0mg"},{"bike_id":"6440f376-b0ac-4979-8b74-813c76d7599b","system_id":"levelo_inurba_marseille","lat":43.24178,"lon":5.39738,"is_reserved":false,"is_disabled":false,"rental_uris":{"android":"levelo://app?vid=6440f376-b0ac-4979-8b74-813c76d7599b","ios":"levelo://app?vid=6440f376-b0ac-4979-8b74-813c76d7599b"},"vehicle_type_id":"4","last_reported":1737634673,"current_range_meters":25600,"station_id":"ce4bhn12rcd13ifvqgpg","pricing_plan_id":"cebpf4jnsgd1na2vs0mg"},{"bike_id":"e7ad8e1c-7b74-459c-83a9-4b5ae1ce21c9","system_id":"levelo_inurba_marseille","lat":43.29273,"lon":5.40117,"is_reserved":false,"is_disabled":false,"rental_uris":{"android":"levelo://app?vid=e7ad8e1c-7b74-459c-83a9-4b5ae1ce21c9","ios":"levelo://app?vid=e7ad8e1c-7b74-459c-83a9-4b5ae1ce21c9"},"vehicle_type_id":"4","last_reported":1737634673,"current_range_meters":8400,"station_id":"ce4bh312rcd13ifvqdk0","pricing_plan_id":"cebpf4jnsgd1na2vs0mg"},{"bike_id":"f98a7ee0-f9fe-4556-933e-ecf6827038e5","system_id":"levelo_inurba_marseille","lat":43.291822,"lon":5.357205,"is_reserved":false,"is_disabled":false,"rental_uris":{"android":"levelo://app?vid=f98a7ee0-f9fe-4556-933e-ecf6827038e5","ios":"levelo://app?vid=f98a7ee0-f9fe-4556-933e-ecf6827038e5"},"vehicle_type_id":"4","last_reported":1737634673,"current_range_meters":14000,"station_id":"","pricing_plan_id":"cebpf4jnsgd1na2vs0mg"},{"bike_id":"1b20be54-b238-4f12-8b07-7f2459657eb5","system_id":"levelo_inurba_marseille","lat":43.27668,"lon":5.38876,"is_reserved":false,"is_disabled":false,"rental_uris":{"android":"levelo://app?vid=1b20be54-b238-4f12-8b07-7f2459657eb5","ios":"levelo://app?vid=1b20be54-b238-4f12-8b07-7f2459657eb5"},"vehicle_type_id":"4","last_reported":1737634673,"current_range_meters":35600,"station_id":"ce4bhi12rcd13ifvqfo0","pricing_plan_id":"cebpf4jnsgd1na2vs0mg"},{"bike_id":"90b8a1b1-ad54-458d-9362-f5197bbdf048","system_id":"levelo_inurba_marseille","lat":43.22923,"lon":5.35383,"is_reserved":false,"is_disabled":false,"rental_uris":{"android":"levelo://app?vid=90b8a1b1-ad54-458d-9362-f5197bbdf048","ios":"levelo://app?vid=90b8a1b1-ad54-458d-9362-f5197bbdf048"},"vehicle_type_id":"4","last_reported":1737634673,"current_range_meters":11200,"station_id":"cpo3532slgdg3j2ikp40","pricing_plan_id":"cebpf4jnsgd1na2vs0mg"},{"bike_id":"0ded85d8-2f57-4525-b0f1-4f36941d0e9f","system_id":"levelo_inurba_marseille","lat":43.3377,"lon":5.3744,"is_reserved":false,"is_disabled":false,"rental_uris":{"android":"levelo://app?vid=0ded85d8-2f57-4525-b0f1-4f36941d0e9f","ios":"levelo://app?vid=0ded85d8-2f57-4525-b0f1-4f36941d0e9f"},"vehicle_type_id":"4","last_reported":1737634673,"current_range_meters":25600,"station_id":"","pricing_plan_id":"cebpf4jnsgd1na2vs0mg"},{"bike_id":"91f957bd-7ae6-4841-8ac4-1ecdcd0c697e","system_id":"levelo_inurba_marseille","lat":43.315669,"lon":5.401884,"is_reserved":false,"is_disabled":false,"rental_uris":{"android":"levelo://app?vid=91f957bd-7ae6-4841-8ac4-1ecdcd0c697e","ios":"levelo://app?vid=91f957bd-7ae6-4841-8ac4-1ecdcd0c697e"},"vehicle_type_id":"4","last_reported":1737634673,"current_range_meters":26000,"station_id":"","pricing_plan_id":"cebpf4jnsgd1na2vs0mg"},{"bike_id":"632b28ad-d7cb-46af-a69c-c857c2a0764e","system_id":"levelo_inurba_marseille","lat":43.27048,"lon":5.40272,"is_reserved":false,"is_disabled":false,"rental_uris":{"android":"levelo://app?vid=632b28ad-d7cb-46af-a69c-c857c2a0764e","ios":"levelo://app?vid=632b28ad-d7cb-46af-a69c-c857c2a0764e"},"vehicle_type_id":"4","last_reported":1737634673,"current_range_meters":16000,"station_id":"ce4bhk92rcd13ifvqgc0","pricing_plan_id":"cebpf4jnsgd1na2vs0mg"},{"bike_id":"e1e8184d-cf44-47c1-885e-c915f3b506e6","system_id":"levelo_inurba_marseille","lat":43.29911,"lon":5.37486,"is_reserved":false,"is_disabled":false,"rental_uris":{"android":"levelo://app?vid=e1e8184d-cf44-47c1-885e-c915f3b506e6","ios":"levelo://app?vid=e1e8184d-cf44-47c1-885e-c915f3b506e6"},"vehicle_type_id":"4","last_reported":1737634673,"current_range_meters":5600,"station_id":"ce4bgjh2rcd13ifvqbg0","pricing_plan_id":"cebpf4jnsgd1na2vs0mg"},{"bike_id":"591834fe-f8c6-4545-b88f-3dd55b538d22","system_id":"levelo_inurba_marseille","lat":43.28936,"lon":5.36648,"is_reserved":false,"is_disabled":false,"rental_uris":{"android":"levelo://app?vid=591834fe-f8c6-4545-b88f-3dd55b538d22","ios":"levelo://app?vid=591834fe-f8c6-4545-b88f-3dd55b538d22"},"vehicle_type_id":"4","last_reported":1737634673,"current_range_meters":23200,"station_id":"ce4bhap2rcd13ifvqek0","pricing_plan_id":"cebpf4jnsgd1na2vs0mg"},{"bike_id":"c4500821-8242-4f17-be4b-8a8e65d70c73","system_id":"levelo_inurba_marseille","lat":43.23156,"lon":5.43732,"is_reserved":false,"is_disabled":false,"rental_uris":{"android":"levelo://app?vid=c4500821-8242-4f17-be4b-8a8e65d70c73","ios":"levelo://app?vid=c4500821-8242-4f17-be4b-8a8e65d70c73"},"vehicle_type_id":"4","last_reported":1737634673,"current_range_meters":38800,"station_id":"ce4bhmp2rcd13ifvqgog","pricing_plan_id":"cebpf4jnsgd1na2vs0mg"},{"bike_id":"b01e4d67-c2e1-4fcd-8b9e-5c25b4ed523b","system_id":"levelo_inurba_marseille","lat":43.28944,"lon":5.36644,"is_reserved":false,"is_disabled":false,"rental_uris":{"android":"levelo://app?vid=b01e4d67-c2e1-4fcd-8b9e-5c25b4ed523b","ios":"levelo://app?vid=b01e4d67-c2e1-4fcd-8b9e-5c25b4ed523b"},"vehicle_type_id":"4","last_reported":1737634673,"current_range_meters":5600,"station_id":"ce4bhap2rcd13ifvqek0","pricing_plan_id":"cebpf4jnsgd1na2vs0mg"},{"bike_id":"93272e05-df9a-4f00-9250-d844fb579635","system_id":"levelo_inurba_marseille","lat":43.29851,"lon":5.36276,"is_reserved":false,"is_disabled":false,"rental_uris":{"android":"levelo://app?vid=93272e05-df9a-4f00-9250-d844fb579635","ios":"levelo://app?vid=93272e05-df9a-4f00-9250-d844fb579635"},"vehicle_type_id":"4","last_reported":1737634673,"current_range_meters":17600,"station_id":"ce4bgpp2rcd13ifvqc3g","pricing_plan_id":"cebpf4jnsgd1na2vs0mg"},{"bike_id":"ce90fea6-ff2a-4d0b-bd4f-45ced0acf4c0","system_id":"levelo_inurba_marseille","lat":43.32354,"lon":5.3676,"is_reserved":false,"is_disabled":false,"rental_uris":{"android":"levelo://app?vid=ce90fea6-ff2a-4d0b-bd4f-45ced0acf4c0","ios":"levelo://app?vid=ce90fea6-ff2a-4d0b-bd4f-45ced0acf4c0"},"vehicle_type_id":"4","last_reported":1737634673,"current_range_meters":11600,"station_id":"ce4bhsh2rcd13ifvqi2g","pricing_plan_id":"cebpf4jnsgd1na2vs0mg"},{"bike_id":"86fd106f-ae3d-4a03-b71e-21f70bbbae9b","system_id":"levelo_inurba_marseille","lat":43.2781,"lon":5.40712,"is_reserved":false,"is_disabled":false,"rental_uris":{"android":"levelo://app?vid=86fd106f-ae3d-4a03-b71e-21f70bbbae9b","ios":"levelo://app?vid=86fd106f-ae3d-4a03-b71e-21f70bbbae9b"},"vehicle_type_id":"4","last_reported":1737634673,"current_range_meters":37600,"station_id":"ce4bhnh2rcd13ifvqgtg","pricing_plan_id":"cebpf4jnsgd1na2vs0mg"},{"bike_id":"ab13439f-1c4b-4b83-ac72-9f4e6d1f64cb","system_id":"levelo_inurba_marseille","lat":43.3124,"lon":5.37977,"is_reserved":false,"is_disabled":true,"rental_uris":{"android":"levelo://app?vid=ab13439f-1c4b-4b83-ac72-9f4e6d1f64cb","ios":"levelo://app?vid=ab13439f-1c4b-4b83-ac72-9f4e6d1f64cb"},"vehicle_type_id":"4","last_reported":1737634673,"current_range_meters":10800,"station_id":"","pricing_plan_id":"cebpf4jnsgd1na2vs0mg"},{"bike_id":"02394dc5-85af-47df-a8e1-31c154c9e2cc","system_id":"levelo_inurba_marseille","lat":43.23183,"lon":5.39988,"is_reserved":false,"is_disabled":false,"rental_uris":{"android":"levelo://app?vid=02394dc5-85af-47df-a8e1-31c154c9e2cc","ios":"levelo://app?vid=02394dc5-85af-47df-a8e1-31c154c9e2cc"},"vehicle_type_id":"4","last_reported":1737634673,"current_range_meters":38400,"station_id":"ce4bhn12rcd13ifvqgqg","pricing_plan_id":"cebpf4jnsgd1na2vs0mg"},{"bike_id":"66251f6e-6a8b-41ae-b74e-4c08db109cc9","system_id":"levelo_inurba_marseille","lat":43.28473,"lon":5.38425,"is_reserved":false,"is_disabled":false,"rental_uris":{"android":"levelo://app?vid=66251f6e-6a8b-41ae-b74e-4c08db109cc9","ios":"levelo://app?vid=66251f6e-6a8b-41ae-b74e-4c08db109cc9"},"vehicle_type_id":"4","last_reported":1737634673,"current_range_meters":38800,"station_id":"ce4bh512rcd13ifvqe3g","pricing_plan_id":"cebpf4jnsgd1na2vs0mg"},{"bike_id":"9852a9dc-943a-442f-9475-a08ad558062a","system_id":"levelo_inurba_marseille","lat":43.30252,"lon":5.37711,"is_reserved":false,"is_disabled":false,"rental_uris":{"android":"levelo://app?vid=9852a9dc-943a-442f-9475-a08ad558062a","ios":"levelo://app?vid=9852a9dc-943a-442f-9475-a08ad558062a"},"vehicle_type_id":"4","last_reported":1737634673,"current_range_meters":39200,"station_id":"ce4bguh2rcd13ifvqcj0","pricing_plan_id":"cebpf4jnsgd1na2vs0mg"},{"bike_id":"837539cb-62d1-43d7-a8c4-c244ce73cb62","system_id":"levelo_inurba_marseille","lat":43.29001,"lon":5.35615,"is_reserved":false,"is_disabled":false,"rental_uris":{"android":"levelo://app?vid=837539cb-62d1-43d7-a8c4-c244ce73cb62","ios":"levelo://app?vid=837539cb-62d1-43d7-a8c4-c244ce73cb62"},"vehicle_type_id":"4","last_reported":1737634673,"current_range_meters":38000,"station_id":"ce4bhb92rcd13ifvqen0","pricing_plan_id":"cebpf4jnsgd1na2vs0mg"},{"bike_id":"704b9ac4-08a6-48ef-85ea-bb2a6455baf7","system_id":"levelo_inurba_marseille","lat":43.26231,"lon":5.37958,"is_reserved":false,"is_disabled":false,"rental_uris":{"android":"levelo://app?vid=704b9ac4-08a6-48ef-85ea-bb2a6455baf7","ios":"levelo://app?vid=704b9ac4-08a6-48ef-85ea-bb2a6455baf7"},"vehicle_type_id":"4","last_reported":1737634673,"current_range_meters":37600,"station_id":"ce4bhjp2rcd13ifvqg90","pricing_plan_id":"cebpf4jnsgd1na2vs0mg"},{"bike_id":"6d744f18-55f9-4353-afce-bf46cbe886e0","system_id":"levelo_inurba_marseille","lat":43.30154,"lon":5.38095,"is_reserved":false,"is_disabled":false,"rental_uris":{"android":"levelo://app?vid=6d744f18-55f9-4353-afce-bf46cbe886e0","ios":"levelo://app?vid=6d744f18-55f9-4353-afce-bf46cbe886e0"},"vehicle_type_id":"4","last_reported":1737634673,"current_range_meters":23200,"station_id":"ce4bgjp2rcd13ifvqbh0","pricing_plan_id":"cebpf4jnsgd1na2vs0mg"},{"bike_id":"cb89451d-fcbc-47ab-bfa4-263d9c5e103c","system_id":"levelo_inurba_marseille","lat":43.2506,"lon":5.38972,"is_reserved":false,"is_disabled":false,"rental_uris":{"android":"levelo://app?vid=cb89451d-fcbc-47ab-bfa4-263d9c5e103c","ios":"levelo://app?vid=cb89451d-fcbc-47ab-bfa4-263d9c5e103c"},"vehicle_type_id":"4","last_reported":1737634673,"current_range_meters":30000,"station_id":"","pricing_plan_id":"cebpf4jnsgd1na2vs0mg"},{"bike_id":"c4db15ea-eb22-409d-a92c-518ac96d96dd","system_id":"levelo_inurba_marseille","lat":43.29559,"lon":5.42282,"is_reserved":false,"is_disabled":false,"rental_uris":{"android":"levelo://app?vid=c4db15ea-eb22-409d-a92c-518ac96d96dd","ios":"levelo://app?vid=c4db15ea-eb22-409d-a92c-518ac96d96dd"},"vehicle_type_id":"4","last_reported":1737634673,"current_range_meters":37600,"station_id":"ce4bhph2rcd13ifvqhdg","pricing_plan_id":"cebpf4jnsgd1na2vs0mg"},{"bike_id":"46a16965-217f-4855-9470-a2b7a22c118c","system_id":"levelo_inurba_marseille","lat":43.29573,"lon":5.37539,"is_reserved":false,"is_disabled":false,"rental_uris":{"android":"levelo://app?vid=46a16965-217f-4855-9470-a2b7a22c118c","ios":"levelo://app?vid=46a16965-217f-4855-9470-a2b7a22c118c"},"vehicle_type_id":"4","last_reported":1737634673,"current_range_meters":38400,"station_id":"ce4bgh92rcd13ifvqb50","pricing_plan_id":"cebpf4jnsgd1na2vs0mg"},{"bike_id":"2876aca2-4ddb-4f16-984a-1efd2877960c","system_id":"levelo_inurba_marseille","lat":43.33722,"lon":5.39203,"is_reserved":false,"is_disabled":false,"rental_uris":{"android":"levelo://app?vid=2876aca2-4ddb-4f16-984a-1efd2877960c","ios":"levelo://app?vid=2876aca2-4ddb-4f16-984a-1efd2877960c"},"vehicle_type_id":"4","last_reported":1737634673,"current_range_meters":28800,"station_id":"ce4bhr92rcd13ifvqhsg","pricing_plan_id":"cebpf4jnsgd1na2vs0mg"},{"bike_id":"3a584a2d-0bec-48d3-bef1-1f525427e3b5","system_id":"levelo_inurba_marseille","lat":43.31316,"lon":5.39703,"is_reserved":false,"is_disabled":false,"rental_uris":{"android":"levelo://app?vid=3a584a2d-0bec-48d3-bef1-1f525427e3b5","ios":"levelo://app?vid=3a584a2d-0bec-48d3-bef1-1f525427e3b5"},"vehicle_type_id":"4","last_reported":1737634673,"current_range_meters":38800,"station_id":"ce4bgvp2rcd13ifvqcu0","pricing_plan_id":"cebpf4jnsgd1na2vs0mg"},{"bike_id":"feb8229e-62ad-4887-89d0-ca4f3ddac27a","system_id":"levelo_inurba_marseille","lat":43.27964,"lon":5.41039,"is_reserved":false,"is_disabled":false,"rental_uris":{"android":"levelo://app?vid=feb8229e-62ad-4887-89d0-ca4f3ddac27a","ios":"levelo://app?vid=feb8229e-62ad-4887-89d0-ca4f3ddac27a"},"vehicle_type_id":"4","last_reported":1737634673,"current_range_meters":8800,"station_id":"ce4bhnp2rcd13ifvqh0g","pricing_plan_id":"cebpf4jnsgd1na2vs0mg"},{"bike_id":"1bf316b5-e489-41ce-8231-0df992cb2b56","system_id":"levelo_inurba_marseille","lat":43.28703,"lon":5.3739,"is_reserved":false,"is_disabled":false,"rental_uris":{"android":"levelo://app?vid=1bf316b5-e489-41ce-8231-0df992cb2b56","ios":"levelo://app?vid=1bf316b5-e489-41ce-8231-0df992cb2b56"},"vehicle_type_id":"4","last_reported":1737634673,"current_range_meters":32000,"station_id":"ce4bh3p2rcd13ifvqdq0","pricing_plan_id":"cebpf4jnsgd1na2vs0mg"},{"bike_id":"fc0abc3e-3dd9-4426-bd49-faf33e935976","system_id":"levelo_inurba_marseille","lat":43.32464,"lon":5.36574,"is_reserved":false,"is_disabled":false,"rental_uris":{"android":"levelo://app?vid=fc0abc3e-3dd9-4426-bd49-faf33e935976","ios":"levelo://app?vid=fc0abc3e-3dd9-4426-bd49-faf33e935976"},"vehicle_type_id":"4","last_reported":1737634673,"current_range_meters":38400,"station_id":"ce4bhs12rcd13ifvqhvg","pricing_plan_id":"cebpf4jnsgd1na2vs0mg"},{"bike_id":"b961f1cf-d10d-49f9-8fe5-c156ac9fbab7","system_id":"levelo_inurba_marseille","lat":43.3018,"lon":5.38087,"is_reserved":false,"is_disabled":false,"rental_uris":{"android":"levelo://app?vid=b961f1cf-d10d-49f9-8fe5-c156ac9fbab7","ios":"levelo://app?vid=b961f1cf-d10d-49f9-8fe5-c156ac9fbab7"},"vehicle_type_id":"4","last_reported":1737634673,"current_range_meters":32800,"station_id":"ce4bgjp2rcd13ifvqbh0","pricing_plan_id":"cebpf4jnsgd1na2vs0mg"},{"bike_id":"4efc5514-0a44-4c66-b266-3dab8e95e965","system_id":"levelo_inurba_marseille","lat":43.26553,"lon":5.37285,"is_reserved":false,"is_disabled":false,"rental_uris":{"android":"levelo://app?vid=4efc5514-0a44-4c66-b266-3dab8e95e965","ios":"levelo://app?vid=4efc5514-0a44-4c66-b266-3dab8e95e965"},"vehicle_type_id":"4","last_reported":1737634673,"current_range_meters":34800,"station_id":"ce4bhg12rcd13ifvqf70","pricing_plan_id":"cebpf4jnsgd1na2vs0mg"},{"bike_id":"74385b3e-a1e2-45da-b999-b9bec4f5da04","system_id":"levelo_inurba_marseille","lat":43.27812,"lon":5.40709,"is_reserved":false,"is_disabled":false,"rental_uris":{"android":"levelo://app?vid=74385b3e-a1e2-45da-b999-b9bec4f5da04","ios":"levelo://app?vid=74385b3e-a1e2-45da-b999-b9bec4f5da04"},"vehicle_type_id":"4","last_reported":1737634673,"current_range_meters":38000,"station_id":"ce4bhnh2rcd13ifvqgtg","pricing_plan_id":"cebpf4jnsgd1na2vs0mg"},{"bike_id":"232b25b7-fa81-4630-9104-082348ac0480","system_id":"levelo_inurba_marseille","lat":43.27995,"lon":5.40024,"is_reserved":false,"is_disabled":false,"rental_uris":{"android":"levelo://app?vid=232b25b7-fa81-4630-9104-082348ac0480","ios":"levelo://app?vid=232b25b7-fa81-4630-9104-082348ac0480"},"vehicle_type_id":"4","last_reported":1737634673,"current_range_meters":39200,"station_id":"ce4bho92rcd13ifvqh4g","pricing_plan_id":"cebpf4jnsgd1na2vs0mg"},{"bike_id":"e27655d4-4288-4bf0-b85c-3c846dba64a1","system_id":"levelo_inurba_marseille","lat":43.29842,"lon":5.36276,"is_reserved":false,"is_disabled":false,"rental_uris":{"android":"levelo://app?vid=e27655d4-4288-4bf0-b85c-3c846dba64a1","ios":"levelo://app?vid=e27655d4-4288-4bf0-b85c-3c846dba64a1"},"vehicle_type_id":"4","last_reported":1737634673,"current_range_meters":37600,"station_id":"ce4bgpp2rcd13ifvqc3g","pricing_plan_id":"cebpf4jnsgd1na2vs0mg"},{"bike_id":"756b64bf-b173-4e2d-8867-91372006c70f","system_id":"levelo_inurba_marseille","lat":43.29793,"lon":5.40401,"is_reserved":false,"is_disabled":false,"rental_uris":{"android":"levelo://app?vid=756b64bf-b173-4e2d-8867-91372006c70f","ios":"levelo://app?vid=756b64bf-b173-4e2d-8867-91372006c70f"},"vehicle_type_id":"4","last_reported":1737634673,"current_range_meters":38000,"station_id":"ce4bh112rcd13ifvqd90","pricing_plan_id":"cebpf4jnsgd1na2vs0mg"},{"bike_id":"8da8cb2e-4804-4a75-b9d1-9b31a3de6fd6","system_id":"levelo_inurba_marseille","lat":43.26688,"lon":5.38257,"is_reserved":false,"is_disabled":false,"rental_uris":{"android":"levelo://app?vid=8da8cb2e-4804-4a75-b9d1-9b31a3de6fd6","ios":"levelo://app?vid=8da8cb2e-4804-4a75-b9d1-9b31a3de6fd6"},"vehicle_type_id":"4","last_reported":1737634673,"current_range_meters":38800,"station_id":"ce4bhg92rcd13ifvqf90","pricing_plan_id":"cebpf4jnsgd1na2vs0mg"},{"bike_id":"58ec83d8-fd2a-4ea1-a37e-b5f9bbb32c0e","system_id":"levelo_inurba_marseille","lat":43.30968,"lon":5.39061,"is_reserved":false,"is_disabled":false,"rental_uris":{"android":"levelo://app?vid=58ec83d8-fd2a-4ea1-a37e-b5f9bbb32c0e","ios":"levelo://app?vid=58ec83d8-fd2a-4ea1-a37e-b5f9bbb32c0e"},"vehicle_type_id":"4","last_reported":1737634673,"current_range_meters":37600,"station_id":"ce4bgup2rcd13ifvqco0","pricing_plan_id":"cebpf4jnsgd1na2vs0mg"},{"bike_id":"22b6b1e8-1d5b-445d-9ddc-66599efca459","system_id":"levelo_inurba_marseille","lat":43.26957,"lon":5.38637,"is_reserved":false,"is_disabled":false,"rental_uris":{"android":"levelo://app?vid=22b6b1e8-1d5b-445d-9ddc-66599efca459","ios":"levelo://app?vid=22b6b1e8-1d5b-445d-9ddc-66599efca459"},"vehicle_type_id":"4","last_reported":1737634673,"current_range_meters":37600,"station_id":"ce4bhh92rcd13ifvqfh0","pricing_plan_id":"cebpf4jnsgd1na2vs0mg"},{"bike_id":"b74d39f8-80a6-4e61-adba-4228ebac14e1","system_id":"levelo_inurba_marseille","lat":43.29526,"lon":5.394,"is_reserved":false,"is_disabled":false,"rental_uris":{"android":"levelo://app?vid=b74d39f8-80a6-4e61-adba-4228ebac14e1","ios":"levelo://app?vid=b74d39f8-80a6-4e61-adba-4228ebac14e1"},"vehicle_type_id":"4","last_reported":1737634673,"current_range_meters":10000,"station_id":"ce4bh292rcd13ifvqdf0","pricing_plan_id":"cebpf4jnsgd1na2vs0mg"},{"bike_id":"bdc9df5b-15df-4da6-8498-c1412c4f1ee3","system_id":"levelo_inurba_marseille","lat":43.26942,"lon":5.38637,"is_reserved":false,"is_disabled":false,"rental_uris":{"android":"levelo://app?vid=bdc9df5b-15df-4da6-8498-c1412c4f1ee3","ios":"levelo://app?vid=bdc9df5b-15df-4da6-8498-c1412c4f1ee3"},"vehicle_type_id":"4","last_reported":1737634673,"current_range_meters":36800,"station_id":"ce4bhh92rcd13ifvqfh0","pricing_plan_id":"cebpf4jnsgd1na2vs0mg"},{"bike_id":"8eb6afcd-9980-4ebe-a588-27f5af85469d","system_id":"levelo_inurba_marseille","lat":43.269531,"lon":5.386426,"is_reserved":false,"is_disabled":false,"rental_uris":{"android":"levelo://app?vid=8eb6afcd-9980-4ebe-a588-27f5af85469d","ios":"levelo://app?vid=8eb6afcd-9980-4ebe-a588-27f5af85469d"},"vehicle_type_id":"4","last_reported":1737634673,"current_range_meters":17600,"station_id":"ce4bhh92rcd13ifvqfh0","pricing_plan_id":"cebpf4jnsgd1na2vs0mg"},{"bike_id":"eec29bcc-4db9-490c-8509-0569ef65d3a4","system_id":"levelo_inurba_marseille","lat":43.23144,"lon":5.43716,"is_reserved":false,"is_disabled":false,"rental_uris":{"android":"levelo://app?vid=eec29bcc-4db9-490c-8509-0569ef65d3a4","ios":"levelo://app?vid=eec29bcc-4db9-490c-8509-0569ef65d3a4"},"vehicle_type_id":"4","last_reported":1737634673,"current_range_meters":38800,"station_id":"ce4bhmp2rcd13ifvqgog","pricing_plan_id":"cebpf4jnsgd1na2vs0mg"},{"bike_id":"91151293-54a7-4717-83f7-c5a75314aca3","system_id":"levelo_inurba_marseille","lat":43.25014,"lon":5.38942,"is_reserved":false,"is_disabled":false,"rental_uris":{"android":"levelo://app?vid=91151293-54a7-4717-83f7-c5a75314aca3","ios":"levelo://app?vid=91151293-54a7-4717-83f7-c5a75314aca3"},"vehicle_type_id":"4","last_reported":1737634673,"current_range_meters":16000,"station_id":"ce4bhgp2rcd13ifvqfd0","pricing_plan_id":"cebpf4jnsgd1na2vs0mg"},{"bike_id":"daffd692-6c5d-4858-8c0d-e6ae53133e65","system_id":"levelo_inurba_marseille","lat":43.29038,"lon":5.37576,"is_reserved":false,"is_disabled":false,"rental_uris":{"android":"levelo://app?vid=daffd692-6c5d-4858-8c0d-e6ae53133e65","ios":"levelo://app?vid=daffd692-6c5d-4858-8c0d-e6ae53133e65"},"vehicle_type_id":"4","last_reported":1737634673,"current_range_meters":25200,"station_id":"ce4bh692rcd13ifvqe90","pricing_plan_id":"cebpf4jnsgd1na2vs0mg"},{"bike_id":"5e0169dd-cfb6-4345-b9e5-59ab64e75e4d","system_id":"levelo_inurba_marseille","lat":43.32292,"lon":5.38275,"is_reserved":false,"is_disabled":false,"rental_uris":{"android":"levelo://app?vid=5e0169dd-cfb6-4345-b9e5-59ab64e75e4d","ios":"levelo://app?vid=5e0169dd-cfb6-4345-b9e5-59ab64e75e4d"},"vehicle_type_id":"4","last_reported":1737634673,"current_range_meters":38800,"station_id":"ce4bhr12rcd13ifvqhqg","pricing_plan_id":"cebpf4jnsgd1na2vs0mg"},{"bike_id":"a20b0889-fcde-4bac-9035-b7a880de8195","system_id":"levelo_inurba_marseille","lat":43.27617,"lon":5.36126,"is_reserved":false,"is_disabled":false,"rental_uris":{"android":"levelo://app?vid=a20b0889-fcde-4bac-9035-b7a880de8195","ios":"levelo://app?vid=a20b0889-fcde-4bac-9035-b7a880de8195"},"vehicle_type_id":"4","last_reported":1737634673,"current_range_meters":9600,"station_id":"ce4bgj92rcd13ifvqbe0","pricing_plan_id":"cebpf4jnsgd1na2vs0mg"},{"bike_id":"7e12bac6-cebf-4c8f-87a6-900830835768","system_id":"levelo_inurba_marseille","lat":43.29416,"lon":5.38624,"is_reserved":false,"is_disabled":false,"rental_uris":{"android":"levelo://app?vid=7e12bac6-cebf-4c8f-87a6-900830835768","ios":"levelo://app?vid=7e12bac6-cebf-4c8f-87a6-900830835768"},"vehicle_type_id":"4","last_reported":1737634673,"current_range_meters":38800,"station_id":"ce4bh2h2rcd13ifvqdh0","pricing_plan_id":"cebpf4jnsgd1na2vs0mg"},{"bike_id":"58bd67b2-eea0-4ad2-8092-8cb589d6733b","system_id":"levelo_inurba_marseille","lat":43.30806,"lon":5.4354,"is_reserved":false,"is_disabled":false,"rental_uris":{"android":"levelo://app?vid=58bd67b2-eea0-4ad2-8092-8cb589d6733b","ios":"levelo://app?vid=58bd67b2-eea0-4ad2-8092-8cb589d6733b"},"vehicle_type_id":"4","last_reported":1737634673,"current_range_meters":5600,"station_id":"ce4bhph2rcd13ifvqheg","pricing_plan_id":"cebpf4jnsgd1na2vs0mg"},{"bike_id":"b7484b8b-3a71-45d6-b948-aa32b13a1995","system_id":"levelo_inurba_marseille","lat":43.29883,"lon":5.43675,"is_reserved":false,"is_disabled":false,"rental_uris":{"android":"levelo://app?vid=b7484b8b-3a71-45d6-b948-aa32b13a1995","ios":"levelo://app?vid=b7484b8b-3a71-45d6-b948-aa32b13a1995"},"vehicle_type_id":"4","last_reported":1737634673,"current_range_meters":19200,"station_id":"ce4bhpp2rcd13ifvqhfg","pricing_plan_id":"cebpf4jnsgd1na2vs0mg"},{"bike_id":"174ef919-1de8-4476-8071-7ce5e1cde64a","system_id":"levelo_inurba_marseille","lat":43.26948,"lon":5.38629,"is_reserved":false,"is_disabled":false,"rental_uris":{"android":"levelo://app?vid=174ef919-1de8-4476-8071-7ce5e1cde64a","ios":"levelo://app?vid=174ef919-1de8-4476-8071-7ce5e1cde64a"},"vehicle_type_id":"4","last_reported":1737634673,"current_range_meters":22800,"station_id":"ce4bhh92rcd13ifvqfh0","pricing_plan_id":"cebpf4jnsgd1na2vs0mg"},{"bike_id":"3a9ffe19-36eb-4ecb-a745-2c76908c6c21","system_id":"levelo_inurba_marseille","lat":43.29296,"lon":5.40119,"is_reserved":false,"is_disabled":false,"rental_uris":{"android":"levelo://app?vid=3a9ffe19-36eb-4ecb-a745-2c76908c6c21","ios":"levelo://app?vid=3a9ffe19-36eb-4ecb-a745-2c76908c6c21"},"vehicle_type_id":"4","last_reported":1737634673,"current_range_meters":24400,"station_id":"ce4bh312rcd13ifvqdk0","pricing_plan_id":"cebpf4jnsgd1na2vs0mg"},{"bike_id":"549b1928-e1cf-4e8f-979d-82ddd1e2f667","system_id":"levelo_inurba_marseille","lat":43.31896,"lon":5.40735,"is_reserved":false,"is_disabled":false,"rental_uris":{"android":"levelo://app?vid=549b1928-e1cf-4e8f-979d-82ddd1e2f667","ios":"levelo://app?vid=549b1928-e1cf-4e8f-979d-82ddd1e2f667"},"vehicle_type_id":"4","last_reported":1737634673,"current_range_meters":38800,"station_id":"ce4bhq12rcd13ifvqhig","pricing_plan_id":"cebpf4jnsgd1na2vs0mg"},{"bike_id":"96cda4c7-fc0d-4970-8088-9d09b17097e5","system_id":"levelo_inurba_marseille","lat":43.30885,"lon":5.39659,"is_reserved":false,"is_disabled":false,"rental_uris":{"android":"levelo://app?vid=96cda4c7-fc0d-4970-8088-9d09b17097e5","ios":"levelo://app?vid=96cda4c7-fc0d-4970-8088-9d09b17097e5"},"vehicle_type_id":"4","last_reported":1737634673,"current_range_meters":30000,"station_id":"ce4bh012rcd13ifvqcv0","pricing_plan_id":"cebpf4jnsgd1na2vs0mg"},{"bike_id":"d9f4f2e8-8967-412a-b305-5086ad38794d","system_id":"levelo_inurba_marseille","lat":43.32032,"lon":5.41577,"is_reserved":false,"is_disabled":false,"rental_uris":{"android":"levelo://app?vid=d9f4f2e8-8967-412a-b305-5086ad38794d","ios":"levelo://app?vid=d9f4f2e8-8967-412a-b305-5086ad38794d"},"vehicle_type_id":"4","last_reported":1737634673,"current_range_meters":38800,"station_id":"ce4bhq92rcd13ifvqhkg","pricing_plan_id":"cebpf4jnsgd1na2vs0mg"},{"bike_id":"4ec96207-5c88-4957-875c-7fb36b853318","system_id":"levelo_inurba_marseille","lat":43.30953,"lon":5.39036,"is_reserved":false,"is_disabled":false,"rental_uris":{"android":"levelo://app?vid=4ec96207-5c88-4957-875c-7fb36b853318","ios":"levelo://app?vid=4ec96207-5c88-4957-875c-7fb36b853318"},"vehicle_type_id":"4","last_reported":1737634673,"current_range_meters":10000,"station_id":"ce4bgup2rcd13ifvqco0","pricing_plan_id":"cebpf4jnsgd1na2vs0mg"},{"bike_id":"9863b7f9-4316-4322-9f6c-3cc66b0448e2","system_id":"levelo_inurba_marseille","lat":43.279439,"lon":5.389008,"is_reserved":false,"is_disabled":true,"rental_uris":{"android":"levelo://app?vid=9863b7f9-4316-4322-9f6c-3cc66b0448e2","ios":"levelo://app?vid=9863b7f9-4316-4322-9f6c-3cc66b0448e2"},"vehicle_type_id":"4","last_reported":1737634673,"current_range_meters":24800,"station_id":"","pricing_plan_id":"cebpf4jnsgd1na2vs0mg"},{"bike_id":"8741379d-312c-4f8a-874b-6f14433f6a99","system_id":"levelo_inurba_marseille","lat":43.30545,"lon":5.36549,"is_reserved":false,"is_disabled":false,"rental_uris":{"android":"levelo://app?vid=8741379d-312c-4f8a-874b-6f14433f6a99","ios":"levelo://app?vid=8741379d-312c-4f8a-874b-6f14433f6a99"},"vehicle_type_id":"4","last_reported":1737634673,"current_range_meters":35600,"station_id":"ce4bgs12rcd13ifvqcag","pricing_plan_id":"cebpf4jnsgd1na2vs0mg"},{"bike_id":"64cf802f-cbd1-409b-bfe4-2bc11c4fc193","system_id":"levelo_inurba_marseille","lat":43.25491,"lon":5.37652,"is_reserved":false,"is_disabled":false,"rental_uris":{"android":"levelo://app?vid=64cf802f-cbd1-409b-bfe4-2bc11c4fc193","ios":"levelo://app?vid=64cf802f-cbd1-409b-bfe4-2bc11c4fc193"},"vehicle_type_id":"4","last_reported":1737634673,"current_range_meters":38800,"station_id":"ce4bhh12rcd13ifvqff0","pricing_plan_id":"cebpf4jnsgd1na2vs0mg"},{"bike_id":"fa4cd009-3aad-46ce-b167-d7c86de01955","system_id":"levelo_inurba_marseille","lat":43.32457,"lon":5.36573,"is_reserved":false,"is_disabled":false,"rental_uris":{"android":"levelo://app?vid=fa4cd009-3aad-46ce-b167-d7c86de01955","ios":"levelo://app?vid=fa4cd009-3aad-46ce-b167-d7c86de01955"},"vehicle_type_id":"4","last_reported":1737634673,"current_range_meters":24400,"station_id":"ce4bhs12rcd13ifvqhvg","pricing_plan_id":"cebpf4jnsgd1na2vs0mg"},{"bike_id":"b3fcf7c5-647c-465f-bfe0-1159d14a276e","system_id":"levelo_inurba_marseille","lat":43.24384,"lon":5.37062,"is_reserved":false,"is_disabled":false,"rental_uris":{"android":"levelo://app?vid=b3fcf7c5-647c-465f-bfe0-1159d14a276e","ios":"levelo://app?vid=b3fcf7c5-647c-465f-bfe0-1159d14a276e"},"vehicle_type_id":"4","last_reported":1737634673,"current_range_meters":22400,"station_id":"ce4bhhh2rcd13ifvqfk0","pricing_plan_id":"cebpf4jnsgd1na2vs0mg"},{"bike_id":"f6bcc381-6021-4797-bc8e-060033671de3","system_id":"levelo_inurba_marseille","lat":43.31488,"lon":5.37313,"is_reserved":false,"is_disabled":false,"rental_uris":{"android":"levelo://app?vid=f6bcc381-6021-4797-bc8e-060033671de3","ios":"levelo://app?vid=f6bcc381-6021-4797-bc8e-060033671de3"},"vehicle_type_id":"4","last_reported":1737634673,"current_range_meters":25600,"station_id":"ce4bgt12rcd13ifvqcd0","pricing_plan_id":"cebpf4jnsgd1na2vs0mg"},{"bike_id":"dfbd27e7-12bf-4812-80d1-488dbaf230dc","system_id":"levelo_inurba_marseille","lat":43.32471,"lon":5.3656,"is_reserved":false,"is_disabled":false,"rental_uris":{"android":"levelo://app?vid=dfbd27e7-12bf-4812-80d1-488dbaf230dc","ios":"levelo://app?vid=dfbd27e7-12bf-4812-80d1-488dbaf230dc"},"vehicle_type_id":"4","last_reported":1737634673,"current_range_meters":22800,"station_id":"ce4bhs12rcd13ifvqhvg","pricing_plan_id":"cebpf4jnsgd1na2vs0mg"},{"bike_id":"f9c1a640-291d-40bd-8de6-70023d0d3da3","system_id":"levelo_inurba_marseille","lat":43.29565,"lon":5.37526,"is_reserved":false,"is_disabled":false,"rental_uris":{"android":"levelo://app?vid=f9c1a640-291d-40bd-8de6-70023d0d3da3","ios":"levelo://app?vid=f9c1a640-291d-40bd-8de6-70023d0d3da3"},"vehicle_type_id":"4","last_reported":1737634673,"current_range_meters":30000,"station_id":"ce4bgh92rcd13ifvqb50","pricing_plan_id":"cebpf4jnsgd1na2vs0mg"},{"bike_id":"6d9a4246-24ff-446a-b261-6af59c8b56bf","system_id":"levelo_inurba_marseille","lat":43.298412,"lon":5.362639,"is_reserved":false,"is_disabled":false,"rental_uris":{"android":"levelo://app?vid=6d9a4246-24ff-446a-b261-6af59c8b56bf","ios":"levelo://app?vid=6d9a4246-24ff-446a-b261-6af59c8b56bf"},"vehicle_type_id":"4","last_reported":1737634673,"current_range_meters":24400,"station_id":"ce4bgpp2rcd13ifvqc3g","pricing_plan_id":"cebpf4jnsgd1na2vs0mg"},{"bike_id":"9d70093b-2458-4375-98c3-1b6c1d9708c9","system_id":"levelo_inurba_marseille","lat":43.2464,"lon":5.38173,"is_reserved":false,"is_disabled":false,"rental_uris":{"android":"levelo://app?vid=9d70093b-2458-4375-98c3-1b6c1d9708c9","ios":"levelo://app?vid=9d70093b-2458-4375-98c3-1b6c1d9708c9"},"vehicle_type_id":"4","last_reported":1737634673,"current_range_meters":12400,"station_id":"ce4bhih2rcd13ifvqfr0","pricing_plan_id":"cebpf4jnsgd1na2vs0mg"},{"bike_id":"b8522101-a8dc-4556-9aa4-7546debea75f","system_id":"levelo_inurba_marseille","lat":43.337203,"lon":5.391815,"is_reserved":false,"is_disabled":false,"rental_uris":{"android":"levelo://app?vid=b8522101-a8dc-4556-9aa4-7546debea75f","ios":"levelo://app?vid=b8522101-a8dc-4556-9aa4-7546debea75f"},"vehicle_type_id":"4","last_reported":1737634673,"current_range_meters":39200,"station_id":"ce4bhr92rcd13ifvqhsg","pricing_plan_id":"cebpf4jnsgd1na2vs0mg"},{"bike_id":"49052dc3-4d8a-4007-89e4-6a2b13d47195","system_id":"levelo_inurba_marseille","lat":43.24406,"lon":5.37064,"is_reserved":false,"is_disabled":false,"rental_uris":{"android":"levelo://app?vid=49052dc3-4d8a-4007-89e4-6a2b13d47195","ios":"levelo://app?vid=49052dc3-4d8a-4007-89e4-6a2b13d47195"},"vehicle_type_id":"4","last_reported":1737634673,"current_range_meters":10000,"station_id":"ce4bhhh2rcd13ifvqfk0","pricing_plan_id":"cebpf4jnsgd1na2vs0mg"},{"bike_id":"13404d01-1c7c-4d4b-bb24-e98755f8bf24","system_id":"levelo_inurba_marseille","lat":43.3055,"lon":5.36704,"is_reserved":false,"is_disabled":false,"rental_uris":{"android":"levelo://app?vid=13404d01-1c7c-4d4b-bb24-e98755f8bf24","ios":"levelo://app?vid=13404d01-1c7c-4d4b-bb24-e98755f8bf24"},"vehicle_type_id":"4","last_reported":1737634673,"current_range_meters":32800,"station_id":"ce4bgrp2rcd13ifvqc9g","pricing_plan_id":"cebpf4jnsgd1na2vs0mg"},{"bike_id":"348b588a-aba8-4aac-81d3-e8857bc56a3a","system_id":"levelo_inurba_marseille","lat":43.27674,"lon":5.38895,"is_reserved":false,"is_disabled":false,"rental_uris":{"android":"levelo://app?vid=348b588a-aba8-4aac-81d3-e8857bc56a3a","ios":"levelo://app?vid=348b588a-aba8-4aac-81d3-e8857bc56a3a"},"vehicle_type_id":"4","last_reported":1737634673,"current_range_meters":20800,"station_id":"ce4bhi12rcd13ifvqfo0","pricing_plan_id":"cebpf4jnsgd1na2vs0mg"},{"bike_id":"e6d69e77-2426-40e6-8b56-caff4d581c0e","system_id":"levelo_inurba_marseille","lat":43.29554,"lon":5.42282,"is_reserved":false,"is_disabled":false,"rental_uris":{"android":"levelo://app?vid=e6d69e77-2426-40e6-8b56-caff4d581c0e","ios":"levelo://app?vid=e6d69e77-2426-40e6-8b56-caff4d581c0e"},"vehicle_type_id":"4","last_reported":1737634673,"current_range_meters":38800,"station_id":"ce4bhph2rcd13ifvqhdg","pricing_plan_id":"cebpf4jnsgd1na2vs0mg"},{"bike_id":"7c78a755-c7f5-4f07-a96b-621451d47948","system_id":"levelo_inurba_marseille","lat":43.29897,"lon":5.4367,"is_reserved":false,"is_disabled":false,"rental_uris":{"android":"levelo://app?vid=7c78a755-c7f5-4f07-a96b-621451d47948","ios":"levelo://app?vid=7c78a755-c7f5-4f07-a96b-621451d47948"},"vehicle_type_id":"4","last_reported":1737634673,"current_range_meters":6400,"station_id":"ce4bhpp2rcd13ifvqhfg","pricing_plan_id":"cebpf4jnsgd1na2vs0mg"},{"bike_id":"f95f3e4e-165e-420c-a2ee-ca3c4bfc1b3d","system_id":"levelo_inurba_marseille","lat":43.28856,"lon":5.35856,"is_reserved":false,"is_disabled":false,"rental_uris":{"android":"levelo://app?vid=f95f3e4e-165e-420c-a2ee-ca3c4bfc1b3d","ios":"levelo://app?vid=f95f3e4e-165e-420c-a2ee-ca3c4bfc1b3d"},"vehicle_type_id":"4","last_reported":1737634673,"current_range_meters":26800,"station_id":"ce4bhb12rcd13ifvqem0","pricing_plan_id":"cebpf4jnsgd1na2vs0mg"},{"bike_id":"26e8235e-1368-401b-8234-f0b5225ccf46","system_id":"levelo_inurba_marseille","lat":43.29557,"lon":5.37529,"is_reserved":false,"is_disabled":false,"rental_uris":{"android":"levelo://app?vid=26e8235e-1368-401b-8234-f0b5225ccf46","ios":"levelo://app?vid=26e8235e-1368-401b-8234-f0b5225ccf46"},"vehicle_type_id":"4","last_reported":1737634673,"current_range_meters":38800,"station_id":"ce4bgkp2rcd13ifvqbmg","pricing_plan_id":"cebpf4jnsgd1na2vs0mg"},{"bike_id":"54e1f813-16b9-419c-95d3-f3d2b03cb737","system_id":"levelo_inurba_marseille","lat":43.29002,"lon":5.35607,"is_reserved":false,"is_disabled":false,"rental_uris":{"android":"levelo://app?vid=54e1f813-16b9-419c-95d3-f3d2b03cb737","ios":"levelo://app?vid=54e1f813-16b9-419c-95d3-f3d2b03cb737"},"vehicle_type_id":"4","last_reported":1737634673,"current_range_meters":2800,"station_id":"ce4bhb92rcd13ifvqen0","pricing_plan_id":"cebpf4jnsgd1na2vs0mg"},{"bike_id":"16f0e6b5-d946-47d2-a97c-ad19d0c1e9a1","system_id":"levelo_inurba_marseille","lat":43.3088,"lon":5.36886,"is_reserved":false,"is_disabled":false,"rental_uris":{"android":"levelo://app?vid=16f0e6b5-d946-47d2-a97c-ad19d0c1e9a1","ios":"levelo://app?vid=16f0e6b5-d946-47d2-a97c-ad19d0c1e9a1"},"vehicle_type_id":"4","last_reported":1737634673,"current_range_meters":30400,"station_id":"ce4bgn92rcd13ifvqbvg","pricing_plan_id":"cebpf4jnsgd1na2vs0mg"},{"bike_id":"23cbf68b-004a-4a92-9108-cf5e88d72d1d","system_id":"levelo_inurba_marseille","lat":43.27224,"lon":5.39093,"is_reserved":false,"is_disabled":false,"rental_uris":{"android":"levelo://app?vid=23cbf68b-004a-4a92-9108-cf5e88d72d1d","ios":"levelo://app?vid=23cbf68b-004a-4a92-9108-cf5e88d72d1d"},"vehicle_type_id":"4","last_reported":1737634673,"current_range_meters":39200,"station_id":"ce4bhgp2rcd13ifvqfe0","pricing_plan_id":"cebpf4jnsgd1na2vs0mg"},{"bike_id":"61bf316f-0513-43b6-a2aa-f78552ff6504","system_id":"levelo_inurba_marseille","lat":43.319013,"lon":5.407283,"is_reserved":false,"is_disabled":false,"rental_uris":{"android":"levelo://app?vid=61bf316f-0513-43b6-a2aa-f78552ff6504","ios":"levelo://app?vid=61bf316f-0513-43b6-a2aa-f78552ff6504"},"vehicle_type_id":"4","last_reported":1737634673,"current_range_meters":32000,"station_id":"ce4bhq12rcd13ifvqhig","pricing_plan_id":"cebpf4jnsgd1na2vs0mg"},{"bike_id":"353c5000-308f-4e52-b5ab-b4f9e01dae3e","system_id":"levelo_inurba_marseille","lat":43.29194,"lon":5.35815,"is_reserved":false,"is_disabled":false,"rental_uris":{"android":"levelo://app?vid=353c5000-308f-4e52-b5ab-b4f9e01dae3e","ios":"levelo://app?vid=353c5000-308f-4e52-b5ab-b4f9e01dae3e"},"vehicle_type_id":"4","last_reported":1737634673,"current_range_meters":36400,"station_id":"ce4bhb12rcd13ifvqel0","pricing_plan_id":"cebpf4jnsgd1na2vs0mg"},{"bike_id":"e4758cb0-0367-4c65-b523-571a72650646","system_id":"levelo_inurba_marseille","lat":43.30539,"lon":5.36557,"is_reserved":false,"is_disabled":true,"rental_uris":{"android":"levelo://app?vid=e4758cb0-0367-4c65-b523-571a72650646","ios":"levelo://app?vid=e4758cb0-0367-4c65-b523-571a72650646"},"vehicle_type_id":"4","last_reported":1737634673,"current_range_meters":38800,"station_id":"ce4bgs12rcd13ifvqcag","pricing_plan_id":"cebpf4jnsgd1na2vs0mg"},{"bike_id":"26d96d78-7a29-4ec5-93ac-79ad4342b085","system_id":"levelo_inurba_marseille","lat":43.31317,"lon":5.39744,"is_reserved":false,"is_disabled":false,"rental_uris":{"android":"levelo://app?vid=26d96d78-7a29-4ec5-93ac-79ad4342b085","ios":"levelo://app?vid=26d96d78-7a29-4ec5-93ac-79ad4342b085"},"vehicle_type_id":"4","last_reported":1737634673,"current_range_meters":39200,"station_id":"ce4bgvp2rcd13ifvqcu0","pricing_plan_id":"cebpf4jnsgd1na2vs0mg"},{"bike_id":"d96f7a91-42fe-404b-b108-4c7a0d7b5adf","system_id":"levelo_inurba_marseille","lat":43.33605,"lon":5.41025,"is_reserved":false,"is_disabled":true,"rental_uris":{"android":"levelo://app?vid=d96f7a91-42fe-404b-b108-4c7a0d7b5adf","ios":"levelo://app?vid=d96f7a91-42fe-404b-b108-4c7a0d7b5adf"},"vehicle_type_id":"4","last_reported":1737634673,"current_range_meters":12400,"station_id":"ce4bhqh2rcd13ifvqhmg","pricing_plan_id":"cebpf4jnsgd1na2vs0mg"},{"bike_id":"9a608c2a-d7d1-4fd2-9b9f-3f3d37f691e1","system_id":"levelo_inurba_marseille","lat":43.26491,"lon":5.39543,"is_reserved":false,"is_disabled":false,"rental_uris":{"android":"levelo://app?vid=9a608c2a-d7d1-4fd2-9b9f-3f3d37f691e1","ios":"levelo://app?vid=9a608c2a-d7d1-4fd2-9b9f-3f3d37f691e1"},"vehicle_type_id":"4","last_reported":1737634673,"current_range_meters":25200,"station_id":"ce4bhi12rcd13ifvqfq0","pricing_plan_id":"cebpf4jnsgd1na2vs0mg"},{"bike_id":"740ca7dc-7fcb-49cd-8b20-28b6f7632f45","system_id":"levelo_inurba_marseille","lat":43.30208,"lon":5.39477,"is_reserved":false,"is_disabled":true,"rental_uris":{"android":"levelo://app?vid=740ca7dc-7fcb-49cd-8b20-28b6f7632f45","ios":"levelo://app?vid=740ca7dc-7fcb-49cd-8b20-28b6f7632f45"},"vehicle_type_id":"4","last_reported":1737634673,"current_range_meters":1200,"station_id":"ce4bh0p2rcd13ifvqd70","pricing_plan_id":"cebpf4jnsgd1na2vs0mg"},{"bike_id":"45ced62f-de34-41b1-8694-45e63f90aeb4","system_id":"levelo_inurba_marseille","lat":43.2904,"lon":5.37578,"is_reserved":false,"is_disabled":false,"rental_uris":{"android":"levelo://app?vid=45ced62f-de34-41b1-8694-45e63f90aeb4","ios":"levelo://app?vid=45ced62f-de34-41b1-8694-45e63f90aeb4"},"vehicle_type_id":"4","last_reported":1737634673,"current_range_meters":25200,"station_id":"ce4bh692rcd13ifvqe90","pricing_plan_id":"cebpf4jnsgd1na2vs0mg"},{"bike_id":"8210b62d-a1a5-4f4c-8046-84672334af72","system_id":"levelo_inurba_marseille","lat":43.25121,"lon":5.40326,"is_reserved":false,"is_disabled":false,"rental_uris":{"android":"levelo://app?vid=8210b62d-a1a5-4f4c-8046-84672334af72","ios":"levelo://app?vid=8210b62d-a1a5-4f4c-8046-84672334af72"},"vehicle_type_id":"4","last_reported":1737634673,"current_range_meters":32400,"station_id":"ce4bhlh2rcd13ifvqgig","pricing_plan_id":"cebpf4jnsgd1na2vs0mg"},{"bike_id":"2cd225e8-e8e4-4fa5-ba4d-17057743961b","system_id":"levelo_inurba_marseille","lat":43.30265,"lon":5.40084,"is_reserved":false,"is_disabled":false,"rental_uris":{"android":"levelo://app?vid=2cd225e8-e8e4-4fa5-ba4d-17057743961b","ios":"levelo://app?vid=2cd225e8-e8e4-4fa5-ba4d-17057743961b"},"vehicle_type_id":"4","last_reported":1737634673,"current_range_meters":23200,"station_id":"ce4bgvh2rcd13ifvqcs0","pricing_plan_id":"cebpf4jnsgd1na2vs0mg"},{"bike_id":"88461d53-13e7-4744-ab4c-a734676217e6","system_id":"levelo_inurba_marseille","lat":43.28996,"lon":5.35614,"is_reserved":false,"is_disabled":false,"rental_uris":{"android":"levelo://app?vid=88461d53-13e7-4744-ab4c-a734676217e6","ios":"levelo://app?vid=88461d53-13e7-4744-ab4c-a734676217e6"},"vehicle_type_id":"4","last_reported":1737634673,"current_range_meters":38800,"station_id":"ce4bhb92rcd13ifvqen0","pricing_plan_id":"cebpf4jnsgd1na2vs0mg"},{"bike_id":"18a0e6bb-3553-4da6-9b72-3dec3a90636b","system_id":"levelo_inurba_marseille","lat":43.26945,"lon":5.38638,"is_reserved":false,"is_disabled":false,"rental_uris":{"android":"levelo://app?vid=18a0e6bb-3553-4da6-9b72-3dec3a90636b","ios":"levelo://app?vid=18a0e6bb-3553-4da6-9b72-3dec3a90636b"},"vehicle_type_id":"4","last_reported":1737634673,"current_range_meters":38400,"station_id":"ce4bhh92rcd13ifvqfh0","pricing_plan_id":"cebpf4jnsgd1na2vs0mg"},{"bike_id":"13ff516e-16cf-4543-8540-9030b8b296b4","system_id":"levelo_inurba_marseille","lat":43.23192,"lon":5.35569,"is_reserved":false,"is_disabled":false,"rental_uris":{"android":"levelo://app?vid=13ff516e-16cf-4543-8540-9030b8b296b4","ios":"levelo://app?vid=13ff516e-16cf-4543-8540-9030b8b296b4"},"vehicle_type_id":"4","last_reported":1737634673,"current_range_meters":29600,"station_id":"ce4bhu92rcd13ifvqi70","pricing_plan_id":"cebpf4jnsgd1na2vs0mg"},{"bike_id":"cfc89af8-d1e6-44fb-8681-7f2779980b23","system_id":"levelo_inurba_marseille","lat":43.26691,"lon":5.3827,"is_reserved":false,"is_disabled":false,"rental_uris":{"android":"levelo://app?vid=cfc89af8-d1e6-44fb-8681-7f2779980b23","ios":"levelo://app?vid=cfc89af8-d1e6-44fb-8681-7f2779980b23"},"vehicle_type_id":"4","last_reported":1737634673,"current_range_meters":24000,"station_id":"ce4bhg92rcd13ifvqf90","pricing_plan_id":"cebpf4jnsgd1na2vs0mg"},{"bike_id":"abcaddeb-ef33-40bf-993a-642efe58d038","system_id":"levelo_inurba_marseille","lat":43.273243,"lon":5.390747,"is_reserved":false,"is_disabled":true,"rental_uris":{"android":"levelo://app?vid=abcaddeb-ef33-40bf-993a-642efe58d038","ios":"levelo://app?vid=abcaddeb-ef33-40bf-993a-642efe58d038"},"vehicle_type_id":"4","last_reported":1737634673,"current_range_meters":36800,"station_id":"ce4bhgp2rcd13ifvqfe0","pricing_plan_id":"cebpf4jnsgd1na2vs0mg"},{"bike_id":"dc9afc0d-d533-431b-a32f-6f6423d7880b","system_id":"levelo_inurba_marseille","lat":43.31725,"lon":5.42413,"is_reserved":false,"is_disabled":true,"rental_uris":{"android":"levelo://app?vid=dc9afc0d-d533-431b-a32f-6f6423d7880b","ios":"levelo://app?vid=dc9afc0d-d533-431b-a32f-6f6423d7880b"},"vehicle_type_id":"4","last_reported":1737634673,"current_range_meters":31200,"station_id":"ce4bhp92rcd13ifvqhbg","pricing_plan_id":"cebpf4jnsgd1na2vs0mg"},{"bike_id":"0615fa9a-114a-40a2-9525-2d1b12b57419","system_id":"levelo_inurba_marseille","lat":43.29591,"lon":5.38108,"is_reserved":false,"is_disabled":true,"rental_uris":{"android":"levelo://app?vid=0615fa9a-114a-40a2-9525-2d1b12b57419","ios":"levelo://app?vid=0615fa9a-114a-40a2-9525-2d1b12b57419"},"vehicle_type_id":"4","last_reported":1737634673,"current_range_meters":0,"station_id":"ce4bgl12rcd13ifvqbo0","pricing_plan_id":"cebpf4jnsgd1na2vs0mg"},{"bike_id":"73896d01-b3e7-4e83-8302-676ccb0b4540","system_id":"levelo_inurba_marseille","lat":43.30314,"lon":5.36893,"is_reserved":false,"is_disabled":false,"rental_uris":{"android":"levelo://app?vid=73896d01-b3e7-4e83-8302-676ccb0b4540","ios":"levelo://app?vid=73896d01-b3e7-4e83-8302-676ccb0b4540"},"vehicle_type_id":"4","last_reported":1737634673,"current_range_meters":27600,"station_id":"ce4bgqh2rcd13ifvqc5g","pricing_plan_id":"cebpf4jnsgd1na2vs0mg"},{"bike_id":"1876537c-c9d8-4160-b31c-e17d644f44c6","system_id":"levelo_inurba_marseille","lat":43.32391,"lon":5.36612,"is_reserved":false,"is_disabled":false,"rental_uris":{"android":"levelo://app?vid=1876537c-c9d8-4160-b31c-e17d644f44c6","ios":"levelo://app?vid=1876537c-c9d8-4160-b31c-e17d644f44c6"},"vehicle_type_id":"4","last_reported":1737634673,"current_range_meters":32800,"station_id":"ce4bhs12rcd13ifvqhvg","pricing_plan_id":"cebpf4jnsgd1na2vs0mg"},{"bike_id":"1f601a82-1e43-4e00-a306-9c0dee0f6c50","system_id":"levelo_inurba_marseille","lat":43.28944,"lon":5.36637,"is_reserved":false,"is_disabled":false,"rental_uris":{"android":"levelo://app?vid=1f601a82-1e43-4e00-a306-9c0dee0f6c50","ios":"levelo://app?vid=1f601a82-1e43-4e00-a306-9c0dee0f6c50"},"vehicle_type_id":"4","last_reported":1737634673,"current_range_meters":8800,"station_id":"ce4bhap2rcd13ifvqek0","pricing_plan_id":"cebpf4jnsgd1na2vs0mg"},{"bike_id":"c39beb18-b568-4699-95c1-ddaef8c27d01","system_id":"levelo_inurba_marseille","lat":43.30947,"lon":5.3904,"is_reserved":false,"is_disabled":true,"rental_uris":{"android":"levelo://app?vid=c39beb18-b568-4699-95c1-ddaef8c27d01","ios":"levelo://app?vid=c39beb18-b568-4699-95c1-ddaef8c27d01"},"vehicle_type_id":"4","last_reported":1737634673,"current_range_meters":0,"station_id":"ce4bgup2rcd13ifvqco0","pricing_plan_id":"cebpf4jnsgd1na2vs0mg"},{"bike_id":"00efcbfc-5818-4085-bf14-bc3ec1071844","system_id":"levelo_inurba_marseille","lat":43.28477,"lon":5.38563,"is_reserved":false,"is_disabled":false,"rental_uris":{"android":"levelo://app?vid=00efcbfc-5818-4085-bf14-bc3ec1071844","ios":"levelo://app?vid=00efcbfc-5818-4085-bf14-bc3ec1071844"},"vehicle_type_id":"4","last_reported":1737634673,"current_range_meters":38800,"station_id":"ce4bh8p2rcd13ifvqeb0","pricing_plan_id":"cebpf4jnsgd1na2vs0mg"},{"bike_id":"ab97c035-899f-478f-8d11-f03fc390deca","system_id":"levelo_inurba_marseille","lat":43.30318,"lon":5.40434,"is_reserved":false,"is_disabled":false,"rental_uris":{"android":"levelo://app?vid=ab97c035-899f-478f-8d11-f03fc390deca","ios":"levelo://app?vid=ab97c035-899f-478f-8d11-f03fc390deca"},"vehicle_type_id":"4","last_reported":1737634673,"current_range_meters":20400,"station_id":"ce4bh012rcd13ifvqd10","pricing_plan_id":"cebpf4jnsgd1na2vs0mg"},{"bike_id":"d2ccf28c-f6d9-4cc7-ab13-e2de5a4593f9","system_id":"levelo_inurba_marseille","lat":43.27539,"lon":5.3843,"is_reserved":false,"is_disabled":false,"rental_uris":{"android":"levelo://app?vid=d2ccf28c-f6d9-4cc7-ab13-e2de5a4593f9","ios":"levelo://app?vid=d2ccf28c-f6d9-4cc7-ab13-e2de5a4593f9"},"vehicle_type_id":"4","last_reported":1737634673,"current_range_meters":20000,"station_id":"ce4bhh92rcd13ifvqfi0","pricing_plan_id":"cebpf4jnsgd1na2vs0mg"},{"bike_id":"047de2d8-e2d9-4cca-801a-aea25689a488","system_id":"levelo_inurba_marseille","lat":43.27176,"lon":5.40996,"is_reserved":false,"is_disabled":false,"rental_uris":{"android":"levelo://app?vid=047de2d8-e2d9-4cca-801a-aea25689a488","ios":"levelo://app?vid=047de2d8-e2d9-4cca-801a-aea25689a488"},"vehicle_type_id":"4","last_reported":1737634673,"current_range_meters":38800,"station_id":"ce4bhl12rcd13ifvqgf0","pricing_plan_id":"cebpf4jnsgd1na2vs0mg"},{"bike_id":"a76c358e-dcb2-47f6-b2b2-9f6876d31835","system_id":"levelo_inurba_marseille","lat":43.28341,"lon":5.38104,"is_reserved":false,"is_disabled":false,"rental_uris":{"android":"levelo://app?vid=a76c358e-dcb2-47f6-b2b2-9f6876d31835","ios":"levelo://app?vid=a76c358e-dcb2-47f6-b2b2-9f6876d31835"},"vehicle_type_id":"4","last_reported":1737634673,"current_range_meters":24000,"station_id":"ce4bh412rcd13ifvqdr0","pricing_plan_id":"cebpf4jnsgd1na2vs0mg"},{"bike_id":"0f341759-ec2f-439d-826f-2cb8db16dce8","system_id":"levelo_inurba_marseille","lat":43.31287,"lon":5.40168,"is_reserved":false,"is_disabled":false,"rental_uris":{"android":"levelo://app?vid=0f341759-ec2f-439d-826f-2cb8db16dce8","ios":"levelo://app?vid=0f341759-ec2f-439d-826f-2cb8db16dce8"},"vehicle_type_id":"4","last_reported":1737634673,"current_range_meters":21600,"station_id":"ce4bh092rcd13ifvqd30","pricing_plan_id":"cebpf4jnsgd1na2vs0mg"},{"bike_id":"4e2dc49f-7d4b-41c0-8a06-63a8f46d2930","system_id":"levelo_inurba_marseille","lat":43.29193,"lon":5.39315,"is_reserved":false,"is_disabled":false,"rental_uris":{"android":"levelo://app?vid=4e2dc49f-7d4b-41c0-8a06-63a8f46d2930","ios":"levelo://app?vid=4e2dc49f-7d4b-41c0-8a06-63a8f46d2930"},"vehicle_type_id":"4","last_reported":1737634673,"current_range_meters":38000,"station_id":"ce4bh192rcd13ifvqdd0","pricing_plan_id":"cebpf4jnsgd1na2vs0mg"},{"bike_id":"d5e580bb-31f1-420b-8967-4ef30e3f9e43","system_id":"levelo_inurba_marseille","lat":43.31092,"lon":5.42453,"is_reserved":false,"is_disabled":false,"rental_uris":{"android":"levelo://app?vid=d5e580bb-31f1-420b-8967-4ef30e3f9e43","ios":"levelo://app?vid=d5e580bb-31f1-420b-8967-4ef30e3f9e43"},"vehicle_type_id":"4","last_reported":1737634673,"current_range_meters":26000,"station_id":"ce4bhp92rcd13ifvqhag","pricing_plan_id":"cebpf4jnsgd1na2vs0mg"},{"bike_id":"68e9c31c-ad3e-43bf-9dd6-a2db62b95ef7","system_id":"levelo_inurba_marseille","lat":43.32468,"lon":5.36578,"is_reserved":false,"is_disabled":false,"rental_uris":{"android":"levelo://app?vid=68e9c31c-ad3e-43bf-9dd6-a2db62b95ef7","ios":"levelo://app?vid=68e9c31c-ad3e-43bf-9dd6-a2db62b95ef7"},"vehicle_type_id":"4","last_reported":1737634673,"current_range_meters":22800,"station_id":"ce4bhs12rcd13ifvqhvg","pricing_plan_id":"cebpf4jnsgd1na2vs0mg"},{"bike_id":"4d8ca68d-3297-4244-a007-e2bc8d520cdd","system_id":"levelo_inurba_marseille","lat":43.26494,"lon":5.39543,"is_reserved":false,"is_disabled":false,"rental_uris":{"android":"levelo://app?vid=4d8ca68d-3297-4244-a007-e2bc8d520cdd","ios":"levelo://app?vid=4d8ca68d-3297-4244-a007-e2bc8d520cdd"},"vehicle_type_id":"4","last_reported":1737634673,"current_range_meters":16800,"station_id":"ce4bhi12rcd13ifvqfq0","pricing_plan_id":"cebpf4jnsgd1na2vs0mg"},{"bike_id":"5e176893-882b-4dd2-a6fa-715ce7215275","system_id":"levelo_inurba_marseille","lat":43.27437,"lon":5.39415,"is_reserved":false,"is_disabled":false,"rental_uris":{"android":"levelo://app?vid=5e176893-882b-4dd2-a6fa-715ce7215275","ios":"levelo://app?vid=5e176893-882b-4dd2-a6fa-715ce7215275"},"vehicle_type_id":"4","last_reported":1737634673,"current_range_meters":8800,"station_id":"ce4bhdp2rcd13ifvqf20","pricing_plan_id":"cebpf4jnsgd1na2vs0mg"},{"bike_id":"b8338bfe-1284-4232-9a51-15bb8e974f1c","system_id":"levelo_inurba_marseille","lat":43.29838,"lon":5.36276,"is_reserved":false,"is_disabled":false,"rental_uris":{"android":"levelo://app?vid=b8338bfe-1284-4232-9a51-15bb8e974f1c","ios":"levelo://app?vid=b8338bfe-1284-4232-9a51-15bb8e974f1c"},"vehicle_type_id":"4","last_reported":1737634673,"current_range_meters":38800,"station_id":"ce4bgpp2rcd13ifvqc3g","pricing_plan_id":"cebpf4jnsgd1na2vs0mg"},{"bike_id":"75495e7c-20bd-4569-84c6-35df34ab244d","system_id":"levelo_inurba_marseille","lat":43.299,"lon":5.43669,"is_reserved":false,"is_disabled":false,"rental_uris":{"android":"levelo://app?vid=75495e7c-20bd-4569-84c6-35df34ab244d","ios":"levelo://app?vid=75495e7c-20bd-4569-84c6-35df34ab244d"},"vehicle_type_id":"4","last_reported":1737634673,"current_range_meters":3600,"station_id":"ce4bhpp2rcd13ifvqhfg","pricing_plan_id":"cebpf4jnsgd1na2vs0mg"},{"bike_id":"f9823763-b733-41d6-9f45-b9a22b1c8434","system_id":"levelo_inurba_marseille","lat":43.28712,"lon":5.3998,"is_reserved":false,"is_disabled":false,"rental_uris":{"android":"levelo://app?vid=f9823763-b733-41d6-9f45-b9a22b1c8434","ios":"levelo://app?vid=f9823763-b733-41d6-9f45-b9a22b1c8434"},"vehicle_type_id":"4","last_reported":1737634673,"current_range_meters":27200,"station_id":"ce4bho92rcd13ifvqh3g","pricing_plan_id":"cebpf4jnsgd1na2vs0mg"},{"bike_id":"f15a3926-03ea-4c4b-9f1b-6e7324acfe94","system_id":"levelo_inurba_marseille","lat":43.30905,"lon":5.36873,"is_reserved":false,"is_disabled":false,"rental_uris":{"android":"levelo://app?vid=f15a3926-03ea-4c4b-9f1b-6e7324acfe94","ios":"levelo://app?vid=f15a3926-03ea-4c4b-9f1b-6e7324acfe94"},"vehicle_type_id":"4","last_reported":1737634673,"current_range_meters":14000,"station_id":"ce4bgn92rcd13ifvqbvg","pricing_plan_id":"cebpf4jnsgd1na2vs0mg"},{"bike_id":"6dc2c80f-f183-4637-9474-09c601314981","system_id":"levelo_inurba_marseille","lat":43.29004,"lon":5.35618,"is_reserved":false,"is_disabled":false,"rental_uris":{"android":"levelo://app?vid=6dc2c80f-f183-4637-9474-09c601314981","ios":"levelo://app?vid=6dc2c80f-f183-4637-9474-09c601314981"},"vehicle_type_id":"4","last_reported":1737634673,"current_range_meters":25600,"station_id":"ce4bhb92rcd13ifvqen0","pricing_plan_id":"cebpf4jnsgd1na2vs0mg"},{"bike_id":"d22b6dd8-70dd-44e2-b2da-7416379d6042","system_id":"levelo_inurba_marseille","lat":43.26698,"lon":5.38243,"is_reserved":false,"is_disabled":false,"rental_uris":{"android":"levelo://app?vid=d22b6dd8-70dd-44e2-b2da-7416379d6042","ios":"levelo://app?vid=d22b6dd8-70dd-44e2-b2da-7416379d6042"},"vehicle_type_id":"4","last_reported":1737634673,"current_range_meters":38800,"station_id":"ce4bhg92rcd13ifvqf90","pricing_plan_id":"cebpf4jnsgd1na2vs0mg"},{"bike_id":"38eb0713-6ef2-4533-9083-2891d03005fa","system_id":"levelo_inurba_marseille","lat":43.29275,"lon":5.40122,"is_reserved":false,"is_disabled":false,"rental_uris":{"android":"levelo://app?vid=38eb0713-6ef2-4533-9083-2891d03005fa","ios":"levelo://app?vid=38eb0713-6ef2-4533-9083-2891d03005fa"},"vehicle_type_id":"4","last_reported":1737634673,"current_range_meters":28000,"station_id":"ce4bh312rcd13ifvqdk0","pricing_plan_id":"cebpf4jnsgd1na2vs0mg"},{"bike_id":"8ed832fe-7992-493f-81be-12b646f0fd26","system_id":"levelo_inurba_marseille","lat":43.28478,"lon":5.38552,"is_reserved":false,"is_disabled":false,"rental_uris":{"android":"levelo://app?vid=8ed832fe-7992-493f-81be-12b646f0fd26","ios":"levelo://app?vid=8ed832fe-7992-493f-81be-12b646f0fd26"},"vehicle_type_id":"4","last_reported":1737634673,"current_range_meters":38800,"station_id":"ce4bh8p2rcd13ifvqeb0","pricing_plan_id":"cebpf4jnsgd1na2vs0mg"},{"bike_id":"73437ec1-c49c-4c1d-87bb-5c89656ded36","system_id":"levelo_inurba_marseille","lat":43.30511,"lon":5.36716,"is_reserved":false,"is_disabled":false,"rental_uris":{"android":"levelo://app?vid=73437ec1-c49c-4c1d-87bb-5c89656ded36","ios":"levelo://app?vid=73437ec1-c49c-4c1d-87bb-5c89656ded36"},"vehicle_type_id":"4","last_reported":1737634673,"current_range_meters":39200,"station_id":"ce4bgrp2rcd13ifvqc9g","pricing_plan_id":"cebpf4jnsgd1na2vs0mg"},{"bike_id":"8e68fc09-96a0-4191-8d7f-cb41bd59ad2a","system_id":"levelo_inurba_marseille","lat":43.30139,"lon":5.38771,"is_reserved":false,"is_disabled":false,"rental_uris":{"android":"levelo://app?vid=8e68fc09-96a0-4191-8d7f-cb41bd59ad2a","ios":"levelo://app?vid=8e68fc09-96a0-4191-8d7f-cb41bd59ad2a"},"vehicle_type_id":"4","last_reported":1737634673,"current_range_meters":25200,"station_id":"ce4bghh2rcd13ifvqb60","pricing_plan_id":"cebpf4jnsgd1na2vs0mg"},{"bike_id":"79736555-a0bf-4e7a-b877-845a4b30520f","system_id":"levelo_inurba_marseille","lat":43.30545,"lon":5.38428,"is_reserved":false,"is_disabled":false,"rental_uris":{"android":"levelo://app?vid=79736555-a0bf-4e7a-b877-845a4b30520f","ios":"levelo://app?vid=79736555-a0bf-4e7a-b877-845a4b30520f"},"vehicle_type_id":"4","last_reported":1737634673,"current_range_meters":38000,"station_id":"ce4bgg92rcd13ifvqb30","pricing_plan_id":"cebpf4jnsgd1na2vs0mg"},{"bike_id":"1714e45e-7747-4d49-a740-f2b4f1a907bf","system_id":"levelo_inurba_marseille","lat":43.32507,"lon":5.36575,"is_reserved":false,"is_disabled":false,"rental_uris":{"android":"levelo://app?vid=1714e45e-7747-4d49-a740-f2b4f1a907bf","ios":"levelo://app?vid=1714e45e-7747-4d49-a740-f2b4f1a907bf"},"vehicle_type_id":"4","last_reported":1737634673,"current_range_meters":25600,"station_id":"ce4bhs12rcd13ifvqhvg","pricing_plan_id":"cebpf4jnsgd1na2vs0mg"},{"bike_id":"4f87cb41-2f1b-4b7e-810d-b9106a9daafa","system_id":"levelo_inurba_marseille","lat":43.29619,"lon":5.37173,"is_reserved":false,"is_disabled":false,"rental_uris":{"android":"levelo://app?vid=4f87cb41-2f1b-4b7e-810d-b9106a9daafa","ios":"levelo://app?vid=4f87cb41-2f1b-4b7e-810d-b9106a9daafa"},"vehicle_type_id":"4","last_reported":1737634673,"current_range_meters":38800,"station_id":"ce4bgnh2rcd13ifvqc0g","pricing_plan_id":"cebpf4jnsgd1na2vs0mg"},{"bike_id":"28a1eee5-346e-464b-81ee-4d7011df9d3a","system_id":"levelo_inurba_marseille","lat":43.29574,"lon":5.3751,"is_reserved":false,"is_disabled":false,"rental_uris":{"android":"levelo://app?vid=28a1eee5-346e-464b-81ee-4d7011df9d3a","ios":"levelo://app?vid=28a1eee5-346e-464b-81ee-4d7011df9d3a"},"vehicle_type_id":"4","last_reported":1737634673,"current_range_meters":38800,"station_id":"ce4bgh92rcd13ifvqb50","pricing_plan_id":"cebpf4jnsgd1na2vs0mg"},{"bike_id":"ab79a2a6-5786-44d0-919b-1bc9a749ddbd","system_id":"levelo_inurba_marseille","lat":43.27871,"lon":5.37994,"is_reserved":false,"is_disabled":false,"rental_uris":{"android":"levelo://app?vid=ab79a2a6-5786-44d0-919b-1bc9a749ddbd","ios":"levelo://app?vid=ab79a2a6-5786-44d0-919b-1bc9a749ddbd"},"vehicle_type_id":"4","last_reported":1737634673,"current_range_meters":30800,"station_id":"ce4bhf92rcd13ifvqf50","pricing_plan_id":"cebpf4jnsgd1na2vs0mg"},{"bike_id":"47078629-c7b7-45ce-8b45-10c5ffa6761f","system_id":"levelo_inurba_marseille","lat":43.26193,"lon":5.37931,"is_reserved":false,"is_disabled":false,"rental_uris":{"android":"levelo://app?vid=47078629-c7b7-45ce-8b45-10c5ffa6761f","ios":"levelo://app?vid=47078629-c7b7-45ce-8b45-10c5ffa6761f"},"vehicle_type_id":"4","last_reported":1737634673,"current_range_meters":26800,"station_id":"ce4bhjp2rcd13ifvqg90","pricing_plan_id":"cebpf4jnsgd1na2vs0mg"},{"bike_id":"1d3074c7-d1f8-482c-8faa-2fc8e3684f7d","system_id":"levelo_inurba_marseille","lat":43.29001,"lon":5.35611,"is_reserved":false,"is_disabled":false,"rental_uris":{"android":"levelo://app?vid=1d3074c7-d1f8-482c-8faa-2fc8e3684f7d","ios":"levelo://app?vid=1d3074c7-d1f8-482c-8faa-2fc8e3684f7d"},"vehicle_type_id":"4","last_reported":1737634673,"current_range_meters":29600,"station_id":"ce4bhb92rcd13ifvqen0","pricing_plan_id":"cebpf4jnsgd1na2vs0mg"},{"bike_id":"44a09436-808c-40e5-a259-28dc3e1044cf","system_id":"levelo_inurba_marseille","lat":43.31074,"lon":5.38354,"is_reserved":false,"is_disabled":false,"rental_uris":{"android":"levelo://app?vid=44a09436-808c-40e5-a259-28dc3e1044cf","ios":"levelo://app?vid=44a09436-808c-40e5-a259-28dc3e1044cf"},"vehicle_type_id":"4","last_reported":1737634673,"current_range_meters":12800,"station_id":"ce4bgv92rcd13ifvqcr0","pricing_plan_id":"cebpf4jnsgd1na2vs0mg"},{"bike_id":"149b69f1-44f7-440c-bbd5-5ef6358a4076","system_id":"levelo_inurba_marseille","lat":43.28477,"lon":5.38426,"is_reserved":false,"is_disabled":false,"rental_uris":{"android":"levelo://app?vid=149b69f1-44f7-440c-bbd5-5ef6358a4076","ios":"levelo://app?vid=149b69f1-44f7-440c-bbd5-5ef6358a4076"},"vehicle_type_id":"4","last_reported":1737634673,"current_range_meters":36000,"station_id":"ce4bh512rcd13ifvqe3g","pricing_plan_id":"cebpf4jnsgd1na2vs0mg"},{"bike_id":"4d78c7c1-993f-4ff2-89a8-49fa35b18fd6","system_id":"levelo_inurba_marseille","lat":43.28075,"lon":5.3967,"is_reserved":false,"is_disabled":false,"rental_uris":{"android":"levelo://app?vid=4d78c7c1-993f-4ff2-89a8-49fa35b18fd6","ios":"levelo://app?vid=4d78c7c1-993f-4ff2-89a8-49fa35b18fd6"},"vehicle_type_id":"4","last_reported":1737634673,"current_range_meters":38000,"station_id":"ce4bho12rcd13ifvqh2g","pricing_plan_id":"cebpf4jnsgd1na2vs0mg"},{"bike_id":"7ef4bec0-527b-4340-b6e7-a76285cac15e","system_id":"levelo_inurba_marseille","lat":43.2952,"lon":5.37512,"is_reserved":false,"is_disabled":false,"rental_uris":{"android":"levelo://app?vid=7ef4bec0-527b-4340-b6e7-a76285cac15e","ios":"levelo://app?vid=7ef4bec0-527b-4340-b6e7-a76285cac15e"},"vehicle_type_id":"4","last_reported":1737634673,"current_range_meters":28400,"station_id":"ce4bgkp2rcd13ifvqbmg","pricing_plan_id":"cebpf4jnsgd1na2vs0mg"},{"bike_id":"45e51d97-4bf4-4ac7-b00b-0e5dfa9c5b51","system_id":"levelo_inurba_marseille","lat":43.28936,"lon":5.36639,"is_reserved":false,"is_disabled":false,"rental_uris":{"android":"levelo://app?vid=45e51d97-4bf4-4ac7-b00b-0e5dfa9c5b51","ios":"levelo://app?vid=45e51d97-4bf4-4ac7-b00b-0e5dfa9c5b51"},"vehicle_type_id":"4","last_reported":1737634673,"current_range_meters":39200,"station_id":"ce4bhap2rcd13ifvqek0","pricing_plan_id":"cebpf4jnsgd1na2vs0mg"},{"bike_id":"876825af-56e2-4472-a911-6e97d2be5867","system_id":"levelo_inurba_marseille","lat":43.28105,"lon":5.37835,"is_reserved":false,"is_disabled":false,"rental_uris":{"android":"levelo://app?vid=876825af-56e2-4472-a911-6e97d2be5867","ios":"levelo://app?vid=876825af-56e2-4472-a911-6e97d2be5867"},"vehicle_type_id":"4","last_reported":1737634673,"current_range_meters":38800,"station_id":"ce4bha12rcd13ifvqee0","pricing_plan_id":"cebpf4jnsgd1na2vs0mg"},{"bike_id":"e4610c1b-b2e7-40df-bc42-3a2fc7e496cd","system_id":"levelo_inurba_marseille","lat":43.336,"lon":5.41037,"is_reserved":false,"is_disabled":true,"rental_uris":{"android":"levelo://app?vid=e4610c1b-b2e7-40df-bc42-3a2fc7e496cd","ios":"levelo://app?vid=e4610c1b-b2e7-40df-bc42-3a2fc7e496cd"},"vehicle_type_id":"4","last_reported":1737634673,"current_range_meters":0,"station_id":"ce4bhqh2rcd13ifvqhmg","pricing_plan_id":"cebpf4jnsgd1na2vs0mg"},{"bike_id":"f62039cf-0c67-4da7-989f-1c30df3c5f58","system_id":"levelo_inurba_marseille","lat":43.28365,"lon":5.38102,"is_reserved":false,"is_disabled":false,"rental_uris":{"android":"levelo://app?vid=f62039cf-0c67-4da7-989f-1c30df3c5f58","ios":"levelo://app?vid=f62039cf-0c67-4da7-989f-1c30df3c5f58"},"vehicle_type_id":"4","last_reported":1737634673,"current_range_meters":23200,"station_id":"ce4bh412rcd13ifvqdr0","pricing_plan_id":"cebpf4jnsgd1na2vs0mg"},{"bike_id":"8b8929bc-4b9f-45f1-9607-384009214396","system_id":"levelo_inurba_marseille","lat":43.25717,"lon":5.41119,"is_reserved":false,"is_disabled":false,"rental_uris":{"android":"levelo://app?vid=8b8929bc-4b9f-45f1-9607-384009214396","ios":"levelo://app?vid=8b8929bc-4b9f-45f1-9607-384009214396"},"vehicle_type_id":"4","last_reported":1737634673,"current_range_meters":2000,"station_id":"ce4bhkp2rcd13ifvqgd0","pricing_plan_id":"cebpf4jnsgd1na2vs0mg"},{"bike_id":"bafe43b2-a6fb-4753-a6e0-6239cade9867","system_id":"levelo_inurba_marseille","lat":43.30946,"lon":5.3906,"is_reserved":false,"is_disabled":false,"rental_uris":{"android":"levelo://app?vid=bafe43b2-a6fb-4753-a6e0-6239cade9867","ios":"levelo://app?vid=bafe43b2-a6fb-4753-a6e0-6239cade9867"},"vehicle_type_id":"4","last_reported":1737634673,"current_range_meters":33600,"station_id":"ce4bgup2rcd13ifvqco0","pricing_plan_id":"cebpf4jnsgd1na2vs0mg"},{"bike_id":"31e32d05-f82b-4931-b1ac-634a5d17c4df","system_id":"levelo_inurba_marseille","lat":43.26211,"lon":5.37447,"is_reserved":false,"is_disabled":false,"rental_uris":{"android":"levelo://app?vid=31e32d05-f82b-4931-b1ac-634a5d17c4df","ios":"levelo://app?vid=31e32d05-f82b-4931-b1ac-634a5d17c4df"},"vehicle_type_id":"4","last_reported":1737634673,"current_range_meters":38800,"station_id":"ce4bhgp2rcd13ifvqfc0","pricing_plan_id":"cebpf4jnsgd1na2vs0mg"},{"bike_id":"04441891-5824-40fb-ad1f-38669be4d2db","system_id":"levelo_inurba_marseille","lat":43.30092,"lon":5.39079,"is_reserved":false,"is_disabled":false,"rental_uris":{"android":"levelo://app?vid=04441891-5824-40fb-ad1f-38669be4d2db","ios":"levelo://app?vid=04441891-5824-40fb-ad1f-38669be4d2db"},"vehicle_type_id":"4","last_reported":1737634673,"current_range_meters":36800,"station_id":"ce4bh192rcd13ifvqdb0","pricing_plan_id":"cebpf4jnsgd1na2vs0mg"},{"bike_id":"ab3356a0-f087-444a-935c-61f42d98aa05","system_id":"levelo_inurba_marseille","lat":43.30949,"lon":5.39058,"is_reserved":false,"is_disabled":false,"rental_uris":{"android":"levelo://app?vid=ab3356a0-f087-444a-935c-61f42d98aa05","ios":"levelo://app?vid=ab3356a0-f087-444a-935c-61f42d98aa05"},"vehicle_type_id":"4","last_reported":1737634673,"current_range_meters":24800,"station_id":"ce4bgup2rcd13ifvqco0","pricing_plan_id":"cebpf4jnsgd1na2vs0mg"},{"bike_id":"b5d82252-b02c-4d5b-960e-d4f420d654fd","system_id":"levelo_inurba_marseille","lat":43.29691,"lon":5.37299,"is_reserved":false,"is_disabled":false,"rental_uris":{"android":"levelo://app?vid=b5d82252-b02c-4d5b-960e-d4f420d654fd","ios":"levelo://app?vid=b5d82252-b02c-4d5b-960e-d4f420d654fd"},"vehicle_type_id":"4","last_reported":1737634673,"current_range_meters":16400,"station_id":"ce4bgk12rcd13ifvqbj0","pricing_plan_id":"cebpf4jnsgd1na2vs0mg"},{"bike_id":"8059056a-3913-457f-9218-b477006aa2b9","system_id":"levelo_inurba_marseille","lat":43.30604,"lon":5.39371,"is_reserved":false,"is_disabled":false,"rental_uris":{"android":"levelo://app?vid=8059056a-3913-457f-9218-b477006aa2b9","ios":"levelo://app?vid=8059056a-3913-457f-9218-b477006aa2b9"},"vehicle_type_id":"4","last_reported":1737634673,"current_range_meters":2800,"station_id":"ce4bh0p2rcd13ifvqd80","pricing_plan_id":"cebpf4jnsgd1na2vs0mg"},{"bike_id":"2c0e51ff-3cdf-4455-a698-81736b193a3b","system_id":"levelo_inurba_marseille","lat":43.29551,"lon":5.42297,"is_reserved":false,"is_disabled":false,"rental_uris":{"android":"levelo://app?vid=2c0e51ff-3cdf-4455-a698-81736b193a3b","ios":"levelo://app?vid=2c0e51ff-3cdf-4455-a698-81736b193a3b"},"vehicle_type_id":"4","last_reported":1737634673,"current_range_meters":7200,"station_id":"ce4bhph2rcd13ifvqhdg","pricing_plan_id":"cebpf4jnsgd1na2vs0mg"},{"bike_id":"c3e10f7f-1c9e-4d97-a0ae-b719dffde9e1","system_id":"levelo_inurba_marseille","lat":43.29724,"lon":5.377,"is_reserved":false,"is_disabled":false,"rental_uris":{"android":"levelo://app?vid=c3e10f7f-1c9e-4d97-a0ae-b719dffde9e1","ios":"levelo://app?vid=c3e10f7f-1c9e-4d97-a0ae-b719dffde9e1"},"vehicle_type_id":"4","last_reported":1737634673,"current_range_meters":38400,"station_id":"ce4bgkh2rcd13ifvqbl0","pricing_plan_id":"cebpf4jnsgd1na2vs0mg"},{"bike_id":"3c9d5d82-e531-4fce-b24d-74c2797405a3","system_id":"levelo_inurba_marseille","lat":43.32359,"lon":5.36752,"is_reserved":false,"is_disabled":false,"rental_uris":{"android":"levelo://app?vid=3c9d5d82-e531-4fce-b24d-74c2797405a3","ios":"levelo://app?vid=3c9d5d82-e531-4fce-b24d-74c2797405a3"},"vehicle_type_id":"4","last_reported":1737634673,"current_range_meters":16400,"station_id":"ce4bhsh2rcd13ifvqi2g","pricing_plan_id":"cebpf4jnsgd1na2vs0mg"},