{"last_updated":1784425430,"ttl":60,"version":"2.2","data":{"bikes":[{"bike_id":"ba0c28b1-8732-48e2-8079-f25b2b3fbc3c","system_id":"levelo_inurba_marseille","lat":43.337444,"lon":5.374475,"is_reserved":false,"is_disabled":false,"rental_uris":{"android":"levelo://app?vid=ba0c28b1-8732-48e2-8079-f25b2b3fbc3c","ios":"levelo://app?vid=ba0c28b1-8732-48e2-8079-f25b2b3fbc3c"},"vehicle_type_id":"4","last_reported":1784425431,"current_range_meters":0,"station_id":"","pricing_plan_id":"cebpf4jnsgd1na2vs0mg"},{"bike_id":"b24e008d-76fe-4304-bdb8-1a62b93995b0","system_id":"levelo_inurba_marseille","lat":43.22532,"lon":5.34833,"is_reserved":false,"is_disabled":false,"rental_uris":{"android":"levelo://app?vid=b24e008d-76fe-4304-bdb8-1a62b93995b0","ios":"levelo://app?vid=b24e008d-76fe-4304-bdb8-1a62b93995b0"},"vehicle_type_id":"4","last_reported":1784425431,"current_range_meters":39200,"station_id":"st_cvj5dfep6f1abm77gieg","pricing_plan_id":"cebpf4jnsgd1na2vs0mg"},{"bike_id":"87512ab8-d28c-413d-9c39-5e561d2f503f","system_id":"levelo_inurba_marseille","lat":43.29729,"lon":5.36621,"is_reserved":false,"is_disabled":false,"rental_uris":{"android":"levelo://app?vid=87512ab8-d28c-413d-9c39-5e561d2f503f","ios":"levelo://app?vid=87512ab8-d28c-413d-9c39-5e561d2f503f"},"vehicle_type_id":"4","last_reported":1784425431,"current_range_meters":30800,"station_id":"ce4bgn12rcd13ifvqbt0","pricing_plan_id":"cebpf4jnsgd1na2vs0mg"},{"bike_id":"63dc20ac-90f4-4eae-ac6c-d24ae13a7929","system_id":"levelo_inurba_marseille","lat":43.25341,"lon":5.42169,"is_reserved":false,"is_disabled":false,"rental_uris":{"android":"levelo://app?vid=63dc20ac-90f4-4eae-ac6c-d24ae13a7929","ios":"levelo://app?vid=63dc20ac-90f4-4eae-ac6c-d24ae13a7929"},"vehicle_type_id":"4","last_reported":1784425431,"current_range_meters":30400,"station_id":"st_d2m65c5bi1j21697t3ng","pricing_plan_id":"cebpf4jnsgd1na2vs0mg"},{"bike_id":"0a6a96ce-abef-4406-8263-ffb05e635557","system_id":"levelo_inurba_marseille","lat":43.30798,"lon":5.38158,"is_reserved":false,"is_disabled":false,"rental_uris":{"android":"levelo://app?vid=0a6a96ce-abef-4406-8263-ffb05e635557","ios":"levelo://app?vid=0a6a96ce-abef-4406-8263-ffb05e635557"},"vehicle_type_id":"4","last_reported":1784425431,"current_range_meters":19600,"station_id":"ce4bgt12rcd13ifvqce0","pricing_plan_id":"cebpf4jnsgd1na2vs0mg"},{"bike_id":"98aa85a7-1052-4ead-abe7-0af5a91fddb4","system_id":"levelo_inurba_marseille","lat":43.30781,"lon":5.38137,"is_reserved":false,"is_disabled":false,"rental_uris":{"android":"levelo://app?vid=98aa85a7-1052-4ead-abe7-0af5a91fddb4","ios":"levelo://app?vid=98aa85a7-1052-4ead-abe7-0af5a91fddb4"},"vehicle_type_id":"4","last_reported":1784425431,"current_range_meters":36800,"station_id":"ce4bgt12rcd13ifvqce0","pricing_plan_id":"cebpf4jnsgd1na2vs0mg"},{"bike_id":"d6c2708e-8c67-4efd-9efe-178d630e0182","system_id":"levelo_inurba_marseille","lat":43.30432,"lon":5.39753,"is_reserved":false,"is_disabled":false,"rental_uris":{"android":"levelo://app?vid=d6c2708e-8c67-4efd-9efe-178d630e0182","ios":"levelo://app?vid=d6c2708e-8c67-4efd-9efe-178d630e0182"},"vehicle_type_id":"4","last_reported":1784425431,"current_range_meters":26800,"station_id":"ce4bh092rcd13ifvqd20","pricing_plan_id":"cebpf4jnsgd1na2vs0mg"},{"bike_id":"94dd8253-3b80-4cb0-9de6-cca9b73befbc","system_id":"levelo_inurba_marseille","lat":43.28345,"lon":5.38109,"is_reserved":false,"is_disabled":false,"rental_uris":{"android":"levelo://app?vid=94dd8253-3b80-4cb0-9de6-cca9b73befbc","ios":"levelo://app?vid=94dd8253-3b80-4cb0-9de6-cca9b73befbc"},"vehicle_type_id":"4","last_reported":1784425431,"current_range_meters":16800,"station_id":"ce4bh412rcd13ifvqdr0","pricing_plan_id":"cebpf4jnsgd1na2vs0mg"},{"bike_id":"207280f1-9a38-44af-b6b7-c558de9346cb","system_id":"levelo_inurba_marseille","lat":43.31118,"lon":5.37765,"is_reserved":false,"is_disabled":false,"rental_uris":{"android":"levelo://app?vid=207280f1-9a38-44af-b6b7-c558de9346cb","ios":"levelo://app?vid=207280f1-9a38-44af-b6b7-c558de9346cb"},"vehicle_type_id":"4","last_reported":1784425431,"current_range_meters":39200,"station_id":"ce4bgt92rcd13ifvqcg0","pricing_plan_id":"cebpf4jnsgd1na2vs0mg"},{"bike_id":"103fa097-6794-4521-abf1-14d2b936d742","system_id":"levelo_inurba_marseille","lat":43.29731,"lon":5.36617,"is_reserved":false,"is_disabled":false,"rental_uris":{"android":"levelo://app?vid=103fa097-6794-4521-abf1-14d2b936d742","ios":"levelo://app?vid=103fa097-6794-4521-abf1-14d2b936d742"},"vehicle_type_id":"4","last_reported":1784425431,"current_range_meters":16000,"station_id":"ce4bgn12rcd13ifvqbt0","pricing_plan_id":"cebpf4jnsgd1na2vs0mg"},{"bike_id":"edc293ec-aaef-4cc0-903d-983aa4cb3d2f","system_id":"levelo_inurba_marseille","lat":43.30922,"lon":5.36699,"is_reserved":false,"is_disabled":false,"rental_uris":{"android":"levelo://app?vid=edc293ec-aaef-4cc0-903d-983aa4cb3d2f","ios":"levelo://app?vid=edc293ec-aaef-4cc0-903d-983aa4cb3d2f"},"vehicle_type_id":"4","last_reported":1784425431,"current_range_meters":4400,"station_id":"","pricing_plan_id":"cebpf4jnsgd1na2vs0mg"},{"bike_id":"9665e7d5-a073-472e-ac96-7c8141ae6d91","system_id":"levelo_inurba_marseille","lat":43.29277,"lon":5.40123,"is_reserved":false,"is_disabled":false,"rental_uris":{"android":"levelo://app?vid=9665e7d5-a073-472e-ac96-7c8141ae6d91","ios":"levelo://app?vid=9665e7d5-a073-472e-ac96-7c8141ae6d91"},"vehicle_type_id":"4","last_reported":1784425431,"current_range_meters":39200,"station_id":"ce4bh312rcd13ifvqdk0","pricing_plan_id":"cebpf4jnsgd1na2vs0mg"},{"bike_id":"9da5cadf-cdd1-429b-9b5e-9173177dfcc4","system_id":"levelo_inurba_marseille","lat":43.24394,"lon":5.37093,"is_reserved":false,"is_disabled":false,"rental_uris":{"android":"levelo://app?vid=9da5cadf-cdd1-429b-9b5e-9173177dfcc4","ios":"levelo://app?vid=9da5cadf-cdd1-429b-9b5e-9173177dfcc4"},"vehicle_type_id":"4","last_reported":1784425431,"current_range_meters":9200,"station_id":"ce4bhhh2rcd13ifvqfk0","pricing_plan_id":"cebpf4jnsgd1na2vs0mg"},{"bike_id":"fc01fb04-0722-45ca-acd9-0fa08df4efe0","system_id":"levelo_inurba_marseille","lat":43.29931,"lon":5.37469,"is_reserved":false,"is_disabled":false,"rental_uris":{"android":"levelo://app?vid=fc01fb04-0722-45ca-acd9-0fa08df4efe0","ios":"levelo://app?vid=fc01fb04-0722-45ca-acd9-0fa08df4efe0"},"vehicle_type_id":"4","last_reported":1784425431,"current_range_meters":39200,"station_id":"ce4bgjh2rcd13ifvqbg0","pricing_plan_id":"cebpf4jnsgd1na2vs0mg"},{"bike_id":"e71494cd-d4a8-436a-a5c6-260a2924500e","system_id":"levelo_inurba_marseille","lat":43.26221,"lon":5.38771,"is_reserved":false,"is_disabled":true,"rental_uris":{"android":"levelo://app?vid=e71494cd-d4a8-436a-a5c6-260a2924500e","ios":"levelo://app?vid=e71494cd-d4a8-436a-a5c6-260a2924500e"},"vehicle_type_id":"4","last_reported":1784425431,"current_range_meters":26800,"station_id":"st_d8gjfg747rts73coq3b0","pricing_plan_id":"cebpf4jnsgd1na2vs0mg"},{"bike_id":"4dd83e35-73dd-44b8-9d3c-9c21e3418d4e","system_id":"levelo_inurba_marseille","lat":43.27506,"lon":5.42554,"is_reserved":false,"is_disabled":false,"rental_uris":{"android":"levelo://app?vid=4dd83e35-73dd-44b8-9d3c-9c21e3418d4e","ios":"levelo://app?vid=4dd83e35-73dd-44b8-9d3c-9c21e3418d4e"},"vehicle_type_id":"4","last_reported":1784425431,"current_range_meters":11600,"station_id":"st_d8t4bh7nbrqs73arha60","pricing_plan_id":"cebpf4jnsgd1na2vs0mg"},{"bike_id":"661a48b2-2a3b-4341-ba7f-18771415c6d8","system_id":"levelo_inurba_marseille","lat":43.27066,"lon":5.38294,"is_reserved":false,"is_disabled":false,"rental_uris":{"android":"levelo://app?vid=661a48b2-2a3b-4341-ba7f-18771415c6d8","ios":"levelo://app?vid=661a48b2-2a3b-4341-ba7f-18771415c6d8"},"vehicle_type_id":"4","last_reported":1784425431,"current_range_meters":32800,"station_id":"st_d3n2fo6cfp8s73cte1j0","pricing_plan_id":"cebpf4jnsgd1na2vs0mg"},{"bike_id":"bedff844-9130-492b-a7c3-37d670bbb559","system_id":"levelo_inurba_marseille","lat":43.32355,"lon":5.36741,"is_reserved":false,"is_disabled":false,"rental_uris":{"android":"levelo://app?vid=bedff844-9130-492b-a7c3-37d670bbb559","ios":"levelo://app?vid=bedff844-9130-492b-a7c3-37d670bbb559"},"vehicle_type_id":"4","last_reported":1784425431,"current_range_meters":39200,"station_id":"ce4bhsh2rcd13ifvqi2g","pricing_plan_id":"cebpf4jnsgd1na2vs0mg"},{"bike_id":"a9029f76-a947-4038-94fd-3bc9333c145a","system_id":"levelo_inurba_marseille","lat":43.29265,"lon":5.40126,"is_reserved":false,"is_disabled":false,"rental_uris":{"android":"levelo://app?vid=a9029f76-a947-4038-94fd-3bc9333c145a","ios":"levelo://app?vid=a9029f76-a947-4038-94fd-3bc9333c145a"},"vehicle_type_id":"4","last_reported":1784425431,"current_range_meters":27600,"station_id":"ce4bh312rcd13ifvqdk0","pricing_plan_id":"cebpf4jnsgd1na2vs0mg"},{"bike_id":"3f90babe-1f4e-4451-ae93-3bb30a379e7f","system_id":"levelo_inurba_marseille","lat":43.30239,"lon":5.40032,"is_reserved":false,"is_disabled":false,"rental_uris":{"android":"levelo://app?vid=3f90babe-1f4e-4451-ae93-3bb30a379e7f","ios":"levelo://app?vid=3f90babe-1f4e-4451-ae93-3bb30a379e7f"},"vehicle_type_id":"4","last_reported":1784425431,"current_range_meters":10000,"station_id":"","pricing_plan_id":"cebpf4jnsgd1na2vs0mg"},{"bike_id":"4a2b6d62-8189-440a-9a99-ef8458bda7c9","system_id":"levelo_inurba_marseille","lat":43.30406,"lon":5.41302,"is_reserved":false,"is_disabled":false,"rental_uris":{"android":"levelo://app?vid=4a2b6d62-8189-440a-9a99-ef8458bda7c9","ios":"levelo://app?vid=4a2b6d62-8189-440a-9a99-ef8458bda7c9"},"vehicle_type_id":"4","last_reported":1784425431,"current_range_meters":39200,"station_id":"ce4bhop2rcd13ifvqh8g","pricing_plan_id":"cebpf4jnsgd1na2vs0mg"},{"bike_id":"13827829-1d77-4956-bc32-6855d7a0889b","system_id":"levelo_inurba_marseille","lat":43.29623,"lon":5.40608,"is_reserved":false,"is_disabled":false,"rental_uris":{"android":"levelo://app?vid=13827829-1d77-4956-bc32-6855d7a0889b","ios":"levelo://app?vid=13827829-1d77-4956-bc32-6855d7a0889b"},"vehicle_type_id":"4","last_reported":1784425431,"current_range_meters":32400,"station_id":"ce4bh0h2rcd13ifvqd60","pricing_plan_id":"cebpf4jnsgd1na2vs0mg"},{"bike_id":"74db0d45-8e44-47c8-9bbb-438106ac8229","system_id":"levelo_inurba_marseille","lat":43.30807,"lon":5.38159,"is_reserved":false,"is_disabled":true,"rental_uris":{"android":"levelo://app?vid=74db0d45-8e44-47c8-9bbb-438106ac8229","ios":"levelo://app?vid=74db0d45-8e44-47c8-9bbb-438106ac8229"},"vehicle_type_id":"4","last_reported":1784425431,"current_range_meters":25200,"station_id":"ce4bgt12rcd13ifvqce0","pricing_plan_id":"cebpf4jnsgd1na2vs0mg"},{"bike_id":"0ecdb674-3c3c-46be-9a7b-0387e7579f88","system_id":"levelo_inurba_marseille","lat":43.2448,"lon":5.42523,"is_reserved":false,"is_disabled":false,"rental_uris":{"android":"levelo://app?vid=0ecdb674-3c3c-46be-9a7b-0387e7579f88","ios":"levelo://app?vid=0ecdb674-3c3c-46be-9a7b-0387e7579f88"},"vehicle_type_id":"4","last_reported":1784425431,"current_range_meters":30000,"station_id":"st_d4a3vfp97mjs738cd8kg","pricing_plan_id":"cebpf4jnsgd1na2vs0mg"},{"bike_id":"545d958b-693c-4d14-aa29-c06a7b94d5cd","system_id":"levelo_inurba_marseille","lat":43.30651,"lon":5.40073,"is_reserved":false,"is_disabled":false,"rental_uris":{"android":"levelo://app?vid=545d958b-693c-4d14-aa29-c06a7b94d5cd","ios":"levelo://app?vid=545d958b-693c-4d14-aa29-c06a7b94d5cd"},"vehicle_type_id":"4","last_reported":1784425431,"current_range_meters":4400,"station_id":"ce4bh112rcd13ifvqda0","pricing_plan_id":"cebpf4jnsgd1na2vs0mg"},{"bike_id":"129ac767-2638-4c48-b9ca-8da71d89525b","system_id":"levelo_inurba_marseille","lat":43.23907,"lon":5.37453,"is_reserved":false,"is_disabled":false,"rental_uris":{"android":"levelo://app?vid=129ac767-2638-4c48-b9ca-8da71d89525b","ios":"levelo://app?vid=129ac767-2638-4c48-b9ca-8da71d89525b"},"vehicle_type_id":"4","last_reported":1784425431,"current_range_meters":29600,"station_id":"st_d6sm7csbq4hs73f8fpjg","pricing_plan_id":"cebpf4jnsgd1na2vs0mg"},{"bike_id":"85f966c9-581b-413c-a6d3-160dc3cccc40","system_id":"levelo_inurba_marseille","lat":43.29573,"lon":5.39984,"is_reserved":false,"is_disabled":false,"rental_uris":{"android":"levelo://app?vid=85f966c9-581b-413c-a6d3-160dc3cccc40","ios":"levelo://app?vid=85f966c9-581b-413c-a6d3-160dc3cccc40"},"vehicle_type_id":"4","last_reported":1784425431,"current_range_meters":21600,"station_id":"ce4bh312rcd13ifvqdj0","pricing_plan_id":"cebpf4jnsgd1na2vs0mg"},{"bike_id":"32c95016-82d3-4943-8193-1a98c4bf18c7","system_id":"levelo_inurba_marseille","lat":43.2807,"lon":5.35643,"is_reserved":false,"is_disabled":false,"rental_uris":{"android":"levelo://app?vid=32c95016-82d3-4943-8193-1a98c4bf18c7","ios":"levelo://app?vid=32c95016-82d3-4943-8193-1a98c4bf18c7"},"vehicle_type_id":"4","last_reported":1784425431,"current_range_meters":6800,"station_id":"","pricing_plan_id":"cebpf4jnsgd1na2vs0mg"},{"bike_id":"8a764731-788d-4960-9607-991b594f9119","system_id":"levelo_inurba_marseille","lat":43.27831,"lon":5.39207,"is_reserved":false,"is_disabled":false,"rental_uris":{"android":"levelo://app?vid=8a764731-788d-4960-9607-991b594f9119","ios":"levelo://app?vid=8a764731-788d-4960-9607-991b594f9119"},"vehicle_type_id":"4","last_reported":1784425431,"current_range_meters":14800,"station_id":"ce4bhjp2rcd13ifvqga0","pricing_plan_id":"cebpf4jnsgd1na2vs0mg"},{"bike_id":"79ec9d31-38d3-409d-ae6e-2cd47cdb08ab","system_id":"levelo_inurba_marseille","lat":43.28456,"lon":5.35884,"is_reserved":false,"is_disabled":false,"rental_uris":{"android":"levelo://app?vid=79ec9d31-38d3-409d-ae6e-2cd47cdb08ab","ios":"levelo://app?vid=79ec9d31-38d3-409d-ae6e-2cd47cdb08ab"},"vehicle_type_id":"4","last_reported":1784425431,"current_range_meters":4400,"station_id":"ce4bhah2rcd13ifvqei0","pricing_plan_id":"cebpf4jnsgd1na2vs0mg"},{"bike_id":"cccbb3e6-9c82-4df4-a8fc-5d004ac61ad2","system_id":"levelo_inurba_marseille","lat":43.26561,"lon":5.39006,"is_reserved":false,"is_disabled":false,"rental_uris":{"android":"levelo://app?vid=cccbb3e6-9c82-4df4-a8fc-5d004ac61ad2","ios":"levelo://app?vid=cccbb3e6-9c82-4df4-a8fc-5d004ac61ad2"},"vehicle_type_id":"4","last_reported":1784425431,"current_range_meters":4000,"station_id":"ce4bhe12rcd13ifvqf30","pricing_plan_id":"cebpf4jnsgd1na2vs0mg"},{"bike_id":"0af6ac0c-b22a-47ba-a846-c09a2a866928","system_id":"levelo_inurba_marseille","lat":43.23189,"lon":5.39987,"is_reserved":false,"is_disabled":false,"rental_uris":{"android":"levelo://app?vid=0af6ac0c-b22a-47ba-a846-c09a2a866928","ios":"levelo://app?vid=0af6ac0c-b22a-47ba-a846-c09a2a866928"},"vehicle_type_id":"4","last_reported":1784425431,"current_range_meters":35200,"station_id":"ce4bhn12rcd13ifvqgqg","pricing_plan_id":"cebpf4jnsgd1na2vs0mg"},{"bike_id":"ef6880d0-6944-4f6a-8f40-6662368b8f75","system_id":"levelo_inurba_marseille","lat":43.31694,"lon":5.43718,"is_reserved":false,"is_disabled":false,"rental_uris":{"android":"levelo://app?vid=ef6880d0-6944-4f6a-8f40-6662368b8f75","ios":"levelo://app?vid=ef6880d0-6944-4f6a-8f40-6662368b8f75"},"vehicle_type_id":"4","last_reported":1784425431,"current_range_meters":39200,"station_id":"ce4bhp92rcd13ifvqhcg","pricing_plan_id":"cebpf4jnsgd1na2vs0mg"},{"bike_id":"7bab4676-25db-456e-87b4-397a590a40da","system_id":"levelo_inurba_marseille","lat":43.27557,"lon":5.38419,"is_reserved":false,"is_disabled":false,"rental_uris":{"android":"levelo://app?vid=7bab4676-25db-456e-87b4-397a590a40da","ios":"levelo://app?vid=7bab4676-25db-456e-87b4-397a590a40da"},"vehicle_type_id":"4","last_reported":1784425431,"current_range_meters":39200,"station_id":"ce4bhh92rcd13ifvqfi0","pricing_plan_id":"cebpf4jnsgd1na2vs0mg"},{"bike_id":"ac73781c-7964-453a-82c7-5e417be13435","system_id":"levelo_inurba_marseille","lat":43.28624,"lon":5.37098,"is_reserved":false,"is_disabled":false,"rental_uris":{"android":"levelo://app?vid=ac73781c-7964-453a-82c7-5e417be13435","ios":"levelo://app?vid=ac73781c-7964-453a-82c7-5e417be13435"},"vehicle_type_id":"4","last_reported":1784425431,"current_range_meters":31200,"station_id":"ce4bht12rcd13ifvqi60","pricing_plan_id":"cebpf4jnsgd1na2vs0mg"},{"bike_id":"0440c3d3-fb6e-42d5-a033-2a474086ecc6","system_id":"levelo_inurba_marseille","lat":43.23184,"lon":5.39986,"is_reserved":false,"is_disabled":false,"rental_uris":{"android":"levelo://app?vid=0440c3d3-fb6e-42d5-a033-2a474086ecc6","ios":"levelo://app?vid=0440c3d3-fb6e-42d5-a033-2a474086ecc6"},"vehicle_type_id":"4","last_reported":1784425431,"current_range_meters":39200,"station_id":"ce4bhn12rcd13ifvqgqg","pricing_plan_id":"cebpf4jnsgd1na2vs0mg"},{"bike_id":"69aa3890-8355-4668-9d7c-2b996f0dde78","system_id":"levelo_inurba_marseille","lat":43.29745,"lon":5.42802,"is_reserved":false,"is_disabled":false,"rental_uris":{"android":"levelo://app?vid=69aa3890-8355-4668-9d7c-2b996f0dde78","ios":"levelo://app?vid=69aa3890-8355-4668-9d7c-2b996f0dde78"},"vehicle_type_id":"4","last_reported":1784425431,"current_range_meters":39200,"station_id":"st_d3md5207bmas73dh9klg","pricing_plan_id":"cebpf4jnsgd1na2vs0mg"},{"bike_id":"d183c213-4177-4bf2-b9e0-24872be8a9c8","system_id":"levelo_inurba_marseille","lat":43.28474,"lon":5.4839,"is_reserved":false,"is_disabled":false,"rental_uris":{"android":"levelo://app?vid=d183c213-4177-4bf2-b9e0-24872be8a9c8","ios":"levelo://app?vid=d183c213-4177-4bf2-b9e0-24872be8a9c8"},"vehicle_type_id":"4","last_reported":1784425431,"current_range_meters":16000,"station_id":"st_d3svhcjqgbts73a3dn0g","pricing_plan_id":"cebpf4jnsgd1na2vs0mg"},{"bike_id":"3d7f032f-703c-49de-bd95-4bb00f4e5160","system_id":"levelo_inurba_marseille","lat":43.2573,"lon":5.41102,"is_reserved":false,"is_disabled":false,"rental_uris":{"android":"levelo://app?vid=3d7f032f-703c-49de-bd95-4bb00f4e5160","ios":"levelo://app?vid=3d7f032f-703c-49de-bd95-4bb00f4e5160"},"vehicle_type_id":"4","last_reported":1784425431,"current_range_meters":36800,"station_id":"ce4bhkp2rcd13ifvqgd0","pricing_plan_id":"cebpf4jnsgd1na2vs0mg"},{"bike_id":"754be320-592c-4596-b29f-34a43e2fbed1","system_id":"levelo_inurba_marseille","lat":43.29624,"lon":5.40593,"is_reserved":false,"is_disabled":false,"rental_uris":{"android":"levelo://app?vid=754be320-592c-4596-b29f-34a43e2fbed1","ios":"levelo://app?vid=754be320-592c-4596-b29f-34a43e2fbed1"},"vehicle_type_id":"4","last_reported":1784425431,"current_range_meters":37600,"station_id":"ce4bh0h2rcd13ifvqd60","pricing_plan_id":"cebpf4jnsgd1na2vs0mg"},{"bike_id":"de007cee-b02a-488c-aba4-bbeef406c383","system_id":"levelo_inurba_marseille","lat":43.25512,"lon":5.40089,"is_reserved":false,"is_disabled":false,"rental_uris":{"android":"levelo://app?vid=de007cee-b02a-488c-aba4-bbeef406c383","ios":"levelo://app?vid=de007cee-b02a-488c-aba4-bbeef406c383"},"vehicle_type_id":"4","last_reported":1784425431,"current_range_meters":5600,"station_id":"","pricing_plan_id":"cebpf4jnsgd1na2vs0mg"},{"bike_id":"112747b7-382f-4d40-a473-66539bbbed83","system_id":"levelo_inurba_marseille","lat":43.29881,"lon":5.38913,"is_reserved":false,"is_disabled":false,"rental_uris":{"android":"levelo://app?vid=112747b7-382f-4d40-a473-66539bbbed83","ios":"levelo://app?vid=112747b7-382f-4d40-a473-66539bbbed83"},"vehicle_type_id":"4","last_reported":1784425431,"current_range_meters":39200,"station_id":"ce4bh392rcd13ifvqdl0","pricing_plan_id":"cebpf4jnsgd1na2vs0mg"},{"bike_id":"75971bad-4bf4-4679-b727-692349e19b7c","system_id":"levelo_inurba_marseille","lat":43.25726,"lon":5.41101,"is_reserved":false,"is_disabled":false,"rental_uris":{"android":"levelo://app?vid=75971bad-4bf4-4679-b727-692349e19b7c","ios":"levelo://app?vid=75971bad-4bf4-4679-b727-692349e19b7c"},"vehicle_type_id":"4","last_reported":1784425431,"current_range_meters":30000,"station_id":"ce4bhkp2rcd13ifvqgd0","pricing_plan_id":"cebpf4jnsgd1na2vs0mg"},{"bike_id":"17e4be99-494c-4c9f-8720-fc080f3b6be4","system_id":"levelo_inurba_marseille","lat":43.29811,"lon":5.37605,"is_reserved":false,"is_disabled":false,"rental_uris":{"android":"levelo://app?vid=17e4be99-494c-4c9f-8720-fc080f3b6be4","ios":"levelo://app?vid=17e4be99-494c-4c9f-8720-fc080f3b6be4"},"vehicle_type_id":"4","last_reported":1784425431,"current_range_meters":6000,"station_id":"","pricing_plan_id":"cebpf4jnsgd1na2vs0mg"},{"bike_id":"80de983e-d9b1-4c9d-ae70-df5257cd5ea7","system_id":"levelo_inurba_marseille","lat":43.29618,"lon":5.40559,"is_reserved":false,"is_disabled":false,"rental_uris":{"android":"levelo://app?vid=80de983e-d9b1-4c9d-ae70-df5257cd5ea7","ios":"levelo://app?vid=80de983e-d9b1-4c9d-ae70-df5257cd5ea7"},"vehicle_type_id":"4","last_reported":1784425431,"current_range_meters":36000,"station_id":"ce4bh0h2rcd13ifvqd60","pricing_plan_id":"cebpf4jnsgd1na2vs0mg"},{"bike_id":"54aa389a-a9b1-46e5-b811-f955715882fe","system_id":"levelo_inurba_marseille","lat":43.29432,"lon":5.39755,"is_reserved":false,"is_disabled":false,"rental_uris":{"android":"levelo://app?vid=54aa389a-a9b1-46e5-b811-f955715882fe","ios":"levelo://app?vid=54aa389a-a9b1-46e5-b811-f955715882fe"},"vehicle_type_id":"4","last_reported":1784425431,"current_range_meters":36000,"station_id":"ce4bh3h2rcd13ifvqdo0","pricing_plan_id":"cebpf4jnsgd1na2vs0mg"},{"bike_id":"2b11ca05-7a73-4966-89f6-dcae876a0356","system_id":"levelo_inurba_marseille","lat":43.28273,"lon":5.35074,"is_reserved":false,"is_disabled":false,"rental_uris":{"android":"levelo://app?vid=2b11ca05-7a73-4966-89f6-dcae876a0356","ios":"levelo://app?vid=2b11ca05-7a73-4966-89f6-dcae876a0356"},"vehicle_type_id":"4","last_reported":1784425431,"current_range_meters":30400,"station_id":"ce4bhbp2rcd13ifvqerg","pricing_plan_id":"cebpf4jnsgd1na2vs0mg"},{"bike_id":"13203229-ddfa-4a7d-bf44-ad78001778e3","system_id":"levelo_inurba_marseille","lat":43.31906,"lon":5.36804,"is_reserved":false,"is_disabled":false,"rental_uris":{"android":"levelo://app?vid=13203229-ddfa-4a7d-bf44-ad78001778e3","ios":"levelo://app?vid=13203229-ddfa-4a7d-bf44-ad78001778e3"},"vehicle_type_id":"4","last_reported":1784425431,"current_range_meters":19200,"station_id":"st_d6o2h0d0559c73evc1b0","pricing_plan_id":"cebpf4jnsgd1na2vs0mg"},{"bike_id":"10f5a929-4432-411e-96b1-0907f6fcf785","system_id":"levelo_inurba_marseille","lat":43.3171,"lon":5.43705,"is_reserved":false,"is_disabled":true,"rental_uris":{"android":"levelo://app?vid=10f5a929-4432-411e-96b1-0907f6fcf785","ios":"levelo://app?vid=10f5a929-4432-411e-96b1-0907f6fcf785"},"vehicle_type_id":"4","last_reported":1784425431,"current_range_meters":1200,"station_id":"ce4bhp92rcd13ifvqhcg","pricing_plan_id":"cebpf4jnsgd1na2vs0mg"},{"bike_id":"92f9377a-62ba-495b-8de9-1750140cdb94","system_id":"levelo_inurba_marseille","lat":43.29623,"lon":5.37161,"is_reserved":false,"is_disabled":true,"rental_uris":{"android":"levelo://app?vid=92f9377a-62ba-495b-8de9-1750140cdb94","ios":"levelo://app?vid=92f9377a-62ba-495b-8de9-1750140cdb94"},"vehicle_type_id":"4","last_reported":1784425431,"current_range_meters":6800,"station_id":"","pricing_plan_id":"cebpf4jnsgd1na2vs0mg"},{"bike_id":"e242ac79-72e2-45d6-8e9e-53c9072f4df5","system_id":"levelo_inurba_marseille","lat":43.31994,"lon":5.38162,"is_reserved":false,"is_disabled":false,"rental_uris":{"android":"levelo://app?vid=e242ac79-72e2-45d6-8e9e-53c9072f4df5","ios":"levelo://app?vid=e242ac79-72e2-45d6-8e9e-53c9072f4df5"},"vehicle_type_id":"4","last_reported":1784425431,"current_range_meters":34000,"station_id":"ce4bhr12rcd13ifvqhpg","pricing_plan_id":"cebpf4jnsgd1na2vs0mg"},{"bike_id":"ac34d0f1-dd69-48bc-a853-81b6ddeab400","system_id":"levelo_inurba_marseille","lat":43.27191,"lon":5.40989,"is_reserved":false,"is_disabled":false,"rental_uris":{"android":"levelo://app?vid=ac34d0f1-dd69-48bc-a853-81b6ddeab400","ios":"levelo://app?vid=ac34d0f1-dd69-48bc-a853-81b6ddeab400"},"vehicle_type_id":"4","last_reported":1784425431,"current_range_meters":30400,"station_id":"ce4bhl12rcd13ifvqgf0","pricing_plan_id":"cebpf4jnsgd1na2vs0mg"},{"bike_id":"d3fa860c-2647-4e32-bbf7-95149e47e326","system_id":"levelo_inurba_marseille","lat":43.3025,"lon":5.40054,"is_reserved":false,"is_disabled":true,"rental_uris":{"android":"levelo://app?vid=d3fa860c-2647-4e32-bbf7-95149e47e326","ios":"levelo://app?vid=d3fa860c-2647-4e32-bbf7-95149e47e326"},"vehicle_type_id":"4","last_reported":1784425431,"current_range_meters":1600,"station_id":"ce4bgvh2rcd13ifvqcs0","pricing_plan_id":"cebpf4jnsgd1na2vs0mg"},{"bike_id":"c2e7fe27-d2b0-440e-b62d-ead50feed951","system_id":"levelo_inurba_marseille","lat":43.29479,"lon":5.4333,"is_reserved":false,"is_disabled":false,"rental_uris":{"android":"levelo://app?vid=c2e7fe27-d2b0-440e-b62d-ead50feed951","ios":"levelo://app?vid=c2e7fe27-d2b0-440e-b62d-ead50feed951"},"vehicle_type_id":"4","last_reported":1784425431,"current_range_meters":6000,"station_id":"st_d3j5ugp08ojc73fj9d10","pricing_plan_id":"cebpf4jnsgd1na2vs0mg"},{"bike_id":"68487660-d0f8-4357-a041-ea23c3836a53","system_id":"levelo_inurba_marseille","lat":43.26217,"lon":5.37462,"is_reserved":false,"is_disabled":true,"rental_uris":{"android":"levelo://app?vid=68487660-d0f8-4357-a041-ea23c3836a53","ios":"levelo://app?vid=68487660-d0f8-4357-a041-ea23c3836a53"},"vehicle_type_id":"4","last_reported":1784425431,"current_range_meters":39200,"station_id":"ce4bhgp2rcd13ifvqfc0","pricing_plan_id":"cebpf4jnsgd1na2vs0mg"},{"bike_id":"2cfcec7a-99e6-4c2c-8d5c-3002941aaf10","system_id":"levelo_inurba_marseille","lat":43.30327,"lon":5.4046,"is_reserved":false,"is_disabled":false,"rental_uris":{"android":"levelo://app?vid=2cfcec7a-99e6-4c2c-8d5c-3002941aaf10","ios":"levelo://app?vid=2cfcec7a-99e6-4c2c-8d5c-3002941aaf10"},"vehicle_type_id":"4","last_reported":1784425431,"current_range_meters":40000,"station_id":"ce4bh012rcd13ifvqd10","pricing_plan_id":"cebpf4jnsgd1na2vs0mg"},{"bike_id":"71801ea0-7ec4-4766-829d-e2e2fb7d24e7","system_id":"levelo_inurba_marseille","lat":43.31899,"lon":5.4073,"is_reserved":false,"is_disabled":false,"rental_uris":{"android":"levelo://app?vid=71801ea0-7ec4-4766-829d-e2e2fb7d24e7","ios":"levelo://app?vid=71801ea0-7ec4-4766-829d-e2e2fb7d24e7"},"vehicle_type_id":"4","last_reported":1784425431,"current_range_meters":25200,"station_id":"ce4bhq12rcd13ifvqhig","pricing_plan_id":"cebpf4jnsgd1na2vs0mg"},{"bike_id":"2623e023-e953-40ac-8068-15d2169ca99d","system_id":"levelo_inurba_marseille","lat":43.28703,"lon":5.46651,"is_reserved":false,"is_disabled":false,"rental_uris":{"android":"levelo://app?vid=2623e023-e953-40ac-8068-15d2169ca99d","ios":"levelo://app?vid=2623e023-e953-40ac-8068-15d2169ca99d"},"vehicle_type_id":"4","last_reported":1784425431,"current_range_meters":38400,"station_id":"st_d6tc3vkotcvc738tfjhg","pricing_plan_id":"cebpf4jnsgd1na2vs0mg"},{"bike_id":"a6cc8ac1-b80c-415f-9766-31843da894ea","system_id":"levelo_inurba_marseille","lat":43.29571,"lon":5.39976,"is_reserved":false,"is_disabled":false,"rental_uris":{"android":"levelo://app?vid=a6cc8ac1-b80c-415f-9766-31843da894ea","ios":"levelo://app?vid=a6cc8ac1-b80c-415f-9766-31843da894ea"},"vehicle_type_id":"4","last_reported":1784425431,"current_range_meters":19200,"station_id":"ce4bh312rcd13ifvqdj0","pricing_plan_id":"cebpf4jnsgd1na2vs0mg"},{"bike_id":"210c12f2-f0b9-47e7-930c-17a4a627f1b9","system_id":"levelo_inurba_marseille","lat":43.26508,"lon":5.39558,"is_reserved":false,"is_disabled":false,"rental_uris":{"android":"levelo://app?vid=210c12f2-f0b9-47e7-930c-17a4a627f1b9","ios":"levelo://app?vid=210c12f2-f0b9-47e7-930c-17a4a627f1b9"},"vehicle_type_id":"4","last_reported":1784425431,"current_range_meters":38800,"station_id":"ce4bhi12rcd13ifvqfq0","pricing_plan_id":"cebpf4jnsgd1na2vs0mg"},{"bike_id":"756c186a-e158-4757-8e31-885e1f217816","system_id":"levelo_inurba_marseille","lat":43.30828,"lon":5.38159,"is_reserved":false,"is_disabled":false,"rental_uris":{"android":"levelo://app?vid=756c186a-e158-4757-8e31-885e1f217816","ios":"levelo://app?vid=756c186a-e158-4757-8e31-885e1f217816"},"vehicle_type_id":"4","last_reported":1784425431,"current_range_meters":30400,"station_id":"ce4bgt12rcd13ifvqce0","pricing_plan_id":"cebpf4jnsgd1na2vs0mg"},{"bike_id":"cd5baefc-c546-46cd-a83d-378c14c5704e","system_id":"levelo_inurba_marseille","lat":43.30673,"lon":5.40074,"is_reserved":false,"is_disabled":false,"rental_uris":{"android":"levelo://app?vid=cd5baefc-c546-46cd-a83d-378c14c5704e","ios":"levelo://app?vid=cd5baefc-c546-46cd-a83d-378c14c5704e"},"vehicle_type_id":"4","last_reported":1784425431,"current_range_meters":8400,"station_id":"ce4bh112rcd13ifvqda0","pricing_plan_id":"cebpf4jnsgd1na2vs0mg"},{"bike_id":"f8955ac0-4fb0-43de-bef9-e6c33ea71dd3","system_id":"levelo_inurba_marseille","lat":43.28613,"lon":5.35102,"is_reserved":false,"is_disabled":true,"rental_uris":{"android":"levelo://app?vid=f8955ac0-4fb0-43de-bef9-e6c33ea71dd3","ios":"levelo://app?vid=f8955ac0-4fb0-43de-bef9-e6c33ea71dd3"},"vehicle_type_id":"4","last_reported":1784425431,"current_range_meters":28800,"station_id":"ce4bhch2rcd13ifvqeug","pricing_plan_id":"cebpf4jnsgd1na2vs0mg"},{"bike_id":"1aba4b2e-71a6-4e82-8e9d-0b35db6f35c2","system_id":"levelo_inurba_marseille","lat":43.24167,"lon":5.36399,"is_reserved":false,"is_disabled":false,"rental_uris":{"android":"levelo://app?vid=1aba4b2e-71a6-4e82-8e9d-0b35db6f35c2","ios":"levelo://app?vid=1aba4b2e-71a6-4e82-8e9d-0b35db6f35c2"},"vehicle_type_id":"4","last_reported":1784425431,"current_range_meters":18000,"station_id":"cpo36qri1sfpv3e86is0","pricing_plan_id":"cebpf4jnsgd1na2vs0mg"},{"bike_id":"863d0357-9100-4091-8be6-61d932e4e898","system_id":"levelo_inurba_marseille","lat":43.33756,"lon":5.37458,"is_reserved":false,"is_disabled":false,"rental_uris":{"android":"levelo://app?vid=863d0357-9100-4091-8be6-61d932e4e898","ios":"levelo://app?vid=863d0357-9100-4091-8be6-61d932e4e898"},"vehicle_type_id":"4","last_reported":1784425431,"current_range_meters":38000,"station_id":"","pricing_plan_id":"cebpf4jnsgd1na2vs0mg"},{"bike_id":"0d249168-c1b9-4fc1-a9ca-ee81dcabf286","system_id":"levelo_inurba_marseille","lat":43.30847,"lon":5.4041,"is_reserved":false,"is_disabled":false,"rental_uris":{"android":"levelo://app?vid=0d249168-c1b9-4fc1-a9ca-ee81dcabf286","ios":"levelo://app?vid=0d249168-c1b9-4fc1-a9ca-ee81dcabf286"},"vehicle_type_id":"4","last_reported":1784425431,"current_range_meters":10800,"station_id":"","pricing_plan_id":"cebpf4jnsgd1na2vs0mg"},{"bike_id":"fed9e1fc-e449-4c3b-9a76-14ab11424fad","system_id":"levelo_inurba_marseille","lat":43.30129,"lon":5.37416,"is_reserved":false,"is_disabled":false,"rental_uris":{"android":"levelo://app?vid=fed9e1fc-e449-4c3b-9a76-14ab11424fad","ios":"levelo://app?vid=fed9e1fc-e449-4c3b-9a76-14ab11424fad"},"vehicle_type_id":"4","last_reported":1784425431,"current_range_meters":38000,"station_id":"ce4bgs92rcd13ifvqcc0","pricing_plan_id":"cebpf4jnsgd1na2vs0mg"},{"bike_id":"69f361e2-c3c3-49d6-b052-5072f850a9c9","system_id":"levelo_inurba_marseille","lat":43.24999,"lon":5.38927,"is_reserved":false,"is_disabled":false,"rental_uris":{"android":"levelo://app?vid=69f361e2-c3c3-49d6-b052-5072f850a9c9","ios":"levelo://app?vid=69f361e2-c3c3-49d6-b052-5072f850a9c9"},"vehicle_type_id":"4","last_reported":1784425431,"current_range_meters":38400,"station_id":"ce4bhgp2rcd13ifvqfd0","pricing_plan_id":"cebpf4jnsgd1na2vs0mg"},{"bike_id":"5f74f58c-bfab-4f4a-bece-0ff60b0dcfc4","system_id":"levelo_inurba_marseille","lat":43.28148,"lon":5.4264,"is_reserved":false,"is_disabled":false,"rental_uris":{"android":"levelo://app?vid=5f74f58c-bfab-4f4a-bece-0ff60b0dcfc4","ios":"levelo://app?vid=5f74f58c-bfab-4f4a-bece-0ff60b0dcfc4"},"vehicle_type_id":"4","last_reported":1784425431,"current_range_meters":39200,"station_id":"ce4bhnh2rcd13ifvqgug","pricing_plan_id":"cebpf4jnsgd1na2vs0mg"},{"bike_id":"06ac1826-c179-4cf3-86e9-bd6e69bb168a","system_id":"levelo_inurba_marseille","lat":43.31523,"lon":5.38037,"is_reserved":false,"is_disabled":false,"rental_uris":{"android":"levelo://app?vid=06ac1826-c179-4cf3-86e9-bd6e69bb168a","ios":"levelo://app?vid=06ac1826-c179-4cf3-86e9-bd6e69bb168a"},"vehicle_type_id":"4","last_reported":1784425431,"current_range_meters":31200,"station_id":"ce4bhsp2rcd13ifvqi50","pricing_plan_id":"cebpf4jnsgd1na2vs0mg"},{"bike_id":"8ba7f2d6-52d3-4c56-b19a-19a142e62779","system_id":"levelo_inurba_marseille","lat":43.2405,"lon":5.37624,"is_reserved":false,"is_disabled":false,"rental_uris":{"android":"levelo://app?vid=8ba7f2d6-52d3-4c56-b19a-19a142e62779","ios":"levelo://app?vid=8ba7f2d6-52d3-4c56-b19a-19a142e62779"},"vehicle_type_id":"4","last_reported":1784425431,"current_range_meters":11200,"station_id":"","pricing_plan_id":"cebpf4jnsgd1na2vs0mg"},{"bike_id":"ffdafddb-edce-478b-b283-0a15f46a5cac","system_id":"levelo_inurba_marseille","lat":43.25847,"lon":5.39875,"is_reserved":false,"is_disabled":false,"rental_uris":{"android":"levelo://app?vid=ffdafddb-edce-478b-b283-0a15f46a5cac","ios":"levelo://app?vid=ffdafddb-edce-478b-b283-0a15f46a5cac"},"vehicle_type_id":"4","last_reported":1784425431,"current_range_meters":38000,"station_id":"ce4bhl92rcd13ifvqghg","pricing_plan_id":"cebpf4jnsgd1na2vs0mg"},{"bike_id":"66afdf81-3bfc-4f74-a2b5-978630e17649","system_id":"levelo_inurba_marseille","lat":43.27911,"lon":5.3727,"is_reserved":false,"is_disabled":false,"rental_uris":{"android":"levelo://app?vid=66afdf81-3bfc-4f74-a2b5-978630e17649","ios":"levelo://app?vid=66afdf81-3bfc-4f74-a2b5-978630e17649"},"vehicle_type_id":"4","last_reported":1784425431,"current_range_meters":27600,"station_id":"","pricing_plan_id":"cebpf4jnsgd1na2vs0mg"},{"bike_id":"6a73d93c-6339-46f5-8ebc-d03b3464630c","system_id":"levelo_inurba_marseille","lat":43.26383,"lon":5.41062,"is_reserved":false,"is_disabled":false,"rental_uris":{"android":"levelo://app?vid=6a73d93c-6339-46f5-8ebc-d03b3464630c","ios":"levelo://app?vid=6a73d93c-6339-46f5-8ebc-d03b3464630c"},"vehicle_type_id":"4","last_reported":1784425431,"current_range_meters":33600,"station_id":"st_d4e5ca6na9uc73bfl5fg","pricing_plan_id":"cebpf4jnsgd1na2vs0mg"},{"bike_id":"c3699d7f-7304-4eec-8a74-2a709837374f","system_id":"levelo_inurba_marseille","lat":43.28376,"lon":5.38639,"is_reserved":false,"is_disabled":true,"rental_uris":{"android":"levelo://app?vid=c3699d7f-7304-4eec-8a74-2a709837374f","ios":"levelo://app?vid=c3699d7f-7304-4eec-8a74-2a709837374f"},"vehicle_type_id":"4","last_reported":1784425431,"current_range_meters":17200,"station_id":"ce4bh492rcd13ifvqdvg","pricing_plan_id":"cebpf4jnsgd1na2vs0mg"},{"bike_id":"44d448a8-6b36-4f32-9b36-fe4d075b4208","system_id":"levelo_inurba_marseille","lat":43.27996,"lon":5.40027,"is_reserved":false,"is_disabled":false,"rental_uris":{"android":"levelo://app?vid=44d448a8-6b36-4f32-9b36-fe4d075b4208","ios":"levelo://app?vid=44d448a8-6b36-4f32-9b36-fe4d075b4208"},"vehicle_type_id":"4","last_reported":1784425431,"current_range_meters":34800,"station_id":"ce4bho92rcd13ifvqh4g","pricing_plan_id":"cebpf4jnsgd1na2vs0mg"},{"bike_id":"e172a8f9-b715-4e53-bc4f-64f9c8571096","system_id":"levelo_inurba_marseille","lat":43.28098,"lon":5.37831,"is_reserved":false,"is_disabled":false,"rental_uris":{"android":"levelo://app?vid=e172a8f9-b715-4e53-bc4f-64f9c8571096","ios":"levelo://app?vid=e172a8f9-b715-4e53-bc4f-64f9c8571096"},"vehicle_type_id":"4","last_reported":1784425431,"current_range_meters":39200,"station_id":"ce4bha12rcd13ifvqee0","pricing_plan_id":"cebpf4jnsgd1na2vs0mg"},{"bike_id":"6fb97d20-e9e9-48e7-a7c5-1eef4772fd35","system_id":"levelo_inurba_marseille","lat":43.30866,"lon":5.37191,"is_reserved":false,"is_disabled":false,"rental_uris":{"android":"levelo://app?vid=6fb97d20-e9e9-48e7-a7c5-1eef4772fd35","ios":"levelo://app?vid=6fb97d20-e9e9-48e7-a7c5-1eef4772fd35"},"vehicle_type_id":"4","last_reported":1784425431,"current_range_meters":38000,"station_id":"ce4bguh2rcd13ifvqckg","pricing_plan_id":"cebpf4jnsgd1na2vs0mg"},{"bike_id":"86efa276-2b12-4109-89f5-cef0a9df6a61","system_id":"levelo_inurba_marseille","lat":43.26928,"lon":5.38911,"is_reserved":false,"is_disabled":false,"rental_uris":{"android":"levelo://app?vid=86efa276-2b12-4109-89f5-cef0a9df6a61","ios":"levelo://app?vid=86efa276-2b12-4109-89f5-cef0a9df6a61"},"vehicle_type_id":"4","last_reported":1784425431,"current_range_meters":34000,"station_id":"ce4bhhh2rcd13ifvqfl0","pricing_plan_id":"cebpf4jnsgd1na2vs0mg"},{"bike_id":"b3f4d216-193b-485e-82c4-c347b75636d7","system_id":"levelo_inurba_marseille","lat":43.28474,"lon":5.38417,"is_reserved":false,"is_disabled":false,"rental_uris":{"android":"levelo://app?vid=b3f4d216-193b-485e-82c4-c347b75636d7","ios":"levelo://app?vid=b3f4d216-193b-485e-82c4-c347b75636d7"},"vehicle_type_id":"4","last_reported":1784425431,"current_range_meters":28400,"station_id":"ce4bh512rcd13ifvqe3g","pricing_plan_id":"cebpf4jnsgd1na2vs0mg"},{"bike_id":"e9e5a543-6f34-4801-9796-c7001d28c440","system_id":"levelo_inurba_marseille","lat":43.27641,"lon":5.3629,"is_reserved":false,"is_disabled":true,"rental_uris":{"android":"levelo://app?vid=e9e5a543-6f34-4801-9796-c7001d28c440","ios":"levelo://app?vid=e9e5a543-6f34-4801-9796-c7001d28c440"},"vehicle_type_id":"4","last_reported":1784425431,"current_range_meters":0,"station_id":"","pricing_plan_id":"cebpf4jnsgd1na2vs0mg"},{"bike_id":"4120c7d7-1403-4d50-96ed-9b7731a97efc","system_id":"levelo_inurba_marseille","lat":43.32123,"lon":5.36777,"is_reserved":false,"is_disabled":false,"rental_uris":{"android":"levelo://app?vid=4120c7d7-1403-4d50-96ed-9b7731a97efc","ios":"levelo://app?vid=4120c7d7-1403-4d50-96ed-9b7731a97efc"},"vehicle_type_id":"4","last_reported":1784425431,"current_range_meters":25600,"station_id":"ce4bhrh2rcd13ifvqhug","pricing_plan_id":"cebpf4jnsgd1na2vs0mg"},{"bike_id":"b66b2576-31fd-4b3c-bf51-d7b0d1ff400d","system_id":"levelo_inurba_marseille","lat":43.30139,"lon":5.39868,"is_reserved":false,"is_disabled":false,"rental_uris":{"android":"levelo://app?vid=b66b2576-31fd-4b3c-bf51-d7b0d1ff400d","ios":"levelo://app?vid=b66b2576-31fd-4b3c-bf51-d7b0d1ff400d"},"vehicle_type_id":"4","last_reported":1784425431,"current_range_meters":36800,"station_id":"ce4bh0h2rcd13ifvqd40","pricing_plan_id":"cebpf4jnsgd1na2vs0mg"},{"bike_id":"b32936e5-7bdd-4eaf-adbe-3bd4bbf7a5ff","system_id":"levelo_inurba_marseille","lat":43.28712,"lon":5.37392,"is_reserved":false,"is_disabled":true,"rental_uris":{"android":"levelo://app?vid=b32936e5-7bdd-4eaf-adbe-3bd4bbf7a5ff","ios":"levelo://app?vid=b32936e5-7bdd-4eaf-adbe-3bd4bbf7a5ff"},"vehicle_type_id":"4","last_reported":1784425431,"current_range_meters":32400,"station_id":"ce4bh3p2rcd13ifvqdq0","pricing_plan_id":"cebpf4jnsgd1na2vs0mg"},{"bike_id":"7e62a1e7-e43e-4c6d-97fe-eb42228edf6d","system_id":"levelo_inurba_marseille","lat":43.26537,"lon":5.39394,"is_reserved":false,"is_disabled":false,"rental_uris":{"android":"levelo://app?vid=7e62a1e7-e43e-4c6d-97fe-eb42228edf6d","ios":"levelo://app?vid=7e62a1e7-e43e-4c6d-97fe-eb42228edf6d"},"vehicle_type_id":"4","last_reported":1784425431,"current_range_meters":8800,"station_id":"","pricing_plan_id":"cebpf4jnsgd1na2vs0mg"},{"bike_id":"fde3c0ba-b327-4305-bc8c-333beb8d2555","system_id":"levelo_inurba_marseille","lat":43.29042,"lon":5.38144,"is_reserved":false,"is_disabled":false,"rental_uris":{"android":"levelo://app?vid=fde3c0ba-b327-4305-bc8c-333beb8d2555","ios":"levelo://app?vid=fde3c0ba-b327-4305-bc8c-333beb8d2555"},"vehicle_type_id":"4","last_reported":1784425431,"current_range_meters":8000,"station_id":"ce4bh4p2rcd13ifvqe1g","pricing_plan_id":"cebpf4jnsgd1na2vs0mg"},{"bike_id":"32f1426e-4a2e-46e1-8b91-800ee9257883","system_id":"levelo_inurba_marseille","lat":43.2638,"lon":5.41075,"is_reserved":false,"is_disabled":false,"rental_uris":{"android":"levelo://app?vid=32f1426e-4a2e-46e1-8b91-800ee9257883","ios":"levelo://app?vid=32f1426e-4a2e-46e1-8b91-800ee9257883"},"vehicle_type_id":"4","last_reported":1784425431,"current_range_meters":36400,"station_id":"st_d4e5ca6na9uc73bfl5fg","pricing_plan_id":"cebpf4jnsgd1na2vs0mg"},{"bike_id":"96c7d8bf-870f-4442-a2ff-72793bf999b1","system_id":"levelo_inurba_marseille","lat":43.29228,"lon":5.39292,"is_reserved":false,"is_disabled":false,"rental_uris":{"android":"levelo://app?vid=96c7d8bf-870f-4442-a2ff-72793bf999b1","ios":"levelo://app?vid=96c7d8bf-870f-4442-a2ff-72793bf999b1"},"vehicle_type_id":"4","last_reported":1784425431,"current_range_meters":27200,"station_id":"ce4bh192rcd13ifvqdd0","pricing_plan_id":"cebpf4jnsgd1na2vs0mg"},{"bike_id":"7bacaa53-ea48-4c21-98e9-800e4cae89fb","system_id":"levelo_inurba_marseille","lat":43.28563,"lon":5.44099,"is_reserved":false,"is_disabled":false,"rental_uris":{"android":"levelo://app?vid=7bacaa53-ea48-4c21-98e9-800e4cae89fb","ios":"levelo://app?vid=7bacaa53-ea48-4c21-98e9-800e4cae89fb"},"vehicle_type_id":"4","last_reported":1784425431,"current_range_meters":6400,"station_id":"st_d3j3df2ikq2c7380ej80","pricing_plan_id":"cebpf4jnsgd1na2vs0mg"},{"bike_id":"43f4ab6e-c9bc-429f-ad19-4ed93e76682b","system_id":"levelo_inurba_marseille","lat":43.2656,"lon":5.40318,"is_reserved":false,"is_disabled":false,"rental_uris":{"android":"levelo://app?vid=43f4ab6e-c9bc-429f-ad19-4ed93e76682b","ios":"levelo://app?vid=43f4ab6e-c9bc-429f-ad19-4ed93e76682b"},"vehicle_type_id":"4","last_reported":1784425431,"current_range_meters":30800,"station_id":"ce4bhmp2rcd13ifvqgng","pricing_plan_id":"cebpf4jnsgd1na2vs0mg"},{"bike_id":"81587832-75ed-49cd-91c3-f57f9b8cec45","system_id":"levelo_inurba_marseille","lat":43.29043,"lon":5.3592,"is_reserved":false,"is_disabled":true,"rental_uris":{"android":"levelo://app?vid=81587832-75ed-49cd-91c3-f57f9b8cec45","ios":"levelo://app?vid=81587832-75ed-49cd-91c3-f57f9b8cec45"},"vehicle_type_id":"4","last_reported":1784425431,"current_range_meters":4800,"station_id":"ce4bha92rcd13ifvqeg0","pricing_plan_id":"cebpf4jnsgd1na2vs0mg"},{"bike_id":"20e706c3-b21a-406d-aee5-c8471e002c6d","system_id":"levelo_inurba_marseille","lat":43.3089,"lon":5.37193,"is_reserved":false,"is_disabled":false,"rental_uris":{"android":"levelo://app?vid=20e706c3-b21a-406d-aee5-c8471e002c6d","ios":"levelo://app?vid=20e706c3-b21a-406d-aee5-c8471e002c6d"},"vehicle_type_id":"4","last_reported":1784425431,"current_range_meters":30400,"station_id":"ce4bguh2rcd13ifvqckg","pricing_plan_id":"cebpf4jnsgd1na2vs0mg"},{"bike_id":"5d3c674b-efff-45e9-9001-4b78a8e6b29f","system_id":"levelo_inurba_marseille","lat":43.30435,"lon":5.39751,"is_reserved":false,"is_disabled":false,"rental_uris":{"android":"levelo://app?vid=5d3c674b-efff-45e9-9001-4b78a8e6b29f","ios":"levelo://app?vid=5d3c674b-efff-45e9-9001-4b78a8e6b29f"},"vehicle_type_id":"4","last_reported":1784425431,"current_range_meters":31200,"station_id":"ce4bh092rcd13ifvqd20","pricing_plan_id":"cebpf4jnsgd1na2vs0mg"},{"bike_id":"f3934305-9637-4bc9-84df-610e5ca478ee","system_id":"levelo_inurba_marseille","lat":43.28724,"lon":5.38409,"is_reserved":false,"is_disabled":false,"rental_uris":{"android":"levelo://app?vid=f3934305-9637-4bc9-84df-610e5ca478ee","ios":"levelo://app?vid=f3934305-9637-4bc9-84df-610e5ca478ee"},"vehicle_type_id":"4","last_reported":1784425431,"current_range_meters":25600,"station_id":"","pricing_plan_id":"cebpf4jnsgd1na2vs0mg"},{"bike_id":"ef85100c-c168-423a-855b-1fd0fc13c88a","system_id":"levelo_inurba_marseille","lat":43.23721,"lon":5.37778,"is_reserved":false,"is_disabled":false,"rental_uris":{"android":"levelo://app?vid=ef85100c-c168-423a-855b-1fd0fc13c88a","ios":"levelo://app?vid=ef85100c-c168-423a-855b-1fd0fc13c88a"},"vehicle_type_id":"4","last_reported":1784425431,"current_range_meters":29600,"station_id":"","pricing_plan_id":"cebpf4jnsgd1na2vs0mg"},{"bike_id":"cd5ea0e6-4596-4410-9ba6-bc5c03c2680f","system_id":"levelo_inurba_marseille","lat":43.23191,"lon":5.35551,"is_reserved":false,"is_disabled":false,"rental_uris":{"android":"levelo://app?vid=cd5ea0e6-4596-4410-9ba6-bc5c03c2680f","ios":"levelo://app?vid=cd5ea0e6-4596-4410-9ba6-bc5c03c2680f"},"vehicle_type_id":"4","last_reported":1784425431,"current_range_meters":22000,"station_id":"ce4bhu92rcd13ifvqi70","pricing_plan_id":"cebpf4jnsgd1na2vs0mg"},{"bike_id":"8af0df7e-cc30-46ec-af42-8ca23109e3a3","system_id":"levelo_inurba_marseille","lat":43.29476,"lon":5.43307,"is_reserved":false,"is_disabled":false,"rental_uris":{"android":"levelo://app?vid=8af0df7e-cc30-46ec-af42-8ca23109e3a3","ios":"levelo://app?vid=8af0df7e-cc30-46ec-af42-8ca23109e3a3"},"vehicle_type_id":"4","last_reported":1784425431,"current_range_meters":28800,"station_id":"st_d3j5ugp08ojc73fj9d10","pricing_plan_id":"cebpf4jnsgd1na2vs0mg"},{"bike_id":"4e0bb35d-9d08-43ae-ba03-03a104f5e067","system_id":"levelo_inurba_marseille","lat":43.27911,"lon":5.39578,"is_reserved":false,"is_disabled":false,"rental_uris":{"android":"levelo://app?vid=4e0bb35d-9d08-43ae-ba03-03a104f5e067","ios":"levelo://app?vid=4e0bb35d-9d08-43ae-ba03-03a104f5e067"},"vehicle_type_id":"4","last_reported":1784425431,"current_range_meters":14800,"station_id":"ce4bhf92rcd13ifvqf40","pricing_plan_id":"cebpf4jnsgd1na2vs0mg"},{"bike_id":"ed42fe4d-094d-4106-8da1-1dc7c1f659a9","system_id":"levelo_inurba_marseille","lat":43.30355,"lon":5.41871,"is_reserved":false,"is_disabled":false,"rental_uris":{"android":"levelo://app?vid=ed42fe4d-094d-4106-8da1-1dc7c1f659a9","ios":"levelo://app?vid=ed42fe4d-094d-4106-8da1-1dc7c1f659a9"},"vehicle_type_id":"4","last_reported":1784425431,"current_range_meters":28400,"station_id":"ce4bhop2rcd13ifvqh7g","pricing_plan_id":"cebpf4jnsgd1na2vs0mg"},{"bike_id":"3a18b200-e902-47ac-9902-b9dcbbb2a56c","system_id":"levelo_inurba_marseille","lat":43.29028,"lon":5.37557,"is_reserved":false,"is_disabled":false,"rental_uris":{"android":"levelo://app?vid=3a18b200-e902-47ac-9902-b9dcbbb2a56c","ios":"levelo://app?vid=3a18b200-e902-47ac-9902-b9dcbbb2a56c"},"vehicle_type_id":"4","last_reported":1784425431,"current_range_meters":22400,"station_id":"ce4bh692rcd13ifvqe90","pricing_plan_id":"cebpf4jnsgd1na2vs0mg"},{"bike_id":"b0119a0c-abbd-45f3-9116-87eafde8479e","system_id":"levelo_inurba_marseille","lat":43.29982,"lon":5.37182,"is_reserved":false,"is_disabled":false,"rental_uris":{"android":"levelo://app?vid=b0119a0c-abbd-45f3-9116-87eafde8479e","ios":"levelo://app?vid=b0119a0c-abbd-45f3-9116-87eafde8479e"},"vehicle_type_id":"4","last_reported":1784425431,"current_range_meters":39200,"station_id":"ce4bgr92rcd13ifvqc7g","pricing_plan_id":"cebpf4jnsgd1na2vs0mg"},{"bike_id":"5f0e6351-dc30-4088-8091-00d728ed0317","system_id":"levelo_inurba_marseille","lat":43.27981,"lon":5.38726,"is_reserved":false,"is_disabled":false,"rental_uris":{"android":"levelo://app?vid=5f0e6351-dc30-4088-8091-00d728ed0317","ios":"levelo://app?vid=5f0e6351-dc30-4088-8091-00d728ed0317"},"vehicle_type_id":"4","last_reported":1784425431,"current_range_meters":36000,"station_id":"ce4bhg12rcd13ifvqf80","pricing_plan_id":"cebpf4jnsgd1na2vs0mg"},{"bike_id":"7ff8118f-6c81-4cdf-8a1d-4753d954065d","system_id":"levelo_inurba_marseille","lat":43.29623,"lon":5.37967,"is_reserved":false,"is_disabled":false,"rental_uris":{"android":"levelo://app?vid=7ff8118f-6c81-4cdf-8a1d-4753d954065d","ios":"levelo://app?vid=7ff8118f-6c81-4cdf-8a1d-4753d954065d"},"vehicle_type_id":"4","last_reported":1784425431,"current_range_meters":4800,"station_id":"","pricing_plan_id":"cebpf4jnsgd1na2vs0mg"},{"bike_id":"cac0bd82-8b3a-4e1d-9381-7ff40af149d2","system_id":"levelo_inurba_marseille","lat":43.2468,"lon":5.38174,"is_reserved":false,"is_disabled":true,"rental_uris":{"android":"levelo://app?vid=cac0bd82-8b3a-4e1d-9381-7ff40af149d2","ios":"levelo://app?vid=cac0bd82-8b3a-4e1d-9381-7ff40af149d2"},"vehicle_type_id":"4","last_reported":1784425431,"current_range_meters":800,"station_id":"ce4bhih2rcd13ifvqfr0","pricing_plan_id":"cebpf4jnsgd1na2vs0mg"},{"bike_id":"bd3162d3-f2ee-499c-9575-ec1ca743af6c","system_id":"levelo_inurba_marseille","lat":43.278,"lon":5.38523,"is_reserved":false,"is_disabled":false,"rental_uris":{"android":"levelo://app?vid=bd3162d3-f2ee-499c-9575-ec1ca743af6c","ios":"levelo://app?vid=bd3162d3-f2ee-499c-9575-ec1ca743af6c"},"vehicle_type_id":"4","last_reported":1784425431,"current_range_meters":24800,"station_id":"","pricing_plan_id":"cebpf4jnsgd1na2vs0mg"},{"bike_id":"e8ba2d3c-91b5-4800-8226-4a1ddb117a7b","system_id":"levelo_inurba_marseille","lat":43.26509,"lon":5.39552,"is_reserved":false,"is_disabled":false,"rental_uris":{"android":"levelo://app?vid=e8ba2d3c-91b5-4800-8226-4a1ddb117a7b","ios":"levelo://app?vid=e8ba2d3c-91b5-4800-8226-4a1ddb117a7b"},"vehicle_type_id":"4","last_reported":1784425431,"current_range_meters":40000,"station_id":"ce4bhi12rcd13ifvqfq0","pricing_plan_id":"cebpf4jnsgd1na2vs0mg"},{"bike_id":"848a1aff-274a-4b44-93f8-df5211554a34","system_id":"levelo_inurba_marseille","lat":43.28708,"lon":5.37393,"is_reserved":false,"is_disabled":true,"rental_uris":{"android":"levelo://app?vid=848a1aff-274a-4b44-93f8-df5211554a34","ios":"levelo://app?vid=848a1aff-274a-4b44-93f8-df5211554a34"},"vehicle_type_id":"4","last_reported":1784425431,"current_range_meters":21600,"station_id":"ce4bh3p2rcd13ifvqdq0","pricing_plan_id":"cebpf4jnsgd1na2vs0mg"},{"bike_id":"f34fd467-8084-4fad-b05a-2971b02d1cef","system_id":"levelo_inurba_marseille","lat":43.25083,"lon":5.39508,"is_reserved":false,"is_disabled":false,"rental_uris":{"android":"levelo://app?vid=f34fd467-8084-4fad-b05a-2971b02d1cef","ios":"levelo://app?vid=f34fd467-8084-4fad-b05a-2971b02d1cef"},"vehicle_type_id":"4","last_reported":1784425431,"current_range_meters":39200,"station_id":"ce4bhm12rcd13ifvqgkg","pricing_plan_id":"cebpf4jnsgd1na2vs0mg"},{"bike_id":"1cb6f9ea-9159-4948-a7b5-812cac4d6644","system_id":"levelo_inurba_marseille","lat":43.2845,"lon":5.39186,"is_reserved":false,"is_disabled":false,"rental_uris":{"android":"levelo://app?vid=1cb6f9ea-9159-4948-a7b5-812cac4d6644","ios":"levelo://app?vid=1cb6f9ea-9159-4948-a7b5-812cac4d6644"},"vehicle_type_id":"4","last_reported":1784425431,"current_range_meters":30800,"station_id":"ce4bhoh2rcd13ifvqh5g","pricing_plan_id":"cebpf4jnsgd1na2vs0mg"},{"bike_id":"151bdde7-7270-412d-87bc-a629165d898b","system_id":"levelo_inurba_marseille","lat":43.29739,"lon":5.37679,"is_reserved":false,"is_disabled":false,"rental_uris":{"android":"levelo://app?vid=151bdde7-7270-412d-87bc-a629165d898b","ios":"levelo://app?vid=151bdde7-7270-412d-87bc-a629165d898b"},"vehicle_type_id":"4","last_reported":1784425431,"current_range_meters":38400,"station_id":"ce4bgkh2rcd13ifvqbl0","pricing_plan_id":"cebpf4jnsgd1na2vs0mg"},{"bike_id":"c71cc65d-33de-4389-87f1-90b48f14a5db","system_id":"levelo_inurba_marseille","lat":43.31517,"lon":5.37316,"is_reserved":false,"is_disabled":false,"rental_uris":{"android":"levelo://app?vid=c71cc65d-33de-4389-87f1-90b48f14a5db","ios":"levelo://app?vid=c71cc65d-33de-4389-87f1-90b48f14a5db"},"vehicle_type_id":"4","last_reported":1784425431,"current_range_meters":39200,"station_id":"ce4bgt12rcd13ifvqcd0","pricing_plan_id":"cebpf4jnsgd1na2vs0mg"},{"bike_id":"a2e23dcd-b852-403d-be87-72b6ef82cd1f","system_id":"levelo_inurba_marseille","lat":43.27528,"lon":5.42552,"is_reserved":false,"is_disabled":false,"rental_uris":{"android":"levelo://app?vid=a2e23dcd-b852-403d-be87-72b6ef82cd1f","ios":"levelo://app?vid=a2e23dcd-b852-403d-be87-72b6ef82cd1f"},"vehicle_type_id":"4","last_reported":1784425431,"current_range_meters":25200,"station_id":"st_d8t4bh7nbrqs73arha60","pricing_plan_id":"cebpf4jnsgd1na2vs0mg"},{"bike_id":"5ada65e8-10f7-43e8-8565-b7f41438072e","system_id":"levelo_inurba_marseille","lat":43.30462,"lon":5.37909,"is_reserved":false,"is_disabled":false,"rental_uris":{"android":"levelo://app?vid=5ada65e8-10f7-43e8-8565-b7f41438072e","ios":"levelo://app?vid=5ada65e8-10f7-43e8-8565-b7f41438072e"},"vehicle_type_id":"4","last_reported":1784425431,"current_range_meters":23200,"station_id":"ce4bgup2rcd13ifvqcn0","pricing_plan_id":"cebpf4jnsgd1na2vs0mg"},{"bike_id":"a7c42e62-f2d7-4f0f-96f4-b9d2418cea29","system_id":"levelo_inurba_marseille","lat":43.29657,"lon":5.40597,"is_reserved":false,"is_disabled":true,"rental_uris":{"android":"levelo://app?vid=a7c42e62-f2d7-4f0f-96f4-b9d2418cea29","ios":"levelo://app?vid=a7c42e62-f2d7-4f0f-96f4-b9d2418cea29"},"vehicle_type_id":"4","last_reported":1784425431,"current_range_meters":18000,"station_id":"ce4bh0h2rcd13ifvqd60","pricing_plan_id":"cebpf4jnsgd1na2vs0mg"},{"bike_id":"191b768f-a749-4d41-bfed-b4e0c0d78060","system_id":"levelo_inurba_marseille","lat":43.30938,"lon":5.39048,"is_reserved":false,"is_disabled":false,"rental_uris":{"android":"levelo://app?vid=191b768f-a749-4d41-bfed-b4e0c0d78060","ios":"levelo://app?vid=191b768f-a749-4d41-bfed-b4e0c0d78060"},"vehicle_type_id":"4","last_reported":1784425431,"current_range_meters":39200,"station_id":"ce4bgup2rcd13ifvqco0","pricing_plan_id":"cebpf4jnsgd1na2vs0mg"},{"bike_id":"81061f6b-dc76-4179-9ef9-b81437170d6b","system_id":"levelo_inurba_marseille","lat":43.29538,"lon":5.39408,"is_reserved":false,"is_disabled":false,"rental_uris":{"android":"levelo://app?vid=81061f6b-dc76-4179-9ef9-b81437170d6b","ios":"levelo://app?vid=81061f6b-dc76-4179-9ef9-b81437170d6b"},"vehicle_type_id":"4","last_reported":1784425431,"current_range_meters":20800,"station_id":"ce4bh292rcd13ifvqdf0","pricing_plan_id":"cebpf4jnsgd1na2vs0mg"},{"bike_id":"80aab92c-8bc2-4649-ab28-9669d10e174a","system_id":"levelo_inurba_marseille","lat":43.30436,"lon":5.38887,"is_reserved":false,"is_disabled":false,"rental_uris":{"android":"levelo://app?vid=80aab92c-8bc2-4649-ab28-9669d10e174a","ios":"levelo://app?vid=80aab92c-8bc2-4649-ab28-9669d10e174a"},"vehicle_type_id":"4","last_reported":1784425431,"current_range_meters":37600,"station_id":"ce4bgk12rcd13ifvqbi0","pricing_plan_id":"cebpf4jnsgd1na2vs0mg"},{"bike_id":"2c3034d9-cfe0-4bed-ba66-d570d2e65392","system_id":"levelo_inurba_marseille","lat":43.29979,"lon":5.38487,"is_reserved":false,"is_disabled":true,"rental_uris":{"android":"levelo://app?vid=2c3034d9-cfe0-4bed-ba66-d570d2e65392","ios":"levelo://app?vid=2c3034d9-cfe0-4bed-ba66-d570d2e65392"},"vehicle_type_id":"4","last_reported":1784425431,"current_range_meters":20800,"station_id":"ce4bgj92rcd13ifvqbd0","pricing_plan_id":"cebpf4jnsgd1na2vs0mg"},{"bike_id":"15df54a3-1cd4-471c-bbb3-56bd6446d1c5","system_id":"levelo_inurba_marseille","lat":43.28738,"lon":5.37462,"is_reserved":false,"is_disabled":true,"rental_uris":{"android":"levelo://app?vid=15df54a3-1cd4-471c-bbb3-56bd6446d1c5","ios":"levelo://app?vid=15df54a3-1cd4-471c-bbb3-56bd6446d1c5"},"vehicle_type_id":"4","last_reported":1784425431,"current_range_meters":26000,"station_id":"","pricing_plan_id":"cebpf4jnsgd1na2vs0mg"},{"bike_id":"0f6ff1da-c9e3-42e7-a8d3-8280d1c0addc","system_id":"levelo_inurba_marseille","lat":43.33718,"lon":5.37415,"is_reserved":false,"is_disabled":false,"rental_uris":{"android":"levelo://app?vid=0f6ff1da-c9e3-42e7-a8d3-8280d1c0addc","ios":"levelo://app?vid=0f6ff1da-c9e3-42e7-a8d3-8280d1c0addc"},"vehicle_type_id":"4","last_reported":1784425431,"current_range_meters":30400,"station_id":"","pricing_plan_id":"cebpf4jnsgd1na2vs0mg"},{"bike_id":"1e628dec-3141-48e0-b510-1c285ab03f4c","system_id":"levelo_inurba_marseille","lat":43.26407,"lon":5.41078,"is_reserved":false,"is_disabled":false,"rental_uris":{"android":"levelo://app?vid=1e628dec-3141-48e0-b510-1c285ab03f4c","ios":"levelo://app?vid=1e628dec-3141-48e0-b510-1c285ab03f4c"},"vehicle_type_id":"4","last_reported":1784425431,"current_range_meters":37600,"station_id":"st_d4e5ca6na9uc73bfl5fg","pricing_plan_id":"cebpf4jnsgd1na2vs0mg"},{"bike_id":"8337f5b4-2806-4bc0-9f71-af183adb5db8","system_id":"levelo_inurba_marseille","lat":43.23822,"lon":5.43512,"is_reserved":false,"is_disabled":false,"rental_uris":{"android":"levelo://app?vid=8337f5b4-2806-4bc0-9f71-af183adb5db8","ios":"levelo://app?vid=8337f5b4-2806-4bc0-9f71-af183adb5db8"},"vehicle_type_id":"4","last_reported":1784425431,"current_range_meters":6400,"station_id":"","pricing_plan_id":"cebpf4jnsgd1na2vs0mg"},{"bike_id":"0d69c6ad-1581-485b-8bcd-d541c4976ef8","system_id":"levelo_inurba_marseille","lat":43.31889,"lon":5.36816,"is_reserved":false,"is_disabled":false,"rental_uris":{"android":"levelo://app?vid=0d69c6ad-1581-485b-8bcd-d541c4976ef8","ios":"levelo://app?vid=0d69c6ad-1581-485b-8bcd-d541c4976ef8"},"vehicle_type_id":"4","last_reported":1784425431,"current_range_meters":10000,"station_id":"st_d6o2h0d0559c73evc1b0","pricing_plan_id":"cebpf4jnsgd1na2vs0mg"},{"bike_id":"ca5e8259-1aa4-4403-91f6-e9e60d1837e8","system_id":"levelo_inurba_marseille","lat":43.29199,"lon":5.39322,"is_reserved":false,"is_disabled":false,"rental_uris":{"android":"levelo://app?vid=ca5e8259-1aa4-4403-91f6-e9e60d1837e8","ios":"levelo://app?vid=ca5e8259-1aa4-4403-91f6-e9e60d1837e8"},"vehicle_type_id":"4","last_reported":1784425431,"current_range_meters":38800,"station_id":"ce4bh192rcd13ifvqdd0","pricing_plan_id":"cebpf4jnsgd1na2vs0mg"},{"bike_id":"e4a0804a-360f-4f45-9c0a-97f0815d7203","system_id":"levelo_inurba_marseille","lat":43.29057,"lon":5.37156,"is_reserved":false,"is_disabled":false,"rental_uris":{"android":"levelo://app?vid=e4a0804a-360f-4f45-9c0a-97f0815d7203","ios":"levelo://app?vid=e4a0804a-360f-4f45-9c0a-97f0815d7203"},"vehicle_type_id":"4","last_reported":1784425431,"current_range_meters":18000,"station_id":"ce4bh5p2rcd13ifvqe4g","pricing_plan_id":"cebpf4jnsgd1na2vs0mg"},{"bike_id":"ad193227-d210-4e9a-af26-3f25b41f58db","system_id":"levelo_inurba_marseille","lat":43.23885,"lon":5.37462,"is_reserved":false,"is_disabled":false,"rental_uris":{"android":"levelo://app?vid=ad193227-d210-4e9a-af26-3f25b41f58db","ios":"levelo://app?vid=ad193227-d210-4e9a-af26-3f25b41f58db"},"vehicle_type_id":"4","last_reported":1784425431,"current_range_meters":38000,"station_id":"st_d6sm7csbq4hs73f8fpjg","pricing_plan_id":"cebpf4jnsgd1na2vs0mg"},{"bike_id":"ee06a958-7f2b-4eb7-a6b1-2d3112db17a0","system_id":"levelo_inurba_marseille","lat":43.31126,"lon":5.37796,"is_reserved":false,"is_disabled":false,"rental_uris":{"android":"levelo://app?vid=ee06a958-7f2b-4eb7-a6b1-2d3112db17a0","ios":"levelo://app?vid=ee06a958-7f2b-4eb7-a6b1-2d3112db17a0"},"vehicle_type_id":"4","last_reported":1784425431,"current_range_meters":38800,"station_id":"ce4bgt92rcd13ifvqcg0","pricing_plan_id":"cebpf4jnsgd1na2vs0mg"},{"bike_id":"83e4f97a-7b91-4da2-a755-cba89d46d02f","system_id":"levelo_inurba_marseille","lat":43.28828,"lon":5.35255,"is_reserved":false,"is_disabled":false,"rental_uris":{"android":"levelo://app?vid=83e4f97a-7b91-4da2-a755-cba89d46d02f","ios":"levelo://app?vid=83e4f97a-7b91-4da2-a755-cba89d46d02f"},"vehicle_type_id":"4","last_reported":1784425431,"current_range_meters":38000,"station_id":"","pricing_plan_id":"cebpf4jnsgd1na2vs0mg"},{"bike_id":"e0f3f7aa-20c3-40d4-9976-28ed50fa3c71","system_id":"levelo_inurba_marseille","lat":43.23146,"lon":5.43713,"is_reserved":false,"is_disabled":true,"rental_uris":{"android":"levelo://app?vid=e0f3f7aa-20c3-40d4-9976-28ed50fa3c71","ios":"levelo://app?vid=e0f3f7aa-20c3-40d4-9976-28ed50fa3c71"},"vehicle_type_id":"4","last_reported":1784425431,"current_range_meters":0,"station_id":"ce4bhmp2rcd13ifvqgog","pricing_plan_id":"cebpf4jnsgd1na2vs0mg"},{"bike_id":"fbc2ea7e-7aa8-46c6-911e-98977f78f06c","system_id":"levelo_inurba_marseille","lat":43.26694,"lon":5.38271,"is_reserved":false,"is_disabled":false,"rental_uris":{"android":"levelo://app?vid=fbc2ea7e-7aa8-46c6-911e-98977f78f06c","ios":"levelo://app?vid=fbc2ea7e-7aa8-46c6-911e-98977f78f06c"},"vehicle_type_id":"4","last_reported":1784425431,"current_range_meters":39200,"station_id":"ce4bhg92rcd13ifvqf90","pricing_plan_id":"cebpf4jnsgd1na2vs0mg"},{"bike_id":"942148f9-90f2-4171-8f05-98ba0ca85bcb","system_id":"levelo_inurba_marseille","lat":43.28472,"lon":5.48399,"is_reserved":false,"is_disabled":false,"rental_uris":{"android":"levelo://app?vid=942148f9-90f2-4171-8f05-98ba0ca85bcb","ios":"levelo://app?vid=942148f9-90f2-4171-8f05-98ba0ca85bcb"},"vehicle_type_id":"4","last_reported":1784425431,"current_range_meters":38400,"station_id":"st_d3svhcjqgbts73a3dn0g","pricing_plan_id":"cebpf4jnsgd1na2vs0mg"},{"bike_id":"97d120bb-ef10-49a9-98fd-ea2eae127c57","system_id":"levelo_inurba_marseille","lat":43.23173,"lon":5.39977,"is_reserved":false,"is_disabled":false,"rental_uris":{"android":"levelo://app?vid=97d120bb-ef10-49a9-98fd-ea2eae127c57","ios":"levelo://app?vid=97d120bb-ef10-49a9-98fd-ea2eae127c57"},"vehicle_type_id":"4","last_reported":1784425431,"current_range_meters":28000,"station_id":"ce4bhn12rcd13ifvqgqg","pricing_plan_id":"cebpf4jnsgd1na2vs0mg"},{"bike_id":"0fed3863-ace2-403d-a5b0-f2e844886f8f","system_id":"levelo_inurba_marseille","lat":43.26848,"lon":5.39365,"is_reserved":false,"is_disabled":false,"rental_uris":{"android":"levelo://app?vid=0fed3863-ace2-403d-a5b0-f2e844886f8f","ios":"levelo://app?vid=0fed3863-ace2-403d-a5b0-f2e844886f8f"},"vehicle_type_id":"4","last_reported":1784425431,"current_range_meters":22000,"station_id":"","pricing_plan_id":"cebpf4jnsgd1na2vs0mg"},{"bike_id":"fa288643-b967-4c77-8362-0941ea5afa2f","system_id":"levelo_inurba_marseille","lat":43.23195,"lon":5.35551,"is_reserved":false,"is_disabled":false,"rental_uris":{"android":"levelo://app?vid=fa288643-b967-4c77-8362-0941ea5afa2f","ios":"levelo://app?vid=fa288643-b967-4c77-8362-0941ea5afa2f"},"vehicle_type_id":"4","last_reported":1784425431,"current_range_meters":6400,"station_id":"ce4bhu92rcd13ifvqi70","pricing_plan_id":"cebpf4jnsgd1na2vs0mg"},{"bike_id":"2a93def1-9840-4751-b465-b53bb0ce6123","system_id":"levelo_inurba_marseille","lat":43.22558,"lon":5.41623,"is_reserved":false,"is_disabled":false,"rental_uris":{"android":"levelo://app?vid=2a93def1-9840-4751-b465-b53bb0ce6123","ios":"levelo://app?vid=2a93def1-9840-4751-b465-b53bb0ce6123"},"vehicle_type_id":"4","last_reported":1784425431,"current_range_meters":8800,"station_id":"st_d2o4gvlbi1j2169b742g","pricing_plan_id":"cebpf4jnsgd1na2vs0mg"},{"bike_id":"465bbc97-2b89-4a87-bea4-4eb31b5f0469","system_id":"levelo_inurba_marseille","lat":43.27571,"lon":5.38407,"is_reserved":false,"is_disabled":false,"rental_uris":{"android":"levelo://app?vid=465bbc97-2b89-4a87-bea4-4eb31b5f0469","ios":"levelo://app?vid=465bbc97-2b89-4a87-bea4-4eb31b5f0469"},"vehicle_type_id":"4","last_reported":1784425431,"current_range_meters":20400,"station_id":"ce4bhh92rcd13ifvqfi0","pricing_plan_id":"cebpf4jnsgd1na2vs0mg"},{"bike_id":"d2b08bfe-8d05-4397-91e9-fe938a2b845f","system_id":"levelo_inurba_marseille","lat":43.27491,"lon":5.42446,"is_reserved":false,"is_disabled":false,"rental_uris":{"android":"levelo://app?vid=d2b08bfe-8d05-4397-91e9-fe938a2b845f","ios":"levelo://app?vid=d2b08bfe-8d05-4397-91e9-fe938a2b845f"},"vehicle_type_id":"4","last_reported":1784425431,"current_range_meters":30000,"station_id":"ce4bhn92rcd13ifvqgrg","pricing_plan_id":"cebpf4jnsgd1na2vs0mg"},{"bike_id":"14752283-6755-42f9-bb63-e81eb25b540d","system_id":"levelo_inurba_marseille","lat":43.33609,"lon":5.4098,"is_reserved":false,"is_disabled":false,"rental_uris":{"android":"levelo://app?vid=14752283-6755-42f9-bb63-e81eb25b540d","ios":"levelo://app?vid=14752283-6755-42f9-bb63-e81eb25b540d"},"vehicle_type_id":"4","last_reported":1784425431,"current_range_meters":39200,"station_id":"ce4bhqh2rcd13ifvqhmg","pricing_plan_id":"cebpf4jnsgd1na2vs0mg"},{"bike_id":"85c6f96b-abeb-41c4-b8e0-2980ab917c26","system_id":"levelo_inurba_marseille","lat":43.24468,"lon":5.42539,"is_reserved":false,"is_disabled":false,"rental_uris":{"android":"levelo://app?vid=85c6f96b-abeb-41c4-b8e0-2980ab917c26","ios":"levelo://app?vid=85c6f96b-abeb-41c4-b8e0-2980ab917c26"},"vehicle_type_id":"4","last_reported":1784425431,"current_range_meters":27600,"station_id":"st_d4a3vfp97mjs738cd8kg","pricing_plan_id":"cebpf4jnsgd1na2vs0mg"},{"bike_id":"e97d923d-d560-461e-94e7-6b746b3d8d92","system_id":"levelo_inurba_marseille","lat":43.32084,"lon":5.36781,"is_reserved":false,"is_disabled":false,"rental_uris":{"android":"levelo://app?vid=e97d923d-d560-461e-94e7-6b746b3d8d92","ios":"levelo://app?vid=e97d923d-d560-461e-94e7-6b746b3d8d92"},"vehicle_type_id":"4","last_reported":1784425431,"current_range_meters":24400,"station_id":"ce4bhrh2rcd13ifvqhug","pricing_plan_id":"cebpf4jnsgd1na2vs0mg"},{"bike_id":"665c67da-01e9-4466-8c9b-e8e92c387eff","system_id":"levelo_inurba_marseille","lat":43.3014,"lon":5.37407,"is_reserved":false,"is_disabled":false,"rental_uris":{"android":"levelo://app?vid=665c67da-01e9-4466-8c9b-e8e92c387eff","ios":"levelo://app?vid=665c67da-01e9-4466-8c9b-e8e92c387eff"},"vehicle_type_id":"4","last_reported":1784425431,"current_range_meters":39200,"station_id":"ce4bgs92rcd13ifvqcc0","pricing_plan_id":"cebpf4jnsgd1na2vs0mg"},{"bike_id":"b7aa1f7e-f948-4c85-8ebb-7af17d93841d","system_id":"levelo_inurba_marseille","lat":43.25229,"lon":5.40072,"is_reserved":false,"is_disabled":false,"rental_uris":{"android":"levelo://app?vid=b7aa1f7e-f948-4c85-8ebb-7af17d93841d","ios":"levelo://app?vid=b7aa1f7e-f948-4c85-8ebb-7af17d93841d"},"vehicle_type_id":"4","last_reported":1784425431,"current_range_meters":38800,"station_id":"","pricing_plan_id":"cebpf4jnsgd1na2vs0mg"},{"bike_id":"b8a95458-2e2c-46a5-8f60-e2fbbfd9b4d2","system_id":"levelo_inurba_marseille","lat":43.29561,"lon":5.42283,"is_reserved":false,"is_disabled":false,"rental_uris":{"android":"levelo://app?vid=b8a95458-2e2c-46a5-8f60-e2fbbfd9b4d2","ios":"levelo://app?vid=b8a95458-2e2c-46a5-8f60-e2fbbfd9b4d2"},"vehicle_type_id":"4","last_reported":1784425431,"current_range_meters":39200,"station_id":"ce4bhph2rcd13ifvqhdg","pricing_plan_id":"cebpf4jnsgd1na2vs0mg"},{"bike_id":"a73f2824-04af-4eb1-8696-07548fb915c6","system_id":"levelo_inurba_marseille","lat":43.27067,"lon":5.42282,"is_reserved":false,"is_disabled":false,"rental_uris":{"android":"levelo://app?vid=a73f2824-04af-4eb1-8696-07548fb915c6","ios":"levelo://app?vid=a73f2824-04af-4eb1-8696-07548fb915c6"},"vehicle_type_id":"4","last_reported":1784425431,"current_range_meters":35200,"station_id":"ce4bhk92rcd13ifvqgb0","pricing_plan_id":"cebpf4jnsgd1na2vs0mg"},{"bike_id":"f7b9c791-d3b8-441d-9770-a1ab42fe6ac7","system_id":"levelo_inurba_marseille","lat":43.21768,"lon":5.34582,"is_reserved":false,"is_disabled":false,"rental_uris":{"android":"levelo://app?vid=f7b9c791-d3b8-441d-9770-a1ab42fe6ac7","ios":"levelo://app?vid=f7b9c791-d3b8-441d-9770-a1ab42fe6ac7"},"vehicle_type_id":"4","last_reported":1784425431,"current_range_meters":3600,"station_id":"st_cvj6r9ubvosntc0bgbag","pricing_plan_id":"cebpf4jnsgd1na2vs0mg"},{"bike_id":"dac39ce0-4281-4620-8fd0-de8f7ca2e7d9","system_id":"levelo_inurba_marseille","lat":43.29052,"lon":5.3996,"is_reserved":false,"is_disabled":false,"rental_uris":{"android":"levelo://app?vid=dac39ce0-4281-4620-8fd0-de8f7ca2e7d9","ios":"levelo://app?vid=dac39ce0-4281-4620-8fd0-de8f7ca2e7d9"},"vehicle_type_id":"4","last_reported":1784425431,"current_range_meters":39200,"station_id":"ce4bh392rcd13ifvqdm0","pricing_plan_id":"cebpf4jnsgd1na2vs0mg"},{"bike_id":"c6b62028-2fba-481c-a2b5-507778ec7c93","system_id":"levelo_inurba_marseille","lat":43.31529,"lon":5.41337,"is_reserved":false,"is_disabled":true,"rental_uris":{"android":"levelo://app?vid=c6b62028-2fba-481c-a2b5-507778ec7c93","ios":"levelo://app?vid=c6b62028-2fba-481c-a2b5-507778ec7c93"},"vehicle_type_id":"4","last_reported":1784425431,"current_range_meters":0,"station_id":"","pricing_plan_id":"cebpf4jnsgd1na2vs0mg"},{"bike_id":"e845caaf-6f62-4afe-898b-175d7eec4dd5","system_id":"levelo_inurba_marseille","lat":43.2903,"lon":5.35941,"is_reserved":false,"is_disabled":true,"rental_uris":{"android":"levelo://app?vid=e845caaf-6f62-4afe-898b-175d7eec4dd5","ios":"levelo://app?vid=e845caaf-6f62-4afe-898b-175d7eec4dd5"},"vehicle_type_id":"4","last_reported":1784425431,"current_range_meters":9600,"station_id":"ce4bha92rcd13ifvqeg0","pricing_plan_id":"cebpf4jnsgd1na2vs0mg"},{"bike_id":"f71cdd8d-20a1-40da-a210-74b17fd046bb","system_id":"levelo_inurba_marseille","lat":43.29266,"lon":5.40141,"is_reserved":false,"is_disabled":false,"rental_uris":{"android":"levelo://app?vid=f71cdd8d-20a1-40da-a210-74b17fd046bb","ios":"levelo://app?vid=f71cdd8d-20a1-40da-a210-74b17fd046bb"},"vehicle_type_id":"4","last_reported":1784425431,"current_range_meters":39200,"station_id":"ce4bh312rcd13ifvqdk0","pricing_plan_id":"cebpf4jnsgd1na2vs0mg"},{"bike_id":"b64426df-a3f7-424e-923a-a5218fc5bce4","system_id":"levelo_inurba_marseille","lat":43.27674,"lon":5.38939,"is_reserved":false,"is_disabled":false,"rental_uris":{"android":"levelo://app?vid=b64426df-a3f7-424e-923a-a5218fc5bce4","ios":"levelo://app?vid=b64426df-a3f7-424e-923a-a5218fc5bce4"},"vehicle_type_id":"4","last_reported":1784425431,"current_range_meters":29600,"station_id":"ce4bhi12rcd13ifvqfo0","pricing_plan_id":"cebpf4jnsgd1na2vs0mg"},{"bike_id":"d4e1266d-590b-4d93-9592-aaeb3c049243","system_id":"levelo_inurba_marseille","lat":43.28423,"lon":5.37536,"is_reserved":false,"is_disabled":false,"rental_uris":{"android":"levelo://app?vid=d4e1266d-590b-4d93-9592-aaeb3c049243","ios":"levelo://app?vid=d4e1266d-590b-4d93-9592-aaeb3c049243"},"vehicle_type_id":"4","last_reported":1784425431,"current_range_meters":38000,"station_id":"ce4bh412rcd13ifvqds0","pricing_plan_id":"cebpf4jnsgd1na2vs0mg"},{"bike_id":"3d4aa178-44db-467e-a1bd-4fcdf991f22c","system_id":"levelo_inurba_marseille","lat":43.31713,"lon":5.43708,"is_reserved":false,"is_disabled":false,"rental_uris":{"android":"levelo://app?vid=3d4aa178-44db-467e-a1bd-4fcdf991f22c","ios":"levelo://app?vid=3d4aa178-44db-467e-a1bd-4fcdf991f22c"},"vehicle_type_id":"4","last_reported":1784425431,"current_range_meters":40000,"station_id":"ce4bhp92rcd13ifvqhcg","pricing_plan_id":"cebpf4jnsgd1na2vs0mg"},{"bike_id":"78b472ae-7ca1-438d-a65f-f93d06645001","system_id":"levelo_inurba_marseille","lat":43.29245,"lon":5.36072,"is_reserved":false,"is_disabled":true,"rental_uris":{"android":"levelo://app?vid=78b472ae-7ca1-438d-a65f-f93d06645001","ios":"levelo://app?vid=78b472ae-7ca1-438d-a65f-f93d06645001"},"vehicle_type_id":"4","last_reported":1784425431,"current_range_meters":38800,"station_id":"","pricing_plan_id":"cebpf4jnsgd1na2vs0mg"},{"bike_id":"4702e3a1-c863-438b-8146-e2987d253070","system_id":"levelo_inurba_marseille","lat":43.25582,"lon":5.38232,"is_reserved":false,"is_disabled":false,"rental_uris":{"android":"levelo://app?vid=4702e3a1-c863-438b-8146-e2987d253070","ios":"levelo://app?vid=4702e3a1-c863-438b-8146-e2987d253070"},"vehicle_type_id":"4","last_reported":1784425431,"current_range_meters":39200,"station_id":"ce4bhih2rcd13ifvqfs0","pricing_plan_id":"cebpf4jnsgd1na2vs0mg"},{"bike_id":"bf010752-4ee2-4816-b256-1fb00bbe1bcc","system_id":"levelo_inurba_marseille","lat":43.28626,"lon":5.35082,"is_reserved":false,"is_disabled":true,"rental_uris":{"android":"levelo://app?vid=bf010752-4ee2-4816-b256-1fb00bbe1bcc","ios":"levelo://app?vid=bf010752-4ee2-4816-b256-1fb00bbe1bcc"},"vehicle_type_id":"4","last_reported":1784425431,"current_range_meters":14400,"station_id":"ce4bhch2rcd13ifvqeug","pricing_plan_id":"cebpf4jnsgd1na2vs0mg"},{"bike_id":"8bb9c3ce-2ede-4f04-8e35-004af0be1e89","system_id":"levelo_inurba_marseille","lat":43.29448,"lon":5.37641,"is_reserved":false,"is_disabled":true,"rental_uris":{"android":"levelo://app?vid=8bb9c3ce-2ede-4f04-8e35-004af0be1e89","ios":"levelo://app?vid=8bb9c3ce-2ede-4f04-8e35-004af0be1e89"},"vehicle_type_id":"4","last_reported":1784425431,"current_range_meters":0,"station_id":"","pricing_plan_id":"cebpf4jnsgd1na2vs0mg"},{"bike_id":"f31e71a2-8328-4ff9-9288-61f910dee152","system_id":"levelo_inurba_marseille","lat":43.26501,"lon":5.39528,"is_reserved":false,"is_disabled":false,"rental_uris":{"android":"levelo://app?vid=f31e71a2-8328-4ff9-9288-61f910dee152","ios":"levelo://app?vid=f31e71a2-8328-4ff9-9288-61f910dee152"},"vehicle_type_id":"4","last_reported":1784425431,"current_range_meters":4000,"station_id":"ce4bhi12rcd13ifvqfq0","pricing_plan_id":"cebpf4jnsgd1na2vs0mg"},{"bike_id":"348caf77-82d6-4562-a72e-c7becae0b0ae","system_id":"levelo_inurba_marseille","lat":43.230549,"lon":5.354901,"is_reserved":false,"is_disabled":false,"rental_uris":{"android":"levelo://app?vid=348caf77-82d6-4562-a72e-c7becae0b0ae","ios":"levelo://app?vid=348caf77-82d6-4562-a72e-c7becae0b0ae"},"vehicle_type_id":"4","last_reported":1784425431,"current_range_meters":38000,"station_id":"cpo3342slgdg3j2ifvpg","pricing_plan_id":"cebpf4jnsgd1na2vs0mg"},{"bike_id":"88b3333d-68df-42df-8ef7-a9a4f08abce5","system_id":"levelo_inurba_marseille","lat":43.22912,"lon":5.4151,"is_reserved":false,"is_disabled":false,"rental_uris":{"android":"levelo://app?vid=88b3333d-68df-42df-8ef7-a9a4f08abce5","ios":"levelo://app?vid=88b3333d-68df-42df-8ef7-a9a4f08abce5"},"vehicle_type_id":"4","last_reported":1784425431,"current_range_meters":20400,"station_id":"","pricing_plan_id":"cebpf4jnsgd1na2vs0mg"},{"bike_id":"3e3594cd-dbba-4f84-81d3-2d0d005f6d0c","system_id":"levelo_inurba_marseille","lat":43.24171,"lon":5.3973,"is_reserved":false,"is_disabled":false,"rental_uris":{"android":"levelo://app?vid=3e3594cd-dbba-4f84-81d3-2d0d005f6d0c","ios":"levelo://app?vid=3e3594cd-dbba-4f84-81d3-2d0d005f6d0c"},"vehicle_type_id":"4","last_reported":1784425431,"current_range_meters":39200,"station_id":"ce4bhn12rcd13ifvqgpg","pricing_plan_id":"cebpf4jnsgd1na2vs0mg"},{"bike_id":"035222c8-2604-4663-bc5d-7c9f7e488ee9","system_id":"levelo_inurba_marseille","lat":43.2556,"lon":5.37658,"is_reserved":false,"is_disabled":true,"rental_uris":{"android":"levelo://app?vid=035222c8-2604-4663-bc5d-7c9f7e488ee9","ios":"levelo://app?vid=035222c8-2604-4663-bc5d-7c9f7e488ee9"},"vehicle_type_id":"4","last_reported":1784425431,"current_range_meters":800,"station_id":"","pricing_plan_id":"cebpf4jnsgd1na2vs0mg"},{"bike_id":"cbf57bb6-373a-442c-9860-92cf9215a1bb","system_id":"levelo_inurba_marseille","lat":43.30552,"lon":5.36535,"is_reserved":false,"is_disabled":true,"rental_uris":{"android":"levelo://app?vid=cbf57bb6-373a-442c-9860-92cf9215a1bb","ios":"levelo://app?vid=cbf57bb6-373a-442c-9860-92cf9215a1bb"},"vehicle_type_id":"4","last_reported":1784425431,"current_range_meters":23200,"station_id":"ce4bgs12rcd13ifvqcag","pricing_plan_id":"cebpf4jnsgd1na2vs0mg"},{"bike_id":"50cc7a1f-02fb-419d-8d81-6e9140eed09a","system_id":"levelo_inurba_marseille","lat":43.26205,"lon":5.37446,"is_reserved":false,"is_disabled":false,"rental_uris":{"android":"levelo://app?vid=50cc7a1f-02fb-419d-8d81-6e9140eed09a","ios":"levelo://app?vid=50cc7a1f-02fb-419d-8d81-6e9140eed09a"},"vehicle_type_id":"4","last_reported":1784425431,"current_range_meters":38000,"station_id":"ce4bhgp2rcd13ifvqfc0","pricing_plan_id":"cebpf4jnsgd1na2vs0mg"},{"bike_id":"6dc303ad-c645-41ff-bd15-9564ddff83e6","system_id":"levelo_inurba_marseille","lat":43.26676,"lon":5.3827,"is_reserved":false,"is_disabled":false,"rental_uris":{"android":"levelo://app?vid=6dc303ad-c645-41ff-bd15-9564ddff83e6","ios":"levelo://app?vid=6dc303ad-c645-41ff-bd15-9564ddff83e6"},"vehicle_type_id":"4","last_reported":1784425431,"current_range_meters":25200,"station_id":"ce4bhg92rcd13ifvqf90","pricing_plan_id":"cebpf4jnsgd1na2vs0mg"},{"bike_id":"2de176ff-6bc9-4ffc-893a-6f1c16f8cdca","system_id":"levelo_inurba_marseille","lat":43.26945,"lon":5.38624,"is_reserved":false,"is_disabled":false,"rental_uris":{"android":"levelo://app?vid=2de176ff-6bc9-4ffc-893a-6f1c16f8cdca","ios":"levelo://app?vid=2de176ff-6bc9-4ffc-893a-6f1c16f8cdca"},"vehicle_type_id":"4","last_reported":1784425431,"current_range_meters":32800,"station_id":"ce4bhh92rcd13ifvqfh0","pricing_plan_id":"cebpf4jnsgd1na2vs0mg"},{"bike_id":"83abe946-ea68-4397-bee3-4e1cc45eebb9","system_id":"levelo_inurba_marseille","lat":43.30866,"lon":5.39625,"is_reserved":false,"is_disabled":false,"rental_uris":{"android":"levelo://app?vid=83abe946-ea68-4397-bee3-4e1cc45eebb9","ios":"levelo://app?vid=83abe946-ea68-4397-bee3-4e1cc45eebb9"},"vehicle_type_id":"4","last_reported":1784425431,"current_range_meters":39200,"station_id":"ce4bh012rcd13ifvqcv0","pricing_plan_id":"cebpf4jnsgd1na2vs0mg"},{"bike_id":"b9bf91b1-f6c3-4792-a380-5b253e1ff4ad","system_id":"levelo_inurba_marseille","lat":43.2319,"lon":5.35544,"is_reserved":false,"is_disabled":false,"rental_uris":{"android":"levelo://app?vid=b9bf91b1-f6c3-4792-a380-5b253e1ff4ad","ios":"levelo://app?vid=b9bf91b1-f6c3-4792-a380-5b253e1ff4ad"},"vehicle_type_id":"4","last_reported":1784425431,"current_range_meters":30000,"station_id":"ce4bhu92rcd13ifvqi70","pricing_plan_id":"cebpf4jnsgd1na2vs0mg"},{"bike_id":"d0689963-1360-4eec-9974-1c99b2ed8187","system_id":"levelo_inurba_marseille","lat":43.30611,"lon":5.37237,"is_reserved":false,"is_disabled":true,"rental_uris":{"android":"levelo://app?vid=d0689963-1360-4eec-9974-1c99b2ed8187","ios":"levelo://app?vid=d0689963-1360-4eec-9974-1c99b2ed8187"},"vehicle_type_id":"4","last_reported":1784425431,"current_range_meters":34000,"station_id":"ce4bgqh2rcd13ifvqc4g","pricing_plan_id":"cebpf4jnsgd1na2vs0mg"},{"bike_id":"1a793fe2-88e7-412f-8b7f-db9a8c076d39","system_id":"levelo_inurba_marseille","lat":43.30799,"lon":5.37653,"is_reserved":false,"is_disabled":false,"rental_uris":{"android":"levelo://app?vid=1a793fe2-88e7-412f-8b7f-db9a8c076d39","ios":"levelo://app?vid=1a793fe2-88e7-412f-8b7f-db9a8c076d39"},"vehicle_type_id":"4","last_reported":1784425431,"current_range_meters":18800,"station_id":"ce4bgv92rcd13ifvqcq0","pricing_plan_id":"cebpf4jnsgd1na2vs0mg"},{"bike_id":"4f54c651-15d1-492f-8d09-70f1f809ad4f","system_id":"levelo_inurba_marseille","lat":43.27486,"lon":5.42552,"is_reserved":false,"is_disabled":false,"rental_uris":{"android":"levelo://app?vid=4f54c651-15d1-492f-8d09-70f1f809ad4f","ios":"levelo://app?vid=4f54c651-15d1-492f-8d09-70f1f809ad4f"},"vehicle_type_id":"4","last_reported":1784425431,"current_range_meters":18800,"station_id":"st_d8t4bh7nbrqs73arha60","pricing_plan_id":"cebpf4jnsgd1na2vs0mg"},{"bike_id":"7065528a-f292-4b1d-9927-6e05933d2cf0","system_id":"levelo_inurba_marseille","lat":43.22561,"lon":5.4163,"is_reserved":false,"is_disabled":false,"rental_uris":{"android":"levelo://app?vid=7065528a-f292-4b1d-9927-6e05933d2cf0","ios":"levelo://app?vid=7065528a-f292-4b1d-9927-6e05933d2cf0"},"vehicle_type_id":"4","last_reported":1784425431,"current_range_meters":25200,"station_id":"st_d2o4gvlbi1j2169b742g","pricing_plan_id":"cebpf4jnsgd1na2vs0mg"},{"bike_id":"1ef64655-8371-4fb9-a75f-499d2aa9fe59","system_id":"levelo_inurba_marseille","lat":43.28049,"lon":5.36944,"is_reserved":false,"is_disabled":false,"rental_uris":{"android":"levelo://app?vid=1ef64655-8371-4fb9-a75f-499d2aa9fe59","ios":"levelo://app?vid=1ef64655-8371-4fb9-a75f-499d2aa9fe59"},"vehicle_type_id":"4","last_reported":1784425431,"current_range_meters":25200,"station_id":"ce4bha12rcd13ifvqef0","pricing_plan_id":"cebpf4jnsgd1na2vs0mg"},{"bike_id":"f5152a75-8833-4001-bc01-1e25e4b6aa66","system_id":"levelo_inurba_marseille","lat":43.23193,"lon":5.35546,"is_reserved":false,"is_disabled":false,"rental_uris":{"android":"levelo://app?vid=f5152a75-8833-4001-bc01-1e25e4b6aa66","ios":"levelo://app?vid=f5152a75-8833-4001-bc01-1e25e4b6aa66"},"vehicle_type_id":"4","last_reported":1784425431,"current_range_meters":38400,"station_id":"ce4bhu92rcd13ifvqi70","pricing_plan_id":"cebpf4jnsgd1na2vs0mg"},{"bike_id":"020e2603-a1d5-4780-9f89-f9cf20e00a0c","system_id":"levelo_inurba_marseille","lat":43.23195,"lon":5.35273,"is_reserved":false,"is_disabled":false,"rental_uris":{"android":"levelo://app?vid=020e2603-a1d5-4780-9f89-f9cf20e00a0c","ios":"levelo://app?vid=020e2603-a1d5-4780-9f89-f9cf20e00a0c"},"vehicle_type_id":"4","last_reported":1784425431,"current_range_meters":13600,"station_id":"","pricing_plan_id":"cebpf4jnsgd1na2vs0mg"},{"bike_id":"e35b3037-ccf2-48a7-b6f2-14a77143bba4","system_id":"levelo_inurba_marseille","lat":43.32358,"lon":5.36759,"is_reserved":false,"is_disabled":false,"rental_uris":{"android":"levelo://app?vid=e35b3037-ccf2-48a7-b6f2-14a77143bba4","ios":"levelo://app?vid=e35b3037-ccf2-48a7-b6f2-14a77143bba4"},"vehicle_type_id":"4","last_reported":1784425431,"current_range_meters":28400,"station_id":"ce4bhsh2rcd13ifvqi2g","pricing_plan_id":"cebpf4jnsgd1na2vs0mg"},{"bike_id":"25decd76-fc61-429d-929f-ec99c0f4f096","system_id":"levelo_inurba_marseille","lat":43.31082,"lon":5.42435,"is_reserved":false,"is_disabled":false,"rental_uris":{"android":"levelo://app?vid=25decd76-fc61-429d-929f-ec99c0f4f096","ios":"levelo://app?vid=25decd76-fc61-429d-929f-ec99c0f4f096"},"vehicle_type_id":"4","last_reported":1784425431,"current_range_meters":40000,"station_id":"ce4bhp92rcd13ifvqhag","pricing_plan_id":"cebpf4jnsgd1na2vs0mg"},{"bike_id":"f46ca526-f9cd-4571-808f-516a0c71ffbb","system_id":"levelo_inurba_marseille","lat":43.32489,"lon":5.38267,"is_reserved":false,"is_disabled":false,"rental_uris":{"android":"levelo://app?vid=f46ca526-f9cd-4571-808f-516a0c71ffbb","ios":"levelo://app?vid=f46ca526-f9cd-4571-808f-516a0c71ffbb"},"vehicle_type_id":"4","last_reported":1784425431,"current_range_meters":24400,"station_id":"st_d4asgbiv49dc73anf9m0","pricing_plan_id":"cebpf4jnsgd1na2vs0mg"},{"bike_id":"d46de6b8-f83c-4c00-80db-8ab6fcf2f7ae","system_id":"levelo_inurba_marseille","lat":43.29518,"lon":5.37522,"is_reserved":false,"is_disabled":true,"rental_uris":{"android":"levelo://app?vid=d46de6b8-f83c-4c00-80db-8ab6fcf2f7ae","ios":"levelo://app?vid=d46de6b8-f83c-4c00-80db-8ab6fcf2f7ae"},"vehicle_type_id":"4","last_reported":1784425431,"current_range_meters":38000,"station_id":"ce4bgkp2rcd13ifvqbmg","pricing_plan_id":"cebpf4jnsgd1na2vs0mg"},{"bike_id":"5bb40222-6876-4373-afb0-3fdea4be3c40","system_id":"levelo_inurba_marseille","lat":43.30836,"lon":5.37501,"is_reserved":false,"is_disabled":false,"rental_uris":{"android":"levelo://app?vid=5bb40222-6876-4373-afb0-3fdea4be3c40","ios":"levelo://app?vid=5bb40222-6876-4373-afb0-3fdea4be3c40"},"vehicle_type_id":"4","last_reported":1784425431,"current_range_meters":4000,"station_id":"","pricing_plan_id":"cebpf4jnsgd1na2vs0mg"},{"bike_id":"01de4d52-eee6-4b65-a489-93686c2f30d5","system_id":"levelo_inurba_marseille","lat":43.30433,"lon":5.41275,"is_reserved":false,"is_disabled":false,"rental_uris":{"android":"levelo://app?vid=01de4d52-eee6-4b65-a489-93686c2f30d5","ios":"levelo://app?vid=01de4d52-eee6-4b65-a489-93686c2f30d5"},"vehicle_type_id":"4","last_reported":1784425431,"current_range_meters":18800,"station_id":"ce4bhop2rcd13ifvqh8g","pricing_plan_id":"cebpf4jnsgd1na2vs0mg"},{"bike_id":"d3763a0c-6ecc-4e5b-830e-5883d835d782","system_id":"levelo_inurba_marseille","lat":43.31698,"lon":5.43699,"is_reserved":false,"is_disabled":false,"rental_uris":{"android":"levelo://app?vid=d3763a0c-6ecc-4e5b-830e-5883d835d782","ios":"levelo://app?vid=d3763a0c-6ecc-4e5b-830e-5883d835d782"},"vehicle_type_id":"4","last_reported":1784425431,"current_range_meters":17600,"station_id":"ce4bhp92rcd13ifvqhcg","pricing_plan_id":"cebpf4jnsgd1na2vs0mg"},{"bike_id":"72e18e09-40d8-4c56-acd7-29b3c5272569","system_id":"levelo_inurba_marseille","lat":43.26047,"lon":5.39407,"is_reserved":false,"is_disabled":false,"rental_uris":{"android":"levelo://app?vid=72e18e09-40d8-4c56-acd7-29b3c5272569","ios":"levelo://app?vid=72e18e09-40d8-4c56-acd7-29b3c5272569"},"vehicle_type_id":"4","last_reported":1784425431,"current_range_meters":28000,"station_id":"ce4bhh92rcd13ifvqfj0","pricing_plan_id":"cebpf4jnsgd1na2vs0mg"},{"bike_id":"e0b59b94-4abf-4e2b-8eca-155fc1c0b722","system_id":"levelo_inurba_marseille","lat":43.28255,"lon":5.35084,"is_reserved":false,"is_disabled":false,"rental_uris":{"android":"levelo://app?vid=e0b59b94-4abf-4e2b-8eca-155fc1c0b722","ios":"levelo://app?vid=e0b59b94-4abf-4e2b-8eca-155fc1c0b722"},"vehicle_type_id":"4","last_reported":1784425431,"current_range_meters":30800,"station_id":"ce4bhbp2rcd13ifvqerg","pricing_plan_id":"cebpf4jnsgd1na2vs0mg"},{"bike_id":"a8678b85-a65d-4ed9-8616-62e9983fb940","system_id":"levelo_inurba_marseille","lat":43.28695,"lon":5.37399,"is_reserved":false,"is_disabled":false,"rental_uris":{"android":"levelo://app?vid=a8678b85-a65d-4ed9-8616-62e9983fb940","ios":"levelo://app?vid=a8678b85-a65d-4ed9-8616-62e9983fb940"},"vehicle_type_id":"4","last_reported":1784425431,"current_range_meters":2800,"station_id":"ce4bh3p2rcd13ifvqdq0","pricing_plan_id":"cebpf4jnsgd1na2vs0mg"},{"bike_id":"99ebda50-fa03-4169-b699-7ab821f5d29d","system_id":"levelo_inurba_marseille","lat":43.27678,"lon":5.389,"is_reserved":false,"is_disabled":false,"rental_uris":{"android":"levelo://app?vid=99ebda50-fa03-4169-b699-7ab821f5d29d","ios":"levelo://app?vid=99ebda50-fa03-4169-b699-7ab821f5d29d"},"vehicle_type_id":"4","last_reported":1784425431,"current_range_meters":39200,"station_id":"ce4bhi12rcd13ifvqfo0","pricing_plan_id":"cebpf4jnsgd1na2vs0mg"},{"bike_id":"01e7462b-b9cf-469e-92a6-2a1201a0f2a3","system_id":"levelo_inurba_marseille","lat":43.30503,"lon":5.39856,"is_reserved":false,"is_disabled":true,"rental_uris":{"android":"levelo://app?vid=01e7462b-b9cf-469e-92a6-2a1201a0f2a3","ios":"levelo://app?vid=01e7462b-b9cf-469e-92a6-2a1201a0f2a3"},"vehicle_type_id":"4","last_reported":1784425431,"current_range_meters":3200,"station_id":"","pricing_plan_id":"cebpf4jnsgd1na2vs0mg"},{"bike_id":"8b6331b3-2914-4282-8a4c-45cca24291f2","system_id":"levelo_inurba_marseille","lat":43.30927,"lon":5.40127,"is_reserved":false,"is_disabled":false,"rental_uris":{"android":"levelo://app?vid=8b6331b3-2914-4282-8a4c-45cca24291f2","ios":"levelo://app?vid=8b6331b3-2914-4282-8a4c-45cca24291f2"},"vehicle_type_id":"4","last_reported":1784425431,"current_range_meters":23200,"station_id":"","pricing_plan_id":"cebpf4jnsgd1na2vs0mg"},{"bike_id":"c71df0af-3adf-48e4-952c-15b439057d27","system_id":"levelo_inurba_marseille","lat":43.28415,"lon":5.3752,"is_reserved":false,"is_disabled":false,"rental_uris":{"android":"levelo://app?vid=c71df0af-3adf-48e4-952c-15b439057d27","ios":"levelo://app?vid=c71df0af-3adf-48e4-952c-15b439057d27"},"vehicle_type_id":"4","last_reported":1784425431,"current_range_meters":10800,"station_id":"ce4bh412rcd13ifvqds0","pricing_plan_id":"cebpf4jnsgd1na2vs0mg"},{"bike_id":"a287babe-2875-4e47-a1fc-a71e0666296b","system_id":"levelo_inurba_marseille","lat":43.260263,"lon":5.375491,"is_reserved":false,"is_disabled":false,"rental_uris":{"android":"levelo://app?vid=a287babe-2875-4e47-a1fc-a71e0666296b","ios":"levelo://app?vid=a287babe-2875-4e47-a1fc-a71e0666296b"},"vehicle_type_id":"4","last_reported":1784425431,"current_range_meters":22800,"station_id":"ce4bh392rcd13ifvqdm0","pricing_plan_id":"cebpf4jnsgd1na2vs0mg"},{"bike_id":"96f0ca61-b1bd-4f3a-bcc1-74fe2aa38a41","system_id":"levelo_inurba_marseille","lat":43.26205,"lon":5.40402,"is_reserved":false,"is_disabled":true,"rental_uris":{"android":"levelo://app?vid=96f0ca61-b1bd-4f3a-bcc1-74fe2aa38a41","ios":"levelo://app?vid=96f0ca61-b1bd-4f3a-bcc1-74fe2aa38a41"},"vehicle_type_id":"4","last_reported":1784425431,"current_range_meters":32400,"station_id":"ce4bhmh2rcd13ifvqgmg","pricing_plan_id":"cebpf4jnsgd1na2vs0mg"},{"bike_id":"0d3e100f-48fe-47e1-bef7-0a1dcfcc4955","system_id":"levelo_inurba_marseille","lat":43.33722,"lon":5.39189,"is_reserved":false,"is_disabled":false,"rental_uris":{"android":"levelo://app?vid=0d3e100f-48fe-47e1-bef7-0a1dcfcc4955","ios":"levelo://app?vid=0d3e100f-48fe-47e1-bef7-0a1dcfcc4955"},"vehicle_type_id":"4","last_reported":1784425431,"current_range_meters":39200,"station_id":"ce4bhr92rcd13ifvqhsg","pricing_plan_id":"cebpf4jnsgd1na2vs0mg"},{"bike_id":"3513a41b-e203-4104-9656-3070d238f21e","system_id":"levelo_inurba_marseille","lat":43.32658,"lon":5.40989,"is_reserved":false,"is_disabled":false,"rental_uris":{"android":"levelo://app?vid=3513a41b-e203-4104-9656-3070d238f21e","ios":"levelo://app?vid=3513a41b-e203-4104-9656-3070d238f21e"},"vehicle_type_id":"4","last_reported":1784425431,"current_range_meters":39200,"station_id":"ce4bhpp2rcd13ifvqhgg","pricing_plan_id":"cebpf4jnsgd1na2vs0mg"},{"bike_id":"c1593934-105e-42e4-9a95-1301687cc857","system_id":"levelo_inurba_marseille","lat":43.31233,"lon":5.36913,"is_reserved":false,"is_disabled":false,"rental_uris":{"android":"levelo://app?vid=c1593934-105e-42e4-9a95-1301687cc857","ios":"levelo://app?vid=c1593934-105e-42e4-9a95-1301687cc857"},"vehicle_type_id":"4","last_reported":1784425431,"current_range_meters":31200,"station_id":"ce4bgl92rcd13ifvqbq0","pricing_plan_id":"cebpf4jnsgd1na2vs0mg"},{"bike_id":"ed167d53-c155-484c-8de3-7860ba68af81","system_id":"levelo_inurba_marseille","lat":43.30939,"lon":5.40157,"is_reserved":false,"is_disabled":false,"rental_uris":{"android":"levelo://app?vid=ed167d53-c155-484c-8de3-7860ba68af81","ios":"levelo://app?vid=ed167d53-c155-484c-8de3-7860ba68af81"},"vehicle_type_id":"4","last_reported":1784425431,"current_range_meters":17200,"station_id":"ce4bgvp2rcd13ifvqct0","pricing_plan_id":"cebpf4jnsgd1na2vs0mg"},{"bike_id":"bda065ee-aa31-4ab6-baf5-9dba24094348","system_id":"levelo_inurba_marseille","lat":43.27986,"lon":5.40003,"is_reserved":false,"is_disabled":false,"rental_uris":{"android":"levelo://app?vid=bda065ee-aa31-4ab6-baf5-9dba24094348","ios":"levelo://app?vid=bda065ee-aa31-4ab6-baf5-9dba24094348"},"vehicle_type_id":"4","last_reported":1784425431,"current_range_meters":10000,"station_id":"ce4bho92rcd13ifvqh4g","pricing_plan_id":"cebpf4jnsgd1na2vs0mg"},{"bike_id":"8baf0380-7ca6-4add-a8ff-5627c8ea4e94","system_id":"levelo_inurba_marseille","lat":43.24667,"lon":5.3816,"is_reserved":false,"is_disabled":false,"rental_uris":{"android":"levelo://app?vid=8baf0380-7ca6-4add-a8ff-5627c8ea4e94","ios":"levelo://app?vid=8baf0380-7ca6-4add-a8ff-5627c8ea4e94"},"vehicle_type_id":"4","last_reported":1784425431,"current_range_meters":18000,"station_id":"ce4bhih2rcd13ifvqfr0","pricing_plan_id":"cebpf4jnsgd1na2vs0mg"},{"bike_id":"125d2f90-169b-4d27-8cb1-2d78107dff5d","system_id":"levelo_inurba_marseille","lat":43.28936,"lon":5.36398,"is_reserved":false,"is_disabled":false,"rental_uris":{"android":"levelo://app?vid=125d2f90-169b-4d27-8cb1-2d78107dff5d","ios":"levelo://app?vid=125d2f90-169b-4d27-8cb1-2d78107dff5d"},"vehicle_type_id":"4","last_reported":1784425431,"current_range_meters":26800,"station_id":"ce4bhc92rcd13ifvqetg","pricing_plan_id":"cebpf4jnsgd1na2vs0mg"},{"bike_id":"af9cb856-2a1a-4801-80cc-f305db9e72a7","system_id":"levelo_inurba_marseille","lat":43.25935,"lon":5.40902,"is_reserved":false,"is_disabled":false,"rental_uris":{"android":"levelo://app?vid=af9cb856-2a1a-4801-80cc-f305db9e72a7","ios":"levelo://app?vid=af9cb856-2a1a-4801-80cc-f305db9e72a7"},"vehicle_type_id":"4","last_reported":1784425431,"current_range_meters":34000,"station_id":"ce4bhm92rcd13ifvqglg","pricing_plan_id":"cebpf4jnsgd1na2vs0mg"},{"bike_id":"909f14f2-bc5d-4cda-8078-8bb897384319","system_id":"levelo_inurba_marseille","lat":43.28346,"lon":5.38103,"is_reserved":false,"is_disabled":false,"rental_uris":{"android":"levelo://app?vid=909f14f2-bc5d-4cda-8078-8bb897384319","ios":"levelo://app?vid=909f14f2-bc5d-4cda-8078-8bb897384319"},"vehicle_type_id":"4","last_reported":1784425431,"current_range_meters":28000,"station_id":"ce4bh412rcd13ifvqdr0","pricing_plan_id":"cebpf4jnsgd1na2vs0mg"},{"bike_id":"2e35ff17-f209-4373-a43c-409dc4586a55","system_id":"levelo_inurba_marseille","lat":43.33828,"lon":5.36731,"is_reserved":false,"is_disabled":true,"rental_uris":{"android":"levelo://app?vid=2e35ff17-f209-4373-a43c-409dc4586a55","ios":"levelo://app?vid=2e35ff17-f209-4373-a43c-409dc4586a55"},"vehicle_type_id":"4","last_reported":1784425431,"current_range_meters":0,"station_id":"","pricing_plan_id":"cebpf4jnsgd1na2vs0mg"},{"bike_id":"bf92e73f-5ebb-482e-9b16-38b660c0b75a","system_id":"levelo_inurba_marseille","lat":43.21733,"lon":5.34606,"is_reserved":false,"is_disabled":true,"rental_uris":{"android":"levelo://app?vid=bf92e73f-5ebb-482e-9b16-38b660c0b75a","ios":"levelo://app?vid=bf92e73f-5ebb-482e-9b16-38b660c0b75a"},"vehicle_type_id":"4","last_reported":1784425431,"current_range_meters":5600,"station_id":"st_cvj6r9ubvosntc0bgbag","pricing_plan_id":"cebpf4jnsgd1na2vs0mg"},{"bike_id":"daa023e8-7cb3-46f6-99b4-3cf66be94332","system_id":"levelo_inurba_marseille","lat":43.29304,"lon":5.37161,"is_reserved":false,"is_disabled":true,"rental_uris":{"android":"levelo://app?vid=daa023e8-7cb3-46f6-99b4-3cf66be94332","ios":"levelo://app?vid=daa023e8-7cb3-46f6-99b4-3cf66be94332"},"vehicle_type_id":"4","last_reported":1784425431,"current_range_meters":38400,"station_id":"ce4bgh92rcd13ifvqb40","pricing_plan_id":"cebpf4jnsgd1na2vs0mg"},{"bike_id":"98bce0f5-25e4-4db3-b698-d3dcf6d7b213","system_id":"levelo_inurba_marseille","lat":43.24799,"lon":5.37439,"is_reserved":false,"is_disabled":false,"rental_uris":{"android":"levelo://app?vid=98bce0f5-25e4-4db3-b698-d3dcf6d7b213","ios":"levelo://app?vid=98bce0f5-25e4-4db3-b698-d3dcf6d7b213"},"vehicle_type_id":"4","last_reported":1784425431,"current_range_meters":26000,"station_id":"ce4bhgh2rcd13ifvqfb0","pricing_plan_id":"cebpf4jnsgd1na2vs0mg"},{"bike_id":"0ccdd5d1-13a3-4cc4-beee-acb9a334278d","system_id":"levelo_inurba_marseille","lat":43.232,"lon":5.35547,"is_reserved":false,"is_disabled":false,"rental_uris":{"android":"levelo://app?vid=0ccdd5d1-13a3-4cc4-beee-acb9a334278d","ios":"levelo://app?vid=0ccdd5d1-13a3-4cc4-beee-acb9a334278d"},"vehicle_type_id":"4","last_reported":1784425431,"current_range_meters":4800,"station_id":"ce4bhu92rcd13ifvqi70","pricing_plan_id":"cebpf4jnsgd1na2vs0mg"},{"bike_id":"883fc029-9aba-4434-aac3-b2112e6cc710","system_id":"levelo_inurba_marseille","lat":43.31226,"lon":5.36905,"is_reserved":false,"is_disabled":false,"rental_uris":{"android":"levelo://app?vid=883fc029-9aba-4434-aac3-b2112e6cc710","ios":"levelo://app?vid=883fc029-9aba-4434-aac3-b2112e6cc710"},"vehicle_type_id":"4","last_reported":1784425431,"current_range_meters":38800,"station_id":"ce4bgl92rcd13ifvqbq0","pricing_plan_id":"cebpf4jnsgd1na2vs0mg"},{"bike_id":"65af711a-d8c8-4fc4-8cbc-dcd0786d28fa","system_id":"levelo_inurba_marseille","lat":43.28846,"lon":5.35847,"is_reserved":false,"is_disabled":true,"rental_uris":{"android":"levelo://app?vid=65af711a-d8c8-4fc4-8cbc-dcd0786d28fa","ios":"levelo://app?vid=65af711a-d8c8-4fc4-8cbc-dcd0786d28fa"},"vehicle_type_id":"4","last_reported":1784425431,"current_range_meters":22400,"station_id":"ce4bhb12rcd13ifvqem0","pricing_plan_id":"cebpf4jnsgd1na2vs0mg"},{"bike_id":"3ce46721-3bce-4a5c-a8cf-0762eca1ee9b","system_id":"levelo_inurba_marseille","lat":43.3248,"lon":5.36561,"is_reserved":false,"is_disabled":false,"rental_uris":{"android":"levelo://app?vid=3ce46721-3bce-4a5c-a8cf-0762eca1ee9b","ios":"levelo://app?vid=3ce46721-3bce-4a5c-a8cf-0762eca1ee9b"},"vehicle_type_id":"4","last_reported":1784425431,"current_range_meters":34800,"station_id":"ce4bhs12rcd13ifvqhvg","pricing_plan_id":"cebpf4jnsgd1na2vs0mg"},{"bike_id":"f0da9134-f11f-4f60-a3b4-bd91a12f57b2","system_id":"levelo_inurba_marseille","lat":43.29968,"lon":5.38775,"is_reserved":false,"is_disabled":false,"rental_uris":{"android":"levelo://app?vid=f0da9134-f11f-4f60-a3b4-bd91a12f57b2","ios":"levelo://app?vid=f0da9134-f11f-4f60-a3b4-bd91a12f57b2"},"vehicle_type_id":"4","last_reported":1784425431,"current_range_meters":17600,"station_id":"","pricing_plan_id":"cebpf4jnsgd1na2vs0mg"},{"bike_id":"bf94bbb1-0344-4a40-9e3a-5c4e2673d65c","system_id":"levelo_inurba_marseille","lat":43.29931,"lon":5.3656,"is_reserved":false,"is_disabled":false,"rental_uris":{"android":"levelo://app?vid=bf94bbb1-0344-4a40-9e3a-5c4e2673d65c","ios":"levelo://app?vid=bf94bbb1-0344-4a40-9e3a-5c4e2673d65c"},"vehicle_type_id":"4","last_reported":1784425431,"current_range_meters":33600,"station_id":"ce4bgm92rcd13ifvqbr0","pricing_plan_id":"cebpf4jnsgd1na2vs0mg"},{"bike_id":"e33e7e56-b1af-4e57-9514-4de84c42a5c6","system_id":"levelo_inurba_marseille","lat":43.2395,"lon":5.36634,"is_reserved":false,"is_disabled":true,"rental_uris":{"android":"levelo://app?vid=e33e7e56-b1af-4e57-9514-4de84c42a5c6","ios":"levelo://app?vid=e33e7e56-b1af-4e57-9514-4de84c42a5c6"},"vehicle_type_id":"4","last_reported":1784425431,"current_range_meters":24000,"station_id":"ce4bhi12rcd13ifvqfp0","pricing_plan_id":"cebpf4jnsgd1na2vs0mg"},{"bike_id":"62f9bb3f-c140-4b91-879c-ff3d45bdee12","system_id":"levelo_inurba_marseille","lat":43.29549,"lon":5.42248,"is_reserved":false,"is_disabled":false,"rental_uris":{"android":"levelo://app?vid=62f9bb3f-c140-4b91-879c-ff3d45bdee12","ios":"levelo://app?vid=62f9bb3f-c140-4b91-879c-ff3d45bdee12"},"vehicle_type_id":"4","last_reported":1784425431,"current_range_meters":33600,"station_id":"ce4bhph2rcd13ifvqhdg","pricing_plan_id":"cebpf4jnsgd1na2vs0mg"},{"bike_id":"300035fc-86c0-4160-ae05-29ce4486ecb3","system_id":"levelo_inurba_marseille","lat":43.28411,"lon":5.3751,"is_reserved":false,"is_disabled":false,"rental_uris":{"android":"levelo://app?vid=300035fc-86c0-4160-ae05-29ce4486ecb3","ios":"levelo://app?vid=300035fc-86c0-4160-ae05-29ce4486ecb3"},"vehicle_type_id":"4","last_reported":1784425431,"current_range_meters":39200,"station_id":"ce4bh412rcd13ifvqds0","pricing_plan_id":"cebpf4jnsgd1na2vs0mg"},{"bike_id":"7604574c-06cb-407e-9e16-b7858411e1bc","system_id":"levelo_inurba_marseille","lat":43.2781,"lon":5.40693,"is_reserved":false,"is_disabled":true,"rental_uris":{"android":"levelo://app?vid=7604574c-06cb-407e-9e16-b7858411e1bc","ios":"levelo://app?vid=7604574c-06cb-407e-9e16-b7858411e1bc"},"vehicle_type_id":"4","last_reported":1784425431,"current_range_meters":17200,"station_id":"ce4bhnh2rcd13ifvqgtg","pricing_plan_id":"cebpf4jnsgd1na2vs0mg"},{"bike_id":"600d3649-4b6d-473c-a715-d27921e00684","system_id":"levelo_inurba_marseille","lat":43.23191,"lon":5.35543,"is_reserved":false,"is_disabled":false,"rental_uris":{"android":"levelo://app?vid=600d3649-4b6d-473c-a715-d27921e00684","ios":"levelo://app?vid=600d3649-4b6d-473c-a715-d27921e00684"},"vehicle_type_id":"4","last_reported":1784425431,"current_range_meters":20000,"station_id":"ce4bhu92rcd13ifvqi70","pricing_plan_id":"cebpf4jnsgd1na2vs0mg"},{"bike_id":"8601b829-59f8-4eab-bab2-2f8e891d8617","system_id":"levelo_inurba_marseille","lat":43.254993,"lon":5.376487,"is_reserved":false,"is_disabled":false,"rental_uris":{"android":"levelo://app?vid=8601b829-59f8-4eab-bab2-2f8e891d8617","ios":"levelo://app?vid=8601b829-59f8-4eab-bab2-2f8e891d8617"},"vehicle_type_id":"4","last_reported":1784425431,"current_range_meters":22800,"station_id":"ce4bhh12rcd13ifvqff0","pricing_plan_id":"cebpf4jnsgd1na2vs0mg"},{"bike_id":"3b85087b-437d-4f29-b162-86426cb59558","system_id":"levelo_inurba_marseille","lat":43.25867,"lon":5.39916,"is_reserved":false,"is_disabled":false,"rental_uris":{"android":"levelo://app?vid=3b85087b-437d-4f29-b162-86426cb59558","ios":"levelo://app?vid=3b85087b-437d-4f29-b162-86426cb59558"},"vehicle_type_id":"4","last_reported":1784425431,"current_range_meters":38400,"station_id":"ce4bhl92rcd13ifvqghg","pricing_plan_id":"cebpf4jnsgd1na2vs0mg"},{"bike_id":"24c59353-3083-4fd6-882a-f44cd96fdddf","system_id":"levelo_inurba_marseille","lat":43.30295,"lon":5.392,"is_reserved":false,"is_disabled":false,"rental_uris":{"android":"levelo://app?vid=24c59353-3083-4fd6-882a-f44cd96fdddf","ios":"levelo://app?vid=24c59353-3083-4fd6-882a-f44cd96fdddf"},"vehicle_type_id":"4","last_reported":1784425431,"current_range_meters":39200,"station_id":"ce4bgkh2rcd13ifvqbk0","pricing_plan_id":"cebpf4jnsgd1na2vs0mg"},{"bike_id":"81959744-4786-4515-8028-caa8a3c86e5c","system_id":"levelo_inurba_marseille","lat":43.23873,"lon":5.37502,"is_reserved":false,"is_disabled":false,"rental_uris":{"android":"levelo://app?vid=81959744-4786-4515-8028-caa8a3c86e5c","ios":"levelo://app?vid=81959744-4786-4515-8028-caa8a3c86e5c"},"vehicle_type_id":"4","last_reported":1784425431,"current_range_meters":39200,"station_id":"st_d6sm7csbq4hs73f8fpjg","pricing_plan_id":"cebpf4jnsgd1na2vs0mg"},{"bike_id":"5c86d26e-fc15-401d-adac-561cb979e7f8","system_id":"levelo_inurba_marseille","lat":43.2317,"lon":5.39994,"is_reserved":false,"is_disabled":false,"rental_uris":{"android":"levelo://app?vid=5c86d26e-fc15-401d-adac-561cb979e7f8","ios":"levelo://app?vid=5c86d26e-fc15-401d-adac-561cb979e7f8"},"vehicle_type_id":"4","last_reported":1784425431,"current_range_meters":16400,"station_id":"ce4bhn12rcd13ifvqgqg","pricing_plan_id":"cebpf4jnsgd1na2vs0mg"},{"bike_id":"26a91fcb-e18f-4c83-9039-eb8c6882e94b","system_id":"levelo_inurba_marseille","lat":43.27175,"lon":5.36275,"is_reserved":false,"is_disabled":true,"rental_uris":{"android":"levelo://app?vid=26a91fcb-e18f-4c83-9039-eb8c6882e94b","ios":"levelo://app?vid=26a91fcb-e18f-4c83-9039-eb8c6882e94b"},"vehicle_type_id":"4","last_reported":1784425431,"current_range_meters":0,"station_id":"","pricing_plan_id":"cebpf4jnsgd1na2vs0mg"},