{"last_updated":1746569379,"ttl":60,"version":"2.2","data":{"bikes":[{"bike_id":"545631c8-05b7-4070-95e3-52dc096addb5","system_id":"levelo_inurba_marseille","lat":43.272009,"lon":5.364754,"is_reserved":false,"is_disabled":true,"rental_uris":{"android":"levelo://app?vid=545631c8-05b7-4070-95e3-52dc096addb5","ios":"levelo://app?vid=545631c8-05b7-4070-95e3-52dc096addb5"},"vehicle_type_id":"4","last_reported":1746569379,"current_range_meters":0,"station_id":"","pricing_plan_id":"cebpf4jnsgd1na2vs0mg"},{"bike_id":"64a99dee-e5f5-406c-bb57-3c1dd0084469","system_id":"levelo_inurba_marseille","lat":43.23667,"lon":5.39143,"is_reserved":false,"is_disabled":true,"rental_uris":{"android":"levelo://app?vid=64a99dee-e5f5-406c-bb57-3c1dd0084469","ios":"levelo://app?vid=64a99dee-e5f5-406c-bb57-3c1dd0084469"},"vehicle_type_id":"4","last_reported":1746569379,"current_range_meters":0,"station_id":"","pricing_plan_id":"cebpf4jnsgd1na2vs0mg"},{"bike_id":"b56eeeb9-9ded-4dd2-9efa-c8d4f8a5e387","system_id":"levelo_inurba_marseille","lat":43.27366,"lon":5.42207,"is_reserved":false,"is_disabled":true,"rental_uris":{"android":"levelo://app?vid=b56eeeb9-9ded-4dd2-9efa-c8d4f8a5e387","ios":"levelo://app?vid=b56eeeb9-9ded-4dd2-9efa-c8d4f8a5e387"},"vehicle_type_id":"4","last_reported":1746569379,"current_range_meters":0,"station_id":"","pricing_plan_id":"cebpf4jnsgd1na2vs0mg"},{"bike_id":"f9d703d9-6167-4b96-85ac-84cf35856530","system_id":"levelo_inurba_marseille","lat":43.3088,"lon":5.37284,"is_reserved":false,"is_disabled":true,"rental_uris":{"android":"levelo://app?vid=f9d703d9-6167-4b96-85ac-84cf35856530","ios":"levelo://app?vid=f9d703d9-6167-4b96-85ac-84cf35856530"},"vehicle_type_id":"4","last_reported":1746569379,"current_range_meters":0,"station_id":"","pricing_plan_id":"cebpf4jnsgd1na2vs0mg"},{"bike_id":"2d251c8d-e9d0-476f-8622-cb88831f30c3","system_id":"levelo_inurba_marseille","lat":43.27024,"lon":5.38778,"is_reserved":false,"is_disabled":true,"rental_uris":{"android":"levelo://app?vid=2d251c8d-e9d0-476f-8622-cb88831f30c3","ios":"levelo://app?vid=2d251c8d-e9d0-476f-8622-cb88831f30c3"},"vehicle_type_id":"4","last_reported":1746569379,"current_range_meters":0,"station_id":"","pricing_plan_id":"cebpf4jnsgd1na2vs0mg"},{"bike_id":"1b2daa08-827e-4a2f-b5e8-8162e468ffe5","system_id":"levelo_inurba_marseille","lat":43.29562,"lon":5.37533,"is_reserved":false,"is_disabled":true,"rental_uris":{"android":"levelo://app?vid=1b2daa08-827e-4a2f-b5e8-8162e468ffe5","ios":"levelo://app?vid=1b2daa08-827e-4a2f-b5e8-8162e468ffe5"},"vehicle_type_id":"4","last_reported":1746569379,"current_range_meters":0,"station_id":"ce4bgh92rcd13ifvqb50","pricing_plan_id":"cebpf4jnsgd1na2vs0mg"},{"bike_id":"0c37e676-920a-4aa9-b0e8-ff15770560fd","system_id":"levelo_inurba_marseille","lat":43.29019,"lon":5.39952,"is_reserved":false,"is_disabled":true,"rental_uris":{"android":"levelo://app?vid=0c37e676-920a-4aa9-b0e8-ff15770560fd","ios":"levelo://app?vid=0c37e676-920a-4aa9-b0e8-ff15770560fd"},"vehicle_type_id":"4","last_reported":1746569379,"current_range_meters":0,"station_id":"ce4bh392rcd13ifvqdm0","pricing_plan_id":"cebpf4jnsgd1na2vs0mg"},{"bike_id":"88c3c6c1-a33a-48ed-b2a4-48c16332184c","system_id":"levelo_inurba_marseille","lat":43.27857,"lon":5.37415,"is_reserved":false,"is_disabled":true,"rental_uris":{"android":"levelo://app?vid=88c3c6c1-a33a-48ed-b2a4-48c16332184c","ios":"levelo://app?vid=88c3c6c1-a33a-48ed-b2a4-48c16332184c"},"vehicle_type_id":"4","last_reported":1746569379,"current_range_meters":400,"station_id":"","pricing_plan_id":"cebpf4jnsgd1na2vs0mg"},{"bike_id":"66b646b3-6352-44bb-9bfb-21570512e3e5","system_id":"levelo_inurba_marseille","lat":43.28133,"lon":5.40394,"is_reserved":false,"is_disabled":true,"rental_uris":{"android":"levelo://app?vid=66b646b3-6352-44bb-9bfb-21570512e3e5","ios":"levelo://app?vid=66b646b3-6352-44bb-9bfb-21570512e3e5"},"vehicle_type_id":"4","last_reported":1746569379,"current_range_meters":1600,"station_id":"","pricing_plan_id":"cebpf4jnsgd1na2vs0mg"},{"bike_id":"b1998079-59e0-4b2c-908d-1457090ffd88","system_id":"levelo_inurba_marseille","lat":43.28838,"lon":5.39306,"is_reserved":false,"is_disabled":true,"rental_uris":{"android":"levelo://app?vid=b1998079-59e0-4b2c-908d-1457090ffd88","ios":"levelo://app?vid=b1998079-59e0-4b2c-908d-1457090ffd88"},"vehicle_type_id":"4","last_reported":1746569379,"current_range_meters":1600,"station_id":"ce4bh2p2rcd13ifvqdi0","pricing_plan_id":"cebpf4jnsgd1na2vs0mg"},{"bike_id":"38d322a6-8cb1-4ffe-9b3a-35822b5c9078","system_id":"levelo_inurba_marseille","lat":43.22936,"lon":5.35375,"is_reserved":false,"is_disabled":true,"rental_uris":{"android":"levelo://app?vid=38d322a6-8cb1-4ffe-9b3a-35822b5c9078","ios":"levelo://app?vid=38d322a6-8cb1-4ffe-9b3a-35822b5c9078"},"vehicle_type_id":"4","last_reported":1746569379,"current_range_meters":2000,"station_id":"cpo3532slgdg3j2ikp40","pricing_plan_id":"cebpf4jnsgd1na2vs0mg"},{"bike_id":"482344f1-460c-48ea-83dd-01b9a385e5cf","system_id":"levelo_inurba_marseille","lat":43.30637,"lon":5.36881,"is_reserved":false,"is_disabled":false,"rental_uris":{"android":"levelo://app?vid=482344f1-460c-48ea-83dd-01b9a385e5cf","ios":"levelo://app?vid=482344f1-460c-48ea-83dd-01b9a385e5cf"},"vehicle_type_id":"4","last_reported":1746569379,"current_range_meters":2800,"station_id":"","pricing_plan_id":"cebpf4jnsgd1na2vs0mg"},{"bike_id":"07279b5f-51d6-4d72-8baa-03cbedf122cb","system_id":"levelo_inurba_marseille","lat":43.231538,"lon":5.437141,"is_reserved":false,"is_disabled":false,"rental_uris":{"android":"levelo://app?vid=07279b5f-51d6-4d72-8baa-03cbedf122cb","ios":"levelo://app?vid=07279b5f-51d6-4d72-8baa-03cbedf122cb"},"vehicle_type_id":"4","last_reported":1746569379,"current_range_meters":3200,"station_id":"ce4bhmp2rcd13ifvqgog","pricing_plan_id":"cebpf4jnsgd1na2vs0mg"},{"bike_id":"ec3c63fc-9e25-4d00-b89f-5138723b14d5","system_id":"levelo_inurba_marseille","lat":43.29906,"lon":5.38142,"is_reserved":false,"is_disabled":false,"rental_uris":{"android":"levelo://app?vid=ec3c63fc-9e25-4d00-b89f-5138723b14d5","ios":"levelo://app?vid=ec3c63fc-9e25-4d00-b89f-5138723b14d5"},"vehicle_type_id":"4","last_reported":1746569379,"current_range_meters":3600,"station_id":"ce4bgj12rcd13ifvqbc0","pricing_plan_id":"cebpf4jnsgd1na2vs0mg"},{"bike_id":"9afdaa32-5437-40bb-b5dc-0e42f55a33ee","system_id":"levelo_inurba_marseille","lat":43.25414,"lon":5.41844,"is_reserved":false,"is_disabled":false,"rental_uris":{"android":"levelo://app?vid=9afdaa32-5437-40bb-b5dc-0e42f55a33ee","ios":"levelo://app?vid=9afdaa32-5437-40bb-b5dc-0e42f55a33ee"},"vehicle_type_id":"4","last_reported":1746569379,"current_range_meters":4000,"station_id":"","pricing_plan_id":"cebpf4jnsgd1na2vs0mg"},{"bike_id":"416f578b-a76d-4698-b5ca-69135ef4b579","system_id":"levelo_inurba_marseille","lat":43.241632,"lon":5.364088,"is_reserved":false,"is_disabled":false,"rental_uris":{"android":"levelo://app?vid=416f578b-a76d-4698-b5ca-69135ef4b579","ios":"levelo://app?vid=416f578b-a76d-4698-b5ca-69135ef4b579"},"vehicle_type_id":"4","last_reported":1746569379,"current_range_meters":4400,"station_id":"cpo36qri1sfpv3e86is0","pricing_plan_id":"cebpf4jnsgd1na2vs0mg"},{"bike_id":"83cc1842-773c-46bc-8be1-caa63d83c3c2","system_id":"levelo_inurba_marseille","lat":43.25899,"lon":5.39538,"is_reserved":false,"is_disabled":false,"rental_uris":{"android":"levelo://app?vid=83cc1842-773c-46bc-8be1-caa63d83c3c2","ios":"levelo://app?vid=83cc1842-773c-46bc-8be1-caa63d83c3c2"},"vehicle_type_id":"4","last_reported":1746569379,"current_range_meters":4800,"station_id":"","pricing_plan_id":"cebpf4jnsgd1na2vs0mg"},{"bike_id":"a38c2d49-7988-4ef8-83e8-42a2504085da","system_id":"levelo_inurba_marseille","lat":43.24523,"lon":5.41214,"is_reserved":false,"is_disabled":false,"rental_uris":{"android":"levelo://app?vid=a38c2d49-7988-4ef8-83e8-42a2504085da","ios":"levelo://app?vid=a38c2d49-7988-4ef8-83e8-42a2504085da"},"vehicle_type_id":"4","last_reported":1746569379,"current_range_meters":5600,"station_id":"","pricing_plan_id":"cebpf4jnsgd1na2vs0mg"},{"bike_id":"acfb8876-8a88-4a57-84d9-592de6ec35af","system_id":"levelo_inurba_marseille","lat":43.2926,"lon":5.38431,"is_reserved":false,"is_disabled":false,"rental_uris":{"android":"levelo://app?vid=acfb8876-8a88-4a57-84d9-592de6ec35af","ios":"levelo://app?vid=acfb8876-8a88-4a57-84d9-592de6ec35af"},"vehicle_type_id":"4","last_reported":1746569379,"current_range_meters":5600,"station_id":"ce4bh692rcd13ifvqea0","pricing_plan_id":"cebpf4jnsgd1na2vs0mg"},{"bike_id":"a82d6eb2-509b-4c48-934e-e70fd9ef6e9e","system_id":"levelo_inurba_marseille","lat":43.23945,"lon":5.3666,"is_reserved":false,"is_disabled":false,"rental_uris":{"android":"levelo://app?vid=a82d6eb2-509b-4c48-934e-e70fd9ef6e9e","ios":"levelo://app?vid=a82d6eb2-509b-4c48-934e-e70fd9ef6e9e"},"vehicle_type_id":"4","last_reported":1746569379,"current_range_meters":6800,"station_id":"ce4bhi12rcd13ifvqfp0","pricing_plan_id":"cebpf4jnsgd1na2vs0mg"},{"bike_id":"7637b74a-a0c8-4641-b4d2-0896f5d7e9ca","system_id":"levelo_inurba_marseille","lat":43.29287,"lon":5.40116,"is_reserved":false,"is_disabled":false,"rental_uris":{"android":"levelo://app?vid=7637b74a-a0c8-4641-b4d2-0896f5d7e9ca","ios":"levelo://app?vid=7637b74a-a0c8-4641-b4d2-0896f5d7e9ca"},"vehicle_type_id":"4","last_reported":1746569379,"current_range_meters":7200,"station_id":"ce4bh312rcd13ifvqdk0","pricing_plan_id":"cebpf4jnsgd1na2vs0mg"},{"bike_id":"6e2c21db-0baa-4ede-8c9b-539f044fc0a6","system_id":"levelo_inurba_marseille","lat":43.28078,"lon":5.39667,"is_reserved":false,"is_disabled":false,"rental_uris":{"android":"levelo://app?vid=6e2c21db-0baa-4ede-8c9b-539f044fc0a6","ios":"levelo://app?vid=6e2c21db-0baa-4ede-8c9b-539f044fc0a6"},"vehicle_type_id":"4","last_reported":1746569379,"current_range_meters":7200,"station_id":"ce4bho12rcd13ifvqh2g","pricing_plan_id":"cebpf4jnsgd1na2vs0mg"},{"bike_id":"bc303945-6678-4274-a47d-4c68703574ba","system_id":"levelo_inurba_marseille","lat":43.28072,"lon":5.39639,"is_reserved":false,"is_disabled":false,"rental_uris":{"android":"levelo://app?vid=bc303945-6678-4274-a47d-4c68703574ba","ios":"levelo://app?vid=bc303945-6678-4274-a47d-4c68703574ba"},"vehicle_type_id":"4","last_reported":1746569379,"current_range_meters":7200,"station_id":"ce4bho12rcd13ifvqh2g","pricing_plan_id":"cebpf4jnsgd1na2vs0mg"},{"bike_id":"bc04cabf-1ce8-4014-a521-5e3951ae0434","system_id":"levelo_inurba_marseille","lat":43.29964,"lon":5.41326,"is_reserved":false,"is_disabled":false,"rental_uris":{"android":"levelo://app?vid=bc04cabf-1ce8-4014-a521-5e3951ae0434","ios":"levelo://app?vid=bc04cabf-1ce8-4014-a521-5e3951ae0434"},"vehicle_type_id":"4","last_reported":1746569379,"current_range_meters":7200,"station_id":"ce4bhp12rcd13ifvqh9g","pricing_plan_id":"cebpf4jnsgd1na2vs0mg"},{"bike_id":"9d8f73eb-df09-4699-86a7-d631e2319093","system_id":"levelo_inurba_marseille","lat":43.26283,"lon":5.37461,"is_reserved":false,"is_disabled":false,"rental_uris":{"android":"levelo://app?vid=9d8f73eb-df09-4699-86a7-d631e2319093","ios":"levelo://app?vid=9d8f73eb-df09-4699-86a7-d631e2319093"},"vehicle_type_id":"4","last_reported":1746569379,"current_range_meters":8000,"station_id":"","pricing_plan_id":"cebpf4jnsgd1na2vs0mg"},{"bike_id":"3e2241d9-e2db-4d74-bb69-083241de632a","system_id":"levelo_inurba_marseille","lat":43.284,"lon":5.38679,"is_reserved":false,"is_disabled":false,"rental_uris":{"android":"levelo://app?vid=3e2241d9-e2db-4d74-bb69-083241de632a","ios":"levelo://app?vid=3e2241d9-e2db-4d74-bb69-083241de632a"},"vehicle_type_id":"4","last_reported":1746569379,"current_range_meters":8400,"station_id":"","pricing_plan_id":"cebpf4jnsgd1na2vs0mg"},{"bike_id":"6e3c6a7f-22fc-4508-b06d-ebb3d18f9191","system_id":"levelo_inurba_marseille","lat":43.30992,"lon":5.41739,"is_reserved":false,"is_disabled":false,"rental_uris":{"android":"levelo://app?vid=6e3c6a7f-22fc-4508-b06d-ebb3d18f9191","ios":"levelo://app?vid=6e3c6a7f-22fc-4508-b06d-ebb3d18f9191"},"vehicle_type_id":"4","last_reported":1746569379,"current_range_meters":8400,"station_id":"","pricing_plan_id":"cebpf4jnsgd1na2vs0mg"},{"bike_id":"0c377d9d-9a3a-47a7-9944-6039314b5e15","system_id":"levelo_inurba_marseille","lat":43.245913,"lon":5.404971,"is_reserved":false,"is_disabled":false,"rental_uris":{"android":"levelo://app?vid=0c377d9d-9a3a-47a7-9944-6039314b5e15","ios":"levelo://app?vid=0c377d9d-9a3a-47a7-9944-6039314b5e15"},"vehicle_type_id":"4","last_reported":1746569379,"current_range_meters":8400,"station_id":"","pricing_plan_id":"cebpf4jnsgd1na2vs0mg"},{"bike_id":"396c74d3-1f25-4bdc-9505-6f4f09494304","system_id":"levelo_inurba_marseille","lat":43.29276,"lon":5.40111,"is_reserved":false,"is_disabled":false,"rental_uris":{"android":"levelo://app?vid=396c74d3-1f25-4bdc-9505-6f4f09494304","ios":"levelo://app?vid=396c74d3-1f25-4bdc-9505-6f4f09494304"},"vehicle_type_id":"4","last_reported":1746569379,"current_range_meters":8400,"station_id":"ce4bh312rcd13ifvqdk0","pricing_plan_id":"cebpf4jnsgd1na2vs0mg"},{"bike_id":"baa819ed-6c62-4637-8cd5-16e9cb19c879","system_id":"levelo_inurba_marseille","lat":43.258666,"lon":5.399013,"is_reserved":false,"is_disabled":false,"rental_uris":{"android":"levelo://app?vid=baa819ed-6c62-4637-8cd5-16e9cb19c879","ios":"levelo://app?vid=baa819ed-6c62-4637-8cd5-16e9cb19c879"},"vehicle_type_id":"4","last_reported":1746569379,"current_range_meters":8400,"station_id":"ce4bhl92rcd13ifvqghg","pricing_plan_id":"cebpf4jnsgd1na2vs0mg"},{"bike_id":"9ea63d8c-fb3e-4d59-a765-19f95486125a","system_id":"levelo_inurba_marseille","lat":43.30806,"lon":5.43519,"is_reserved":false,"is_disabled":false,"rental_uris":{"android":"levelo://app?vid=9ea63d8c-fb3e-4d59-a765-19f95486125a","ios":"levelo://app?vid=9ea63d8c-fb3e-4d59-a765-19f95486125a"},"vehicle_type_id":"4","last_reported":1746569379,"current_range_meters":8400,"station_id":"ce4bhph2rcd13ifvqheg","pricing_plan_id":"cebpf4jnsgd1na2vs0mg"},{"bike_id":"21467e1f-9652-43ef-8d38-195aa628bdb7","system_id":"levelo_inurba_marseille","lat":43.32018,"lon":5.3815,"is_reserved":false,"is_disabled":false,"rental_uris":{"android":"levelo://app?vid=21467e1f-9652-43ef-8d38-195aa628bdb7","ios":"levelo://app?vid=21467e1f-9652-43ef-8d38-195aa628bdb7"},"vehicle_type_id":"4","last_reported":1746569379,"current_range_meters":8400,"station_id":"ce4bhr12rcd13ifvqhpg","pricing_plan_id":"cebpf4jnsgd1na2vs0mg"},{"bike_id":"503569af-07db-461f-918e-29f89d0c1c24","system_id":"levelo_inurba_marseille","lat":43.225101,"lon":5.347696,"is_reserved":false,"is_disabled":false,"rental_uris":{"android":"levelo://app?vid=503569af-07db-461f-918e-29f89d0c1c24","ios":"levelo://app?vid=503569af-07db-461f-918e-29f89d0c1c24"},"vehicle_type_id":"4","last_reported":1746569379,"current_range_meters":8400,"station_id":"st_cvj5dfep6f1abm77gieg","pricing_plan_id":"cebpf4jnsgd1na2vs0mg"},{"bike_id":"c2fff035-6128-402a-b38b-ebc94261b3d8","system_id":"levelo_inurba_marseille","lat":43.21208,"lon":5.35054,"is_reserved":false,"is_disabled":false,"rental_uris":{"android":"levelo://app?vid=c2fff035-6128-402a-b38b-ebc94261b3d8","ios":"levelo://app?vid=c2fff035-6128-402a-b38b-ebc94261b3d8"},"vehicle_type_id":"4","last_reported":1746569379,"current_range_meters":8400,"station_id":"st_cvj6sg6p6f1abm77japg","pricing_plan_id":"cebpf4jnsgd1na2vs0mg"},{"bike_id":"c75fd31f-cb0f-4d3b-a1e2-7d1cddc73f27","system_id":"levelo_inurba_marseille","lat":43.29217,"lon":5.39308,"is_reserved":false,"is_disabled":false,"rental_uris":{"android":"levelo://app?vid=c75fd31f-cb0f-4d3b-a1e2-7d1cddc73f27","ios":"levelo://app?vid=c75fd31f-cb0f-4d3b-a1e2-7d1cddc73f27"},"vehicle_type_id":"4","last_reported":1746569379,"current_range_meters":8800,"station_id":"ce4bh192rcd13ifvqdd0","pricing_plan_id":"cebpf4jnsgd1na2vs0mg"},{"bike_id":"484f2dde-c737-4875-a80e-8af8034b62f6","system_id":"levelo_inurba_marseille","lat":43.29018,"lon":5.39985,"is_reserved":false,"is_disabled":false,"rental_uris":{"android":"levelo://app?vid=484f2dde-c737-4875-a80e-8af8034b62f6","ios":"levelo://app?vid=484f2dde-c737-4875-a80e-8af8034b62f6"},"vehicle_type_id":"4","last_reported":1746569379,"current_range_meters":8800,"station_id":"ce4bh392rcd13ifvqdm0","pricing_plan_id":"cebpf4jnsgd1na2vs0mg"},{"bike_id":"bab57e29-1b43-40e7-87ee-968e5ea56319","system_id":"levelo_inurba_marseille","lat":43.323658,"lon":5.388774,"is_reserved":false,"is_disabled":false,"rental_uris":{"android":"levelo://app?vid=bab57e29-1b43-40e7-87ee-968e5ea56319","ios":"levelo://app?vid=bab57e29-1b43-40e7-87ee-968e5ea56319"},"vehicle_type_id":"4","last_reported":1746569379,"current_range_meters":8800,"station_id":"ce4bhqp2rcd13ifvqhog","pricing_plan_id":"cebpf4jnsgd1na2vs0mg"},{"bike_id":"1209222f-9344-4916-ba97-87580c3c3a36","system_id":"levelo_inurba_marseille","lat":43.29793,"lon":5.39346,"is_reserved":false,"is_disabled":false,"rental_uris":{"android":"levelo://app?vid=1209222f-9344-4916-ba97-87580c3c3a36","ios":"levelo://app?vid=1209222f-9344-4916-ba97-87580c3c3a36"},"vehicle_type_id":"4","last_reported":1746569379,"current_range_meters":8800,"station_id":"chh1huq6cuj3fo74tm60","pricing_plan_id":"cebpf4jnsgd1na2vs0mg"},{"bike_id":"7844ab2d-a6fb-48a0-a35b-97181959ae44","system_id":"levelo_inurba_marseille","lat":43.31324,"lon":5.39684,"is_reserved":false,"is_disabled":false,"rental_uris":{"android":"levelo://app?vid=7844ab2d-a6fb-48a0-a35b-97181959ae44","ios":"levelo://app?vid=7844ab2d-a6fb-48a0-a35b-97181959ae44"},"vehicle_type_id":"4","last_reported":1746569379,"current_range_meters":9200,"station_id":"","pricing_plan_id":"cebpf4jnsgd1na2vs0mg"},{"bike_id":"c9592205-9409-4f74-aed1-7c4141a58caa","system_id":"levelo_inurba_marseille","lat":43.27134,"lon":5.36363,"is_reserved":false,"is_disabled":false,"rental_uris":{"android":"levelo://app?vid=c9592205-9409-4f74-aed1-7c4141a58caa","ios":"levelo://app?vid=c9592205-9409-4f74-aed1-7c4141a58caa"},"vehicle_type_id":"4","last_reported":1746569379,"current_range_meters":9200,"station_id":"","pricing_plan_id":"cebpf4jnsgd1na2vs0mg"},{"bike_id":"605675c8-7e98-4b93-ad40-2caf822a384a","system_id":"levelo_inurba_marseille","lat":43.31494,"lon":5.37306,"is_reserved":false,"is_disabled":false,"rental_uris":{"android":"levelo://app?vid=605675c8-7e98-4b93-ad40-2caf822a384a","ios":"levelo://app?vid=605675c8-7e98-4b93-ad40-2caf822a384a"},"vehicle_type_id":"4","last_reported":1746569379,"current_range_meters":9200,"station_id":"ce4bgt12rcd13ifvqcd0","pricing_plan_id":"cebpf4jnsgd1na2vs0mg"},{"bike_id":"943d0601-5d73-468b-922c-7ef604961a21","system_id":"levelo_inurba_marseille","lat":43.21188,"lon":5.35093,"is_reserved":false,"is_disabled":false,"rental_uris":{"android":"levelo://app?vid=943d0601-5d73-468b-922c-7ef604961a21","ios":"levelo://app?vid=943d0601-5d73-468b-922c-7ef604961a21"},"vehicle_type_id":"4","last_reported":1746569379,"current_range_meters":9200,"station_id":"st_cvj6sg6p6f1abm77japg","pricing_plan_id":"cebpf4jnsgd1na2vs0mg"},{"bike_id":"a45d229b-c6a6-49ef-a41a-42984d8380a4","system_id":"levelo_inurba_marseille","lat":43.30946,"lon":5.40135,"is_reserved":false,"is_disabled":false,"rental_uris":{"android":"levelo://app?vid=a45d229b-c6a6-49ef-a41a-42984d8380a4","ios":"levelo://app?vid=a45d229b-c6a6-49ef-a41a-42984d8380a4"},"vehicle_type_id":"4","last_reported":1746569379,"current_range_meters":9600,"station_id":"ce4bgvp2rcd13ifvqct0","pricing_plan_id":"cebpf4jnsgd1na2vs0mg"},{"bike_id":"aa048b98-548a-4d76-b0b3-979708e484e4","system_id":"levelo_inurba_marseille","lat":43.275662,"lon":5.384252,"is_reserved":false,"is_disabled":false,"rental_uris":{"android":"levelo://app?vid=aa048b98-548a-4d76-b0b3-979708e484e4","ios":"levelo://app?vid=aa048b98-548a-4d76-b0b3-979708e484e4"},"vehicle_type_id":"4","last_reported":1746569379,"current_range_meters":9600,"station_id":"ce4bhh92rcd13ifvqfi0","pricing_plan_id":"cebpf4jnsgd1na2vs0mg"},{"bike_id":"3f84d55c-f7b3-443f-a8ba-1f83ba8291a2","system_id":"levelo_inurba_marseille","lat":43.21197,"lon":5.35068,"is_reserved":false,"is_disabled":false,"rental_uris":{"android":"levelo://app?vid=3f84d55c-f7b3-443f-a8ba-1f83ba8291a2","ios":"levelo://app?vid=3f84d55c-f7b3-443f-a8ba-1f83ba8291a2"},"vehicle_type_id":"4","last_reported":1746569379,"current_range_meters":9600,"station_id":"st_cvj6sg6p6f1abm77japg","pricing_plan_id":"cebpf4jnsgd1na2vs0mg"},{"bike_id":"53c8b1b2-4b02-49f2-ae20-0c98fe726c23","system_id":"levelo_inurba_marseille","lat":43.28686,"lon":5.3995,"is_reserved":false,"is_disabled":false,"rental_uris":{"android":"levelo://app?vid=53c8b1b2-4b02-49f2-ae20-0c98fe726c23","ios":"levelo://app?vid=53c8b1b2-4b02-49f2-ae20-0c98fe726c23"},"vehicle_type_id":"4","last_reported":1746569379,"current_range_meters":10000,"station_id":"","pricing_plan_id":"cebpf4jnsgd1na2vs0mg"},{"bike_id":"e0958a16-a452-4b60-a67a-6763663068b7","system_id":"levelo_inurba_marseille","lat":43.26223,"lon":5.4045,"is_reserved":false,"is_disabled":false,"rental_uris":{"android":"levelo://app?vid=e0958a16-a452-4b60-a67a-6763663068b7","ios":"levelo://app?vid=e0958a16-a452-4b60-a67a-6763663068b7"},"vehicle_type_id":"4","last_reported":1746569379,"current_range_meters":10000,"station_id":"ce4bhmh2rcd13ifvqgmg","pricing_plan_id":"cebpf4jnsgd1na2vs0mg"},{"bike_id":"1e6ef1b5-4779-4cb6-b6c7-5c78c344b341","system_id":"levelo_inurba_marseille","lat":43.231854,"lon":5.399822,"is_reserved":false,"is_disabled":false,"rental_uris":{"android":"levelo://app?vid=1e6ef1b5-4779-4cb6-b6c7-5c78c344b341","ios":"levelo://app?vid=1e6ef1b5-4779-4cb6-b6c7-5c78c344b341"},"vehicle_type_id":"4","last_reported":1746569379,"current_range_meters":10000,"station_id":"ce4bhn12rcd13ifvqgqg","pricing_plan_id":"cebpf4jnsgd1na2vs0mg"},{"bike_id":"54b46741-8284-4ace-92ab-407b5aa505d3","system_id":"levelo_inurba_marseille","lat":43.28738,"lon":5.36072,"is_reserved":false,"is_disabled":false,"rental_uris":{"android":"levelo://app?vid=54b46741-8284-4ace-92ab-407b5aa505d3","ios":"levelo://app?vid=54b46741-8284-4ace-92ab-407b5aa505d3"},"vehicle_type_id":"4","last_reported":1746569379,"current_range_meters":10000,"station_id":"cki0cbj6b192h4jlfktg","pricing_plan_id":"cebpf4jnsgd1na2vs0mg"},{"bike_id":"bd3b2178-bd6a-4801-b79f-10fa8392d3d4","system_id":"levelo_inurba_marseille","lat":43.31265,"lon":5.3688,"is_reserved":false,"is_disabled":false,"rental_uris":{"android":"levelo://app?vid=bd3b2178-bd6a-4801-b79f-10fa8392d3d4","ios":"levelo://app?vid=bd3b2178-bd6a-4801-b79f-10fa8392d3d4"},"vehicle_type_id":"4","last_reported":1746569379,"current_range_meters":10800,"station_id":"ce4bgl92rcd13ifvqbq0","pricing_plan_id":"cebpf4jnsgd1na2vs0mg"},{"bike_id":"aa0ff8ba-f75a-4963-8e38-b1ad71967fad","system_id":"levelo_inurba_marseille","lat":43.265088,"lon":5.395329,"is_reserved":false,"is_disabled":false,"rental_uris":{"android":"levelo://app?vid=aa0ff8ba-f75a-4963-8e38-b1ad71967fad","ios":"levelo://app?vid=aa0ff8ba-f75a-4963-8e38-b1ad71967fad"},"vehicle_type_id":"4","last_reported":1746569379,"current_range_meters":10800,"station_id":"ce4bhi12rcd13ifvqfq0","pricing_plan_id":"cebpf4jnsgd1na2vs0mg"},{"bike_id":"4d41f66c-f615-49b2-a6d7-735e22d421fb","system_id":"levelo_inurba_marseille","lat":43.23188,"lon":5.39973,"is_reserved":false,"is_disabled":false,"rental_uris":{"android":"levelo://app?vid=4d41f66c-f615-49b2-a6d7-735e22d421fb","ios":"levelo://app?vid=4d41f66c-f615-49b2-a6d7-735e22d421fb"},"vehicle_type_id":"4","last_reported":1746569379,"current_range_meters":10800,"station_id":"ce4bhn12rcd13ifvqgqg","pricing_plan_id":"cebpf4jnsgd1na2vs0mg"},{"bike_id":"b4bac287-3615-423a-bca2-a11fb80cb066","system_id":"levelo_inurba_marseille","lat":43.230595,"lon":5.354959,"is_reserved":false,"is_disabled":false,"rental_uris":{"android":"levelo://app?vid=b4bac287-3615-423a-bca2-a11fb80cb066","ios":"levelo://app?vid=b4bac287-3615-423a-bca2-a11fb80cb066"},"vehicle_type_id":"4","last_reported":1746569379,"current_range_meters":10800,"station_id":"cpo3342slgdg3j2ifvpg","pricing_plan_id":"cebpf4jnsgd1na2vs0mg"},{"bike_id":"4c0ad360-083a-4495-929a-e21621174de9","system_id":"levelo_inurba_marseille","lat":43.31481,"lon":5.37309,"is_reserved":false,"is_disabled":false,"rental_uris":{"android":"levelo://app?vid=4c0ad360-083a-4495-929a-e21621174de9","ios":"levelo://app?vid=4c0ad360-083a-4495-929a-e21621174de9"},"vehicle_type_id":"4","last_reported":1746569379,"current_range_meters":11200,"station_id":"ce4bgt12rcd13ifvqcd0","pricing_plan_id":"cebpf4jnsgd1na2vs0mg"},{"bike_id":"2d34c47c-7e86-4bb4-ab5f-8da030cb95d8","system_id":"levelo_inurba_marseille","lat":43.26225,"lon":5.40433,"is_reserved":false,"is_disabled":false,"rental_uris":{"android":"levelo://app?vid=2d34c47c-7e86-4bb4-ab5f-8da030cb95d8","ios":"levelo://app?vid=2d34c47c-7e86-4bb4-ab5f-8da030cb95d8"},"vehicle_type_id":"4","last_reported":1746569379,"current_range_meters":11200,"station_id":"ce4bhmh2rcd13ifvqgmg","pricing_plan_id":"cebpf4jnsgd1na2vs0mg"},{"bike_id":"065dfa79-5129-4665-ba10-4a802102a715","system_id":"levelo_inurba_marseille","lat":43.31724,"lon":5.42401,"is_reserved":false,"is_disabled":false,"rental_uris":{"android":"levelo://app?vid=065dfa79-5129-4665-ba10-4a802102a715","ios":"levelo://app?vid=065dfa79-5129-4665-ba10-4a802102a715"},"vehicle_type_id":"4","last_reported":1746569379,"current_range_meters":11600,"station_id":"ce4bhp92rcd13ifvqhbg","pricing_plan_id":"cebpf4jnsgd1na2vs0mg"},{"bike_id":"02db9b71-7b49-44a2-b45b-00fb47703bf5","system_id":"levelo_inurba_marseille","lat":43.30949,"lon":5.3904,"is_reserved":false,"is_disabled":false,"rental_uris":{"android":"levelo://app?vid=02db9b71-7b49-44a2-b45b-00fb47703bf5","ios":"levelo://app?vid=02db9b71-7b49-44a2-b45b-00fb47703bf5"},"vehicle_type_id":"4","last_reported":1746569379,"current_range_meters":12000,"station_id":"ce4bgup2rcd13ifvqco0","pricing_plan_id":"cebpf4jnsgd1na2vs0mg"},{"bike_id":"73f162ba-8afc-4341-9619-a2a4975c80f4","system_id":"levelo_inurba_marseille","lat":43.2927,"lon":5.4012,"is_reserved":false,"is_disabled":false,"rental_uris":{"android":"levelo://app?vid=73f162ba-8afc-4341-9619-a2a4975c80f4","ios":"levelo://app?vid=73f162ba-8afc-4341-9619-a2a4975c80f4"},"vehicle_type_id":"4","last_reported":1746569379,"current_range_meters":12000,"station_id":"ce4bh312rcd13ifvqdk0","pricing_plan_id":"cebpf4jnsgd1na2vs0mg"},{"bike_id":"eafd857e-9fd7-4269-8b25-4d7c76ebb6a9","system_id":"levelo_inurba_marseille","lat":43.24388,"lon":5.37042,"is_reserved":false,"is_disabled":false,"rental_uris":{"android":"levelo://app?vid=eafd857e-9fd7-4269-8b25-4d7c76ebb6a9","ios":"levelo://app?vid=eafd857e-9fd7-4269-8b25-4d7c76ebb6a9"},"vehicle_type_id":"4","last_reported":1746569379,"current_range_meters":12000,"station_id":"ce4bhhh2rcd13ifvqfk0","pricing_plan_id":"cebpf4jnsgd1na2vs0mg"},{"bike_id":"8a5554a2-b62f-4371-8d49-519ad97fb9f1","system_id":"levelo_inurba_marseille","lat":43.33054,"lon":5.39006,"is_reserved":false,"is_disabled":false,"rental_uris":{"android":"levelo://app?vid=8a5554a2-b62f-4371-8d49-519ad97fb9f1","ios":"levelo://app?vid=8a5554a2-b62f-4371-8d49-519ad97fb9f1"},"vehicle_type_id":"4","last_reported":1746569379,"current_range_meters":12000,"station_id":"ce4bhr92rcd13ifvqhrg","pricing_plan_id":"cebpf4jnsgd1na2vs0mg"},{"bike_id":"7bbde7e3-3765-4af5-abd2-40baaec8ece7","system_id":"levelo_inurba_marseille","lat":43.30894,"lon":5.39639,"is_reserved":false,"is_disabled":false,"rental_uris":{"android":"levelo://app?vid=7bbde7e3-3765-4af5-abd2-40baaec8ece7","ios":"levelo://app?vid=7bbde7e3-3765-4af5-abd2-40baaec8ece7"},"vehicle_type_id":"4","last_reported":1746569379,"current_range_meters":12400,"station_id":"ce4bh012rcd13ifvqcv0","pricing_plan_id":"cebpf4jnsgd1na2vs0mg"},{"bike_id":"2f9869ca-0c03-451a-9ef5-f4dfb1f32f83","system_id":"levelo_inurba_marseille","lat":43.27926,"lon":5.39575,"is_reserved":false,"is_disabled":false,"rental_uris":{"android":"levelo://app?vid=2f9869ca-0c03-451a-9ef5-f4dfb1f32f83","ios":"levelo://app?vid=2f9869ca-0c03-451a-9ef5-f4dfb1f32f83"},"vehicle_type_id":"4","last_reported":1746569379,"current_range_meters":12400,"station_id":"ce4bhf92rcd13ifvqf40","pricing_plan_id":"cebpf4jnsgd1na2vs0mg"},{"bike_id":"c213a07e-20bb-43db-8afd-4c591ad023c5","system_id":"levelo_inurba_marseille","lat":43.28158,"lon":5.42642,"is_reserved":false,"is_disabled":false,"rental_uris":{"android":"levelo://app?vid=c213a07e-20bb-43db-8afd-4c591ad023c5","ios":"levelo://app?vid=c213a07e-20bb-43db-8afd-4c591ad023c5"},"vehicle_type_id":"4","last_reported":1746569379,"current_range_meters":12400,"station_id":"ce4bhnh2rcd13ifvqgug","pricing_plan_id":"cebpf4jnsgd1na2vs0mg"},{"bike_id":"3faf21de-0bb5-458c-b92e-36d31cd32224","system_id":"levelo_inurba_marseille","lat":43.31721,"lon":5.42393,"is_reserved":false,"is_disabled":false,"rental_uris":{"android":"levelo://app?vid=3faf21de-0bb5-458c-b92e-36d31cd32224","ios":"levelo://app?vid=3faf21de-0bb5-458c-b92e-36d31cd32224"},"vehicle_type_id":"4","last_reported":1746569379,"current_range_meters":12400,"station_id":"ce4bhp92rcd13ifvqhbg","pricing_plan_id":"cebpf4jnsgd1na2vs0mg"},{"bike_id":"741922f7-49ff-4751-a228-5a73f2c8c24d","system_id":"levelo_inurba_marseille","lat":43.24177,"lon":5.36392,"is_reserved":false,"is_disabled":false,"rental_uris":{"android":"levelo://app?vid=741922f7-49ff-4751-a228-5a73f2c8c24d","ios":"levelo://app?vid=741922f7-49ff-4751-a228-5a73f2c8c24d"},"vehicle_type_id":"4","last_reported":1746569379,"current_range_meters":12400,"station_id":"cpo36qri1sfpv3e86is0","pricing_plan_id":"cebpf4jnsgd1na2vs0mg"},{"bike_id":"52ab7932-3406-4352-8ea8-709d69259cfb","system_id":"levelo_inurba_marseille","lat":43.2544,"lon":5.38245,"is_reserved":false,"is_disabled":false,"rental_uris":{"android":"levelo://app?vid=52ab7932-3406-4352-8ea8-709d69259cfb","ios":"levelo://app?vid=52ab7932-3406-4352-8ea8-709d69259cfb"},"vehicle_type_id":"4","last_reported":1746569379,"current_range_meters":12800,"station_id":"","pricing_plan_id":"cebpf4jnsgd1na2vs0mg"},{"bike_id":"c68fbd04-b5e4-435d-bbf0-d559027e2cfd","system_id":"levelo_inurba_marseille","lat":43.28659,"lon":5.36358,"is_reserved":false,"is_disabled":false,"rental_uris":{"android":"levelo://app?vid=c68fbd04-b5e4-435d-bbf0-d559027e2cfd","ios":"levelo://app?vid=c68fbd04-b5e4-435d-bbf0-d559027e2cfd"},"vehicle_type_id":"4","last_reported":1746569379,"current_range_meters":12800,"station_id":"ce4bhah2rcd13ifvqej0","pricing_plan_id":"cebpf4jnsgd1na2vs0mg"},{"bike_id":"c0c9b625-2ed9-4025-8036-243e1cf4c3d6","system_id":"levelo_inurba_marseille","lat":43.25128,"lon":5.40332,"is_reserved":false,"is_disabled":false,"rental_uris":{"android":"levelo://app?vid=c0c9b625-2ed9-4025-8036-243e1cf4c3d6","ios":"levelo://app?vid=c0c9b625-2ed9-4025-8036-243e1cf4c3d6"},"vehicle_type_id":"4","last_reported":1746569379,"current_range_meters":12800,"station_id":"ce4bhlh2rcd13ifvqgig","pricing_plan_id":"cebpf4jnsgd1na2vs0mg"},{"bike_id":"c65b64f5-a38f-4b33-a48f-6bb6c6b32a53","system_id":"levelo_inurba_marseille","lat":43.21203,"lon":5.35073,"is_reserved":false,"is_disabled":false,"rental_uris":{"android":"levelo://app?vid=c65b64f5-a38f-4b33-a48f-6bb6c6b32a53","ios":"levelo://app?vid=c65b64f5-a38f-4b33-a48f-6bb6c6b32a53"},"vehicle_type_id":"4","last_reported":1746569379,"current_range_meters":12800,"station_id":"st_cvj6sg6p6f1abm77japg","pricing_plan_id":"cebpf4jnsgd1na2vs0mg"},{"bike_id":"934592e9-d06e-4c95-8d4e-847b06115897","system_id":"levelo_inurba_marseille","lat":43.29712,"lon":5.36595,"is_reserved":false,"is_disabled":false,"rental_uris":{"android":"levelo://app?vid=934592e9-d06e-4c95-8d4e-847b06115897","ios":"levelo://app?vid=934592e9-d06e-4c95-8d4e-847b06115897"},"vehicle_type_id":"4","last_reported":1746569379,"current_range_meters":13600,"station_id":"ce4bgn12rcd13ifvqbt0","pricing_plan_id":"cebpf4jnsgd1na2vs0mg"},{"bike_id":"38a6775b-be9d-41de-a7c9-80ce9d9586b2","system_id":"levelo_inurba_marseille","lat":43.28395,"lon":5.37518,"is_reserved":false,"is_disabled":false,"rental_uris":{"android":"levelo://app?vid=38a6775b-be9d-41de-a7c9-80ce9d9586b2","ios":"levelo://app?vid=38a6775b-be9d-41de-a7c9-80ce9d9586b2"},"vehicle_type_id":"4","last_reported":1746569379,"current_range_meters":13600,"station_id":"ce4bh412rcd13ifvqds0","pricing_plan_id":"cebpf4jnsgd1na2vs0mg"},{"bike_id":"b4c819bf-0c86-46c1-8587-51423d76e167","system_id":"levelo_inurba_marseille","lat":43.29787,"lon":5.37098,"is_reserved":false,"is_disabled":false,"rental_uris":{"android":"levelo://app?vid=b4c819bf-0c86-46c1-8587-51423d76e167","ios":"levelo://app?vid=b4c819bf-0c86-46c1-8587-51423d76e167"},"vehicle_type_id":"4","last_reported":1746569379,"current_range_meters":14000,"station_id":"ce4bgop2rcd13ifvqc1g","pricing_plan_id":"cebpf4jnsgd1na2vs0mg"},{"bike_id":"5d77c07c-f046-426c-ace2-022105fda209","system_id":"levelo_inurba_marseille","lat":43.2886,"lon":5.358487,"is_reserved":false,"is_disabled":false,"rental_uris":{"android":"levelo://app?vid=5d77c07c-f046-426c-ace2-022105fda209","ios":"levelo://app?vid=5d77c07c-f046-426c-ace2-022105fda209"},"vehicle_type_id":"4","last_reported":1746569379,"current_range_meters":14000,"station_id":"ce4bhb12rcd13ifvqem0","pricing_plan_id":"cebpf4jnsgd1na2vs0mg"},{"bike_id":"ab35c390-ecef-4707-8ac6-df4ed0cb70cc","system_id":"levelo_inurba_marseille","lat":43.26597,"lon":5.39026,"is_reserved":false,"is_disabled":false,"rental_uris":{"android":"levelo://app?vid=ab35c390-ecef-4707-8ac6-df4ed0cb70cc","ios":"levelo://app?vid=ab35c390-ecef-4707-8ac6-df4ed0cb70cc"},"vehicle_type_id":"4","last_reported":1746569379,"current_range_meters":14000,"station_id":"ce4bhe12rcd13ifvqf30","pricing_plan_id":"cebpf4jnsgd1na2vs0mg"},{"bike_id":"6f783098-ef72-4044-9ec6-09b510d07edd","system_id":"levelo_inurba_marseille","lat":43.28399,"lon":5.37516,"is_reserved":false,"is_disabled":false,"rental_uris":{"android":"levelo://app?vid=6f783098-ef72-4044-9ec6-09b510d07edd","ios":"levelo://app?vid=6f783098-ef72-4044-9ec6-09b510d07edd"},"vehicle_type_id":"4","last_reported":1746569379,"current_range_meters":14400,"station_id":"ce4bh412rcd13ifvqds0","pricing_plan_id":"cebpf4jnsgd1na2vs0mg"},{"bike_id":"0f0bb485-e23f-418f-811a-87e1ff8dd8f6","system_id":"levelo_inurba_marseille","lat":43.28464,"lon":5.35889,"is_reserved":false,"is_disabled":false,"rental_uris":{"android":"levelo://app?vid=0f0bb485-e23f-418f-811a-87e1ff8dd8f6","ios":"levelo://app?vid=0f0bb485-e23f-418f-811a-87e1ff8dd8f6"},"vehicle_type_id":"4","last_reported":1746569379,"current_range_meters":14400,"station_id":"ce4bhah2rcd13ifvqei0","pricing_plan_id":"cebpf4jnsgd1na2vs0mg"},{"bike_id":"cca4c5cc-43e7-433b-a0fb-3702c8125395","system_id":"levelo_inurba_marseille","lat":43.2294,"lon":5.35377,"is_reserved":false,"is_disabled":false,"rental_uris":{"android":"levelo://app?vid=cca4c5cc-43e7-433b-a0fb-3702c8125395","ios":"levelo://app?vid=cca4c5cc-43e7-433b-a0fb-3702c8125395"},"vehicle_type_id":"4","last_reported":1746569379,"current_range_meters":14400,"station_id":"cpo3532slgdg3j2ikp40","pricing_plan_id":"cebpf4jnsgd1na2vs0mg"},{"bike_id":"05777be0-d2e1-4b71-8c20-31bdf8bdaa36","system_id":"levelo_inurba_marseille","lat":43.29271,"lon":5.37614,"is_reserved":false,"is_disabled":false,"rental_uris":{"android":"levelo://app?vid=05777be0-d2e1-4b71-8c20-31bdf8bdaa36","ios":"levelo://app?vid=05777be0-d2e1-4b71-8c20-31bdf8bdaa36"},"vehicle_type_id":"4","last_reported":1746569379,"current_range_meters":14800,"station_id":"ce4bgi12rcd13ifvqb80","pricing_plan_id":"cebpf4jnsgd1na2vs0mg"},{"bike_id":"5ca0cdd3-986b-405d-a3f7-122ee59b5450","system_id":"levelo_inurba_marseille","lat":43.286578,"lon":5.363532,"is_reserved":false,"is_disabled":false,"rental_uris":{"android":"levelo://app?vid=5ca0cdd3-986b-405d-a3f7-122ee59b5450","ios":"levelo://app?vid=5ca0cdd3-986b-405d-a3f7-122ee59b5450"},"vehicle_type_id":"4","last_reported":1746569379,"current_range_meters":14800,"station_id":"ce4bhah2rcd13ifvqej0","pricing_plan_id":"cebpf4jnsgd1na2vs0mg"},{"bike_id":"b8ddda82-92f2-42fc-8450-b14ec607afda","system_id":"levelo_inurba_marseille","lat":43.30419,"lon":5.4128,"is_reserved":false,"is_disabled":false,"rental_uris":{"android":"levelo://app?vid=b8ddda82-92f2-42fc-8450-b14ec607afda","ios":"levelo://app?vid=b8ddda82-92f2-42fc-8450-b14ec607afda"},"vehicle_type_id":"4","last_reported":1746569379,"current_range_meters":14800,"station_id":"ce4bhop2rcd13ifvqh8g","pricing_plan_id":"cebpf4jnsgd1na2vs0mg"},{"bike_id":"73b5c333-97cd-43b6-9d08-007bad2ca597","system_id":"levelo_inurba_marseille","lat":43.322879,"lon":5.382837,"is_reserved":false,"is_disabled":false,"rental_uris":{"android":"levelo://app?vid=73b5c333-97cd-43b6-9d08-007bad2ca597","ios":"levelo://app?vid=73b5c333-97cd-43b6-9d08-007bad2ca597"},"vehicle_type_id":"4","last_reported":1746569379,"current_range_meters":14800,"station_id":"ce4bhr12rcd13ifvqhqg","pricing_plan_id":"cebpf4jnsgd1na2vs0mg"},{"bike_id":"22c50e4b-4c75-45aa-abc7-d9da297fa048","system_id":"levelo_inurba_marseille","lat":43.28704,"lon":5.39963,"is_reserved":false,"is_disabled":false,"rental_uris":{"android":"levelo://app?vid=22c50e4b-4c75-45aa-abc7-d9da297fa048","ios":"levelo://app?vid=22c50e4b-4c75-45aa-abc7-d9da297fa048"},"vehicle_type_id":"4","last_reported":1746569379,"current_range_meters":15200,"station_id":"ce4bho92rcd13ifvqh3g","pricing_plan_id":"cebpf4jnsgd1na2vs0mg"},{"bike_id":"2714f713-c769-4f6a-ac44-441a635e9cba","system_id":"levelo_inurba_marseille","lat":43.21622,"lon":5.34207,"is_reserved":false,"is_disabled":false,"rental_uris":{"android":"levelo://app?vid=2714f713-c769-4f6a-ac44-441a635e9cba","ios":"levelo://app?vid=2714f713-c769-4f6a-ac44-441a635e9cba"},"vehicle_type_id":"4","last_reported":1746569379,"current_range_meters":16000,"station_id":"","pricing_plan_id":"cebpf4jnsgd1na2vs0mg"},{"bike_id":"b02dd700-e1d0-4736-93d7-81d9f5d4b73b","system_id":"levelo_inurba_marseille","lat":43.25118,"lon":5.40326,"is_reserved":false,"is_disabled":false,"rental_uris":{"android":"levelo://app?vid=b02dd700-e1d0-4736-93d7-81d9f5d4b73b","ios":"levelo://app?vid=b02dd700-e1d0-4736-93d7-81d9f5d4b73b"},"vehicle_type_id":"4","last_reported":1746569379,"current_range_meters":16000,"station_id":"ce4bhlh2rcd13ifvqgig","pricing_plan_id":"cebpf4jnsgd1na2vs0mg"},{"bike_id":"858eaade-540f-4e6d-90c6-0b267365dd5c","system_id":"levelo_inurba_marseille","lat":43.279966,"lon":5.400105,"is_reserved":false,"is_disabled":false,"rental_uris":{"android":"levelo://app?vid=858eaade-540f-4e6d-90c6-0b267365dd5c","ios":"levelo://app?vid=858eaade-540f-4e6d-90c6-0b267365dd5c"},"vehicle_type_id":"4","last_reported":1746569379,"current_range_meters":16000,"station_id":"ce4bho92rcd13ifvqh4g","pricing_plan_id":"cebpf4jnsgd1na2vs0mg"},{"bike_id":"e2d95a62-27f2-483b-871e-05c84b46aaa8","system_id":"levelo_inurba_marseille","lat":43.30808,"lon":5.43526,"is_reserved":false,"is_disabled":false,"rental_uris":{"android":"levelo://app?vid=e2d95a62-27f2-483b-871e-05c84b46aaa8","ios":"levelo://app?vid=e2d95a62-27f2-483b-871e-05c84b46aaa8"},"vehicle_type_id":"4","last_reported":1746569379,"current_range_meters":16000,"station_id":"ce4bhph2rcd13ifvqheg","pricing_plan_id":"cebpf4jnsgd1na2vs0mg"},{"bike_id":"8f25bd7a-6222-4b79-a3b2-03e7666fda2b","system_id":"levelo_inurba_marseille","lat":43.28048,"lon":5.39973,"is_reserved":false,"is_disabled":false,"rental_uris":{"android":"levelo://app?vid=8f25bd7a-6222-4b79-a3b2-03e7666fda2b","ios":"levelo://app?vid=8f25bd7a-6222-4b79-a3b2-03e7666fda2b"},"vehicle_type_id":"4","last_reported":1746569379,"current_range_meters":16400,"station_id":"","pricing_plan_id":"cebpf4jnsgd1na2vs0mg"},{"bike_id":"56f87824-a042-4d54-b0f5-5ee34b50a738","system_id":"levelo_inurba_marseille","lat":43.30636,"lon":5.37248,"is_reserved":false,"is_disabled":false,"rental_uris":{"android":"levelo://app?vid=56f87824-a042-4d54-b0f5-5ee34b50a738","ios":"levelo://app?vid=56f87824-a042-4d54-b0f5-5ee34b50a738"},"vehicle_type_id":"4","last_reported":1746569379,"current_range_meters":16400,"station_id":"ce4bgqh2rcd13ifvqc4g","pricing_plan_id":"cebpf4jnsgd1na2vs0mg"},{"bike_id":"7b9cae71-2eda-467a-94f7-92ae2ae2ee90","system_id":"levelo_inurba_marseille","lat":43.30143,"lon":5.37419,"is_reserved":false,"is_disabled":false,"rental_uris":{"android":"levelo://app?vid=7b9cae71-2eda-467a-94f7-92ae2ae2ee90","ios":"levelo://app?vid=7b9cae71-2eda-467a-94f7-92ae2ae2ee90"},"vehicle_type_id":"4","last_reported":1746569379,"current_range_meters":16400,"station_id":"ce4bgs92rcd13ifvqcc0","pricing_plan_id":"cebpf4jnsgd1na2vs0mg"},{"bike_id":"65d49461-3d2f-4d3f-b891-fa60eb957e24","system_id":"levelo_inurba_marseille","lat":43.30951,"lon":5.40146,"is_reserved":false,"is_disabled":false,"rental_uris":{"android":"levelo://app?vid=65d49461-3d2f-4d3f-b891-fa60eb957e24","ios":"levelo://app?vid=65d49461-3d2f-4d3f-b891-fa60eb957e24"},"vehicle_type_id":"4","last_reported":1746569379,"current_range_meters":16400,"station_id":"ce4bgvp2rcd13ifvqct0","pricing_plan_id":"cebpf4jnsgd1na2vs0mg"},{"bike_id":"ac839122-6771-4433-b879-a7b9d07db239","system_id":"levelo_inurba_marseille","lat":43.28934,"lon":5.36412,"is_reserved":false,"is_disabled":false,"rental_uris":{"android":"levelo://app?vid=ac839122-6771-4433-b879-a7b9d07db239","ios":"levelo://app?vid=ac839122-6771-4433-b879-a7b9d07db239"},"vehicle_type_id":"4","last_reported":1746569379,"current_range_meters":16400,"station_id":"ce4bhc92rcd13ifvqetg","pricing_plan_id":"cebpf4jnsgd1na2vs0mg"},{"bike_id":"71e48244-0e9e-472c-97f4-fee8eab9f6eb","system_id":"levelo_inurba_marseille","lat":43.270697,"lon":5.422696,"is_reserved":false,"is_disabled":false,"rental_uris":{"android":"levelo://app?vid=71e48244-0e9e-472c-97f4-fee8eab9f6eb","ios":"levelo://app?vid=71e48244-0e9e-472c-97f4-fee8eab9f6eb"},"vehicle_type_id":"4","last_reported":1746569379,"current_range_meters":16400,"station_id":"ce4bhk92rcd13ifvqgb0","pricing_plan_id":"cebpf4jnsgd1na2vs0mg"},{"bike_id":"ef917956-24f1-4d87-b62a-1d10e1025e64","system_id":"levelo_inurba_marseille","lat":43.31339,"lon":5.397,"is_reserved":false,"is_disabled":false,"rental_uris":{"android":"levelo://app?vid=ef917956-24f1-4d87-b62a-1d10e1025e64","ios":"levelo://app?vid=ef917956-24f1-4d87-b62a-1d10e1025e64"},"vehicle_type_id":"4","last_reported":1746569379,"current_range_meters":16800,"station_id":"ce4bgvp2rcd13ifvqcu0","pricing_plan_id":"cebpf4jnsgd1na2vs0mg"},{"bike_id":"c044905a-9276-4403-a037-39adb827ffc7","system_id":"levelo_inurba_marseille","lat":43.28369,"lon":5.38607,"is_reserved":false,"is_disabled":false,"rental_uris":{"android":"levelo://app?vid=c044905a-9276-4403-a037-39adb827ffc7","ios":"levelo://app?vid=c044905a-9276-4403-a037-39adb827ffc7"},"vehicle_type_id":"4","last_reported":1746569379,"current_range_meters":16800,"station_id":"ce4bh492rcd13ifvqdvg","pricing_plan_id":"cebpf4jnsgd1na2vs0mg"},{"bike_id":"ac700e2e-c129-4f82-a3c3-f628077933a6","system_id":"levelo_inurba_marseille","lat":43.212003,"lon":5.350714,"is_reserved":false,"is_disabled":false,"rental_uris":{"android":"levelo://app?vid=ac700e2e-c129-4f82-a3c3-f628077933a6","ios":"levelo://app?vid=ac700e2e-c129-4f82-a3c3-f628077933a6"},"vehicle_type_id":"4","last_reported":1746569379,"current_range_meters":16800,"station_id":"st_cvj6sg6p6f1abm77japg","pricing_plan_id":"cebpf4jnsgd1na2vs0mg"},{"bike_id":"46ca4198-4f53-41bb-96d4-f7d938ef9908","system_id":"levelo_inurba_marseille","lat":43.29781,"lon":5.40415,"is_reserved":false,"is_disabled":false,"rental_uris":{"android":"levelo://app?vid=46ca4198-4f53-41bb-96d4-f7d938ef9908","ios":"levelo://app?vid=46ca4198-4f53-41bb-96d4-f7d938ef9908"},"vehicle_type_id":"4","last_reported":1746569379,"current_range_meters":17200,"station_id":"ce4bh112rcd13ifvqd90","pricing_plan_id":"cebpf4jnsgd1na2vs0mg"},{"bike_id":"06b0d7b1-b175-4d54-877f-46f59b0c932d","system_id":"levelo_inurba_marseille","lat":43.28111,"lon":5.37859,"is_reserved":false,"is_disabled":false,"rental_uris":{"android":"levelo://app?vid=06b0d7b1-b175-4d54-877f-46f59b0c932d","ios":"levelo://app?vid=06b0d7b1-b175-4d54-877f-46f59b0c932d"},"vehicle_type_id":"4","last_reported":1746569379,"current_range_meters":17600,"station_id":"ce4bha12rcd13ifvqee0","pricing_plan_id":"cebpf4jnsgd1na2vs0mg"},{"bike_id":"3e9b0efa-487b-4068-a9c5-f042f5db1d60","system_id":"levelo_inurba_marseille","lat":43.247467,"lon":5.389633,"is_reserved":false,"is_disabled":false,"rental_uris":{"android":"levelo://app?vid=3e9b0efa-487b-4068-a9c5-f042f5db1d60","ios":"levelo://app?vid=3e9b0efa-487b-4068-a9c5-f042f5db1d60"},"vehicle_type_id":"4","last_reported":1746569379,"current_range_meters":17600,"station_id":"ce4bhg12rcd13ifvqf60","pricing_plan_id":"cebpf4jnsgd1na2vs0mg"},{"bike_id":"b47eceb2-deae-4b87-8dda-ad5b69073c9f","system_id":"levelo_inurba_marseille","lat":43.24655,"lon":5.38893,"is_reserved":false,"is_disabled":false,"rental_uris":{"android":"levelo://app?vid=b47eceb2-deae-4b87-8dda-ad5b69073c9f","ios":"levelo://app?vid=b47eceb2-deae-4b87-8dda-ad5b69073c9f"},"vehicle_type_id":"4","last_reported":1746569379,"current_range_meters":17600,"station_id":"ce4bhg12rcd13ifvqf60","pricing_plan_id":"cebpf4jnsgd1na2vs0mg"},{"bike_id":"4fa44a4d-c738-41bc-9022-213fbeae4065","system_id":"levelo_inurba_marseille","lat":43.23201,"lon":5.39993,"is_reserved":false,"is_disabled":false,"rental_uris":{"android":"levelo://app?vid=4fa44a4d-c738-41bc-9022-213fbeae4065","ios":"levelo://app?vid=4fa44a4d-c738-41bc-9022-213fbeae4065"},"vehicle_type_id":"4","last_reported":1746569379,"current_range_meters":17600,"station_id":"ce4bhn12rcd13ifvqgqg","pricing_plan_id":"cebpf4jnsgd1na2vs0mg"},{"bike_id":"cb349f0e-4ffd-48c0-8e50-21cbad52f9e1","system_id":"levelo_inurba_marseille","lat":43.3043,"lon":5.3889,"is_reserved":false,"is_disabled":false,"rental_uris":{"android":"levelo://app?vid=cb349f0e-4ffd-48c0-8e50-21cbad52f9e1","ios":"levelo://app?vid=cb349f0e-4ffd-48c0-8e50-21cbad52f9e1"},"vehicle_type_id":"4","last_reported":1746569379,"current_range_meters":18000,"station_id":"ce4bgk12rcd13ifvqbi0","pricing_plan_id":"cebpf4jnsgd1na2vs0mg"},{"bike_id":"d929bb9e-9fd0-49ee-90b1-47710abb426f","system_id":"levelo_inurba_marseille","lat":43.3093,"lon":5.40146,"is_reserved":false,"is_disabled":false,"rental_uris":{"android":"levelo://app?vid=d929bb9e-9fd0-49ee-90b1-47710abb426f","ios":"levelo://app?vid=d929bb9e-9fd0-49ee-90b1-47710abb426f"},"vehicle_type_id":"4","last_reported":1746569379,"current_range_meters":18000,"station_id":"ce4bgvp2rcd13ifvqct0","pricing_plan_id":"cebpf4jnsgd1na2vs0mg"},{"bike_id":"2219bbd0-95e5-45eb-9f51-892d1f2b9e9e","system_id":"levelo_inurba_marseille","lat":43.3109,"lon":5.42395,"is_reserved":false,"is_disabled":false,"rental_uris":{"android":"levelo://app?vid=2219bbd0-95e5-45eb-9f51-892d1f2b9e9e","ios":"levelo://app?vid=2219bbd0-95e5-45eb-9f51-892d1f2b9e9e"},"vehicle_type_id":"4","last_reported":1746569379,"current_range_meters":18000,"station_id":"ce4bhp92rcd13ifvqhag","pricing_plan_id":"cebpf4jnsgd1na2vs0mg"},{"bike_id":"fd76d4ca-f3ad-4fc8-b8d8-1513582aff5f","system_id":"levelo_inurba_marseille","lat":43.22943,"lon":5.35371,"is_reserved":false,"is_disabled":false,"rental_uris":{"android":"levelo://app?vid=fd76d4ca-f3ad-4fc8-b8d8-1513582aff5f","ios":"levelo://app?vid=fd76d4ca-f3ad-4fc8-b8d8-1513582aff5f"},"vehicle_type_id":"4","last_reported":1746569379,"current_range_meters":18000,"station_id":"cpo3532slgdg3j2ikp40","pricing_plan_id":"cebpf4jnsgd1na2vs0mg"},{"bike_id":"f3aa0816-16c7-4ec8-afdb-e4fe86c51929","system_id":"levelo_inurba_marseille","lat":43.29035,"lon":5.39981,"is_reserved":false,"is_disabled":false,"rental_uris":{"android":"levelo://app?vid=f3aa0816-16c7-4ec8-afdb-e4fe86c51929","ios":"levelo://app?vid=f3aa0816-16c7-4ec8-afdb-e4fe86c51929"},"vehicle_type_id":"4","last_reported":1746569379,"current_range_meters":18800,"station_id":"ce4bh392rcd13ifvqdm0","pricing_plan_id":"cebpf4jnsgd1na2vs0mg"},{"bike_id":"018b22ba-1028-4c1a-af8e-27874d3368a5","system_id":"levelo_inurba_marseille","lat":43.275648,"lon":5.384398,"is_reserved":false,"is_disabled":false,"rental_uris":{"android":"levelo://app?vid=018b22ba-1028-4c1a-af8e-27874d3368a5","ios":"levelo://app?vid=018b22ba-1028-4c1a-af8e-27874d3368a5"},"vehicle_type_id":"4","last_reported":1746569379,"current_range_meters":18800,"station_id":"ce4bhh92rcd13ifvqfi0","pricing_plan_id":"cebpf4jnsgd1na2vs0mg"},{"bike_id":"ac731ba8-5c74-445c-96e3-809a421a1f19","system_id":"levelo_inurba_marseille","lat":43.31912,"lon":5.40724,"is_reserved":false,"is_disabled":false,"rental_uris":{"android":"levelo://app?vid=ac731ba8-5c74-445c-96e3-809a421a1f19","ios":"levelo://app?vid=ac731ba8-5c74-445c-96e3-809a421a1f19"},"vehicle_type_id":"4","last_reported":1746569379,"current_range_meters":18800,"station_id":"ce4bhq12rcd13ifvqhig","pricing_plan_id":"cebpf4jnsgd1na2vs0mg"},{"bike_id":"c73af937-95e2-49f5-97c2-edfa66550a4e","system_id":"levelo_inurba_marseille","lat":43.28943,"lon":5.36399,"is_reserved":false,"is_disabled":false,"rental_uris":{"android":"levelo://app?vid=c73af937-95e2-49f5-97c2-edfa66550a4e","ios":"levelo://app?vid=c73af937-95e2-49f5-97c2-edfa66550a4e"},"vehicle_type_id":"4","last_reported":1746569379,"current_range_meters":19200,"station_id":"ce4bhc92rcd13ifvqetg","pricing_plan_id":"cebpf4jnsgd1na2vs0mg"},{"bike_id":"034f535c-17b3-4796-a376-287b2ebee2bc","system_id":"levelo_inurba_marseille","lat":43.24704,"lon":5.38142,"is_reserved":false,"is_disabled":false,"rental_uris":{"android":"levelo://app?vid=034f535c-17b3-4796-a376-287b2ebee2bc","ios":"levelo://app?vid=034f535c-17b3-4796-a376-287b2ebee2bc"},"vehicle_type_id":"4","last_reported":1746569379,"current_range_meters":19200,"station_id":"ce4bhih2rcd13ifvqfr0","pricing_plan_id":"cebpf4jnsgd1na2vs0mg"},{"bike_id":"3488de24-d248-4ccb-be5b-0f7cd36a3f68","system_id":"levelo_inurba_marseille","lat":43.24704,"lon":5.38143,"is_reserved":false,"is_disabled":false,"rental_uris":{"android":"levelo://app?vid=3488de24-d248-4ccb-be5b-0f7cd36a3f68","ios":"levelo://app?vid=3488de24-d248-4ccb-be5b-0f7cd36a3f68"},"vehicle_type_id":"4","last_reported":1746569379,"current_range_meters":19600,"station_id":"","pricing_plan_id":"cebpf4jnsgd1na2vs0mg"},{"bike_id":"11abe94b-e85e-478a-9094-6d825b77d58b","system_id":"levelo_inurba_marseille","lat":43.32037,"lon":5.38084,"is_reserved":false,"is_disabled":false,"rental_uris":{"android":"levelo://app?vid=11abe94b-e85e-478a-9094-6d825b77d58b","ios":"levelo://app?vid=11abe94b-e85e-478a-9094-6d825b77d58b"},"vehicle_type_id":"4","last_reported":1746569379,"current_range_meters":19600,"station_id":"","pricing_plan_id":"cebpf4jnsgd1na2vs0mg"},{"bike_id":"05831854-4819-4a6c-a8b4-8242642da57d","system_id":"levelo_inurba_marseille","lat":43.30804,"lon":5.38157,"is_reserved":false,"is_disabled":false,"rental_uris":{"android":"levelo://app?vid=05831854-4819-4a6c-a8b4-8242642da57d","ios":"levelo://app?vid=05831854-4819-4a6c-a8b4-8242642da57d"},"vehicle_type_id":"4","last_reported":1746569379,"current_range_meters":19600,"station_id":"ce4bgt12rcd13ifvqce0","pricing_plan_id":"cebpf4jnsgd1na2vs0mg"},{"bike_id":"c470f0f4-ecba-4b94-b694-b3097c690dc8","system_id":"levelo_inurba_marseille","lat":43.30325,"lon":5.40431,"is_reserved":false,"is_disabled":false,"rental_uris":{"android":"levelo://app?vid=c470f0f4-ecba-4b94-b694-b3097c690dc8","ios":"levelo://app?vid=c470f0f4-ecba-4b94-b694-b3097c690dc8"},"vehicle_type_id":"4","last_reported":1746569379,"current_range_meters":19600,"station_id":"ce4bh012rcd13ifvqd10","pricing_plan_id":"cebpf4jnsgd1na2vs0mg"},{"bike_id":"5af98096-6f41-42bd-adb3-16a9d0b0a398","system_id":"levelo_inurba_marseille","lat":43.25581,"lon":5.38228,"is_reserved":false,"is_disabled":false,"rental_uris":{"android":"levelo://app?vid=5af98096-6f41-42bd-adb3-16a9d0b0a398","ios":"levelo://app?vid=5af98096-6f41-42bd-adb3-16a9d0b0a398"},"vehicle_type_id":"4","last_reported":1746569379,"current_range_meters":19600,"station_id":"ce4bhih2rcd13ifvqfs0","pricing_plan_id":"cebpf4jnsgd1na2vs0mg"},{"bike_id":"c0882f74-9f4e-4f47-96be-891abf9b8893","system_id":"levelo_inurba_marseille","lat":43.29073,"lon":5.37181,"is_reserved":false,"is_disabled":false,"rental_uris":{"android":"levelo://app?vid=c0882f74-9f4e-4f47-96be-891abf9b8893","ios":"levelo://app?vid=c0882f74-9f4e-4f47-96be-891abf9b8893"},"vehicle_type_id":"4","last_reported":1746569379,"current_range_meters":20000,"station_id":"ce4bh5p2rcd13ifvqe4g","pricing_plan_id":"cebpf4jnsgd1na2vs0mg"},{"bike_id":"81074030-7cfd-4f12-851b-556c137e0c8a","system_id":"levelo_inurba_marseille","lat":43.25589,"lon":5.38232,"is_reserved":false,"is_disabled":false,"rental_uris":{"android":"levelo://app?vid=81074030-7cfd-4f12-851b-556c137e0c8a","ios":"levelo://app?vid=81074030-7cfd-4f12-851b-556c137e0c8a"},"vehicle_type_id":"4","last_reported":1746569379,"current_range_meters":20000,"station_id":"ce4bhih2rcd13ifvqfs0","pricing_plan_id":"cebpf4jnsgd1na2vs0mg"},{"bike_id":"63af6f78-57d5-4f3d-9494-a6d72ff84dc1","system_id":"levelo_inurba_marseille","lat":43.21199,"lon":5.3507,"is_reserved":false,"is_disabled":false,"rental_uris":{"android":"levelo://app?vid=63af6f78-57d5-4f3d-9494-a6d72ff84dc1","ios":"levelo://app?vid=63af6f78-57d5-4f3d-9494-a6d72ff84dc1"},"vehicle_type_id":"4","last_reported":1746569379,"current_range_meters":20000,"station_id":"st_cvj6sg6p6f1abm77japg","pricing_plan_id":"cebpf4jnsgd1na2vs0mg"},{"bike_id":"b2b7ea4a-2d5e-4611-92fb-72f3c47de9cf","system_id":"levelo_inurba_marseille","lat":43.29817,"lon":5.38074,"is_reserved":false,"is_disabled":false,"rental_uris":{"android":"levelo://app?vid=b2b7ea4a-2d5e-4611-92fb-72f3c47de9cf","ios":"levelo://app?vid=b2b7ea4a-2d5e-4611-92fb-72f3c47de9cf"},"vehicle_type_id":"4","last_reported":1746569379,"current_range_meters":20400,"station_id":"ce4bgip2rcd13ifvqbb0","pricing_plan_id":"cebpf4jnsgd1na2vs0mg"},{"bike_id":"90202115-f8fc-45c0-ad93-f355433fa718","system_id":"levelo_inurba_marseille","lat":43.30431,"lon":5.38893,"is_reserved":false,"is_disabled":false,"rental_uris":{"android":"levelo://app?vid=90202115-f8fc-45c0-ad93-f355433fa718","ios":"levelo://app?vid=90202115-f8fc-45c0-ad93-f355433fa718"},"vehicle_type_id":"4","last_reported":1746569379,"current_range_meters":20400,"station_id":"ce4bgk12rcd13ifvqbi0","pricing_plan_id":"cebpf4jnsgd1na2vs0mg"},{"bike_id":"5ffeac33-eab0-4d54-a10c-4c93ff662258","system_id":"levelo_inurba_marseille","lat":43.29803,"lon":5.40395,"is_reserved":false,"is_disabled":false,"rental_uris":{"android":"levelo://app?vid=5ffeac33-eab0-4d54-a10c-4c93ff662258","ios":"levelo://app?vid=5ffeac33-eab0-4d54-a10c-4c93ff662258"},"vehicle_type_id":"4","last_reported":1746569379,"current_range_meters":20400,"station_id":"ce4bh112rcd13ifvqd90","pricing_plan_id":"cebpf4jnsgd1na2vs0mg"},{"bike_id":"685704cb-7552-464b-9299-0fe4cf8f724e","system_id":"levelo_inurba_marseille","lat":43.286651,"lon":5.363546,"is_reserved":false,"is_disabled":false,"rental_uris":{"android":"levelo://app?vid=685704cb-7552-464b-9299-0fe4cf8f724e","ios":"levelo://app?vid=685704cb-7552-464b-9299-0fe4cf8f724e"},"vehicle_type_id":"4","last_reported":1746569379,"current_range_meters":20400,"station_id":"ce4bhah2rcd13ifvqej0","pricing_plan_id":"cebpf4jnsgd1na2vs0mg"},{"bike_id":"b0379035-dca5-4eda-b03b-136d5744f71d","system_id":"levelo_inurba_marseille","lat":43.30135,"lon":5.398649,"is_reserved":false,"is_disabled":false,"rental_uris":{"android":"levelo://app?vid=b0379035-dca5-4eda-b03b-136d5744f71d","ios":"levelo://app?vid=b0379035-dca5-4eda-b03b-136d5744f71d"},"vehicle_type_id":"4","last_reported":1746569379,"current_range_meters":20800,"station_id":"ce4bh0h2rcd13ifvqd40","pricing_plan_id":"cebpf4jnsgd1na2vs0mg"},{"bike_id":"83d663c2-a11b-42aa-90fd-446a7f4dd7a7","system_id":"levelo_inurba_marseille","lat":43.29041,"lon":5.35911,"is_reserved":false,"is_disabled":false,"rental_uris":{"android":"levelo://app?vid=83d663c2-a11b-42aa-90fd-446a7f4dd7a7","ios":"levelo://app?vid=83d663c2-a11b-42aa-90fd-446a7f4dd7a7"},"vehicle_type_id":"4","last_reported":1746569379,"current_range_meters":20800,"station_id":"ce4bha92rcd13ifvqeg0","pricing_plan_id":"cebpf4jnsgd1na2vs0mg"},{"bike_id":"d9460a93-d03a-4f86-b0a8-f4536e1168ba","system_id":"levelo_inurba_marseille","lat":43.28881,"lon":5.35812,"is_reserved":false,"is_disabled":false,"rental_uris":{"android":"levelo://app?vid=d9460a93-d03a-4f86-b0a8-f4536e1168ba","ios":"levelo://app?vid=d9460a93-d03a-4f86-b0a8-f4536e1168ba"},"vehicle_type_id":"4","last_reported":1746569379,"current_range_meters":20800,"station_id":"ce4bhb12rcd13ifvqem0","pricing_plan_id":"cebpf4jnsgd1na2vs0mg"},{"bike_id":"5fde9f8f-7bfd-45cd-99fd-4f6020eb1e3f","system_id":"levelo_inurba_marseille","lat":43.307974,"lon":5.435338,"is_reserved":false,"is_disabled":false,"rental_uris":{"android":"levelo://app?vid=5fde9f8f-7bfd-45cd-99fd-4f6020eb1e3f","ios":"levelo://app?vid=5fde9f8f-7bfd-45cd-99fd-4f6020eb1e3f"},"vehicle_type_id":"4","last_reported":1746569379,"current_range_meters":20800,"station_id":"ce4bhph2rcd13ifvqheg","pricing_plan_id":"cebpf4jnsgd1na2vs0mg"},{"bike_id":"b82c1cbd-ba3f-45a8-94ae-c3888b2e2d35","system_id":"levelo_inurba_marseille","lat":43.30326,"lon":5.39221,"is_reserved":false,"is_disabled":false,"rental_uris":{"android":"levelo://app?vid=b82c1cbd-ba3f-45a8-94ae-c3888b2e2d35","ios":"levelo://app?vid=b82c1cbd-ba3f-45a8-94ae-c3888b2e2d35"},"vehicle_type_id":"4","last_reported":1746569379,"current_range_meters":21600,"station_id":"ce4bgkh2rcd13ifvqbk0","pricing_plan_id":"cebpf4jnsgd1na2vs0mg"},{"bike_id":"06760fee-1af4-42b0-a1ff-d21c40f99dd1","system_id":"levelo_inurba_marseille","lat":43.310425,"lon":5.389392,"is_reserved":false,"is_disabled":false,"rental_uris":{"android":"levelo://app?vid=06760fee-1af4-42b0-a1ff-d21c40f99dd1","ios":"levelo://app?vid=06760fee-1af4-42b0-a1ff-d21c40f99dd1"},"vehicle_type_id":"4","last_reported":1746569379,"current_range_meters":21600,"station_id":"ce4bgv12rcd13ifvqcp0","pricing_plan_id":"cebpf4jnsgd1na2vs0mg"},{"bike_id":"27c5c015-8f27-4d03-94d1-be4172b9a3b5","system_id":"levelo_inurba_marseille","lat":43.31073,"lon":5.383447,"is_reserved":false,"is_disabled":false,"rental_uris":{"android":"levelo://app?vid=27c5c015-8f27-4d03-94d1-be4172b9a3b5","ios":"levelo://app?vid=27c5c015-8f27-4d03-94d1-be4172b9a3b5"},"vehicle_type_id":"4","last_reported":1746569379,"current_range_meters":21600,"station_id":"ce4bgv92rcd13ifvqcr0","pricing_plan_id":"cebpf4jnsgd1na2vs0mg"},{"bike_id":"65c9995e-2597-4251-9c64-ca9a54b566a8","system_id":"levelo_inurba_marseille","lat":43.29199,"lon":5.35801,"is_reserved":false,"is_disabled":false,"rental_uris":{"android":"levelo://app?vid=65c9995e-2597-4251-9c64-ca9a54b566a8","ios":"levelo://app?vid=65c9995e-2597-4251-9c64-ca9a54b566a8"},"vehicle_type_id":"4","last_reported":1746569379,"current_range_meters":21600,"station_id":"ce4bhb12rcd13ifvqel0","pricing_plan_id":"cebpf4jnsgd1na2vs0mg"},{"bike_id":"01fcec95-3428-4909-8b09-3e9bffa7dbcf","system_id":"levelo_inurba_marseille","lat":43.24825,"lon":5.37437,"is_reserved":false,"is_disabled":false,"rental_uris":{"android":"levelo://app?vid=01fcec95-3428-4909-8b09-3e9bffa7dbcf","ios":"levelo://app?vid=01fcec95-3428-4909-8b09-3e9bffa7dbcf"},"vehicle_type_id":"4","last_reported":1746569379,"current_range_meters":21600,"station_id":"ce4bhgh2rcd13ifvqfb0","pricing_plan_id":"cebpf4jnsgd1na2vs0mg"},{"bike_id":"dcb156cb-d9f2-4dc1-9364-38b7fa9ff290","system_id":"levelo_inurba_marseille","lat":43.32283,"lon":5.38268,"is_reserved":false,"is_disabled":false,"rental_uris":{"android":"levelo://app?vid=dcb156cb-d9f2-4dc1-9364-38b7fa9ff290","ios":"levelo://app?vid=dcb156cb-d9f2-4dc1-9364-38b7fa9ff290"},"vehicle_type_id":"4","last_reported":1746569379,"current_range_meters":21600,"station_id":"ce4bhr12rcd13ifvqhqg","pricing_plan_id":"cebpf4jnsgd1na2vs0mg"},{"bike_id":"34a2086b-bb47-4cbc-b21b-801432695dc4","system_id":"levelo_inurba_marseille","lat":43.30605,"lon":5.37227,"is_reserved":false,"is_disabled":false,"rental_uris":{"android":"levelo://app?vid=34a2086b-bb47-4cbc-b21b-801432695dc4","ios":"levelo://app?vid=34a2086b-bb47-4cbc-b21b-801432695dc4"},"vehicle_type_id":"4","last_reported":1746569379,"current_range_meters":22000,"station_id":"ce4bgqh2rcd13ifvqc4g","pricing_plan_id":"cebpf4jnsgd1na2vs0mg"},{"bike_id":"e8461d32-97a3-46df-bca7-513439d65118","system_id":"levelo_inurba_marseille","lat":43.28272,"lon":5.35087,"is_reserved":false,"is_disabled":false,"rental_uris":{"android":"levelo://app?vid=e8461d32-97a3-46df-bca7-513439d65118","ios":"levelo://app?vid=e8461d32-97a3-46df-bca7-513439d65118"},"vehicle_type_id":"4","last_reported":1746569379,"current_range_meters":22400,"station_id":"ce4bhbp2rcd13ifvqerg","pricing_plan_id":"cebpf4jnsgd1na2vs0mg"},{"bike_id":"be14af02-7701-4605-b2d6-5fd0439029d8","system_id":"levelo_inurba_marseille","lat":43.21258,"lon":5.35008,"is_reserved":false,"is_disabled":false,"rental_uris":{"android":"levelo://app?vid=be14af02-7701-4605-b2d6-5fd0439029d8","ios":"levelo://app?vid=be14af02-7701-4605-b2d6-5fd0439029d8"},"vehicle_type_id":"4","last_reported":1746569379,"current_range_meters":22800,"station_id":"","pricing_plan_id":"cebpf4jnsgd1na2vs0mg"},{"bike_id":"0979447d-5079-43c7-89ae-867ea4b6aa61","system_id":"levelo_inurba_marseille","lat":43.30776,"lon":5.3765,"is_reserved":false,"is_disabled":false,"rental_uris":{"android":"levelo://app?vid=0979447d-5079-43c7-89ae-867ea4b6aa61","ios":"levelo://app?vid=0979447d-5079-43c7-89ae-867ea4b6aa61"},"vehicle_type_id":"4","last_reported":1746569379,"current_range_meters":22800,"station_id":"ce4bgv92rcd13ifvqcq0","pricing_plan_id":"cebpf4jnsgd1na2vs0mg"},{"bike_id":"92397aea-8aef-46e7-8514-a5c8ed9513d6","system_id":"levelo_inurba_marseille","lat":43.28701,"lon":5.39988,"is_reserved":false,"is_disabled":false,"rental_uris":{"android":"levelo://app?vid=92397aea-8aef-46e7-8514-a5c8ed9513d6","ios":"levelo://app?vid=92397aea-8aef-46e7-8514-a5c8ed9513d6"},"vehicle_type_id":"4","last_reported":1746569379,"current_range_meters":22800,"station_id":"ce4bho92rcd13ifvqh3g","pricing_plan_id":"cebpf4jnsgd1na2vs0mg"},{"bike_id":"b3946e53-8dbe-44a6-8f27-63fcb1d1ba74","system_id":"levelo_inurba_marseille","lat":43.30895,"lon":5.37227,"is_reserved":false,"is_disabled":false,"rental_uris":{"android":"levelo://app?vid=b3946e53-8dbe-44a6-8f27-63fcb1d1ba74","ios":"levelo://app?vid=b3946e53-8dbe-44a6-8f27-63fcb1d1ba74"},"vehicle_type_id":"4","last_reported":1746569379,"current_range_meters":23200,"station_id":"ce4bguh2rcd13ifvqckg","pricing_plan_id":"cebpf4jnsgd1na2vs0mg"},{"bike_id":"99384b63-988c-4f51-9128-c6b177fc3d65","system_id":"levelo_inurba_marseille","lat":43.287114,"lon":5.373798,"is_reserved":false,"is_disabled":false,"rental_uris":{"android":"levelo://app?vid=99384b63-988c-4f51-9128-c6b177fc3d65","ios":"levelo://app?vid=99384b63-988c-4f51-9128-c6b177fc3d65"},"vehicle_type_id":"4","last_reported":1746569379,"current_range_meters":23200,"station_id":"ce4bh3p2rcd13ifvqdq0","pricing_plan_id":"cebpf4jnsgd1na2vs0mg"},{"bike_id":"7e450b57-8cdc-4dbc-8780-1123f3427ded","system_id":"levelo_inurba_marseille","lat":43.24651,"lon":5.38894,"is_reserved":false,"is_disabled":false,"rental_uris":{"android":"levelo://app?vid=7e450b57-8cdc-4dbc-8780-1123f3427ded","ios":"levelo://app?vid=7e450b57-8cdc-4dbc-8780-1123f3427ded"},"vehicle_type_id":"4","last_reported":1746569379,"current_range_meters":23200,"station_id":"ce4bhg12rcd13ifvqf60","pricing_plan_id":"cebpf4jnsgd1na2vs0mg"},{"bike_id":"e0440af6-f4d7-44c2-bee1-3c68a4b80c74","system_id":"levelo_inurba_marseille","lat":43.25162,"lon":5.40434,"is_reserved":false,"is_disabled":false,"rental_uris":{"android":"levelo://app?vid=e0440af6-f4d7-44c2-bee1-3c68a4b80c74","ios":"levelo://app?vid=e0440af6-f4d7-44c2-bee1-3c68a4b80c74"},"vehicle_type_id":"4","last_reported":1746569379,"current_range_meters":23200,"station_id":"ce4bhlh2rcd13ifvqgig","pricing_plan_id":"cebpf4jnsgd1na2vs0mg"},{"bike_id":"7ed4d79c-fea0-483b-b680-5391d366640e","system_id":"levelo_inurba_marseille","lat":43.24043,"lon":5.37772,"is_reserved":false,"is_disabled":false,"rental_uris":{"android":"levelo://app?vid=7ed4d79c-fea0-483b-b680-5391d366640e","ios":"levelo://app?vid=7ed4d79c-fea0-483b-b680-5391d366640e"},"vehicle_type_id":"4","last_reported":1746569379,"current_range_meters":23200,"station_id":"ce4bhnp2rcd13ifvqgvg","pricing_plan_id":"cebpf4jnsgd1na2vs0mg"},{"bike_id":"8afa21a8-d8a4-4bf7-868e-605bb75db5cd","system_id":"levelo_inurba_marseille","lat":43.30399,"lon":5.38877,"is_reserved":false,"is_disabled":false,"rental_uris":{"android":"levelo://app?vid=8afa21a8-d8a4-4bf7-868e-605bb75db5cd","ios":"levelo://app?vid=8afa21a8-d8a4-4bf7-868e-605bb75db5cd"},"vehicle_type_id":"4","last_reported":1746569379,"current_range_meters":24000,"station_id":"ce4bgk12rcd13ifvqbi0","pricing_plan_id":"cebpf4jnsgd1na2vs0mg"},{"bike_id":"a3efb6d2-7022-4169-a2ee-302f3483b3db","system_id":"levelo_inurba_marseille","lat":43.31218,"lon":5.36849,"is_reserved":false,"is_disabled":false,"rental_uris":{"android":"levelo://app?vid=a3efb6d2-7022-4169-a2ee-302f3483b3db","ios":"levelo://app?vid=a3efb6d2-7022-4169-a2ee-302f3483b3db"},"vehicle_type_id":"4","last_reported":1746569379,"current_range_meters":24400,"station_id":"ce4bgl92rcd13ifvqbq0","pricing_plan_id":"cebpf4jnsgd1na2vs0mg"},{"bike_id":"0d4476b9-719d-45b3-afd5-17ca5f96ff10","system_id":"levelo_inurba_marseille","lat":43.28694,"lon":5.37392,"is_reserved":false,"is_disabled":false,"rental_uris":{"android":"levelo://app?vid=0d4476b9-719d-45b3-afd5-17ca5f96ff10","ios":"levelo://app?vid=0d4476b9-719d-45b3-afd5-17ca5f96ff10"},"vehicle_type_id":"4","last_reported":1746569379,"current_range_meters":24400,"station_id":"ce4bh3p2rcd13ifvqdq0","pricing_plan_id":"cebpf4jnsgd1na2vs0mg"},{"bike_id":"e3a787a5-1e9f-4195-9098-70c20ae9e4f2","system_id":"levelo_inurba_marseille","lat":43.28118,"lon":5.37848,"is_reserved":false,"is_disabled":false,"rental_uris":{"android":"levelo://app?vid=e3a787a5-1e9f-4195-9098-70c20ae9e4f2","ios":"levelo://app?vid=e3a787a5-1e9f-4195-9098-70c20ae9e4f2"},"vehicle_type_id":"4","last_reported":1746569379,"current_range_meters":24400,"station_id":"ce4bha12rcd13ifvqee0","pricing_plan_id":"cebpf4jnsgd1na2vs0mg"},{"bike_id":"0746fbca-305c-4402-add1-411a5bde6fec","system_id":"levelo_inurba_marseille","lat":43.28707,"lon":5.3998,"is_reserved":false,"is_disabled":false,"rental_uris":{"android":"levelo://app?vid=0746fbca-305c-4402-add1-411a5bde6fec","ios":"levelo://app?vid=0746fbca-305c-4402-add1-411a5bde6fec"},"vehicle_type_id":"4","last_reported":1746569379,"current_range_meters":24400,"station_id":"ce4bho92rcd13ifvqh3g","pricing_plan_id":"cebpf4jnsgd1na2vs0mg"},{"bike_id":"2e89b28d-c33b-4895-9edc-ed1d1cbcde63","system_id":"levelo_inurba_marseille","lat":43.323431,"lon":5.406285,"is_reserved":false,"is_disabled":false,"rental_uris":{"android":"levelo://app?vid=2e89b28d-c33b-4895-9edc-ed1d1cbcde63","ios":"levelo://app?vid=2e89b28d-c33b-4895-9edc-ed1d1cbcde63"},"vehicle_type_id":"4","last_reported":1746569379,"current_range_meters":24400,"station_id":"ce4bhq92rcd13ifvqhjg","pricing_plan_id":"cebpf4jnsgd1na2vs0mg"},{"bike_id":"4aab0a41-faed-4a94-9962-85872d50e76b","system_id":"levelo_inurba_marseille","lat":43.26808,"lon":5.40263,"is_reserved":false,"is_disabled":false,"rental_uris":{"android":"levelo://app?vid=4aab0a41-faed-4a94-9962-85872d50e76b","ios":"levelo://app?vid=4aab0a41-faed-4a94-9962-85872d50e76b"},"vehicle_type_id":"4","last_reported":1746569379,"current_range_meters":24400,"station_id":"ce501612rcd8frsf0b60","pricing_plan_id":"cebpf4jnsgd1na2vs0mg"},{"bike_id":"cb785303-a892-4348-a99c-2b70d2a29fff","system_id":"levelo_inurba_marseille","lat":43.229254,"lon":5.353753,"is_reserved":false,"is_disabled":false,"rental_uris":{"android":"levelo://app?vid=cb785303-a892-4348-a99c-2b70d2a29fff","ios":"levelo://app?vid=cb785303-a892-4348-a99c-2b70d2a29fff"},"vehicle_type_id":"4","last_reported":1746569379,"current_range_meters":24400,"station_id":"cpo3532slgdg3j2ikp40","pricing_plan_id":"cebpf4jnsgd1na2vs0mg"},{"bike_id":"70a29a45-574c-4ff1-aca3-740aa0e705be","system_id":"levelo_inurba_marseille","lat":43.24157,"lon":5.36403,"is_reserved":false,"is_disabled":false,"rental_uris":{"android":"levelo://app?vid=70a29a45-574c-4ff1-aca3-740aa0e705be","ios":"levelo://app?vid=70a29a45-574c-4ff1-aca3-740aa0e705be"},"vehicle_type_id":"4","last_reported":1746569379,"current_range_meters":24400,"station_id":"cpo36qri1sfpv3e86is0","pricing_plan_id":"cebpf4jnsgd1na2vs0mg"},{"bike_id":"04df3cfa-e29e-48f7-b9a7-00da4857e82f","system_id":"levelo_inurba_marseille","lat":43.30939,"lon":5.40142,"is_reserved":false,"is_disabled":false,"rental_uris":{"android":"levelo://app?vid=04df3cfa-e29e-48f7-b9a7-00da4857e82f","ios":"levelo://app?vid=04df3cfa-e29e-48f7-b9a7-00da4857e82f"},"vehicle_type_id":"4","last_reported":1746569379,"current_range_meters":24800,"station_id":"ce4bgvp2rcd13ifvqct0","pricing_plan_id":"cebpf4jnsgd1na2vs0mg"},{"bike_id":"f5d9e3f9-4b69-404f-9462-62fbb60eaf56","system_id":"levelo_inurba_marseille","lat":43.30888,"lon":5.39658,"is_reserved":false,"is_disabled":false,"rental_uris":{"android":"levelo://app?vid=f5d9e3f9-4b69-404f-9462-62fbb60eaf56","ios":"levelo://app?vid=f5d9e3f9-4b69-404f-9462-62fbb60eaf56"},"vehicle_type_id":"4","last_reported":1746569379,"current_range_meters":24800,"station_id":"ce4bh012rcd13ifvqcv0","pricing_plan_id":"cebpf4jnsgd1na2vs0mg"},{"bike_id":"d0af721c-4d1a-4f32-a6f7-a4b513470686","system_id":"levelo_inurba_marseille","lat":43.30645,"lon":5.40061,"is_reserved":false,"is_disabled":false,"rental_uris":{"android":"levelo://app?vid=d0af721c-4d1a-4f32-a6f7-a4b513470686","ios":"levelo://app?vid=d0af721c-4d1a-4f32-a6f7-a4b513470686"},"vehicle_type_id":"4","last_reported":1746569379,"current_range_meters":24800,"station_id":"ce4bh112rcd13ifvqda0","pricing_plan_id":"cebpf4jnsgd1na2vs0mg"},{"bike_id":"381683f2-ae64-4556-9200-b4f0aeaf2ccb","system_id":"levelo_inurba_marseille","lat":43.28034,"lon":5.36946,"is_reserved":false,"is_disabled":false,"rental_uris":{"android":"levelo://app?vid=381683f2-ae64-4556-9200-b4f0aeaf2ccb","ios":"levelo://app?vid=381683f2-ae64-4556-9200-b4f0aeaf2ccb"},"vehicle_type_id":"4","last_reported":1746569379,"current_range_meters":24800,"station_id":"ce4bha12rcd13ifvqef0","pricing_plan_id":"cebpf4jnsgd1na2vs0mg"},{"bike_id":"d6256f8b-762b-4c3c-abf0-da6fff587491","system_id":"levelo_inurba_marseille","lat":43.28457,"lon":5.35891,"is_reserved":false,"is_disabled":false,"rental_uris":{"android":"levelo://app?vid=d6256f8b-762b-4c3c-abf0-da6fff587491","ios":"levelo://app?vid=d6256f8b-762b-4c3c-abf0-da6fff587491"},"vehicle_type_id":"4","last_reported":1746569379,"current_range_meters":24800,"station_id":"ce4bhah2rcd13ifvqei0","pricing_plan_id":"cebpf4jnsgd1na2vs0mg"},{"bike_id":"21404e84-7941-4e33-a6e4-825624b18edf","system_id":"levelo_inurba_marseille","lat":43.23181,"lon":5.39986,"is_reserved":false,"is_disabled":false,"rental_uris":{"android":"levelo://app?vid=21404e84-7941-4e33-a6e4-825624b18edf","ios":"levelo://app?vid=21404e84-7941-4e33-a6e4-825624b18edf"},"vehicle_type_id":"4","last_reported":1746569379,"current_range_meters":24800,"station_id":"ce4bhn12rcd13ifvqgqg","pricing_plan_id":"cebpf4jnsgd1na2vs0mg"},{"bike_id":"98f166c7-5e33-4802-89b0-96064d90148d","system_id":"levelo_inurba_marseille","lat":43.319,"lon":5.40729,"is_reserved":false,"is_disabled":false,"rental_uris":{"android":"levelo://app?vid=98f166c7-5e33-4802-89b0-96064d90148d","ios":"levelo://app?vid=98f166c7-5e33-4802-89b0-96064d90148d"},"vehicle_type_id":"4","last_reported":1746569379,"current_range_meters":24800,"station_id":"ce4bhq12rcd13ifvqhig","pricing_plan_id":"cebpf4jnsgd1na2vs0mg"},{"bike_id":"68a71b87-ef8d-478a-9bd0-1cdd8fd14319","system_id":"levelo_inurba_marseille","lat":43.26807,"lon":5.40262,"is_reserved":false,"is_disabled":false,"rental_uris":{"android":"levelo://app?vid=68a71b87-ef8d-478a-9bd0-1cdd8fd14319","ios":"levelo://app?vid=68a71b87-ef8d-478a-9bd0-1cdd8fd14319"},"vehicle_type_id":"4","last_reported":1746569379,"current_range_meters":24800,"station_id":"ce501612rcd8frsf0b60","pricing_plan_id":"cebpf4jnsgd1na2vs0mg"},{"bike_id":"2d60fc77-0789-4aa5-ae17-49c387a82783","system_id":"levelo_inurba_marseille","lat":43.21198,"lon":5.35069,"is_reserved":false,"is_disabled":false,"rental_uris":{"android":"levelo://app?vid=2d60fc77-0789-4aa5-ae17-49c387a82783","ios":"levelo://app?vid=2d60fc77-0789-4aa5-ae17-49c387a82783"},"vehicle_type_id":"4","last_reported":1746569379,"current_range_meters":24800,"station_id":"st_cvj6sg6p6f1abm77japg","pricing_plan_id":"cebpf4jnsgd1na2vs0mg"},{"bike_id":"32d8d0bc-e798-42b6-b74a-df5758bef041","system_id":"levelo_inurba_marseille","lat":43.2921,"lon":5.39308,"is_reserved":false,"is_disabled":false,"rental_uris":{"android":"levelo://app?vid=32d8d0bc-e798-42b6-b74a-df5758bef041","ios":"levelo://app?vid=32d8d0bc-e798-42b6-b74a-df5758bef041"},"vehicle_type_id":"4","last_reported":1746569379,"current_range_meters":25200,"station_id":"ce4bh192rcd13ifvqdd0","pricing_plan_id":"cebpf4jnsgd1na2vs0mg"},{"bike_id":"10670836-3d47-43d7-87ef-f97e5e20cb8d","system_id":"levelo_inurba_marseille","lat":43.28267,"lon":5.3507,"is_reserved":false,"is_disabled":false,"rental_uris":{"android":"levelo://app?vid=10670836-3d47-43d7-87ef-f97e5e20cb8d","ios":"levelo://app?vid=10670836-3d47-43d7-87ef-f97e5e20cb8d"},"vehicle_type_id":"4","last_reported":1746569379,"current_range_meters":25200,"station_id":"ce4bhbp2rcd13ifvqerg","pricing_plan_id":"cebpf4jnsgd1na2vs0mg"},{"bike_id":"b75b32b9-79f7-4b3b-8c6c-afa389f4c915","system_id":"levelo_inurba_marseille","lat":43.28941,"lon":5.36403,"is_reserved":false,"is_disabled":false,"rental_uris":{"android":"levelo://app?vid=b75b32b9-79f7-4b3b-8c6c-afa389f4c915","ios":"levelo://app?vid=b75b32b9-79f7-4b3b-8c6c-afa389f4c915"},"vehicle_type_id":"4","last_reported":1746569379,"current_range_meters":25200,"station_id":"ce4bhc92rcd13ifvqetg","pricing_plan_id":"cebpf4jnsgd1na2vs0mg"},{"bike_id":"632f3346-e78e-4a65-9fc1-3fdf6cd4055d","system_id":"levelo_inurba_marseille","lat":43.33033,"lon":5.39029,"is_reserved":false,"is_disabled":false,"rental_uris":{"android":"levelo://app?vid=632f3346-e78e-4a65-9fc1-3fdf6cd4055d","ios":"levelo://app?vid=632f3346-e78e-4a65-9fc1-3fdf6cd4055d"},"vehicle_type_id":"4","last_reported":1746569379,"current_range_meters":25200,"station_id":"ce4bhr92rcd13ifvqhrg","pricing_plan_id":"cebpf4jnsgd1na2vs0mg"},{"bike_id":"ff807334-3ad3-4e40-bbde-648eb2b1c45b","system_id":"levelo_inurba_marseille","lat":43.2122,"lon":5.35053,"is_reserved":false,"is_disabled":false,"rental_uris":{"android":"levelo://app?vid=ff807334-3ad3-4e40-bbde-648eb2b1c45b","ios":"levelo://app?vid=ff807334-3ad3-4e40-bbde-648eb2b1c45b"},"vehicle_type_id":"4","last_reported":1746569379,"current_range_meters":25600,"station_id":"","pricing_plan_id":"cebpf4jnsgd1na2vs0mg"},{"bike_id":"fdad3942-7914-4d6c-af10-4009483de71e","system_id":"levelo_inurba_marseille","lat":43.30608,"lon":5.37235,"is_reserved":false,"is_disabled":false,"rental_uris":{"android":"levelo://app?vid=fdad3942-7914-4d6c-af10-4009483de71e","ios":"levelo://app?vid=fdad3942-7914-4d6c-af10-4009483de71e"},"vehicle_type_id":"4","last_reported":1746569379,"current_range_meters":25600,"station_id":"ce4bgqh2rcd13ifvqc4g","pricing_plan_id":"cebpf4jnsgd1na2vs0mg"},{"bike_id":"d96c6a6a-cb07-413c-8561-cb0ab993eb18","system_id":"levelo_inurba_marseille","lat":43.30328,"lon":5.40438,"is_reserved":false,"is_disabled":false,"rental_uris":{"android":"levelo://app?vid=d96c6a6a-cb07-413c-8561-cb0ab993eb18","ios":"levelo://app?vid=d96c6a6a-cb07-413c-8561-cb0ab993eb18"},"vehicle_type_id":"4","last_reported":1746569379,"current_range_meters":25600,"station_id":"ce4bh012rcd13ifvqd10","pricing_plan_id":"cebpf4jnsgd1na2vs0mg"},{"bike_id":"db388e6c-e0e7-4f5d-86c9-5f8c8b200674","system_id":"levelo_inurba_marseille","lat":43.31715,"lon":5.43709,"is_reserved":false,"is_disabled":false,"rental_uris":{"android":"levelo://app?vid=db388e6c-e0e7-4f5d-86c9-5f8c8b200674","ios":"levelo://app?vid=db388e6c-e0e7-4f5d-86c9-5f8c8b200674"},"vehicle_type_id":"4","last_reported":1746569379,"current_range_meters":25600,"station_id":"ce4bhp92rcd13ifvqhcg","pricing_plan_id":"cebpf4jnsgd1na2vs0mg"},{"bike_id":"b288657d-a326-4e0c-ad41-58848f71ab90","system_id":"levelo_inurba_marseille","lat":43.30816,"lon":5.4352,"is_reserved":false,"is_disabled":false,"rental_uris":{"android":"levelo://app?vid=b288657d-a326-4e0c-ad41-58848f71ab90","ios":"levelo://app?vid=b288657d-a326-4e0c-ad41-58848f71ab90"},"vehicle_type_id":"4","last_reported":1746569379,"current_range_meters":25600,"station_id":"ce4bhph2rcd13ifvqheg","pricing_plan_id":"cebpf4jnsgd1na2vs0mg"},{"bike_id":"fd018bb0-d87b-4ce2-a994-f4d34cdb1e82","system_id":"levelo_inurba_marseille","lat":43.26942,"lon":5.40255,"is_reserved":false,"is_disabled":false,"rental_uris":{"android":"levelo://app?vid=fd018bb0-d87b-4ce2-a994-f4d34cdb1e82","ios":"levelo://app?vid=fd018bb0-d87b-4ce2-a994-f4d34cdb1e82"},"vehicle_type_id":"4","last_reported":1746569379,"current_range_meters":25600,"station_id":"cjm6bp8fraef2m0cb0m0","pricing_plan_id":"cebpf4jnsgd1na2vs0mg"},{"bike_id":"e2f89092-6b39-44e2-a724-51d27e949794","system_id":"levelo_inurba_marseille","lat":43.30142,"lon":5.37424,"is_reserved":false,"is_disabled":false,"rental_uris":{"android":"levelo://app?vid=e2f89092-6b39-44e2-a724-51d27e949794","ios":"levelo://app?vid=e2f89092-6b39-44e2-a724-51d27e949794"},"vehicle_type_id":"4","last_reported":1746569379,"current_range_meters":26000,"station_id":"ce4bgs92rcd13ifvqcc0","pricing_plan_id":"cebpf4jnsgd1na2vs0mg"},{"bike_id":"08e93d4a-1407-4fcb-9760-cc91b31df300","system_id":"levelo_inurba_marseille","lat":43.31487,"lon":5.37307,"is_reserved":false,"is_disabled":false,"rental_uris":{"android":"levelo://app?vid=08e93d4a-1407-4fcb-9760-cc91b31df300","ios":"levelo://app?vid=08e93d4a-1407-4fcb-9760-cc91b31df300"},"vehicle_type_id":"4","last_reported":1746569379,"current_range_meters":26000,"station_id":"ce4bgt12rcd13ifvqcd0","pricing_plan_id":"cebpf4jnsgd1na2vs0mg"},{"bike_id":"2f712544-64ae-42cb-9e1c-1a8a090dc2bd","system_id":"levelo_inurba_marseille","lat":43.28103,"lon":5.37834,"is_reserved":false,"is_disabled":false,"rental_uris":{"android":"levelo://app?vid=2f712544-64ae-42cb-9e1c-1a8a090dc2bd","ios":"levelo://app?vid=2f712544-64ae-42cb-9e1c-1a8a090dc2bd"},"vehicle_type_id":"4","last_reported":1746569379,"current_range_meters":26000,"station_id":"ce4bha12rcd13ifvqee0","pricing_plan_id":"cebpf4jnsgd1na2vs0mg"},{"bike_id":"49b28d34-4f90-4bcb-afcd-b99e1490cb2a","system_id":"levelo_inurba_marseille","lat":43.28726,"lon":5.39982,"is_reserved":false,"is_disabled":false,"rental_uris":{"android":"levelo://app?vid=49b28d34-4f90-4bcb-afcd-b99e1490cb2a","ios":"levelo://app?vid=49b28d34-4f90-4bcb-afcd-b99e1490cb2a"},"vehicle_type_id":"4","last_reported":1746569379,"current_range_meters":26000,"station_id":"ce4bho92rcd13ifvqh3g","pricing_plan_id":"cebpf4jnsgd1na2vs0mg"},{"bike_id":"29c10b5f-5dbb-4eb4-8990-107da4ef39dc","system_id":"levelo_inurba_marseille","lat":43.2873,"lon":5.3607,"is_reserved":false,"is_disabled":false,"rental_uris":{"android":"levelo://app?vid=29c10b5f-5dbb-4eb4-8990-107da4ef39dc","ios":"levelo://app?vid=29c10b5f-5dbb-4eb4-8990-107da4ef39dc"},"vehicle_type_id":"4","last_reported":1746569379,"current_range_meters":26000,"station_id":"cki0cbj6b192h4jlfktg","pricing_plan_id":"cebpf4jnsgd1na2vs0mg"},{"bike_id":"765ea0b2-9ef6-4405-960f-19cfa02d97e4","system_id":"levelo_inurba_marseille","lat":43.30824,"lon":5.38165,"is_reserved":false,"is_disabled":false,"rental_uris":{"android":"levelo://app?vid=765ea0b2-9ef6-4405-960f-19cfa02d97e4","ios":"levelo://app?vid=765ea0b2-9ef6-4405-960f-19cfa02d97e4"},"vehicle_type_id":"4","last_reported":1746569379,"current_range_meters":26800,"station_id":"ce4bgt12rcd13ifvqce0","pricing_plan_id":"cebpf4jnsgd1na2vs0mg"},{"bike_id":"9ca29ff8-e582-4747-a55c-a2fd4f53e9c5","system_id":"levelo_inurba_marseille","lat":43.29036,"lon":5.3997,"is_reserved":false,"is_disabled":false,"rental_uris":{"android":"levelo://app?vid=9ca29ff8-e582-4747-a55c-a2fd4f53e9c5","ios":"levelo://app?vid=9ca29ff8-e582-4747-a55c-a2fd4f53e9c5"},"vehicle_type_id":"4","last_reported":1746569379,"current_range_meters":26800,"station_id":"ce4bh392rcd13ifvqdm0","pricing_plan_id":"cebpf4jnsgd1na2vs0mg"},{"bike_id":"a534a9eb-32a5-4cba-a529-c32c5b5d5455","system_id":"levelo_inurba_marseille","lat":43.24804,"lon":5.37451,"is_reserved":false,"is_disabled":false,"rental_uris":{"android":"levelo://app?vid=a534a9eb-32a5-4cba-a529-c32c5b5d5455","ios":"levelo://app?vid=a534a9eb-32a5-4cba-a529-c32c5b5d5455"},"vehicle_type_id":"4","last_reported":1746569379,"current_range_meters":26800,"station_id":"ce4bhgh2rcd13ifvqfb0","pricing_plan_id":"cebpf4jnsgd1na2vs0mg"},{"bike_id":"b5258ba5-1c0a-459f-a69f-6b4d4f93851b","system_id":"levelo_inurba_marseille","lat":43.2559,"lon":5.38236,"is_reserved":false,"is_disabled":false,"rental_uris":{"android":"levelo://app?vid=b5258ba5-1c0a-459f-a69f-6b4d4f93851b","ios":"levelo://app?vid=b5258ba5-1c0a-459f-a69f-6b4d4f93851b"},"vehicle_type_id":"4","last_reported":1746569379,"current_range_meters":26800,"station_id":"ce4bhih2rcd13ifvqfs0","pricing_plan_id":"cebpf4jnsgd1na2vs0mg"},{"bike_id":"a2f43f83-9065-4159-99c6-5c57b455f505","system_id":"levelo_inurba_marseille","lat":43.25573,"lon":5.38231,"is_reserved":false,"is_disabled":false,"rental_uris":{"android":"levelo://app?vid=a2f43f83-9065-4159-99c6-5c57b455f505","ios":"levelo://app?vid=a2f43f83-9065-4159-99c6-5c57b455f505"},"vehicle_type_id":"4","last_reported":1746569379,"current_range_meters":26800,"station_id":"ce4bhih2rcd13ifvqfs0","pricing_plan_id":"cebpf4jnsgd1na2vs0mg"},{"bike_id":"73a53ed3-e8ac-4676-baec-45b1a43a2e42","system_id":"levelo_inurba_marseille","lat":43.23201,"lon":5.39976,"is_reserved":false,"is_disabled":false,"rental_uris":{"android":"levelo://app?vid=73a53ed3-e8ac-4676-baec-45b1a43a2e42","ios":"levelo://app?vid=73a53ed3-e8ac-4676-baec-45b1a43a2e42"},"vehicle_type_id":"4","last_reported":1746569379,"current_range_meters":26800,"station_id":"ce4bhn12rcd13ifvqgqg","pricing_plan_id":"cebpf4jnsgd1na2vs0mg"},{"bike_id":"194f6743-8c1c-4e8b-a5fa-2e3f239748a3","system_id":"levelo_inurba_marseille","lat":43.31755,"lon":5.39014,"is_reserved":false,"is_disabled":false,"rental_uris":{"android":"levelo://app?vid=194f6743-8c1c-4e8b-a5fa-2e3f239748a3","ios":"levelo://app?vid=194f6743-8c1c-4e8b-a5fa-2e3f239748a3"},"vehicle_type_id":"4","last_reported":1746569379,"current_range_meters":26800,"station_id":"ce4bhqp2rcd13ifvqhng","pricing_plan_id":"cebpf4jnsgd1na2vs0mg"},{"bike_id":"dfc934cd-0a56-4d02-bfb2-bf0263b96e68","system_id":"levelo_inurba_marseille","lat":43.322813,"lon":5.382805,"is_reserved":false,"is_disabled":false,"rental_uris":{"android":"levelo://app?vid=dfc934cd-0a56-4d02-bfb2-bf0263b96e68","ios":"levelo://app?vid=dfc934cd-0a56-4d02-bfb2-bf0263b96e68"},"vehicle_type_id":"4","last_reported":1746569379,"current_range_meters":26800,"station_id":"ce4bhr12rcd13ifvqhqg","pricing_plan_id":"cebpf4jnsgd1na2vs0mg"},{"bike_id":"8216cbdd-06ef-47d2-878b-c8914d70281d","system_id":"levelo_inurba_marseille","lat":43.30889,"lon":5.37198,"is_reserved":false,"is_disabled":false,"rental_uris":{"android":"levelo://app?vid=8216cbdd-06ef-47d2-878b-c8914d70281d","ios":"levelo://app?vid=8216cbdd-06ef-47d2-878b-c8914d70281d"},"vehicle_type_id":"4","last_reported":1746569379,"current_range_meters":27200,"station_id":"ce4bguh2rcd13ifvqckg","pricing_plan_id":"cebpf4jnsgd1na2vs0mg"},{"bike_id":"3edf938a-ff9b-4773-8c34-fefa98a0a01d","system_id":"levelo_inurba_marseille","lat":43.30798,"lon":5.37646,"is_reserved":false,"is_disabled":false,"rental_uris":{"android":"levelo://app?vid=3edf938a-ff9b-4773-8c34-fefa98a0a01d","ios":"levelo://app?vid=3edf938a-ff9b-4773-8c34-fefa98a0a01d"},"vehicle_type_id":"4","last_reported":1746569379,"current_range_meters":27200,"station_id":"ce4bgv92rcd13ifvqcq0","pricing_plan_id":"cebpf4jnsgd1na2vs0mg"},{"bike_id":"be405c3d-d28c-4e0e-afe2-d80b58073433","system_id":"levelo_inurba_marseille","lat":43.30358,"lon":5.40402,"is_reserved":false,"is_disabled":false,"rental_uris":{"android":"levelo://app?vid=be405c3d-d28c-4e0e-afe2-d80b58073433","ios":"levelo://app?vid=be405c3d-d28c-4e0e-afe2-d80b58073433"},"vehicle_type_id":"4","last_reported":1746569379,"current_range_meters":27200,"station_id":"ce4bh012rcd13ifvqd10","pricing_plan_id":"cebpf4jnsgd1na2vs0mg"},{"bike_id":"d5100ce8-dc7c-4305-896a-12a1cb76d6ad","system_id":"levelo_inurba_marseille","lat":43.29883,"lon":5.39765,"is_reserved":false,"is_disabled":false,"rental_uris":{"android":"levelo://app?vid=d5100ce8-dc7c-4305-896a-12a1cb76d6ad","ios":"levelo://app?vid=d5100ce8-dc7c-4305-896a-12a1cb76d6ad"},"vehicle_type_id":"4","last_reported":1746569379,"current_range_meters":27200,"station_id":"ce4bh0h2rcd13ifvqd50","pricing_plan_id":"cebpf4jnsgd1na2vs0mg"},{"bike_id":"be1c799e-4d45-4d9e-9442-918d1a736db4","system_id":"levelo_inurba_marseille","lat":43.29036,"lon":5.39954,"is_reserved":false,"is_disabled":false,"rental_uris":{"android":"levelo://app?vid=be1c799e-4d45-4d9e-9442-918d1a736db4","ios":"levelo://app?vid=be1c799e-4d45-4d9e-9442-918d1a736db4"},"vehicle_type_id":"4","last_reported":1746569379,"current_range_meters":27200,"station_id":"ce4bh392rcd13ifvqdm0","pricing_plan_id":"cebpf4jnsgd1na2vs0mg"},{"bike_id":"b899d109-1a40-4681-a1bd-5f69c38e3555","system_id":"levelo_inurba_marseille","lat":43.28416,"lon":5.375,"is_reserved":false,"is_disabled":false,"rental_uris":{"android":"levelo://app?vid=b899d109-1a40-4681-a1bd-5f69c38e3555","ios":"levelo://app?vid=b899d109-1a40-4681-a1bd-5f69c38e3555"},"vehicle_type_id":"4","last_reported":1746569379,"current_range_meters":27200,"station_id":"ce4bh412rcd13ifvqds0","pricing_plan_id":"cebpf4jnsgd1na2vs0mg"},{"bike_id":"3d0cdd3b-d1c7-4382-90a9-5e9a0cd53e6c","system_id":"levelo_inurba_marseille","lat":43.284605,"lon":5.35895,"is_reserved":false,"is_disabled":false,"rental_uris":{"android":"levelo://app?vid=3d0cdd3b-d1c7-4382-90a9-5e9a0cd53e6c","ios":"levelo://app?vid=3d0cdd3b-d1c7-4382-90a9-5e9a0cd53e6c"},"vehicle_type_id":"4","last_reported":1746569379,"current_range_meters":27200,"station_id":"ce4bhah2rcd13ifvqei0","pricing_plan_id":"cebpf4jnsgd1na2vs0mg"},{"bike_id":"1899f93c-ba11-4eca-9275-d2c455d2f3ce","system_id":"levelo_inurba_marseille","lat":43.28953,"lon":5.36389,"is_reserved":false,"is_disabled":false,"rental_uris":{"android":"levelo://app?vid=1899f93c-ba11-4eca-9275-d2c455d2f3ce","ios":"levelo://app?vid=1899f93c-ba11-4eca-9275-d2c455d2f3ce"},"vehicle_type_id":"4","last_reported":1746569379,"current_range_meters":27200,"station_id":"ce4bhc92rcd13ifvqetg","pricing_plan_id":"cebpf4jnsgd1na2vs0mg"},{"bike_id":"a6c4d0e3-5cf1-4a96-8c75-6adfbcdb8076","system_id":"levelo_inurba_marseille","lat":43.24547,"lon":5.39521,"is_reserved":false,"is_disabled":false,"rental_uris":{"android":"levelo://app?vid=a6c4d0e3-5cf1-4a96-8c75-6adfbcdb8076","ios":"levelo://app?vid=a6c4d0e3-5cf1-4a96-8c75-6adfbcdb8076"},"vehicle_type_id":"4","last_reported":1746569379,"current_range_meters":27200,"station_id":"ce4bhlp2rcd13ifvqgjg","pricing_plan_id":"cebpf4jnsgd1na2vs0mg"},{"bike_id":"bcbd54e5-2cd3-4cc9-9099-d346596ed6d4","system_id":"levelo_inurba_marseille","lat":43.27819,"lon":5.40711,"is_reserved":false,"is_disabled":false,"rental_uris":{"android":"levelo://app?vid=bcbd54e5-2cd3-4cc9-9099-d346596ed6d4","ios":"levelo://app?vid=bcbd54e5-2cd3-4cc9-9099-d346596ed6d4"},"vehicle_type_id":"4","last_reported":1746569379,"current_range_meters":27200,"station_id":"ce4bhnh2rcd13ifvqgtg","pricing_plan_id":"cebpf4jnsgd1na2vs0mg"},{"bike_id":"e7b4a1bf-aaf9-4eb3-8e46-504b56d0163d","system_id":"levelo_inurba_marseille","lat":43.28082,"lon":5.39638,"is_reserved":false,"is_disabled":false,"rental_uris":{"android":"levelo://app?vid=e7b4a1bf-aaf9-4eb3-8e46-504b56d0163d","ios":"levelo://app?vid=e7b4a1bf-aaf9-4eb3-8e46-504b56d0163d"},"vehicle_type_id":"4","last_reported":1746569379,"current_range_meters":27200,"station_id":"ce4bho12rcd13ifvqh2g","pricing_plan_id":"cebpf4jnsgd1na2vs0mg"},{"bike_id":"f73d450b-fde6-4898-99b1-916875a407c6","system_id":"levelo_inurba_marseille","lat":43.22501,"lon":5.34783,"is_reserved":false,"is_disabled":false,"rental_uris":{"android":"levelo://app?vid=f73d450b-fde6-4898-99b1-916875a407c6","ios":"levelo://app?vid=f73d450b-fde6-4898-99b1-916875a407c6"},"vehicle_type_id":"4","last_reported":1746569379,"current_range_meters":27200,"station_id":"st_cvj5dfep6f1abm77gieg","pricing_plan_id":"cebpf4jnsgd1na2vs0mg"},{"bike_id":"297990ae-f941-4757-bb9c-1f4ce6b55ab7","system_id":"levelo_inurba_marseille","lat":43.31273,"lon":5.40164,"is_reserved":false,"is_disabled":false,"rental_uris":{"android":"levelo://app?vid=297990ae-f941-4757-bb9c-1f4ce6b55ab7","ios":"levelo://app?vid=297990ae-f941-4757-bb9c-1f4ce6b55ab7"},"vehicle_type_id":"4","last_reported":1746569379,"current_range_meters":27600,"station_id":"ce4bh092rcd13ifvqd30","pricing_plan_id":"cebpf4jnsgd1na2vs0mg"},{"bike_id":"2d0632b6-f37d-406f-9a64-6969d8378236","system_id":"levelo_inurba_marseille","lat":43.29043,"lon":5.39954,"is_reserved":false,"is_disabled":false,"rental_uris":{"android":"levelo://app?vid=2d0632b6-f37d-406f-9a64-6969d8378236","ios":"levelo://app?vid=2d0632b6-f37d-406f-9a64-6969d8378236"},"vehicle_type_id":"4","last_reported":1746569379,"current_range_meters":27600,"station_id":"ce4bh392rcd13ifvqdm0","pricing_plan_id":"cebpf4jnsgd1na2vs0mg"},{"bike_id":"8c880c1f-85be-4137-a10c-32144cd8d414","system_id":"levelo_inurba_marseille","lat":43.24076,"lon":5.3774,"is_reserved":false,"is_disabled":false,"rental_uris":{"android":"levelo://app?vid=8c880c1f-85be-4137-a10c-32144cd8d414","ios":"levelo://app?vid=8c880c1f-85be-4137-a10c-32144cd8d414"},"vehicle_type_id":"4","last_reported":1746569379,"current_range_meters":27600,"station_id":"ce4bhnp2rcd13ifvqgvg","pricing_plan_id":"cebpf4jnsgd1na2vs0mg"},{"bike_id":"e06ff1fb-e4d1-4404-a19f-8d8aeee212c6","system_id":"levelo_inurba_marseille","lat":43.31328,"lon":5.39694,"is_reserved":false,"is_disabled":false,"rental_uris":{"android":"levelo://app?vid=e06ff1fb-e4d1-4404-a19f-8d8aeee212c6","ios":"levelo://app?vid=e06ff1fb-e4d1-4404-a19f-8d8aeee212c6"},"vehicle_type_id":"4","last_reported":1746569379,"current_range_meters":28000,"station_id":"ce4bgvp2rcd13ifvqcu0","pricing_plan_id":"cebpf4jnsgd1na2vs0mg"},{"bike_id":"a7f332bc-02f1-446e-ba77-26a25b5c45cc","system_id":"levelo_inurba_marseille","lat":43.28571,"lon":5.39487,"is_reserved":false,"is_disabled":false,"rental_uris":{"android":"levelo://app?vid=a7f332bc-02f1-446e-ba77-26a25b5c45cc","ios":"levelo://app?vid=a7f332bc-02f1-446e-ba77-26a25b5c45cc"},"vehicle_type_id":"4","last_reported":1746569379,"current_range_meters":28000,"station_id":"ce4bh292rcd13ifvqdg0","pricing_plan_id":"cebpf4jnsgd1na2vs0mg"},{"bike_id":"ac9fbeb7-0cf9-4f53-b58e-e81a50a904bd","system_id":"levelo_inurba_marseille","lat":43.29886,"lon":5.38908,"is_reserved":false,"is_disabled":false,"rental_uris":{"android":"levelo://app?vid=ac9fbeb7-0cf9-4f53-b58e-e81a50a904bd","ios":"levelo://app?vid=ac9fbeb7-0cf9-4f53-b58e-e81a50a904bd"},"vehicle_type_id":"4","last_reported":1746569379,"current_range_meters":28000,"station_id":"ce4bh392rcd13ifvqdl0","pricing_plan_id":"cebpf4jnsgd1na2vs0mg"},{"bike_id":"a2d725da-89f4-44ec-9d7b-4b5340536f70","system_id":"levelo_inurba_marseille","lat":43.28458,"lon":5.35882,"is_reserved":false,"is_disabled":false,"rental_uris":{"android":"levelo://app?vid=a2d725da-89f4-44ec-9d7b-4b5340536f70","ios":"levelo://app?vid=a2d725da-89f4-44ec-9d7b-4b5340536f70"},"vehicle_type_id":"4","last_reported":1746569379,"current_range_meters":28000,"station_id":"ce4bhah2rcd13ifvqei0","pricing_plan_id":"cebpf4jnsgd1na2vs0mg"},{"bike_id":"5be81e6b-3560-429c-bffd-8695943db95b","system_id":"levelo_inurba_marseille","lat":43.337444,"lon":5.374475,"is_reserved":false,"is_disabled":false,"rental_uris":{"android":"levelo://app?vid=5be81e6b-3560-429c-bffd-8695943db95b","ios":"levelo://app?vid=5be81e6b-3560-429c-bffd-8695943db95b"},"vehicle_type_id":"4","last_reported":1746569379,"current_range_meters":28000,"station_id":"ce4bhop2rcd13ifvqh7g","pricing_plan_id":"cebpf4jnsgd1na2vs0mg"},{"bike_id":"7812cd0b-22e4-469a-b8f8-21f56129a869","system_id":"levelo_inurba_marseille","lat":43.23192,"lon":5.35544,"is_reserved":false,"is_disabled":false,"rental_uris":{"android":"levelo://app?vid=7812cd0b-22e4-469a-b8f8-21f56129a869","ios":"levelo://app?vid=7812cd0b-22e4-469a-b8f8-21f56129a869"},"vehicle_type_id":"4","last_reported":1746569379,"current_range_meters":28000,"station_id":"ce4bhu92rcd13ifvqi70","pricing_plan_id":"cebpf4jnsgd1na2vs0mg"},{"bike_id":"0db6dbe7-40da-4474-b5c4-3ae24d6b2604","system_id":"levelo_inurba_marseille","lat":43.26231,"lon":5.4044,"is_reserved":false,"is_disabled":false,"rental_uris":{"android":"levelo://app?vid=0db6dbe7-40da-4474-b5c4-3ae24d6b2604","ios":"levelo://app?vid=0db6dbe7-40da-4474-b5c4-3ae24d6b2604"},"vehicle_type_id":"4","last_reported":1746569379,"current_range_meters":28400,"station_id":"ce4bhmh2rcd13ifvqgmg","pricing_plan_id":"cebpf4jnsgd1na2vs0mg"},{"bike_id":"ba309e61-bc31-45e9-9f0c-b949f2aab7e6","system_id":"levelo_inurba_marseille","lat":43.281661,"lon":5.426592,"is_reserved":false,"is_disabled":false,"rental_uris":{"android":"levelo://app?vid=ba309e61-bc31-45e9-9f0c-b949f2aab7e6","ios":"levelo://app?vid=ba309e61-bc31-45e9-9f0c-b949f2aab7e6"},"vehicle_type_id":"4","last_reported":1746569379,"current_range_meters":28400,"station_id":"ce4bhnh2rcd13ifvqgug","pricing_plan_id":"cebpf4jnsgd1na2vs0mg"},{"bike_id":"c3c14a42-6c48-4c66-979a-901395b5e9e4","system_id":"levelo_inurba_marseille","lat":43.32376,"lon":5.38878,"is_reserved":false,"is_disabled":false,"rental_uris":{"android":"levelo://app?vid=c3c14a42-6c48-4c66-979a-901395b5e9e4","ios":"levelo://app?vid=c3c14a42-6c48-4c66-979a-901395b5e9e4"},"vehicle_type_id":"4","last_reported":1746569379,"current_range_meters":28400,"station_id":"ce4bhqp2rcd13ifvqhog","pricing_plan_id":"cebpf4jnsgd1na2vs0mg"},{"bike_id":"fd57200d-b29e-48ad-84e4-312dc73768ab","system_id":"levelo_inurba_marseille","lat":43.32287,"lon":5.3828,"is_reserved":false,"is_disabled":false,"rental_uris":{"android":"levelo://app?vid=fd57200d-b29e-48ad-84e4-312dc73768ab","ios":"levelo://app?vid=fd57200d-b29e-48ad-84e4-312dc73768ab"},"vehicle_type_id":"4","last_reported":1746569379,"current_range_meters":28400,"station_id":"ce4bhr12rcd13ifvqhqg","pricing_plan_id":"cebpf4jnsgd1na2vs0mg"},{"bike_id":"4139ff4e-3af9-4827-8625-6ca8935d6e92","system_id":"levelo_inurba_marseille","lat":43.30643,"lon":5.400853,"is_reserved":false,"is_disabled":false,"rental_uris":{"android":"levelo://app?vid=4139ff4e-3af9-4827-8625-6ca8935d6e92","ios":"levelo://app?vid=4139ff4e-3af9-4827-8625-6ca8935d6e92"},"vehicle_type_id":"4","last_reported":1746569379,"current_range_meters":28800,"station_id":"ce4bh112rcd13ifvqda0","pricing_plan_id":"cebpf4jnsgd1na2vs0mg"},{"bike_id":"1f9994d9-e481-406f-8fe3-0a5743328a44","system_id":"levelo_inurba_marseille","lat":43.28333,"lon":5.38092,"is_reserved":false,"is_disabled":false,"rental_uris":{"android":"levelo://app?vid=1f9994d9-e481-406f-8fe3-0a5743328a44","ios":"levelo://app?vid=1f9994d9-e481-406f-8fe3-0a5743328a44"},"vehicle_type_id":"4","last_reported":1746569379,"current_range_meters":28800,"station_id":"ce4bh412rcd13ifvqdr0","pricing_plan_id":"cebpf4jnsgd1na2vs0mg"},{"bike_id":"4601862d-b02f-45c4-9fcc-6044b8670a64","system_id":"levelo_inurba_marseille","lat":43.30346,"lon":5.41863,"is_reserved":false,"is_disabled":false,"rental_uris":{"android":"levelo://app?vid=4601862d-b02f-45c4-9fcc-6044b8670a64","ios":"levelo://app?vid=4601862d-b02f-45c4-9fcc-6044b8670a64"},"vehicle_type_id":"4","last_reported":1746569379,"current_range_meters":28800,"station_id":"ce4bhop2rcd13ifvqh7g","pricing_plan_id":"cebpf4jnsgd1na2vs0mg"},{"bike_id":"db03634b-8960-4249-a24a-d9f78c3017fd","system_id":"levelo_inurba_marseille","lat":43.326605,"lon":5.409893,"is_reserved":false,"is_disabled":false,"rental_uris":{"android":"levelo://app?vid=db03634b-8960-4249-a24a-d9f78c3017fd","ios":"levelo://app?vid=db03634b-8960-4249-a24a-d9f78c3017fd"},"vehicle_type_id":"4","last_reported":1746569379,"current_range_meters":28800,"station_id":"ce4bhpp2rcd13ifvqhgg","pricing_plan_id":"cebpf4jnsgd1na2vs0mg"},{"bike_id":"7f6c26fd-1587-4b1f-9c4d-04ead2d01726","system_id":"levelo_inurba_marseille","lat":43.3254,"lon":5.41428,"is_reserved":false,"is_disabled":false,"rental_uris":{"android":"levelo://app?vid=7f6c26fd-1587-4b1f-9c4d-04ead2d01726","ios":"levelo://app?vid=7f6c26fd-1587-4b1f-9c4d-04ead2d01726"},"vehicle_type_id":"4","last_reported":1746569379,"current_range_meters":28800,"station_id":"ce4bhq12rcd13ifvqhhg","pricing_plan_id":"cebpf4jnsgd1na2vs0mg"},{"bike_id":"13ba290e-2f12-48dd-b377-b71d3cbe5194","system_id":"levelo_inurba_marseille","lat":43.319,"lon":5.4074,"is_reserved":false,"is_disabled":false,"rental_uris":{"android":"levelo://app?vid=13ba290e-2f12-48dd-b377-b71d3cbe5194","ios":"levelo://app?vid=13ba290e-2f12-48dd-b377-b71d3cbe5194"},"vehicle_type_id":"4","last_reported":1746569379,"current_range_meters":28800,"station_id":"ce4bhq12rcd13ifvqhig","pricing_plan_id":"cebpf4jnsgd1na2vs0mg"},{"bike_id":"d2fc6b2e-88e6-4409-88b2-b261df3c672a","system_id":"levelo_inurba_marseille","lat":43.33776,"lon":5.37465,"is_reserved":false,"is_disabled":false,"rental_uris":{"android":"levelo://app?vid=d2fc6b2e-88e6-4409-88b2-b261df3c672a","ios":"levelo://app?vid=d2fc6b2e-88e6-4409-88b2-b261df3c672a"},"vehicle_type_id":"4","last_reported":1746569379,"current_range_meters":29600,"station_id":"","pricing_plan_id":"cebpf4jnsgd1na2vs0mg"},{"bike_id":"9f08ba94-289e-45b7-8c6c-39d069156311","system_id":"levelo_inurba_marseille","lat":43.27566,"lon":5.38439,"is_reserved":false,"is_disabled":false,"rental_uris":{"android":"levelo://app?vid=9f08ba94-289e-45b7-8c6c-39d069156311","ios":"levelo://app?vid=9f08ba94-289e-45b7-8c6c-39d069156311"},"vehicle_type_id":"4","last_reported":1746569379,"current_range_meters":29600,"station_id":"ce4bhh92rcd13ifvqfi0","pricing_plan_id":"cebpf4jnsgd1na2vs0mg"},{"bike_id":"93d51d75-880c-42b4-bc62-5d52f1f19df1","system_id":"levelo_inurba_marseille","lat":43.27831,"lon":5.39212,"is_reserved":false,"is_disabled":false,"rental_uris":{"android":"levelo://app?vid=93d51d75-880c-42b4-bc62-5d52f1f19df1","ios":"levelo://app?vid=93d51d75-880c-42b4-bc62-5d52f1f19df1"},"vehicle_type_id":"4","last_reported":1746569379,"current_range_meters":29600,"station_id":"ce4bhjp2rcd13ifvqga0","pricing_plan_id":"cebpf4jnsgd1na2vs0mg"},{"bike_id":"5a027c9b-5884-4f9b-a226-571fe33655f1","system_id":"levelo_inurba_marseille","lat":43.30972,"lon":5.37495,"is_reserved":false,"is_disabled":false,"rental_uris":{"android":"levelo://app?vid=5a027c9b-5884-4f9b-a226-571fe33655f1","ios":"levelo://app?vid=5a027c9b-5884-4f9b-a226-571fe33655f1"},"vehicle_type_id":"4","last_reported":1746569379,"current_range_meters":30000,"station_id":"","pricing_plan_id":"cebpf4jnsgd1na2vs0mg"},{"bike_id":"fca4041b-1ef1-4b11-9213-a441d7a48468","system_id":"levelo_inurba_marseille","lat":43.31221,"lon":5.36841,"is_reserved":false,"is_disabled":false,"rental_uris":{"android":"levelo://app?vid=fca4041b-1ef1-4b11-9213-a441d7a48468","ios":"levelo://app?vid=fca4041b-1ef1-4b11-9213-a441d7a48468"},"vehicle_type_id":"4","last_reported":1746569379,"current_range_meters":30000,"station_id":"ce4bgl92rcd13ifvqbq0","pricing_plan_id":"cebpf4jnsgd1na2vs0mg"},{"bike_id":"50dabe40-d2ef-4544-b7ca-ce36d1022023","system_id":"levelo_inurba_marseille","lat":43.29927,"lon":5.36537,"is_reserved":false,"is_disabled":false,"rental_uris":{"android":"levelo://app?vid=50dabe40-d2ef-4544-b7ca-ce36d1022023","ios":"levelo://app?vid=50dabe40-d2ef-4544-b7ca-ce36d1022023"},"vehicle_type_id":"4","last_reported":1746569379,"current_range_meters":30000,"station_id":"ce4bgm92rcd13ifvqbr0","pricing_plan_id":"cebpf4jnsgd1na2vs0mg"},{"bike_id":"0c4d2e71-08da-40f1-b375-48fe69c4d756","system_id":"levelo_inurba_marseille","lat":43.302228,"lon":5.394698,"is_reserved":false,"is_disabled":false,"rental_uris":{"android":"levelo://app?vid=0c4d2e71-08da-40f1-b375-48fe69c4d756","ios":"levelo://app?vid=0c4d2e71-08da-40f1-b375-48fe69c4d756"},