{"last_updated":1729595242,"ttl":60,"version":"2.2","data":{"bikes":[{"bike_id":"a29beb72-507c-4343-9f6b-7c76f5d39608","system_id":"levelo_inurba_marseille","lat":43.3361,"lon":5.41029,"is_reserved":false,"is_disabled":false,"rental_uris":{"android":"levelo://app?vid=a29beb72-507c-4343-9f6b-7c76f5d39608","ios":"levelo://app?vid=a29beb72-507c-4343-9f6b-7c76f5d39608"},"vehicle_type_id":"4","last_reported":1729595242,"current_range_meters":38800,"station_id":"ce4bhqh2rcd13ifvqhmg","pricing_plan_id":"cebpf4jnsgd1na2vs0mg"},{"bike_id":"147bdf9f-7ee4-455f-acd7-da3fde574360","system_id":"levelo_inurba_marseille","lat":43.33772,"lon":5.37446,"is_reserved":false,"is_disabled":false,"rental_uris":{"android":"levelo://app?vid=147bdf9f-7ee4-455f-acd7-da3fde574360","ios":"levelo://app?vid=147bdf9f-7ee4-455f-acd7-da3fde574360"},"vehicle_type_id":"4","last_reported":1729595242,"current_range_meters":36400,"station_id":"","pricing_plan_id":"cebpf4jnsgd1na2vs0mg"},{"bike_id":"b8527c78-226b-4f84-9140-91873a88dd83","system_id":"levelo_inurba_marseille","lat":43.25086,"lon":5.395123,"is_reserved":false,"is_disabled":false,"rental_uris":{"android":"levelo://app?vid=b8527c78-226b-4f84-9140-91873a88dd83","ios":"levelo://app?vid=b8527c78-226b-4f84-9140-91873a88dd83"},"vehicle_type_id":"4","last_reported":1729595242,"current_range_meters":17600,"station_id":"ce4bhm12rcd13ifvqgkg","pricing_plan_id":"cebpf4jnsgd1na2vs0mg"},{"bike_id":"75859ad1-fbc9-47d1-a596-bf55e7175775","system_id":"levelo_inurba_marseille","lat":43.28414,"lon":5.34983,"is_reserved":false,"is_disabled":false,"rental_uris":{"android":"levelo://app?vid=75859ad1-fbc9-47d1-a596-bf55e7175775","ios":"levelo://app?vid=75859ad1-fbc9-47d1-a596-bf55e7175775"},"vehicle_type_id":"4","last_reported":1729595242,"current_range_meters":7200,"station_id":"ce4bhbh2rcd13ifvqepg","pricing_plan_id":"cebpf4jnsgd1na2vs0mg"},{"bike_id":"0514bddb-e0ca-4267-a9eb-dff00dc9a312","system_id":"levelo_inurba_marseille","lat":43.31328,"lon":5.39689,"is_reserved":false,"is_disabled":false,"rental_uris":{"android":"levelo://app?vid=0514bddb-e0ca-4267-a9eb-dff00dc9a312","ios":"levelo://app?vid=0514bddb-e0ca-4267-a9eb-dff00dc9a312"},"vehicle_type_id":"4","last_reported":1729595242,"current_range_meters":13600,"station_id":"ce4bgvp2rcd13ifvqcu0","pricing_plan_id":"cebpf4jnsgd1na2vs0mg"},{"bike_id":"6e55b9b9-83e0-480a-8bba-5d6b32914d25","system_id":"levelo_inurba_marseille","lat":43.30418,"lon":5.41281,"is_reserved":false,"is_disabled":false,"rental_uris":{"android":"levelo://app?vid=6e55b9b9-83e0-480a-8bba-5d6b32914d25","ios":"levelo://app?vid=6e55b9b9-83e0-480a-8bba-5d6b32914d25"},"vehicle_type_id":"4","last_reported":1729595242,"current_range_meters":38800,"station_id":"ce4bhop2rcd13ifvqh8g","pricing_plan_id":"cebpf4jnsgd1na2vs0mg"},{"bike_id":"96514785-d870-47b5-b81e-b009c40258ef","system_id":"levelo_inurba_marseille","lat":43.2439,"lon":5.37054,"is_reserved":false,"is_disabled":false,"rental_uris":{"android":"levelo://app?vid=96514785-d870-47b5-b81e-b009c40258ef","ios":"levelo://app?vid=96514785-d870-47b5-b81e-b009c40258ef"},"vehicle_type_id":"4","last_reported":1729595242,"current_range_meters":38800,"station_id":"ce4bhhh2rcd13ifvqfk0","pricing_plan_id":"cebpf4jnsgd1na2vs0mg"},{"bike_id":"044a4d6f-08ef-415a-8151-6f98ea36a36b","system_id":"levelo_inurba_marseille","lat":43.30146,"lon":5.38086,"is_reserved":false,"is_disabled":false,"rental_uris":{"android":"levelo://app?vid=044a4d6f-08ef-415a-8151-6f98ea36a36b","ios":"levelo://app?vid=044a4d6f-08ef-415a-8151-6f98ea36a36b"},"vehicle_type_id":"4","last_reported":1729595242,"current_range_meters":38800,"station_id":"ce4bgjp2rcd13ifvqbh0","pricing_plan_id":"cebpf4jnsgd1na2vs0mg"},{"bike_id":"056124ee-b6f9-468d-94ef-5fa46e18bd36","system_id":"levelo_inurba_marseille","lat":43.3361,"lon":5.41031,"is_reserved":false,"is_disabled":false,"rental_uris":{"android":"levelo://app?vid=056124ee-b6f9-468d-94ef-5fa46e18bd36","ios":"levelo://app?vid=056124ee-b6f9-468d-94ef-5fa46e18bd36"},"vehicle_type_id":"4","last_reported":1729595242,"current_range_meters":38800,"station_id":"ce4bhqh2rcd13ifvqhmg","pricing_plan_id":"cebpf4jnsgd1na2vs0mg"},{"bike_id":"c863ab3d-1edc-4863-a6c7-73e4e0932069","system_id":"levelo_inurba_marseille","lat":43.33604,"lon":5.41023,"is_reserved":false,"is_disabled":false,"rental_uris":{"android":"levelo://app?vid=c863ab3d-1edc-4863-a6c7-73e4e0932069","ios":"levelo://app?vid=c863ab3d-1edc-4863-a6c7-73e4e0932069"},"vehicle_type_id":"4","last_reported":1729595242,"current_range_meters":38800,"station_id":"ce4bhqh2rcd13ifvqhmg","pricing_plan_id":"cebpf4jnsgd1na2vs0mg"},{"bike_id":"f882a5b5-c4c2-48f5-8796-0f672738e836","system_id":"levelo_inurba_marseille","lat":43.28474,"lon":5.38419,"is_reserved":false,"is_disabled":false,"rental_uris":{"android":"levelo://app?vid=f882a5b5-c4c2-48f5-8796-0f672738e836","ios":"levelo://app?vid=f882a5b5-c4c2-48f5-8796-0f672738e836"},"vehicle_type_id":"4","last_reported":1729595242,"current_range_meters":27600,"station_id":"ce4bh512rcd13ifvqe3g","pricing_plan_id":"cebpf4jnsgd1na2vs0mg"},{"bike_id":"b8aa97cc-df5c-4052-b32f-7592ab28a1b6","system_id":"levelo_inurba_marseille","lat":43.321174,"lon":5.388122,"is_reserved":false,"is_disabled":false,"rental_uris":{"android":"levelo://app?vid=b8aa97cc-df5c-4052-b32f-7592ab28a1b6","ios":"levelo://app?vid=b8aa97cc-df5c-4052-b32f-7592ab28a1b6"},"vehicle_type_id":"4","last_reported":1729595242,"current_range_meters":27600,"station_id":"","pricing_plan_id":"cebpf4jnsgd1na2vs0mg"},{"bike_id":"18ecfac9-d5ae-40c4-9642-e33884d62ca3","system_id":"levelo_inurba_marseille","lat":43.32367,"lon":5.38884,"is_reserved":false,"is_disabled":false,"rental_uris":{"android":"levelo://app?vid=18ecfac9-d5ae-40c4-9642-e33884d62ca3","ios":"levelo://app?vid=18ecfac9-d5ae-40c4-9642-e33884d62ca3"},"vehicle_type_id":"4","last_reported":1729595242,"current_range_meters":30000,"station_id":"ce4bhqp2rcd13ifvqhog","pricing_plan_id":"cebpf4jnsgd1na2vs0mg"},{"bike_id":"238e4fb4-e49b-4cd6-b3c4-9a520128bdd3","system_id":"levelo_inurba_marseille","lat":43.30537,"lon":5.36704,"is_reserved":false,"is_disabled":false,"rental_uris":{"android":"levelo://app?vid=238e4fb4-e49b-4cd6-b3c4-9a520128bdd3","ios":"levelo://app?vid=238e4fb4-e49b-4cd6-b3c4-9a520128bdd3"},"vehicle_type_id":"4","last_reported":1729595242,"current_range_meters":36400,"station_id":"ce4bgrp2rcd13ifvqc9g","pricing_plan_id":"cebpf4jnsgd1na2vs0mg"},{"bike_id":"5c449356-4ac4-4d08-a405-c433fbe21a80","system_id":"levelo_inurba_marseille","lat":43.33759,"lon":5.3748,"is_reserved":false,"is_disabled":false,"rental_uris":{"android":"levelo://app?vid=5c449356-4ac4-4d08-a405-c433fbe21a80","ios":"levelo://app?vid=5c449356-4ac4-4d08-a405-c433fbe21a80"},"vehicle_type_id":"4","last_reported":1729595242,"current_range_meters":34000,"station_id":"","pricing_plan_id":"cebpf4jnsgd1na2vs0mg"},{"bike_id":"402bbfc2-88e6-46ed-98c2-7e08425955cc","system_id":"levelo_inurba_marseille","lat":43.26494,"lon":5.39535,"is_reserved":false,"is_disabled":false,"rental_uris":{"android":"levelo://app?vid=402bbfc2-88e6-46ed-98c2-7e08425955cc","ios":"levelo://app?vid=402bbfc2-88e6-46ed-98c2-7e08425955cc"},"vehicle_type_id":"4","last_reported":1729595242,"current_range_meters":6400,"station_id":"ce4bhi12rcd13ifvqfq0","pricing_plan_id":"cebpf4jnsgd1na2vs0mg"},{"bike_id":"c32831a9-e064-4d70-bbdd-66063ddbadde","system_id":"levelo_inurba_marseille","lat":43.25932,"lon":5.40903,"is_reserved":false,"is_disabled":false,"rental_uris":{"android":"levelo://app?vid=c32831a9-e064-4d70-bbdd-66063ddbadde","ios":"levelo://app?vid=c32831a9-e064-4d70-bbdd-66063ddbadde"},"vehicle_type_id":"4","last_reported":1729595242,"current_range_meters":31200,"station_id":"ce4bhm92rcd13ifvqglg","pricing_plan_id":"cebpf4jnsgd1na2vs0mg"},{"bike_id":"c1e5421b-fd0a-4c85-9311-1bf71ce833e0","system_id":"levelo_inurba_marseille","lat":43.24081,"lon":5.37755,"is_reserved":false,"is_disabled":false,"rental_uris":{"android":"levelo://app?vid=c1e5421b-fd0a-4c85-9311-1bf71ce833e0","ios":"levelo://app?vid=c1e5421b-fd0a-4c85-9311-1bf71ce833e0"},"vehicle_type_id":"4","last_reported":1729595242,"current_range_meters":27600,"station_id":"ce4bhnp2rcd13ifvqgvg","pricing_plan_id":"cebpf4jnsgd1na2vs0mg"},{"bike_id":"c436856d-2db1-4507-9cdd-c6fbaa817420","system_id":"levelo_inurba_marseille","lat":43.33754,"lon":5.37441,"is_reserved":false,"is_disabled":false,"rental_uris":{"android":"levelo://app?vid=c436856d-2db1-4507-9cdd-c6fbaa817420","ios":"levelo://app?vid=c436856d-2db1-4507-9cdd-c6fbaa817420"},"vehicle_type_id":"4","last_reported":1729595242,"current_range_meters":11600,"station_id":"","pricing_plan_id":"cebpf4jnsgd1na2vs0mg"},{"bike_id":"11785282-48c1-48c0-aaa2-16d3fde0957e","system_id":"levelo_inurba_marseille","lat":43.25863,"lon":5.39899,"is_reserved":false,"is_disabled":false,"rental_uris":{"android":"levelo://app?vid=11785282-48c1-48c0-aaa2-16d3fde0957e","ios":"levelo://app?vid=11785282-48c1-48c0-aaa2-16d3fde0957e"},"vehicle_type_id":"4","last_reported":1729595242,"current_range_meters":35600,"station_id":"ce4bhl92rcd13ifvqghg","pricing_plan_id":"cebpf4jnsgd1na2vs0mg"},{"bike_id":"e6582e63-7e5d-493a-9170-f5faf28b017c","system_id":"levelo_inurba_marseille","lat":43.23966,"lon":5.36624,"is_reserved":false,"is_disabled":false,"rental_uris":{"android":"levelo://app?vid=e6582e63-7e5d-493a-9170-f5faf28b017c","ios":"levelo://app?vid=e6582e63-7e5d-493a-9170-f5faf28b017c"},"vehicle_type_id":"4","last_reported":1729595242,"current_range_meters":34000,"station_id":"ce4bhi12rcd13ifvqfp0","pricing_plan_id":"cebpf4jnsgd1na2vs0mg"},{"bike_id":"ff89ba69-0b56-4187-9eb7-f5386fc44817","system_id":"levelo_inurba_marseille","lat":43.26563,"lon":5.37278,"is_reserved":false,"is_disabled":false,"rental_uris":{"android":"levelo://app?vid=ff89ba69-0b56-4187-9eb7-f5386fc44817","ios":"levelo://app?vid=ff89ba69-0b56-4187-9eb7-f5386fc44817"},"vehicle_type_id":"4","last_reported":1729595242,"current_range_meters":24400,"station_id":"ce4bhg12rcd13ifvqf70","pricing_plan_id":"cebpf4jnsgd1na2vs0mg"},{"bike_id":"8f279460-01da-4326-8ed8-4371ff296c8a","system_id":"levelo_inurba_marseille","lat":43.27813,"lon":5.40698,"is_reserved":false,"is_disabled":false,"rental_uris":{"android":"levelo://app?vid=8f279460-01da-4326-8ed8-4371ff296c8a","ios":"levelo://app?vid=8f279460-01da-4326-8ed8-4371ff296c8a"},"vehicle_type_id":"4","last_reported":1729595242,"current_range_meters":28000,"station_id":"ce4bhnh2rcd13ifvqgtg","pricing_plan_id":"cebpf4jnsgd1na2vs0mg"},{"bike_id":"079957d9-760c-47bf-ae79-16e2d1ebf037","system_id":"levelo_inurba_marseille","lat":43.32478,"lon":5.36559,"is_reserved":false,"is_disabled":false,"rental_uris":{"android":"levelo://app?vid=079957d9-760c-47bf-ae79-16e2d1ebf037","ios":"levelo://app?vid=079957d9-760c-47bf-ae79-16e2d1ebf037"},"vehicle_type_id":"4","last_reported":1729595242,"current_range_meters":40000,"station_id":"ce4bhs12rcd13ifvqhvg","pricing_plan_id":"cebpf4jnsgd1na2vs0mg"},{"bike_id":"3be42fdc-953c-4807-8467-5deb6beb4203","system_id":"levelo_inurba_marseille","lat":43.29609,"lon":5.37714,"is_reserved":false,"is_disabled":false,"rental_uris":{"android":"levelo://app?vid=3be42fdc-953c-4807-8467-5deb6beb4203","ios":"levelo://app?vid=3be42fdc-953c-4807-8467-5deb6beb4203"},"vehicle_type_id":"4","last_reported":1729595242,"current_range_meters":18800,"station_id":"ce4bgi92rcd13ifvqb90","pricing_plan_id":"cebpf4jnsgd1na2vs0mg"},{"bike_id":"a5d75ee9-6a2b-4d07-9f45-a4c08fa6e166","system_id":"levelo_inurba_marseille","lat":43.24075,"lon":5.37764,"is_reserved":false,"is_disabled":false,"rental_uris":{"android":"levelo://app?vid=a5d75ee9-6a2b-4d07-9f45-a4c08fa6e166","ios":"levelo://app?vid=a5d75ee9-6a2b-4d07-9f45-a4c08fa6e166"},"vehicle_type_id":"4","last_reported":1729595242,"current_range_meters":38800,"station_id":"ce4bhnp2rcd13ifvqgvg","pricing_plan_id":"cebpf4jnsgd1na2vs0mg"},{"bike_id":"6693cd0c-fe48-434b-8c32-77dc3a0e9af8","system_id":"levelo_inurba_marseille","lat":43.33211,"lon":5.38166,"is_reserved":false,"is_disabled":false,"rental_uris":{"android":"levelo://app?vid=6693cd0c-fe48-434b-8c32-77dc3a0e9af8","ios":"levelo://app?vid=6693cd0c-fe48-434b-8c32-77dc3a0e9af8"},"vehicle_type_id":"4","last_reported":1729595242,"current_range_meters":37600,"station_id":"","pricing_plan_id":"cebpf4jnsgd1na2vs0mg"},{"bike_id":"339aa2da-f57a-449e-ba56-a55c577ccc37","system_id":"levelo_inurba_marseille","lat":43.27897,"lon":5.38014,"is_reserved":false,"is_disabled":false,"rental_uris":{"android":"levelo://app?vid=339aa2da-f57a-449e-ba56-a55c577ccc37","ios":"levelo://app?vid=339aa2da-f57a-449e-ba56-a55c577ccc37"},"vehicle_type_id":"4","last_reported":1729595242,"current_range_meters":29600,"station_id":"ce4bhf92rcd13ifvqf50","pricing_plan_id":"cebpf4jnsgd1na2vs0mg"},{"bike_id":"35029ea3-5663-494d-bcf1-311ebe1e8195","system_id":"levelo_inurba_marseille","lat":43.33612,"lon":5.41025,"is_reserved":false,"is_disabled":false,"rental_uris":{"android":"levelo://app?vid=35029ea3-5663-494d-bcf1-311ebe1e8195","ios":"levelo://app?vid=35029ea3-5663-494d-bcf1-311ebe1e8195"},"vehicle_type_id":"4","last_reported":1729595242,"current_range_meters":38400,"station_id":"ce4bhqh2rcd13ifvqhmg","pricing_plan_id":"cebpf4jnsgd1na2vs0mg"},{"bike_id":"9e7a13fe-24ba-4bb2-a64d-119437a4be81","system_id":"levelo_inurba_marseille","lat":43.27616,"lon":5.36107,"is_reserved":false,"is_disabled":false,"rental_uris":{"android":"levelo://app?vid=9e7a13fe-24ba-4bb2-a64d-119437a4be81","ios":"levelo://app?vid=9e7a13fe-24ba-4bb2-a64d-119437a4be81"},"vehicle_type_id":"4","last_reported":1729595242,"current_range_meters":9600,"station_id":"ce4bgj92rcd13ifvqbe0","pricing_plan_id":"cebpf4jnsgd1na2vs0mg"},{"bike_id":"408cbf17-c781-4424-ab3f-02b6b88382fd","system_id":"levelo_inurba_marseille","lat":43.25724,"lon":5.41107,"is_reserved":false,"is_disabled":false,"rental_uris":{"android":"levelo://app?vid=408cbf17-c781-4424-ab3f-02b6b88382fd","ios":"levelo://app?vid=408cbf17-c781-4424-ab3f-02b6b88382fd"},"vehicle_type_id":"4","last_reported":1729595242,"current_range_meters":40000,"station_id":"ce4bhkp2rcd13ifvqgd0","pricing_plan_id":"cebpf4jnsgd1na2vs0mg"},{"bike_id":"4618cc2c-fba6-4556-b7a3-f469bfff64e6","system_id":"levelo_inurba_marseille","lat":43.28426,"lon":5.34987,"is_reserved":false,"is_disabled":false,"rental_uris":{"android":"levelo://app?vid=4618cc2c-fba6-4556-b7a3-f469bfff64e6","ios":"levelo://app?vid=4618cc2c-fba6-4556-b7a3-f469bfff64e6"},"vehicle_type_id":"4","last_reported":1729595242,"current_range_meters":27600,"station_id":"ce4bhbh2rcd13ifvqepg","pricing_plan_id":"cebpf4jnsgd1na2vs0mg"},{"bike_id":"f7d7e980-5c84-4432-b54b-9d2a213d76b4","system_id":"levelo_inurba_marseille","lat":43.30913,"lon":5.36843,"is_reserved":false,"is_disabled":false,"rental_uris":{"android":"levelo://app?vid=f7d7e980-5c84-4432-b54b-9d2a213d76b4","ios":"levelo://app?vid=f7d7e980-5c84-4432-b54b-9d2a213d76b4"},"vehicle_type_id":"4","last_reported":1729595242,"current_range_meters":39200,"station_id":"ce4bgn92rcd13ifvqbvg","pricing_plan_id":"cebpf4jnsgd1na2vs0mg"},{"bike_id":"abe658d4-12a8-41db-b6b3-738fdbd608a2","system_id":"levelo_inurba_marseille","lat":43.23189,"lon":5.35555,"is_reserved":false,"is_disabled":false,"rental_uris":{"android":"levelo://app?vid=abe658d4-12a8-41db-b6b3-738fdbd608a2","ios":"levelo://app?vid=abe658d4-12a8-41db-b6b3-738fdbd608a2"},"vehicle_type_id":"4","last_reported":1729595242,"current_range_meters":36800,"station_id":"ce4bhu92rcd13ifvqi70","pricing_plan_id":"cebpf4jnsgd1na2vs0mg"},{"bike_id":"ecf5aaf1-3072-45c8-bc85-9209f1480bbf","system_id":"levelo_inurba_marseille","lat":43.23155,"lon":5.43698,"is_reserved":false,"is_disabled":false,"rental_uris":{"android":"levelo://app?vid=ecf5aaf1-3072-45c8-bc85-9209f1480bbf","ios":"levelo://app?vid=ecf5aaf1-3072-45c8-bc85-9209f1480bbf"},"vehicle_type_id":"4","last_reported":1729595242,"current_range_meters":24000,"station_id":"ce4bhmp2rcd13ifvqgog","pricing_plan_id":"cebpf4jnsgd1na2vs0mg"},{"bike_id":"f8787c88-1be1-45e0-b108-32f155ca387d","system_id":"levelo_inurba_marseille","lat":43.24176,"lon":5.39733,"is_reserved":false,"is_disabled":false,"rental_uris":{"android":"levelo://app?vid=f8787c88-1be1-45e0-b108-32f155ca387d","ios":"levelo://app?vid=f8787c88-1be1-45e0-b108-32f155ca387d"},"vehicle_type_id":"4","last_reported":1729595242,"current_range_meters":25600,"station_id":"ce4bhn12rcd13ifvqgpg","pricing_plan_id":"cebpf4jnsgd1na2vs0mg"},{"bike_id":"73d74a20-94b9-4ec9-af0e-0a4ec9d122b6","system_id":"levelo_inurba_marseille","lat":43.28095,"lon":5.3785,"is_reserved":false,"is_disabled":false,"rental_uris":{"android":"levelo://app?vid=73d74a20-94b9-4ec9-af0e-0a4ec9d122b6","ios":"levelo://app?vid=73d74a20-94b9-4ec9-af0e-0a4ec9d122b6"},"vehicle_type_id":"4","last_reported":1729595242,"current_range_meters":38800,"station_id":"ce4bha12rcd13ifvqee0","pricing_plan_id":"cebpf4jnsgd1na2vs0mg"},{"bike_id":"c9a5604e-9571-47cc-ab36-021324a889f6","system_id":"levelo_inurba_marseille","lat":43.259338,"lon":5.409129,"is_reserved":false,"is_disabled":false,"rental_uris":{"android":"levelo://app?vid=c9a5604e-9571-47cc-ab36-021324a889f6","ios":"levelo://app?vid=c9a5604e-9571-47cc-ab36-021324a889f6"},"vehicle_type_id":"4","last_reported":1729595242,"current_range_meters":29600,"station_id":"ce4bhm92rcd13ifvqglg","pricing_plan_id":"cebpf4jnsgd1na2vs0mg"},{"bike_id":"2c378b5e-cf63-40d7-8dd0-2f19b0b23948","system_id":"levelo_inurba_marseille","lat":43.3211,"lon":5.36763,"is_reserved":false,"is_disabled":false,"rental_uris":{"android":"levelo://app?vid=2c378b5e-cf63-40d7-8dd0-2f19b0b23948","ios":"levelo://app?vid=2c378b5e-cf63-40d7-8dd0-2f19b0b23948"},"vehicle_type_id":"4","last_reported":1729595242,"current_range_meters":38800,"station_id":"ce4bhrh2rcd13ifvqhug","pricing_plan_id":"cebpf4jnsgd1na2vs0mg"},{"bike_id":"60717735-8180-439d-aa16-1261afe15895","system_id":"levelo_inurba_marseille","lat":43.24176,"lon":5.39726,"is_reserved":false,"is_disabled":false,"rental_uris":{"android":"levelo://app?vid=60717735-8180-439d-aa16-1261afe15895","ios":"levelo://app?vid=60717735-8180-439d-aa16-1261afe15895"},"vehicle_type_id":"4","last_reported":1729595242,"current_range_meters":33200,"station_id":"ce4bhn12rcd13ifvqgpg","pricing_plan_id":"cebpf4jnsgd1na2vs0mg"},{"bike_id":"a8c440cd-deaf-4264-856e-72d146adb779","system_id":"levelo_inurba_marseille","lat":43.25874,"lon":5.39891,"is_reserved":false,"is_disabled":false,"rental_uris":{"android":"levelo://app?vid=a8c440cd-deaf-4264-856e-72d146adb779","ios":"levelo://app?vid=a8c440cd-deaf-4264-856e-72d146adb779"},"vehicle_type_id":"4","last_reported":1729595242,"current_range_meters":36400,"station_id":"ce4bhl92rcd13ifvqghg","pricing_plan_id":"cebpf4jnsgd1na2vs0mg"},{"bike_id":"309bb1c3-85e0-469d-b068-2e24a723c6dc","system_id":"levelo_inurba_marseille","lat":43.25934,"lon":5.40906,"is_reserved":false,"is_disabled":false,"rental_uris":{"android":"levelo://app?vid=309bb1c3-85e0-469d-b068-2e24a723c6dc","ios":"levelo://app?vid=309bb1c3-85e0-469d-b068-2e24a723c6dc"},"vehicle_type_id":"4","last_reported":1729595242,"current_range_meters":16000,"station_id":"ce4bhm92rcd13ifvqglg","pricing_plan_id":"cebpf4jnsgd1na2vs0mg"},{"bike_id":"5919f92e-9ac5-4c60-a68d-db7cae30624c","system_id":"levelo_inurba_marseille","lat":43.33752,"lon":5.37463,"is_reserved":false,"is_disabled":false,"rental_uris":{"android":"levelo://app?vid=5919f92e-9ac5-4c60-a68d-db7cae30624c","ios":"levelo://app?vid=5919f92e-9ac5-4c60-a68d-db7cae30624c"},"vehicle_type_id":"4","last_reported":1729595242,"current_range_meters":35600,"station_id":"","pricing_plan_id":"cebpf4jnsgd1na2vs0mg"},{"bike_id":"6406b7fd-cc29-412f-ad5f-816ff96fe2ae","system_id":"levelo_inurba_marseille","lat":43.23155,"lon":5.43702,"is_reserved":false,"is_disabled":false,"rental_uris":{"android":"levelo://app?vid=6406b7fd-cc29-412f-ad5f-816ff96fe2ae","ios":"levelo://app?vid=6406b7fd-cc29-412f-ad5f-816ff96fe2ae"},"vehicle_type_id":"4","last_reported":1729595242,"current_range_meters":27200,"station_id":"ce4bhmp2rcd13ifvqgog","pricing_plan_id":"cebpf4jnsgd1na2vs0mg"},{"bike_id":"3c2e9290-6792-4e2d-b00d-712b965be0bd","system_id":"levelo_inurba_marseille","lat":43.25587,"lon":5.3823,"is_reserved":false,"is_disabled":false,"rental_uris":{"android":"levelo://app?vid=3c2e9290-6792-4e2d-b00d-712b965be0bd","ios":"levelo://app?vid=3c2e9290-6792-4e2d-b00d-712b965be0bd"},"vehicle_type_id":"4","last_reported":1729595242,"current_range_meters":16000,"station_id":"ce4bhih2rcd13ifvqfs0","pricing_plan_id":"cebpf4jnsgd1na2vs0mg"},{"bike_id":"4bd127d9-cd20-4445-b442-2239decbdb3f","system_id":"levelo_inurba_marseille","lat":43.29959,"lon":5.41319,"is_reserved":false,"is_disabled":false,"rental_uris":{"android":"levelo://app?vid=4bd127d9-cd20-4445-b442-2239decbdb3f","ios":"levelo://app?vid=4bd127d9-cd20-4445-b442-2239decbdb3f"},"vehicle_type_id":"4","last_reported":1729595242,"current_range_meters":38400,"station_id":"ce4bhp12rcd13ifvqh9g","pricing_plan_id":"cebpf4jnsgd1na2vs0mg"},{"bike_id":"498f3163-d2da-4a9c-920b-7dca4170606e","system_id":"levelo_inurba_marseille","lat":43.293589,"lon":5.378427,"is_reserved":false,"is_disabled":false,"rental_uris":{"android":"levelo://app?vid=498f3163-d2da-4a9c-920b-7dca4170606e","ios":"levelo://app?vid=498f3163-d2da-4a9c-920b-7dca4170606e"},"vehicle_type_id":"4","last_reported":1729595242,"current_range_meters":38800,"station_id":"ce4bh512rcd13ifvqe2g","pricing_plan_id":"cebpf4jnsgd1na2vs0mg"},{"bike_id":"e41596d9-e6f1-4441-9a0d-6b77020b8d24","system_id":"levelo_inurba_marseille","lat":43.32297,"lon":5.38265,"is_reserved":false,"is_disabled":false,"rental_uris":{"android":"levelo://app?vid=e41596d9-e6f1-4441-9a0d-6b77020b8d24","ios":"levelo://app?vid=e41596d9-e6f1-4441-9a0d-6b77020b8d24"},"vehicle_type_id":"4","last_reported":1729595242,"current_range_meters":12800,"station_id":"ce4bhr12rcd13ifvqhqg","pricing_plan_id":"cebpf4jnsgd1na2vs0mg"},{"bike_id":"566ef3cd-3e87-4087-a6aa-32a145c590e2","system_id":"levelo_inurba_marseille","lat":43.25579,"lon":5.38219,"is_reserved":false,"is_disabled":false,"rental_uris":{"android":"levelo://app?vid=566ef3cd-3e87-4087-a6aa-32a145c590e2","ios":"levelo://app?vid=566ef3cd-3e87-4087-a6aa-32a145c590e2"},"vehicle_type_id":"4","last_reported":1729595242,"current_range_meters":12400,"station_id":"ce4bhih2rcd13ifvqfs0","pricing_plan_id":"cebpf4jnsgd1na2vs0mg"},{"bike_id":"e73397ec-41ef-401f-966f-7b0b12ace5aa","system_id":"levelo_inurba_marseille","lat":43.23193,"lon":5.35553,"is_reserved":false,"is_disabled":false,"rental_uris":{"android":"levelo://app?vid=e73397ec-41ef-401f-966f-7b0b12ace5aa","ios":"levelo://app?vid=e73397ec-41ef-401f-966f-7b0b12ace5aa"},"vehicle_type_id":"4","last_reported":1729595242,"current_range_meters":38800,"station_id":"ce4bhu92rcd13ifvqi70","pricing_plan_id":"cebpf4jnsgd1na2vs0mg"},{"bike_id":"e29d86b1-cf87-490a-b004-6dd016604d11","system_id":"levelo_inurba_marseille","lat":43.30902,"lon":5.36855,"is_reserved":false,"is_disabled":false,"rental_uris":{"android":"levelo://app?vid=e29d86b1-cf87-490a-b004-6dd016604d11","ios":"levelo://app?vid=e29d86b1-cf87-490a-b004-6dd016604d11"},"vehicle_type_id":"4","last_reported":1729595242,"current_range_meters":39200,"station_id":"ce4bgn92rcd13ifvqbvg","pricing_plan_id":"cebpf4jnsgd1na2vs0mg"},{"bike_id":"5dda2f8f-2556-4f95-8601-07988ec79ee9","system_id":"levelo_inurba_marseille","lat":43.2481,"lon":5.37462,"is_reserved":false,"is_disabled":false,"rental_uris":{"android":"levelo://app?vid=5dda2f8f-2556-4f95-8601-07988ec79ee9","ios":"levelo://app?vid=5dda2f8f-2556-4f95-8601-07988ec79ee9"},"vehicle_type_id":"4","last_reported":1729595242,"current_range_meters":5600,"station_id":"ce4bhgh2rcd13ifvqfb0","pricing_plan_id":"cebpf4jnsgd1na2vs0mg"},{"bike_id":"0577944c-c999-472d-be39-733f2e317419","system_id":"levelo_inurba_marseille","lat":43.240753,"lon":5.377589,"is_reserved":false,"is_disabled":false,"rental_uris":{"android":"levelo://app?vid=0577944c-c999-472d-be39-733f2e317419","ios":"levelo://app?vid=0577944c-c999-472d-be39-733f2e317419"},"vehicle_type_id":"4","last_reported":1729595242,"current_range_meters":13600,"station_id":"ce4bhnp2rcd13ifvqgvg","pricing_plan_id":"cebpf4jnsgd1na2vs0mg"},{"bike_id":"e19ecf22-5188-430a-b60f-8b78af092b21","system_id":"levelo_inurba_marseille","lat":43.3054,"lon":5.36537,"is_reserved":false,"is_disabled":false,"rental_uris":{"android":"levelo://app?vid=e19ecf22-5188-430a-b60f-8b78af092b21","ios":"levelo://app?vid=e19ecf22-5188-430a-b60f-8b78af092b21"},"vehicle_type_id":"4","last_reported":1729595242,"current_range_meters":38800,"station_id":"ce4bgs12rcd13ifvqcag","pricing_plan_id":"cebpf4jnsgd1na2vs0mg"},{"bike_id":"2e834380-0591-4a5f-a7c6-ec896c58b9ae","system_id":"levelo_inurba_marseille","lat":43.31543,"lon":5.40374,"is_reserved":false,"is_disabled":false,"rental_uris":{"android":"levelo://app?vid=2e834380-0591-4a5f-a7c6-ec896c58b9ae","ios":"levelo://app?vid=2e834380-0591-4a5f-a7c6-ec896c58b9ae"},"vehicle_type_id":"4","last_reported":1729595242,"current_range_meters":27600,"station_id":"","pricing_plan_id":"cebpf4jnsgd1na2vs0mg"},{"bike_id":"a46224bf-1e23-44ee-9665-6762e802956f","system_id":"levelo_inurba_marseille","lat":43.25928,"lon":5.40905,"is_reserved":false,"is_disabled":false,"rental_uris":{"android":"levelo://app?vid=a46224bf-1e23-44ee-9665-6762e802956f","ios":"levelo://app?vid=a46224bf-1e23-44ee-9665-6762e802956f"},"vehicle_type_id":"4","last_reported":1729595242,"current_range_meters":34800,"station_id":"ce4bhm92rcd13ifvqglg","pricing_plan_id":"cebpf4jnsgd1na2vs0mg"},{"bike_id":"4db5f57a-1837-492d-ba97-4e606b1a8f25","system_id":"levelo_inurba_marseille","lat":43.24184,"lon":5.39725,"is_reserved":false,"is_disabled":false,"rental_uris":{"android":"levelo://app?vid=4db5f57a-1837-492d-ba97-4e606b1a8f25","ios":"levelo://app?vid=4db5f57a-1837-492d-ba97-4e606b1a8f25"},"vehicle_type_id":"4","last_reported":1729595242,"current_range_meters":37600,"station_id":"ce4bhn12rcd13ifvqgpg","pricing_plan_id":"cebpf4jnsgd1na2vs0mg"},{"bike_id":"a4bec522-c4e8-47bb-983c-2f5c3143ecc9","system_id":"levelo_inurba_marseille","lat":43.23147,"lon":5.43711,"is_reserved":false,"is_disabled":false,"rental_uris":{"android":"levelo://app?vid=a4bec522-c4e8-47bb-983c-2f5c3143ecc9","ios":"levelo://app?vid=a4bec522-c4e8-47bb-983c-2f5c3143ecc9"},"vehicle_type_id":"4","last_reported":1729595242,"current_range_meters":6800,"station_id":"ce4bhmp2rcd13ifvqgog","pricing_plan_id":"cebpf4jnsgd1na2vs0mg"},{"bike_id":"0f51c70c-ed9a-424a-bdb3-10ee521c7387","system_id":"levelo_inurba_marseille","lat":43.23971,"lon":5.36626,"is_reserved":false,"is_disabled":false,"rental_uris":{"android":"levelo://app?vid=0f51c70c-ed9a-424a-bdb3-10ee521c7387","ios":"levelo://app?vid=0f51c70c-ed9a-424a-bdb3-10ee521c7387"},"vehicle_type_id":"4","last_reported":1729595242,"current_range_meters":38800,"station_id":"ce4bhi12rcd13ifvqfp0","pricing_plan_id":"cebpf4jnsgd1na2vs0mg"},{"bike_id":"0542018d-404c-4931-92ac-7d497686214b","system_id":"levelo_inurba_marseille","lat":43.29556,"lon":5.422881,"is_reserved":false,"is_disabled":false,"rental_uris":{"android":"levelo://app?vid=0542018d-404c-4931-92ac-7d497686214b","ios":"levelo://app?vid=0542018d-404c-4931-92ac-7d497686214b"},"vehicle_type_id":"4","last_reported":1729595242,"current_range_meters":38400,"station_id":"ce4bhph2rcd13ifvqhdg","pricing_plan_id":"cebpf4jnsgd1na2vs0mg"},{"bike_id":"fbaabfc2-af72-4c67-b73b-0f7af06196ff","system_id":"levelo_inurba_marseille","lat":43.31529,"lon":5.38036,"is_reserved":false,"is_disabled":false,"rental_uris":{"android":"levelo://app?vid=fbaabfc2-af72-4c67-b73b-0f7af06196ff","ios":"levelo://app?vid=fbaabfc2-af72-4c67-b73b-0f7af06196ff"},"vehicle_type_id":"4","last_reported":1729595242,"current_range_meters":20400,"station_id":"ce4bhsp2rcd13ifvqi50","pricing_plan_id":"cebpf4jnsgd1na2vs0mg"},{"bike_id":"938ce868-b663-4f1a-bd86-4eeff7e0663e","system_id":"levelo_inurba_marseille","lat":43.29938,"lon":5.40383,"is_reserved":false,"is_disabled":false,"rental_uris":{"android":"levelo://app?vid=938ce868-b663-4f1a-bd86-4eeff7e0663e","ios":"levelo://app?vid=938ce868-b663-4f1a-bd86-4eeff7e0663e"},"vehicle_type_id":"4","last_reported":1729595242,"current_range_meters":28800,"station_id":"ce4bh112rcd13ifvqd90","pricing_plan_id":"cebpf4jnsgd1na2vs0mg"},{"bike_id":"18e129a9-8bc3-4a68-bc79-472894fdfcad","system_id":"levelo_inurba_marseille","lat":43.28418,"lon":5.34996,"is_reserved":false,"is_disabled":false,"rental_uris":{"android":"levelo://app?vid=18e129a9-8bc3-4a68-bc79-472894fdfcad","ios":"levelo://app?vid=18e129a9-8bc3-4a68-bc79-472894fdfcad"},"vehicle_type_id":"4","last_reported":1729595242,"current_range_meters":38800,"station_id":"ce4bhbh2rcd13ifvqepg","pricing_plan_id":"cebpf4jnsgd1na2vs0mg"},{"bike_id":"67349b8d-80b3-4749-832d-07f7e424b34c","system_id":"levelo_inurba_marseille","lat":43.26678,"lon":5.38265,"is_reserved":false,"is_disabled":false,"rental_uris":{"android":"levelo://app?vid=67349b8d-80b3-4749-832d-07f7e424b34c","ios":"levelo://app?vid=67349b8d-80b3-4749-832d-07f7e424b34c"},"vehicle_type_id":"4","last_reported":1729595242,"current_range_meters":38800,"station_id":"ce4bhg92rcd13ifvqf90","pricing_plan_id":"cebpf4jnsgd1na2vs0mg"},{"bike_id":"2f8adabc-5094-4e41-833e-591be121963d","system_id":"levelo_inurba_marseille","lat":43.29577,"lon":5.36738,"is_reserved":false,"is_disabled":false,"rental_uris":{"android":"levelo://app?vid=2f8adabc-5094-4e41-833e-591be121963d","ios":"levelo://app?vid=2f8adabc-5094-4e41-833e-591be121963d"},"vehicle_type_id":"4","last_reported":1729595242,"current_range_meters":24800,"station_id":"ce4bgph2rcd13ifvqc2g","pricing_plan_id":"cebpf4jnsgd1na2vs0mg"},{"bike_id":"b5b067e4-52c3-4b76-9c79-ebd0bff15ba1","system_id":"levelo_inurba_marseille","lat":43.26199,"lon":5.3793,"is_reserved":false,"is_disabled":false,"rental_uris":{"android":"levelo://app?vid=b5b067e4-52c3-4b76-9c79-ebd0bff15ba1","ios":"levelo://app?vid=b5b067e4-52c3-4b76-9c79-ebd0bff15ba1"},"vehicle_type_id":"4","last_reported":1729595242,"current_range_meters":18000,"station_id":"ce4bhjp2rcd13ifvqg90","pricing_plan_id":"cebpf4jnsgd1na2vs0mg"},{"bike_id":"55f67aa6-6ca8-4a71-9e18-0c18e116a668","system_id":"levelo_inurba_marseille","lat":43.28122,"lon":5.37822,"is_reserved":false,"is_disabled":false,"rental_uris":{"android":"levelo://app?vid=55f67aa6-6ca8-4a71-9e18-0c18e116a668","ios":"levelo://app?vid=55f67aa6-6ca8-4a71-9e18-0c18e116a668"},"vehicle_type_id":"4","last_reported":1729595242,"current_range_meters":32000,"station_id":"ce4bha12rcd13ifvqee0","pricing_plan_id":"cebpf4jnsgd1na2vs0mg"},{"bike_id":"db8c9f1b-ea17-43a9-acbd-9f61499fe3a8","system_id":"levelo_inurba_marseille","lat":43.28572,"lon":5.39499,"is_reserved":false,"is_disabled":false,"rental_uris":{"android":"levelo://app?vid=db8c9f1b-ea17-43a9-acbd-9f61499fe3a8","ios":"levelo://app?vid=db8c9f1b-ea17-43a9-acbd-9f61499fe3a8"},"vehicle_type_id":"4","last_reported":1729595242,"current_range_meters":15200,"station_id":"ce4bh292rcd13ifvqdg0","pricing_plan_id":"cebpf4jnsgd1na2vs0mg"},{"bike_id":"af99bbf6-6362-4f23-9762-0d2c0f85538f","system_id":"levelo_inurba_marseille","lat":43.31353,"lon":5.3671,"is_reserved":false,"is_disabled":false,"rental_uris":{"android":"levelo://app?vid=af99bbf6-6362-4f23-9762-0d2c0f85538f","ios":"levelo://app?vid=af99bbf6-6362-4f23-9762-0d2c0f85538f"},"vehicle_type_id":"4","last_reported":1729595242,"current_range_meters":36000,"station_id":"ce4bgr92rcd13ifvqc6g","pricing_plan_id":"cebpf4jnsgd1na2vs0mg"},{"bike_id":"4c72ed75-c17d-47e2-8bb4-e2449803bf90","system_id":"levelo_inurba_marseille","lat":43.29957,"lon":5.41323,"is_reserved":false,"is_disabled":false,"rental_uris":{"android":"levelo://app?vid=4c72ed75-c17d-47e2-8bb4-e2449803bf90","ios":"levelo://app?vid=4c72ed75-c17d-47e2-8bb4-e2449803bf90"},"vehicle_type_id":"4","last_reported":1729595242,"current_range_meters":39200,"station_id":"ce4bhp12rcd13ifvqh9g","pricing_plan_id":"cebpf4jnsgd1na2vs0mg"},{"bike_id":"804fb848-57f6-4944-985c-c6acefd10248","system_id":"levelo_inurba_marseille","lat":43.281517,"lon":5.426381,"is_reserved":false,"is_disabled":false,"rental_uris":{"android":"levelo://app?vid=804fb848-57f6-4944-985c-c6acefd10248","ios":"levelo://app?vid=804fb848-57f6-4944-985c-c6acefd10248"},"vehicle_type_id":"4","last_reported":1729595242,"current_range_meters":38800,"station_id":"ce4bhnh2rcd13ifvqgug","pricing_plan_id":"cebpf4jnsgd1na2vs0mg"},{"bike_id":"6dcb1561-479c-408c-9da7-32af944c9f97","system_id":"levelo_inurba_marseille","lat":43.27675,"lon":5.38895,"is_reserved":false,"is_disabled":false,"rental_uris":{"android":"levelo://app?vid=6dcb1561-479c-408c-9da7-32af944c9f97","ios":"levelo://app?vid=6dcb1561-479c-408c-9da7-32af944c9f97"},"vehicle_type_id":"4","last_reported":1729595242,"current_range_meters":23200,"station_id":"ce4bhi12rcd13ifvqfo0","pricing_plan_id":"cebpf4jnsgd1na2vs0mg"},{"bike_id":"28ff1258-a8c8-4c48-9d84-229b8dc091b8","system_id":"levelo_inurba_marseille","lat":43.295835,"lon":5.367488,"is_reserved":false,"is_disabled":false,"rental_uris":{"android":"levelo://app?vid=28ff1258-a8c8-4c48-9d84-229b8dc091b8","ios":"levelo://app?vid=28ff1258-a8c8-4c48-9d84-229b8dc091b8"},"vehicle_type_id":"4","last_reported":1729595242,"current_range_meters":35200,"station_id":"","pricing_plan_id":"cebpf4jnsgd1na2vs0mg"},{"bike_id":"dada483d-6ddd-4cb3-968f-108cf02daf4d","system_id":"levelo_inurba_marseille","lat":43.27054,"lon":5.40257,"is_reserved":false,"is_disabled":false,"rental_uris":{"android":"levelo://app?vid=dada483d-6ddd-4cb3-968f-108cf02daf4d","ios":"levelo://app?vid=dada483d-6ddd-4cb3-968f-108cf02daf4d"},"vehicle_type_id":"4","last_reported":1729595242,"current_range_meters":38800,"station_id":"ce4bhk92rcd13ifvqgc0","pricing_plan_id":"cebpf4jnsgd1na2vs0mg"},{"bike_id":"9fe99e90-9f96-4760-984f-54643ba8205f","system_id":"levelo_inurba_marseille","lat":43.33612,"lon":5.41035,"is_reserved":false,"is_disabled":false,"rental_uris":{"android":"levelo://app?vid=9fe99e90-9f96-4760-984f-54643ba8205f","ios":"levelo://app?vid=9fe99e90-9f96-4760-984f-54643ba8205f"},"vehicle_type_id":"4","last_reported":1729595242,"current_range_meters":25600,"station_id":"ce4bhqh2rcd13ifvqhmg","pricing_plan_id":"cebpf4jnsgd1na2vs0mg"},{"bike_id":"0f075d40-fcf9-47c6-9718-536382077367","system_id":"levelo_inurba_marseille","lat":43.31066,"lon":5.40092,"is_reserved":false,"is_disabled":false,"rental_uris":{"android":"levelo://app?vid=0f075d40-fcf9-47c6-9718-536382077367","ios":"levelo://app?vid=0f075d40-fcf9-47c6-9718-536382077367"},"vehicle_type_id":"4","last_reported":1729595242,"current_range_meters":22800,"station_id":"","pricing_plan_id":"cebpf4jnsgd1na2vs0mg"},{"bike_id":"b0992859-d8b8-480d-a5f4-7f8fd1ff43cc","system_id":"levelo_inurba_marseille","lat":43.25878,"lon":5.39896,"is_reserved":false,"is_disabled":false,"rental_uris":{"android":"levelo://app?vid=b0992859-d8b8-480d-a5f4-7f8fd1ff43cc","ios":"levelo://app?vid=b0992859-d8b8-480d-a5f4-7f8fd1ff43cc"},"vehicle_type_id":"4","last_reported":1729595242,"current_range_meters":27600,"station_id":"ce4bhl92rcd13ifvqghg","pricing_plan_id":"cebpf4jnsgd1na2vs0mg"},{"bike_id":"d67659aa-1879-49ff-9e21-343007f69c6c","system_id":"levelo_inurba_marseille","lat":43.30807,"lon":5.43525,"is_reserved":false,"is_disabled":false,"rental_uris":{"android":"levelo://app?vid=d67659aa-1879-49ff-9e21-343007f69c6c","ios":"levelo://app?vid=d67659aa-1879-49ff-9e21-343007f69c6c"},"vehicle_type_id":"4","last_reported":1729595242,"current_range_meters":38800,"station_id":"ce4bhph2rcd13ifvqheg","pricing_plan_id":"cebpf4jnsgd1na2vs0mg"},{"bike_id":"a0513c90-2f42-446a-9283-02ea4cb55120","system_id":"levelo_inurba_marseille","lat":43.24175,"lon":5.36384,"is_reserved":false,"is_disabled":false,"rental_uris":{"android":"levelo://app?vid=a0513c90-2f42-446a-9283-02ea4cb55120","ios":"levelo://app?vid=a0513c90-2f42-446a-9283-02ea4cb55120"},"vehicle_type_id":"4","last_reported":1729595242,"current_range_meters":38800,"station_id":"cpo36qri1sfpv3e86is0","pricing_plan_id":"cebpf4jnsgd1na2vs0mg"},{"bike_id":"880f7942-b7ef-4c3e-a937-c9106002a87e","system_id":"levelo_inurba_marseille","lat":43.3248,"lon":5.36571,"is_reserved":false,"is_disabled":false,"rental_uris":{"android":"levelo://app?vid=880f7942-b7ef-4c3e-a937-c9106002a87e","ios":"levelo://app?vid=880f7942-b7ef-4c3e-a937-c9106002a87e"},"vehicle_type_id":"4","last_reported":1729595242,"current_range_meters":25200,"station_id":"ce4bhs12rcd13ifvqhvg","pricing_plan_id":"cebpf4jnsgd1na2vs0mg"},{"bike_id":"809ee0fd-e084-418c-90d5-a8d38bb383ff","system_id":"levelo_inurba_marseille","lat":43.26933,"lon":5.38916,"is_reserved":false,"is_disabled":false,"rental_uris":{"android":"levelo://app?vid=809ee0fd-e084-418c-90d5-a8d38bb383ff","ios":"levelo://app?vid=809ee0fd-e084-418c-90d5-a8d38bb383ff"},"vehicle_type_id":"4","last_reported":1729595242,"current_range_meters":28800,"station_id":"ce4bhhh2rcd13ifvqfl0","pricing_plan_id":"cebpf4jnsgd1na2vs0mg"},{"bike_id":"b9aa4fe1-0938-4a25-80a4-9d04f5356b7f","system_id":"levelo_inurba_marseille","lat":43.29579,"lon":5.37519,"is_reserved":false,"is_disabled":false,"rental_uris":{"android":"levelo://app?vid=b9aa4fe1-0938-4a25-80a4-9d04f5356b7f","ios":"levelo://app?vid=b9aa4fe1-0938-4a25-80a4-9d04f5356b7f"},"vehicle_type_id":"4","last_reported":1729595242,"current_range_meters":22800,"station_id":"ce4bgh92rcd13ifvqb50","pricing_plan_id":"cebpf4jnsgd1na2vs0mg"},{"bike_id":"51ea28cb-00bb-4abb-863d-868cf6568afb","system_id":"levelo_inurba_marseille","lat":43.29708,"lon":5.37697,"is_reserved":false,"is_disabled":false,"rental_uris":{"android":"levelo://app?vid=51ea28cb-00bb-4abb-863d-868cf6568afb","ios":"levelo://app?vid=51ea28cb-00bb-4abb-863d-868cf6568afb"},"vehicle_type_id":"4","last_reported":1729595242,"current_range_meters":37600,"station_id":"ce4bgkh2rcd13ifvqbl0","pricing_plan_id":"cebpf4jnsgd1na2vs0mg"},{"bike_id":"a9d99a07-01a7-458e-972d-4ceef2e04eda","system_id":"levelo_inurba_marseille","lat":43.32491,"lon":5.36561,"is_reserved":false,"is_disabled":false,"rental_uris":{"android":"levelo://app?vid=a9d99a07-01a7-458e-972d-4ceef2e04eda","ios":"levelo://app?vid=a9d99a07-01a7-458e-972d-4ceef2e04eda"},"vehicle_type_id":"4","last_reported":1729595242,"current_range_meters":19600,"station_id":"ce4bhs12rcd13ifvqhvg","pricing_plan_id":"cebpf4jnsgd1na2vs0mg"},{"bike_id":"864575c1-85b8-4008-92ba-391073d4ed51","system_id":"levelo_inurba_marseille","lat":43.23189,"lon":5.35541,"is_reserved":false,"is_disabled":false,"rental_uris":{"android":"levelo://app?vid=864575c1-85b8-4008-92ba-391073d4ed51","ios":"levelo://app?vid=864575c1-85b8-4008-92ba-391073d4ed51"},"vehicle_type_id":"4","last_reported":1729595242,"current_range_meters":24800,"station_id":"ce4bhu92rcd13ifvqi70","pricing_plan_id":"cebpf4jnsgd1na2vs0mg"},{"bike_id":"603682c4-016f-4bae-9a2a-1aee666b9e0f","system_id":"levelo_inurba_marseille","lat":43.283447,"lon":5.381131,"is_reserved":false,"is_disabled":false,"rental_uris":{"android":"levelo://app?vid=603682c4-016f-4bae-9a2a-1aee666b9e0f","ios":"levelo://app?vid=603682c4-016f-4bae-9a2a-1aee666b9e0f"},"vehicle_type_id":"4","last_reported":1729595242,"current_range_meters":36800,"station_id":"ce4bhbh2rcd13ifvqeo0","pricing_plan_id":"cebpf4jnsgd1na2vs0mg"},{"bike_id":"41e1756e-e5db-4529-8005-350469d36027","system_id":"levelo_inurba_marseille","lat":43.33498,"lon":5.40751,"is_reserved":false,"is_disabled":false,"rental_uris":{"android":"levelo://app?vid=41e1756e-e5db-4529-8005-350469d36027","ios":"levelo://app?vid=41e1756e-e5db-4529-8005-350469d36027"},"vehicle_type_id":"4","last_reported":1729595242,"current_range_meters":38800,"station_id":"","pricing_plan_id":"cebpf4jnsgd1na2vs0mg"},{"bike_id":"4133b611-cc38-421e-b075-b22a2cb0af87","system_id":"levelo_inurba_marseille","lat":43.29227,"lon":5.36068,"is_reserved":false,"is_disabled":false,"rental_uris":{"android":"levelo://app?vid=4133b611-cc38-421e-b075-b22a2cb0af87","ios":"levelo://app?vid=4133b611-cc38-421e-b075-b22a2cb0af87"},"vehicle_type_id":"4","last_reported":1729595242,"current_range_meters":38800,"station_id":"ce4bhbh2rcd13ifvqeqg","pricing_plan_id":"cebpf4jnsgd1na2vs0mg"},{"bike_id":"e0c8fe32-612e-4f9d-9eb4-e066d641459d","system_id":"levelo_inurba_marseille","lat":43.30149,"lon":5.38083,"is_reserved":false,"is_disabled":false,"rental_uris":{"android":"levelo://app?vid=e0c8fe32-612e-4f9d-9eb4-e066d641459d","ios":"levelo://app?vid=e0c8fe32-612e-4f9d-9eb4-e066d641459d"},"vehicle_type_id":"4","last_reported":1729595242,"current_range_meters":38800,"station_id":"ce4bgjp2rcd13ifvqbh0","pricing_plan_id":"cebpf4jnsgd1na2vs0mg"},{"bike_id":"0728974d-1ad5-4181-91f2-6035aab7157d","system_id":"levelo_inurba_marseille","lat":43.23187,"lon":5.35545,"is_reserved":false,"is_disabled":false,"rental_uris":{"android":"levelo://app?vid=0728974d-1ad5-4181-91f2-6035aab7157d","ios":"levelo://app?vid=0728974d-1ad5-4181-91f2-6035aab7157d"},"vehicle_type_id":"4","last_reported":1729595242,"current_range_meters":38800,"station_id":"ce4bhu92rcd13ifvqi70","pricing_plan_id":"cebpf4jnsgd1na2vs0mg"},{"bike_id":"a839e4e6-78c0-4576-97fd-72223c216bc3","system_id":"levelo_inurba_marseille","lat":43.337444,"lon":5.374475,"is_reserved":false,"is_disabled":false,"rental_uris":{"android":"levelo://app?vid=a839e4e6-78c0-4576-97fd-72223c216bc3","ios":"levelo://app?vid=a839e4e6-78c0-4576-97fd-72223c216bc3"},"vehicle_type_id":"4","last_reported":1729595242,"current_range_meters":38800,"station_id":"ce4bhf92rcd13ifvqf50","pricing_plan_id":"cebpf4jnsgd1na2vs0mg"},{"bike_id":"57399da3-76d6-41a9-aab7-41ca4425f352","system_id":"levelo_inurba_marseille","lat":43.32481,"lon":5.36561,"is_reserved":false,"is_disabled":false,"rental_uris":{"android":"levelo://app?vid=57399da3-76d6-41a9-aab7-41ca4425f352","ios":"levelo://app?vid=57399da3-76d6-41a9-aab7-41ca4425f352"},"vehicle_type_id":"4","last_reported":1729595242,"current_range_meters":25200,"station_id":"ce4bhs12rcd13ifvqhvg","pricing_plan_id":"cebpf4jnsgd1na2vs0mg"},{"bike_id":"4fbc9bcd-f983-47d0-a432-134af039f6c8","system_id":"levelo_inurba_marseille","lat":43.23149,"lon":5.43717,"is_reserved":false,"is_disabled":false,"rental_uris":{"android":"levelo://app?vid=4fbc9bcd-f983-47d0-a432-134af039f6c8","ios":"levelo://app?vid=4fbc9bcd-f983-47d0-a432-134af039f6c8"},"vehicle_type_id":"4","last_reported":1729595242,"current_range_meters":16000,"station_id":"ce4bhmp2rcd13ifvqgog","pricing_plan_id":"cebpf4jnsgd1na2vs0mg"},{"bike_id":"287bf577-ec28-476f-81dc-18f5c4d600e7","system_id":"levelo_inurba_marseille","lat":43.30353,"lon":5.37356,"is_reserved":false,"is_disabled":false,"rental_uris":{"android":"levelo://app?vid=287bf577-ec28-476f-81dc-18f5c4d600e7","ios":"levelo://app?vid=287bf577-ec28-476f-81dc-18f5c4d600e7"},"vehicle_type_id":"4","last_reported":1729595242,"current_range_meters":28000,"station_id":"ce4bgkh2rcd13ifvqbl0","pricing_plan_id":"cebpf4jnsgd1na2vs0mg"},{"bike_id":"2d5adfb3-fbf6-49ea-92ee-2aa0b000d141","system_id":"levelo_inurba_marseille","lat":43.24802,"lon":5.37449,"is_reserved":false,"is_disabled":false,"rental_uris":{"android":"levelo://app?vid=2d5adfb3-fbf6-49ea-92ee-2aa0b000d141","ios":"levelo://app?vid=2d5adfb3-fbf6-49ea-92ee-2aa0b000d141"},"vehicle_type_id":"4","last_reported":1729595242,"current_range_meters":10000,"station_id":"ce4bhgh2rcd13ifvqfb0","pricing_plan_id":"cebpf4jnsgd1na2vs0mg"},{"bike_id":"53164fcb-bf99-4ab7-a6bd-1f79eeee95e1","system_id":"levelo_inurba_marseille","lat":43.29015,"lon":5.39971,"is_reserved":false,"is_disabled":false,"rental_uris":{"android":"levelo://app?vid=53164fcb-bf99-4ab7-a6bd-1f79eeee95e1","ios":"levelo://app?vid=53164fcb-bf99-4ab7-a6bd-1f79eeee95e1"},"vehicle_type_id":"4","last_reported":1729595242,"current_range_meters":38400,"station_id":"ce4bh392rcd13ifvqdm0","pricing_plan_id":"cebpf4jnsgd1na2vs0mg"},{"bike_id":"24cbbdf1-a0f6-4c74-9fd3-db0a93df4934","system_id":"levelo_inurba_marseille","lat":43.27064,"lon":5.40251,"is_reserved":false,"is_disabled":false,"rental_uris":{"android":"levelo://app?vid=24cbbdf1-a0f6-4c74-9fd3-db0a93df4934","ios":"levelo://app?vid=24cbbdf1-a0f6-4c74-9fd3-db0a93df4934"},"vehicle_type_id":"4","last_reported":1729595242,"current_range_meters":12400,"station_id":"ce4bhk92rcd13ifvqgc0","pricing_plan_id":"cebpf4jnsgd1na2vs0mg"},{"bike_id":"db51d41d-30ee-459f-9662-635647176d1a","system_id":"levelo_inurba_marseille","lat":43.29297,"lon":5.37463,"is_reserved":false,"is_disabled":false,"rental_uris":{"android":"levelo://app?vid=db51d41d-30ee-459f-9662-635647176d1a","ios":"levelo://app?vid=db51d41d-30ee-459f-9662-635647176d1a"},"vehicle_type_id":"4","last_reported":1729595242,"current_range_meters":28400,"station_id":"ce4bgi12rcd13ifvqb70","pricing_plan_id":"cebpf4jnsgd1na2vs0mg"},{"bike_id":"b80433ac-4b37-4869-84e8-91999a3765ef","system_id":"levelo_inurba_marseille","lat":43.33606,"lon":5.41026,"is_reserved":false,"is_disabled":false,"rental_uris":{"android":"levelo://app?vid=b80433ac-4b37-4869-84e8-91999a3765ef","ios":"levelo://app?vid=b80433ac-4b37-4869-84e8-91999a3765ef"},"vehicle_type_id":"4","last_reported":1729595242,"current_range_meters":27200,"station_id":"ce4bhqh2rcd13ifvqhmg","pricing_plan_id":"cebpf4jnsgd1na2vs0mg"},{"bike_id":"79a1e020-318b-42a1-a8c0-a424b1daf69e","system_id":"levelo_inurba_marseille","lat":43.296,"lon":5.36142,"is_reserved":false,"is_disabled":false,"rental_uris":{"android":"levelo://app?vid=79a1e020-318b-42a1-a8c0-a424b1daf69e","ios":"levelo://app?vid=79a1e020-318b-42a1-a8c0-a424b1daf69e"},"vehicle_type_id":"4","last_reported":1729595242,"current_range_meters":6400,"station_id":"","pricing_plan_id":"cebpf4jnsgd1na2vs0mg"},{"bike_id":"3dd23481-ac4d-4a9c-918d-0cbf17576158","system_id":"levelo_inurba_marseille","lat":43.276813,"lon":5.388718,"is_reserved":false,"is_disabled":false,"rental_uris":{"android":"levelo://app?vid=3dd23481-ac4d-4a9c-918d-0cbf17576158","ios":"levelo://app?vid=3dd23481-ac4d-4a9c-918d-0cbf17576158"},"vehicle_type_id":"4","last_reported":1729595242,"current_range_meters":25600,"station_id":"ce4bhi12rcd13ifvqfo0","pricing_plan_id":"cebpf4jnsgd1na2vs0mg"},{"bike_id":"6ce870e3-da3e-47a2-9ebd-0a6fb98597a1","system_id":"levelo_inurba_marseille","lat":43.29569,"lon":5.37515,"is_reserved":false,"is_disabled":false,"rental_uris":{"android":"levelo://app?vid=6ce870e3-da3e-47a2-9ebd-0a6fb98597a1","ios":"levelo://app?vid=6ce870e3-da3e-47a2-9ebd-0a6fb98597a1"},"vehicle_type_id":"4","last_reported":1729595242,"current_range_meters":29600,"station_id":"ce4bgh92rcd13ifvqb50","pricing_plan_id":"cebpf4jnsgd1na2vs0mg"},{"bike_id":"262dbb07-ff59-45ff-9c7e-61e09d2b3b93","system_id":"levelo_inurba_marseille","lat":43.29524,"lon":5.39057,"is_reserved":false,"is_disabled":false,"rental_uris":{"android":"levelo://app?vid=262dbb07-ff59-45ff-9c7e-61e09d2b3b93","ios":"levelo://app?vid=262dbb07-ff59-45ff-9c7e-61e09d2b3b93"},"vehicle_type_id":"4","last_reported":1729595242,"current_range_meters":18000,"station_id":"ce4bh3p2rcd13ifvqdp0","pricing_plan_id":"cebpf4jnsgd1na2vs0mg"},{"bike_id":"6eced96a-b021-41b9-89bf-72379aa39c97","system_id":"levelo_inurba_marseille","lat":43.25938,"lon":5.4091,"is_reserved":false,"is_disabled":false,"rental_uris":{"android":"levelo://app?vid=6eced96a-b021-41b9-89bf-72379aa39c97","ios":"levelo://app?vid=6eced96a-b021-41b9-89bf-72379aa39c97"},"vehicle_type_id":"4","last_reported":1729595242,"current_range_meters":32800,"station_id":"ce4bhm92rcd13ifvqglg","pricing_plan_id":"cebpf4jnsgd1na2vs0mg"},{"bike_id":"627622eb-10c3-47d0-8880-0ab80396c86a","system_id":"levelo_inurba_marseille","lat":43.24388,"lon":5.37061,"is_reserved":false,"is_disabled":false,"rental_uris":{"android":"levelo://app?vid=627622eb-10c3-47d0-8880-0ab80396c86a","ios":"levelo://app?vid=627622eb-10c3-47d0-8880-0ab80396c86a"},"vehicle_type_id":"4","last_reported":1729595242,"current_range_meters":19600,"station_id":"ce4bh292rcd13ifvqdf0","pricing_plan_id":"cebpf4jnsgd1na2vs0mg"},{"bike_id":"03add1c1-b997-4af0-8675-b43c8e7e3407","system_id":"levelo_inurba_marseille","lat":43.25499,"lon":5.37649,"is_reserved":false,"is_disabled":false,"rental_uris":{"android":"levelo://app?vid=03add1c1-b997-4af0-8675-b43c8e7e3407","ios":"levelo://app?vid=03add1c1-b997-4af0-8675-b43c8e7e3407"},"vehicle_type_id":"4","last_reported":1729595242,"current_range_meters":25600,"station_id":"","pricing_plan_id":"cebpf4jnsgd1na2vs0mg"},{"bike_id":"28666878-e5dc-422b-8c4f-7d2ebc28adfb","system_id":"levelo_inurba_marseille","lat":43.279083,"lon":5.382682,"is_reserved":false,"is_disabled":false,"rental_uris":{"android":"levelo://app?vid=28666878-e5dc-422b-8c4f-7d2ebc28adfb","ios":"levelo://app?vid=28666878-e5dc-422b-8c4f-7d2ebc28adfb"},"vehicle_type_id":"4","last_reported":1729595242,"current_range_meters":12400,"station_id":"ce4bhf92rcd13ifvqf50","pricing_plan_id":"cebpf4jnsgd1na2vs0mg"},{"bike_id":"9a730649-9acd-49c7-ae5b-981c307f0906","system_id":"levelo_inurba_marseille","lat":43.25083,"lon":5.39522,"is_reserved":false,"is_disabled":false,"rental_uris":{"android":"levelo://app?vid=9a730649-9acd-49c7-ae5b-981c307f0906","ios":"levelo://app?vid=9a730649-9acd-49c7-ae5b-981c307f0906"},"vehicle_type_id":"4","last_reported":1729595242,"current_range_meters":32400,"station_id":"ce4bhm12rcd13ifvqgkg","pricing_plan_id":"cebpf4jnsgd1na2vs0mg"},{"bike_id":"7adf842b-4b8c-4356-a23f-1be0cbaf4d21","system_id":"levelo_inurba_marseille","lat":43.23194,"lon":5.35544,"is_reserved":false,"is_disabled":false,"rental_uris":{"android":"levelo://app?vid=7adf842b-4b8c-4356-a23f-1be0cbaf4d21","ios":"levelo://app?vid=7adf842b-4b8c-4356-a23f-1be0cbaf4d21"},"vehicle_type_id":"4","last_reported":1729595242,"current_range_meters":9600,"station_id":"ce4bhu92rcd13ifvqi70","pricing_plan_id":"cebpf4jnsgd1na2vs0mg"},{"bike_id":"45495d78-6579-4baf-98bd-1b602f954d3e","system_id":"levelo_inurba_marseille","lat":43.32042,"lon":5.41566,"is_reserved":false,"is_disabled":false,"rental_uris":{"android":"levelo://app?vid=45495d78-6579-4baf-98bd-1b602f954d3e","ios":"levelo://app?vid=45495d78-6579-4baf-98bd-1b602f954d3e"},"vehicle_type_id":"4","last_reported":1729595242,"current_range_meters":22800,"station_id":"ce4bhq92rcd13ifvqhkg","pricing_plan_id":"cebpf4jnsgd1na2vs0mg"},{"bike_id":"3fbb21dc-457c-4028-8cc7-8a7ddebb915c","system_id":"levelo_inurba_marseille","lat":43.23197,"lon":5.35547,"is_reserved":false,"is_disabled":false,"rental_uris":{"android":"levelo://app?vid=3fbb21dc-457c-4028-8cc7-8a7ddebb915c","ios":"levelo://app?vid=3fbb21dc-457c-4028-8cc7-8a7ddebb915c"},"vehicle_type_id":"4","last_reported":1729595242,"current_range_meters":36800,"station_id":"ce4bhu92rcd13ifvqi70","pricing_plan_id":"cebpf4jnsgd1na2vs0mg"},{"bike_id":"8d66234d-ed10-4a56-b9bf-7024ed1a6c9c","system_id":"levelo_inurba_marseille","lat":43.3257,"lon":5.37908,"is_reserved":false,"is_disabled":false,"rental_uris":{"android":"levelo://app?vid=8d66234d-ed10-4a56-b9bf-7024ed1a6c9c","ios":"levelo://app?vid=8d66234d-ed10-4a56-b9bf-7024ed1a6c9c"},"vehicle_type_id":"4","last_reported":1729595242,"current_range_meters":6800,"station_id":"","pricing_plan_id":"cebpf4jnsgd1na2vs0mg"},{"bike_id":"c6fbced7-fbc1-4b78-8501-21a4fcddb8db","system_id":"levelo_inurba_marseille","lat":43.31722,"lon":5.4239,"is_reserved":false,"is_disabled":false,"rental_uris":{"android":"levelo://app?vid=c6fbced7-fbc1-4b78-8501-21a4fcddb8db","ios":"levelo://app?vid=c6fbced7-fbc1-4b78-8501-21a4fcddb8db"},"vehicle_type_id":"4","last_reported":1729595242,"current_range_meters":22400,"station_id":"ce4bhp92rcd13ifvqhbg","pricing_plan_id":"cebpf4jnsgd1na2vs0mg"},{"bike_id":"7ae39fc3-215a-4201-bf5d-783c4636306b","system_id":"levelo_inurba_marseille","lat":43.28571,"lon":5.39497,"is_reserved":false,"is_disabled":false,"rental_uris":{"android":"levelo://app?vid=7ae39fc3-215a-4201-bf5d-783c4636306b","ios":"levelo://app?vid=7ae39fc3-215a-4201-bf5d-783c4636306b"},"vehicle_type_id":"4","last_reported":1729595242,"current_range_meters":26800,"station_id":"ce4bh292rcd13ifvqdg0","pricing_plan_id":"cebpf4jnsgd1na2vs0mg"},{"bike_id":"7b77791f-c6dc-4747-af90-b121e7ac4b5a","system_id":"levelo_inurba_marseille","lat":43.28938,"lon":5.36394,"is_reserved":false,"is_disabled":false,"rental_uris":{"android":"levelo://app?vid=7b77791f-c6dc-4747-af90-b121e7ac4b5a","ios":"levelo://app?vid=7b77791f-c6dc-4747-af90-b121e7ac4b5a"},"vehicle_type_id":"4","last_reported":1729595242,"current_range_meters":26000,"station_id":"ce4bhc92rcd13ifvqetg","pricing_plan_id":"cebpf4jnsgd1na2vs0mg"},{"bike_id":"381240ae-0a2b-4391-9a6a-8aae2a77183c","system_id":"levelo_inurba_marseille","lat":43.25502,"lon":5.37645,"is_reserved":false,"is_disabled":false,"rental_uris":{"android":"levelo://app?vid=381240ae-0a2b-4391-9a6a-8aae2a77183c","ios":"levelo://app?vid=381240ae-0a2b-4391-9a6a-8aae2a77183c"},"vehicle_type_id":"4","last_reported":1729595242,"current_range_meters":37600,"station_id":"ce4bhh12rcd13ifvqff0","pricing_plan_id":"cebpf4jnsgd1na2vs0mg"},{"bike_id":"1d043a7e-e4a0-4b52-a511-dae1798912e1","system_id":"levelo_inurba_marseille","lat":43.28146,"lon":5.42635,"is_reserved":false,"is_disabled":false,"rental_uris":{"android":"levelo://app?vid=1d043a7e-e4a0-4b52-a511-dae1798912e1","ios":"levelo://app?vid=1d043a7e-e4a0-4b52-a511-dae1798912e1"},"vehicle_type_id":"4","last_reported":1729595242,"current_range_meters":37600,"station_id":"ce4bhnh2rcd13ifvqgug","pricing_plan_id":"cebpf4jnsgd1na2vs0mg"},{"bike_id":"26ecd86a-68b2-4ff6-b650-5df07be98a7a","system_id":"levelo_inurba_marseille","lat":43.24546,"lon":5.395214,"is_reserved":false,"is_disabled":false,"rental_uris":{"android":"levelo://app?vid=26ecd86a-68b2-4ff6-b650-5df07be98a7a","ios":"levelo://app?vid=26ecd86a-68b2-4ff6-b650-5df07be98a7a"},"vehicle_type_id":"4","last_reported":1729595242,"current_range_meters":20000,"station_id":"ce4bhlp2rcd13ifvqgjg","pricing_plan_id":"cebpf4jnsgd1na2vs0mg"},{"bike_id":"00efb7ea-4935-4991-8e09-7c91b5acc755","system_id":"levelo_inurba_marseille","lat":43.29841,"lon":5.36257,"is_reserved":false,"is_disabled":false,"rental_uris":{"android":"levelo://app?vid=00efb7ea-4935-4991-8e09-7c91b5acc755","ios":"levelo://app?vid=00efb7ea-4935-4991-8e09-7c91b5acc755"},"vehicle_type_id":"4","last_reported":1729595242,"current_range_meters":22400,"station_id":"ce4bgpp2rcd13ifvqc3g","pricing_plan_id":"cebpf4jnsgd1na2vs0mg"},{"bike_id":"4c9cd873-b86d-45ed-8195-b76cbcf6fe83","system_id":"levelo_inurba_marseille","lat":43.25933,"lon":5.4091,"is_reserved":false,"is_disabled":false,"rental_uris":{"android":"levelo://app?vid=4c9cd873-b86d-45ed-8195-b76cbcf6fe83","ios":"levelo://app?vid=4c9cd873-b86d-45ed-8195-b76cbcf6fe83"},"vehicle_type_id":"4","last_reported":1729595242,"current_range_meters":32800,"station_id":"ce4bhm92rcd13ifvqglg","pricing_plan_id":"cebpf4jnsgd1na2vs0mg"},{"bike_id":"6cd915b7-8862-4c87-b58a-50cab51e10ad","system_id":"levelo_inurba_marseille","lat":43.29555,"lon":5.42283,"is_reserved":false,"is_disabled":false,"rental_uris":{"android":"levelo://app?vid=6cd915b7-8862-4c87-b58a-50cab51e10ad","ios":"levelo://app?vid=6cd915b7-8862-4c87-b58a-50cab51e10ad"},"vehicle_type_id":"4","last_reported":1729595242,"current_range_meters":20800,"station_id":"ce4bhph2rcd13ifvqhdg","pricing_plan_id":"cebpf4jnsgd1na2vs0mg"},{"bike_id":"f48b9292-5b23-4c1d-b443-99520d182fe9","system_id":"levelo_inurba_marseille","lat":43.31706,"lon":5.37748,"is_reserved":false,"is_disabled":false,"rental_uris":{"android":"levelo://app?vid=f48b9292-5b23-4c1d-b443-99520d182fe9","ios":"levelo://app?vid=f48b9292-5b23-4c1d-b443-99520d182fe9"},"vehicle_type_id":"4","last_reported":1729595242,"current_range_meters":17600,"station_id":"ce4bgth2rcd13ifvqch0","pricing_plan_id":"cebpf4jnsgd1na2vs0mg"},{"bike_id":"fc25705f-5163-4173-a66b-86be426575c4","system_id":"levelo_inurba_marseille","lat":43.29622,"lon":5.37735,"is_reserved":false,"is_disabled":false,"rental_uris":{"android":"levelo://app?vid=fc25705f-5163-4173-a66b-86be426575c4","ios":"levelo://app?vid=fc25705f-5163-4173-a66b-86be426575c4"},"vehicle_type_id":"4","last_reported":1729595242,"current_range_meters":4800,"station_id":"ce4bhhh2rcd13ifvqfk0","pricing_plan_id":"cebpf4jnsgd1na2vs0mg"},{"bike_id":"155517ef-0a83-4c87-b2da-fb3d8d259bc7","system_id":"levelo_inurba_marseille","lat":43.25579,"lon":5.38224,"is_reserved":false,"is_disabled":false,"rental_uris":{"android":"levelo://app?vid=155517ef-0a83-4c87-b2da-fb3d8d259bc7","ios":"levelo://app?vid=155517ef-0a83-4c87-b2da-fb3d8d259bc7"},"vehicle_type_id":"4","last_reported":1729595242,"current_range_meters":36800,"station_id":"ce4bhih2rcd13ifvqfs0","pricing_plan_id":"cebpf4jnsgd1na2vs0mg"},{"bike_id":"db3a2b4c-3b74-441f-ac70-efb5c5f67d72","system_id":"levelo_inurba_marseille","lat":43.2684,"lon":5.40734,"is_reserved":false,"is_disabled":false,"rental_uris":{"android":"levelo://app?vid=db3a2b4c-3b74-441f-ac70-efb5c5f67d72","ios":"levelo://app?vid=db3a2b4c-3b74-441f-ac70-efb5c5f67d72"},"vehicle_type_id":"4","last_reported":1729595242,"current_range_meters":31200,"station_id":"ce4bhg92rcd13ifvqf90","pricing_plan_id":"cebpf4jnsgd1na2vs0mg"},{"bike_id":"4fe15def-b9c2-4852-be16-e9b589fcc3ab","system_id":"levelo_inurba_marseille","lat":43.283173,"lon":5.350496,"is_reserved":false,"is_disabled":false,"rental_uris":{"android":"levelo://app?vid=4fe15def-b9c2-4852-be16-e9b589fcc3ab","ios":"levelo://app?vid=4fe15def-b9c2-4852-be16-e9b589fcc3ab"},"vehicle_type_id":"4","last_reported":1729595242,"current_range_meters":17200,"station_id":"ce4bhbp2rcd13ifvqerg","pricing_plan_id":"cebpf4jnsgd1na2vs0mg"},{"bike_id":"d35aead5-74d9-4a00-baad-d7d1ed435177","system_id":"levelo_inurba_marseille","lat":43.24073,"lon":5.37759,"is_reserved":false,"is_disabled":false,"rental_uris":{"android":"levelo://app?vid=d35aead5-74d9-4a00-baad-d7d1ed435177","ios":"levelo://app?vid=d35aead5-74d9-4a00-baad-d7d1ed435177"},"vehicle_type_id":"4","last_reported":1729595242,"current_range_meters":36000,"station_id":"ce4bhnp2rcd13ifvqgvg","pricing_plan_id":"cebpf4jnsgd1na2vs0mg"},{"bike_id":"6b63d172-a2c8-46da-9750-2226af7381c0","system_id":"levelo_inurba_marseille","lat":43.23962,"lon":5.36641,"is_reserved":false,"is_disabled":false,"rental_uris":{"android":"levelo://app?vid=6b63d172-a2c8-46da-9750-2226af7381c0","ios":"levelo://app?vid=6b63d172-a2c8-46da-9750-2226af7381c0"},"vehicle_type_id":"4","last_reported":1729595242,"current_range_meters":38000,"station_id":"ce4bhi12rcd13ifvqfp0","pricing_plan_id":"cebpf4jnsgd1na2vs0mg"},{"bike_id":"d9e37939-a588-4efe-8580-1a5d5825e0e9","system_id":"levelo_inurba_marseille","lat":43.25506,"lon":5.3765,"is_reserved":false,"is_disabled":false,"rental_uris":{"android":"levelo://app?vid=d9e37939-a588-4efe-8580-1a5d5825e0e9","ios":"levelo://app?vid=d9e37939-a588-4efe-8580-1a5d5825e0e9"},"vehicle_type_id":"4","last_reported":1729595242,"current_range_meters":26000,"station_id":"ce4bhh12rcd13ifvqff0","pricing_plan_id":"cebpf4jnsgd1na2vs0mg"},{"bike_id":"262d6295-809d-45c9-9768-b3b5a2cf90b7","system_id":"levelo_inurba_marseille","lat":43.31347,"lon":5.36713,"is_reserved":false,"is_disabled":false,"rental_uris":{"android":"levelo://app?vid=262d6295-809d-45c9-9768-b3b5a2cf90b7","ios":"levelo://app?vid=262d6295-809d-45c9-9768-b3b5a2cf90b7"},"vehicle_type_id":"4","last_reported":1729595242,"current_range_meters":27600,"station_id":"ce4bgr92rcd13ifvqc6g","pricing_plan_id":"cebpf4jnsgd1na2vs0mg"},{"bike_id":"c3945b60-e38d-4106-8f18-92c7f436cc4f","system_id":"levelo_inurba_marseille","lat":43.33757,"lon":5.37448,"is_reserved":false,"is_disabled":false,"rental_uris":{"android":"levelo://app?vid=c3945b60-e38d-4106-8f18-92c7f436cc4f","ios":"levelo://app?vid=c3945b60-e38d-4106-8f18-92c7f436cc4f"},"vehicle_type_id":"4","last_reported":1729595242,"current_range_meters":32400,"station_id":"","pricing_plan_id":"cebpf4jnsgd1na2vs0mg"},{"bike_id":"c37a9f14-2d78-41b8-ba95-c64c54cc1335","system_id":"levelo_inurba_marseille","lat":43.30552,"lon":5.3653,"is_reserved":false,"is_disabled":false,"rental_uris":{"android":"levelo://app?vid=c37a9f14-2d78-41b8-ba95-c64c54cc1335","ios":"levelo://app?vid=c37a9f14-2d78-41b8-ba95-c64c54cc1335"},"vehicle_type_id":"4","last_reported":1729595242,"current_range_meters":23200,"station_id":"ce4bgs12rcd13ifvqcag","pricing_plan_id":"cebpf4jnsgd1na2vs0mg"},{"bike_id":"8dcba07f-7d80-437c-b566-6401a200642c","system_id":"levelo_inurba_marseille","lat":43.28275,"lon":5.35072,"is_reserved":false,"is_disabled":false,"rental_uris":{"android":"levelo://app?vid=8dcba07f-7d80-437c-b566-6401a200642c","ios":"levelo://app?vid=8dcba07f-7d80-437c-b566-6401a200642c"},"vehicle_type_id":"4","last_reported":1729595242,"current_range_meters":28800,"station_id":"ce4bhbp2rcd13ifvqerg","pricing_plan_id":"cebpf4jnsgd1na2vs0mg"},{"bike_id":"2d5db5f6-c33a-45df-8cf4-b20123f47e27","system_id":"levelo_inurba_marseille","lat":43.29228,"lon":5.36065,"is_reserved":false,"is_disabled":false,"rental_uris":{"android":"levelo://app?vid=2d5db5f6-c33a-45df-8cf4-b20123f47e27","ios":"levelo://app?vid=2d5db5f6-c33a-45df-8cf4-b20123f47e27"},"vehicle_type_id":"4","last_reported":1729595242,"current_range_meters":37600,"station_id":"ce4bhbh2rcd13ifvqeqg","pricing_plan_id":"cebpf4jnsgd1na2vs0mg"},{"bike_id":"9819146e-6e38-4bfb-8718-b0a15928bc96","system_id":"levelo_inurba_marseille","lat":43.31344,"lon":5.36705,"is_reserved":false,"is_disabled":false,"rental_uris":{"android":"levelo://app?vid=9819146e-6e38-4bfb-8718-b0a15928bc96","ios":"levelo://app?vid=9819146e-6e38-4bfb-8718-b0a15928bc96"},"vehicle_type_id":"4","last_reported":1729595242,"current_range_meters":28400,"station_id":"ce4bgr92rcd13ifvqc6g","pricing_plan_id":"cebpf4jnsgd1na2vs0mg"},{"bike_id":"b59fde32-c029-4b38-94d3-416449f2d2c3","system_id":"levelo_inurba_marseille","lat":43.30548,"lon":5.36554,"is_reserved":false,"is_disabled":false,"rental_uris":{"android":"levelo://app?vid=b59fde32-c029-4b38-94d3-416449f2d2c3","ios":"levelo://app?vid=b59fde32-c029-4b38-94d3-416449f2d2c3"},"vehicle_type_id":"4","last_reported":1729595242,"current_range_meters":36000,"station_id":"ce4bgs12rcd13ifvqcag","pricing_plan_id":"cebpf4jnsgd1na2vs0mg"},{"bike_id":"1cc8c524-3a72-465f-8ebe-e4c35d504abb","system_id":"levelo_inurba_marseille","lat":43.24068,"lon":5.37765,"is_reserved":false,"is_disabled":false,"rental_uris":{"android":"levelo://app?vid=1cc8c524-3a72-465f-8ebe-e4c35d504abb","ios":"levelo://app?vid=1cc8c524-3a72-465f-8ebe-e4c35d504abb"},"vehicle_type_id":"4","last_reported":1729595242,"current_range_meters":16000,"station_id":"ce4bhnp2rcd13ifvqgvg","pricing_plan_id":"cebpf4jnsgd1na2vs0mg"},{"bike_id":"c497a204-d102-4fb8-8c4f-4d71a1f981d8","system_id":"levelo_inurba_marseille","lat":43.33616,"lon":5.41025,"is_reserved":false,"is_disabled":false,"rental_uris":{"android":"levelo://app?vid=c497a204-d102-4fb8-8c4f-4d71a1f981d8","ios":"levelo://app?vid=c497a204-d102-4fb8-8c4f-4d71a1f981d8"},"vehicle_type_id":"4","last_reported":1729595242,"current_range_meters":18000,"station_id":"ce4bhqh2rcd13ifvqhmg","pricing_plan_id":"cebpf4jnsgd1na2vs0mg"},{"bike_id":"69782100-38b2-4229-a2cc-01dedf594700","system_id":"levelo_inurba_marseille","lat":43.28674,"lon":5.387,"is_reserved":false,"is_disabled":false,"rental_uris":{"android":"levelo://app?vid=69782100-38b2-4229-a2cc-01dedf594700","ios":"levelo://app?vid=69782100-38b2-4229-a2cc-01dedf594700"},"vehicle_type_id":"4","last_reported":1729595242,"current_range_meters":22800,"station_id":"ce4bgl12rcd13ifvqbo0","pricing_plan_id":"cebpf4jnsgd1na2vs0mg"},{"bike_id":"6ba1088e-f6d7-458a-a335-f0b3c3746983","system_id":"levelo_inurba_marseille","lat":43.24178,"lon":5.3973,"is_reserved":false,"is_disabled":false,"rental_uris":{"android":"levelo://app?vid=6ba1088e-f6d7-458a-a335-f0b3c3746983","ios":"levelo://app?vid=6ba1088e-f6d7-458a-a335-f0b3c3746983"},"vehicle_type_id":"4","last_reported":1729595242,"current_range_meters":38000,"station_id":"ce4bhn12rcd13ifvqgpg","pricing_plan_id":"cebpf4jnsgd1na2vs0mg"},{"bike_id":"6a606450-0244-4420-a512-c69c644c2c13","system_id":"levelo_inurba_marseille","lat":43.25498,"lon":5.37644,"is_reserved":false,"is_disabled":false,"rental_uris":{"android":"levelo://app?vid=6a606450-0244-4420-a512-c69c644c2c13","ios":"levelo://app?vid=6a606450-0244-4420-a512-c69c644c2c13"},"vehicle_type_id":"4","last_reported":1729595242,"current_range_meters":40000,"station_id":"ce4bhh12rcd13ifvqff0","pricing_plan_id":"cebpf4jnsgd1na2vs0mg"},{"bike_id":"96618146-b21d-45eb-98ee-5aa5a7832d9e","system_id":"levelo_inurba_marseille","lat":43.27614,"lon":5.36116,"is_reserved":false,"is_disabled":false,"rental_uris":{"android":"levelo://app?vid=96618146-b21d-45eb-98ee-5aa5a7832d9e","ios":"levelo://app?vid=96618146-b21d-45eb-98ee-5aa5a7832d9e"},"vehicle_type_id":"4","last_reported":1729595242,"current_range_meters":10000,"station_id":"ce4bgj92rcd13ifvqbe0","pricing_plan_id":"cebpf4jnsgd1na2vs0mg"},{"bike_id":"fed181f1-bf63-44a2-8176-df50744f2b5a","system_id":"levelo_inurba_marseille","lat":43.33602,"lon":5.41029,"is_reserved":false,"is_disabled":false,"rental_uris":{"android":"levelo://app?vid=fed181f1-bf63-44a2-8176-df50744f2b5a","ios":"levelo://app?vid=fed181f1-bf63-44a2-8176-df50744f2b5a"},"vehicle_type_id":"4","last_reported":1729595242,"current_range_meters":18800,"station_id":"ce4bhqh2rcd13ifvqhmg","pricing_plan_id":"cebpf4jnsgd1na2vs0mg"},{"bike_id":"2b502a15-caf3-41e2-bd08-1b0f91c7e988","system_id":"levelo_inurba_marseille","lat":43.23155,"lon":5.43698,"is_reserved":false,"is_disabled":false,"rental_uris":{"android":"levelo://app?vid=2b502a15-caf3-41e2-bd08-1b0f91c7e988","ios":"levelo://app?vid=2b502a15-caf3-41e2-bd08-1b0f91c7e988"},"vehicle_type_id":"4","last_reported":1729595242,"current_range_meters":4000,"station_id":"ce4bhmp2rcd13ifvqgog","pricing_plan_id":"cebpf4jnsgd1na2vs0mg"},{"bike_id":"5e9e22a8-83e6-488b-b876-d74daeb25302","system_id":"levelo_inurba_marseille","lat":43.30282,"lon":5.37707,"is_reserved":false,"is_disabled":false,"rental_uris":{"android":"levelo://app?vid=5e9e22a8-83e6-488b-b876-d74daeb25302","ios":"levelo://app?vid=5e9e22a8-83e6-488b-b876-d74daeb25302"},"vehicle_type_id":"4","last_reported":1729595242,"current_range_meters":38400,"station_id":"ce4bguh2rcd13ifvqcj0","pricing_plan_id":"cebpf4jnsgd1na2vs0mg"},{"bike_id":"f8fb7154-140d-4c99-aa65-d35e2bb96aac","system_id":"levelo_inurba_marseille","lat":43.28875,"lon":5.39298,"is_reserved":false,"is_disabled":false,"rental_uris":{"android":"levelo://app?vid=f8fb7154-140d-4c99-aa65-d35e2bb96aac","ios":"levelo://app?vid=f8fb7154-140d-4c99-aa65-d35e2bb96aac"},"vehicle_type_id":"4","last_reported":1729595242,"current_range_meters":36800,"station_id":"ce4bh2p2rcd13ifvqdi0","pricing_plan_id":"cebpf4jnsgd1na2vs0mg"},{"bike_id":"9699ba89-d974-4a94-90a8-1f137e049fa9","system_id":"levelo_inurba_marseille","lat":43.29418,"lon":5.38615,"is_reserved":false,"is_disabled":false,"rental_uris":{"android":"levelo://app?vid=9699ba89-d974-4a94-90a8-1f137e049fa9","ios":"levelo://app?vid=9699ba89-d974-4a94-90a8-1f137e049fa9"},"vehicle_type_id":"4","last_reported":1729595242,"current_range_meters":36000,"station_id":"ce4bh2h2rcd13ifvqdh0","pricing_plan_id":"cebpf4jnsgd1na2vs0mg"},{"bike_id":"382f8b74-5cc0-4ecc-aac3-cb7428397d32","system_id":"levelo_inurba_marseille","lat":43.31348,"lon":5.36707,"is_reserved":false,"is_disabled":false,"rental_uris":{"android":"levelo://app?vid=382f8b74-5cc0-4ecc-aac3-cb7428397d32","ios":"levelo://app?vid=382f8b74-5cc0-4ecc-aac3-cb7428397d32"},"vehicle_type_id":"4","last_reported":1729595242,"current_range_meters":22800,"station_id":"ce4bgr92rcd13ifvqc6g","pricing_plan_id":"cebpf4jnsgd1na2vs0mg"},{"bike_id":"10cd1eab-b7c4-4809-b16d-4cf4afc0b3c1","system_id":"levelo_inurba_marseille","lat":43.23147,"lon":5.43722,"is_reserved":false,"is_disabled":false,"rental_uris":{"android":"levelo://app?vid=10cd1eab-b7c4-4809-b16d-4cf4afc0b3c1","ios":"levelo://app?vid=10cd1eab-b7c4-4809-b16d-4cf4afc0b3c1"},"vehicle_type_id":"4","last_reported":1729595242,"current_range_meters":38800,"station_id":"ce4bhmp2rcd13ifvqgog","pricing_plan_id":"cebpf4jnsgd1na2vs0mg"},{"bike_id":"ec125df5-44cc-49b7-81e0-c522bd2ca48c","system_id":"levelo_inurba_marseille","lat":43.23152,"lon":5.43705,"is_reserved":false,"is_disabled":false,"rental_uris":{"android":"levelo://app?vid=ec125df5-44cc-49b7-81e0-c522bd2ca48c","ios":"levelo://app?vid=ec125df5-44cc-49b7-81e0-c522bd2ca48c"},"vehicle_type_id":"4","last_reported":1729595242,"current_range_meters":35200,"station_id":"ce4bhmp2rcd13ifvqgog","pricing_plan_id":"cebpf4jnsgd1na2vs0mg"},{"bike_id":"495d9b54-adef-4d33-98e0-753a1caccc4a","system_id":"levelo_inurba_marseille","lat":43.29934,"lon":5.36537,"is_reserved":false,"is_disabled":false,"rental_uris":{"android":"levelo://app?vid=495d9b54-adef-4d33-98e0-753a1caccc4a","ios":"levelo://app?vid=495d9b54-adef-4d33-98e0-753a1caccc4a"},"vehicle_type_id":"4","last_reported":1729595242,"current_range_meters":28400,"station_id":"ce4bgm92rcd13ifvqbr0","pricing_plan_id":"cebpf4jnsgd1na2vs0mg"},{"bike_id":"d8d30b00-c51f-42c1-a4bc-5be916aaba37","system_id":"levelo_inurba_marseille","lat":43.2959,"lon":5.37369,"is_reserved":false,"is_disabled":false,"rental_uris":{"android":"levelo://app?vid=d8d30b00-c51f-42c1-a4bc-5be916aaba37","ios":"levelo://app?vid=d8d30b00-c51f-42c1-a4bc-5be916aaba37"},"vehicle_type_id":"4","last_reported":1729595242,"current_range_meters":30000,"station_id":"","pricing_plan_id":"cebpf4jnsgd1na2vs0mg"},{"bike_id":"93494289-6aaa-46f1-9808-40293e880fab","system_id":"levelo_inurba_marseille","lat":43.26063,"lon":5.39393,"is_reserved":false,"is_disabled":false,"rental_uris":{"android":"levelo://app?vid=93494289-6aaa-46f1-9808-40293e880fab","ios":"levelo://app?vid=93494289-6aaa-46f1-9808-40293e880fab"},"vehicle_type_id":"4","last_reported":1729595242,"current_range_meters":30400,"station_id":"ce4bhh92rcd13ifvqfj0","pricing_plan_id":"cebpf4jnsgd1na2vs0mg"},{"bike_id":"c1fa29e9-15b0-4a3a-9fdc-9cec5b766fac","system_id":"levelo_inurba_marseille","lat":43.27847,"lon":5.39205,"is_reserved":false,"is_disabled":false,"rental_uris":{"android":"levelo://app?vid=c1fa29e9-15b0-4a3a-9fdc-9cec5b766fac","ios":"levelo://app?vid=c1fa29e9-15b0-4a3a-9fdc-9cec5b766fac"},"vehicle_type_id":"4","last_reported":1729595242,"current_range_meters":9200,"station_id":"ce4bhjp2rcd13ifvqga0","pricing_plan_id":"cebpf4jnsgd1na2vs0mg"},{"bike_id":"2ee3bd8e-364e-42ec-88c6-446081f519b2","system_id":"levelo_inurba_marseille","lat":43.25824,"lon":5.3943,"is_reserved":false,"is_disabled":false,"rental_uris":{"android":"levelo://app?vid=2ee3bd8e-364e-42ec-88c6-446081f519b2","ios":"levelo://app?vid=2ee3bd8e-364e-42ec-88c6-446081f519b2"},"vehicle_type_id":"4","last_reported":1729595242,"current_range_meters":37600,"station_id":"ce4bhip2rcd13ifvqft0","pricing_plan_id":"cebpf4jnsgd1na2vs0mg"},{"bike_id":"f5e7b89d-e871-4da2-9801-15e210469b63","system_id":"levelo_inurba_marseille","lat":43.292012,"lon":5.357978,"is_reserved":false,"is_disabled":false,"rental_uris":{"android":"levelo://app?vid=f5e7b89d-e871-4da2-9801-15e210469b63","ios":"levelo://app?vid=f5e7b89d-e871-4da2-9801-15e210469b63"},"vehicle_type_id":"4","last_reported":1729595242,"current_range_meters":10000,"station_id":"ce4bhu92rcd13ifvqi70","pricing_plan_id":"cebpf4jnsgd1na2vs0mg"},{"bike_id":"3da57d1f-70d2-4c1c-9036-d2fbffb7ae09","system_id":"levelo_inurba_marseille","lat":43.28354,"lon":5.38113,"is_reserved":false,"is_disabled":false,"rental_uris":{"android":"levelo://app?vid=3da57d1f-70d2-4c1c-9036-d2fbffb7ae09","ios":"levelo://app?vid=3da57d1f-70d2-4c1c-9036-d2fbffb7ae09"},"vehicle_type_id":"4","last_reported":1729595242,"current_range_meters":28400,"station_id":"ce4bh412rcd13ifvqdr0","pricing_plan_id":"cebpf4jnsgd1na2vs0mg"},{"bike_id":"039e03d2-1455-4471-8737-73fd6ebccb11","system_id":"levelo_inurba_marseille","lat":43.30539,"lon":5.36692,"is_reserved":false,"is_disabled":false,"rental_uris":{"android":"levelo://app?vid=039e03d2-1455-4471-8737-73fd6ebccb11","ios":"levelo://app?vid=039e03d2-1455-4471-8737-73fd6ebccb11"},"vehicle_type_id":"4","last_reported":1729595242,"current_range_meters":38800,"station_id":"ce4bgrp2rcd13ifvqc9g","pricing_plan_id":"cebpf4jnsgd1na2vs0mg"},{"bike_id":"204bdb61-24e6-493e-a18b-7132130fe028","system_id":"levelo_inurba_marseille","lat":43.298553,"lon":5.362975,"is_reserved":false,"is_disabled":false,"rental_uris":{"android":"levelo://app?vid=204bdb61-24e6-493e-a18b-7132130fe028","ios":"levelo://app?vid=204bdb61-24e6-493e-a18b-7132130fe028"},"vehicle_type_id":"4","last_reported":1729595242,"current_range_meters":36400,"station_id":"ce4bgpp2rcd13ifvqc3g","pricing_plan_id":"cebpf4jnsgd1na2vs0mg"},{"bike_id":"4d5c0c1d-ad62-4242-9ad9-41da1a27f7fe","system_id":"levelo_inurba_marseille","lat":43.29222,"lon":5.36068,"is_reserved":false,"is_disabled":false,"rental_uris":{"android":"levelo://app?vid=4d5c0c1d-ad62-4242-9ad9-41da1a27f7fe","ios":"levelo://app?vid=4d5c0c1d-ad62-4242-9ad9-41da1a27f7fe"},"vehicle_type_id":"4","last_reported":1729595242,"current_range_meters":24800,"station_id":"ce4bhbh2rcd13ifvqeqg","pricing_plan_id":"cebpf4jnsgd1na2vs0mg"},{"bike_id":"0588f660-603d-4d83-82a9-48599d58b2de","system_id":"levelo_inurba_marseille","lat":43.28618,"lon":5.351,"is_reserved":false,"is_disabled":false,"rental_uris":{"android":"levelo://app?vid=0588f660-603d-4d83-82a9-48599d58b2de","ios":"levelo://app?vid=0588f660-603d-4d83-82a9-48599d58b2de"},"vehicle_type_id":"4","last_reported":1729595242,"current_range_meters":28400,"station_id":"ce4bhch2rcd13ifvqeug","pricing_plan_id":"cebpf4jnsgd1na2vs0mg"},{"bike_id":"815dd284-1bd2-4bb9-992a-b2116e2485bc","system_id":"levelo_inurba_marseille","lat":43.32793,"lon":5.36137,"is_reserved":false,"is_disabled":false,"rental_uris":{"android":"levelo://app?vid=815dd284-1bd2-4bb9-992a-b2116e2485bc","ios":"levelo://app?vid=815dd284-1bd2-4bb9-992a-b2116e2485bc"},"vehicle_type_id":"4","last_reported":1729595242,"current_range_meters":33600,"station_id":"","pricing_plan_id":"cebpf4jnsgd1na2vs0mg"},{"bike_id":"a6becff1-00d3-47fa-8898-3ba6d7221fbe","system_id":"levelo_inurba_marseille","lat":43.23198,"lon":5.35545,"is_reserved":false,"is_disabled":false,"rental_uris":{"android":"levelo://app?vid=a6becff1-00d3-47fa-8898-3ba6d7221fbe","ios":"levelo://app?vid=a6becff1-00d3-47fa-8898-3ba6d7221fbe"},"vehicle_type_id":"4","last_reported":1729595242,"current_range_meters":36800,"station_id":"ce4bhu92rcd13ifvqi70","pricing_plan_id":"cebpf4jnsgd1na2vs0mg"},{"bike_id":"0e7de3cf-9ed8-420d-a9c5-de2a457051af","system_id":"levelo_inurba_marseille","lat":43.29429,"lon":5.38624,"is_reserved":false,"is_disabled":false,"rental_uris":{"android":"levelo://app?vid=0e7de3cf-9ed8-420d-a9c5-de2a457051af","ios":"levelo://app?vid=0e7de3cf-9ed8-420d-a9c5-de2a457051af"},"vehicle_type_id":"4","last_reported":1729595242,"current_range_meters":37600,"station_id":"ce4bh2h2rcd13ifvqdh0","pricing_plan_id":"cebpf4jnsgd1na2vs0mg"},{"bike_id":"dee0d09e-7eb5-4f6e-83a5-90719294f0fc","system_id":"levelo_inurba_marseille","lat":43.27064,"lon":5.40252,"is_reserved":false,"is_disabled":false,"rental_uris":{"android":"levelo://app?vid=dee0d09e-7eb5-4f6e-83a5-90719294f0fc","ios":"levelo://app?vid=dee0d09e-7eb5-4f6e-83a5-90719294f0fc"},"vehicle_type_id":"4","last_reported":1729595242,"current_range_meters":38400,"station_id":"ce4bhk92rcd13ifvqgc0","pricing_plan_id":"cebpf4jnsgd1na2vs0mg"},{"bike_id":"8fd5e621-75d1-49a9-a03e-d757e46c848c","system_id":"levelo_inurba_marseille","lat":43.33617,"lon":5.41027,"is_reserved":false,"is_disabled":false,"rental_uris":{"android":"levelo://app?vid=8fd5e621-75d1-49a9-a03e-d757e46c848c","ios":"levelo://app?vid=8fd5e621-75d1-49a9-a03e-d757e46c848c"},"vehicle_type_id":"4","last_reported":1729595242,"current_range_meters":31200,"station_id":"ce4bhqh2rcd13ifvqhmg","pricing_plan_id":"cebpf4jnsgd1na2vs0mg"},{"bike_id":"5a67c892-a602-4b40-977c-c1acd665d17e","system_id":"levelo_inurba_marseille","lat":43.25936,"lon":5.40913,"is_reserved":false,"is_disabled":false,"rental_uris":{"android":"levelo://app?vid=5a67c892-a602-4b40-977c-c1acd665d17e","ios":"levelo://app?vid=5a67c892-a602-4b40-977c-c1acd665d17e"},"vehicle_type_id":"4","last_reported":1729595242,"current_range_meters":22800,"station_id":"ce4bhm92rcd13ifvqglg","pricing_plan_id":"cebpf4jnsgd1na2vs0mg"},{"bike_id":"ee97773e-4ffa-41c5-817f-17d010a4f3e9","system_id":"levelo_inurba_marseille","lat":43.2549,"lon":5.37647,"is_reserved":false,"is_disabled":false,"rental_uris":{"android":"levelo://app?vid=ee97773e-4ffa-41c5-817f-17d010a4f3e9","ios":"levelo://app?vid=ee97773e-4ffa-41c5-817f-17d010a4f3e9"},"vehicle_type_id":"4","last_reported":1729595242,"current_range_meters":40000,"station_id":"ce4bhh12rcd13ifvqff0","pricing_plan_id":"cebpf4jnsgd1na2vs0mg"},{"bike_id":"1f52981c-7bb8-4af1-af37-b4a098cafcb2","system_id":"levelo_inurba_marseille","lat":43.28154,"lon":5.42647,"is_reserved":false,"is_disabled":false,"rental_uris":{"android":"levelo://app?vid=1f52981c-7bb8-4af1-af37-b4a098cafcb2","ios":"levelo://app?vid=1f52981c-7bb8-4af1-af37-b4a098cafcb2"},"vehicle_type_id":"4","last_reported":1729595242,"current_range_meters":28800,"station_id":"ce4bhnh2rcd13ifvqgug","pricing_plan_id":"cebpf4jnsgd1na2vs0mg"},{"bike_id":"1765074c-52bc-4f90-a653-3adab443fa90","system_id":"levelo_inurba_marseille","lat":43.296143,"lon":5.377283,"is_reserved":false,"is_disabled":false,"rental_uris":{"android":"levelo://app?vid=1765074c-52bc-4f90-a653-3adab443fa90","ios":"levelo://app?vid=1765074c-52bc-4f90-a653-3adab443fa90"},"vehicle_type_id":"4","last_reported":1729595242,"current_range_meters":31200,"station_id":"ce4bgi92rcd13ifvqb90","pricing_plan_id":"cebpf4jnsgd1na2vs0mg"},{"bike_id":"bf8d0617-6bef-47ca-8c84-936cfebcc97c","system_id":"levelo_inurba_marseille","lat":43.32112,"lon":5.36771,"is_reserved":false,"is_disabled":false,"rental_uris":{"android":"levelo://app?vid=bf8d0617-6bef-47ca-8c84-936cfebcc97c","ios":"levelo://app?vid=bf8d0617-6bef-47ca-8c84-936cfebcc97c"},"vehicle_type_id":"4","last_reported":1729595242,"current_range_meters":16800,"station_id":"ce4bhrh2rcd13ifvqhug","pricing_plan_id":"cebpf4jnsgd1na2vs0mg"},{"bike_id":"247afc55-df79-4e12-90a8-3bdfdc590887","system_id":"levelo_inurba_marseille","lat":43.29839,"lon":5.36265,"is_reserved":false,"is_disabled":false,"rental_uris":{"android":"levelo://app?vid=247afc55-df79-4e12-90a8-3bdfdc590887","ios":"levelo://app?vid=247afc55-df79-4e12-90a8-3bdfdc590887"},"vehicle_type_id":"4","last_reported":1729595242,"current_range_meters":39200,"station_id":"ce4bgpp2rcd13ifvqc3g","pricing_plan_id":"cebpf4jnsgd1na2vs0mg"},{"bike_id":"12466d57-7ace-42f5-8564-8203e6da2d07","system_id":"levelo_inurba_marseille","lat":43.28843,"lon":5.39314,"is_reserved":false,"is_disabled":false,"rental_uris":{"android":"levelo://app?vid=12466d57-7ace-42f5-8564-8203e6da2d07","ios":"levelo://app?vid=12466d57-7ace-42f5-8564-8203e6da2d07"},"vehicle_type_id":"4","last_reported":1729595242,"current_range_meters":26800,"station_id":"ce4bh2p2rcd13ifvqdi0","pricing_plan_id":"cebpf4jnsgd1na2vs0mg"},{"bike_id":"6f1d467d-4191-45c3-b0ff-d7188722e57f","system_id":"levelo_inurba_marseille","lat":43.27174,"lon":5.40993,"is_reserved":false,"is_disabled":false,"rental_uris":{"android":"levelo://app?vid=6f1d467d-4191-45c3-b0ff-d7188722e57f","ios":"levelo://app?vid=6f1d467d-4191-45c3-b0ff-d7188722e57f"},"vehicle_type_id":"4","last_reported":1729595242,"current_range_meters":38800,"station_id":"ce4bhl12rcd13ifvqgf0","pricing_plan_id":"cebpf4jnsgd1na2vs0mg"},{"bike_id":"5ee2a809-6067-4e7e-bf77-993d2ceab946","system_id":"levelo_inurba_marseille","lat":43.25504,"lon":5.37646,"is_reserved":false,"is_disabled":false,"rental_uris":{"android":"levelo://app?vid=5ee2a809-6067-4e7e-bf77-993d2ceab946","ios":"levelo://app?vid=5ee2a809-6067-4e7e-bf77-993d2ceab946"},"vehicle_type_id":"4","last_reported":1729595242,"current_range_meters":38800,"station_id":"ce4bhh12rcd13ifvqff0","pricing_plan_id":"cebpf4jnsgd1na2vs0mg"},{"bike_id":"7e3cb010-b5b3-478f-8b4d-4185ab46a9f4","system_id":"levelo_inurba_marseille","lat":43.31372,"lon":5.3673,"is_reserved":false,"is_disabled":false,"rental_uris":{"android":"levelo://app?vid=7e3cb010-b5b3-478f-8b4d-4185ab46a9f4","ios":"levelo://app?vid=7e3cb010-b5b3-478f-8b4d-4185ab46a9f4"},"vehicle_type_id":"4","last_reported":1729595242,"current_range_meters":34800,"station_id":"ce4bgr92rcd13ifvqc6g","pricing_plan_id":"cebpf4jnsgd1na2vs0mg"},{"bike_id":"6306bed3-0d2b-49da-95c5-973170dba4a6","system_id":"levelo_inurba_marseille","lat":43.2315,"lon":5.4372,"is_reserved":false,"is_disabled":false,"rental_uris":{"android":"levelo://app?vid=6306bed3-0d2b-49da-95c5-973170dba4a6","ios":"levelo://app?vid=6306bed3-0d2b-49da-95c5-973170dba4a6"},"vehicle_type_id":"4","last_reported":1729595242,"current_range_meters":33600,"station_id":"ce4bhmp2rcd13ifvqgog","pricing_plan_id":"cebpf4jnsgd1na2vs0mg"},{"bike_id":"ee458820-4b5f-4880-a810-7e29f4e09d82","system_id":"levelo_inurba_marseille","lat":43.31337,"lon":5.36725,"is_reserved":false,"is_disabled":false,"rental_uris":{"android":"levelo://app?vid=ee458820-4b5f-4880-a810-7e29f4e09d82","ios":"levelo://app?vid=ee458820-4b5f-4880-a810-7e29f4e09d82"},"vehicle_type_id":"4","last_reported":1729595242,"current_range_meters":12400,"station_id":"ce4bgr92rcd13ifvqc6g","pricing_plan_id":"cebpf4jnsgd1na2vs0mg"},{"bike_id":"8cdc71f0-756f-4038-b272-a8817991931a","system_id":"levelo_inurba_marseille","lat":43.25564,"lon":5.3823,"is_reserved":false,"is_disabled":false,"rental_uris":{"android":"levelo://app?vid=8cdc71f0-756f-4038-b272-a8817991931a","ios":"levelo://app?vid=8cdc71f0-756f-4038-b272-a8817991931a"},"vehicle_type_id":"4","last_reported":1729595242,"current_range_meters":10800,"station_id":"ce4bhih2rcd13ifvqfs0","pricing_plan_id":"cebpf4jnsgd1na2vs0mg"},{"bike_id":"95b3aade-194d-40a0-98d3-ef271921f201","system_id":"levelo_inurba_marseille","lat":43.337444,"lon":5.374475,"is_reserved":false,"is_disabled":false,"rental_uris":{"android":"levelo://app?vid=95b3aade-194d-40a0-98d3-ef271921f201","ios":"levelo://app?vid=95b3aade-194d-40a0-98d3-ef271921f201"},"vehicle_type_id":"4","last_reported":1729595242,"current_range_meters":23200,"station_id":"","pricing_plan_id":"cebpf4jnsgd1na2vs0mg"},{"bike_id":"ae3fcb04-be9a-4eda-86cc-c69683243e47","system_id":"levelo_inurba_marseille","lat":43.23963,"lon":5.36622,"is_reserved":false,"is_disabled":false,"rental_uris":{"android":"levelo://app?vid=ae3fcb04-be9a-4eda-86cc-c69683243e47","ios":"levelo://app?vid=ae3fcb04-be9a-4eda-86cc-c69683243e47"},"vehicle_type_id":"4","last_reported":1729595242,"current_range_meters":38000,"station_id":"ce4bhi12rcd13ifvqfp0","pricing_plan_id":"cebpf4jnsgd1na2vs0mg"},{"bike_id":"70fa5ee1-ed61-4d1d-aba9-27f2eafb4194","system_id":"levelo_inurba_marseille","lat":43.25729,"lon":5.411,"is_reserved":false,"is_disabled":false,"rental_uris":{"android":"levelo://app?vid=70fa5ee1-ed61-4d1d-aba9-27f2eafb4194","ios":"levelo://app?vid=70fa5ee1-ed61-4d1d-aba9-27f2eafb4194"},"vehicle_type_id":"4","last_reported":1729595242,"current_range_meters":6800,"station_id":"ce4bhkp2rcd13ifvqgd0","pricing_plan_id":"cebpf4jnsgd1na2vs0mg"},{"bike_id":"b5776a7e-e347-4a75-af2a-2e5964940eb8","system_id":"levelo_inurba_marseille","lat":43.28852,"lon":5.39308,"is_reserved":false,"is_disabled":false,"rental_uris":{"android":"levelo://app?vid=b5776a7e-e347-4a75-af2a-2e5964940eb8","ios":"levelo://app?vid=b5776a7e-e347-4a75-af2a-2e5964940eb8"},"vehicle_type_id":"4","last_reported":1729595242,"current_range_meters":20400,"station_id":"ce4bh2p2rcd13ifvqdi0","pricing_plan_id":"cebpf4jnsgd1na2vs0mg"},{"bike_id":"d84f61b7-92f1-4e5b-a2e5-4a1dc51f19f6","system_id":"levelo_inurba_marseille","lat":43.313447,"lon":5.367072,"is_reserved":false,"is_disabled":false,"rental_uris":{"android":"levelo://app?vid=d84f61b7-92f1-4e5b-a2e5-4a1dc51f19f6","ios":"levelo://app?vid=d84f61b7-92f1-4e5b-a2e5-4a1dc51f19f6"},"vehicle_type_id":"4","last_reported":1729595242,"current_range_meters":27600,"station_id":"ce4bgr92rcd13ifvqc6g","pricing_plan_id":"cebpf4jnsgd1na2vs0mg"},{"bike_id":"eefbe727-58c4-4b8e-9620-ff342d35dbe0","system_id":"levelo_inurba_marseille","lat":43.28423,"lon":5.34974,"is_reserved":false,"is_disabled":false,"rental_uris":{"android":"levelo://app?vid=eefbe727-58c4-4b8e-9620-ff342d35dbe0","ios":"levelo://app?vid=eefbe727-58c4-4b8e-9620-ff342d35dbe0"},"vehicle_type_id":"4","last_reported":1729595242,"current_range_meters":6400,"station_id":"ce4bhbh2rcd13ifvqepg","pricing_plan_id":"cebpf4jnsgd1na2vs0mg"},{"bike_id":"47dd2982-f62e-4a8b-81ff-eecc0bea71d7","system_id":"levelo_inurba_marseille","lat":43.33023,"lon":5.3904,"is_reserved":false,"is_disabled":false,"rental_uris":{"android":"levelo://app?vid=47dd2982-f62e-4a8b-81ff-eecc0bea71d7","ios":"levelo://app?vid=47dd2982-f62e-4a8b-81ff-eecc0bea71d7"},"vehicle_type_id":"4","last_reported":1729595242,"current_range_meters":36800,"station_id":"ce4bhr92rcd13ifvqhrg","pricing_plan_id":"cebpf4jnsgd1na2vs0mg"},{"bike_id":"04662214-3a69-4c0e-848d-7fb39900d618","system_id":"levelo_inurba_marseille","lat":43.229559,"lon":5.353968,"is_reserved":false,"is_disabled":false,"rental_uris":{"android":"levelo://app?vid=04662214-3a69-4c0e-848d-7fb39900d618","ios":"levelo://app?vid=04662214-3a69-4c0e-848d-7fb39900d618"},"vehicle_type_id":"4","last_reported":1729595242,"current_range_meters":30000,"station_id":"cpo3532slgdg3j2ikp40","pricing_plan_id":"cebpf4jnsgd1na2vs0mg"},{"bike_id":"c5857893-442c-48c0-8e95-134a1c912329","system_id":"levelo_inurba_marseille","lat":43.2816,"lon":5.42633,"is_reserved":false,"is_disabled":false,"rental_uris":{"android":"levelo://app?vid=c5857893-442c-48c0-8e95-134a1c912329","ios":"levelo://app?vid=c5857893-442c-48c0-8e95-134a1c912329"},"vehicle_type_id":"4","last_reported":1729595242,"current_range_meters":38400,"station_id":"ce4bhnh2rcd13ifvqgug","pricing_plan_id":"cebpf4jnsgd1na2vs0mg"},{"bike_id":"751d3382-d8f0-4f0a-a67e-10d700e93754","system_id":"levelo_inurba_marseille","lat":43.25936,"lon":5.40905,"is_reserved":false,"is_disabled":false,"rental_uris":{"android":"levelo://app?vid=751d3382-d8f0-4f0a-a67e-10d700e93754","ios":"levelo://app?vid=751d3382-d8f0-4f0a-a67e-10d700e93754"},"vehicle_type_id":"4","last_reported":1729595242,"current_range_meters":35600,"station_id":"ce4bhm92rcd13ifvqglg","pricing_plan_id":"cebpf4jnsgd1na2vs0mg"},{"bike_id":"ed73d99e-9629-4238-a3de-0f260c9ae761","system_id":"levelo_inurba_marseille","lat":43.24177,"lon":5.39732,"is_reserved":false,"is_disabled":false,"rental_uris":{"android":"levelo://app?vid=ed73d99e-9629-4238-a3de-0f260c9ae761","ios":"levelo://app?vid=ed73d99e-9629-4238-a3de-0f260c9ae761"},"vehicle_type_id":"4","last_reported":1729595242,"current_range_meters":38800,"station_id":"ce4bhn12rcd13ifvqgpg","pricing_plan_id":"cebpf4jnsgd1na2vs0mg"},{"bike_id":"70e45613-bebc-4cfd-9c92-b959eef49cfa","system_id":"levelo_inurba_marseille","lat":43.30438,"lon":5.38891,"is_reserved":false,"is_disabled":false,"rental_uris":{"android":"levelo://app?vid=70e45613-bebc-4cfd-9c92-b959eef49cfa","ios":"levelo://app?vid=70e45613-bebc-4cfd-9c92-b959eef49cfa"},"vehicle_type_id":"4","last_reported":1729595242,"current_range_meters":8400,"station_id":"ce4bgk12rcd13ifvqbi0","pricing_plan_id":"cebpf4jnsgd1na2vs0mg"},{"bike_id":"f9275779-8159-45c8-9d6f-75cf25195292","system_id":"levelo_inurba_marseille","lat":43.298434,"lon":5.362628,"is_reserved":false,"is_disabled":false,"rental_uris":{"android":"levelo://app?vid=f9275779-8159-45c8-9d6f-75cf25195292","ios":"levelo://app?vid=f9275779-8159-45c8-9d6f-75cf25195292"},"vehicle_type_id":"4","last_reported":1729595242,"current_range_meters":39200,"station_id":"ce4bgpp2rcd13ifvqc3g","pricing_plan_id":"cebpf4jnsgd1na2vs0mg"},{"bike_id":"14a7b680-7840-4509-b16b-1909f5b8365d","system_id":"levelo_inurba_marseille","lat":43.30433,"lon":5.38885,"is_reserved":false,"is_disabled":false,"rental_uris":{"android":"levelo://app?vid=14a7b680-7840-4509-b16b-1909f5b8365d","ios":"levelo://app?vid=14a7b680-7840-4509-b16b-1909f5b8365d"},"vehicle_type_id":"4","last_reported":1729595242,"current_range_meters":26000,"station_id":"ce4bgk12rcd13ifvqbi0","pricing_plan_id":"cebpf4jnsgd1na2vs0mg"},{"bike_id":"b4789163-6828-4a10-a9ee-82c4d843f33d","system_id":"levelo_inurba_marseille","lat":43.28157,"lon":5.42634,"is_reserved":false,"is_disabled":false,"rental_uris":{"android":"levelo://app?vid=b4789163-6828-4a10-a9ee-82c4d843f33d","ios":"levelo://app?vid=b4789163-6828-4a10-a9ee-82c4d843f33d"},"vehicle_type_id":"4","last_reported":1729595242,"current_range_meters":38800,"station_id":"ce4bhnh2rcd13ifvqgug","pricing_plan_id":"cebpf4jnsgd1na2vs0mg"},{"bike_id":"8680e141-5e1f-4031-8e88-5d9488c5de2d","system_id":"levelo_inurba_marseille","lat":43.31372,"lon":5.38493,"is_reserved":false,"is_disabled":false,"rental_uris":{"android":"levelo://app?vid=8680e141-5e1f-4031-8e88-5d9488c5de2d","ios":"levelo://app?vid=8680e141-5e1f-4031-8e88-5d9488c5de2d"},"vehicle_type_id":"4","last_reported":1729595242,"current_range_meters":6000,"station_id":"ce4bgt92rcd13ifvqcf0","pricing_plan_id":"cebpf4jnsgd1na2vs0mg"},{"bike_id":"b6514299-eec4-4895-89f1-d6a2c5bf4d8f","system_id":"levelo_inurba_marseille","lat":43.22929,"lon":5.35376,"is_reserved":false,"is_disabled":false,"rental_uris":{"android":"levelo://app?vid=b6514299-eec4-4895-89f1-d6a2c5bf4d8f","ios":"levelo://app?vid=b6514299-eec4-4895-89f1-d6a2c5bf4d8f"},"vehicle_type_id":"4","last_reported":1729595242,"current_range_meters":8400,"station_id":"cpo3532slgdg3j2ikp40","pricing_plan_id":"cebpf4jnsgd1na2vs0mg"},{"bike_id":"dab8f161-fc70-4cc3-9b85-d685b7bb8925","system_id":"levelo_inurba_marseille","lat":43.24073,"lon":5.37758,"is_reserved":false,"is_disabled":false,"rental_uris":{"android":"levelo://app?vid=dab8f161-fc70-4cc3-9b85-d685b7bb8925","ios":"levelo://app?vid=dab8f161-fc70-4cc3-9b85-d685b7bb8925"},"vehicle_type_id":"4","last_reported":1729595242,"current_range_meters":38800,"station_id":"ce4bhnp2rcd13ifvqgvg","pricing_plan_id":"cebpf4jnsgd1na2vs0mg"},{"bike_id":"94bf876f-db2f-4206-8944-c80cfa3e0c54","system_id":"levelo_inurba_marseille","lat":43.25714,"lon":5.41118,"is_reserved":false,"is_disabled":false,"rental_uris":{"android":"levelo://app?vid=94bf876f-db2f-4206-8944-c80cfa3e0c54","ios":"levelo://app?vid=94bf876f-db2f-4206-8944-c80cfa3e0c54"},"vehicle_type_id":"4","last_reported":1729595242,"current_range_meters":38800,"station_id":"ce4bhkp2rcd13ifvqgd0","pricing_plan_id":"cebpf4jnsgd1na2vs0mg"},{"bike_id":"0e18dadd-7710-4357-a9c7-411b45db0077","system_id":"levelo_inurba_marseille","lat":43.29204,"lon":5.39322,"is_reserved":false,"is_disabled":false,"rental_uris":{"android":"levelo://app?vid=0e18dadd-7710-4357-a9c7-411b45db0077","ios":"levelo://app?vid=0e18dadd-7710-4357-a9c7-411b45db0077"},"vehicle_type_id":"4","last_reported":1729595242,"current_range_meters":25600,"station_id":"ce4bh192rcd13ifvqdd0","pricing_plan_id":"cebpf4jnsgd1na2vs0mg"},{"bike_id":"61c59699-008c-48be-964c-898121c2429b","system_id":"levelo_inurba_marseille","lat":43.31998,"lon":5.38154,"is_reserved":false,"is_disabled":false,"rental_uris":{"android":"levelo://app?vid=61c59699-008c-48be-964c-898121c2429b","ios":"levelo://app?vid=61c59699-008c-48be-964c-898121c2429b"},"vehicle_type_id":"4","last_reported":1729595242,"current_range_meters":37600,"station_id":"ce4bhr12rcd13ifvqhpg","pricing_plan_id":"cebpf4jnsgd1na2vs0mg"},{"bike_id":"34c725e7-4d89-4079-b7b1-64b8c38bdf47","system_id":"levelo_inurba_marseille","lat":43.28479,"lon":5.38418,"is_reserved":false,"is_disabled":false,"rental_uris":{"android":"levelo://app?vid=34c725e7-4d89-4079-b7b1-64b8c38bdf47","ios":"levelo://app?vid=34c725e7-4d89-4079-b7b1-64b8c38bdf47"},"vehicle_type_id":"4","last_reported":1729595242,"current_range_meters":38000,"station_id":"ce4bh512rcd13ifvqe3g","pricing_plan_id":"cebpf4jnsgd1na2vs0mg"},{"bike_id":"81e4488d-b9df-4764-b508-9fca2a6674ff","system_id":"levelo_inurba_marseille","lat":43.23191,"lon":5.3555,"is_reserved":false,"is_disabled":false,"rental_uris":{"android":"levelo://app?vid=81e4488d-b9df-4764-b508-9fca2a6674ff","ios":"levelo://app?vid=81e4488d-b9df-4764-b508-9fca2a6674ff"},"vehicle_type_id":"4","last_reported":1729595242,"current_range_meters":37600,"station_id":"ce4bhu92rcd13ifvqi70","pricing_plan_id":"cebpf4jnsgd1na2vs0mg"},{"bike_id":"44550e6e-2644-4242-b698-239c03743e5c","system_id":"levelo_inurba_marseille","lat":43.23153,"lon":5.43704,"is_reserved":false,"is_disabled":false,"rental_uris":{"android":"levelo://app?vid=44550e6e-2644-4242-b698-239c03743e5c","ios":"levelo://app?vid=44550e6e-2644-4242-b698-239c03743e5c"},"vehicle_type_id":"4","last_reported":1729595242,"current_range_meters":19600,"station_id":"ce4bhmp2rcd13ifvqgog","pricing_plan_id":"cebpf4jnsgd1na2vs0mg"},{"bike_id":"23e6ca2f-6508-428f-91df-505ca4e33c4f","system_id":"levelo_inurba_marseille","lat":43.33604,"lon":5.41036,"is_reserved":false,"is_disabled":false,"rental_uris":{"android":"levelo://app?vid=23e6ca2f-6508-428f-91df-505ca4e33c4f","ios":"levelo://app?vid=23e6ca2f-6508-428f-91df-505ca4e33c4f"},"vehicle_type_id":"4","last_reported":1729595242,"current_range_meters":24400,"station_id":"ce4bhqh2rcd13ifvqhmg","pricing_plan_id":"cebpf4jnsgd1na2vs0mg"},{"bike_id":"cc7ba531-eadc-4a76-b88a-eac33527a1c8","system_id":"levelo_inurba_marseille","lat":43.31895,"lon":5.40742,"is_reserved":false,"is_disabled":false,"rental_uris":{"android":"levelo://app?vid=cc7ba531-eadc-4a76-b88a-eac33527a1c8","ios":"levelo://app?vid=cc7ba531-eadc-4a76-b88a-eac33527a1c8"},"vehicle_type_id":"4","last_reported":1729595242,"current_range_meters":10000,"station_id":"ce4bhq12rcd13ifvqhig","pricing_plan_id":"cebpf4jnsgd1na2vs0mg"},{"bike_id":"6b8eb4ff-ada7-4cc4-9697-fce41bdda252","system_id":"levelo_inurba_marseille","lat":43.31692,"lon":5.40474,"is_reserved":false,"is_disabled":false,"rental_uris":{"android":"levelo://app?vid=6b8eb4ff-ada7-4cc4-9697-fce41bdda252","ios":"levelo://app?vid=6b8eb4ff-ada7-4cc4-9697-fce41bdda252"},"vehicle_type_id":"4","last_reported":1729595242,"current_range_meters":23200,"station_id":"ce4bh012rcd13ifvqd00","pricing_plan_id":"cebpf4jnsgd1na2vs0mg"},{"bike_id":"aeca085a-a90b-48b3-9337-0a56131cd37c","system_id":"levelo_inurba_marseille","lat":43.31994,"lon":5.38153,"is_reserved":false,"is_disabled":false,"rental_uris":{"android":"levelo://app?vid=aeca085a-a90b-48b3-9337-0a56131cd37c","ios":"levelo://app?vid=aeca085a-a90b-48b3-9337-0a56131cd37c"},"vehicle_type_id":"4","last_reported":1729595242,"current_range_meters":38800,"station_id":"ce4bhr12rcd13ifvqhpg","pricing_plan_id":"cebpf4jnsgd1na2vs0mg"},{"bike_id":"033922f8-3db0-41dd-b429-b7b9d9a8d332","system_id":"levelo_inurba_marseille","lat":43.311394,"lon":5.401066,"is_reserved":false,"is_disabled":false,"rental_uris":{"android":"levelo://app?vid=033922f8-3db0-41dd-b429-b7b9d9a8d332","ios":"levelo://app?vid=033922f8-3db0-41dd-b429-b7b9d9a8d332"},"vehicle_type_id":"4","last_reported":1729595242,"current_range_meters":14400,"station_id":"ce4bh092rcd13ifvqd30","pricing_plan_id":"cebpf4jnsgd1na2vs0mg"},{"bike_id":"9b3bc4bb-e67d-4822-87fa-13738f0c27d5","system_id":"levelo_inurba_marseille","lat":43.274292,"lon":5.39418,"is_reserved":false,"is_disabled":false,"rental_uris":{"android":"levelo://app?vid=9b3bc4bb-e67d-4822-87fa-13738f0c27d5","ios":"levelo://app?vid=9b3bc4bb-e67d-4822-87fa-13738f0c27d5"},"vehicle_type_id":"4","last_reported":1729595242,"current_range_meters":30800,"station_id":"ce4bhdp2rcd13ifvqf20","pricing_plan_id":"cebpf4jnsgd1na2vs0mg"},{"bike_id":"087a7bf8-4bdf-408b-a60c-b4b0ac6d7a5a","system_id":"levelo_inurba_marseille","lat":43.32481,"lon":5.36564,"is_reserved":false,"is_disabled":false,"rental_uris":{"android":"levelo://app?vid=087a7bf8-4bdf-408b-a60c-b4b0ac6d7a5a","ios":"levelo://app?vid=087a7bf8-4bdf-408b-a60c-b4b0ac6d7a5a"},"vehicle_type_id":"4","last_reported":1729595242,"current_range_meters":39200,"station_id":"ce4bhs12rcd13ifvqhvg","pricing_plan_id":"cebpf4jnsgd1na2vs0mg"},{"bike_id":"cf9cef09-fa96-4f4d-a4c3-e5dca4c180f2","system_id":"levelo_inurba_marseille","lat":43.23149,"lon":5.43717,"is_reserved":false,"is_disabled":false,"rental_uris":{"android":"levelo://app?vid=cf9cef09-fa96-4f4d-a4c3-e5dca4c180f2","ios":"levelo://app?vid=cf9cef09-fa96-4f4d-a4c3-e5dca4c180f2"},"vehicle_type_id":"4","last_reported":1729595242,"current_range_meters":16800,"station_id":"ce4bhmp2rcd13ifvqgog","pricing_plan_id":"cebpf4jnsgd1na2vs0mg"},{"bike_id":"397b3eaa-8808-436c-b8e2-3e3c7bc36b2a","system_id":"levelo_inurba_marseille","lat":43.23153,"lon":5.43707,"is_reserved":false,"is_disabled":false,"rental_uris":{"android":"levelo://app?vid=397b3eaa-8808-436c-b8e2-3e3c7bc36b2a","ios":"levelo://app?vid=397b3eaa-8808-436c-b8e2-3e3c7bc36b2a"},"vehicle_type_id":"4","last_reported":1729595242,"current_range_meters":20800,"station_id":"ce4bhmp2rcd13ifvqgog","pricing_plan_id":"cebpf4jnsgd1na2vs0mg"},{"bike_id":"c1202558-5912-4252-85d0-5ea44a1dd5e3","system_id":"levelo_inurba_marseille","lat":43.32487,"lon":5.3656,"is_reserved":false,"is_disabled":false,"rental_uris":{"android":"levelo://app?vid=c1202558-5912-4252-85d0-5ea44a1dd5e3","ios":"levelo://app?vid=c1202558-5912-4252-85d0-5ea44a1dd5e3"},"vehicle_type_id":"4","last_reported":1729595242,"current_range_meters":39200,"station_id":"ce4bhs12rcd13ifvqhvg","pricing_plan_id":"cebpf4jnsgd1na2vs0mg"},{"bike_id":"2ffcc6a3-4fc2-4849-a2ae-d9b0cdb51aa6","system_id":"levelo_inurba_marseille","lat":43.25584,"lon":5.38228,"is_reserved":false,"is_disabled":false,"rental_uris":{"android":"levelo://app?vid=2ffcc6a3-4fc2-4849-a2ae-d9b0cdb51aa6","ios":"levelo://app?vid=2ffcc6a3-4fc2-4849-a2ae-d9b0cdb51aa6"},"vehicle_type_id":"4","last_reported":1729595242,"current_range_meters":22800,"station_id":"ce4bhih2rcd13ifvqfs0","pricing_plan_id":"cebpf4jnsgd1na2vs0mg"},{"bike_id":"fd0de0f9-7f71-4f3b-972a-54dabc3e8190","system_id":"levelo_inurba_marseille","lat":43.25729,"lon":5.41107,"is_reserved":false,"is_disabled":false,"rental_uris":{"android":"levelo://app?vid=fd0de0f9-7f71-4f3b-972a-54dabc3e8190","ios":"levelo://app?vid=fd0de0f9-7f71-4f3b-972a-54dabc3e8190"},"vehicle_type_id":"4","last_reported":1729595242,"current_range_meters":30400,"station_id":"ce4bhkp2rcd13ifvqgd0","pricing_plan_id":"cebpf4jnsgd1na2vs0mg"},{"bike_id":"ba5b5086-54df-4906-8073-d04b9f50949c","system_id":"levelo_inurba_marseille","lat":43.2828,"lon":5.35073,"is_reserved":false,"is_disabled":false,"rental_uris":{"android":"levelo://app?vid=ba5b5086-54df-4906-8073-d04b9f50949c","ios":"levelo://app?vid=ba5b5086-54df-4906-8073-d04b9f50949c"},"vehicle_type_id":"4","last_reported":1729595242,"current_range_meters":19200,"station_id":"ce4bhbp2rcd13ifvqerg","pricing_plan_id":"cebpf4jnsgd1na2vs0mg"},{"bike_id":"3f98541e-8be6-4aaf-802d-83d6f4479ef7","system_id":"levelo_inurba_marseille","lat":43.23155,"lon":5.43715,"is_reserved":false,"is_disabled":false,"rental_uris":{"android":"levelo://app?vid=3f98541e-8be6-4aaf-802d-83d6f4479ef7","ios":"levelo://app?vid=3f98541e-8be6-4aaf-802d-83d6f4479ef7"},"vehicle_type_id":"4","last_reported":1729595242,"current_range_meters":27600,"station_id":"ce4bhmp2rcd13ifvqgog","pricing_plan_id":"cebpf4jnsgd1na2vs0mg"},{"bike_id":"41c3722d-3c85-4105-a870-5c0183e08b49","system_id":"levelo_inurba_marseille","lat":43.25578,"lon":5.38228,"is_reserved":false,"is_disabled":false,"rental_uris":{"android":"levelo://app?vid=41c3722d-3c85-4105-a870-5c0183e08b49","ios":"levelo://app?vid=41c3722d-3c85-4105-a870-5c0183e08b49"},"vehicle_type_id":"4","last_reported":1729595242,"current_range_meters":38800,"station_id":"ce4bhih2rcd13ifvqfs0","pricing_plan_id":"cebpf4jnsgd1na2vs0mg"},{"bike_id":"91237214-b360-4f57-918b-1cddf363ffc0","system_id":"levelo_inurba_marseille","lat":43.26217,"lon":5.37439,"is_reserved":false,"is_disabled":false,"rental_uris":{"android":"levelo://app?vid=91237214-b360-4f57-918b-1cddf363ffc0","ios":"levelo://app?vid=91237214-b360-4f57-918b-1cddf363ffc0"},"vehicle_type_id":"4","last_reported":1729595242,"current_range_meters":27600,"station_id":"ce4bhgp2rcd13ifvqfc0","pricing_plan_id":"cebpf4jnsgd1na2vs0mg"},