{"last_updated":1700823971,"ttl":30,"version":"2.2","data":{"bikes":[{"bike_id":"6f435786-82ed-4f45-ad5d-fd75ab222eee","system_id":"levelo_inurba_marseille","lat":43.309076,"lon":5.368465,"is_reserved":false,"is_disabled":false,"rental_uris":{"android":"levelo://app?vid=6f435786-82ed-4f45-ad5d-fd75ab222eee","ios":"levelo://app?vid=6f435786-82ed-4f45-ad5d-fd75ab222eee"},"vehicle_type_id":"4","last_reported":1700823971,"current_range_meters":18800,"station_id":"ce4bgn92rcd13ifvqbvg","pricing_plan_id":"free"},{"bike_id":"aff4c4bd-c502-4122-9fa9-5e0bd2b9e2bc","system_id":"levelo_inurba_marseille","lat":43.309076,"lon":5.368465,"is_reserved":false,"is_disabled":false,"rental_uris":{"android":"levelo://app?vid=aff4c4bd-c502-4122-9fa9-5e0bd2b9e2bc","ios":"levelo://app?vid=aff4c4bd-c502-4122-9fa9-5e0bd2b9e2bc"},"vehicle_type_id":"4","last_reported":1700823971,"current_range_meters":17600,"station_id":"ce4bgn92rcd13ifvqbvg","pricing_plan_id":"free"},{"bike_id":"11430954-102b-48d5-82d0-cd4738cf5660","system_id":"levelo_inurba_marseille","lat":43.309076,"lon":5.368465,"is_reserved":false,"is_disabled":false,"rental_uris":{"android":"levelo://app?vid=11430954-102b-48d5-82d0-cd4738cf5660","ios":"levelo://app?vid=11430954-102b-48d5-82d0-cd4738cf5660"},"vehicle_type_id":"4","last_reported":1700823971,"current_range_meters":21600,"station_id":"ce4bgn92rcd13ifvqbvg","pricing_plan_id":"free"},{"bike_id":"00810fed-52b8-45f4-8fa0-a3bbadff2793","system_id":"levelo_inurba_marseille","lat":43.309076,"lon":5.368465,"is_reserved":false,"is_disabled":false,"rental_uris":{"android":"levelo://app?vid=00810fed-52b8-45f4-8fa0-a3bbadff2793","ios":"levelo://app?vid=00810fed-52b8-45f4-8fa0-a3bbadff2793"},"vehicle_type_id":"4","last_reported":1700823971,"current_range_meters":1200,"station_id":"ce4bgn92rcd13ifvqbvg","pricing_plan_id":"free"},{"bike_id":"af3840ad-30c9-4739-b07d-8645e5ded6f5","system_id":"levelo_inurba_marseille","lat":43.314811,"lon":5.373104,"is_reserved":false,"is_disabled":false,"rental_uris":{"android":"levelo://app?vid=af3840ad-30c9-4739-b07d-8645e5ded6f5","ios":"levelo://app?vid=af3840ad-30c9-4739-b07d-8645e5ded6f5"},"vehicle_type_id":"4","last_reported":1700823971,"current_range_meters":13600,"station_id":"ce4bgt12rcd13ifvqcd0","pricing_plan_id":"free"},{"bike_id":"b87c10e0-e678-4edc-b76a-14a8cf744431","system_id":"levelo_inurba_marseille","lat":43.309039,"lon":5.371797,"is_reserved":false,"is_disabled":false,"rental_uris":{"android":"levelo://app?vid=b87c10e0-e678-4edc-b76a-14a8cf744431","ios":"levelo://app?vid=b87c10e0-e678-4edc-b76a-14a8cf744431"},"vehicle_type_id":"4","last_reported":1700823971,"current_range_meters":31600,"station_id":"ce4bguh2rcd13ifvqckg","pricing_plan_id":"free"},{"bike_id":"8f9bf6a5-7c47-40d6-a779-9e46f0c42e49","system_id":"levelo_inurba_marseille","lat":43.309039,"lon":5.371797,"is_reserved":false,"is_disabled":false,"rental_uris":{"android":"levelo://app?vid=8f9bf6a5-7c47-40d6-a779-9e46f0c42e49","ios":"levelo://app?vid=8f9bf6a5-7c47-40d6-a779-9e46f0c42e49"},"vehicle_type_id":"4","last_reported":1700823971,"current_range_meters":5200,"station_id":"ce4bguh2rcd13ifvqckg","pricing_plan_id":"free"},{"bike_id":"54d7a0db-d096-41d7-a75e-41ccd5466c4b","system_id":"levelo_inurba_marseille","lat":43.309039,"lon":5.371797,"is_reserved":false,"is_disabled":false,"rental_uris":{"android":"levelo://app?vid=54d7a0db-d096-41d7-a75e-41ccd5466c4b","ios":"levelo://app?vid=54d7a0db-d096-41d7-a75e-41ccd5466c4b"},"vehicle_type_id":"4","last_reported":1700823971,"current_range_meters":0,"station_id":"ce4bguh2rcd13ifvqckg","pricing_plan_id":"free"},{"bike_id":"630a1bf5-3ea9-4e60-aa8d-fd106442c32b","system_id":"levelo_inurba_marseille","lat":43.30546,"lon":5.36701,"is_reserved":false,"is_disabled":false,"rental_uris":{"android":"levelo://app?vid=630a1bf5-3ea9-4e60-aa8d-fd106442c32b","ios":"levelo://app?vid=630a1bf5-3ea9-4e60-aa8d-fd106442c32b"},"vehicle_type_id":"4","last_reported":1700823971,"current_range_meters":22400,"station_id":"ce4bgrp2rcd13ifvqc9g","pricing_plan_id":"free"},{"bike_id":"8bc23b3e-7620-4590-91f5-766628ef04bd","system_id":"levelo_inurba_marseille","lat":43.305368,"lon":5.367343,"is_reserved":false,"is_disabled":false,"rental_uris":{"android":"levelo://app?vid=8bc23b3e-7620-4590-91f5-766628ef04bd","ios":"levelo://app?vid=8bc23b3e-7620-4590-91f5-766628ef04bd"},"vehicle_type_id":"4","last_reported":1700823971,"current_range_meters":25200,"station_id":"ce4bgrp2rcd13ifvqc9g","pricing_plan_id":"free"},{"bike_id":"77eeb088-e463-4b29-80a5-8b7eb4a58a7b","system_id":"levelo_inurba_marseille","lat":43.305714,"lon":5.365633,"is_reserved":false,"is_disabled":false,"rental_uris":{"android":"levelo://app?vid=77eeb088-e463-4b29-80a5-8b7eb4a58a7b","ios":"levelo://app?vid=77eeb088-e463-4b29-80a5-8b7eb4a58a7b"},"vehicle_type_id":"4","last_reported":1700823971,"current_range_meters":31200,"station_id":"ce4bgs12rcd13ifvqcag","pricing_plan_id":"free"},{"bike_id":"51205c9b-3d27-46a9-8ca6-b4c68ad7cc5c","system_id":"levelo_inurba_marseille","lat":43.305714,"lon":5.365633,"is_reserved":false,"is_disabled":false,"rental_uris":{"android":"levelo://app?vid=51205c9b-3d27-46a9-8ca6-b4c68ad7cc5c","ios":"levelo://app?vid=51205c9b-3d27-46a9-8ca6-b4c68ad7cc5c"},"vehicle_type_id":"4","last_reported":1700823971,"current_range_meters":31600,"station_id":"ce4bgs12rcd13ifvqcag","pricing_plan_id":"free"},{"bike_id":"c72bc89d-1dfb-4def-815b-6026950c5a6e","system_id":"levelo_inurba_marseille","lat":43.305714,"lon":5.365633,"is_reserved":false,"is_disabled":false,"rental_uris":{"android":"levelo://app?vid=c72bc89d-1dfb-4def-815b-6026950c5a6e","ios":"levelo://app?vid=c72bc89d-1dfb-4def-815b-6026950c5a6e"},"vehicle_type_id":"4","last_reported":1700823971,"current_range_meters":27600,"station_id":"ce4bgs12rcd13ifvqcag","pricing_plan_id":"free"},{"bike_id":"d261a666-0af6-49ad-a053-028d0de6affc","system_id":"levelo_inurba_marseille","lat":43.305706,"lon":5.365654,"is_reserved":false,"is_disabled":false,"rental_uris":{"android":"levelo://app?vid=d261a666-0af6-49ad-a053-028d0de6affc","ios":"levelo://app?vid=d261a666-0af6-49ad-a053-028d0de6affc"},"vehicle_type_id":"4","last_reported":1700823971,"current_range_meters":2000,"station_id":"ce4bgs12rcd13ifvqcag","pricing_plan_id":"free"},{"bike_id":"03aeff45-7844-4d47-acd1-8af45330d1a1","system_id":"levelo_inurba_marseille","lat":43.305714,"lon":5.365633,"is_reserved":false,"is_disabled":false,"rental_uris":{"android":"levelo://app?vid=03aeff45-7844-4d47-acd1-8af45330d1a1","ios":"levelo://app?vid=03aeff45-7844-4d47-acd1-8af45330d1a1"},"vehicle_type_id":"4","last_reported":1700823971,"current_range_meters":19600,"station_id":"ce4bgs12rcd13ifvqcag","pricing_plan_id":"free"},{"bike_id":"b6dd5827-2613-44d3-acca-f7f13454348b","system_id":"levelo_inurba_marseille","lat":43.305356,"lon":5.366936,"is_reserved":false,"is_disabled":false,"rental_uris":{"android":"levelo://app?vid=b6dd5827-2613-44d3-acca-f7f13454348b","ios":"levelo://app?vid=b6dd5827-2613-44d3-acca-f7f13454348b"},"vehicle_type_id":"4","last_reported":1700823971,"current_range_meters":28000,"station_id":"ce4bgrp2rcd13ifvqc9g","pricing_plan_id":"free"},{"bike_id":"80b45c8b-c4fc-40e1-ac23-7604546e37bc","system_id":"levelo_inurba_marseille","lat":43.305714,"lon":5.365633,"is_reserved":false,"is_disabled":false,"rental_uris":{"android":"levelo://app?vid=80b45c8b-c4fc-40e1-ac23-7604546e37bc","ios":"levelo://app?vid=80b45c8b-c4fc-40e1-ac23-7604546e37bc"},"vehicle_type_id":"4","last_reported":1700823971,"current_range_meters":31200,"station_id":"ce4bgs12rcd13ifvqcag","pricing_plan_id":"free"},{"bike_id":"fe67b6cd-6da7-452b-a5aa-333b57ed9e58","system_id":"levelo_inurba_marseille","lat":43.30534,"lon":5.36702,"is_reserved":false,"is_disabled":false,"rental_uris":{"android":"levelo://app?vid=fe67b6cd-6da7-452b-a5aa-333b57ed9e58","ios":"levelo://app?vid=fe67b6cd-6da7-452b-a5aa-333b57ed9e58"},"vehicle_type_id":"4","last_reported":1700823971,"current_range_meters":0,"station_id":"ce4bgrp2rcd13ifvqc9g","pricing_plan_id":"free"},{"bike_id":"f8867632-c836-458f-8bd0-ffad506867e9","system_id":"levelo_inurba_marseille","lat":43.30533,"lon":5.36694,"is_reserved":false,"is_disabled":false,"rental_uris":{"android":"levelo://app?vid=f8867632-c836-458f-8bd0-ffad506867e9","ios":"levelo://app?vid=f8867632-c836-458f-8bd0-ffad506867e9"},"vehicle_type_id":"4","last_reported":1700823971,"current_range_meters":21200,"station_id":"ce4bgrp2rcd13ifvqc9g","pricing_plan_id":"free"},{"bike_id":"84fe0fec-ebb1-4d39-ae17-190a98ce8faa","system_id":"levelo_inurba_marseille","lat":43.305706,"lon":5.365654,"is_reserved":false,"is_disabled":false,"rental_uris":{"android":"levelo://app?vid=84fe0fec-ebb1-4d39-ae17-190a98ce8faa","ios":"levelo://app?vid=84fe0fec-ebb1-4d39-ae17-190a98ce8faa"},"vehicle_type_id":"4","last_reported":1700823971,"current_range_meters":14000,"station_id":"ce4bgs12rcd13ifvqcag","pricing_plan_id":"free"},{"bike_id":"c7ba5f8c-cc62-4f9a-89ab-e3da034dc7ff","system_id":"levelo_inurba_marseille","lat":43.305706,"lon":5.365654,"is_reserved":false,"is_disabled":false,"rental_uris":{"android":"levelo://app?vid=c7ba5f8c-cc62-4f9a-89ab-e3da034dc7ff","ios":"levelo://app?vid=c7ba5f8c-cc62-4f9a-89ab-e3da034dc7ff"},"vehicle_type_id":"4","last_reported":1700823971,"current_range_meters":19200,"station_id":"ce4bgs12rcd13ifvqcag","pricing_plan_id":"free"},{"bike_id":"3c6eb6ff-9b97-4b2e-9a32-71cdca41a3d8","system_id":"levelo_inurba_marseille","lat":43.305706,"lon":5.365654,"is_reserved":false,"is_disabled":false,"rental_uris":{"android":"levelo://app?vid=3c6eb6ff-9b97-4b2e-9a32-71cdca41a3d8","ios":"levelo://app?vid=3c6eb6ff-9b97-4b2e-9a32-71cdca41a3d8"},"vehicle_type_id":"4","last_reported":1700823971,"current_range_meters":23200,"station_id":"ce4bgs12rcd13ifvqcag","pricing_plan_id":"free"},{"bike_id":"96ac710a-2f89-445b-a8a2-87b8049cee9b","system_id":"levelo_inurba_marseille","lat":43.305706,"lon":5.365654,"is_reserved":false,"is_disabled":false,"rental_uris":{"android":"levelo://app?vid=96ac710a-2f89-445b-a8a2-87b8049cee9b","ios":"levelo://app?vid=96ac710a-2f89-445b-a8a2-87b8049cee9b"},"vehicle_type_id":"4","last_reported":1700823971,"current_range_meters":15200,"station_id":"ce4bgs12rcd13ifvqcag","pricing_plan_id":"free"},{"bike_id":"0ef3453b-8808-4c4d-aacc-8409d819dd63","system_id":"levelo_inurba_marseille","lat":43.305706,"lon":5.365654,"is_reserved":false,"is_disabled":false,"rental_uris":{"android":"levelo://app?vid=0ef3453b-8808-4c4d-aacc-8409d819dd63","ios":"levelo://app?vid=0ef3453b-8808-4c4d-aacc-8409d819dd63"},"vehicle_type_id":"4","last_reported":1700823971,"current_range_meters":19600,"station_id":"ce4bgs12rcd13ifvqcag","pricing_plan_id":"free"},{"bike_id":"a864e621-fb78-488f-8f4f-1165f8d80b90","system_id":"levelo_inurba_marseille","lat":43.305714,"lon":5.365633,"is_reserved":false,"is_disabled":false,"rental_uris":{"android":"levelo://app?vid=a864e621-fb78-488f-8f4f-1165f8d80b90","ios":"levelo://app?vid=a864e621-fb78-488f-8f4f-1165f8d80b90"},"vehicle_type_id":"4","last_reported":1700823971,"current_range_meters":28000,"station_id":"ce4bgs12rcd13ifvqcag","pricing_plan_id":"free"},{"bike_id":"c33b5814-86af-45e8-98bd-4c5dde85bb45","system_id":"levelo_inurba_marseille","lat":43.305706,"lon":5.365654,"is_reserved":false,"is_disabled":false,"rental_uris":{"android":"levelo://app?vid=c33b5814-86af-45e8-98bd-4c5dde85bb45","ios":"levelo://app?vid=c33b5814-86af-45e8-98bd-4c5dde85bb45"},"vehicle_type_id":"4","last_reported":1700823971,"current_range_meters":5200,"station_id":"ce4bgs12rcd13ifvqcag","pricing_plan_id":"free"},{"bike_id":"376f46c3-12b8-4f91-b585-eec80acac1b6","system_id":"levelo_inurba_marseille","lat":43.3053,"lon":5.36699,"is_reserved":false,"is_disabled":false,"rental_uris":{"android":"levelo://app?vid=376f46c3-12b8-4f91-b585-eec80acac1b6","ios":"levelo://app?vid=376f46c3-12b8-4f91-b585-eec80acac1b6"},"vehicle_type_id":"4","last_reported":1700823971,"current_range_meters":16800,"station_id":"ce4bgrp2rcd13ifvqc9g","pricing_plan_id":"free"},{"bike_id":"e72d5dbe-d923-4a6c-96ab-dbe9156e538f","system_id":"levelo_inurba_marseille","lat":43.305706,"lon":5.365654,"is_reserved":false,"is_disabled":false,"rental_uris":{"android":"levelo://app?vid=e72d5dbe-d923-4a6c-96ab-dbe9156e538f","ios":"levelo://app?vid=e72d5dbe-d923-4a6c-96ab-dbe9156e538f"},"vehicle_type_id":"4","last_reported":1700823971,"current_range_meters":31600,"station_id":"ce4bgs12rcd13ifvqcag","pricing_plan_id":"free"},{"bike_id":"43bf5cf6-ac0a-4035-9884-61a3aec3d997","system_id":"levelo_inurba_marseille","lat":43.305706,"lon":5.365654,"is_reserved":false,"is_disabled":false,"rental_uris":{"android":"levelo://app?vid=43bf5cf6-ac0a-4035-9884-61a3aec3d997","ios":"levelo://app?vid=43bf5cf6-ac0a-4035-9884-61a3aec3d997"},"vehicle_type_id":"4","last_reported":1700823971,"current_range_meters":31200,"station_id":"ce4bgs12rcd13ifvqcag","pricing_plan_id":"free"},{"bike_id":"af14356b-0d40-4f84-9f3f-b9b25a083254","system_id":"levelo_inurba_marseille","lat":43.30599,"lon":5.37208,"is_reserved":false,"is_disabled":false,"rental_uris":{"android":"levelo://app?vid=af14356b-0d40-4f84-9f3f-b9b25a083254","ios":"levelo://app?vid=af14356b-0d40-4f84-9f3f-b9b25a083254"},"vehicle_type_id":"4","last_reported":1700823971,"current_range_meters":28800,"station_id":"ce4bgqh2rcd13ifvqc4g","pricing_plan_id":"free"},{"bike_id":"5432ebe5-659a-45a0-a8e1-89d3238e7a59","system_id":"levelo_inurba_marseille","lat":43.30313,"lon":5.3691,"is_reserved":false,"is_disabled":false,"rental_uris":{"android":"levelo://app?vid=5432ebe5-659a-45a0-a8e1-89d3238e7a59","ios":"levelo://app?vid=5432ebe5-659a-45a0-a8e1-89d3238e7a59"},"vehicle_type_id":"4","last_reported":1700823971,"current_range_meters":12800,"station_id":"ce4bgqh2rcd13ifvqc5g","pricing_plan_id":"free"},{"bike_id":"9553ef10-334b-4da0-a580-e61c22f99185","system_id":"levelo_inurba_marseille","lat":43.315383,"lon":5.380318,"is_reserved":false,"is_disabled":false,"rental_uris":{"android":"levelo://app?vid=9553ef10-334b-4da0-a580-e61c22f99185","ios":"levelo://app?vid=9553ef10-334b-4da0-a580-e61c22f99185"},"vehicle_type_id":"4","last_reported":1700823971,"current_range_meters":18400,"station_id":"ce4bhsp2rcd13ifvqi50","pricing_plan_id":"free"},{"bike_id":"58b9db9e-cec2-4522-9c35-8f71f51e9786","system_id":"levelo_inurba_marseille","lat":43.301939,"lon":5.366286,"is_reserved":false,"is_disabled":false,"rental_uris":{"android":"levelo://app?vid=58b9db9e-cec2-4522-9c35-8f71f51e9786","ios":"levelo://app?vid=58b9db9e-cec2-4522-9c35-8f71f51e9786"},"vehicle_type_id":"4","last_reported":1700823971,"current_range_meters":31200,"station_id":"ce4bgrh2rcd13ifvqc8g","pricing_plan_id":"free"},{"bike_id":"fc7c0b88-6df5-49c8-b265-a489a5aa4516","system_id":"levelo_inurba_marseille","lat":43.30797,"lon":5.38149,"is_reserved":false,"is_disabled":false,"rental_uris":{"android":"levelo://app?vid=fc7c0b88-6df5-49c8-b265-a489a5aa4516","ios":"levelo://app?vid=fc7c0b88-6df5-49c8-b265-a489a5aa4516"},"vehicle_type_id":"4","last_reported":1700823971,"current_range_meters":0,"station_id":"ce4bgt12rcd13ifvqce0","pricing_plan_id":"free"},{"bike_id":"6c33d7b2-b690-4a82-9eb7-99e529aea7bb","system_id":"levelo_inurba_marseille","lat":43.304606,"lon":5.379026,"is_reserved":false,"is_disabled":false,"rental_uris":{"android":"levelo://app?vid=6c33d7b2-b690-4a82-9eb7-99e529aea7bb","ios":"levelo://app?vid=6c33d7b2-b690-4a82-9eb7-99e529aea7bb"},"vehicle_type_id":"4","last_reported":1700823971,"current_range_meters":12800,"station_id":"ce4bgup2rcd13ifvqcn0","pricing_plan_id":"free"},{"bike_id":"3cc588c1-91ba-43b9-87cd-f7aec3eeff2b","system_id":"levelo_inurba_marseille","lat":43.304606,"lon":5.379026,"is_reserved":false,"is_disabled":false,"rental_uris":{"android":"levelo://app?vid=3cc588c1-91ba-43b9-87cd-f7aec3eeff2b","ios":"levelo://app?vid=3cc588c1-91ba-43b9-87cd-f7aec3eeff2b"},"vehicle_type_id":"4","last_reported":1700823971,"current_range_meters":26400,"station_id":"ce4bgup2rcd13ifvqcn0","pricing_plan_id":"free"},{"bike_id":"7710a3f6-8f08-420c-ba13-b511ccf07c42","system_id":"levelo_inurba_marseille","lat":43.304606,"lon":5.379026,"is_reserved":false,"is_disabled":false,"rental_uris":{"android":"levelo://app?vid=7710a3f6-8f08-420c-ba13-b511ccf07c42","ios":"levelo://app?vid=7710a3f6-8f08-420c-ba13-b511ccf07c42"},"vehicle_type_id":"4","last_reported":1700823971,"current_range_meters":0,"station_id":"ce4bgup2rcd13ifvqcn0","pricing_plan_id":"free"},{"bike_id":"6d71daa4-85d9-49d8-990b-2f1af9061919","system_id":"levelo_inurba_marseille","lat":43.30148,"lon":5.37415,"is_reserved":false,"is_disabled":false,"rental_uris":{"android":"levelo://app?vid=6d71daa4-85d9-49d8-990b-2f1af9061919","ios":"levelo://app?vid=6d71daa4-85d9-49d8-990b-2f1af9061919"},"vehicle_type_id":"4","last_reported":1700823971,"current_range_meters":0,"station_id":"ce4bgs92rcd13ifvqcc0","pricing_plan_id":"free"},{"bike_id":"778aabc7-a73f-4374-ae4b-57979182e5eb","system_id":"levelo_inurba_marseille","lat":43.30143,"lon":5.37413,"is_reserved":false,"is_disabled":false,"rental_uris":{"android":"levelo://app?vid=778aabc7-a73f-4374-ae4b-57979182e5eb","ios":"levelo://app?vid=778aabc7-a73f-4374-ae4b-57979182e5eb"},"vehicle_type_id":"4","last_reported":1700823971,"current_range_meters":4000,"station_id":"ce4bgs92rcd13ifvqcc0","pricing_plan_id":"free"},{"bike_id":"ddcd8fb5-e6f9-4509-b663-a5f016a9be0b","system_id":"levelo_inurba_marseille","lat":43.319935,"lon":5.381699,"is_reserved":false,"is_disabled":false,"rental_uris":{"android":"levelo://app?vid=ddcd8fb5-e6f9-4509-b663-a5f016a9be0b","ios":"levelo://app?vid=ddcd8fb5-e6f9-4509-b663-a5f016a9be0b"},"vehicle_type_id":"4","last_reported":1700823971,"current_range_meters":4000,"station_id":"ce4bhr12rcd13ifvqhpg","pricing_plan_id":"free"},{"bike_id":"9e5e861a-da7a-45de-bcab-61b7e0e26aab","system_id":"levelo_inurba_marseille","lat":43.31992,"lon":5.38162,"is_reserved":false,"is_disabled":false,"rental_uris":{"android":"levelo://app?vid=9e5e861a-da7a-45de-bcab-61b7e0e26aab","ios":"levelo://app?vid=9e5e861a-da7a-45de-bcab-61b7e0e26aab"},"vehicle_type_id":"4","last_reported":1700823971,"current_range_meters":22000,"station_id":"ce4bhr12rcd13ifvqhpg","pricing_plan_id":"free"},{"bike_id":"b6705d20-8f66-4b8e-8a1c-03bf1738533b","system_id":"levelo_inurba_marseille","lat":43.313571,"lon":5.384829,"is_reserved":false,"is_disabled":false,"rental_uris":{"android":"levelo://app?vid=b6705d20-8f66-4b8e-8a1c-03bf1738533b","ios":"levelo://app?vid=b6705d20-8f66-4b8e-8a1c-03bf1738533b"},"vehicle_type_id":"4","last_reported":1700823971,"current_range_meters":22000,"station_id":"ce4bgt92rcd13ifvqcf0","pricing_plan_id":"free"},{"bike_id":"b35d98a3-9c0d-4bc9-b7aa-dab5b52650cb","system_id":"levelo_inurba_marseille","lat":43.30202,"lon":5.38044,"is_reserved":false,"is_disabled":false,"rental_uris":{"android":"levelo://app?vid=b35d98a3-9c0d-4bc9-b7aa-dab5b52650cb","ios":"levelo://app?vid=b35d98a3-9c0d-4bc9-b7aa-dab5b52650cb"},"vehicle_type_id":"4","last_reported":1700823971,"current_range_meters":12800,"station_id":"","pricing_plan_id":"free"},{"bike_id":"c3045614-1eb8-488d-add5-337dc82beb2c","system_id":"levelo_inurba_marseille","lat":43.298433,"lon":5.362774,"is_reserved":false,"is_disabled":false,"rental_uris":{"android":"levelo://app?vid=c3045614-1eb8-488d-add5-337dc82beb2c","ios":"levelo://app?vid=c3045614-1eb8-488d-add5-337dc82beb2c"},"vehicle_type_id":"4","last_reported":1700823971,"current_range_meters":22000,"station_id":"ce4bgpp2rcd13ifvqc3g","pricing_plan_id":"free"},{"bike_id":"1ba5c8de-e936-41b2-8dca-123b562ed684","system_id":"levelo_inurba_marseille","lat":43.298433,"lon":5.362774,"is_reserved":false,"is_disabled":false,"rental_uris":{"android":"levelo://app?vid=1ba5c8de-e936-41b2-8dca-123b562ed684","ios":"levelo://app?vid=1ba5c8de-e936-41b2-8dca-123b562ed684"},"vehicle_type_id":"4","last_reported":1700823971,"current_range_meters":28400,"station_id":"ce4bgpp2rcd13ifvqc3g","pricing_plan_id":"free"},{"bike_id":"34f9450d-8e76-4cd5-8eb6-029526ed7aec","system_id":"levelo_inurba_marseille","lat":43.299243,"lon":5.37481,"is_reserved":false,"is_disabled":false,"rental_uris":{"android":"levelo://app?vid=34f9450d-8e76-4cd5-8eb6-029526ed7aec","ios":"levelo://app?vid=34f9450d-8e76-4cd5-8eb6-029526ed7aec"},"vehicle_type_id":"4","last_reported":1700823971,"current_range_meters":24000,"station_id":"ce4bgjh2rcd13ifvqbg0","pricing_plan_id":"free"},{"bike_id":"205da1f2-319c-429a-86b5-1662ebc97818","system_id":"levelo_inurba_marseille","lat":43.311722,"lon":5.387247,"is_reserved":false,"is_disabled":false,"rental_uris":{"android":"levelo://app?vid=205da1f2-319c-429a-86b5-1662ebc97818","ios":"levelo://app?vid=205da1f2-319c-429a-86b5-1662ebc97818"},"vehicle_type_id":"4","last_reported":1700823971,"current_range_meters":5600,"station_id":"ce4bgv12rcd13ifvqcp0","pricing_plan_id":"free"},{"bike_id":"71b2d789-e8e5-4e84-be31-d831e0c8514c","system_id":"levelo_inurba_marseille","lat":43.297794,"lon":5.370888,"is_reserved":false,"is_disabled":false,"rental_uris":{"android":"levelo://app?vid=71b2d789-e8e5-4e84-be31-d831e0c8514c","ios":"levelo://app?vid=71b2d789-e8e5-4e84-be31-d831e0c8514c"},"vehicle_type_id":"4","last_reported":1700823971,"current_range_meters":16000,"station_id":"ce4bgop2rcd13ifvqc1g","pricing_plan_id":"free"},{"bike_id":"57f07daa-f979-41b2-bf81-49ff7a829b2a","system_id":"levelo_inurba_marseille","lat":43.322848,"lon":5.3826,"is_reserved":false,"is_disabled":false,"rental_uris":{"android":"levelo://app?vid=57f07daa-f979-41b2-bf81-49ff7a829b2a","ios":"levelo://app?vid=57f07daa-f979-41b2-bf81-49ff7a829b2a"},"vehicle_type_id":"4","last_reported":1700823971,"current_range_meters":7200,"station_id":"ce4bhr12rcd13ifvqhqg","pricing_plan_id":"free"},{"bike_id":"8eccf735-9f13-4d66-89ee-04a7bf59eec2","system_id":"levelo_inurba_marseille","lat":43.322872,"lon":5.382756,"is_reserved":false,"is_disabled":false,"rental_uris":{"android":"levelo://app?vid=8eccf735-9f13-4d66-89ee-04a7bf59eec2","ios":"levelo://app?vid=8eccf735-9f13-4d66-89ee-04a7bf59eec2"},"vehicle_type_id":"4","last_reported":1700823971,"current_range_meters":31600,"station_id":"ce4bhr12rcd13ifvqhqg","pricing_plan_id":"free"},{"bike_id":"487f708b-82ea-4eaf-b232-fbc4b24ddab5","system_id":"levelo_inurba_marseille","lat":43.322872,"lon":5.382756,"is_reserved":false,"is_disabled":false,"rental_uris":{"android":"levelo://app?vid=487f708b-82ea-4eaf-b232-fbc4b24ddab5","ios":"levelo://app?vid=487f708b-82ea-4eaf-b232-fbc4b24ddab5"},"vehicle_type_id":"4","last_reported":1700823971,"current_range_meters":27600,"station_id":"ce4bhr12rcd13ifvqhqg","pricing_plan_id":"free"},{"bike_id":"8c0dfeec-db05-4e2b-b859-6249803048bc","system_id":"levelo_inurba_marseille","lat":43.297163,"lon":5.365866,"is_reserved":false,"is_disabled":false,"rental_uris":{"android":"levelo://app?vid=8c0dfeec-db05-4e2b-b859-6249803048bc","ios":"levelo://app?vid=8c0dfeec-db05-4e2b-b859-6249803048bc"},"vehicle_type_id":"4","last_reported":1700823971,"current_range_meters":27600,"station_id":"ce4bgn12rcd13ifvqbt0","pricing_plan_id":"free"},{"bike_id":"c89cade2-e67c-487a-ac47-609658bb176e","system_id":"levelo_inurba_marseille","lat":43.297163,"lon":5.365866,"is_reserved":false,"is_disabled":false,"rental_uris":{"android":"levelo://app?vid=c89cade2-e67c-487a-ac47-609658bb176e","ios":"levelo://app?vid=c89cade2-e67c-487a-ac47-609658bb176e"},"vehicle_type_id":"4","last_reported":1700823971,"current_range_meters":28000,"station_id":"ce4bgn12rcd13ifvqbt0","pricing_plan_id":"free"},{"bike_id":"4d7509f5-9559-42ca-a60d-bef9e80f0981","system_id":"levelo_inurba_marseille","lat":43.299576,"lon":5.379151,"is_reserved":false,"is_disabled":false,"rental_uris":{"android":"levelo://app?vid=4d7509f5-9559-42ca-a60d-bef9e80f0981","ios":"levelo://app?vid=4d7509f5-9559-42ca-a60d-bef9e80f0981"},"vehicle_type_id":"4","last_reported":1700823971,"current_range_meters":0,"station_id":"","pricing_plan_id":"free"},{"bike_id":"70ccd700-de3b-4b61-9b8d-286a32eed3f6","system_id":"levelo_inurba_marseille","lat":43.29573,"lon":5.367355,"is_reserved":false,"is_disabled":false,"rental_uris":{"android":"levelo://app?vid=70ccd700-de3b-4b61-9b8d-286a32eed3f6","ios":"levelo://app?vid=70ccd700-de3b-4b61-9b8d-286a32eed3f6"},"vehicle_type_id":"4","last_reported":1700823971,"current_range_meters":24000,"station_id":"ce4bgph2rcd13ifvqc2g","pricing_plan_id":"free"},{"bike_id":"f950440e-18b4-40bc-a1c8-2dd81a70e72d","system_id":"levelo_inurba_marseille","lat":43.29573,"lon":5.367355,"is_reserved":false,"is_disabled":false,"rental_uris":{"android":"levelo://app?vid=f950440e-18b4-40bc-a1c8-2dd81a70e72d","ios":"levelo://app?vid=f950440e-18b4-40bc-a1c8-2dd81a70e72d"},"vehicle_type_id":"4","last_reported":1700823971,"current_range_meters":26400,"station_id":"ce4bgph2rcd13ifvqc2g","pricing_plan_id":"free"},{"bike_id":"5733243b-f660-48cd-889a-61ae82f9f001","system_id":"levelo_inurba_marseille","lat":43.305714,"lon":5.365633,"is_reserved":false,"is_disabled":false,"rental_uris":{"android":"levelo://app?vid=5733243b-f660-48cd-889a-61ae82f9f001","ios":"levelo://app?vid=5733243b-f660-48cd-889a-61ae82f9f001"},"vehicle_type_id":"4","last_reported":1700823971,"current_range_meters":18400,"station_id":"ce4bgs12rcd13ifvqcag","pricing_plan_id":"free"},{"bike_id":"e870a805-2fbd-40ae-aeb8-108dc772ed5d","system_id":"levelo_inurba_marseille","lat":43.31759,"lon":5.390258,"is_reserved":false,"is_disabled":false,"rental_uris":{"android":"levelo://app?vid=e870a805-2fbd-40ae-aeb8-108dc772ed5d","ios":"levelo://app?vid=e870a805-2fbd-40ae-aeb8-108dc772ed5d"},"vehicle_type_id":"4","last_reported":1700823971,"current_range_meters":0,"station_id":"ce4bhqp2rcd13ifvqhng","pricing_plan_id":"free"},{"bike_id":"ed297489-0dee-492b-a5bf-31b71729d592","system_id":"levelo_inurba_marseille","lat":43.295748,"lon":5.37522,"is_reserved":false,"is_disabled":false,"rental_uris":{"android":"levelo://app?vid=ed297489-0dee-492b-a5bf-31b71729d592","ios":"levelo://app?vid=ed297489-0dee-492b-a5bf-31b71729d592"},"vehicle_type_id":"4","last_reported":1700823971,"current_range_meters":0,"station_id":"ce4bgh92rcd13ifvqb50","pricing_plan_id":"free"},{"bike_id":"5b736aca-063b-4e50-a4f2-24c35743e5e9","system_id":"levelo_inurba_marseille","lat":43.29596,"lon":5.37727,"is_reserved":false,"is_disabled":false,"rental_uris":{"android":"levelo://app?vid=5b736aca-063b-4e50-a4f2-24c35743e5e9","ios":"levelo://app?vid=5b736aca-063b-4e50-a4f2-24c35743e5e9"},"vehicle_type_id":"4","last_reported":1700823971,"current_range_meters":19600,"station_id":"ce4bgi92rcd13ifvqb90","pricing_plan_id":"free"},{"bike_id":"3343097e-1ed6-4fab-b521-f8a7f986cbf7","system_id":"levelo_inurba_marseille","lat":43.295321,"lon":5.375079,"is_reserved":false,"is_disabled":false,"rental_uris":{"android":"levelo://app?vid=3343097e-1ed6-4fab-b521-f8a7f986cbf7","ios":"levelo://app?vid=3343097e-1ed6-4fab-b521-f8a7f986cbf7"},"vehicle_type_id":"4","last_reported":1700823971,"current_range_meters":0,"station_id":"ce4bgkp2rcd13ifvqbmg","pricing_plan_id":"free"},{"bike_id":"40651570-2caa-481e-83f2-ed9b577fc84a","system_id":"levelo_inurba_marseille","lat":43.323317,"lon":5.388783,"is_reserved":false,"is_disabled":false,"rental_uris":{"android":"levelo://app?vid=40651570-2caa-481e-83f2-ed9b577fc84a","ios":"levelo://app?vid=40651570-2caa-481e-83f2-ed9b577fc84a"},"vehicle_type_id":"4","last_reported":1700823971,"current_range_meters":13200,"station_id":"","pricing_plan_id":"free"},{"bike_id":"6b621983-5e9e-42f7-990d-ad5a093820d2","system_id":"levelo_inurba_marseille","lat":43.293801,"lon":5.363066,"is_reserved":false,"is_disabled":false,"rental_uris":{"android":"levelo://app?vid=6b621983-5e9e-42f7-990d-ad5a093820d2","ios":"levelo://app?vid=6b621983-5e9e-42f7-990d-ad5a093820d2"},"vehicle_type_id":"4","last_reported":1700823971,"current_range_meters":4800,"station_id":"","pricing_plan_id":"free"},{"bike_id":"8771057f-7f8c-4b17-a4ab-a4bf167482a7","system_id":"levelo_inurba_marseille","lat":43.29602,"lon":5.381084,"is_reserved":false,"is_disabled":false,"rental_uris":{"android":"levelo://app?vid=8771057f-7f8c-4b17-a4ab-a4bf167482a7","ios":"levelo://app?vid=8771057f-7f8c-4b17-a4ab-a4bf167482a7"},"vehicle_type_id":"4","last_reported":1700823971,"current_range_meters":19600,"station_id":"ce4bgl12rcd13ifvqbo0","pricing_plan_id":"free"},{"bike_id":"4f4e05cd-7e88-4ca0-a752-91e2aa2ae27c","system_id":"levelo_inurba_marseille","lat":43.29267,"lon":5.368488,"is_reserved":false,"is_disabled":false,"rental_uris":{"android":"levelo://app?vid=4f4e05cd-7e88-4ca0-a752-91e2aa2ae27c","ios":"levelo://app?vid=4f4e05cd-7e88-4ca0-a752-91e2aa2ae27c"},"vehicle_type_id":"4","last_reported":1700823971,"current_range_meters":0,"station_id":"ce4bhbp2rcd13ifvqesg","pricing_plan_id":"free"},{"bike_id":"6b919d53-83d4-44a0-bdea-360f89516826","system_id":"levelo_inurba_marseille","lat":43.293009,"lon":5.374584,"is_reserved":false,"is_disabled":false,"rental_uris":{"android":"levelo://app?vid=6b919d53-83d4-44a0-bdea-360f89516826","ios":"levelo://app?vid=6b919d53-83d4-44a0-bdea-360f89516826"},"vehicle_type_id":"4","last_reported":1700823971,"current_range_meters":25200,"station_id":"ce4bgi12rcd13ifvqb70","pricing_plan_id":"free"},{"bike_id":"64ac2589-9cc4-45fc-b1c6-8d8ac911a38c","system_id":"levelo_inurba_marseille","lat":43.293009,"lon":5.374584,"is_reserved":false,"is_disabled":false,"rental_uris":{"android":"levelo://app?vid=64ac2589-9cc4-45fc-b1c6-8d8ac911a38c","ios":"levelo://app?vid=64ac2589-9cc4-45fc-b1c6-8d8ac911a38c"},"vehicle_type_id":"4","last_reported":1700823971,"current_range_meters":11600,"station_id":"ce4bgi12rcd13ifvqb70","pricing_plan_id":"free"},{"bike_id":"efa4174d-0fa4-4d8a-a5a8-b854c09f3a39","system_id":"levelo_inurba_marseille","lat":43.303002,"lon":5.392142,"is_reserved":false,"is_disabled":false,"rental_uris":{"android":"levelo://app?vid=efa4174d-0fa4-4d8a-a5a8-b854c09f3a39","ios":"levelo://app?vid=efa4174d-0fa4-4d8a-a5a8-b854c09f3a39"},"vehicle_type_id":"4","last_reported":1700823971,"current_range_meters":18400,"station_id":"ce4bgkh2rcd13ifvqbk0","pricing_plan_id":"free"},{"bike_id":"6c2f3b02-3356-48bb-8e9b-24b9c1ad4658","system_id":"levelo_inurba_marseille","lat":43.291994,"lon":5.357886,"is_reserved":false,"is_disabled":false,"rental_uris":{"android":"levelo://app?vid=6c2f3b02-3356-48bb-8e9b-24b9c1ad4658","ios":"levelo://app?vid=6c2f3b02-3356-48bb-8e9b-24b9c1ad4658"},"vehicle_type_id":"4","last_reported":1700823971,"current_range_meters":26800,"station_id":"ce4bhb12rcd13ifvqel0","pricing_plan_id":"free"},{"bike_id":"5399efe5-02f1-4f13-b05f-16aeb8728e71","system_id":"levelo_inurba_marseille","lat":43.291994,"lon":5.357886,"is_reserved":false,"is_disabled":false,"rental_uris":{"android":"levelo://app?vid=5399efe5-02f1-4f13-b05f-16aeb8728e71","ios":"levelo://app?vid=5399efe5-02f1-4f13-b05f-16aeb8728e71"},"vehicle_type_id":"4","last_reported":1700823971,"current_range_meters":14400,"station_id":"ce4bhb12rcd13ifvqel0","pricing_plan_id":"free"},{"bike_id":"c788470f-e730-4d13-8e54-36e143798ea1","system_id":"levelo_inurba_marseille","lat":43.309038,"lon":5.396546,"is_reserved":false,"is_disabled":false,"rental_uris":{"android":"levelo://app?vid=c788470f-e730-4d13-8e54-36e143798ea1","ios":"levelo://app?vid=c788470f-e730-4d13-8e54-36e143798ea1"},"vehicle_type_id":"4","last_reported":1700823971,"current_range_meters":15600,"station_id":"ce4bh012rcd13ifvqcv0","pricing_plan_id":"free"},{"bike_id":"1d10a1b1-d55f-4279-928a-9c6858f32ca9","system_id":"levelo_inurba_marseille","lat":43.33211,"lon":5.38112,"is_reserved":false,"is_disabled":false,"rental_uris":{"android":"levelo://app?vid=1d10a1b1-d55f-4279-928a-9c6858f32ca9","ios":"levelo://app?vid=1d10a1b1-d55f-4279-928a-9c6858f32ca9"},"vehicle_type_id":"4","last_reported":1700823971,"current_range_meters":0,"station_id":"","pricing_plan_id":"free"},{"bike_id":"6b9d746d-f26d-49ef-ba7c-94133606c667","system_id":"levelo_inurba_marseille","lat":43.287184,"lon":5.37937,"is_reserved":false,"is_disabled":false,"rental_uris":{"android":"levelo://app?vid=6b9d746d-f26d-49ef-ba7c-94133606c667","ios":"levelo://app?vid=6b9d746d-f26d-49ef-ba7c-94133606c667"},"vehicle_type_id":"4","last_reported":1700823971,"current_range_meters":30400,"station_id":"ce4bh9p2rcd13ifvqec0","pricing_plan_id":"free"},{"bike_id":"ce039f16-a61d-4043-98f6-8b11158e11d0","system_id":"levelo_inurba_marseille","lat":43.304296,"lon":5.397513,"is_reserved":false,"is_disabled":false,"rental_uris":{"android":"levelo://app?vid=ce039f16-a61d-4043-98f6-8b11158e11d0","ios":"levelo://app?vid=ce039f16-a61d-4043-98f6-8b11158e11d0"},"vehicle_type_id":"4","last_reported":1700823971,"current_range_meters":23600,"station_id":"ce4bh092rcd13ifvqd20","pricing_plan_id":"free"},{"bike_id":"d6318797-0a9e-4fac-ada8-12bdbe8a7253","system_id":"levelo_inurba_marseille","lat":43.30429,"lon":5.39748,"is_reserved":false,"is_disabled":false,"rental_uris":{"android":"levelo://app?vid=d6318797-0a9e-4fac-ada8-12bdbe8a7253","ios":"levelo://app?vid=d6318797-0a9e-4fac-ada8-12bdbe8a7253"},"vehicle_type_id":"4","last_reported":1700823971,"current_range_meters":8400,"station_id":"","pricing_plan_id":"free"},{"bike_id":"4f080e12-3419-4997-bd7e-b716121d92a2","system_id":"levelo_inurba_marseille","lat":43.33042,"lon":5.38922,"is_reserved":false,"is_disabled":false,"rental_uris":{"android":"levelo://app?vid=4f080e12-3419-4997-bd7e-b716121d92a2","ios":"levelo://app?vid=4f080e12-3419-4997-bd7e-b716121d92a2"},"vehicle_type_id":"4","last_reported":1700823971,"current_range_meters":0,"station_id":"ce4bhr92rcd13ifvqhrg","pricing_plan_id":"free"},{"bike_id":"00b27867-4327-4c38-959e-a8de1aa95b6a","system_id":"levelo_inurba_marseille","lat":43.290995,"lon":5.381361,"is_reserved":false,"is_disabled":false,"rental_uris":{"android":"levelo://app?vid=00b27867-4327-4c38-959e-a8de1aa95b6a","ios":"levelo://app?vid=00b27867-4327-4c38-959e-a8de1aa95b6a"},"vehicle_type_id":"4","last_reported":1700823971,"current_range_meters":20000,"station_id":"ce4bh512rcd13ifvqe2g","pricing_plan_id":"free"},{"bike_id":"e51d66c7-c6d2-4b37-b158-610e545f52f3","system_id":"levelo_inurba_marseille","lat":43.290995,"lon":5.381361,"is_reserved":false,"is_disabled":false,"rental_uris":{"android":"levelo://app?vid=e51d66c7-c6d2-4b37-b158-610e545f52f3","ios":"levelo://app?vid=e51d66c7-c6d2-4b37-b158-610e545f52f3"},"vehicle_type_id":"4","last_reported":1700823971,"current_range_meters":5200,"station_id":"ce4bh512rcd13ifvqe2g","pricing_plan_id":"free"},{"bike_id":"4ba1eb1d-8937-4b39-87b5-d8a97fe12e7c","system_id":"levelo_inurba_marseille","lat":43.2953,"lon":5.3903,"is_reserved":false,"is_disabled":false,"rental_uris":{"android":"levelo://app?vid=4ba1eb1d-8937-4b39-87b5-d8a97fe12e7c","ios":"levelo://app?vid=4ba1eb1d-8937-4b39-87b5-d8a97fe12e7c"},"vehicle_type_id":"4","last_reported":1700823971,"current_range_meters":15200,"station_id":"ce4bh3p2rcd13ifvqdp0","pricing_plan_id":"free"},{"bike_id":"fd61fe0b-891e-43b4-91c9-9cf76de14d5f","system_id":"levelo_inurba_marseille","lat":43.289741,"lon":5.378306,"is_reserved":false,"is_disabled":false,"rental_uris":{"android":"levelo://app?vid=fd61fe0b-891e-43b4-91c9-9cf76de14d5f","ios":"levelo://app?vid=fd61fe0b-891e-43b4-91c9-9cf76de14d5f"},"vehicle_type_id":"4","last_reported":1700823971,"current_range_meters":29200,"station_id":"ce4bh9p2rcd13ifvqed0","pricing_plan_id":"free"},{"bike_id":"d3c941cd-6ed1-4480-bb97-a01097cd794d","system_id":"levelo_inurba_marseille","lat":43.309371,"lon":5.401449,"is_reserved":false,"is_disabled":false,"rental_uris":{"android":"levelo://app?vid=d3c941cd-6ed1-4480-bb97-a01097cd794d","ios":"levelo://app?vid=d3c941cd-6ed1-4480-bb97-a01097cd794d"},"vehicle_type_id":"4","last_reported":1700823971,"current_range_meters":21600,"station_id":"ce4bgvp2rcd13ifvqct0","pricing_plan_id":"free"},{"bike_id":"4b9242e9-c82d-4005-be33-16c81127e4c0","system_id":"levelo_inurba_marseille","lat":43.31277,"lon":5.40177,"is_reserved":false,"is_disabled":false,"rental_uris":{"android":"levelo://app?vid=4b9242e9-c82d-4005-be33-16c81127e4c0","ios":"levelo://app?vid=4b9242e9-c82d-4005-be33-16c81127e4c0"},"vehicle_type_id":"4","last_reported":1700823971,"current_range_meters":20400,"station_id":"ce4bh092rcd13ifvqd30","pricing_plan_id":"free"},{"bike_id":"037a665a-4817-447f-9a55-509b1a6ef50e","system_id":"levelo_inurba_marseille","lat":43.30642,"lon":5.401031,"is_reserved":false,"is_disabled":false,"rental_uris":{"android":"levelo://app?vid=037a665a-4817-447f-9a55-509b1a6ef50e","ios":"levelo://app?vid=037a665a-4817-447f-9a55-509b1a6ef50e"},"vehicle_type_id":"4","last_reported":1700823971,"current_range_meters":9200,"station_id":"ce4bh112rcd13ifvqda0","pricing_plan_id":"free"},{"bike_id":"8a944ca3-873d-4217-9b02-09942465cc71","system_id":"levelo_inurba_marseille","lat":43.295196,"lon":5.39397,"is_reserved":false,"is_disabled":false,"rental_uris":{"android":"levelo://app?vid=8a944ca3-873d-4217-9b02-09942465cc71","ios":"levelo://app?vid=8a944ca3-873d-4217-9b02-09942465cc71"},"vehicle_type_id":"4","last_reported":1700823971,"current_range_meters":6400,"station_id":"ce4bh292rcd13ifvqdf0","pricing_plan_id":"free"},{"bike_id":"4fbabab4-81c6-404b-abff-c7a02e5e1b2e","system_id":"levelo_inurba_marseille","lat":43.289307,"lon":5.38406,"is_reserved":false,"is_disabled":false,"rental_uris":{"android":"levelo://app?vid=4fbabab4-81c6-404b-abff-c7a02e5e1b2e","ios":"levelo://app?vid=4fbabab4-81c6-404b-abff-c7a02e5e1b2e"},"vehicle_type_id":"4","last_reported":1700823971,"current_range_meters":22800,"station_id":"ce4bh612rcd13ifvqe6g","pricing_plan_id":"free"},{"bike_id":"35f3ec96-509a-4d1d-8302-7797827aa0ac","system_id":"levelo_inurba_marseille","lat":43.30252,"lon":5.40065,"is_reserved":false,"is_disabled":false,"rental_uris":{"android":"levelo://app?vid=35f3ec96-509a-4d1d-8302-7797827aa0ac","ios":"levelo://app?vid=35f3ec96-509a-4d1d-8302-7797827aa0ac"},"vehicle_type_id":"4","last_reported":1700823971,"current_range_meters":20800,"station_id":"ce4bgvh2rcd13ifvqcs0","pricing_plan_id":"free"},{"bike_id":"a9224cb7-5453-4df4-a648-87cd048f71a5","system_id":"levelo_inurba_marseille","lat":43.3336,"lon":5.39069,"is_reserved":false,"is_disabled":false,"rental_uris":{"android":"levelo://app?vid=a9224cb7-5453-4df4-a648-87cd048f71a5","ios":"levelo://app?vid=a9224cb7-5453-4df4-a648-87cd048f71a5"},"vehicle_type_id":"4","last_reported":1700823971,"current_range_meters":0,"station_id":"","pricing_plan_id":"free"},{"bike_id":"48ae417d-f39a-418f-a25a-58f1121b5a78","system_id":"levelo_inurba_marseille","lat":43.287185,"lon":5.379373,"is_reserved":false,"is_disabled":false,"rental_uris":{"android":"levelo://app?vid=48ae417d-f39a-418f-a25a-58f1121b5a78","ios":"levelo://app?vid=48ae417d-f39a-418f-a25a-58f1121b5a78"},"vehicle_type_id":"4","last_reported":1700823971,"current_range_meters":24000,"station_id":"ce4bh9p2rcd13ifvqec0","pricing_plan_id":"free"},{"bike_id":"d14cd9f7-531b-464e-9c84-1fbc4cc3adf7","system_id":"levelo_inurba_marseille","lat":43.287185,"lon":5.379373,"is_reserved":false,"is_disabled":false,"rental_uris":{"android":"levelo://app?vid=d14cd9f7-531b-464e-9c84-1fbc4cc3adf7","ios":"levelo://app?vid=d14cd9f7-531b-464e-9c84-1fbc4cc3adf7"},"vehicle_type_id":"4","last_reported":1700823971,"current_range_meters":28400,"station_id":"ce4bh9p2rcd13ifvqec0","pricing_plan_id":"free"},{"bike_id":"ae03644d-03e7-4491-8c2b-ae64ddf5aaf0","system_id":"levelo_inurba_marseille","lat":43.28463,"lon":5.35893,"is_reserved":false,"is_disabled":false,"rental_uris":{"android":"levelo://app?vid=ae03644d-03e7-4491-8c2b-ae64ddf5aaf0","ios":"levelo://app?vid=ae03644d-03e7-4491-8c2b-ae64ddf5aaf0"},"vehicle_type_id":"4","last_reported":1700823971,"current_range_meters":11200,"station_id":"ce4bhah2rcd13ifvqei0","pricing_plan_id":"free"},{"bike_id":"0055fe8b-8d91-490c-b6b7-db608e0213f0","system_id":"levelo_inurba_marseille","lat":43.288577,"lon":5.393036,"is_reserved":false,"is_disabled":false,"rental_uris":{"android":"levelo://app?vid=0055fe8b-8d91-490c-b6b7-db608e0213f0","ios":"levelo://app?vid=0055fe8b-8d91-490c-b6b7-db608e0213f0"},"vehicle_type_id":"4","last_reported":1700823971,"current_range_meters":24800,"station_id":"ce4bh2p2rcd13ifvqdi0","pricing_plan_id":"free"},{"bike_id":"62220d81-32ce-494b-96e6-3c4da0d448e7","system_id":"levelo_inurba_marseille","lat":43.28849,"lon":5.39298,"is_reserved":false,"is_disabled":false,"rental_uris":{"android":"levelo://app?vid=62220d81-32ce-494b-96e6-3c4da0d448e7","ios":"levelo://app?vid=62220d81-32ce-494b-96e6-3c4da0d448e7"},"vehicle_type_id":"4","last_reported":1700823971,"current_range_meters":27200,"station_id":"ce4bh2p2rcd13ifvqdi0","pricing_plan_id":"free"},{"bike_id":"24ac2225-36bf-4418-aaf9-fb87bb26bfee","system_id":"levelo_inurba_marseille","lat":43.28846,"lon":5.39321,"is_reserved":false,"is_disabled":false,"rental_uris":{"android":"levelo://app?vid=24ac2225-36bf-4418-aaf9-fb87bb26bfee","ios":"levelo://app?vid=24ac2225-36bf-4418-aaf9-fb87bb26bfee"},"vehicle_type_id":"4","last_reported":1700823971,"current_range_meters":30400,"station_id":"ce4bh2p2rcd13ifvqdi0","pricing_plan_id":"free"},{"bike_id":"a8e28406-0bcc-4ecf-970d-69100a0545c1","system_id":"levelo_inurba_marseille","lat":43.288501,"lon":5.393087,"is_reserved":false,"is_disabled":false,"rental_uris":{"android":"levelo://app?vid=a8e28406-0bcc-4ecf-970d-69100a0545c1","ios":"levelo://app?vid=a8e28406-0bcc-4ecf-970d-69100a0545c1"},"vehicle_type_id":"4","last_reported":1700823971,"current_range_meters":31200,"station_id":"ce4bh2p2rcd13ifvqdi0","pricing_plan_id":"free"},{"bike_id":"23d5f627-ecc4-4209-a0a6-94250a91d723","system_id":"levelo_inurba_marseille","lat":43.283498,"lon":5.380948,"is_reserved":false,"is_disabled":false,"rental_uris":{"android":"levelo://app?vid=23d5f627-ecc4-4209-a0a6-94250a91d723","ios":"levelo://app?vid=23d5f627-ecc4-4209-a0a6-94250a91d723"},"vehicle_type_id":"4","last_reported":1700823971,"current_range_meters":26400,"station_id":"ce4bh412rcd13ifvqdr0","pricing_plan_id":"free"},{"bike_id":"fd5e7bbe-6d7e-4e79-8bc6-97345f8100b5","system_id":"levelo_inurba_marseille","lat":43.284217,"lon":5.349697,"is_reserved":false,"is_disabled":false,"rental_uris":{"android":"levelo://app?vid=fd5e7bbe-6d7e-4e79-8bc6-97345f8100b5","ios":"levelo://app?vid=fd5e7bbe-6d7e-4e79-8bc6-97345f8100b5"},"vehicle_type_id":"4","last_reported":1700823971,"current_range_meters":26400,"station_id":"ce4bhbh2rcd13ifvqepg","pricing_plan_id":"free"},{"bike_id":"b7a5e512-a51b-44d6-bbd0-089fc3c184b1","system_id":"levelo_inurba_marseille","lat":43.283502,"lon":5.386471,"is_reserved":false,"is_disabled":false,"rental_uris":{"android":"levelo://app?vid=b7a5e512-a51b-44d6-bbd0-089fc3c184b1","ios":"levelo://app?vid=b7a5e512-a51b-44d6-bbd0-089fc3c184b1"},"vehicle_type_id":"4","last_reported":1700823971,"current_range_meters":9600,"station_id":"ce4bh492rcd13ifvqdvg","pricing_plan_id":"free"},{"bike_id":"e2284003-4e46-4e0a-93e7-73d05c3666d9","system_id":"levelo_inurba_marseille","lat":43.33479,"lon":5.39788,"is_reserved":false,"is_disabled":false,"rental_uris":{"android":"levelo://app?vid=e2284003-4e46-4e0a-93e7-73d05c3666d9","ios":"levelo://app?vid=e2284003-4e46-4e0a-93e7-73d05c3666d9"},"vehicle_type_id":"4","last_reported":1700823971,"current_range_meters":24800,"station_id":"","pricing_plan_id":"free"},{"bike_id":"b4bc6c19-20e6-4b1e-b989-40d4ba171e93","system_id":"levelo_inurba_marseille","lat":43.33528,"lon":5.39761,"is_reserved":false,"is_disabled":false,"rental_uris":{"android":"levelo://app?vid=b4bc6c19-20e6-4b1e-b989-40d4ba171e93","ios":"levelo://app?vid=b4bc6c19-20e6-4b1e-b989-40d4ba171e93"},"vehicle_type_id":"4","last_reported":1700823971,"current_range_meters":6000,"station_id":"","pricing_plan_id":"free"},{"bike_id":"11128761-6914-49db-a417-29528d7b7f60","system_id":"levelo_inurba_marseille","lat":43.282754,"lon":5.350519,"is_reserved":false,"is_disabled":false,"rental_uris":{"android":"levelo://app?vid=11128761-6914-49db-a417-29528d7b7f60","ios":"levelo://app?vid=11128761-6914-49db-a417-29528d7b7f60"},"vehicle_type_id":"4","last_reported":1700823971,"current_range_meters":30800,"station_id":"ce4bhbp2rcd13ifvqerg","pricing_plan_id":"free"},{"bike_id":"20771b68-858f-4c8c-ae0c-2e209df0d9b4","system_id":"levelo_inurba_marseille","lat":43.282754,"lon":5.350519,"is_reserved":false,"is_disabled":false,"rental_uris":{"android":"levelo://app?vid=20771b68-858f-4c8c-ae0c-2e209df0d9b4","ios":"levelo://app?vid=20771b68-858f-4c8c-ae0c-2e209df0d9b4"},"vehicle_type_id":"4","last_reported":1700823971,"current_range_meters":23200,"station_id":"ce4bhbp2rcd13ifvqerg","pricing_plan_id":"free"},{"bike_id":"46b70b12-2573-4b43-af1f-cf56a2d87519","system_id":"levelo_inurba_marseille","lat":43.283502,"lon":5.386471,"is_reserved":false,"is_disabled":false,"rental_uris":{"android":"levelo://app?vid=46b70b12-2573-4b43-af1f-cf56a2d87519","ios":"levelo://app?vid=46b70b12-2573-4b43-af1f-cf56a2d87519"},"vehicle_type_id":"4","last_reported":1700823971,"current_range_meters":20400,"station_id":"ce4bh492rcd13ifvqdvg","pricing_plan_id":"free"},{"bike_id":"3ca99ecf-22cd-4e6b-9bfe-fd89c58e266f","system_id":"levelo_inurba_marseille","lat":43.282744,"lon":5.350533,"is_reserved":false,"is_disabled":false,"rental_uris":{"android":"levelo://app?vid=3ca99ecf-22cd-4e6b-9bfe-fd89c58e266f","ios":"levelo://app?vid=3ca99ecf-22cd-4e6b-9bfe-fd89c58e266f"},"vehicle_type_id":"4","last_reported":1700823971,"current_range_meters":800,"station_id":"ce4bhbp2rcd13ifvqerg","pricing_plan_id":"free"},{"bike_id":"a5324fb0-5aeb-4cba-93f1-8490730f3e0d","system_id":"levelo_inurba_marseille","lat":43.283502,"lon":5.386471,"is_reserved":false,"is_disabled":false,"rental_uris":{"android":"levelo://app?vid=a5324fb0-5aeb-4cba-93f1-8490730f3e0d","ios":"levelo://app?vid=a5324fb0-5aeb-4cba-93f1-8490730f3e0d"},"vehicle_type_id":"4","last_reported":1700823971,"current_range_meters":18400,"station_id":"ce4bh492rcd13ifvqdvg","pricing_plan_id":"free"},{"bike_id":"d2c7e673-47dd-4512-ab28-23d7e9f0f87e","system_id":"levelo_inurba_marseille","lat":43.282744,"lon":5.350533,"is_reserved":false,"is_disabled":false,"rental_uris":{"android":"levelo://app?vid=d2c7e673-47dd-4512-ab28-23d7e9f0f87e","ios":"levelo://app?vid=d2c7e673-47dd-4512-ab28-23d7e9f0f87e"},"vehicle_type_id":"4","last_reported":1700823971,"current_range_meters":22800,"station_id":"ce4bhbp2rcd13ifvqerg","pricing_plan_id":"free"},{"bike_id":"9ae98469-6aee-44c5-817f-ee1c8f6904f7","system_id":"levelo_inurba_marseille","lat":43.281044,"lon":5.378308,"is_reserved":false,"is_disabled":false,"rental_uris":{"android":"levelo://app?vid=9ae98469-6aee-44c5-817f-ee1c8f6904f7","ios":"levelo://app?vid=9ae98469-6aee-44c5-817f-ee1c8f6904f7"},"vehicle_type_id":"4","last_reported":1700823971,"current_range_meters":5200,"station_id":"ce4bha12rcd13ifvqee0","pricing_plan_id":"free"},{"bike_id":"0794b95e-a104-460c-b3c9-2d3dd783cdd9","system_id":"levelo_inurba_marseille","lat":43.296263,"lon":5.40601,"is_reserved":false,"is_disabled":false,"rental_uris":{"android":"levelo://app?vid=0794b95e-a104-460c-b3c9-2d3dd783cdd9","ios":"levelo://app?vid=0794b95e-a104-460c-b3c9-2d3dd783cdd9"},"vehicle_type_id":"4","last_reported":1700823971,"current_range_meters":12400,"station_id":"ce4bh0h2rcd13ifvqd60","pricing_plan_id":"free"},{"bike_id":"5de45e7e-42bc-4fd8-9d52-80f700812aa8","system_id":"levelo_inurba_marseille","lat":43.326605,"lon":5.409903,"is_reserved":false,"is_disabled":false,"rental_uris":{"android":"levelo://app?vid=5de45e7e-42bc-4fd8-9d52-80f700812aa8","ios":"levelo://app?vid=5de45e7e-42bc-4fd8-9d52-80f700812aa8"},"vehicle_type_id":"4","last_reported":1700823971,"current_range_meters":20000,"station_id":"ce4bhpp2rcd13ifvqhgg","pricing_plan_id":"free"},{"bike_id":"e8997d84-e9e0-4aaa-a76a-c6d2af7271c7","system_id":"levelo_inurba_marseille","lat":43.298788,"lon":5.410338,"is_reserved":false,"is_disabled":false,"rental_uris":{"android":"levelo://app?vid=e8997d84-e9e0-4aaa-a76a-c6d2af7271c7","ios":"levelo://app?vid=e8997d84-e9e0-4aaa-a76a-c6d2af7271c7"},"vehicle_type_id":"4","last_reported":1700823971,"current_range_meters":0,"station_id":"","pricing_plan_id":"free"},{"bike_id":"f8c7dd16-9a7a-4b2b-a788-81f6dd0e28d4","system_id":"levelo_inurba_marseille","lat":43.320045,"lon":5.415046,"is_reserved":false,"is_disabled":false,"rental_uris":{"android":"levelo://app?vid=f8c7dd16-9a7a-4b2b-a788-81f6dd0e28d4","ios":"levelo://app?vid=f8c7dd16-9a7a-4b2b-a788-81f6dd0e28d4"},"vehicle_type_id":"4","last_reported":1700823971,"current_range_meters":26000,"station_id":"ce4bhq92rcd13ifvqhkg","pricing_plan_id":"free"},{"bike_id":"62385713-a080-4f2c-b02f-8b6e0cf437e1","system_id":"levelo_inurba_marseille","lat":43.279742,"lon":5.38744,"is_reserved":false,"is_disabled":false,"rental_uris":{"android":"levelo://app?vid=62385713-a080-4f2c-b02f-8b6e0cf437e1","ios":"levelo://app?vid=62385713-a080-4f2c-b02f-8b6e0cf437e1"},"vehicle_type_id":"4","last_reported":1700823971,"current_range_meters":7200,"station_id":"ce4bhg12rcd13ifvqf80","pricing_plan_id":"free"},{"bike_id":"35253c89-6d7f-42eb-9f82-6bf6b9eeb837","system_id":"levelo_inurba_marseille","lat":43.279742,"lon":5.38744,"is_reserved":false,"is_disabled":false,"rental_uris":{"android":"levelo://app?vid=35253c89-6d7f-42eb-9f82-6bf6b9eeb837","ios":"levelo://app?vid=35253c89-6d7f-42eb-9f82-6bf6b9eeb837"},"vehicle_type_id":"4","last_reported":1700823971,"current_range_meters":26400,"station_id":"ce4bhg12rcd13ifvqf80","pricing_plan_id":"free"},{"bike_id":"16645d12-ab58-41d3-ad31-9beb80f180f9","system_id":"levelo_inurba_marseille","lat":43.292571,"lon":5.409107,"is_reserved":false,"is_disabled":false,"rental_uris":{"android":"levelo://app?vid=16645d12-ab58-41d3-ad31-9beb80f180f9","ios":"levelo://app?vid=16645d12-ab58-41d3-ad31-9beb80f180f9"},"vehicle_type_id":"4","last_reported":1700823971,"current_range_meters":24800,"station_id":"ce4bh192rcd13ifvqdc0","pricing_plan_id":"free"},{"bike_id":"65c97768-f4e2-4b8f-bd9c-9a94ef447617","system_id":"levelo_inurba_marseille","lat":43.292571,"lon":5.409107,"is_reserved":false,"is_disabled":false,"rental_uris":{"android":"levelo://app?vid=65c97768-f4e2-4b8f-bd9c-9a94ef447617","ios":"levelo://app?vid=65c97768-f4e2-4b8f-bd9c-9a94ef447617"},"vehicle_type_id":"4","last_reported":1700823971,"current_range_meters":16800,"station_id":"ce4bh192rcd13ifvqdc0","pricing_plan_id":"free"},{"bike_id":"a954200a-e694-4ead-9ad3-420e90b99780","system_id":"levelo_inurba_marseille","lat":43.29252,"lon":5.40908,"is_reserved":false,"is_disabled":false,"rental_uris":{"android":"levelo://app?vid=a954200a-e694-4ead-9ad3-420e90b99780","ios":"levelo://app?vid=a954200a-e694-4ead-9ad3-420e90b99780"},"vehicle_type_id":"4","last_reported":1700823971,"current_range_meters":0,"station_id":"ce4bh192rcd13ifvqdc0","pricing_plan_id":"free"},{"bike_id":"380bea03-66b9-494a-9d3c-ad0da1c35a22","system_id":"levelo_inurba_marseille","lat":43.29367,"lon":5.412611,"is_reserved":false,"is_disabled":false,"rental_uris":{"android":"levelo://app?vid=380bea03-66b9-494a-9d3c-ad0da1c35a22","ios":"levelo://app?vid=380bea03-66b9-494a-9d3c-ad0da1c35a22"},"vehicle_type_id":"4","last_reported":1700823971,"current_range_meters":0,"station_id":"","pricing_plan_id":"free"},{"bike_id":"f6c15380-cafc-427a-9bcf-39416391da88","system_id":"levelo_inurba_marseille","lat":43.275625,"lon":5.384392,"is_reserved":false,"is_disabled":false,"rental_uris":{"android":"levelo://app?vid=f6c15380-cafc-427a-9bcf-39416391da88","ios":"levelo://app?vid=f6c15380-cafc-427a-9bcf-39416391da88"},"vehicle_type_id":"4","last_reported":1700823971,"current_range_meters":30400,"station_id":"ce4bhh92rcd13ifvqfi0","pricing_plan_id":"free"},{"bike_id":"c65bccb9-79e2-4f2e-84cf-b24ef0047055","system_id":"levelo_inurba_marseille","lat":43.336134,"lon":5.410341,"is_reserved":false,"is_disabled":false,"rental_uris":{"android":"levelo://app?vid=c65bccb9-79e2-4f2e-84cf-b24ef0047055","ios":"levelo://app?vid=c65bccb9-79e2-4f2e-84cf-b24ef0047055"},"vehicle_type_id":"4","last_reported":1700823971,"current_range_meters":31600,"station_id":"ce4bhqh2rcd13ifvqhmg","pricing_plan_id":"free"},{"bike_id":"288c7eb3-c5ac-4401-bb19-f019b442aa44","system_id":"levelo_inurba_marseille","lat":43.336134,"lon":5.410341,"is_reserved":false,"is_disabled":false,"rental_uris":{"android":"levelo://app?vid=288c7eb3-c5ac-4401-bb19-f019b442aa44","ios":"levelo://app?vid=288c7eb3-c5ac-4401-bb19-f019b442aa44"},"vehicle_type_id":"4","last_reported":1700823971,"current_range_meters":3600,"station_id":"ce4bhqh2rcd13ifvqhmg","pricing_plan_id":"free"},{"bike_id":"fc8a50fc-7fb9-4b58-ae5e-3658ebaf4b71","system_id":"levelo_inurba_marseille","lat":43.34182,"lon":5.406,"is_reserved":false,"is_disabled":false,"rental_uris":{"android":"levelo://app?vid=fc8a50fc-7fb9-4b58-ae5e-3658ebaf4b71","ios":"levelo://app?vid=fc8a50fc-7fb9-4b58-ae5e-3658ebaf4b71"},"vehicle_type_id":"4","last_reported":1700823971,"current_range_meters":4800,"station_id":"","pricing_plan_id":"free"},{"bike_id":"ee3353de-ad16-41b2-900b-c0d5b5e68caf","system_id":"levelo_inurba_marseille","lat":43.340804,"lon":5.410219,"is_reserved":false,"is_disabled":false,"rental_uris":{"android":"levelo://app?vid=ee3353de-ad16-41b2-900b-c0d5b5e68caf","ios":"levelo://app?vid=ee3353de-ad16-41b2-900b-c0d5b5e68caf"},"vehicle_type_id":"4","last_reported":1700823971,"current_range_meters":31200,"station_id":"ce4bhqh2rcd13ifvqhlg","pricing_plan_id":"free"},{"bike_id":"422eaa23-7465-45a6-8f34-ef03bb0d0a13","system_id":"levelo_inurba_marseille","lat":43.340804,"lon":5.410219,"is_reserved":false,"is_disabled":false,"rental_uris":{"android":"levelo://app?vid=422eaa23-7465-45a6-8f34-ef03bb0d0a13","ios":"levelo://app?vid=422eaa23-7465-45a6-8f34-ef03bb0d0a13"},"vehicle_type_id":"4","last_reported":1700823971,"current_range_meters":24400,"station_id":"ce4bhqh2rcd13ifvqhlg","pricing_plan_id":"free"},{"bike_id":"e0251fd8-4e40-4ecc-8379-605029ccde6c","system_id":"levelo_inurba_marseille","lat":43.340804,"lon":5.410219,"is_reserved":false,"is_disabled":false,"rental_uris":{"android":"levelo://app?vid=e0251fd8-4e40-4ecc-8379-605029ccde6c","ios":"levelo://app?vid=e0251fd8-4e40-4ecc-8379-605029ccde6c"},"vehicle_type_id":"4","last_reported":1700823971,"current_range_meters":24000,"station_id":"ce4bhqh2rcd13ifvqhlg","pricing_plan_id":"free"},{"bike_id":"f6d19d1b-693b-4963-ba5a-4b930cec88fd","system_id":"levelo_inurba_marseille","lat":43.340804,"lon":5.410219,"is_reserved":false,"is_disabled":false,"rental_uris":{"android":"levelo://app?vid=f6d19d1b-693b-4963-ba5a-4b930cec88fd","ios":"levelo://app?vid=f6d19d1b-693b-4963-ba5a-4b930cec88fd"},"vehicle_type_id":"4","last_reported":1700823971,"current_range_meters":30800,"station_id":"ce4bhqh2rcd13ifvqhlg","pricing_plan_id":"free"},{"bike_id":"784eedf8-1ff9-494d-91cc-6d6e4e868912","system_id":"levelo_inurba_marseille","lat":43.340804,"lon":5.410219,"is_reserved":false,"is_disabled":false,"rental_uris":{"android":"levelo://app?vid=784eedf8-1ff9-494d-91cc-6d6e4e868912","ios":"levelo://app?vid=784eedf8-1ff9-494d-91cc-6d6e4e868912"},"vehicle_type_id":"4","last_reported":1700823971,"current_range_meters":29200,"station_id":"ce4bhqh2rcd13ifvqhlg","pricing_plan_id":"free"},{"bike_id":"8cf32a11-a7f1-4b41-a589-35b58f8d38f6","system_id":"levelo_inurba_marseille","lat":43.340804,"lon":5.410219,"is_reserved":false,"is_disabled":false,"rental_uris":{"android":"levelo://app?vid=8cf32a11-a7f1-4b41-a589-35b58f8d38f6","ios":"levelo://app?vid=8cf32a11-a7f1-4b41-a589-35b58f8d38f6"},"vehicle_type_id":"4","last_reported":1700823971,"current_range_meters":29200,"station_id":"ce4bhqh2rcd13ifvqhlg","pricing_plan_id":"free"},{"bike_id":"48565e36-de67-4c6a-8337-460138cf3900","system_id":"levelo_inurba_marseille","lat":43.340804,"lon":5.410219,"is_reserved":false,"is_disabled":false,"rental_uris":{"android":"levelo://app?vid=48565e36-de67-4c6a-8337-460138cf3900","ios":"levelo://app?vid=48565e36-de67-4c6a-8337-460138cf3900"},"vehicle_type_id":"4","last_reported":1700823971,"current_range_meters":12800,"station_id":"ce4bhqh2rcd13ifvqhlg","pricing_plan_id":"free"},{"bike_id":"42402f9f-a5de-4464-b628-42de40584ac1","system_id":"levelo_inurba_marseille","lat":43.340804,"lon":5.410219,"is_reserved":false,"is_disabled":false,"rental_uris":{"android":"levelo://app?vid=42402f9f-a5de-4464-b628-42de40584ac1","ios":"levelo://app?vid=42402f9f-a5de-4464-b628-42de40584ac1"},"vehicle_type_id":"4","last_reported":1700823971,"current_range_meters":2800,"station_id":"ce4bhqh2rcd13ifvqhlg","pricing_plan_id":"free"},{"bike_id":"97314e2c-922d-4926-8482-13ffc8f97786","system_id":"levelo_inurba_marseille","lat":43.340804,"lon":5.410219,"is_reserved":false,"is_disabled":false,"rental_uris":{"android":"levelo://app?vid=97314e2c-922d-4926-8482-13ffc8f97786","ios":"levelo://app?vid=97314e2c-922d-4926-8482-13ffc8f97786"},"vehicle_type_id":"4","last_reported":1700823971,"current_range_meters":13200,"station_id":"ce4bhqh2rcd13ifvqhlg","pricing_plan_id":"free"},{"bike_id":"04c48993-d044-41c4-9cb8-117723655329","system_id":"levelo_inurba_marseille","lat":43.340804,"lon":5.410219,"is_reserved":false,"is_disabled":false,"rental_uris":{"android":"levelo://app?vid=04c48993-d044-41c4-9cb8-117723655329","ios":"levelo://app?vid=04c48993-d044-41c4-9cb8-117723655329"},"vehicle_type_id":"4","last_reported":1700823971,"current_range_meters":19600,"station_id":"ce4bhqh2rcd13ifvqhlg","pricing_plan_id":"free"},{"bike_id":"c015c54f-e6a4-4c74-a86c-551102abdc54","system_id":"levelo_inurba_marseille","lat":43.27205,"lon":5.39189,"is_reserved":false,"is_disabled":false,"rental_uris":{"android":"levelo://app?vid=c015c54f-e6a4-4c74-a86c-551102abdc54","ios":"levelo://app?vid=c015c54f-e6a4-4c74-a86c-551102abdc54"},"vehicle_type_id":"4","last_reported":1700823971,"current_range_meters":16400,"station_id":"ce4bhhp2rcd13ifvqfm0","pricing_plan_id":"free"},{"bike_id":"48c1fbfb-e6c4-4c56-a75c-55416f8bb4c3","system_id":"levelo_inurba_marseille","lat":43.27189,"lon":5.39306,"is_reserved":false,"is_disabled":false,"rental_uris":{"android":"levelo://app?vid=48c1fbfb-e6c4-4c56-a75c-55416f8bb4c3","ios":"levelo://app?vid=48c1fbfb-e6c4-4c56-a75c-55416f8bb4c3"},"vehicle_type_id":"4","last_reported":1700823971,"current_range_meters":24400,"station_id":"","pricing_plan_id":"free"},{"bike_id":"a33a298d-dc0c-4d13-8704-0a33037e7ff6","system_id":"levelo_inurba_marseille","lat":43.278128,"lon":5.407195,"is_reserved":false,"is_disabled":false,"rental_uris":{"android":"levelo://app?vid=a33a298d-dc0c-4d13-8704-0a33037e7ff6","ios":"levelo://app?vid=a33a298d-dc0c-4d13-8704-0a33037e7ff6"},"vehicle_type_id":"4","last_reported":1700823971,"current_range_meters":5600,"station_id":"ce4bhnh2rcd13ifvqgtg","pricing_plan_id":"free"},{"bike_id":"cbe077c0-485c-440c-b9dc-a4515117cd46","system_id":"levelo_inurba_marseille","lat":43.269467,"lon":5.386439,"is_reserved":false,"is_disabled":false,"rental_uris":{"android":"levelo://app?vid=cbe077c0-485c-440c-b9dc-a4515117cd46","ios":"levelo://app?vid=cbe077c0-485c-440c-b9dc-a4515117cd46"},"vehicle_type_id":"4","last_reported":1700823971,"current_range_meters":13600,"station_id":"ce4bhh92rcd13ifvqfh0","pricing_plan_id":"free"},{"bike_id":"0759642c-9960-4aa9-9977-869e7f803c75","system_id":"levelo_inurba_marseille","lat":43.269467,"lon":5.386439,"is_reserved":false,"is_disabled":false,"rental_uris":{"android":"levelo://app?vid=0759642c-9960-4aa9-9977-869e7f803c75","ios":"levelo://app?vid=0759642c-9960-4aa9-9977-869e7f803c75"},"vehicle_type_id":"4","last_reported":1700823971,"current_range_meters":14000,"station_id":"ce4bhh92rcd13ifvqfh0","pricing_plan_id":"free"},{"bike_id":"d6c8600d-203e-4df0-a8c5-62c9a03657f8","system_id":"levelo_inurba_marseille","lat":43.269467,"lon":5.386439,"is_reserved":false,"is_disabled":false,"rental_uris":{"android":"levelo://app?vid=d6c8600d-203e-4df0-a8c5-62c9a03657f8","ios":"levelo://app?vid=d6c8600d-203e-4df0-a8c5-62c9a03657f8"},"vehicle_type_id":"4","last_reported":1700823971,"current_range_meters":16400,"station_id":"ce4bhh92rcd13ifvqfh0","pricing_plan_id":"free"},{"bike_id":"7e450b4f-751c-479f-a56c-8ddce18000af","system_id":"levelo_inurba_marseille","lat":43.269467,"lon":5.386439,"is_reserved":false,"is_disabled":false,"rental_uris":{"android":"levelo://app?vid=7e450b4f-751c-479f-a56c-8ddce18000af","ios":"levelo://app?vid=7e450b4f-751c-479f-a56c-8ddce18000af"},"vehicle_type_id":"4","last_reported":1700823971,"current_range_meters":15600,"station_id":"ce4bhh92rcd13ifvqfh0","pricing_plan_id":"free"},{"bike_id":"f3cc7aeb-d1d9-41cf-bc7f-7c49b6322b39","system_id":"levelo_inurba_marseille","lat":43.269467,"lon":5.386439,"is_reserved":false,"is_disabled":false,"rental_uris":{"android":"levelo://app?vid=f3cc7aeb-d1d9-41cf-bc7f-7c49b6322b39","ios":"levelo://app?vid=f3cc7aeb-d1d9-41cf-bc7f-7c49b6322b39"},"vehicle_type_id":"4","last_reported":1700823971,"current_range_meters":20000,"station_id":"ce4bhh92rcd13ifvqfh0","pricing_plan_id":"free"},{"bike_id":"91cf7d6d-6a48-40d6-a390-a469feb9c050","system_id":"levelo_inurba_marseille","lat":43.269467,"lon":5.386439,"is_reserved":false,"is_disabled":false,"rental_uris":{"android":"levelo://app?vid=91cf7d6d-6a48-40d6-a390-a469feb9c050","ios":"levelo://app?vid=91cf7d6d-6a48-40d6-a390-a469feb9c050"},"vehicle_type_id":"4","last_reported":1700823971,"current_range_meters":23200,"station_id":"ce4bhh92rcd13ifvqfh0","pricing_plan_id":"free"},{"bike_id":"f60e0cdd-f643-4f09-b32f-53fdd78bcbb4","system_id":"levelo_inurba_marseille","lat":43.279481,"lon":5.41051,"is_reserved":false,"is_disabled":false,"rental_uris":{"android":"levelo://app?vid=f60e0cdd-f643-4f09-b32f-53fdd78bcbb4","ios":"levelo://app?vid=f60e0cdd-f643-4f09-b32f-53fdd78bcbb4"},"vehicle_type_id":"4","last_reported":1700823971,"current_range_meters":0,"station_id":"ce4bhnp2rcd13ifvqh0g","pricing_plan_id":"free"},{"bike_id":"7dbe6933-5cdc-4140-acb7-c4617a3c5263","system_id":"levelo_inurba_marseille","lat":43.26681,"lon":5.382694,"is_reserved":false,"is_disabled":false,"rental_uris":{"android":"levelo://app?vid=7dbe6933-5cdc-4140-acb7-c4617a3c5263","ios":"levelo://app?vid=7dbe6933-5cdc-4140-acb7-c4617a3c5263"},"vehicle_type_id":"4","last_reported":1700823971,"current_range_meters":23600,"station_id":"ce4bhg92rcd13ifvqf90","pricing_plan_id":"free"},{"bike_id":"4b084f2c-adb7-4cd1-9f15-6c7d7b135df0","system_id":"levelo_inurba_marseille","lat":43.26681,"lon":5.382694,"is_reserved":false,"is_disabled":false,"rental_uris":{"android":"levelo://app?vid=4b084f2c-adb7-4cd1-9f15-6c7d7b135df0","ios":"levelo://app?vid=4b084f2c-adb7-4cd1-9f15-6c7d7b135df0"},"vehicle_type_id":"4","last_reported":1700823971,"current_range_meters":12400,"station_id":"ce4bhg92rcd13ifvqf90","pricing_plan_id":"free"},{"bike_id":"16207791-efb0-4647-be04-11df27cab8b1","system_id":"levelo_inurba_marseille","lat":43.26685,"lon":5.38271,"is_reserved":false,"is_disabled":false,"rental_uris":{"android":"levelo://app?vid=16207791-efb0-4647-be04-11df27cab8b1","ios":"levelo://app?vid=16207791-efb0-4647-be04-11df27cab8b1"},"vehicle_type_id":"4","last_reported":1700823971,"current_range_meters":2400,"station_id":"ce4bhg92rcd13ifvqf90","pricing_plan_id":"free"},{"bike_id":"41de51a6-505b-4bd1-af98-8b03e9811828","system_id":"levelo_inurba_marseille","lat":43.26681,"lon":5.382694,"is_reserved":false,"is_disabled":false,"rental_uris":{"android":"levelo://app?vid=41de51a6-505b-4bd1-af98-8b03e9811828","ios":"levelo://app?vid=41de51a6-505b-4bd1-af98-8b03e9811828"},"vehicle_type_id":"4","last_reported":1700823971,"current_range_meters":31600,"station_id":"ce4bhg92rcd13ifvqf90","pricing_plan_id":"free"},{"bike_id":"c4074fae-ec9c-4ed9-95a4-6884210b5735","system_id":"levelo_inurba_marseille","lat":43.26683,"lon":5.38276,"is_reserved":false,"is_disabled":false,"rental_uris":{"android":"levelo://app?vid=c4074fae-ec9c-4ed9-95a4-6884210b5735","ios":"levelo://app?vid=c4074fae-ec9c-4ed9-95a4-6884210b5735"},"vehicle_type_id":"4","last_reported":1700823971,"current_range_meters":16800,"station_id":"ce4bhg92rcd13ifvqf90","pricing_plan_id":"free"},{"bike_id":"b31125dc-1605-449b-a5a1-0dc6eb7a8360","system_id":"levelo_inurba_marseille","lat":43.26683,"lon":5.38277,"is_reserved":false,"is_disabled":false,"rental_uris":{"android":"levelo://app?vid=b31125dc-1605-449b-a5a1-0dc6eb7a8360","ios":"levelo://app?vid=b31125dc-1605-449b-a5a1-0dc6eb7a8360"},"vehicle_type_id":"4","last_reported":1700823971,"current_range_meters":7600,"station_id":"ce4bhg92rcd13ifvqf90","pricing_plan_id":"free"},{"bike_id":"a1c6dbae-6a50-4808-b409-93cda7db7bfc","system_id":"levelo_inurba_marseille","lat":43.26681,"lon":5.38274,"is_reserved":false,"is_disabled":false,"rental_uris":{"android":"levelo://app?vid=a1c6dbae-6a50-4808-b409-93cda7db7bfc","ios":"levelo://app?vid=a1c6dbae-6a50-4808-b409-93cda7db7bfc"},"vehicle_type_id":"4","last_reported":1700823971,"current_range_meters":5200,"station_id":"ce4bhg92rcd13ifvqf90","pricing_plan_id":"free"},{"bike_id":"e5e9fc9f-3310-44d2-aece-a9a06023fa18","system_id":"levelo_inurba_marseille","lat":43.26679,"lon":5.38265,"is_reserved":false,"is_disabled":false,"rental_uris":{"android":"levelo://app?vid=e5e9fc9f-3310-44d2-aece-a9a06023fa18","ios":"levelo://app?vid=e5e9fc9f-3310-44d2-aece-a9a06023fa18"},"vehicle_type_id":"4","last_reported":1700823971,"current_range_meters":28800,"station_id":"ce4bhg92rcd13ifvqf90","pricing_plan_id":"free"},{"bike_id":"d7f17dc5-6588-4a8f-83ee-16175f3f3b78","system_id":"levelo_inurba_marseille","lat":43.26556,"lon":5.37283,"is_reserved":false,"is_disabled":false,"rental_uris":{"android":"levelo://app?vid=d7f17dc5-6588-4a8f-83ee-16175f3f3b78","ios":"levelo://app?vid=d7f17dc5-6588-4a8f-83ee-16175f3f3b78"},"vehicle_type_id":"4","last_reported":1700823971,"current_range_meters":14000,"station_id":"ce4bhg12rcd13ifvqf70","pricing_plan_id":"free"},{"bike_id":"afca0fe0-702c-4607-8149-ab8757df2f63","system_id":"levelo_inurba_marseille","lat":43.265714,"lon":5.372891,"is_reserved":false,"is_disabled":false,"rental_uris":{"android":"levelo://app?vid=afca0fe0-702c-4607-8149-ab8757df2f63","ios":"levelo://app?vid=afca0fe0-702c-4607-8149-ab8757df2f63"},"vehicle_type_id":"4","last_reported":1700823971,"current_range_meters":0,"station_id":"ce4bhg12rcd13ifvqf70","pricing_plan_id":"free"},{"bike_id":"72b1047d-07d2-47c4-9805-d565409aa9fb","system_id":"levelo_inurba_marseille","lat":43.26677,"lon":5.38275,"is_reserved":false,"is_disabled":false,"rental_uris":{"android":"levelo://app?vid=72b1047d-07d2-47c4-9805-d565409aa9fb","ios":"levelo://app?vid=72b1047d-07d2-47c4-9805-d565409aa9fb"},"vehicle_type_id":"4","last_reported":1700823971,"current_range_meters":23600,"station_id":"ce4bhg92rcd13ifvqf90","pricing_plan_id":"free"},{"bike_id":"937de9a9-f305-4587-8803-b9643de4628d","system_id":"levelo_inurba_marseille","lat":43.265547,"lon":5.372953,"is_reserved":false,"is_disabled":false,"rental_uris":{"android":"levelo://app?vid=937de9a9-f305-4587-8803-b9643de4628d","ios":"levelo://app?vid=937de9a9-f305-4587-8803-b9643de4628d"},"vehicle_type_id":"4","last_reported":1700823971,"current_range_meters":17200,"station_id":"ce4bhg12rcd13ifvqf70","pricing_plan_id":"free"},{"bike_id":"28e8ce00-6b21-4e06-9930-c7c4408cc650","system_id":"levelo_inurba_marseille","lat":43.326174,"lon":5.430584,"is_reserved":false,"is_disabled":false,"rental_uris":{"android":"levelo://app?vid=28e8ce00-6b21-4e06-9930-c7c4408cc650","ios":"levelo://app?vid=28e8ce00-6b21-4e06-9930-c7c4408cc650"},"vehicle_type_id":"4","last_reported":1700823971,"current_range_meters":0,"station_id":"","pricing_plan_id":"free"},{"bike_id":"e1c5aebc-ee6b-4705-aa75-1033e20494cf","system_id":"levelo_inurba_marseille","lat":43.27994,"lon":5.41661,"is_reserved":false,"is_disabled":false,"rental_uris":{"android":"levelo://app?vid=e1c5aebc-ee6b-4705-aa75-1033e20494cf","ios":"levelo://app?vid=e1c5aebc-ee6b-4705-aa75-1033e20494cf"},"vehicle_type_id":"4","last_reported":1700823971,"current_range_meters":0,"station_id":"ce4bho12rcd13ifvqh1g","pricing_plan_id":"free"},{"bike_id":"c70ad675-5dc1-4334-a96d-e1a25df28b61","system_id":"levelo_inurba_marseille","lat":43.265714,"lon":5.372891,"is_reserved":false,"is_disabled":false,"rental_uris":{"android":"levelo://app?vid=c70ad675-5dc1-4334-a96d-e1a25df28b61","ios":"levelo://app?vid=c70ad675-5dc1-4334-a96d-e1a25df28b61"},"vehicle_type_id":"4","last_reported":1700823971,"current_range_meters":15200,"station_id":"ce4bhg12rcd13ifvqf70","pricing_plan_id":"free"},{"bike_id":"64642779-3fe6-4a74-b9c1-979ccba7f16d","system_id":"levelo_inurba_marseille","lat":43.267966,"lon":5.393976,"is_reserved":false,"is_disabled":false,"rental_uris":{"android":"levelo://app?vid=64642779-3fe6-4a74-b9c1-979ccba7f16d","ios":"levelo://app?vid=64642779-3fe6-4a74-b9c1-979ccba7f16d"},"vehicle_type_id":"4","last_reported":1700823971,"current_range_meters":25200,"station_id":"ce4bhh12rcd13ifvqfg0","pricing_plan_id":"free"},{"bike_id":"2b5f0b27-ae58-4e9e-bd76-c585f78e8a73","system_id":"levelo_inurba_marseille","lat":43.26386,"lon":5.37454,"is_reserved":false,"is_disabled":false,"rental_uris":{"android":"levelo://app?vid=2b5f0b27-ae58-4e9e-bd76-c585f78e8a73","ios":"levelo://app?vid=2b5f0b27-ae58-4e9e-bd76-c585f78e8a73"},"vehicle_type_id":"4","last_reported":1700823971,"current_range_meters":14800,"station_id":"","pricing_plan_id":"free"},{"bike_id":"2805a084-6127-47e6-9419-2d83f38553f6","system_id":"levelo_inurba_marseille","lat":43.265569,"lon":5.390047,"is_reserved":false,"is_disabled":false,"rental_uris":{"android":"levelo://app?vid=2805a084-6127-47e6-9419-2d83f38553f6","ios":"levelo://app?vid=2805a084-6127-47e6-9419-2d83f38553f6"},"vehicle_type_id":"4","last_reported":1700823971,"current_range_meters":11600,"station_id":"ce4bhe12rcd13ifvqf30","pricing_plan_id":"free"},{"bike_id":"db75ed12-6129-4685-8710-9b795c7f515e","system_id":"levelo_inurba_marseille","lat":43.265569,"lon":5.390047,"is_reserved":false,"is_disabled":false,"rental_uris":{"android":"levelo://app?vid=db75ed12-6129-4685-8710-9b795c7f515e","ios":"levelo://app?vid=db75ed12-6129-4685-8710-9b795c7f515e"},"vehicle_type_id":"4","last_reported":1700823971,"current_range_meters":0,"station_id":"ce4bhe12rcd13ifvqf30","pricing_plan_id":"free"},{"bike_id":"adfeee04-9fac-42ec-8e12-fcaa20ff5082","system_id":"levelo_inurba_marseille","lat":43.26942,"lon":5.40252,"is_reserved":false,"is_disabled":false,"rental_uris":{"android":"levelo://app?vid=adfeee04-9fac-42ec-8e12-fcaa20ff5082","ios":"levelo://app?vid=adfeee04-9fac-42ec-8e12-fcaa20ff5082"},"vehicle_type_id":"4","last_reported":1700823971,"current_range_meters":19200,"station_id":"cjm6bp8fraef2m0cb0m0","pricing_plan_id":"free"},{"bike_id":"899e61b9-3e7e-43cb-96bd-fdca28f81654","system_id":"levelo_inurba_marseille","lat":43.26939,"lon":5.40257,"is_reserved":false,"is_disabled":false,"rental_uris":{"android":"levelo://app?vid=899e61b9-3e7e-43cb-96bd-fdca28f81654","ios":"levelo://app?vid=899e61b9-3e7e-43cb-96bd-fdca28f81654"},"vehicle_type_id":"4","last_reported":1700823971,"current_range_meters":10400,"station_id":"cjm6bp8fraef2m0cb0m0","pricing_plan_id":"free"},{"bike_id":"13ceecd1-0152-4fe3-ba15-3cca81dce8a4","system_id":"levelo_inurba_marseille","lat":43.26632,"lon":5.3947,"is_reserved":false,"is_disabled":false,"rental_uris":{"android":"levelo://app?vid=13ceecd1-0152-4fe3-ba15-3cca81dce8a4","ios":"levelo://app?vid=13ceecd1-0152-4fe3-ba15-3cca81dce8a4"},"vehicle_type_id":"4","last_reported":1700823971,"current_range_meters":26800,"station_id":"","pricing_plan_id":"free"},{"bike_id":"a6750c07-c05f-4d8f-bb08-91439711bd36","system_id":"levelo_inurba_marseille","lat":43.261782,"lon":5.374515,"is_reserved":false,"is_disabled":false,"rental_uris":{"android":"levelo://app?vid=a6750c07-c05f-4d8f-bb08-91439711bd36","ios":"levelo://app?vid=a6750c07-c05f-4d8f-bb08-91439711bd36"},"vehicle_type_id":"4","last_reported":1700823971,"current_range_meters":26000,"station_id":"ce4bhgp2rcd13ifvqfc0","pricing_plan_id":"free"},{"bike_id":"f23d8119-b478-4639-98c5-6883279f9f84","system_id":"levelo_inurba_marseille","lat":43.317104,"lon":5.436818,"is_reserved":false,"is_disabled":false,"rental_uris":{"android":"levelo://app?vid=f23d8119-b478-4639-98c5-6883279f9f84","ios":"levelo://app?vid=f23d8119-b478-4639-98c5-6883279f9f84"},"vehicle_type_id":"4","last_reported":1700823971,"current_range_meters":16400,"station_id":"ce4bhp92rcd13ifvqhcg","pricing_plan_id":"free"},{"bike_id":"e927cc78-55fc-4406-a26c-5d780237e426","system_id":"levelo_inurba_marseille","lat":43.267959,"lon":5.402687,"is_reserved":false,"is_disabled":false,"rental_uris":{"android":"levelo://app?vid=e927cc78-55fc-4406-a26c-5d780237e426","ios":"levelo://app?vid=e927cc78-55fc-4406-a26c-5d780237e426"},"vehicle_type_id":"4","last_reported":1700823971,"current_range_meters":27600,"station_id":"ce501612rcd8frsf0b60","pricing_plan_id":"free"},{"bike_id":"d0bb53f7-f1b8-4609-a668-27efdac67f66","system_id":"levelo_inurba_marseille","lat":43.26301,"lon":5.38842,"is_reserved":false,"is_disabled":false,"rental_uris":{"android":"levelo://app?vid=d0bb53f7-f1b8-4609-a668-27efdac67f66","ios":"levelo://app?vid=d0bb53f7-f1b8-4609-a668-27efdac67f66"},"vehicle_type_id":"4","last_reported":1700823971,"current_range_meters":0,"station_id":"","pricing_plan_id":"free"},{"bike_id":"efe02d19-0356-4f27-85ef-675447d0f7ba","system_id":"levelo_inurba_marseille","lat":43.29897,"lon":5.43659,"is_reserved":false,"is_disabled":false,"rental_uris":{"android":"levelo://app?vid=efe02d19-0356-4f27-85ef-675447d0f7ba","ios":"levelo://app?vid=efe02d19-0356-4f27-85ef-675447d0f7ba"},"vehicle_type_id":"4","last_reported":1700823971,"current_range_meters":14400,"station_id":"ce4bhpp2rcd13ifvqhfg","pricing_plan_id":"free"},{"bike_id":"01738c21-b518-4e69-920b-bea8470a7be5","system_id":"levelo_inurba_marseille","lat":43.260219,"lon":5.37546,"is_reserved":false,"is_disabled":false,"rental_uris":{"android":"levelo://app?vid=01738c21-b518-4e69-920b-bea8470a7be5","ios":"levelo://app?vid=01738c21-b518-4e69-920b-bea8470a7be5"},"vehicle_type_id":"4","last_reported":1700823971,"current_range_meters":16000,"station_id":"ce4bhgh2rcd13ifvqfa0","pricing_plan_id":"free"},{"bike_id":"03cbab79-793c-4835-9336-cb0ceff9c47c","system_id":"levelo_inurba_marseille","lat":43.2607,"lon":5.393983,"is_reserved":false,"is_disabled":false,"rental_uris":{"android":"levelo://app?vid=03cbab79-793c-4835-9336-cb0ceff9c47c","ios":"levelo://app?vid=03cbab79-793c-4835-9336-cb0ceff9c47c"},"vehicle_type_id":"4","last_reported":1700823971,"current_range_meters":31200,"station_id":"ce4bhh92rcd13ifvqfj0","pricing_plan_id":"free"},{"bike_id":"149da9f4-cd6c-4772-8e58-71393f47ca3b","system_id":"levelo_inurba_marseille","lat":43.26096,"lon":5.39762,"is_reserved":false,"is_disabled":false,"rental_uris":{"android":"levelo://app?vid=149da9f4-cd6c-4772-8e58-71393f47ca3b","ios":"levelo://app?vid=149da9f4-cd6c-4772-8e58-71393f47ca3b"},"vehicle_type_id":"4","last_reported":1700823971,"current_range_meters":7200,"station_id":"ce4bhi12rcd13ifvqfq0","pricing_plan_id":"free"},{"bike_id":"48bbbf1b-e6df-4cdb-b46e-4a95cd3e9608","system_id":"levelo_inurba_marseille","lat":43.26096,"lon":5.39762,"is_reserved":false,"is_disabled":false,"rental_uris":{"android":"levelo://app?vid=48bbbf1b-e6df-4cdb-b46e-4a95cd3e9608","ios":"levelo://app?vid=48bbbf1b-e6df-4cdb-b46e-4a95cd3e9608"},"vehicle_type_id":"4","last_reported":1700823971,"current_range_meters":19600,"station_id":"ce4bhi12rcd13ifvqfq0","pricing_plan_id":"free"},{"bike_id":"d04c8901-eb61-48b7-9514-b678ba233e91","system_id":"levelo_inurba_marseille","lat":43.26094,"lon":5.39761,"is_reserved":false,"is_disabled":false,"rental_uris":{"android":"levelo://app?vid=d04c8901-eb61-48b7-9514-b678ba233e91","ios":"levelo://app?vid=d04c8901-eb61-48b7-9514-b678ba233e91"},"vehicle_type_id":"4","last_reported":1700823971,"current_range_meters":30400,"station_id":"ce4bhi12rcd13ifvqfq0","pricing_plan_id":"free"},{"bike_id":"b15ce5a8-7c47-46a6-8d88-b2277643a3bf","system_id":"levelo_inurba_marseille","lat":43.260912,"lon":5.397584,"is_reserved":false,"is_disabled":false,"rental_uris":{"android":"levelo://app?vid=b15ce5a8-7c47-46a6-8d88-b2277643a3bf","ios":"levelo://app?vid=b15ce5a8-7c47-46a6-8d88-b2277643a3bf"},"vehicle_type_id":"4","last_reported":1700823971,"current_range_meters":26400,"station_id":"ce4bhi12rcd13ifvqfq0","pricing_plan_id":"free"},{"bike_id":"2d5f8104-4ad1-4747-a697-468266bbe403","system_id":"levelo_inurba_marseille","lat":43.260909,"lon":5.397591,"is_reserved":false,"is_disabled":false,"rental_uris":{"android":"levelo://app?vid=2d5f8104-4ad1-4747-a697-468266bbe403","ios":"levelo://app?vid=2d5f8104-4ad1-4747-a697-468266bbe403"},"vehicle_type_id":"4","last_reported":1700823971,"current_range_meters":20000,"station_id":"ce4bhi12rcd13ifvqfq0","pricing_plan_id":"free"},{"bike_id":"24bd41f7-5a25-419c-9c1e-0ee37d88daf2","system_id":"levelo_inurba_marseille","lat":43.26085,"lon":5.39768,"is_reserved":false,"is_disabled":false,"rental_uris":{"android":"levelo://app?vid=24bd41f7-5a25-419c-9c1e-0ee37d88daf2","ios":"levelo://app?vid=24bd41f7-5a25-419c-9c1e-0ee37d88daf2"},"vehicle_type_id":"4","last_reported":1700823971,"current_range_meters":18000,"station_id":"ce4bhi12rcd13ifvqfq0","pricing_plan_id":"free"},{"bike_id":"80438f1e-5ce5-43bb-b8b0-62680314de25","system_id":"levelo_inurba_marseille","lat":43.25584,"lon":5.3823,"is_reserved":false,"is_disabled":false,"rental_uris":{"android":"levelo://app?vid=80438f1e-5ce5-43bb-b8b0-62680314de25","ios":"levelo://app?vid=80438f1e-5ce5-43bb-b8b0-62680314de25"},"vehicle_type_id":"4","last_reported":1700823971,"current_range_meters":12000,"station_id":"ce4bhih2rcd13ifvqfs0","pricing_plan_id":"free"},{"bike_id":"c1487a84-afe8-4ce0-86c6-68b365335692","system_id":"levelo_inurba_marseille","lat":43.255808,"lon":5.382347,"is_reserved":false,"is_disabled":false,"rental_uris":{"android":"levelo://app?vid=c1487a84-afe8-4ce0-86c6-68b365335692","ios":"levelo://app?vid=c1487a84-afe8-4ce0-86c6-68b365335692"},"vehicle_type_id":"4","last_reported":1700823971,"current_range_meters":11600,"station_id":"ce4bhih2rcd13ifvqfs0","pricing_plan_id":"free"},{"bike_id":"be55ff5a-173b-464f-b17c-1646c69ac2e0","system_id":"levelo_inurba_marseille","lat":43.2558,"lon":5.38232,"is_reserved":false,"is_disabled":false,"rental_uris":{"android":"levelo://app?vid=be55ff5a-173b-464f-b17c-1646c69ac2e0","ios":"levelo://app?vid=be55ff5a-173b-464f-b17c-1646c69ac2e0"},"vehicle_type_id":"4","last_reported":1700823971,"current_range_meters":19600,"station_id":"ce4bhih2rcd13ifvqfs0","pricing_plan_id":"free"},{"bike_id":"3d825c4b-aaf3-4023-8f24-8e9933b1cecd","system_id":"levelo_inurba_marseille","lat":43.25578,"lon":5.38228,"is_reserved":false,"is_disabled":false,"rental_uris":{"android":"levelo://app?vid=3d825c4b-aaf3-4023-8f24-8e9933b1cecd","ios":"levelo://app?vid=3d825c4b-aaf3-4023-8f24-8e9933b1cecd"},"vehicle_type_id":"4","last_reported":1700823971,"current_range_meters":6000,"station_id":"ce4bhih2rcd13ifvqfs0","pricing_plan_id":"free"},{"bike_id":"01f18477-7f59-4b0d-8af2-e5176560be69","system_id":"levelo_inurba_marseille","lat":43.258224,"lon":5.394369,"is_reserved":false,"is_disabled":false,"rental_uris":{"android":"levelo://app?vid=01f18477-7f59-4b0d-8af2-e5176560be69","ios":"levelo://app?vid=01f18477-7f59-4b0d-8af2-e5176560be69"},"vehicle_type_id":"4","last_reported":1700823971,"current_range_meters":19600,"station_id":"ce4bhip2rcd13ifvqft0","pricing_plan_id":"free"},{"bike_id":"d6e78514-680d-42ac-a3a8-9a4aee1f8663","system_id":"levelo_inurba_marseille","lat":43.258224,"lon":5.394369,"is_reserved":false,"is_disabled":false,"rental_uris":{"android":"levelo://app?vid=d6e78514-680d-42ac-a3a8-9a4aee1f8663","ios":"levelo://app?vid=d6e78514-680d-42ac-a3a8-9a4aee1f8663"},"vehicle_type_id":"4","last_reported":1700823971,"current_range_meters":15600,"station_id":"ce4bhip2rcd13ifvqft0","pricing_plan_id":"free"},{"bike_id":"b3384bf5-3f46-46e0-a888-8bacfbf48075","system_id":"levelo_inurba_marseille","lat":43.258224,"lon":5.394369,"is_reserved":false,"is_disabled":false,"rental_uris":{"android":"levelo://app?vid=b3384bf5-3f46-46e0-a888-8bacfbf48075","ios":"levelo://app?vid=b3384bf5-3f46-46e0-a888-8bacfbf48075"},"vehicle_type_id":"4","last_reported":1700823971,"current_range_meters":18000,"station_id":"ce4bhip2rcd13ifvqft0","pricing_plan_id":"free"},{"bike_id":"4f71c8e8-0af0-4bdc-bce1-955916723f32","system_id":"levelo_inurba_marseille","lat":43.254947,"lon":5.376454,"is_reserved":false,"is_disabled":false,"rental_uris":{"android":"levelo://app?vid=4f71c8e8-0af0-4bdc-bce1-955916723f32","ios":"levelo://app?vid=4f71c8e8-0af0-4bdc-bce1-955916723f32"},"vehicle_type_id":"4","last_reported":1700823971,"current_range_meters":24000,"station_id":"ce4bhh12rcd13ifvqff0","pricing_plan_id":"free"},{"bike_id":"486c6fb0-3e67-418c-9525-31e5ac8f440e","system_id":"levelo_inurba_marseille","lat":43.270721,"lon":5.422764,"is_reserved":false,"is_disabled":false,"rental_uris":{"android":"levelo://app?vid=486c6fb0-3e67-418c-9525-31e5ac8f440e","ios":"levelo://app?vid=486c6fb0-3e67-418c-9525-31e5ac8f440e"},"vehicle_type_id":"4","last_reported":1700823971,"current_range_meters":18000,"station_id":"ce4bhk92rcd13ifvqgb0","pricing_plan_id":"free"},{"bike_id":"d61db530-dffd-4f8e-8000-457444ea29cd","system_id":"levelo_inurba_marseille","lat":43.270721,"lon":5.422764,"is_reserved":false,"is_disabled":false,"rental_uris":{"android":"levelo://app?vid=d61db530-dffd-4f8e-8000-457444ea29cd","ios":"levelo://app?vid=d61db530-dffd-4f8e-8000-457444ea29cd"},"vehicle_type_id":"4","last_reported":1700823971,"current_range_meters":30800,"station_id":"ce4bhk92rcd13ifvqgb0","pricing_plan_id":"free"},{"bike_id":"1a8d6a0b-9e42-4392-9576-dd22dd034dfd","system_id":"levelo_inurba_marseille","lat":43.258658,"lon":5.398935,"is_reserved":false,"is_disabled":false,"rental_uris":{"android":"levelo://app?vid=1a8d6a0b-9e42-4392-9576-dd22dd034dfd","ios":"levelo://app?vid=1a8d6a0b-9e42-4392-9576-dd22dd034dfd"},"vehicle_type_id":"4","last_reported":1700823971,"current_range_meters":30000,"station_id":"ce4bhl92rcd13ifvqghg","pricing_plan_id":"free"},{"bike_id":"3ddd4114-bca4-4c1d-b8e4-c0e3495239e4","system_id":"levelo_inurba_marseille","lat":43.258658,"lon":5.398935,"is_reserved":false,"is_disabled":false,"rental_uris":{"android":"levelo://app?vid=3ddd4114-bca4-4c1d-b8e4-c0e3495239e4","ios":"levelo://app?vid=3ddd4114-bca4-4c1d-b8e4-c0e3495239e4"},"vehicle_type_id":"4","last_reported":1700823971,"current_range_meters":9200,"station_id":"ce4bhl92rcd13ifvqghg","pricing_plan_id":"free"},{"bike_id":"7be1fe3d-056b-47f3-aab3-e0e7b76cf350","system_id":"levelo_inurba_marseille","lat":43.257079,"lon":5.411051,"is_reserved":false,"is_disabled":false,"rental_uris":{"android":"levelo://app?vid=7be1fe3d-056b-47f3-aab3-e0e7b76cf350","ios":"levelo://app?vid=7be1fe3d-056b-47f3-aab3-e0e7b76cf350"},"vehicle_type_id":"4","last_reported":1700823971,"current_range_meters":24800,"station_id":"ce4bhkp2rcd13ifvqgd0","pricing_plan_id":"free"},{"bike_id":"0ca6e84a-719a-4e14-8f7e-2c45afba3c7d","system_id":"levelo_inurba_marseille","lat":43.257079,"lon":5.411051,"is_reserved":false,"is_disabled":false,"rental_uris":{"android":"levelo://app?vid=0ca6e84a-719a-4e14-8f7e-2c45afba3c7d","ios":"levelo://app?vid=0ca6e84a-719a-4e14-8f7e-2c45afba3c7d"},"vehicle_type_id":"4","last_reported":1700823971,"current_range_meters":25200,"station_id":"ce4bhkp2rcd13ifvqgd0","pricing_plan_id":"free"},{"bike_id":"97eb8cfe-5d22-4fbc-9279-ef6e0dbab2c1","system_id":"levelo_inurba_marseille","lat":43.250023,"lon":5.38919,"is_reserved":false,"is_disabled":false,"rental_uris":{"android":"levelo://app?vid=97eb8cfe-5d22-4fbc-9279-ef6e0dbab2c1","ios":"levelo://app?vid=97eb8cfe-5d22-4fbc-9279-ef6e0dbab2c1"},"vehicle_type_id":"4","last_reported":1700823971,"current_range_meters":17200,"station_id":"ce4bhgp2rcd13ifvqfd0","pricing_plan_id":"free"},{"bike_id":"83665c31-4529-4688-822c-c62114641fdc","system_id":"levelo_inurba_marseille","lat":43.2479,"lon":5.374457,"is_reserved":false,"is_disabled":false,"rental_uris":{"android":"levelo://app?vid=83665c31-4529-4688-822c-c62114641fdc","ios":"levelo://app?vid=83665c31-4529-4688-822c-c62114641fdc"},"vehicle_type_id":"4","last_reported":1700823971,"current_range_meters":25600,"station_id":"ce4bhgh2rcd13ifvqfb0","pricing_plan_id":"free"},{"bike_id":"581f9761-6fd1-4f2c-aeff-9402e07d1713","system_id":"levelo_inurba_marseille","lat":43.250966,"lon":5.395186,"is_reserved":false,"is_disabled":false,"rental_uris":{"android":"levelo://app?vid=581f9761-6fd1-4f2c-aeff-9402e07d1713","ios":"levelo://app?vid=581f9761-6fd1-4f2c-aeff-9402e07d1713"},"vehicle_type_id":"4","last_reported":1700823971,"current_range_meters":26000,"station_id":"ce4bhm12rcd13ifvqgkg","pricing_plan_id":"free"},{"bike_id":"8b2f4673-8019-49f3-a802-e81090c5d1b9","system_id":"levelo_inurba_marseille","lat":43.246605,"lon":5.376755,"is_reserved":false,"is_disabled":false,"rental_uris":{"android":"levelo://app?vid=8b2f4673-8019-49f3-a802-e81090c5d1b9","ios":"levelo://app?vid=8b2f4673-8019-49f3-a802-e81090c5d1b9"},"vehicle_type_id":"4","last_reported":1700823971,"current_range_meters":17200,"station_id":"","pricing_plan_id":"free"},{"bike_id":"395cea4b-fa7b-47f7-b8d1-3ad5825b0958","system_id":"levelo_inurba_marseille","lat":43.24693,"lon":5.382096,"is_reserved":false,"is_disabled":false,"rental_uris":{"android":"levelo://app?vid=395cea4b-fa7b-47f7-b8d1-3ad5825b0958","ios":"levelo://app?vid=395cea4b-fa7b-47f7-b8d1-3ad5825b0958"},"vehicle_type_id":"4","last_reported":1700823971,"current_range_meters":8800,"station_id":"ce4bhih2rcd13ifvqfr0","pricing_plan_id":"free"},{"bike_id":"969b658f-c7ec-4c18-9d03-e6b76e87a51c","system_id":"levelo_inurba_marseille","lat":43.24693,"lon":5.382096,"is_reserved":false,"is_disabled":false,"rental_uris":{"android":"levelo://app?vid=969b658f-c7ec-4c18-9d03-e6b76e87a51c","ios":"levelo://app?vid=969b658f-c7ec-4c18-9d03-e6b76e87a51c"},"vehicle_type_id":"4","last_reported":1700823971,"current_range_meters":11600,"station_id":"ce4bhih2rcd13ifvqfr0","pricing_plan_id":"free"},{"bike_id":"768357dc-c4e0-4d7e-a74d-cfda80dabd50","system_id":"levelo_inurba_marseille","lat":43.24693,"lon":5.382096,"is_reserved":false,"is_disabled":false,"rental_uris":{"android":"levelo://app?vid=768357dc-c4e0-4d7e-a74d-cfda80dabd50","ios":"levelo://app?vid=768357dc-c4e0-4d7e-a74d-cfda80dabd50"},"vehicle_type_id":"4","last_reported":1700823971,"current_range_meters":28800,"station_id":"ce4bhih2rcd13ifvqfr0","pricing_plan_id":"free"},{"bike_id":"fb1033d5-45f1-4ef0-8d6d-e30c5315bcbf","system_id":"levelo_inurba_marseille","lat":43.24693,"lon":5.382096,"is_reserved":false,"is_disabled":false,"rental_uris":{"android":"levelo://app?vid=fb1033d5-45f1-4ef0-8d6d-e30c5315bcbf","ios":"levelo://app?vid=fb1033d5-45f1-4ef0-8d6d-e30c5315bcbf"},"vehicle_type_id":"4","last_reported":1700823971,"current_range_meters":16400,"station_id":"ce4bhih2rcd13ifvqfr0","pricing_plan_id":"free"},{"bike_id":"98e1bdbd-72f2-4701-9458-66c8aac6e702","system_id":"levelo_inurba_marseille","lat":43.25114,"lon":5.40322,"is_reserved":false,"is_disabled":false,"rental_uris":{"android":"levelo://app?vid=98e1bdbd-72f2-4701-9458-66c8aac6e702","ios":"levelo://app?vid=98e1bdbd-72f2-4701-9458-66c8aac6e702"},"vehicle_type_id":"4","last_reported":1700823971,"current_range_meters":12000,"station_id":"ce4bhlh2rcd13ifvqgig","pricing_plan_id":"free"},{"bike_id":"536867e4-0199-4385-b193-cdb3dab4bb59","system_id":"levelo_inurba_marseille","lat":43.25102,"lon":5.403214,"is_reserved":false,"is_disabled":false,"rental_uris":{"android":"levelo://app?vid=536867e4-0199-4385-b193-cdb3dab4bb59","ios":"levelo://app?vid=536867e4-0199-4385-b193-cdb3dab4bb59"},"vehicle_type_id":"4","last_reported":1700823971,"current_range_meters":22000,"station_id":"ce4bhlh2rcd13ifvqgig","pricing_plan_id":"free"},{"bike_id":"0d5ff200-b717-4d1b-a00b-caff37148102","system_id":"levelo_inurba_marseille","lat":43.25112,"lon":5.40335,"is_reserved":false,"is_disabled":false,"rental_uris":{"android":"levelo://app?vid=0d5ff200-b717-4d1b-a00b-caff37148102","ios":"levelo://app?vid=0d5ff200-b717-4d1b-a00b-caff37148102"},"vehicle_type_id":"4","last_reported":1700823971,"current_range_meters":6800,"station_id":"ce4bhlh2rcd13ifvqgig","pricing_plan_id":"free"},{"bike_id":"13f421bd-d175-4ab4-bb9b-bb827f57e932","system_id":"levelo_inurba_marseille","lat":43.25102,"lon":5.403214,"is_reserved":false,"is_disabled":false,"rental_uris":{"android":"levelo://app?vid=13f421bd-d175-4ab4-bb9b-bb827f57e932","ios":"levelo://app?vid=13f421bd-d175-4ab4-bb9b-bb827f57e932"},"vehicle_type_id":"4","last_reported":1700823971,"current_range_meters":8400,"station_id":"ce4bhlh2rcd13ifvqgig","pricing_plan_id":"free"},{"bike_id":"5835ed78-84c5-40e4-87d0-ab9ed0e23a35","system_id":"levelo_inurba_marseille","lat":43.25103,"lon":5.40321,"is_reserved":false,"is_disabled":false,"rental_uris":{"android":"levelo://app?vid=5835ed78-84c5-40e4-87d0-ab9ed0e23a35","ios":"levelo://app?vid=5835ed78-84c5-40e4-87d0-ab9ed0e23a35"},"vehicle_type_id":"4","last_reported":1700823971,"current_range_meters":17600,"station_id":"ce4bhlh2rcd13ifvqgig","pricing_plan_id":"free"},{"bike_id":"03275a86-12c2-4bed-b33f-c075ae0a78b7","system_id":"levelo_inurba_marseille","lat":43.246467,"lon":5.388984,"is_reserved":false,"is_disabled":false,"rental_uris":{"android":"levelo://app?vid=03275a86-12c2-4bed-b33f-c075ae0a78b7","ios":"levelo://app?vid=03275a86-12c2-4bed-b33f-c075ae0a78b7"},"vehicle_type_id":"4","last_reported":1700823971,"current_range_meters":29200,"station_id":"ce4bhg12rcd13ifvqf60","pricing_plan_id":"free"},{"bike_id":"e5734605-a64e-4a89-825d-d184fa7f79ab","system_id":"levelo_inurba_marseille","lat":43.243884,"lon":5.370736,"is_reserved":false,"is_disabled":false,"rental_uris":{"android":"levelo://app?vid=e5734605-a64e-4a89-825d-d184fa7f79ab","ios":"levelo://app?vid=e5734605-a64e-4a89-825d-d184fa7f79ab"},"vehicle_type_id":"4","last_reported":1700823971,"current_range_meters":29200,"station_id":"ce4bhhh2rcd13ifvqfk0","pricing_plan_id":"free"},{"bike_id":"67cbb5ad-74a5-4919-9676-33b81549afcb","system_id":"levelo_inurba_marseille","lat":43.243876,"lon":5.370618,"is_reserved":false,"is_disabled":false,"rental_uris":{"android":"levelo://app?vid=67cbb5ad-74a5-4919-9676-33b81549afcb","ios":"levelo://app?vid=67cbb5ad-74a5-4919-9676-33b81549afcb"},"vehicle_type_id":"4","last_reported":1700823971,"current_range_meters":29200,"station_id":"","pricing_plan_id":"free"},{"bike_id":"b6a3294a-d08b-4856-bc2d-cb266764db07","system_id":"levelo_inurba_marseille","lat":43.243884,"lon":5.370737,"is_reserved":false,"is_disabled":false,"rental_uris":{"android":"levelo://app?vid=b6a3294a-d08b-4856-bc2d-cb266764db07","ios":"levelo://app?vid=b6a3294a-d08b-4856-bc2d-cb266764db07"},"vehicle_type_id":"4","last_reported":1700823971,"current_range_meters":28800,"station_id":"ce4bhhh2rcd13ifvqfk0","pricing_plan_id":"free"},{"bike_id":"37a91800-392f-4ba8-a060-fafd20b8850e","system_id":"levelo_inurba_marseille","lat":43.243884,"lon":5.370736,"is_reserved":false,"is_disabled":false,"rental_uris":{"android":"levelo://app?vid=37a91800-392f-4ba8-a060-fafd20b8850e","ios":"levelo://app?vid=37a91800-392f-4ba8-a060-fafd20b8850e"},"vehicle_type_id":"4","last_reported":1700823971,"current_range_meters":29600,"station_id":"ce4bhhh2rcd13ifvqfk0","pricing_plan_id":"free"},{"bike_id":"002f35b0-8653-40ae-b718-04602e09d7c3","system_id":"levelo_inurba_marseille","lat":43.243884,"lon":5.370736,"is_reserved":false,"is_disabled":false,"rental_uris":{"android":"levelo://app?vid=002f35b0-8653-40ae-b718-04602e09d7c3","ios":"levelo://app?vid=002f35b0-8653-40ae-b718-04602e09d7c3"},"vehicle_type_id":"4","last_reported":1700823971,"current_range_meters":26000,"station_id":"ce4bhhh2rcd13ifvqfk0","pricing_plan_id":"free"},{"bike_id":"fff1a1ed-7637-414c-be65-1eb4db0f671b","system_id":"levelo_inurba_marseille","lat":43.241871,"lon":5.378698,"is_reserved":false,"is_disabled":false,"rental_uris":{"android":"levelo://app?vid=fff1a1ed-7637-414c-be65-1eb4db0f671b","ios":"levelo://app?vid=fff1a1ed-7637-414c-be65-1eb4db0f671b"},"vehicle_type_id":"4","last_reported":1700823971,"current_range_meters":24800,"station_id":"ce4bhnp2rcd13ifvqgvg","pricing_plan_id":"free"},{"bike_id":"a982afe5-328a-4357-9a86-803d1fece1f4","system_id":"levelo_inurba_marseille","lat":43.24098,"lon":5.37728,"is_reserved":false,"is_disabled":false,"rental_uris":{"android":"levelo://app?vid=a982afe5-328a-4357-9a86-803d1fece1f4","ios":"levelo://app?vid=a982afe5-328a-4357-9a86-803d1fece1f4"},"vehicle_type_id":"4","last_reported":1700823971,"current_range_meters":20800,"station_id":"ce4bhnp2rcd13ifvqgvg","pricing_plan_id":"free"},{"bike_id":"cd0657f4-1742-499b-bc21-90fa5bf02dba","system_id":"levelo_inurba_marseille","lat":43.24076,"lon":5.37754,"is_reserved":false,"is_disabled":false,"rental_uris":{"android":"levelo://app?vid=cd0657f4-1742-499b-bc21-90fa5bf02dba","ios":"levelo://app?vid=cd0657f4-1742-499b-bc21-90fa5bf02dba"},"vehicle_type_id":"4","last_reported":1700823971,"current_range_meters":19600,"station_id":"ce4bhnp2rcd13ifvqgvg","pricing_plan_id":"free"},{"bike_id":"2a8c5f18-0ef9-4fe3-876e-496bcc7b26fe","system_id":"levelo_inurba_marseille","lat":43.24076,"lon":5.37758,"is_reserved":false,"is_disabled":false,"rental_uris":{"android":"levelo://app?vid=2a8c5f18-0ef9-4fe3-876e-496bcc7b26fe","ios":"levelo://app?vid=2a8c5f18-0ef9-4fe3-876e-496bcc7b26fe"},"vehicle_type_id":"4","last_reported":1700823971,"current_range_meters":10000,"station_id":"ce4bhnp2rcd13ifvqgvg","pricing_plan_id":"free"},{"bike_id":"8cf32eba-6558-4a17-a2eb-c25ea600662e","system_id":"levelo_inurba_marseille","lat":43.24072,"lon":5.37751,"is_reserved":false,"is_disabled":false,"rental_uris":{"android":"levelo://app?vid=8cf32eba-6558-4a17-a2eb-c25ea600662e","ios":"levelo://app?vid=8cf32eba-6558-4a17-a2eb-c25ea600662e"},"vehicle_type_id":"4","last_reported":1700823971,"current_range_meters":22800,"station_id":"ce4bhnp2rcd13ifvqgvg","pricing_plan_id":"free"},{"bike_id":"f01a61d0-f2b7-437c-9d48-18b2135f838c","system_id":"levelo_inurba_marseille","lat":43.24072,"lon":5.37758,"is_reserved":false,"is_disabled":false,"rental_uris":{"android":"levelo://app?vid=f01a61d0-f2b7-437c-9d48-18b2135f838c","ios":"levelo://app?vid=f01a61d0-f2b7-437c-9d48-18b2135f838c"},"vehicle_type_id":"4","last_reported":1700823971,"current_range_meters":19200,"station_id":"ce4bhnp2rcd13ifvqgvg","pricing_plan_id":"free"},{"bike_id":"7f92e4ba-fc2d-471e-9229-3f4693369a8e","system_id":"levelo_inurba_marseille","lat":43.24071,"lon":5.37755,"is_reserved":false,"is_disabled":false,"rental_uris":{"android":"levelo://app?vid=7f92e4ba-fc2d-471e-9229-3f4693369a8e","ios":"levelo://app?vid=7f92e4ba-fc2d-471e-9229-3f4693369a8e"},"vehicle_type_id":"4","last_reported":1700823971,"current_range_meters":21200,"station_id":"ce4bhnp2rcd13ifvqgvg","pricing_plan_id":"free"},{"bike_id":"404642da-847f-4dd8-8eba-db544ee8bc70","system_id":"levelo_inurba_marseille","lat":43.24071,"lon":5.37756,"is_reserved":false,"is_disabled":false,"rental_uris":{"android":"levelo://app?vid=404642da-847f-4dd8-8eba-db544ee8bc70","ios":"levelo://app?vid=404642da-847f-4dd8-8eba-db544ee8bc70"},"vehicle_type_id":"4","last_reported":1700823971,"current_range_meters":21600,"station_id":"ce4bhnp2rcd13ifvqgvg","pricing_plan_id":"free"},{"bike_id":"a521f606-5701-4030-b4c5-dab33339e8f5","system_id":"levelo_inurba_marseille","lat":43.2407,"lon":5.37759,"is_reserved":false,"is_disabled":false,"rental_uris":{"android":"levelo://app?vid=a521f606-5701-4030-b4c5-dab33339e8f5","ios":"levelo://app?vid=a521f606-5701-4030-b4c5-dab33339e8f5"},"vehicle_type_id":"4","last_reported":1700823971,"current_range_meters":30400,"station_id":"ce4bhnp2rcd13ifvqgvg","pricing_plan_id":"free"},{"bike_id":"57d6b358-bc37-4d2c-8eac-3de3563055b7","system_id":"levelo_inurba_marseille","lat":43.24069,"lon":5.37748,"is_reserved":false,"is_disabled":false,"rental_uris":{"android":"levelo://app?vid=57d6b358-bc37-4d2c-8eac-3de3563055b7","ios":"levelo://app?vid=57d6b358-bc37-4d2c-8eac-3de3563055b7"},"vehicle_type_id":"4","last_reported":1700823971,"current_range_meters":0,"station_id":"ce4bhnp2rcd13ifvqgvg","pricing_plan_id":"free"},{"bike_id":"4ef047e8-4098-4859-a97b-ebc738e120bd","system_id":"levelo_inurba_marseille","lat":43.24069,"lon":5.37755,"is_reserved":false,"is_disabled":false,"rental_uris":{"android":"levelo://app?vid=4ef047e8-4098-4859-a97b-ebc738e120bd","ios":"levelo://app?vid=4ef047e8-4098-4859-a97b-ebc738e120bd"},"vehicle_type_id":"4","last_reported":1700823971,"current_range_meters":10000,"station_id":"ce4bhnp2rcd13ifvqgvg","pricing_plan_id":"free"},{"bike_id":"e5d9319a-0d59-4eee-95fc-d2c696394cad","system_id":"levelo_inurba_marseille","lat":43.24068,"lon":5.37749,"is_reserved":false,"is_disabled":false,"rental_uris":{"android":"levelo://app?vid=e5d9319a-0d59-4eee-95fc-d2c696394cad","ios":"levelo://app?vid=e5d9319a-0d59-4eee-95fc-d2c696394cad"},"vehicle_type_id":"4","last_reported":1700823971,"current_range_meters":14800,"station_id":"ce4bhnp2rcd13ifvqgvg","pricing_plan_id":"free"},{"bike_id":"f8800547-f8f8-4413-8dd5-03ffdb3fd15f","system_id":"levelo_inurba_marseille","lat":43.24066,"lon":5.37754,"is_reserved":false,"is_disabled":false,"rental_uris":{"android":"levelo://app?vid=f8800547-f8f8-4413-8dd5-03ffdb3fd15f","ios":"levelo://app?vid=f8800547-f8f8-4413-8dd5-03ffdb3fd15f"},"vehicle_type_id":"4","last_reported":1700823971,"current_range_meters":24400,"station_id":"ce4bhnp2rcd13ifvqgvg","pricing_plan_id":"free"},{"bike_id":"3ef70aed-f117-47c7-8cf5-f087e626237b","system_id":"levelo_inurba_marseille","lat":43.239588,"lon":5.366238,"is_reserved":false,"is_disabled":false,"rental_uris":{"android":"levelo://app?vid=3ef70aed-f117-47c7-8cf5-f087e626237b","ios":"levelo://app?vid=3ef70aed-f117-47c7-8cf5-f087e626237b"},"vehicle_type_id":"4","last_reported":1700823971,"current_range_meters":12800,"station_id":"ce4bhi12rcd13ifvqfp0","pricing_plan_id":"free"},{"bike_id":"124f1bf7-9af9-4782-a052-dd6aa38caf9d","system_id":"levelo_inurba_marseille","lat":43.239588,"lon":5.366238,"is_reserved":false,"is_disabled":false,"rental_uris":{"android":"levelo://app?vid=124f1bf7-9af9-4782-a052-dd6aa38caf9d","ios":"levelo://app?vid=124f1bf7-9af9-4782-a052-dd6aa38caf9d"},"vehicle_type_id":"4","last_reported":1700823971,"current_range_meters":26000,"station_id":"ce4bhi12rcd13ifvqfp0","pricing_plan_id":"free"},{"bike_id":"c3facbb7-06a8-412a-9a80-52aeb0503e18","system_id":"levelo_inurba_marseille","lat":43.231923,"lon":5.355545,"is_reserved":false,"is_disabled":false,"rental_uris":{"android":"levelo://app?vid=c3facbb7-06a8-412a-9a80-52aeb0503e18","ios":"levelo://app?vid=c3facbb7-06a8-412a-9a80-52aeb0503e18"},"vehicle_type_id":"4","last_reported":1700823971,"current_range_meters":30400,"station_id":"ce4bhu92rcd13ifvqi70","pricing_plan_id":"free"},{"bike_id":"15098f4a-57e6-48e8-846b-97856909e7a5","system_id":"levelo_inurba_marseille","lat":43.231919,"lon":5.355532,"is_reserved":false,"is_disabled":false,"rental_uris":{"android":"levelo://app?vid=15098f4a-57e6-48e8-846b-97856909e7a5","ios":"levelo://app?vid=15098f4a-57e6-48e8-846b-97856909e7a5"},"vehicle_type_id":"4","last_reported":1700823971,"current_range_meters":17200,"station_id":"ce4bhu92rcd13ifvqi70","pricing_plan_id":"free"},{"bike_id":"e5142140-e22b-48ab-87cb-62f0bb2d3ee6","system_id":"levelo_inurba_marseille","lat":43.231923,"lon":5.355545,"is_reserved":false,"is_disabled":false,"rental_uris":{"android":"levelo://app?vid=e5142140-e22b-48ab-87cb-62f0bb2d3ee6","ios":"levelo://app?vid=e5142140-e22b-48ab-87cb-62f0bb2d3ee6"},"vehicle_type_id":"4","last_reported":1700823971,"current_range_meters":10400,"station_id":"ce4bhu92rcd13ifvqi70","pricing_plan_id":"free"},{"bike_id":"aeb874ed-5a67-45f7-94cd-1c1e110219bc","system_id":"levelo_inurba_marseille","lat":43.231919,"lon":5.355532,"is_reserved":false,"is_disabled":false,"rental_uris":{"android":"levelo://app?vid=aeb874ed-5a67-45f7-94cd-1c1e110219bc","ios":"levelo://app?vid=aeb874ed-5a67-45f7-94cd-1c1e110219bc"},"vehicle_type_id":"4","last_reported":1700823971,"current_range_meters":31200,"station_id":"ce4bhu92rcd13ifvqi70","pricing_plan_id":"free"},