{"last_updated":1741280916,"ttl":60,"version":"2.2","data":{"bikes":[{"bike_id":"ca863893-22ac-4fa2-907f-4a0b0d8e90eb","system_id":"levelo_inurba_marseille","lat":43.29958,"lon":5.38496,"is_reserved":false,"is_disabled":false,"rental_uris":{"android":"levelo://app?vid=ca863893-22ac-4fa2-907f-4a0b0d8e90eb","ios":"levelo://app?vid=ca863893-22ac-4fa2-907f-4a0b0d8e90eb"},"vehicle_type_id":"4","last_reported":1741280917,"current_range_meters":2800,"station_id":"ce4bgj92rcd13ifvqbd0","pricing_plan_id":"cebpf4jnsgd1na2vs0mg"},{"bike_id":"2769dc82-c464-4761-a051-d2ad55c9815e","system_id":"levelo_inurba_marseille","lat":43.27945,"lon":5.41043,"is_reserved":false,"is_disabled":false,"rental_uris":{"android":"levelo://app?vid=2769dc82-c464-4761-a051-d2ad55c9815e","ios":"levelo://app?vid=2769dc82-c464-4761-a051-d2ad55c9815e"},"vehicle_type_id":"4","last_reported":1741280917,"current_range_meters":3200,"station_id":"ce4bhnp2rcd13ifvqh0g","pricing_plan_id":"cebpf4jnsgd1na2vs0mg"},{"bike_id":"d7b63fb6-0a15-42f8-af8f-4325621d449e","system_id":"levelo_inurba_marseille","lat":43.28845,"lon":5.39314,"is_reserved":false,"is_disabled":false,"rental_uris":{"android":"levelo://app?vid=d7b63fb6-0a15-42f8-af8f-4325621d449e","ios":"levelo://app?vid=d7b63fb6-0a15-42f8-af8f-4325621d449e"},"vehicle_type_id":"4","last_reported":1741280917,"current_range_meters":1600,"station_id":"ce4bh2p2rcd13ifvqdi0","pricing_plan_id":"cebpf4jnsgd1na2vs0mg"},{"bike_id":"9a329c51-229b-424c-ae09-e5149dd19640","system_id":"levelo_inurba_marseille","lat":43.286601,"lon":5.386637,"is_reserved":false,"is_disabled":false,"rental_uris":{"android":"levelo://app?vid=9a329c51-229b-424c-ae09-e5149dd19640","ios":"levelo://app?vid=9a329c51-229b-424c-ae09-e5149dd19640"},"vehicle_type_id":"4","last_reported":1741280917,"current_range_meters":2800,"station_id":"ce4bhgp2rcd13ifvqfe0","pricing_plan_id":"cebpf4jnsgd1na2vs0mg"},{"bike_id":"ebf8161a-cab7-4028-b35f-3388767cbc46","system_id":"levelo_inurba_marseille","lat":43.23066,"lon":5.35491,"is_reserved":false,"is_disabled":false,"rental_uris":{"android":"levelo://app?vid=ebf8161a-cab7-4028-b35f-3388767cbc46","ios":"levelo://app?vid=ebf8161a-cab7-4028-b35f-3388767cbc46"},"vehicle_type_id":"4","last_reported":1741280917,"current_range_meters":3600,"station_id":"cpo3342slgdg3j2ifvpg","pricing_plan_id":"cebpf4jnsgd1na2vs0mg"},{"bike_id":"f1b4f0ac-2ae6-4c1e-806f-168a051b6065","system_id":"levelo_inurba_marseille","lat":43.30256,"lon":5.40082,"is_reserved":false,"is_disabled":false,"rental_uris":{"android":"levelo://app?vid=f1b4f0ac-2ae6-4c1e-806f-168a051b6065","ios":"levelo://app?vid=f1b4f0ac-2ae6-4c1e-806f-168a051b6065"},"vehicle_type_id":"4","last_reported":1741280917,"current_range_meters":9200,"station_id":"ce4bgvh2rcd13ifvqcs0","pricing_plan_id":"cebpf4jnsgd1na2vs0mg"},{"bike_id":"27dff8d7-6705-46cd-9326-4469ed929349","system_id":"levelo_inurba_marseille","lat":43.27074,"lon":5.40258,"is_reserved":false,"is_disabled":false,"rental_uris":{"android":"levelo://app?vid=27dff8d7-6705-46cd-9326-4469ed929349","ios":"levelo://app?vid=27dff8d7-6705-46cd-9326-4469ed929349"},"vehicle_type_id":"4","last_reported":1741280917,"current_range_meters":4000,"station_id":"ce4bhk92rcd13ifvqgc0","pricing_plan_id":"cebpf4jnsgd1na2vs0mg"},{"bike_id":"1a55ff1f-ae3d-4e7f-81a3-e0034170e0e4","system_id":"levelo_inurba_marseille","lat":43.30419,"lon":5.41289,"is_reserved":false,"is_disabled":false,"rental_uris":{"android":"levelo://app?vid=1a55ff1f-ae3d-4e7f-81a3-e0034170e0e4","ios":"levelo://app?vid=1a55ff1f-ae3d-4e7f-81a3-e0034170e0e4"},"vehicle_type_id":"4","last_reported":1741280917,"current_range_meters":4000,"station_id":"ce4bhop2rcd13ifvqh8g","pricing_plan_id":"cebpf4jnsgd1na2vs0mg"},{"bike_id":"284dc75b-a2ef-4619-ad18-a59101a6cfe4","system_id":"levelo_inurba_marseille","lat":43.292721,"lon":5.3844,"is_reserved":false,"is_disabled":false,"rental_uris":{"android":"levelo://app?vid=284dc75b-a2ef-4619-ad18-a59101a6cfe4","ios":"levelo://app?vid=284dc75b-a2ef-4619-ad18-a59101a6cfe4"},"vehicle_type_id":"4","last_reported":1741280917,"current_range_meters":4800,"station_id":"ce4bh112rcd13ifvqd90","pricing_plan_id":"cebpf4jnsgd1na2vs0mg"},{"bike_id":"c2abc49b-6aad-4fe9-95bc-fe25ddd54526","system_id":"levelo_inurba_marseille","lat":43.28151,"lon":5.42653,"is_reserved":false,"is_disabled":false,"rental_uris":{"android":"levelo://app?vid=c2abc49b-6aad-4fe9-95bc-fe25ddd54526","ios":"levelo://app?vid=c2abc49b-6aad-4fe9-95bc-fe25ddd54526"},"vehicle_type_id":"4","last_reported":1741280917,"current_range_meters":4400,"station_id":"ce4bhnh2rcd13ifvqgug","pricing_plan_id":"cebpf4jnsgd1na2vs0mg"},{"bike_id":"60e16947-a9f1-498b-b2ef-8ab854e60937","system_id":"levelo_inurba_marseille","lat":43.28156,"lon":5.42621,"is_reserved":false,"is_disabled":false,"rental_uris":{"android":"levelo://app?vid=60e16947-a9f1-498b-b2ef-8ab854e60937","ios":"levelo://app?vid=60e16947-a9f1-498b-b2ef-8ab854e60937"},"vehicle_type_id":"4","last_reported":1741280917,"current_range_meters":4400,"station_id":"ce4bhnh2rcd13ifvqgug","pricing_plan_id":"cebpf4jnsgd1na2vs0mg"},{"bike_id":"8f1ab560-86ea-4236-b719-9f1d872789e7","system_id":"levelo_inurba_marseille","lat":43.31711,"lon":5.37743,"is_reserved":false,"is_disabled":false,"rental_uris":{"android":"levelo://app?vid=8f1ab560-86ea-4236-b719-9f1d872789e7","ios":"levelo://app?vid=8f1ab560-86ea-4236-b719-9f1d872789e7"},"vehicle_type_id":"4","last_reported":1741280917,"current_range_meters":4400,"station_id":"ce4bgth2rcd13ifvqch0","pricing_plan_id":"cebpf4jnsgd1na2vs0mg"},{"bike_id":"33772ad6-83ff-4220-91c3-5fdf0c0d0ae0","system_id":"levelo_inurba_marseille","lat":43.31322,"lon":5.39699,"is_reserved":false,"is_disabled":false,"rental_uris":{"android":"levelo://app?vid=33772ad6-83ff-4220-91c3-5fdf0c0d0ae0","ios":"levelo://app?vid=33772ad6-83ff-4220-91c3-5fdf0c0d0ae0"},"vehicle_type_id":"4","last_reported":1741280917,"current_range_meters":4400,"station_id":"ce4bgvp2rcd13ifvqcu0","pricing_plan_id":"cebpf4jnsgd1na2vs0mg"},{"bike_id":"4f626960-ec5f-480a-852c-5e46e362c3d0","system_id":"levelo_inurba_marseille","lat":43.296816,"lon":5.372948,"is_reserved":false,"is_disabled":false,"rental_uris":{"android":"levelo://app?vid=4f626960-ec5f-480a-852c-5e46e362c3d0","ios":"levelo://app?vid=4f626960-ec5f-480a-852c-5e46e362c3d0"},"vehicle_type_id":"4","last_reported":1741280917,"current_range_meters":4400,"station_id":"ce4bh512rcd13ifvqe2g","pricing_plan_id":"cebpf4jnsgd1na2vs0mg"},{"bike_id":"7bdf6528-cded-4e31-bdcd-05e5503236cb","system_id":"levelo_inurba_marseille","lat":43.30807,"lon":5.43517,"is_reserved":false,"is_disabled":false,"rental_uris":{"android":"levelo://app?vid=7bdf6528-cded-4e31-bdcd-05e5503236cb","ios":"levelo://app?vid=7bdf6528-cded-4e31-bdcd-05e5503236cb"},"vehicle_type_id":"4","last_reported":1741280917,"current_range_meters":5600,"station_id":"ce4bhph2rcd13ifvqheg","pricing_plan_id":"cebpf4jnsgd1na2vs0mg"},{"bike_id":"5f7519a9-9fec-489d-bed8-f252349c2b27","system_id":"levelo_inurba_marseille","lat":43.29519,"lon":5.37503,"is_reserved":false,"is_disabled":false,"rental_uris":{"android":"levelo://app?vid=5f7519a9-9fec-489d-bed8-f252349c2b27","ios":"levelo://app?vid=5f7519a9-9fec-489d-bed8-f252349c2b27"},"vehicle_type_id":"4","last_reported":1741280917,"current_range_meters":6000,"station_id":"ce4bgkp2rcd13ifvqbmg","pricing_plan_id":"cebpf4jnsgd1na2vs0mg"},{"bike_id":"64485ca4-2662-42ee-aa67-c343494018e6","system_id":"levelo_inurba_marseille","lat":43.317574,"lon":5.39014,"is_reserved":false,"is_disabled":false,"rental_uris":{"android":"levelo://app?vid=64485ca4-2662-42ee-aa67-c343494018e6","ios":"levelo://app?vid=64485ca4-2662-42ee-aa67-c343494018e6"},"vehicle_type_id":"4","last_reported":1741280917,"current_range_meters":6000,"station_id":"ce4bhb12rcd13ifvqem0","pricing_plan_id":"cebpf4jnsgd1na2vs0mg"},{"bike_id":"df136d72-50f6-443b-95a6-e52bb1c5b01a","system_id":"levelo_inurba_marseille","lat":43.24081,"lon":5.37752,"is_reserved":false,"is_disabled":false,"rental_uris":{"android":"levelo://app?vid=df136d72-50f6-443b-95a6-e52bb1c5b01a","ios":"levelo://app?vid=df136d72-50f6-443b-95a6-e52bb1c5b01a"},"vehicle_type_id":"4","last_reported":1741280917,"current_range_meters":6000,"station_id":"ce4bhnp2rcd13ifvqgvg","pricing_plan_id":"cebpf4jnsgd1na2vs0mg"},{"bike_id":"a2ac99ac-0b74-45dc-870c-151c150f40f0","system_id":"levelo_inurba_marseille","lat":43.28837,"lon":5.40038,"is_reserved":false,"is_disabled":false,"rental_uris":{"android":"levelo://app?vid=a2ac99ac-0b74-45dc-870c-151c150f40f0","ios":"levelo://app?vid=a2ac99ac-0b74-45dc-870c-151c150f40f0"},"vehicle_type_id":"4","last_reported":1741280917,"current_range_meters":6400,"station_id":"","pricing_plan_id":"cebpf4jnsgd1na2vs0mg"},{"bike_id":"a4088eb0-3a76-445d-932c-65dbfe7ceeb9","system_id":"levelo_inurba_marseille","lat":43.28462,"lon":5.35888,"is_reserved":false,"is_disabled":false,"rental_uris":{"android":"levelo://app?vid=a4088eb0-3a76-445d-932c-65dbfe7ceeb9","ios":"levelo://app?vid=a4088eb0-3a76-445d-932c-65dbfe7ceeb9"},"vehicle_type_id":"4","last_reported":1741280917,"current_range_meters":6400,"station_id":"ce4bhah2rcd13ifvqei0","pricing_plan_id":"cebpf4jnsgd1na2vs0mg"},{"bike_id":"85be5971-1e7f-481b-8758-01b037ff9350","system_id":"levelo_inurba_marseille","lat":43.28462,"lon":5.35896,"is_reserved":false,"is_disabled":false,"rental_uris":{"android":"levelo://app?vid=85be5971-1e7f-481b-8758-01b037ff9350","ios":"levelo://app?vid=85be5971-1e7f-481b-8758-01b037ff9350"},"vehicle_type_id":"4","last_reported":1741280917,"current_range_meters":6400,"station_id":"ce4bhah2rcd13ifvqei0","pricing_plan_id":"cebpf4jnsgd1na2vs0mg"},{"bike_id":"a86e8bec-ab5a-4194-ad21-07df27d66c9d","system_id":"levelo_inurba_marseille","lat":43.29636,"lon":5.4059,"is_reserved":false,"is_disabled":false,"rental_uris":{"android":"levelo://app?vid=a86e8bec-ab5a-4194-ad21-07df27d66c9d","ios":"levelo://app?vid=a86e8bec-ab5a-4194-ad21-07df27d66c9d"},"vehicle_type_id":"4","last_reported":1741280917,"current_range_meters":6000,"station_id":"ce4bh0h2rcd13ifvqd60","pricing_plan_id":"cebpf4jnsgd1na2vs0mg"},{"bike_id":"77ae1912-8e6f-489b-99a2-9bc231f96cf9","system_id":"levelo_inurba_marseille","lat":43.25581,"lon":5.38243,"is_reserved":false,"is_disabled":false,"rental_uris":{"android":"levelo://app?vid=77ae1912-8e6f-489b-99a2-9bc231f96cf9","ios":"levelo://app?vid=77ae1912-8e6f-489b-99a2-9bc231f96cf9"},"vehicle_type_id":"4","last_reported":1741280917,"current_range_meters":6800,"station_id":"ce4bhih2rcd13ifvqfs0","pricing_plan_id":"cebpf4jnsgd1na2vs0mg"},{"bike_id":"f9fc3450-00c1-46c4-a8f0-75d5054525a7","system_id":"levelo_inurba_marseille","lat":43.23966,"lon":5.36634,"is_reserved":false,"is_disabled":false,"rental_uris":{"android":"levelo://app?vid=f9fc3450-00c1-46c4-a8f0-75d5054525a7","ios":"levelo://app?vid=f9fc3450-00c1-46c4-a8f0-75d5054525a7"},"vehicle_type_id":"4","last_reported":1741280917,"current_range_meters":6800,"station_id":"ce4bhi12rcd13ifvqfp0","pricing_plan_id":"cebpf4jnsgd1na2vs0mg"},{"bike_id":"963d5627-bc25-40af-91af-8107927b4ca1","system_id":"levelo_inurba_marseille","lat":43.29961,"lon":5.37173,"is_reserved":false,"is_disabled":false,"rental_uris":{"android":"levelo://app?vid=963d5627-bc25-40af-91af-8107927b4ca1","ios":"levelo://app?vid=963d5627-bc25-40af-91af-8107927b4ca1"},"vehicle_type_id":"4","last_reported":1741280917,"current_range_meters":6800,"station_id":"ce4bgr92rcd13ifvqc7g","pricing_plan_id":"cebpf4jnsgd1na2vs0mg"},{"bike_id":"75dd29b2-9f92-482c-9873-a8cb48ba058a","system_id":"levelo_inurba_marseille","lat":43.29538,"lon":5.38542,"is_reserved":false,"is_disabled":false,"rental_uris":{"android":"levelo://app?vid=75dd29b2-9f92-482c-9873-a8cb48ba058a","ios":"levelo://app?vid=75dd29b2-9f92-482c-9873-a8cb48ba058a"},"vehicle_type_id":"4","last_reported":1741280917,"current_range_meters":6800,"station_id":"ce4bgih2rcd13ifvqba0","pricing_plan_id":"cebpf4jnsgd1na2vs0mg"},{"bike_id":"3fffc9cd-f418-41de-9fba-0cc23722d684","system_id":"levelo_inurba_marseille","lat":43.23068,"lon":5.3549,"is_reserved":false,"is_disabled":false,"rental_uris":{"android":"levelo://app?vid=3fffc9cd-f418-41de-9fba-0cc23722d684","ios":"levelo://app?vid=3fffc9cd-f418-41de-9fba-0cc23722d684"},"vehicle_type_id":"4","last_reported":1741280917,"current_range_meters":6800,"station_id":"cpo3342slgdg3j2ifvpg","pricing_plan_id":"cebpf4jnsgd1na2vs0mg"},{"bike_id":"fadc5597-2f44-411e-bbc9-b698e9edf980","system_id":"levelo_inurba_marseille","lat":43.27939,"lon":5.41037,"is_reserved":false,"is_disabled":false,"rental_uris":{"android":"levelo://app?vid=fadc5597-2f44-411e-bbc9-b698e9edf980","ios":"levelo://app?vid=fadc5597-2f44-411e-bbc9-b698e9edf980"},"vehicle_type_id":"4","last_reported":1741280917,"current_range_meters":6800,"station_id":"ce4bhnp2rcd13ifvqh0g","pricing_plan_id":"cebpf4jnsgd1na2vs0mg"},{"bike_id":"1c432d59-f304-4192-a00a-65a112567df1","system_id":"levelo_inurba_marseille","lat":43.31084,"lon":5.4243,"is_reserved":false,"is_disabled":false,"rental_uris":{"android":"levelo://app?vid=1c432d59-f304-4192-a00a-65a112567df1","ios":"levelo://app?vid=1c432d59-f304-4192-a00a-65a112567df1"},"vehicle_type_id":"4","last_reported":1741280917,"current_range_meters":7200,"station_id":"ce4bhp92rcd13ifvqhag","pricing_plan_id":"cebpf4jnsgd1na2vs0mg"},{"bike_id":"75997a3e-acf9-448d-8fa8-643ba3f7e57c","system_id":"levelo_inurba_marseille","lat":43.25721,"lon":5.41111,"is_reserved":false,"is_disabled":false,"rental_uris":{"android":"levelo://app?vid=75997a3e-acf9-448d-8fa8-643ba3f7e57c","ios":"levelo://app?vid=75997a3e-acf9-448d-8fa8-643ba3f7e57c"},"vehicle_type_id":"4","last_reported":1741280917,"current_range_meters":7200,"station_id":"ce4bhkp2rcd13ifvqgd0","pricing_plan_id":"cebpf4jnsgd1na2vs0mg"},{"bike_id":"7a57eeed-8044-4892-8eff-d8893238f4a6","system_id":"levelo_inurba_marseille","lat":43.23182,"lon":5.39993,"is_reserved":false,"is_disabled":false,"rental_uris":{"android":"levelo://app?vid=7a57eeed-8044-4892-8eff-d8893238f4a6","ios":"levelo://app?vid=7a57eeed-8044-4892-8eff-d8893238f4a6"},"vehicle_type_id":"4","last_reported":1741280917,"current_range_meters":7200,"station_id":"ce4bhn12rcd13ifvqgqg","pricing_plan_id":"cebpf4jnsgd1na2vs0mg"},{"bike_id":"1978e2ad-3054-41b1-85f1-381e805e439e","system_id":"levelo_inurba_marseille","lat":43.25088,"lon":5.3952,"is_reserved":false,"is_disabled":false,"rental_uris":{"android":"levelo://app?vid=1978e2ad-3054-41b1-85f1-381e805e439e","ios":"levelo://app?vid=1978e2ad-3054-41b1-85f1-381e805e439e"},"vehicle_type_id":"4","last_reported":1741280917,"current_range_meters":7200,"station_id":"ce4bhm12rcd13ifvqgkg","pricing_plan_id":"cebpf4jnsgd1na2vs0mg"},{"bike_id":"c201fcaa-24e0-4800-8544-9d0c7461c8bf","system_id":"levelo_inurba_marseille","lat":43.3119,"lon":5.3871,"is_reserved":false,"is_disabled":false,"rental_uris":{"android":"levelo://app?vid=c201fcaa-24e0-4800-8544-9d0c7461c8bf","ios":"levelo://app?vid=c201fcaa-24e0-4800-8544-9d0c7461c8bf"},"vehicle_type_id":"4","last_reported":1741280917,"current_range_meters":7200,"station_id":"ce4bgv12rcd13ifvqcp0","pricing_plan_id":"cebpf4jnsgd1na2vs0mg"},{"bike_id":"a3e1b0c1-11e2-4ec1-8279-98aa860bbdcc","system_id":"levelo_inurba_marseille","lat":43.26202,"lon":5.37928,"is_reserved":false,"is_disabled":false,"rental_uris":{"android":"levelo://app?vid=a3e1b0c1-11e2-4ec1-8279-98aa860bbdcc","ios":"levelo://app?vid=a3e1b0c1-11e2-4ec1-8279-98aa860bbdcc"},"vehicle_type_id":"4","last_reported":1741280917,"current_range_meters":6800,"station_id":"ce4bhjp2rcd13ifvqg90","pricing_plan_id":"cebpf4jnsgd1na2vs0mg"},{"bike_id":"641805c3-6a9a-4f09-b595-5e405820520c","system_id":"levelo_inurba_marseille","lat":43.30898,"lon":5.39635,"is_reserved":false,"is_disabled":false,"rental_uris":{"android":"levelo://app?vid=641805c3-6a9a-4f09-b595-5e405820520c","ios":"levelo://app?vid=641805c3-6a9a-4f09-b595-5e405820520c"},"vehicle_type_id":"4","last_reported":1741280917,"current_range_meters":7200,"station_id":"ce4bh012rcd13ifvqcv0","pricing_plan_id":"cebpf4jnsgd1na2vs0mg"},{"bike_id":"2de88a43-8d76-447f-9624-9fa8baf4a11f","system_id":"levelo_inurba_marseille","lat":43.30092,"lon":5.39061,"is_reserved":false,"is_disabled":false,"rental_uris":{"android":"levelo://app?vid=2de88a43-8d76-447f-9624-9fa8baf4a11f","ios":"levelo://app?vid=2de88a43-8d76-447f-9624-9fa8baf4a11f"},"vehicle_type_id":"4","last_reported":1741280917,"current_range_meters":7200,"station_id":"ce4bh192rcd13ifvqdb0","pricing_plan_id":"cebpf4jnsgd1na2vs0mg"},{"bike_id":"a9ba24ba-cb74-48be-96ef-31d3380ff3f3","system_id":"levelo_inurba_marseille","lat":43.29267,"lon":5.38421,"is_reserved":false,"is_disabled":false,"rental_uris":{"android":"levelo://app?vid=a9ba24ba-cb74-48be-96ef-31d3380ff3f3","ios":"levelo://app?vid=a9ba24ba-cb74-48be-96ef-31d3380ff3f3"},"vehicle_type_id":"4","last_reported":1741280917,"current_range_meters":7200,"station_id":"ce4bh692rcd13ifvqea0","pricing_plan_id":"cebpf4jnsgd1na2vs0mg"},{"bike_id":"30b8be40-3d2e-4f7d-a831-74ba3450c49d","system_id":"levelo_inurba_marseille","lat":43.262995,"lon":5.374084,"is_reserved":false,"is_disabled":false,"rental_uris":{"android":"levelo://app?vid=30b8be40-3d2e-4f7d-a831-74ba3450c49d","ios":"levelo://app?vid=30b8be40-3d2e-4f7d-a831-74ba3450c49d"},"vehicle_type_id":"4","last_reported":1741280917,"current_range_meters":7200,"station_id":"ce4bhh92rcd13ifvqfj0","pricing_plan_id":"cebpf4jnsgd1na2vs0mg"},{"bike_id":"5dcf0930-6922-4b14-85d5-480fcc252b3b","system_id":"levelo_inurba_marseille","lat":43.28421,"lon":5.34988,"is_reserved":false,"is_disabled":false,"rental_uris":{"android":"levelo://app?vid=5dcf0930-6922-4b14-85d5-480fcc252b3b","ios":"levelo://app?vid=5dcf0930-6922-4b14-85d5-480fcc252b3b"},"vehicle_type_id":"4","last_reported":1741280917,"current_range_meters":8000,"station_id":"ce4bhbh2rcd13ifvqepg","pricing_plan_id":"cebpf4jnsgd1na2vs0mg"},{"bike_id":"af41fdba-471d-4e2f-8d3c-cea3a0396504","system_id":"levelo_inurba_marseille","lat":43.29739,"lon":5.37404,"is_reserved":false,"is_disabled":false,"rental_uris":{"android":"levelo://app?vid=af41fdba-471d-4e2f-8d3c-cea3a0396504","ios":"levelo://app?vid=af41fdba-471d-4e2f-8d3c-cea3a0396504"},"vehicle_type_id":"4","last_reported":1741280917,"current_range_meters":8400,"station_id":"","pricing_plan_id":"cebpf4jnsgd1na2vs0mg"},{"bike_id":"2a395623-bb4c-44e5-89c2-fccc126771e3","system_id":"levelo_inurba_marseille","lat":43.29671,"lon":5.37285,"is_reserved":false,"is_disabled":false,"rental_uris":{"android":"levelo://app?vid=2a395623-bb4c-44e5-89c2-fccc126771e3","ios":"levelo://app?vid=2a395623-bb4c-44e5-89c2-fccc126771e3"},"vehicle_type_id":"4","last_reported":1741280917,"current_range_meters":8000,"station_id":"ce4bgk12rcd13ifvqbj0","pricing_plan_id":"cebpf4jnsgd1na2vs0mg"},{"bike_id":"7b3dc7b9-ed95-4fac-b8db-fb164e0e0a08","system_id":"levelo_inurba_marseille","lat":43.27495,"lon":5.42451,"is_reserved":false,"is_disabled":true,"rental_uris":{"android":"levelo://app?vid=7b3dc7b9-ed95-4fac-b8db-fb164e0e0a08","ios":"levelo://app?vid=7b3dc7b9-ed95-4fac-b8db-fb164e0e0a08"},"vehicle_type_id":"4","last_reported":1741280917,"current_range_meters":8000,"station_id":"ce4bhn92rcd13ifvqgrg","pricing_plan_id":"cebpf4jnsgd1na2vs0mg"},{"bike_id":"10295b4f-3d1e-4d25-aaca-b5c2a9ad8987","system_id":"levelo_inurba_marseille","lat":43.2603,"lon":5.37543,"is_reserved":false,"is_disabled":false,"rental_uris":{"android":"levelo://app?vid=10295b4f-3d1e-4d25-aaca-b5c2a9ad8987","ios":"levelo://app?vid=10295b4f-3d1e-4d25-aaca-b5c2a9ad8987"},"vehicle_type_id":"4","last_reported":1741280917,"current_range_meters":8800,"station_id":"ce4bhgh2rcd13ifvqfa0","pricing_plan_id":"cebpf4jnsgd1na2vs0mg"},{"bike_id":"4ace18c2-e70b-4c9e-becd-aa41f6f9fb67","system_id":"levelo_inurba_marseille","lat":43.23947,"lon":5.36655,"is_reserved":false,"is_disabled":false,"rental_uris":{"android":"levelo://app?vid=4ace18c2-e70b-4c9e-becd-aa41f6f9fb67","ios":"levelo://app?vid=4ace18c2-e70b-4c9e-becd-aa41f6f9fb67"},"vehicle_type_id":"4","last_reported":1741280917,"current_range_meters":8400,"station_id":"ce4bhi12rcd13ifvqfp0","pricing_plan_id":"cebpf4jnsgd1na2vs0mg"},{"bike_id":"e5704a73-424d-4146-95df-9ce090e7f505","system_id":"levelo_inurba_marseille","lat":43.29867,"lon":5.39724,"is_reserved":false,"is_disabled":false,"rental_uris":{"android":"levelo://app?vid=e5704a73-424d-4146-95df-9ce090e7f505","ios":"levelo://app?vid=e5704a73-424d-4146-95df-9ce090e7f505"},"vehicle_type_id":"4","last_reported":1741280917,"current_range_meters":8400,"station_id":"ce4bh0h2rcd13ifvqd50","pricing_plan_id":"cebpf4jnsgd1na2vs0mg"},{"bike_id":"e6974836-95c1-42aa-8242-455133048dfc","system_id":"levelo_inurba_marseille","lat":43.27813,"lon":5.40706,"is_reserved":false,"is_disabled":false,"rental_uris":{"android":"levelo://app?vid=e6974836-95c1-42aa-8242-455133048dfc","ios":"levelo://app?vid=e6974836-95c1-42aa-8242-455133048dfc"},"vehicle_type_id":"4","last_reported":1741280917,"current_range_meters":8400,"station_id":"ce4bhnh2rcd13ifvqgtg","pricing_plan_id":"cebpf4jnsgd1na2vs0mg"},{"bike_id":"2c26e70c-34ac-4740-a161-faf117671fa1","system_id":"levelo_inurba_marseille","lat":43.28852,"lon":5.35864,"is_reserved":false,"is_disabled":false,"rental_uris":{"android":"levelo://app?vid=2c26e70c-34ac-4740-a161-faf117671fa1","ios":"levelo://app?vid=2c26e70c-34ac-4740-a161-faf117671fa1"},"vehicle_type_id":"4","last_reported":1741280917,"current_range_meters":8400,"station_id":"ce4bhb12rcd13ifvqem0","pricing_plan_id":"cebpf4jnsgd1na2vs0mg"},{"bike_id":"3fb2a9d8-d683-442a-b786-8e0e7d6f5dbf","system_id":"levelo_inurba_marseille","lat":43.29568,"lon":5.39951,"is_reserved":false,"is_disabled":false,"rental_uris":{"android":"levelo://app?vid=3fb2a9d8-d683-442a-b786-8e0e7d6f5dbf","ios":"levelo://app?vid=3fb2a9d8-d683-442a-b786-8e0e7d6f5dbf"},"vehicle_type_id":"4","last_reported":1741280917,"current_range_meters":8400,"station_id":"ce4bh312rcd13ifvqdj0","pricing_plan_id":"cebpf4jnsgd1na2vs0mg"},{"bike_id":"951a1b70-47e0-499c-b4c6-b782ca13504f","system_id":"levelo_inurba_marseille","lat":43.27997,"lon":5.4001,"is_reserved":false,"is_disabled":false,"rental_uris":{"android":"levelo://app?vid=951a1b70-47e0-499c-b4c6-b782ca13504f","ios":"levelo://app?vid=951a1b70-47e0-499c-b4c6-b782ca13504f"},"vehicle_type_id":"4","last_reported":1741280917,"current_range_meters":8400,"station_id":"ce4bho92rcd13ifvqh4g","pricing_plan_id":"cebpf4jnsgd1na2vs0mg"},{"bike_id":"fdde8103-1f2a-4455-bcfa-e1d74ecb0194","system_id":"levelo_inurba_marseille","lat":43.27826,"lon":5.40715,"is_reserved":false,"is_disabled":false,"rental_uris":{"android":"levelo://app?vid=fdde8103-1f2a-4455-bcfa-e1d74ecb0194","ios":"levelo://app?vid=fdde8103-1f2a-4455-bcfa-e1d74ecb0194"},"vehicle_type_id":"4","last_reported":1741280917,"current_range_meters":8400,"station_id":"ce4bhnh2rcd13ifvqgtg","pricing_plan_id":"cebpf4jnsgd1na2vs0mg"},{"bike_id":"d2fd960f-0af3-4bf9-bd6a-b0c4aa4544af","system_id":"levelo_inurba_marseille","lat":43.232,"lon":5.39966,"is_reserved":false,"is_disabled":false,"rental_uris":{"android":"levelo://app?vid=d2fd960f-0af3-4bf9-bd6a-b0c4aa4544af","ios":"levelo://app?vid=d2fd960f-0af3-4bf9-bd6a-b0c4aa4544af"},"vehicle_type_id":"4","last_reported":1741280917,"current_range_meters":8400,"station_id":"ce4bhn12rcd13ifvqgqg","pricing_plan_id":"cebpf4jnsgd1na2vs0mg"},{"bike_id":"0ca8f2c6-222a-4728-8f4b-2012abd8c7fd","system_id":"levelo_inurba_marseille","lat":43.29049,"lon":5.39958,"is_reserved":false,"is_disabled":false,"rental_uris":{"android":"levelo://app?vid=0ca8f2c6-222a-4728-8f4b-2012abd8c7fd","ios":"levelo://app?vid=0ca8f2c6-222a-4728-8f4b-2012abd8c7fd"},"vehicle_type_id":"4","last_reported":1741280917,"current_range_meters":8000,"station_id":"ce4bh392rcd13ifvqdm0","pricing_plan_id":"cebpf4jnsgd1na2vs0mg"},{"bike_id":"e3341622-346f-4904-9fb0-a88cb54a1901","system_id":"levelo_inurba_marseille","lat":43.29509,"lon":5.39393,"is_reserved":false,"is_disabled":false,"rental_uris":{"android":"levelo://app?vid=e3341622-346f-4904-9fb0-a88cb54a1901","ios":"levelo://app?vid=e3341622-346f-4904-9fb0-a88cb54a1901"},"vehicle_type_id":"4","last_reported":1741280917,"current_range_meters":8400,"station_id":"ce4bh292rcd13ifvqdf0","pricing_plan_id":"cebpf4jnsgd1na2vs0mg"},{"bike_id":"e0c0bec3-454a-410d-a60f-3aed516ec149","system_id":"levelo_inurba_marseille","lat":43.23201,"lon":5.35543,"is_reserved":false,"is_disabled":false,"rental_uris":{"android":"levelo://app?vid=e0c0bec3-454a-410d-a60f-3aed516ec149","ios":"levelo://app?vid=e0c0bec3-454a-410d-a60f-3aed516ec149"},"vehicle_type_id":"4","last_reported":1741280917,"current_range_meters":8800,"station_id":"ce4bhu92rcd13ifvqi70","pricing_plan_id":"cebpf4jnsgd1na2vs0mg"},{"bike_id":"ba7ff4ce-a14f-485d-8aba-960c38fcd5ce","system_id":"levelo_inurba_marseille","lat":43.28946,"lon":5.363842,"is_reserved":false,"is_disabled":false,"rental_uris":{"android":"levelo://app?vid=ba7ff4ce-a14f-485d-8aba-960c38fcd5ce","ios":"levelo://app?vid=ba7ff4ce-a14f-485d-8aba-960c38fcd5ce"},"vehicle_type_id":"4","last_reported":1741280917,"current_range_meters":8800,"station_id":"ce4bhc92rcd13ifvqetg","pricing_plan_id":"cebpf4jnsgd1na2vs0mg"},{"bike_id":"f8530caa-7d77-48e2-884a-9ffed5786c3f","system_id":"levelo_inurba_marseille","lat":43.2593,"lon":5.40911,"is_reserved":false,"is_disabled":false,"rental_uris":{"android":"levelo://app?vid=f8530caa-7d77-48e2-884a-9ffed5786c3f","ios":"levelo://app?vid=f8530caa-7d77-48e2-884a-9ffed5786c3f"},"vehicle_type_id":"4","last_reported":1741280917,"current_range_meters":8800,"station_id":"ce4bhm92rcd13ifvqglg","pricing_plan_id":"cebpf4jnsgd1na2vs0mg"},{"bike_id":"8115e144-3276-434b-9b69-66d20de1016a","system_id":"levelo_inurba_marseille","lat":43.27897,"lon":5.38003,"is_reserved":false,"is_disabled":false,"rental_uris":{"android":"levelo://app?vid=8115e144-3276-434b-9b69-66d20de1016a","ios":"levelo://app?vid=8115e144-3276-434b-9b69-66d20de1016a"},"vehicle_type_id":"4","last_reported":1741280917,"current_range_meters":8400,"station_id":"ce4bhf92rcd13ifvqf50","pricing_plan_id":"cebpf4jnsgd1na2vs0mg"},{"bike_id":"1f4fc263-8297-4215-aedd-9c982eeace45","system_id":"levelo_inurba_marseille","lat":43.29712,"lon":5.377,"is_reserved":false,"is_disabled":false,"rental_uris":{"android":"levelo://app?vid=1f4fc263-8297-4215-aedd-9c982eeace45","ios":"levelo://app?vid=1f4fc263-8297-4215-aedd-9c982eeace45"},"vehicle_type_id":"4","last_reported":1741280917,"current_range_meters":8800,"station_id":"ce4bgkh2rcd13ifvqbl0","pricing_plan_id":"cebpf4jnsgd1na2vs0mg"},{"bike_id":"740df627-5ddd-4847-9d55-a8f5b4da2f4e","system_id":"levelo_inurba_marseille","lat":43.30989,"lon":5.38292,"is_reserved":false,"is_disabled":false,"rental_uris":{"android":"levelo://app?vid=740df627-5ddd-4847-9d55-a8f5b4da2f4e","ios":"levelo://app?vid=740df627-5ddd-4847-9d55-a8f5b4da2f4e"},"vehicle_type_id":"4","last_reported":1741280917,"current_range_meters":9200,"station_id":"","pricing_plan_id":"cebpf4jnsgd1na2vs0mg"},{"bike_id":"5d1df6b0-1e26-4b23-ad14-af6c5addb239","system_id":"levelo_inurba_marseille","lat":43.24532,"lon":5.39502,"is_reserved":false,"is_disabled":false,"rental_uris":{"android":"levelo://app?vid=5d1df6b0-1e26-4b23-ad14-af6c5addb239","ios":"levelo://app?vid=5d1df6b0-1e26-4b23-ad14-af6c5addb239"},"vehicle_type_id":"4","last_reported":1741280917,"current_range_meters":8800,"station_id":"ce4bhlp2rcd13ifvqgjg","pricing_plan_id":"cebpf4jnsgd1na2vs0mg"},{"bike_id":"d015e1e7-8b4f-4898-a841-104d62c0d9ad","system_id":"levelo_inurba_marseille","lat":43.23182,"lon":5.39983,"is_reserved":false,"is_disabled":false,"rental_uris":{"android":"levelo://app?vid=d015e1e7-8b4f-4898-a841-104d62c0d9ad","ios":"levelo://app?vid=d015e1e7-8b4f-4898-a841-104d62c0d9ad"},"vehicle_type_id":"4","last_reported":1741280917,"current_range_meters":8800,"station_id":"ce4bhn12rcd13ifvqgqg","pricing_plan_id":"cebpf4jnsgd1na2vs0mg"},{"bike_id":"d3e27771-168c-4fb7-8c52-21640ea98c08","system_id":"levelo_inurba_marseille","lat":43.23964,"lon":5.3664,"is_reserved":false,"is_disabled":false,"rental_uris":{"android":"levelo://app?vid=d3e27771-168c-4fb7-8c52-21640ea98c08","ios":"levelo://app?vid=d3e27771-168c-4fb7-8c52-21640ea98c08"},"vehicle_type_id":"4","last_reported":1741280917,"current_range_meters":8800,"station_id":"ce4bhi12rcd13ifvqfp0","pricing_plan_id":"cebpf4jnsgd1na2vs0mg"},{"bike_id":"59092d31-15c4-4a22-bd4c-e494d69001d8","system_id":"levelo_inurba_marseille","lat":43.29612,"lon":5.38093,"is_reserved":false,"is_disabled":false,"rental_uris":{"android":"levelo://app?vid=59092d31-15c4-4a22-bd4c-e494d69001d8","ios":"levelo://app?vid=59092d31-15c4-4a22-bd4c-e494d69001d8"},"vehicle_type_id":"4","last_reported":1741280917,"current_range_meters":8800,"station_id":"ce4bgl12rcd13ifvqbo0","pricing_plan_id":"cebpf4jnsgd1na2vs0mg"},{"bike_id":"81220ab9-fb8e-4638-a084-692a6595df85","system_id":"levelo_inurba_marseille","lat":43.26198,"lon":5.42059,"is_reserved":false,"is_disabled":false,"rental_uris":{"android":"levelo://app?vid=81220ab9-fb8e-4638-a084-692a6595df85","ios":"levelo://app?vid=81220ab9-fb8e-4638-a084-692a6595df85"},"vehicle_type_id":"4","last_reported":1741280917,"current_range_meters":8800,"station_id":"","pricing_plan_id":"cebpf4jnsgd1na2vs0mg"},{"bike_id":"aa136062-4452-4213-b52a-863eef2234f3","system_id":"levelo_inurba_marseille","lat":43.30426,"lon":5.41272,"is_reserved":false,"is_disabled":false,"rental_uris":{"android":"levelo://app?vid=aa136062-4452-4213-b52a-863eef2234f3","ios":"levelo://app?vid=aa136062-4452-4213-b52a-863eef2234f3"},"vehicle_type_id":"4","last_reported":1741280917,"current_range_meters":8800,"station_id":"ce4bhop2rcd13ifvqh8g","pricing_plan_id":"cebpf4jnsgd1na2vs0mg"},{"bike_id":"5225125a-6cff-4e35-ac1e-a45b5cfe2e32","system_id":"levelo_inurba_marseille","lat":43.281605,"lon":5.42634,"is_reserved":false,"is_disabled":false,"rental_uris":{"android":"levelo://app?vid=5225125a-6cff-4e35-ac1e-a45b5cfe2e32","ios":"levelo://app?vid=5225125a-6cff-4e35-ac1e-a45b5cfe2e32"},"vehicle_type_id":"4","last_reported":1741280917,"current_range_meters":9200,"station_id":"ce4bhnh2rcd13ifvqgug","pricing_plan_id":"cebpf4jnsgd1na2vs0mg"},{"bike_id":"7c52ed8c-d09c-4721-b124-e9a781b8dcca","system_id":"levelo_inurba_marseille","lat":43.298558,"lon":5.38389,"is_reserved":false,"is_disabled":false,"rental_uris":{"android":"levelo://app?vid=7c52ed8c-d09c-4721-b124-e9a781b8dcca","ios":"levelo://app?vid=7c52ed8c-d09c-4721-b124-e9a781b8dcca"},"vehicle_type_id":"4","last_reported":1741280917,"current_range_meters":9200,"station_id":"ce4bh0h2rcd13ifvqd40","pricing_plan_id":"cebpf4jnsgd1na2vs0mg"},{"bike_id":"7f1905bf-da4d-4f13-af14-c5d46804e585","system_id":"levelo_inurba_marseille","lat":43.23185,"lon":5.35577,"is_reserved":false,"is_disabled":false,"rental_uris":{"android":"levelo://app?vid=7f1905bf-da4d-4f13-af14-c5d46804e585","ios":"levelo://app?vid=7f1905bf-da4d-4f13-af14-c5d46804e585"},"vehicle_type_id":"4","last_reported":1741280917,"current_range_meters":9600,"station_id":"ce4bhu92rcd13ifvqi70","pricing_plan_id":"cebpf4jnsgd1na2vs0mg"},{"bike_id":"c5d9a748-fb84-4751-9008-dc4467d9ed9a","system_id":"levelo_inurba_marseille","lat":43.23195,"lon":5.3555,"is_reserved":false,"is_disabled":false,"rental_uris":{"android":"levelo://app?vid=c5d9a748-fb84-4751-9008-dc4467d9ed9a","ios":"levelo://app?vid=c5d9a748-fb84-4751-9008-dc4467d9ed9a"},"vehicle_type_id":"4","last_reported":1741280917,"current_range_meters":9200,"station_id":"ce4bhu92rcd13ifvqi70","pricing_plan_id":"cebpf4jnsgd1na2vs0mg"},{"bike_id":"5635ed86-3a42-4ecb-8de2-42dedd3a78bd","system_id":"levelo_inurba_marseille","lat":43.301361,"lon":5.387791,"is_reserved":false,"is_disabled":false,"rental_uris":{"android":"levelo://app?vid=5635ed86-3a42-4ecb-8de2-42dedd3a78bd","ios":"levelo://app?vid=5635ed86-3a42-4ecb-8de2-42dedd3a78bd"},"vehicle_type_id":"4","last_reported":1741280917,"current_range_meters":9200,"station_id":"ce4bhjp2rcd13ifvqg90","pricing_plan_id":"cebpf4jnsgd1na2vs0mg"},{"bike_id":"c97ecfa8-4744-4a40-ba7f-a60ec398758a","system_id":"levelo_inurba_marseille","lat":43.29531,"lon":5.39041,"is_reserved":false,"is_disabled":false,"rental_uris":{"android":"levelo://app?vid=c97ecfa8-4744-4a40-ba7f-a60ec398758a","ios":"levelo://app?vid=c97ecfa8-4744-4a40-ba7f-a60ec398758a"},"vehicle_type_id":"4","last_reported":1741280917,"current_range_meters":9600,"station_id":"ce4bh3p2rcd13ifvqdp0","pricing_plan_id":"cebpf4jnsgd1na2vs0mg"},{"bike_id":"6fd708a1-6fe3-42af-8b13-a41ed31d8dcd","system_id":"levelo_inurba_marseille","lat":43.29225,"lon":5.36052,"is_reserved":false,"is_disabled":false,"rental_uris":{"android":"levelo://app?vid=6fd708a1-6fe3-42af-8b13-a41ed31d8dcd","ios":"levelo://app?vid=6fd708a1-6fe3-42af-8b13-a41ed31d8dcd"},"vehicle_type_id":"4","last_reported":1741280917,"current_range_meters":9200,"station_id":"ce4bhbh2rcd13ifvqeqg","pricing_plan_id":"cebpf4jnsgd1na2vs0mg"},{"bike_id":"47061543-fada-47a1-bfc3-d01de413b6a1","system_id":"levelo_inurba_marseille","lat":43.28262,"lon":5.3508,"is_reserved":false,"is_disabled":false,"rental_uris":{"android":"levelo://app?vid=47061543-fada-47a1-bfc3-d01de413b6a1","ios":"levelo://app?vid=47061543-fada-47a1-bfc3-d01de413b6a1"},"vehicle_type_id":"4","last_reported":1741280917,"current_range_meters":9200,"station_id":"ce4bhbp2rcd13ifvqerg","pricing_plan_id":"cebpf4jnsgd1na2vs0mg"},{"bike_id":"d0c766a7-ada3-4f88-9a0e-18855d2a758e","system_id":"levelo_inurba_marseille","lat":43.23193,"lon":5.35555,"is_reserved":false,"is_disabled":false,"rental_uris":{"android":"levelo://app?vid=d0c766a7-ada3-4f88-9a0e-18855d2a758e","ios":"levelo://app?vid=d0c766a7-ada3-4f88-9a0e-18855d2a758e"},"vehicle_type_id":"4","last_reported":1741280917,"current_range_meters":9200,"station_id":"ce4bhu92rcd13ifvqi70","pricing_plan_id":"cebpf4jnsgd1na2vs0mg"},{"bike_id":"52f9aff6-42dd-4763-83e7-ab9d5dddd5de","system_id":"levelo_inurba_marseille","lat":43.31488,"lon":5.37305,"is_reserved":false,"is_disabled":false,"rental_uris":{"android":"levelo://app?vid=52f9aff6-42dd-4763-83e7-ab9d5dddd5de","ios":"levelo://app?vid=52f9aff6-42dd-4763-83e7-ab9d5dddd5de"},"vehicle_type_id":"4","last_reported":1741280917,"current_range_meters":14400,"station_id":"ce4bgt12rcd13ifvqcd0","pricing_plan_id":"cebpf4jnsgd1na2vs0mg"},{"bike_id":"0acd9d20-2478-453d-bba6-871730c2512d","system_id":"levelo_inurba_marseille","lat":43.26204,"lon":5.37931,"is_reserved":false,"is_disabled":false,"rental_uris":{"android":"levelo://app?vid=0acd9d20-2478-453d-bba6-871730c2512d","ios":"levelo://app?vid=0acd9d20-2478-453d-bba6-871730c2512d"},"vehicle_type_id":"4","last_reported":1741280917,"current_range_meters":10000,"station_id":"ce4bhjp2rcd13ifvqg90","pricing_plan_id":"cebpf4jnsgd1na2vs0mg"},{"bike_id":"c31049b0-ce8a-48aa-8940-cae4201894f5","system_id":"levelo_inurba_marseille","lat":43.26953,"lon":5.38638,"is_reserved":false,"is_disabled":false,"rental_uris":{"android":"levelo://app?vid=c31049b0-ce8a-48aa-8940-cae4201894f5","ios":"levelo://app?vid=c31049b0-ce8a-48aa-8940-cae4201894f5"},"vehicle_type_id":"4","last_reported":1741280917,"current_range_meters":10000,"station_id":"ce4bhh92rcd13ifvqfh0","pricing_plan_id":"cebpf4jnsgd1na2vs0mg"},{"bike_id":"bedd6b21-2b38-4665-9f44-29af45ec7f45","system_id":"levelo_inurba_marseille","lat":43.27619,"lon":5.36106,"is_reserved":false,"is_disabled":false,"rental_uris":{"android":"levelo://app?vid=bedd6b21-2b38-4665-9f44-29af45ec7f45","ios":"levelo://app?vid=bedd6b21-2b38-4665-9f44-29af45ec7f45"},"vehicle_type_id":"4","last_reported":1741280917,"current_range_meters":10000,"station_id":"ce4bgj92rcd13ifvqbe0","pricing_plan_id":"cebpf4jnsgd1na2vs0mg"},{"bike_id":"1ce97fc1-de8e-4ff9-ab43-b2726b57bbd4","system_id":"levelo_inurba_marseille","lat":43.26924,"lon":5.38917,"is_reserved":false,"is_disabled":false,"rental_uris":{"android":"levelo://app?vid=1ce97fc1-de8e-4ff9-ab43-b2726b57bbd4","ios":"levelo://app?vid=1ce97fc1-de8e-4ff9-ab43-b2726b57bbd4"},"vehicle_type_id":"4","last_reported":1741280917,"current_range_meters":10000,"station_id":"ce4bhhh2rcd13ifvqfl0","pricing_plan_id":"cebpf4jnsgd1na2vs0mg"},{"bike_id":"c262f8cf-6400-4efd-af91-c8aabadab203","system_id":"levelo_inurba_marseille","lat":43.23185,"lon":5.39983,"is_reserved":false,"is_disabled":false,"rental_uris":{"android":"levelo://app?vid=c262f8cf-6400-4efd-af91-c8aabadab203","ios":"levelo://app?vid=c262f8cf-6400-4efd-af91-c8aabadab203"},"vehicle_type_id":"4","last_reported":1741280917,"current_range_meters":10000,"station_id":"ce4bhn12rcd13ifvqgqg","pricing_plan_id":"cebpf4jnsgd1na2vs0mg"},{"bike_id":"7beb2c62-c4d8-4327-a3e2-c494e9501026","system_id":"levelo_inurba_marseille","lat":43.30359,"lon":5.41876,"is_reserved":false,"is_disabled":false,"rental_uris":{"android":"levelo://app?vid=7beb2c62-c4d8-4327-a3e2-c494e9501026","ios":"levelo://app?vid=7beb2c62-c4d8-4327-a3e2-c494e9501026"},"vehicle_type_id":"4","last_reported":1741280917,"current_range_meters":10000,"station_id":"ce4bhop2rcd13ifvqh7g","pricing_plan_id":"cebpf4jnsgd1na2vs0mg"},{"bike_id":"ac35eafe-694d-4f2e-8a01-27a84122fe0b","system_id":"levelo_inurba_marseille","lat":43.31382,"lon":5.39175,"is_reserved":false,"is_disabled":false,"rental_uris":{"android":"levelo://app?vid=ac35eafe-694d-4f2e-8a01-27a84122fe0b","ios":"levelo://app?vid=ac35eafe-694d-4f2e-8a01-27a84122fe0b"},"vehicle_type_id":"4","last_reported":1741280917,"current_range_meters":10000,"station_id":"","pricing_plan_id":"cebpf4jnsgd1na2vs0mg"},{"bike_id":"05869944-0be6-4b58-a289-682febe195cb","system_id":"levelo_inurba_marseille","lat":43.25874,"lon":5.39893,"is_reserved":false,"is_disabled":false,"rental_uris":{"android":"levelo://app?vid=05869944-0be6-4b58-a289-682febe195cb","ios":"levelo://app?vid=05869944-0be6-4b58-a289-682febe195cb"},"vehicle_type_id":"4","last_reported":1741280917,"current_range_meters":10000,"station_id":"ce4bhl92rcd13ifvqghg","pricing_plan_id":"cebpf4jnsgd1na2vs0mg"},{"bike_id":"365b0577-ed8a-415d-b047-7a6332ca8f71","system_id":"levelo_inurba_marseille","lat":43.3089,"lon":5.39634,"is_reserved":false,"is_disabled":false,"rental_uris":{"android":"levelo://app?vid=365b0577-ed8a-415d-b047-7a6332ca8f71","ios":"levelo://app?vid=365b0577-ed8a-415d-b047-7a6332ca8f71"},"vehicle_type_id":"4","last_reported":1741280917,"current_range_meters":10000,"station_id":"ce4bh012rcd13ifvqcv0","pricing_plan_id":"cebpf4jnsgd1na2vs0mg"},{"bike_id":"63815b6e-f9bf-4ae0-9cc4-53a2a981b401","system_id":"levelo_inurba_marseille","lat":43.26836,"lon":5.40258,"is_reserved":false,"is_disabled":false,"rental_uris":{"android":"levelo://app?vid=63815b6e-f9bf-4ae0-9cc4-53a2a981b401","ios":"levelo://app?vid=63815b6e-f9bf-4ae0-9cc4-53a2a981b401"},"vehicle_type_id":"4","last_reported":1741280917,"current_range_meters":10000,"station_id":"ce501612rcd8frsf0b60","pricing_plan_id":"cebpf4jnsgd1na2vs0mg"},{"bike_id":"910b4815-12b4-418a-a6fe-e0878ba4ab4f","system_id":"levelo_inurba_marseille","lat":43.31713,"lon":5.37742,"is_reserved":false,"is_disabled":false,"rental_uris":{"android":"levelo://app?vid=910b4815-12b4-418a-a6fe-e0878ba4ab4f","ios":"levelo://app?vid=910b4815-12b4-418a-a6fe-e0878ba4ab4f"},"vehicle_type_id":"4","last_reported":1741280917,"current_range_meters":10000,"station_id":"ce4bgth2rcd13ifvqch0","pricing_plan_id":"cebpf4jnsgd1na2vs0mg"},{"bike_id":"8079a5b1-b6cc-46c6-89eb-64f5140f6c2d","system_id":"levelo_inurba_marseille","lat":43.29101,"lon":5.37188,"is_reserved":false,"is_disabled":false,"rental_uris":{"android":"levelo://app?vid=8079a5b1-b6cc-46c6-89eb-64f5140f6c2d","ios":"levelo://app?vid=8079a5b1-b6cc-46c6-89eb-64f5140f6c2d"},"vehicle_type_id":"4","last_reported":1741280917,"current_range_meters":10000,"station_id":"ce4bh5p2rcd13ifvqe4g","pricing_plan_id":"cebpf4jnsgd1na2vs0mg"},{"bike_id":"a6a152b5-8aab-4c82-b82d-e07034bbdf6f","system_id":"levelo_inurba_marseille","lat":43.29896,"lon":5.43668,"is_reserved":false,"is_disabled":false,"rental_uris":{"android":"levelo://app?vid=a6a152b5-8aab-4c82-b82d-e07034bbdf6f","ios":"levelo://app?vid=a6a152b5-8aab-4c82-b82d-e07034bbdf6f"},"vehicle_type_id":"4","last_reported":1741280917,"current_range_meters":10800,"station_id":"ce4bhpp2rcd13ifvqhfg","pricing_plan_id":"cebpf4jnsgd1na2vs0mg"},{"bike_id":"d84210b5-e4ad-4646-831c-02e83d3abc55","system_id":"levelo_inurba_marseille","lat":43.28458,"lon":5.35886,"is_reserved":false,"is_disabled":false,"rental_uris":{"android":"levelo://app?vid=d84210b5-e4ad-4646-831c-02e83d3abc55","ios":"levelo://app?vid=d84210b5-e4ad-4646-831c-02e83d3abc55"},"vehicle_type_id":"4","last_reported":1741280917,"current_range_meters":10800,"station_id":"ce4bhah2rcd13ifvqei0","pricing_plan_id":"cebpf4jnsgd1na2vs0mg"},{"bike_id":"d0d1b861-fc7b-4e26-bf94-3473241b8993","system_id":"levelo_inurba_marseille","lat":43.23181,"lon":5.399807,"is_reserved":false,"is_disabled":false,"rental_uris":{"android":"levelo://app?vid=d0d1b861-fc7b-4e26-bf94-3473241b8993","ios":"levelo://app?vid=d0d1b861-fc7b-4e26-bf94-3473241b8993"},"vehicle_type_id":"4","last_reported":1741280917,"current_range_meters":10800,"station_id":"ce4bhn12rcd13ifvqgqg","pricing_plan_id":"cebpf4jnsgd1na2vs0mg"},{"bike_id":"f927a9c8-5d84-472f-b8fd-88f2fc3bc3e6","system_id":"levelo_inurba_marseille","lat":43.29938,"lon":5.43648,"is_reserved":false,"is_disabled":false,"rental_uris":{"android":"levelo://app?vid=f927a9c8-5d84-472f-b8fd-88f2fc3bc3e6","ios":"levelo://app?vid=f927a9c8-5d84-472f-b8fd-88f2fc3bc3e6"},"vehicle_type_id":"4","last_reported":1741280917,"current_range_meters":10800,"station_id":"ce4bhpp2rcd13ifvqhfg","pricing_plan_id":"cebpf4jnsgd1na2vs0mg"},{"bike_id":"f3459cd6-ef57-46eb-affe-7698f8ce5697","system_id":"levelo_inurba_marseille","lat":43.28619,"lon":5.35106,"is_reserved":false,"is_disabled":false,"rental_uris":{"android":"levelo://app?vid=f3459cd6-ef57-46eb-affe-7698f8ce5697","ios":"levelo://app?vid=f3459cd6-ef57-46eb-affe-7698f8ce5697"},"vehicle_type_id":"4","last_reported":1741280917,"current_range_meters":10800,"station_id":"ce4bhch2rcd13ifvqeug","pricing_plan_id":"cebpf4jnsgd1na2vs0mg"},{"bike_id":"f8c7bbea-5a6a-42a3-8b80-8e88530da007","system_id":"levelo_inurba_marseille","lat":43.29601,"lon":5.38098,"is_reserved":false,"is_disabled":false,"rental_uris":{"android":"levelo://app?vid=f8c7bbea-5a6a-42a3-8b80-8e88530da007","ios":"levelo://app?vid=f8c7bbea-5a6a-42a3-8b80-8e88530da007"},"vehicle_type_id":"4","last_reported":1741280917,"current_range_meters":11200,"station_id":"ce4bgl12rcd13ifvqbo0","pricing_plan_id":"cebpf4jnsgd1na2vs0mg"},{"bike_id":"ff3228ef-c722-4531-aa41-dd0456ac2a39","system_id":"levelo_inurba_marseille","lat":43.23187,"lon":5.39978,"is_reserved":false,"is_disabled":false,"rental_uris":{"android":"levelo://app?vid=ff3228ef-c722-4531-aa41-dd0456ac2a39","ios":"levelo://app?vid=ff3228ef-c722-4531-aa41-dd0456ac2a39"},"vehicle_type_id":"4","last_reported":1741280917,"current_range_meters":11200,"station_id":"ce4bhn12rcd13ifvqgqg","pricing_plan_id":"cebpf4jnsgd1na2vs0mg"},{"bike_id":"357f6b0d-7429-4870-b5b1-c540923d954d","system_id":"levelo_inurba_marseille","lat":43.23068,"lon":5.35487,"is_reserved":false,"is_disabled":false,"rental_uris":{"android":"levelo://app?vid=357f6b0d-7429-4870-b5b1-c540923d954d","ios":"levelo://app?vid=357f6b0d-7429-4870-b5b1-c540923d954d"},"vehicle_type_id":"4","last_reported":1741280917,"current_range_meters":11200,"station_id":"cpo3342slgdg3j2ifvpg","pricing_plan_id":"cebpf4jnsgd1na2vs0mg"},{"bike_id":"e173de44-48c8-4a8b-89ca-6753aa045e7a","system_id":"levelo_inurba_marseille","lat":43.29005,"lon":5.35611,"is_reserved":false,"is_disabled":false,"rental_uris":{"android":"levelo://app?vid=e173de44-48c8-4a8b-89ca-6753aa045e7a","ios":"levelo://app?vid=e173de44-48c8-4a8b-89ca-6753aa045e7a"},"vehicle_type_id":"4","last_reported":1741280917,"current_range_meters":10800,"station_id":"ce4bhb92rcd13ifvqen0","pricing_plan_id":"cebpf4jnsgd1na2vs0mg"},{"bike_id":"0236009d-b83e-4481-b97e-6a8e1f189885","system_id":"levelo_inurba_marseille","lat":43.2979,"lon":5.3813,"is_reserved":false,"is_disabled":false,"rental_uris":{"android":"levelo://app?vid=0236009d-b83e-4481-b97e-6a8e1f189885","ios":"levelo://app?vid=0236009d-b83e-4481-b97e-6a8e1f189885"},"vehicle_type_id":"4","last_reported":1741280917,"current_range_meters":11600,"station_id":"ce4bgip2rcd13ifvqbb0","pricing_plan_id":"cebpf4jnsgd1na2vs0mg"},{"bike_id":"6f1e23fb-46e0-438a-8e0c-e97cccb5ffc3","system_id":"levelo_inurba_marseille","lat":43.2962,"lon":5.3773,"is_reserved":false,"is_disabled":false,"rental_uris":{"android":"levelo://app?vid=6f1e23fb-46e0-438a-8e0c-e97cccb5ffc3","ios":"levelo://app?vid=6f1e23fb-46e0-438a-8e0c-e97cccb5ffc3"},"vehicle_type_id":"4","last_reported":1741280917,"current_range_meters":11200,"station_id":"ce4bgi92rcd13ifvqb90","pricing_plan_id":"cebpf4jnsgd1na2vs0mg"},{"bike_id":"4bb8ec19-fa9e-4bc2-9ced-8316005f4173","system_id":"levelo_inurba_marseille","lat":43.27923,"lon":5.39561,"is_reserved":false,"is_disabled":true,"rental_uris":{"android":"levelo://app?vid=4bb8ec19-fa9e-4bc2-9ced-8316005f4173","ios":"levelo://app?vid=4bb8ec19-fa9e-4bc2-9ced-8316005f4173"},"vehicle_type_id":"4","last_reported":1741280917,"current_range_meters":11600,"station_id":"ce4bhf92rcd13ifvqf40","pricing_plan_id":"cebpf4jnsgd1na2vs0mg"},{"bike_id":"37c27920-b361-4f2e-ac9e-e7b92ca498bc","system_id":"levelo_inurba_marseille","lat":43.28152,"lon":5.42651,"is_reserved":false,"is_disabled":false,"rental_uris":{"android":"levelo://app?vid=37c27920-b361-4f2e-ac9e-e7b92ca498bc","ios":"levelo://app?vid=37c27920-b361-4f2e-ac9e-e7b92ca498bc"},"vehicle_type_id":"4","last_reported":1741280917,"current_range_meters":12000,"station_id":"ce4bhnh2rcd13ifvqgug","pricing_plan_id":"cebpf4jnsgd1na2vs0mg"},{"bike_id":"f643bbf3-f968-40f0-874f-e3a9ce3cba57","system_id":"levelo_inurba_marseille","lat":43.28723,"lon":5.36084,"is_reserved":false,"is_disabled":false,"rental_uris":{"android":"levelo://app?vid=f643bbf3-f968-40f0-874f-e3a9ce3cba57","ios":"levelo://app?vid=f643bbf3-f968-40f0-874f-e3a9ce3cba57"},"vehicle_type_id":"4","last_reported":1741280917,"current_range_meters":12000,"station_id":"cki0cbj6b192h4jlfktg","pricing_plan_id":"cebpf4jnsgd1na2vs0mg"},{"bike_id":"b4eff007-9a5e-4d11-ace4-0ec579a0980c","system_id":"levelo_inurba_marseille","lat":43.29347,"lon":5.42844,"is_reserved":false,"is_disabled":false,"rental_uris":{"android":"levelo://app?vid=b4eff007-9a5e-4d11-ace4-0ec579a0980c","ios":"levelo://app?vid=b4eff007-9a5e-4d11-ace4-0ec579a0980c"},"vehicle_type_id":"4","last_reported":1741280917,"current_range_meters":12000,"station_id":"","pricing_plan_id":"cebpf4jnsgd1na2vs0mg"},{"bike_id":"d1518d37-c136-4132-9df5-39a2310bcf46","system_id":"levelo_inurba_marseille","lat":43.29274,"lon":5.38421,"is_reserved":false,"is_disabled":false,"rental_uris":{"android":"levelo://app?vid=d1518d37-c136-4132-9df5-39a2310bcf46","ios":"levelo://app?vid=d1518d37-c136-4132-9df5-39a2310bcf46"},"vehicle_type_id":"4","last_reported":1741280917,"current_range_meters":12400,"station_id":"ce4bh692rcd13ifvqea0","pricing_plan_id":"cebpf4jnsgd1na2vs0mg"},{"bike_id":"1fa4d55b-0dbe-4944-80a3-2f81d86492de","system_id":"levelo_inurba_marseille","lat":43.28568,"lon":5.39491,"is_reserved":false,"is_disabled":false,"rental_uris":{"android":"levelo://app?vid=1fa4d55b-0dbe-4944-80a3-2f81d86492de","ios":"levelo://app?vid=1fa4d55b-0dbe-4944-80a3-2f81d86492de"},"vehicle_type_id":"4","last_reported":1741280917,"current_range_meters":12400,"station_id":"ce4bh292rcd13ifvqdg0","pricing_plan_id":"cebpf4jnsgd1na2vs0mg"},{"bike_id":"4c4f40ce-b677-4958-a34a-41f58f94190b","system_id":"levelo_inurba_marseille","lat":43.23176,"lon":5.39981,"is_reserved":false,"is_disabled":false,"rental_uris":{"android":"levelo://app?vid=4c4f40ce-b677-4958-a34a-41f58f94190b","ios":"levelo://app?vid=4c4f40ce-b677-4958-a34a-41f58f94190b"},"vehicle_type_id":"4","last_reported":1741280917,"current_range_meters":12800,"station_id":"ce4bhn12rcd13ifvqgqg","pricing_plan_id":"cebpf4jnsgd1na2vs0mg"},{"bike_id":"9f0f0224-b72b-4ee3-a38d-b5ba80204629","system_id":"levelo_inurba_marseille","lat":43.23184,"lon":5.35562,"is_reserved":false,"is_disabled":false,"rental_uris":{"android":"levelo://app?vid=9f0f0224-b72b-4ee3-a38d-b5ba80204629","ios":"levelo://app?vid=9f0f0224-b72b-4ee3-a38d-b5ba80204629"},"vehicle_type_id":"4","last_reported":1741280917,"current_range_meters":12800,"station_id":"ce4bhu92rcd13ifvqi70","pricing_plan_id":"cebpf4jnsgd1na2vs0mg"},{"bike_id":"549f0e20-712f-455b-8868-0f3f9588d3f7","system_id":"levelo_inurba_marseille","lat":43.2319,"lon":5.3998,"is_reserved":false,"is_disabled":false,"rental_uris":{"android":"levelo://app?vid=549f0e20-712f-455b-8868-0f3f9588d3f7","ios":"levelo://app?vid=549f0e20-712f-455b-8868-0f3f9588d3f7"},"vehicle_type_id":"4","last_reported":1741280917,"current_range_meters":12800,"station_id":"ce4bhn12rcd13ifvqgqg","pricing_plan_id":"cebpf4jnsgd1na2vs0mg"},{"bike_id":"2b1de8ba-6297-479a-97e0-c4ffcb43060b","system_id":"levelo_inurba_marseille","lat":43.274017,"lon":5.393515,"is_reserved":false,"is_disabled":false,"rental_uris":{"android":"levelo://app?vid=2b1de8ba-6297-479a-97e0-c4ffcb43060b","ios":"levelo://app?vid=2b1de8ba-6297-479a-97e0-c4ffcb43060b"},"vehicle_type_id":"4","last_reported":1741280917,"current_range_meters":12800,"station_id":"ce4bhn12rcd13ifvqgqg","pricing_plan_id":"cebpf4jnsgd1na2vs0mg"},{"bike_id":"c16ccb51-1ff7-4b93-8e4d-d5c1c6809677","system_id":"levelo_inurba_marseille","lat":43.30405,"lon":5.4127,"is_reserved":false,"is_disabled":false,"rental_uris":{"android":"levelo://app?vid=c16ccb51-1ff7-4b93-8e4d-d5c1c6809677","ios":"levelo://app?vid=c16ccb51-1ff7-4b93-8e4d-d5c1c6809677"},"vehicle_type_id":"4","last_reported":1741280917,"current_range_meters":13600,"station_id":"ce4bhop2rcd13ifvqh8g","pricing_plan_id":"cebpf4jnsgd1na2vs0mg"},{"bike_id":"de4e2f87-e25f-4b64-a838-38c818be0913","system_id":"levelo_inurba_marseille","lat":43.30647,"lon":5.40098,"is_reserved":false,"is_disabled":false,"rental_uris":{"android":"levelo://app?vid=de4e2f87-e25f-4b64-a838-38c818be0913","ios":"levelo://app?vid=de4e2f87-e25f-4b64-a838-38c818be0913"},"vehicle_type_id":"4","last_reported":1741280917,"current_range_meters":14000,"station_id":"ce4bh112rcd13ifvqda0","pricing_plan_id":"cebpf4jnsgd1na2vs0mg"},{"bike_id":"2e110824-24c3-4263-8557-cb5a2c89b25b","system_id":"levelo_inurba_marseille","lat":43.25577,"lon":5.38225,"is_reserved":false,"is_disabled":false,"rental_uris":{"android":"levelo://app?vid=2e110824-24c3-4263-8557-cb5a2c89b25b","ios":"levelo://app?vid=2e110824-24c3-4263-8557-cb5a2c89b25b"},"vehicle_type_id":"4","last_reported":1741280917,"current_range_meters":13600,"station_id":"ce4bhih2rcd13ifvqfs0","pricing_plan_id":"cebpf4jnsgd1na2vs0mg"},{"bike_id":"5a83bcb9-13b0-4a5a-96cc-01ac65649082","system_id":"levelo_inurba_marseille","lat":43.2857,"lon":5.39493,"is_reserved":false,"is_disabled":false,"rental_uris":{"android":"levelo://app?vid=5a83bcb9-13b0-4a5a-96cc-01ac65649082","ios":"levelo://app?vid=5a83bcb9-13b0-4a5a-96cc-01ac65649082"},"vehicle_type_id":"4","last_reported":1741280917,"current_range_meters":13600,"station_id":"ce4bh292rcd13ifvqdg0","pricing_plan_id":"cebpf4jnsgd1na2vs0mg"},{"bike_id":"6e4a62ef-5dce-4671-80d4-ae26e49383f5","system_id":"levelo_inurba_marseille","lat":43.28699,"lon":5.37388,"is_reserved":false,"is_disabled":false,"rental_uris":{"android":"levelo://app?vid=6e4a62ef-5dce-4671-80d4-ae26e49383f5","ios":"levelo://app?vid=6e4a62ef-5dce-4671-80d4-ae26e49383f5"},"vehicle_type_id":"4","last_reported":1741280917,"current_range_meters":16000,"station_id":"ce4bh3p2rcd13ifvqdq0","pricing_plan_id":"cebpf4jnsgd1na2vs0mg"},{"bike_id":"ed36e833-fbd2-4910-b1d7-080010efb36c","system_id":"levelo_inurba_marseille","lat":43.32337,"lon":5.40621,"is_reserved":false,"is_disabled":false,"rental_uris":{"android":"levelo://app?vid=ed36e833-fbd2-4910-b1d7-080010efb36c","ios":"levelo://app?vid=ed36e833-fbd2-4910-b1d7-080010efb36c"},"vehicle_type_id":"4","last_reported":1741280917,"current_range_meters":13600,"station_id":"ce4bhq92rcd13ifvqhjg","pricing_plan_id":"cebpf4jnsgd1na2vs0mg"},{"bike_id":"57a890c7-881d-463d-a9b0-09f6e09bf6d6","system_id":"levelo_inurba_marseille","lat":43.29794,"lon":5.40395,"is_reserved":false,"is_disabled":false,"rental_uris":{"android":"levelo://app?vid=57a890c7-881d-463d-a9b0-09f6e09bf6d6","ios":"levelo://app?vid=57a890c7-881d-463d-a9b0-09f6e09bf6d6"},"vehicle_type_id":"4","last_reported":1741280917,"current_range_meters":14000,"station_id":"ce4bh112rcd13ifvqd90","pricing_plan_id":"cebpf4jnsgd1na2vs0mg"},{"bike_id":"e1b133e5-1e38-43f1-98ca-09441b485a5f","system_id":"levelo_inurba_marseille","lat":43.25575,"lon":5.38221,"is_reserved":false,"is_disabled":false,"rental_uris":{"android":"levelo://app?vid=e1b133e5-1e38-43f1-98ca-09441b485a5f","ios":"levelo://app?vid=e1b133e5-1e38-43f1-98ca-09441b485a5f"},"vehicle_type_id":"4","last_reported":1741280917,"current_range_meters":14000,"station_id":"ce4bhih2rcd13ifvqfs0","pricing_plan_id":"cebpf4jnsgd1na2vs0mg"},{"bike_id":"ec279d10-d024-41e3-a1c5-1a58b2ec38fa","system_id":"levelo_inurba_marseille","lat":43.26198,"lon":5.37927,"is_reserved":false,"is_disabled":false,"rental_uris":{"android":"levelo://app?vid=ec279d10-d024-41e3-a1c5-1a58b2ec38fa","ios":"levelo://app?vid=ec279d10-d024-41e3-a1c5-1a58b2ec38fa"},"vehicle_type_id":"4","last_reported":1741280917,"current_range_meters":14000,"station_id":"ce4bhjp2rcd13ifvqg90","pricing_plan_id":"cebpf4jnsgd1na2vs0mg"},{"bike_id":"450fec99-cedd-4c3b-a355-1b95b571f4ec","system_id":"levelo_inurba_marseille","lat":43.27944,"lon":5.41043,"is_reserved":false,"is_disabled":false,"rental_uris":{"android":"levelo://app?vid=450fec99-cedd-4c3b-a355-1b95b571f4ec","ios":"levelo://app?vid=450fec99-cedd-4c3b-a355-1b95b571f4ec"},"vehicle_type_id":"4","last_reported":1741280917,"current_range_meters":14400,"station_id":"ce4bhnp2rcd13ifvqh0g","pricing_plan_id":"cebpf4jnsgd1na2vs0mg"},{"bike_id":"0e1da408-7eaf-4bd1-b289-4bc1ab5f243c","system_id":"levelo_inurba_marseille","lat":43.2862,"lon":5.35098,"is_reserved":false,"is_disabled":false,"rental_uris":{"android":"levelo://app?vid=0e1da408-7eaf-4bd1-b289-4bc1ab5f243c","ios":"levelo://app?vid=0e1da408-7eaf-4bd1-b289-4bc1ab5f243c"},"vehicle_type_id":"4","last_reported":1741280917,"current_range_meters":14400,"station_id":"ce4bhch2rcd13ifvqeug","pricing_plan_id":"cebpf4jnsgd1na2vs0mg"},{"bike_id":"4b28c52d-b265-469c-b070-fae4823d892d","system_id":"levelo_inurba_marseille","lat":43.25492,"lon":5.37652,"is_reserved":false,"is_disabled":false,"rental_uris":{"android":"levelo://app?vid=4b28c52d-b265-469c-b070-fae4823d892d","ios":"levelo://app?vid=4b28c52d-b265-469c-b070-fae4823d892d"},"vehicle_type_id":"4","last_reported":1741280917,"current_range_meters":14400,"station_id":"ce4bhh12rcd13ifvqff0","pricing_plan_id":"cebpf4jnsgd1na2vs0mg"},{"bike_id":"764f3258-213a-4186-b4ff-850e4e5fe869","system_id":"levelo_inurba_marseille","lat":43.3042,"lon":5.41278,"is_reserved":false,"is_disabled":false,"rental_uris":{"android":"levelo://app?vid=764f3258-213a-4186-b4ff-850e4e5fe869","ios":"levelo://app?vid=764f3258-213a-4186-b4ff-850e4e5fe869"},"vehicle_type_id":"4","last_reported":1741280917,"current_range_meters":14400,"station_id":"ce4bhop2rcd13ifvqh8g","pricing_plan_id":"cebpf4jnsgd1na2vs0mg"},{"bike_id":"89ad2f68-0d7f-4d48-b165-f889c6e42afb","system_id":"levelo_inurba_marseille","lat":43.31327,"lon":5.39701,"is_reserved":false,"is_disabled":false,"rental_uris":{"android":"levelo://app?vid=89ad2f68-0d7f-4d48-b165-f889c6e42afb","ios":"levelo://app?vid=89ad2f68-0d7f-4d48-b165-f889c6e42afb"},"vehicle_type_id":"4","last_reported":1741280917,"current_range_meters":14400,"station_id":"ce4bgvp2rcd13ifvqcu0","pricing_plan_id":"cebpf4jnsgd1na2vs0mg"},{"bike_id":"b77d7fdb-cef0-4409-a7c1-a0b55126b0b0","system_id":"levelo_inurba_marseille","lat":43.29525,"lon":5.38534,"is_reserved":false,"is_disabled":false,"rental_uris":{"android":"levelo://app?vid=b77d7fdb-cef0-4409-a7c1-a0b55126b0b0","ios":"levelo://app?vid=b77d7fdb-cef0-4409-a7c1-a0b55126b0b0"},"vehicle_type_id":"4","last_reported":1741280917,"current_range_meters":14400,"station_id":"ce4bgih2rcd13ifvqba0","pricing_plan_id":"cebpf4jnsgd1na2vs0mg"},{"bike_id":"6a1366c1-41ed-4dda-b62f-b12cda709bc4","system_id":"levelo_inurba_marseille","lat":43.32366,"lon":5.38884,"is_reserved":false,"is_disabled":false,"rental_uris":{"android":"levelo://app?vid=6a1366c1-41ed-4dda-b62f-b12cda709bc4","ios":"levelo://app?vid=6a1366c1-41ed-4dda-b62f-b12cda709bc4"},"vehicle_type_id":"4","last_reported":1741280917,"current_range_meters":14800,"station_id":"","pricing_plan_id":"cebpf4jnsgd1na2vs0mg"},{"bike_id":"ebe438b5-10d5-48f0-982b-45be83ff29bc","system_id":"levelo_inurba_marseille","lat":43.27427,"lon":5.39417,"is_reserved":false,"is_disabled":false,"rental_uris":{"android":"levelo://app?vid=ebe438b5-10d5-48f0-982b-45be83ff29bc","ios":"levelo://app?vid=ebe438b5-10d5-48f0-982b-45be83ff29bc"},"vehicle_type_id":"4","last_reported":1741280917,"current_range_meters":13600,"station_id":"ce4bhdp2rcd13ifvqf20","pricing_plan_id":"cebpf4jnsgd1na2vs0mg"},{"bike_id":"1ee79b01-e45f-4797-9a4b-d0f97c244688","system_id":"levelo_inurba_marseille","lat":43.26936,"lon":5.40256,"is_reserved":false,"is_disabled":false,"rental_uris":{"android":"levelo://app?vid=1ee79b01-e45f-4797-9a4b-d0f97c244688","ios":"levelo://app?vid=1ee79b01-e45f-4797-9a4b-d0f97c244688"},"vehicle_type_id":"4","last_reported":1741280917,"current_range_meters":14800,"station_id":"cjm6bp8fraef2m0cb0m0","pricing_plan_id":"cebpf4jnsgd1na2vs0mg"},{"bike_id":"8bd4b128-b85d-4e21-ad3f-ceffde0e548c","system_id":"levelo_inurba_marseille","lat":43.31337,"lon":5.39666,"is_reserved":false,"is_disabled":false,"rental_uris":{"android":"levelo://app?vid=8bd4b128-b85d-4e21-ad3f-ceffde0e548c","ios":"levelo://app?vid=8bd4b128-b85d-4e21-ad3f-ceffde0e548c"},"vehicle_type_id":"4","last_reported":1741280917,"current_range_meters":14800,"station_id":"ce4bgvp2rcd13ifvqcu0","pricing_plan_id":"cebpf4jnsgd1na2vs0mg"},{"bike_id":"6b7f5f0b-29b5-438c-9143-1b4596b638e9","system_id":"levelo_inurba_marseille","lat":43.23181,"lon":5.39991,"is_reserved":false,"is_disabled":false,"rental_uris":{"android":"levelo://app?vid=6b7f5f0b-29b5-438c-9143-1b4596b638e9","ios":"levelo://app?vid=6b7f5f0b-29b5-438c-9143-1b4596b638e9"},"vehicle_type_id":"4","last_reported":1741280917,"current_range_meters":14800,"station_id":"ce4bhn12rcd13ifvqgqg","pricing_plan_id":"cebpf4jnsgd1na2vs0mg"},{"bike_id":"2a9536a8-577f-4505-a955-d164a7d26a85","system_id":"levelo_inurba_marseille","lat":43.28686,"lon":5.37371,"is_reserved":false,"is_disabled":false,"rental_uris":{"android":"levelo://app?vid=2a9536a8-577f-4505-a955-d164a7d26a85","ios":"levelo://app?vid=2a9536a8-577f-4505-a955-d164a7d26a85"},"vehicle_type_id":"4","last_reported":1741280917,"current_range_meters":14800,"station_id":"ce4bgn12rcd13ifvqbt0","pricing_plan_id":"cebpf4jnsgd1na2vs0mg"},{"bike_id":"985324b2-53ea-4df0-8c32-5d6941d2d733","system_id":"levelo_inurba_marseille","lat":43.25586,"lon":5.38246,"is_reserved":false,"is_disabled":false,"rental_uris":{"android":"levelo://app?vid=985324b2-53ea-4df0-8c32-5d6941d2d733","ios":"levelo://app?vid=985324b2-53ea-4df0-8c32-5d6941d2d733"},"vehicle_type_id":"4","last_reported":1741280917,"current_range_meters":14800,"station_id":"ce4bhih2rcd13ifvqfs0","pricing_plan_id":"cebpf4jnsgd1na2vs0mg"},{"bike_id":"58de7cc5-6758-4f1f-9e48-54ac06431240","system_id":"levelo_inurba_marseille","lat":43.29552,"lon":5.4228,"is_reserved":false,"is_disabled":false,"rental_uris":{"android":"levelo://app?vid=58de7cc5-6758-4f1f-9e48-54ac06431240","ios":"levelo://app?vid=58de7cc5-6758-4f1f-9e48-54ac06431240"},"vehicle_type_id":"4","last_reported":1741280917,"current_range_meters":15200,"station_id":"ce4bhph2rcd13ifvqhdg","pricing_plan_id":"cebpf4jnsgd1na2vs0mg"},{"bike_id":"643bf0c8-c75d-40a4-acdd-dc7b06da1915","system_id":"levelo_inurba_marseille","lat":43.27619,"lon":5.36105,"is_reserved":false,"is_disabled":false,"rental_uris":{"android":"levelo://app?vid=643bf0c8-c75d-40a4-acdd-dc7b06da1915","ios":"levelo://app?vid=643bf0c8-c75d-40a4-acdd-dc7b06da1915"},"vehicle_type_id":"4","last_reported":1741280917,"current_range_meters":15200,"station_id":"ce4bgj92rcd13ifvqbe0","pricing_plan_id":"cebpf4jnsgd1na2vs0mg"},{"bike_id":"5657d731-d688-4ca8-8429-b9c071f5f731","system_id":"levelo_inurba_marseille","lat":43.2846,"lon":5.35881,"is_reserved":false,"is_disabled":false,"rental_uris":{"android":"levelo://app?vid=5657d731-d688-4ca8-8429-b9c071f5f731","ios":"levelo://app?vid=5657d731-d688-4ca8-8429-b9c071f5f731"},"vehicle_type_id":"4","last_reported":1741280917,"current_range_meters":15200,"station_id":"ce4bhah2rcd13ifvqei0","pricing_plan_id":"cebpf4jnsgd1na2vs0mg"},{"bike_id":"0510f9b6-6537-45a4-9d77-40cebf699f92","system_id":"levelo_inurba_marseille","lat":43.28153,"lon":5.42633,"is_reserved":false,"is_disabled":false,"rental_uris":{"android":"levelo://app?vid=0510f9b6-6537-45a4-9d77-40cebf699f92","ios":"levelo://app?vid=0510f9b6-6537-45a4-9d77-40cebf699f92"},"vehicle_type_id":"4","last_reported":1741280917,"current_range_meters":15200,"station_id":"ce4bhnh2rcd13ifvqgug","pricing_plan_id":"cebpf4jnsgd1na2vs0mg"},{"bike_id":"fbdac73f-bf4f-41e7-9418-9d132e27384e","system_id":"levelo_inurba_marseille","lat":43.32345,"lon":5.40604,"is_reserved":false,"is_disabled":false,"rental_uris":{"android":"levelo://app?vid=fbdac73f-bf4f-41e7-9418-9d132e27384e","ios":"levelo://app?vid=fbdac73f-bf4f-41e7-9418-9d132e27384e"},"vehicle_type_id":"4","last_reported":1741280917,"current_range_meters":15200,"station_id":"ce4bhq92rcd13ifvqhjg","pricing_plan_id":"cebpf4jnsgd1na2vs0mg"},{"bike_id":"c1f9f6ec-f41c-4e2b-8752-ef71a81501b3","system_id":"levelo_inurba_marseille","lat":43.29552,"lon":5.42288,"is_reserved":false,"is_disabled":false,"rental_uris":{"android":"levelo://app?vid=c1f9f6ec-f41c-4e2b-8752-ef71a81501b3","ios":"levelo://app?vid=c1f9f6ec-f41c-4e2b-8752-ef71a81501b3"},"vehicle_type_id":"4","last_reported":1741280917,"current_range_meters":14400,"station_id":"ce4bhph2rcd13ifvqhdg","pricing_plan_id":"cebpf4jnsgd1na2vs0mg"},{"bike_id":"57bb98f1-7dbe-41d1-873f-664a7161bc41","system_id":"levelo_inurba_marseille","lat":43.27564,"lon":5.38435,"is_reserved":false,"is_disabled":false,"rental_uris":{"android":"levelo://app?vid=57bb98f1-7dbe-41d1-873f-664a7161bc41","ios":"levelo://app?vid=57bb98f1-7dbe-41d1-873f-664a7161bc41"},"vehicle_type_id":"4","last_reported":1741280917,"current_range_meters":15200,"station_id":"ce4bhh92rcd13ifvqfi0","pricing_plan_id":"cebpf4jnsgd1na2vs0mg"},{"bike_id":"2d31bd33-7bbc-485d-a4dd-59c0e816926e","system_id":"levelo_inurba_marseille","lat":43.25818,"lon":5.39429,"is_reserved":false,"is_disabled":false,"rental_uris":{"android":"levelo://app?vid=2d31bd33-7bbc-485d-a4dd-59c0e816926e","ios":"levelo://app?vid=2d31bd33-7bbc-485d-a4dd-59c0e816926e"},"vehicle_type_id":"4","last_reported":1741280917,"current_range_meters":16000,"station_id":"ce4bhip2rcd13ifvqft0","pricing_plan_id":"cebpf4jnsgd1na2vs0mg"},{"bike_id":"19e21bc2-a636-42ad-a625-6ca4e47d2c65","system_id":"levelo_inurba_marseille","lat":43.33008,"lon":5.39083,"is_reserved":false,"is_disabled":false,"rental_uris":{"android":"levelo://app?vid=19e21bc2-a636-42ad-a625-6ca4e47d2c65","ios":"levelo://app?vid=19e21bc2-a636-42ad-a625-6ca4e47d2c65"},"vehicle_type_id":"4","last_reported":1741280917,"current_range_meters":16000,"station_id":"ce4bhr92rcd13ifvqhrg","pricing_plan_id":"cebpf4jnsgd1na2vs0mg"},{"bike_id":"b53c3d76-8461-4543-961d-ddc7e485656b","system_id":"levelo_inurba_marseille","lat":43.28274,"lon":5.35078,"is_reserved":false,"is_disabled":false,"rental_uris":{"android":"levelo://app?vid=b53c3d76-8461-4543-961d-ddc7e485656b","ios":"levelo://app?vid=b53c3d76-8461-4543-961d-ddc7e485656b"},"vehicle_type_id":"4","last_reported":1741280917,"current_range_meters":16000,"station_id":"ce4bhbp2rcd13ifvqerg","pricing_plan_id":"cebpf4jnsgd1na2vs0mg"},{"bike_id":"104082fe-fa25-4d1a-91f7-623acd76f5e0","system_id":"levelo_inurba_marseille","lat":43.2869,"lon":5.37398,"is_reserved":false,"is_disabled":false,"rental_uris":{"android":"levelo://app?vid=104082fe-fa25-4d1a-91f7-623acd76f5e0","ios":"levelo://app?vid=104082fe-fa25-4d1a-91f7-623acd76f5e0"},"vehicle_type_id":"4","last_reported":1741280917,"current_range_meters":16000,"station_id":"ce4bh3p2rcd13ifvqdq0","pricing_plan_id":"cebpf4jnsgd1na2vs0mg"},{"bike_id":"085ac09f-0143-4c42-8a9d-f63ae7331c7f","system_id":"levelo_inurba_marseille","lat":43.31175,"lon":5.38712,"is_reserved":false,"is_disabled":false,"rental_uris":{"android":"levelo://app?vid=085ac09f-0143-4c42-8a9d-f63ae7331c7f","ios":"levelo://app?vid=085ac09f-0143-4c42-8a9d-f63ae7331c7f"},"vehicle_type_id":"4","last_reported":1741280917,"current_range_meters":16000,"station_id":"ce4bgv12rcd13ifvqcp0","pricing_plan_id":"cebpf4jnsgd1na2vs0mg"},{"bike_id":"aa562c2b-6c05-4373-8031-8ca56be0049a","system_id":"levelo_inurba_marseille","lat":43.24391,"lon":5.37057,"is_reserved":false,"is_disabled":false,"rental_uris":{"android":"levelo://app?vid=aa562c2b-6c05-4373-8031-8ca56be0049a","ios":"levelo://app?vid=aa562c2b-6c05-4373-8031-8ca56be0049a"},"vehicle_type_id":"4","last_reported":1741280917,"current_range_meters":16400,"station_id":"ce4bhhh2rcd13ifvqfk0","pricing_plan_id":"cebpf4jnsgd1na2vs0mg"},{"bike_id":"daa48c53-c5de-46aa-94fc-655cbd710c8c","system_id":"levelo_inurba_marseille","lat":43.22927,"lon":5.3539,"is_reserved":false,"is_disabled":false,"rental_uris":{"android":"levelo://app?vid=daa48c53-c5de-46aa-94fc-655cbd710c8c","ios":"levelo://app?vid=daa48c53-c5de-46aa-94fc-655cbd710c8c"},"vehicle_type_id":"4","last_reported":1741280917,"current_range_meters":16000,"station_id":"cpo3532slgdg3j2ikp40","pricing_plan_id":"cebpf4jnsgd1na2vs0mg"},{"bike_id":"13fffc0d-b2c0-4f67-8b6f-1d17923a155a","system_id":"levelo_inurba_marseille","lat":43.2862,"lon":5.35098,"is_reserved":false,"is_disabled":false,"rental_uris":{"android":"levelo://app?vid=13fffc0d-b2c0-4f67-8b6f-1d17923a155a","ios":"levelo://app?vid=13fffc0d-b2c0-4f67-8b6f-1d17923a155a"},"vehicle_type_id":"4","last_reported":1741280917,"current_range_meters":16400,"station_id":"ce4bhch2rcd13ifvqeug","pricing_plan_id":"cebpf4jnsgd1na2vs0mg"},{"bike_id":"6d7e0450-89ad-4e81-9f4f-61db2e3e009a","system_id":"levelo_inurba_marseille","lat":43.29901,"lon":5.43654,"is_reserved":false,"is_disabled":false,"rental_uris":{"android":"levelo://app?vid=6d7e0450-89ad-4e81-9f4f-61db2e3e009a","ios":"levelo://app?vid=6d7e0450-89ad-4e81-9f4f-61db2e3e009a"},"vehicle_type_id":"4","last_reported":1741280917,"current_range_meters":16400,"station_id":"ce4bhpp2rcd13ifvqhfg","pricing_plan_id":"cebpf4jnsgd1na2vs0mg"},{"bike_id":"5244c90e-624a-48f1-b986-6938160667f1","system_id":"levelo_inurba_marseille","lat":43.29415,"lon":5.38626,"is_reserved":false,"is_disabled":false,"rental_uris":{"android":"levelo://app?vid=5244c90e-624a-48f1-b986-6938160667f1","ios":"levelo://app?vid=5244c90e-624a-48f1-b986-6938160667f1"},"vehicle_type_id":"4","last_reported":1741280917,"current_range_meters":16400,"station_id":"ce4bh2h2rcd13ifvqdh0","pricing_plan_id":"cebpf4jnsgd1na2vs0mg"},{"bike_id":"fd0d0613-45c2-4ea0-a957-eb27f1405a3d","system_id":"levelo_inurba_marseille","lat":43.27999,"lon":5.40014,"is_reserved":false,"is_disabled":false,"rental_uris":{"android":"levelo://app?vid=fd0d0613-45c2-4ea0-a957-eb27f1405a3d","ios":"levelo://app?vid=fd0d0613-45c2-4ea0-a957-eb27f1405a3d"},"vehicle_type_id":"4","last_reported":1741280917,"current_range_meters":16400,"station_id":"ce4bho92rcd13ifvqh4g","pricing_plan_id":"cebpf4jnsgd1na2vs0mg"},{"bike_id":"3119aed4-e324-4ddb-93ac-300feb05feeb","system_id":"levelo_inurba_marseille","lat":43.30892,"lon":5.39647,"is_reserved":false,"is_disabled":false,"rental_uris":{"android":"levelo://app?vid=3119aed4-e324-4ddb-93ac-300feb05feeb","ios":"levelo://app?vid=3119aed4-e324-4ddb-93ac-300feb05feeb"},"vehicle_type_id":"4","last_reported":1741280917,"current_range_meters":16400,"station_id":"ce4bh012rcd13ifvqcv0","pricing_plan_id":"cebpf4jnsgd1na2vs0mg"},{"bike_id":"e9615b0f-ec7a-4d52-b42c-5add0a7b10ff","system_id":"levelo_inurba_marseille","lat":43.307785,"lon":5.396207,"is_reserved":false,"is_disabled":false,"rental_uris":{"android":"levelo://app?vid=e9615b0f-ec7a-4d52-b42c-5add0a7b10ff","ios":"levelo://app?vid=e9615b0f-ec7a-4d52-b42c-5add0a7b10ff"},"vehicle_type_id":"4","last_reported":1741280917,"current_range_meters":16800,"station_id":"ce4bh012rcd13ifvqcv0","pricing_plan_id":"cebpf4jnsgd1na2vs0mg"},{"bike_id":"becf5e38-2c56-4fce-862d-4abc9e5b3435","system_id":"levelo_inurba_marseille","lat":43.2512,"lon":5.40314,"is_reserved":false,"is_disabled":false,"rental_uris":{"android":"levelo://app?vid=becf5e38-2c56-4fce-862d-4abc9e5b3435","ios":"levelo://app?vid=becf5e38-2c56-4fce-862d-4abc9e5b3435"},"vehicle_type_id":"4","last_reported":1741280917,"current_range_meters":16400,"station_id":"ce4bhlh2rcd13ifvqgig","pricing_plan_id":"cebpf4jnsgd1na2vs0mg"},{"bike_id":"d0a9e0b6-7460-48af-b167-fa241d6b44c3","system_id":"levelo_inurba_marseille","lat":43.32103,"lon":5.36756,"is_reserved":false,"is_disabled":false,"rental_uris":{"android":"levelo://app?vid=d0a9e0b6-7460-48af-b167-fa241d6b44c3","ios":"levelo://app?vid=d0a9e0b6-7460-48af-b167-fa241d6b44c3"},"vehicle_type_id":"4","last_reported":1741280917,"current_range_meters":16400,"station_id":"ce4bhrh2rcd13ifvqhug","pricing_plan_id":"cebpf4jnsgd1na2vs0mg"},{"bike_id":"4d7ce7db-debb-443d-9bff-f95041dd574f","system_id":"levelo_inurba_marseille","lat":43.28619,"lon":5.35096,"is_reserved":false,"is_disabled":false,"rental_uris":{"android":"levelo://app?vid=4d7ce7db-debb-443d-9bff-f95041dd574f","ios":"levelo://app?vid=4d7ce7db-debb-443d-9bff-f95041dd574f"},"vehicle_type_id":"4","last_reported":1741280917,"current_range_meters":16800,"station_id":"ce4bhch2rcd13ifvqeug","pricing_plan_id":"cebpf4jnsgd1na2vs0mg"},{"bike_id":"b25ee483-d187-4010-aea7-d6666b8713fc","system_id":"levelo_inurba_marseille","lat":43.29284,"lon":5.37464,"is_reserved":false,"is_disabled":false,"rental_uris":{"android":"levelo://app?vid=b25ee483-d187-4010-aea7-d6666b8713fc","ios":"levelo://app?vid=b25ee483-d187-4010-aea7-d6666b8713fc"},"vehicle_type_id":"4","last_reported":1741280917,"current_range_meters":16800,"station_id":"ce4bgi12rcd13ifvqb70","pricing_plan_id":"cebpf4jnsgd1na2vs0mg"},{"bike_id":"77ed8fb3-d084-49cb-a6ec-e2a1483d9655","system_id":"levelo_inurba_marseille","lat":43.286652,"lon":5.363502,"is_reserved":false,"is_disabled":false,"rental_uris":{"android":"levelo://app?vid=77ed8fb3-d084-49cb-a6ec-e2a1483d9655","ios":"levelo://app?vid=77ed8fb3-d084-49cb-a6ec-e2a1483d9655"},"vehicle_type_id":"4","last_reported":1741280917,"current_range_meters":16800,"station_id":"ce4bhbh2rcd13ifvqeqg","pricing_plan_id":"cebpf4jnsgd1na2vs0mg"},{"bike_id":"3550497f-d437-4cd2-98ee-4e36189934b6","system_id":"levelo_inurba_marseille","lat":43.30185,"lon":5.36606,"is_reserved":false,"is_disabled":false,"rental_uris":{"android":"levelo://app?vid=3550497f-d437-4cd2-98ee-4e36189934b6","ios":"levelo://app?vid=3550497f-d437-4cd2-98ee-4e36189934b6"},"vehicle_type_id":"4","last_reported":1741280917,"current_range_meters":17200,"station_id":"ce4bgrh2rcd13ifvqc8g","pricing_plan_id":"cebpf4jnsgd1na2vs0mg"},{"bike_id":"fd02570a-1030-4c74-8d41-864893a6370a","system_id":"levelo_inurba_marseille","lat":43.27913,"lon":5.38012,"is_reserved":false,"is_disabled":false,"rental_uris":{"android":"levelo://app?vid=fd02570a-1030-4c74-8d41-864893a6370a","ios":"levelo://app?vid=fd02570a-1030-4c74-8d41-864893a6370a"},"vehicle_type_id":"4","last_reported":1741280917,"current_range_meters":17200,"station_id":"ce4bhf92rcd13ifvqf50","pricing_plan_id":"cebpf4jnsgd1na2vs0mg"},{"bike_id":"84e830f2-44cb-451e-83d3-23282d87318f","system_id":"levelo_inurba_marseille","lat":43.29898,"lon":5.4367,"is_reserved":false,"is_disabled":false,"rental_uris":{"android":"levelo://app?vid=84e830f2-44cb-451e-83d3-23282d87318f","ios":"levelo://app?vid=84e830f2-44cb-451e-83d3-23282d87318f"},"vehicle_type_id":"4","last_reported":1741280917,"current_range_meters":17200,"station_id":"ce4bhpp2rcd13ifvqhfg","pricing_plan_id":"cebpf4jnsgd1na2vs0mg"},{"bike_id":"29920178-f2e2-4727-b7d6-7f2f5df15acf","system_id":"levelo_inurba_marseille","lat":43.26025,"lon":5.41741,"is_reserved":false,"is_disabled":false,"rental_uris":{"android":"levelo://app?vid=29920178-f2e2-4727-b7d6-7f2f5df15acf","ios":"levelo://app?vid=29920178-f2e2-4727-b7d6-7f2f5df15acf"},"vehicle_type_id":"4","last_reported":1741280917,"current_range_meters":17200,"station_id":"","pricing_plan_id":"cebpf4jnsgd1na2vs0mg"},{"bike_id":"8d203f57-3343-4bc0-8a9c-79d1c1be1625","system_id":"levelo_inurba_marseille","lat":43.26809,"lon":5.40265,"is_reserved":false,"is_disabled":false,"rental_uris":{"android":"levelo://app?vid=8d203f57-3343-4bc0-8a9c-79d1c1be1625","ios":"levelo://app?vid=8d203f57-3343-4bc0-8a9c-79d1c1be1625"},"vehicle_type_id":"4","last_reported":1741280917,"current_range_meters":17200,"station_id":"ce501612rcd8frsf0b60","pricing_plan_id":"cebpf4jnsgd1na2vs0mg"},{"bike_id":"ef65d86b-4517-4e68-862d-d1221b434363","system_id":"levelo_inurba_marseille","lat":43.27835,"lon":5.39211,"is_reserved":false,"is_disabled":false,"rental_uris":{"android":"levelo://app?vid=ef65d86b-4517-4e68-862d-d1221b434363","ios":"levelo://app?vid=ef65d86b-4517-4e68-862d-d1221b434363"},"vehicle_type_id":"4","last_reported":1741280917,"current_range_meters":17200,"station_id":"ce4bhjp2rcd13ifvqga0","pricing_plan_id":"cebpf4jnsgd1na2vs0mg"},{"bike_id":"1ce866b7-af70-4315-9c9d-9c33cb575d6f","system_id":"levelo_inurba_marseille","lat":43.30923,"lon":5.40152,"is_reserved":false,"is_disabled":false,"rental_uris":{"android":"levelo://app?vid=1ce866b7-af70-4315-9c9d-9c33cb575d6f","ios":"levelo://app?vid=1ce866b7-af70-4315-9c9d-9c33cb575d6f"},"vehicle_type_id":"4","last_reported":1741280917,"current_range_meters":17200,"station_id":"ce4bgvp2rcd13ifvqct0","pricing_plan_id":"cebpf4jnsgd1na2vs0mg"},{"bike_id":"2ede08b9-0b2b-4772-aa5d-3c795aee5d59","system_id":"levelo_inurba_marseille","lat":43.26061,"lon":5.39397,"is_reserved":false,"is_disabled":false,"rental_uris":{"android":"levelo://app?vid=2ede08b9-0b2b-4772-aa5d-3c795aee5d59","ios":"levelo://app?vid=2ede08b9-0b2b-4772-aa5d-3c795aee5d59"},"vehicle_type_id":"4","last_reported":1741280917,"current_range_meters":17200,"station_id":"ce4bhh92rcd13ifvqfj0","pricing_plan_id":"cebpf4jnsgd1na2vs0mg"},{"bike_id":"e2c9a10f-d165-47fa-bcc3-3b72ae9367ad","system_id":"levelo_inurba_marseille","lat":43.23181,"lon":5.3998,"is_reserved":false,"is_disabled":false,"rental_uris":{"android":"levelo://app?vid=e2c9a10f-d165-47fa-bcc3-3b72ae9367ad","ios":"levelo://app?vid=e2c9a10f-d165-47fa-bcc3-3b72ae9367ad"},"vehicle_type_id":"4","last_reported":1741280917,"current_range_meters":17600,"station_id":"ce4bhn12rcd13ifvqgqg","pricing_plan_id":"cebpf4jnsgd1na2vs0mg"},{"bike_id":"6ae77951-a909-4dfa-a933-35324bca41b7","system_id":"levelo_inurba_marseille","lat":43.25013,"lon":5.38906,"is_reserved":false,"is_disabled":false,"rental_uris":{"android":"levelo://app?vid=6ae77951-a909-4dfa-a933-35324bca41b7","ios":"levelo://app?vid=6ae77951-a909-4dfa-a933-35324bca41b7"},"vehicle_type_id":"4","last_reported":1741280917,"current_range_meters":17600,"station_id":"ce4bhgp2rcd13ifvqfd0","pricing_plan_id":"cebpf4jnsgd1na2vs0mg"},{"bike_id":"2f89ad2b-0e45-4bcd-8eaf-e7ba4d760dc8","system_id":"levelo_inurba_marseille","lat":43.3107,"lon":5.38335,"is_reserved":false,"is_disabled":false,"rental_uris":{"android":"levelo://app?vid=2f89ad2b-0e45-4bcd-8eaf-e7ba4d760dc8","ios":"levelo://app?vid=2f89ad2b-0e45-4bcd-8eaf-e7ba4d760dc8"},"vehicle_type_id":"4","last_reported":1741280917,"current_range_meters":17600,"station_id":"ce4bgv92rcd13ifvqcr0","pricing_plan_id":"cebpf4jnsgd1na2vs0mg"},{"bike_id":"9f81a8d7-3e2b-4007-9464-c777fd8529ba","system_id":"levelo_inurba_marseille","lat":43.33026,"lon":5.39046,"is_reserved":false,"is_disabled":true,"rental_uris":{"android":"levelo://app?vid=9f81a8d7-3e2b-4007-9464-c777fd8529ba","ios":"levelo://app?vid=9f81a8d7-3e2b-4007-9464-c777fd8529ba"},"vehicle_type_id":"4","last_reported":1741280917,"current_range_meters":17600,"station_id":"ce4bhr92rcd13ifvqhrg","pricing_plan_id":"cebpf4jnsgd1na2vs0mg"},{"bike_id":"081b4242-500c-491d-ac96-fa9ebc37c18b","system_id":"levelo_inurba_marseille","lat":43.30432,"lon":5.39745,"is_reserved":false,"is_disabled":false,"rental_uris":{"android":"levelo://app?vid=081b4242-500c-491d-ac96-fa9ebc37c18b","ios":"levelo://app?vid=081b4242-500c-491d-ac96-fa9ebc37c18b"},"vehicle_type_id":"4","last_reported":1741280917,"current_range_meters":18000,"station_id":"ce4bh092rcd13ifvqd20","pricing_plan_id":"cebpf4jnsgd1na2vs0mg"},{"bike_id":"3c94b931-3649-4c69-bf1c-99f8fd15e284","system_id":"levelo_inurba_marseille","lat":43.324814,"lon":5.365736,"is_reserved":false,"is_disabled":false,"rental_uris":{"android":"levelo://app?vid=3c94b931-3649-4c69-bf1c-99f8fd15e284","ios":"levelo://app?vid=3c94b931-3649-4c69-bf1c-99f8fd15e284"},"vehicle_type_id":"4","last_reported":1741280917,"current_range_meters":18000,"station_id":"ce4bhs12rcd13ifvqhvg","pricing_plan_id":"cebpf4jnsgd1na2vs0mg"},{"bike_id":"86e84a3a-9527-4338-a853-13c81496b027","system_id":"levelo_inurba_marseille","lat":43.22933,"lon":5.3538,"is_reserved":false,"is_disabled":false,"rental_uris":{"android":"levelo://app?vid=86e84a3a-9527-4338-a853-13c81496b027","ios":"levelo://app?vid=86e84a3a-9527-4338-a853-13c81496b027"},"vehicle_type_id":"4","last_reported":1741280917,"current_range_meters":18000,"station_id":"cpo3532slgdg3j2ikp40","pricing_plan_id":"cebpf4jnsgd1na2vs0mg"},{"bike_id":"d0a90a11-eb28-41c7-ada3-ff7ea454e19a","system_id":"levelo_inurba_marseille","lat":43.3202,"lon":5.38147,"is_reserved":false,"is_disabled":false,"rental_uris":{"android":"levelo://app?vid=d0a90a11-eb28-41c7-ada3-ff7ea454e19a","ios":"levelo://app?vid=d0a90a11-eb28-41c7-ada3-ff7ea454e19a"},"vehicle_type_id":"4","last_reported":1741280917,"current_range_meters":17600,"station_id":"ce4bhr12rcd13ifvqhpg","pricing_plan_id":"cebpf4jnsgd1na2vs0mg"},{"bike_id":"e3936ecd-bc2f-4535-ae1e-23167a131007","system_id":"levelo_inurba_marseille","lat":43.3342,"lon":5.40078,"is_reserved":false,"is_disabled":false,"rental_uris":{"android":"levelo://app?vid=e3936ecd-bc2f-4535-ae1e-23167a131007","ios":"levelo://app?vid=e3936ecd-bc2f-4535-ae1e-23167a131007"},"vehicle_type_id":"4","last_reported":1741280917,"current_range_meters":18000,"station_id":"","pricing_plan_id":"cebpf4jnsgd1na2vs0mg"},{"bike_id":"ec81dd21-a4a3-4d53-97db-3eaa43d44359","system_id":"levelo_inurba_marseille","lat":43.31066,"lon":5.38364,"is_reserved":false,"is_disabled":false,"rental_uris":{"android":"levelo://app?vid=ec81dd21-a4a3-4d53-97db-3eaa43d44359","ios":"levelo://app?vid=ec81dd21-a4a3-4d53-97db-3eaa43d44359"},"vehicle_type_id":"4","last_reported":1741280917,"current_range_meters":18000,"station_id":"ce4bgv92rcd13ifvqcr0","pricing_plan_id":"cebpf4jnsgd1na2vs0mg"},{"bike_id":"71da8db2-dc7d-44d5-b66d-ce43a22bae7d","system_id":"levelo_inurba_marseille","lat":43.28697,"lon":5.37396,"is_reserved":false,"is_disabled":false,"rental_uris":{"android":"levelo://app?vid=71da8db2-dc7d-44d5-b66d-ce43a22bae7d","ios":"levelo://app?vid=71da8db2-dc7d-44d5-b66d-ce43a22bae7d"},"vehicle_type_id":"4","last_reported":1741280917,"current_range_meters":18000,"station_id":"ce4bh3p2rcd13ifvqdq0","pricing_plan_id":"cebpf4jnsgd1na2vs0mg"},{"bike_id":"384c9840-b779-4d3b-bca9-52b197488419","system_id":"levelo_inurba_marseille","lat":43.30414,"lon":5.41277,"is_reserved":false,"is_disabled":false,"rental_uris":{"android":"levelo://app?vid=384c9840-b779-4d3b-bca9-52b197488419","ios":"levelo://app?vid=384c9840-b779-4d3b-bca9-52b197488419"},"vehicle_type_id":"4","last_reported":1741280917,"current_range_meters":18800,"station_id":"ce4bhop2rcd13ifvqh8g","pricing_plan_id":"cebpf4jnsgd1na2vs0mg"},{"bike_id":"e524bcef-a391-41b2-bad2-673eae53ea51","system_id":"levelo_inurba_marseille","lat":43.31717,"lon":5.43701,"is_reserved":false,"is_disabled":false,"rental_uris":{"android":"levelo://app?vid=e524bcef-a391-41b2-bad2-673eae53ea51","ios":"levelo://app?vid=e524bcef-a391-41b2-bad2-673eae53ea51"},"vehicle_type_id":"4","last_reported":1741280917,"current_range_meters":18800,"station_id":"ce4bhp92rcd13ifvqhcg","pricing_plan_id":"cebpf4jnsgd1na2vs0mg"},{"bike_id":"d44d1f0d-089b-4712-acec-6159946190a1","system_id":"levelo_inurba_marseille","lat":43.24166,"lon":5.36398,"is_reserved":false,"is_disabled":false,"rental_uris":{"android":"levelo://app?vid=d44d1f0d-089b-4712-acec-6159946190a1","ios":"levelo://app?vid=d44d1f0d-089b-4712-acec-6159946190a1"},"vehicle_type_id":"4","last_reported":1741280917,"current_range_meters":18800,"station_id":"cpo36qri1sfpv3e86is0","pricing_plan_id":"cebpf4jnsgd1na2vs0mg"},{"bike_id":"d03acae0-5378-4584-a7fb-c6cad382d699","system_id":"levelo_inurba_marseille","lat":43.30643,"lon":5.401,"is_reserved":false,"is_disabled":false,"rental_uris":{"android":"levelo://app?vid=d03acae0-5378-4584-a7fb-c6cad382d699","ios":"levelo://app?vid=d03acae0-5378-4584-a7fb-c6cad382d699"},"vehicle_type_id":"4","last_reported":1741280917,"current_range_meters":18000,"station_id":"ce4bh112rcd13ifvqda0","pricing_plan_id":"cebpf4jnsgd1na2vs0mg"},{"bike_id":"d43e9dcd-72bd-494d-b96a-21e13e28ab92","system_id":"levelo_inurba_marseille","lat":43.2558,"lon":5.38225,"is_reserved":false,"is_disabled":false,"rental_uris":{"android":"levelo://app?vid=d43e9dcd-72bd-494d-b96a-21e13e28ab92","ios":"levelo://app?vid=d43e9dcd-72bd-494d-b96a-21e13e28ab92"},"vehicle_type_id":"4","last_reported":1741280917,"current_range_meters":18800,"station_id":"ce4bhih2rcd13ifvqfs0","pricing_plan_id":"cebpf4jnsgd1na2vs0mg"},{"bike_id":"2f08e54e-fe1b-42fa-bd81-f99fc0f3e408","system_id":"levelo_inurba_marseille","lat":43.29902,"lon":5.43666,"is_reserved":false,"is_disabled":false,"rental_uris":{"android":"levelo://app?vid=2f08e54e-fe1b-42fa-bd81-f99fc0f3e408","ios":"levelo://app?vid=2f08e54e-fe1b-42fa-bd81-f99fc0f3e408"},"vehicle_type_id":"4","last_reported":1741280917,"current_range_meters":18800,"station_id":"ce4bhpp2rcd13ifvqhfg","pricing_plan_id":"cebpf4jnsgd1na2vs0mg"},{"bike_id":"e8db6d6b-9dd5-4229-92c8-c1a06df15e03","system_id":"levelo_inurba_marseille","lat":43.28349,"lon":5.38092,"is_reserved":false,"is_disabled":false,"rental_uris":{"android":"levelo://app?vid=e8db6d6b-9dd5-4229-92c8-c1a06df15e03","ios":"levelo://app?vid=e8db6d6b-9dd5-4229-92c8-c1a06df15e03"},"vehicle_type_id":"4","last_reported":1741280917,"current_range_meters":18800,"station_id":"ce4bh412rcd13ifvqdr0","pricing_plan_id":"cebpf4jnsgd1na2vs0mg"},{"bike_id":"cfce7569-7296-4463-a330-40e4d37032b9","system_id":"levelo_inurba_marseille","lat":43.25112,"lon":5.40337,"is_reserved":false,"is_disabled":false,"rental_uris":{"android":"levelo://app?vid=cfce7569-7296-4463-a330-40e4d37032b9","ios":"levelo://app?vid=cfce7569-7296-4463-a330-40e4d37032b9"},"vehicle_type_id":"4","last_reported":1741280917,"current_range_meters":18800,"station_id":"ce4bhlh2rcd13ifvqgig","pricing_plan_id":"cebpf4jnsgd1na2vs0mg"},{"bike_id":"ce87648f-9d4c-4832-983c-9e7e5924756b","system_id":"levelo_inurba_marseille","lat":43.30646,"lon":5.40093,"is_reserved":false,"is_disabled":false,"rental_uris":{"android":"levelo://app?vid=ce87648f-9d4c-4832-983c-9e7e5924756b","ios":"levelo://app?vid=ce87648f-9d4c-4832-983c-9e7e5924756b"},"vehicle_type_id":"4","last_reported":1741280917,"current_range_meters":19600,"station_id":"ce4bh112rcd13ifvqda0","pricing_plan_id":"cebpf4jnsgd1na2vs0mg"},{"bike_id":"f9aa5da4-6457-4268-b375-e64192a4c748","system_id":"levelo_inurba_marseille","lat":43.24397,"lon":5.37052,"is_reserved":false,"is_disabled":false,"rental_uris":{"android":"levelo://app?vid=f9aa5da4-6457-4268-b375-e64192a4c748","ios":"levelo://app?vid=f9aa5da4-6457-4268-b375-e64192a4c748"},"vehicle_type_id":"4","last_reported":1741280917,"current_range_meters":19200,"station_id":"ce4bhhh2rcd13ifvqfk0","pricing_plan_id":"cebpf4jnsgd1na2vs0mg"},{"bike_id":"d86fdb96-c815-4978-a527-817b906731c7","system_id":"levelo_inurba_marseille","lat":43.29168,"lon":5.3715,"is_reserved":false,"is_disabled":false,"rental_uris":{"android":"levelo://app?vid=d86fdb96-c815-4978-a527-817b906731c7","ios":"levelo://app?vid=d86fdb96-c815-4978-a527-817b906731c7"},"vehicle_type_id":"4","last_reported":1741280917,"current_range_meters":19200,"station_id":"ce4bha92rcd13ifvqeh0","pricing_plan_id":"cebpf4jnsgd1na2vs0mg"},{"bike_id":"6460db91-3812-4851-93fb-90a38b9acd88","system_id":"levelo_inurba_marseille","lat":43.27818,"lon":5.40704,"is_reserved":false,"is_disabled":false,"rental_uris":{"android":"levelo://app?vid=6460db91-3812-4851-93fb-90a38b9acd88","ios":"levelo://app?vid=6460db91-3812-4851-93fb-90a38b9acd88"},"vehicle_type_id":"4","last_reported":1741280917,"current_range_meters":19200,"station_id":"ce4bhnh2rcd13ifvqgtg","pricing_plan_id":"cebpf4jnsgd1na2vs0mg"},{"bike_id":"5868d271-2e6d-4d0e-be76-743662ca27a1","system_id":"levelo_inurba_marseille","lat":43.28666,"lon":5.36352,"is_reserved":false,"is_disabled":false,"rental_uris":{"android":"levelo://app?vid=5868d271-2e6d-4d0e-be76-743662ca27a1","ios":"levelo://app?vid=5868d271-2e6d-4d0e-be76-743662ca27a1"},"vehicle_type_id":"4","last_reported":1741280917,"current_range_meters":19200,"station_id":"ce4bhah2rcd13ifvqej0","pricing_plan_id":"cebpf4jnsgd1na2vs0mg"},{"bike_id":"a0718cfb-52af-4b15-9c48-188becec1ce3","system_id":"levelo_inurba_marseille","lat":43.25586,"lon":5.38238,"is_reserved":false,"is_disabled":false,"rental_uris":{"android":"levelo://app?vid=a0718cfb-52af-4b15-9c48-188becec1ce3","ios":"levelo://app?vid=a0718cfb-52af-4b15-9c48-188becec1ce3"},"vehicle_type_id":"4","last_reported":1741280917,"current_range_meters":19200,"station_id":"ce4bhih2rcd13ifvqfs0","pricing_plan_id":"cebpf4jnsgd1na2vs0mg"},{"bike_id":"e336a150-5a3c-4be4-9025-c019060bdc8b","system_id":"levelo_inurba_marseille","lat":43.28851,"lon":5.35839,"is_reserved":false,"is_disabled":false,"rental_uris":{"android":"levelo://app?vid=e336a150-5a3c-4be4-9025-c019060bdc8b","ios":"levelo://app?vid=e336a150-5a3c-4be4-9025-c019060bdc8b"},"vehicle_type_id":"4","last_reported":1741280917,"current_range_meters":19200,"station_id":"ce4bhb12rcd13ifvqem0","pricing_plan_id":"cebpf4jnsgd1na2vs0mg"},{"bike_id":"bd98a302-e7d3-442a-89b4-d34f31f861a3","system_id":"levelo_inurba_marseille","lat":43.28033,"lon":5.36935,"is_reserved":false,"is_disabled":false,"rental_uris":{"android":"levelo://app?vid=bd98a302-e7d3-442a-89b4-d34f31f861a3","ios":"levelo://app?vid=bd98a302-e7d3-442a-89b4-d34f31f861a3"},"vehicle_type_id":"4","last_reported":1741280917,"current_range_meters":19200,"station_id":"ce4bha12rcd13ifvqef0","pricing_plan_id":"cebpf4jnsgd1na2vs0mg"},{"bike_id":"975fa86d-1215-4f11-9def-f80adfd3d7ee","system_id":"levelo_inurba_marseille","lat":43.25577,"lon":5.38257,"is_reserved":false,"is_disabled":false,"rental_uris":{"android":"levelo://app?vid=975fa86d-1215-4f11-9def-f80adfd3d7ee","ios":"levelo://app?vid=975fa86d-1215-4f11-9def-f80adfd3d7ee"},"vehicle_type_id":"4","last_reported":1741280917,"current_range_meters":19200,"station_id":"ce4bhih2rcd13ifvqfs0","pricing_plan_id":"cebpf4jnsgd1na2vs0mg"},{"bike_id":"65eab838-e929-454d-be01-4aaf37d35265","system_id":"levelo_inurba_marseille","lat":43.31728,"lon":5.42373,"is_reserved":false,"is_disabled":false,"rental_uris":{"android":"levelo://app?vid=65eab838-e929-454d-be01-4aaf37d35265","ios":"levelo://app?vid=65eab838-e929-454d-be01-4aaf37d35265"},"vehicle_type_id":"4","last_reported":1741280917,"current_range_meters":19600,"station_id":"ce4bhp92rcd13ifvqhbg","pricing_plan_id":"cebpf4jnsgd1na2vs0mg"},{"bike_id":"bf3cfc08-4e30-476a-84d6-0e60f923d8d5","system_id":"levelo_inurba_marseille","lat":43.31119,"lon":5.37764,"is_reserved":false,"is_disabled":false,"rental_uris":{"android":"levelo://app?vid=bf3cfc08-4e30-476a-84d6-0e60f923d8d5","ios":"levelo://app?vid=bf3cfc08-4e30-476a-84d6-0e60f923d8d5"},"vehicle_type_id":"4","last_reported":1741280917,"current_range_meters":19600,"station_id":"ce4bgt92rcd13ifvqcg0","pricing_plan_id":"cebpf4jnsgd1na2vs0mg"},{"bike_id":"6a8a51f8-8c20-4638-ab22-4c359ebab299","system_id":"levelo_inurba_marseille","lat":43.30444,"lon":5.38887,"is_reserved":false,"is_disabled":false,"rental_uris":{"android":"levelo://app?vid=6a8a51f8-8c20-4638-ab22-4c359ebab299","ios":"levelo://app?vid=6a8a51f8-8c20-4638-ab22-4c359ebab299"},"vehicle_type_id":"4","last_reported":1741280917,"current_range_meters":19600,"station_id":"ce4bgk12rcd13ifvqbi0","pricing_plan_id":"cebpf4jnsgd1na2vs0mg"},{"bike_id":"4b7b0b5a-03ee-4eb8-a5fa-43d9f03fcb55","system_id":"levelo_inurba_marseille","lat":43.29199,"lon":5.35788,"is_reserved":false,"is_disabled":false,"rental_uris":{"android":"levelo://app?vid=4b7b0b5a-03ee-4eb8-a5fa-43d9f03fcb55","ios":"levelo://app?vid=4b7b0b5a-03ee-4eb8-a5fa-43d9f03fcb55"},"vehicle_type_id":"4","last_reported":1741280917,"current_range_meters":19600,"station_id":"ce4bhb12rcd13ifvqel0","pricing_plan_id":"cebpf4jnsgd1na2vs0mg"},{"bike_id":"5ec6bd80-53d0-452b-be63-9ba2517f3009","system_id":"levelo_inurba_marseille","lat":43.30147,"lon":5.38082,"is_reserved":false,"is_disabled":false,"rental_uris":{"android":"levelo://app?vid=5ec6bd80-53d0-452b-be63-9ba2517f3009","ios":"levelo://app?vid=5ec6bd80-53d0-452b-be63-9ba2517f3009"},"vehicle_type_id":"4","last_reported":1741280917,"current_range_meters":19600,"station_id":"ce4bgjp2rcd13ifvqbh0","pricing_plan_id":"cebpf4jnsgd1na2vs0mg"},{"bike_id":"60e1961d-9ce8-4d69-bf42-44b1aa4e566e","system_id":"levelo_inurba_marseille","lat":43.30189,"lon":5.36627,"is_reserved":false,"is_disabled":false,"rental_uris":{"android":"levelo://app?vid=60e1961d-9ce8-4d69-bf42-44b1aa4e566e","ios":"levelo://app?vid=60e1961d-9ce8-4d69-bf42-44b1aa4e566e"},"vehicle_type_id":"4","last_reported":1741280917,"current_range_meters":19600,"station_id":"ce4bgrh2rcd13ifvqc8g","pricing_plan_id":"cebpf4jnsgd1na2vs0mg"},{"bike_id":"94bb4b42-765a-4dcc-84e5-1e56175a727a","system_id":"levelo_inurba_marseille","lat":43.33785,"lon":5.37437,"is_reserved":false,"is_disabled":false,"rental_uris":{"android":"levelo://app?vid=94bb4b42-765a-4dcc-84e5-1e56175a727a","ios":"levelo://app?vid=94bb4b42-765a-4dcc-84e5-1e56175a727a"},"vehicle_type_id":"4","last_reported":1741280917,"current_range_meters":19600,"station_id":"","pricing_plan_id":"cebpf4jnsgd1na2vs0mg"},{"bike_id":"f6476c21-f85c-43c4-bf5c-c819cd2287bb","system_id":"levelo_inurba_marseille","lat":43.28419,"lon":5.34994,"is_reserved":false,"is_disabled":false,"rental_uris":{"android":"levelo://app?vid=f6476c21-f85c-43c4-bf5c-c819cd2287bb","ios":"levelo://app?vid=f6476c21-f85c-43c4-bf5c-c819cd2287bb"},"vehicle_type_id":"4","last_reported":1741280917,"current_range_meters":19600,"station_id":"ce4bhbh2rcd13ifvqepg","pricing_plan_id":"cebpf4jnsgd1na2vs0mg"},{"bike_id":"053d0b23-fd32-4e9b-bef4-aaf82d6b6c9a","system_id":"levelo_inurba_marseille","lat":43.28462,"lon":5.35888,"is_reserved":false,"is_disabled":false,"rental_uris":{"android":"levelo://app?vid=053d0b23-fd32-4e9b-bef4-aaf82d6b6c9a","ios":"levelo://app?vid=053d0b23-fd32-4e9b-bef4-aaf82d6b6c9a"},"vehicle_type_id":"4","last_reported":1741280917,"current_range_meters":19200,"station_id":"ce4bhah2rcd13ifvqei0","pricing_plan_id":"cebpf4jnsgd1na2vs0mg"},{"bike_id":"b37d6e9f-2b77-42d8-8a3c-c3df6863002a","system_id":"levelo_inurba_marseille","lat":43.24384,"lon":5.37062,"is_reserved":false,"is_disabled":false,"rental_uris":{"android":"levelo://app?vid=b37d6e9f-2b77-42d8-8a3c-c3df6863002a","ios":"levelo://app?vid=b37d6e9f-2b77-42d8-8a3c-c3df6863002a"},"vehicle_type_id":"4","last_reported":1741280917,"current_range_meters":19600,"station_id":"ce4bhhh2rcd13ifvqfk0","pricing_plan_id":"cebpf4jnsgd1na2vs0mg"},{"bike_id":"58139337-9bcb-43e2-9c36-285edb7f40a8","system_id":"levelo_inurba_marseille","lat":43.27996,"lon":5.41657,"is_reserved":false,"is_disabled":false,"rental_uris":{"android":"levelo://app?vid=58139337-9bcb-43e2-9c36-285edb7f40a8","ios":"levelo://app?vid=58139337-9bcb-43e2-9c36-285edb7f40a8"},"vehicle_type_id":"4","last_reported":1741280917,"current_range_meters":19600,"station_id":"ce4bho12rcd13ifvqh1g","pricing_plan_id":"cebpf4jnsgd1na2vs0mg"},{"bike_id":"09767c5f-d8a8-4812-ab7b-70e6ff553662","system_id":"levelo_inurba_marseille","lat":43.298584,"lon":5.397537,"is_reserved":false,"is_disabled":false,"rental_uris":{"android":"levelo://app?vid=09767c5f-d8a8-4812-ab7b-70e6ff553662","ios":"levelo://app?vid=09767c5f-d8a8-4812-ab7b-70e6ff553662"},"vehicle_type_id":"4","last_reported":1741280917,"current_range_meters":19600,"station_id":"ce4bh3p2rcd13ifvqdp0","pricing_plan_id":"cebpf4jnsgd1na2vs0mg"},{"bike_id":"40562c40-cbd6-496d-935e-edcd811d60ca","system_id":"levelo_inurba_marseille","lat":43.29981,"lon":5.37182,"is_reserved":false,"is_disabled":true,"rental_uris":{"android":"levelo://app?vid=40562c40-cbd6-496d-935e-edcd811d60ca","ios":"levelo://app?vid=40562c40-cbd6-496d-935e-edcd811d60ca"},"vehicle_type_id":"4","last_reported":1741280917,"current_range_meters":19600,"station_id":"ce4bgr92rcd13ifvqc7g","pricing_plan_id":"cebpf4jnsgd1na2vs0mg"},{"bike_id":"8211b57e-cdfe-4e79-ae3e-efbc6df9bd01","system_id":"levelo_inurba_marseille","lat":43.28612,"lon":5.35103,"is_reserved":false,"is_disabled":false,"rental_uris":{"android":"levelo://app?vid=8211b57e-cdfe-4e79-ae3e-efbc6df9bd01","ios":"levelo://app?vid=8211b57e-cdfe-4e79-ae3e-efbc6df9bd01"},"vehicle_type_id":"4","last_reported":1741280917,"current_range_meters":20000,"station_id":"ce4bhch2rcd13ifvqeug","pricing_plan_id":"cebpf4jnsgd1na2vs0mg"},{"bike_id":"2f214610-8c86-4c13-b4a2-71c69a8ac509","system_id":"levelo_inurba_marseille","lat":43.2319,"lon":5.39977,"is_reserved":false,"is_disabled":false,"rental_uris":{"android":"levelo://app?vid=2f214610-8c86-4c13-b4a2-71c69a8ac509","ios":"levelo://app?vid=2f214610-8c86-4c13-b4a2-71c69a8ac509"},"vehicle_type_id":"4","last_reported":1741280917,"current_range_meters":20000,"station_id":"ce4bhn12rcd13ifvqgqg","pricing_plan_id":"cebpf4jnsgd1na2vs0mg"},{"bike_id":"3c28a72f-782e-488d-97d6-904d649b8f74","system_id":"levelo_inurba_marseille","lat":43.30803,"lon":5.43519,"is_reserved":false,"is_disabled":false,"rental_uris":{"android":"levelo://app?vid=3c28a72f-782e-488d-97d6-904d649b8f74","ios":"levelo://app?vid=3c28a72f-782e-488d-97d6-904d649b8f74"},"vehicle_type_id":"4","last_reported":1741280917,"current_range_meters":20000,"station_id":"ce4bhph2rcd13ifvqheg","pricing_plan_id":"cebpf4jnsgd1na2vs0mg"},{"bike_id":"9d5c1636-cced-49ce-85d8-185ca567a8d4","system_id":"levelo_inurba_marseille","lat":43.28124,"lon":5.3789,"is_reserved":false,"is_disabled":false,"rental_uris":{"android":"levelo://app?vid=9d5c1636-cced-49ce-85d8-185ca567a8d4","ios":"levelo://app?vid=9d5c1636-cced-49ce-85d8-185ca567a8d4"},"vehicle_type_id":"4","last_reported":1741280917,"current_range_meters":20000,"station_id":"","pricing_plan_id":"cebpf4jnsgd1na2vs0mg"},{"bike_id":"ca4cdf7d-e008-4fe2-bacd-5973dafe79a7","system_id":"levelo_inurba_marseille","lat":43.25107,"lon":5.40317,"is_reserved":false,"is_disabled":false,"rental_uris":{"android":"levelo://app?vid=ca4cdf7d-e008-4fe2-bacd-5973dafe79a7","ios":"levelo://app?vid=ca4cdf7d-e008-4fe2-bacd-5973dafe79a7"},"vehicle_type_id":"4","last_reported":1741280917,"current_range_meters":20800,"station_id":"ce4bhlh2rcd13ifvqgig","pricing_plan_id":"cebpf4jnsgd1na2vs0mg"},{"bike_id":"fa8520cb-0ca4-4e8f-b6e5-a607420807a0","system_id":"levelo_inurba_marseille","lat":43.27815,"lon":5.40713,"is_reserved":false,"is_disabled":false,"rental_uris":{"android":"levelo://app?vid=fa8520cb-0ca4-4e8f-b6e5-a607420807a0","ios":"levelo://app?vid=fa8520cb-0ca4-4e8f-b6e5-a607420807a0"},"vehicle_type_id":"4","last_reported":1741280917,"current_range_meters":20800,"station_id":"ce4bhnh2rcd13ifvqgtg","pricing_plan_id":"cebpf4jnsgd1na2vs0mg"},{"bike_id":"6a3d2352-0e73-42d6-aa69-f8835f721c12","system_id":"levelo_inurba_marseille","lat":43.24386,"lon":5.37062,"is_reserved":false,"is_disabled":false,"rental_uris":{"android":"levelo://app?vid=6a3d2352-0e73-42d6-aa69-f8835f721c12","ios":"levelo://app?vid=6a3d2352-0e73-42d6-aa69-f8835f721c12"},"vehicle_type_id":"4","last_reported":1741280917,"current_range_meters":20400,"station_id":"ce4bhhh2rcd13ifvqfk0","pricing_plan_id":"cebpf4jnsgd1na2vs0mg"},{"bike_id":"aa5ac3b2-dc97-4d7b-88a6-99604509939d","system_id":"levelo_inurba_marseille","lat":43.29045,"lon":5.37556,"is_reserved":false,"is_disabled":false,"rental_uris":{"android":"levelo://app?vid=aa5ac3b2-dc97-4d7b-88a6-99604509939d","ios":"levelo://app?vid=aa5ac3b2-dc97-4d7b-88a6-99604509939d"},"vehicle_type_id":"4","last_reported":1741280917,"current_range_meters":20400,"station_id":"ce4bh692rcd13ifvqe90","pricing_plan_id":"cebpf4jnsgd1na2vs0mg"},{"bike_id":"230a7eb3-c69b-42a2-a490-9d1e0f68e229","system_id":"levelo_inurba_marseille","lat":43.29304,"lon":5.37213,"is_reserved":false,"is_disabled":false,"rental_uris":{"android":"levelo://app?vid=230a7eb3-c69b-42a2-a490-9d1e0f68e229","ios":"levelo://app?vid=230a7eb3-c69b-42a2-a490-9d1e0f68e229"},"vehicle_type_id":"4","last_reported":1741280917,"current_range_meters":20400,"station_id":"ce4bgh92rcd13ifvqb40","pricing_plan_id":"cebpf4jnsgd1na2vs0mg"},{"bike_id":"606f4664-bfbf-4005-a84d-50a33454c752","system_id":"levelo_inurba_marseille","lat":43.26948,"lon":5.40251,"is_reserved":false,"is_disabled":false,"rental_uris":{"android":"levelo://app?vid=606f4664-bfbf-4005-a84d-50a33454c752","ios":"levelo://app?vid=606f4664-bfbf-4005-a84d-50a33454c752"},"vehicle_type_id":"4","last_reported":1741280917,"current_range_meters":20400,"station_id":"cjm6bp8fraef2m0cb0m0","pricing_plan_id":"cebpf4jnsgd1na2vs0mg"},{"bike_id":"3bcefaf4-d230-4540-8a2f-19c4ed26143c","system_id":"levelo_inurba_marseille","lat":43.24545,"lon":5.39522,"is_reserved":false,"is_disabled":false,"rental_uris":{"android":"levelo://app?vid=3bcefaf4-d230-4540-8a2f-19c4ed26143c","ios":"levelo://app?vid=3bcefaf4-d230-4540-8a2f-19c4ed26143c"},"vehicle_type_id":"4","last_reported":1741280917,"current_range_meters":20400,"station_id":"ce4bhlp2rcd13ifvqgjg","pricing_plan_id":"cebpf4jnsgd1na2vs0mg"},{"bike_id":"32a17423-6668-4b67-b049-5865736b6ade","system_id":"levelo_inurba_marseille","lat":43.28699,"lon":5.37398,"is_reserved":false,"is_disabled":false,"rental_uris":{"android":"levelo://app?vid=32a17423-6668-4b67-b049-5865736b6ade","ios":"levelo://app?vid=32a17423-6668-4b67-b049-5865736b6ade"},"vehicle_type_id":"4","last_reported":1741280917,"current_range_meters":20000,"station_id":"ce4bh3p2rcd13ifvqdq0","pricing_plan_id":"cebpf4jnsgd1na2vs0mg"},{"bike_id":"65974a34-3b8f-4bfb-b8dd-ba4183ec7b80","system_id":"levelo_inurba_marseille","lat":43.32374,"lon":5.38886,"is_reserved":false,"is_disabled":false,"rental_uris":{"android":"levelo://app?vid=65974a34-3b8f-4bfb-b8dd-ba4183ec7b80","ios":"levelo://app?vid=65974a34-3b8f-4bfb-b8dd-ba4183ec7b80"},"vehicle_type_id":"4","last_reported":1741280917,"current_range_meters":20400,"station_id":"ce4bhqp2rcd13ifvqhog","pricing_plan_id":"cebpf4jnsgd1na2vs0mg"},{"bike_id":"fcc4ea5b-b69b-4d35-acd0-3fcbcbf94cef","system_id":"levelo_inurba_marseille","lat":43.30804,"lon":5.43522,"is_reserved":false,"is_disabled":false,"rental_uris":{"android":"levelo://app?vid=fcc4ea5b-b69b-4d35-acd0-3fcbcbf94cef","ios":"levelo://app?vid=fcc4ea5b-b69b-4d35-acd0-3fcbcbf94cef"},"vehicle_type_id":"4","last_reported":1741280917,"current_range_meters":20800,"station_id":"ce4bhph2rcd13ifvqheg","pricing_plan_id":"cebpf4jnsgd1na2vs0mg"},{"bike_id":"cc56b9b7-5e17-46f2-81e0-2ac56bba2a3e","system_id":"levelo_inurba_marseille","lat":43.30142,"lon":5.39901,"is_reserved":false,"is_disabled":false,"rental_uris":{"android":"levelo://app?vid=cc56b9b7-5e17-46f2-81e0-2ac56bba2a3e","ios":"levelo://app?vid=cc56b9b7-5e17-46f2-81e0-2ac56bba2a3e"},"vehicle_type_id":"4","last_reported":1741280917,"current_range_meters":20800,"station_id":"ce4bh0h2rcd13ifvqd40","pricing_plan_id":"cebpf4jnsgd1na2vs0mg"},