{"last_updated":1748895099,"ttl":60,"version":"2.2","data":{"bikes":[{"bike_id":"5736accb-991c-4877-a612-8be882a83c2f","system_id":"levelo_inurba_marseille","lat":43.33771,"lon":5.37424,"is_reserved":false,"is_disabled":true,"rental_uris":{"android":"levelo://app?vid=5736accb-991c-4877-a612-8be882a83c2f","ios":"levelo://app?vid=5736accb-991c-4877-a612-8be882a83c2f"},"vehicle_type_id":"4","last_reported":1748895099,"current_range_meters":0,"station_id":"","pricing_plan_id":"cebpf4jnsgd1na2vs0mg"},{"bike_id":"55a5c057-4e97-4693-8616-8ebd3dc507dc","system_id":"levelo_inurba_marseille","lat":43.337499,"lon":5.374469,"is_reserved":false,"is_disabled":true,"rental_uris":{"android":"levelo://app?vid=55a5c057-4e97-4693-8616-8ebd3dc507dc","ios":"levelo://app?vid=55a5c057-4e97-4693-8616-8ebd3dc507dc"},"vehicle_type_id":"4","last_reported":1748895099,"current_range_meters":0,"station_id":"","pricing_plan_id":"cebpf4jnsgd1na2vs0mg"},{"bike_id":"58872a66-6d13-4e73-8bc3-e26429814b74","system_id":"levelo_inurba_marseille","lat":43.337444,"lon":5.374475,"is_reserved":false,"is_disabled":true,"rental_uris":{"android":"levelo://app?vid=58872a66-6d13-4e73-8bc3-e26429814b74","ios":"levelo://app?vid=58872a66-6d13-4e73-8bc3-e26429814b74"},"vehicle_type_id":"4","last_reported":1748895099,"current_range_meters":0,"station_id":"","pricing_plan_id":"cebpf4jnsgd1na2vs0mg"},{"bike_id":"aedab83c-b9e3-4c27-91f4-79f4c3b37920","system_id":"levelo_inurba_marseille","lat":43.337444,"lon":5.374475,"is_reserved":false,"is_disabled":true,"rental_uris":{"android":"levelo://app?vid=aedab83c-b9e3-4c27-91f4-79f4c3b37920","ios":"levelo://app?vid=aedab83c-b9e3-4c27-91f4-79f4c3b37920"},"vehicle_type_id":"4","last_reported":1748895099,"current_range_meters":0,"station_id":"","pricing_plan_id":"cebpf4jnsgd1na2vs0mg"},{"bike_id":"0e5c7fc5-efe6-4da0-bbfc-434e48e22be5","system_id":"levelo_inurba_marseille","lat":43.31902,"lon":5.44172,"is_reserved":false,"is_disabled":true,"rental_uris":{"android":"levelo://app?vid=0e5c7fc5-efe6-4da0-bbfc-434e48e22be5","ios":"levelo://app?vid=0e5c7fc5-efe6-4da0-bbfc-434e48e22be5"},"vehicle_type_id":"4","last_reported":1748895099,"current_range_meters":0,"station_id":"","pricing_plan_id":"cebpf4jnsgd1na2vs0mg"},{"bike_id":"6e7e5163-991a-4d7d-9c2b-4faf721e9959","system_id":"levelo_inurba_marseille","lat":43.27916,"lon":5.35325,"is_reserved":false,"is_disabled":true,"rental_uris":{"android":"levelo://app?vid=6e7e5163-991a-4d7d-9c2b-4faf721e9959","ios":"levelo://app?vid=6e7e5163-991a-4d7d-9c2b-4faf721e9959"},"vehicle_type_id":"4","last_reported":1748895099,"current_range_meters":0,"station_id":"","pricing_plan_id":"cebpf4jnsgd1na2vs0mg"},{"bike_id":"7eebeb3c-3732-4cb5-b98f-ef441c4404ff","system_id":"levelo_inurba_marseille","lat":43.31687,"lon":5.40466,"is_reserved":false,"is_disabled":true,"rental_uris":{"android":"levelo://app?vid=7eebeb3c-3732-4cb5-b98f-ef441c4404ff","ios":"levelo://app?vid=7eebeb3c-3732-4cb5-b98f-ef441c4404ff"},"vehicle_type_id":"4","last_reported":1748895099,"current_range_meters":0,"station_id":"ce4bh012rcd13ifvqd00","pricing_plan_id":"cebpf4jnsgd1na2vs0mg"},{"bike_id":"35dcaedc-4d1d-4041-9f0a-8cacfbe3d6fa","system_id":"levelo_inurba_marseille","lat":43.30409,"lon":5.41289,"is_reserved":false,"is_disabled":true,"rental_uris":{"android":"levelo://app?vid=35dcaedc-4d1d-4041-9f0a-8cacfbe3d6fa","ios":"levelo://app?vid=35dcaedc-4d1d-4041-9f0a-8cacfbe3d6fa"},"vehicle_type_id":"4","last_reported":1748895099,"current_range_meters":0,"station_id":"ce4bhop2rcd13ifvqh8g","pricing_plan_id":"cebpf4jnsgd1na2vs0mg"},{"bike_id":"0cb8dc3d-d38b-4878-b5e9-590134d30ddf","system_id":"levelo_inurba_marseille","lat":43.31705,"lon":5.43704,"is_reserved":false,"is_disabled":true,"rental_uris":{"android":"levelo://app?vid=0cb8dc3d-d38b-4878-b5e9-590134d30ddf","ios":"levelo://app?vid=0cb8dc3d-d38b-4878-b5e9-590134d30ddf"},"vehicle_type_id":"4","last_reported":1748895099,"current_range_meters":0,"station_id":"ce4bhp92rcd13ifvqhcg","pricing_plan_id":"cebpf4jnsgd1na2vs0mg"},{"bike_id":"7ae28148-36fa-49e7-bbdb-5e6cccc65fa6","system_id":"levelo_inurba_marseille","lat":43.33229,"lon":5.37996,"is_reserved":false,"is_disabled":true,"rental_uris":{"android":"levelo://app?vid=7ae28148-36fa-49e7-bbdb-5e6cccc65fa6","ios":"levelo://app?vid=7ae28148-36fa-49e7-bbdb-5e6cccc65fa6"},"vehicle_type_id":"4","last_reported":1748895099,"current_range_meters":1200,"station_id":"","pricing_plan_id":"cebpf4jnsgd1na2vs0mg"},{"bike_id":"9e2ca4be-b53d-43de-a866-1dbecbaf46a6","system_id":"levelo_inurba_marseille","lat":43.33722,"lon":5.3918,"is_reserved":false,"is_disabled":true,"rental_uris":{"android":"levelo://app?vid=9e2ca4be-b53d-43de-a866-1dbecbaf46a6","ios":"levelo://app?vid=9e2ca4be-b53d-43de-a866-1dbecbaf46a6"},"vehicle_type_id":"4","last_reported":1748895099,"current_range_meters":1200,"station_id":"ce4bhr92rcd13ifvqhsg","pricing_plan_id":"cebpf4jnsgd1na2vs0mg"},{"bike_id":"856921fa-71f2-4879-a42b-58fd6d7b6a14","system_id":"levelo_inurba_marseille","lat":43.320069,"lon":5.394663,"is_reserved":false,"is_disabled":true,"rental_uris":{"android":"levelo://app?vid=856921fa-71f2-4879-a42b-58fd6d7b6a14","ios":"levelo://app?vid=856921fa-71f2-4879-a42b-58fd6d7b6a14"},"vehicle_type_id":"4","last_reported":1748895099,"current_range_meters":1600,"station_id":"","pricing_plan_id":"cebpf4jnsgd1na2vs0mg"},{"bike_id":"63db8c46-aedf-4569-81af-54820146be46","system_id":"levelo_inurba_marseille","lat":43.28469,"lon":5.38419,"is_reserved":false,"is_disabled":true,"rental_uris":{"android":"levelo://app?vid=63db8c46-aedf-4569-81af-54820146be46","ios":"levelo://app?vid=63db8c46-aedf-4569-81af-54820146be46"},"vehicle_type_id":"4","last_reported":1748895099,"current_range_meters":2000,"station_id":"ce4bh512rcd13ifvqe3g","pricing_plan_id":"cebpf4jnsgd1na2vs0mg"},{"bike_id":"26974b39-f091-4404-8844-08cb86b2d9da","system_id":"levelo_inurba_marseille","lat":43.22928,"lon":5.35372,"is_reserved":false,"is_disabled":true,"rental_uris":{"android":"levelo://app?vid=26974b39-f091-4404-8844-08cb86b2d9da","ios":"levelo://app?vid=26974b39-f091-4404-8844-08cb86b2d9da"},"vehicle_type_id":"4","last_reported":1748895099,"current_range_meters":2000,"station_id":"cpo3532slgdg3j2ikp40","pricing_plan_id":"cebpf4jnsgd1na2vs0mg"},{"bike_id":"c9517710-0571-4d85-80a0-86ab1239e9fa","system_id":"levelo_inurba_marseille","lat":43.285699,"lon":5.394981,"is_reserved":false,"is_disabled":false,"rental_uris":{"android":"levelo://app?vid=c9517710-0571-4d85-80a0-86ab1239e9fa","ios":"levelo://app?vid=c9517710-0571-4d85-80a0-86ab1239e9fa"},"vehicle_type_id":"4","last_reported":1748895099,"current_range_meters":3200,"station_id":"ce4bh292rcd13ifvqdg0","pricing_plan_id":"cebpf4jnsgd1na2vs0mg"},{"bike_id":"9cd236e7-a873-4c28-9a1f-96eb79d3c3e7","system_id":"levelo_inurba_marseille","lat":43.27847,"lon":5.39215,"is_reserved":false,"is_disabled":false,"rental_uris":{"android":"levelo://app?vid=9cd236e7-a873-4c28-9a1f-96eb79d3c3e7","ios":"levelo://app?vid=9cd236e7-a873-4c28-9a1f-96eb79d3c3e7"},"vehicle_type_id":"4","last_reported":1748895099,"current_range_meters":3200,"station_id":"ce4bhjp2rcd13ifvqga0","pricing_plan_id":"cebpf4jnsgd1na2vs0mg"},{"bike_id":"c1a2c293-cc24-4ae3-a4df-d19cf1f82b1a","system_id":"levelo_inurba_marseille","lat":43.31718,"lon":5.37734,"is_reserved":false,"is_disabled":false,"rental_uris":{"android":"levelo://app?vid=c1a2c293-cc24-4ae3-a4df-d19cf1f82b1a","ios":"levelo://app?vid=c1a2c293-cc24-4ae3-a4df-d19cf1f82b1a"},"vehicle_type_id":"4","last_reported":1748895099,"current_range_meters":4000,"station_id":"ce4bgth2rcd13ifvqch0","pricing_plan_id":"cebpf4jnsgd1na2vs0mg"},{"bike_id":"bff91e46-d50f-47f4-abcc-a302e9440288","system_id":"levelo_inurba_marseille","lat":43.330867,"lon":5.389543,"is_reserved":false,"is_disabled":false,"rental_uris":{"android":"levelo://app?vid=bff91e46-d50f-47f4-abcc-a302e9440288","ios":"levelo://app?vid=bff91e46-d50f-47f4-abcc-a302e9440288"},"vehicle_type_id":"4","last_reported":1748895099,"current_range_meters":4400,"station_id":"","pricing_plan_id":"cebpf4jnsgd1na2vs0mg"},{"bike_id":"24c64ffd-abc3-4df8-bc1b-61dde0a552a8","system_id":"levelo_inurba_marseille","lat":43.28479,"lon":5.384146,"is_reserved":false,"is_disabled":false,"rental_uris":{"android":"levelo://app?vid=24c64ffd-abc3-4df8-bc1b-61dde0a552a8","ios":"levelo://app?vid=24c64ffd-abc3-4df8-bc1b-61dde0a552a8"},"vehicle_type_id":"4","last_reported":1748895099,"current_range_meters":4400,"station_id":"ce4bh512rcd13ifvqe3g","pricing_plan_id":"cebpf4jnsgd1na2vs0mg"},{"bike_id":"85e6b581-c583-4dae-bde9-3b3771ca34a4","system_id":"levelo_inurba_marseille","lat":43.26553,"lon":5.37282,"is_reserved":false,"is_disabled":false,"rental_uris":{"android":"levelo://app?vid=85e6b581-c583-4dae-bde9-3b3771ca34a4","ios":"levelo://app?vid=85e6b581-c583-4dae-bde9-3b3771ca34a4"},"vehicle_type_id":"4","last_reported":1748895099,"current_range_meters":4400,"station_id":"ce4bhg12rcd13ifvqf70","pricing_plan_id":"cebpf4jnsgd1na2vs0mg"},{"bike_id":"aadb95fc-d156-41e0-9614-75d762b11d28","system_id":"levelo_inurba_marseille","lat":43.31965,"lon":5.440414,"is_reserved":false,"is_disabled":false,"rental_uris":{"android":"levelo://app?vid=aadb95fc-d156-41e0-9614-75d762b11d28","ios":"levelo://app?vid=aadb95fc-d156-41e0-9614-75d762b11d28"},"vehicle_type_id":"4","last_reported":1748895099,"current_range_meters":4800,"station_id":"","pricing_plan_id":"cebpf4jnsgd1na2vs0mg"},{"bike_id":"ac126775-9b4e-44f5-9061-4599bf97ec8f","system_id":"levelo_inurba_marseille","lat":43.30924,"lon":5.40138,"is_reserved":false,"is_disabled":false,"rental_uris":{"android":"levelo://app?vid=ac126775-9b4e-44f5-9061-4599bf97ec8f","ios":"levelo://app?vid=ac126775-9b4e-44f5-9061-4599bf97ec8f"},"vehicle_type_id":"4","last_reported":1748895099,"current_range_meters":4800,"station_id":"ce4bgvp2rcd13ifvqct0","pricing_plan_id":"cebpf4jnsgd1na2vs0mg"},{"bike_id":"f9401577-a18c-49bf-8f64-4563acb20af0","system_id":"levelo_inurba_marseille","lat":43.24164,"lon":5.3639,"is_reserved":false,"is_disabled":false,"rental_uris":{"android":"levelo://app?vid=f9401577-a18c-49bf-8f64-4563acb20af0","ios":"levelo://app?vid=f9401577-a18c-49bf-8f64-4563acb20af0"},"vehicle_type_id":"4","last_reported":1748895099,"current_range_meters":4800,"station_id":"cpo36qri1sfpv3e86is0","pricing_plan_id":"cebpf4jnsgd1na2vs0mg"},{"bike_id":"3bb92c33-91d8-4f88-8f2c-672c7868f4ad","system_id":"levelo_inurba_marseille","lat":43.32922,"lon":5.40518,"is_reserved":false,"is_disabled":false,"rental_uris":{"android":"levelo://app?vid=3bb92c33-91d8-4f88-8f2c-672c7868f4ad","ios":"levelo://app?vid=3bb92c33-91d8-4f88-8f2c-672c7868f4ad"},"vehicle_type_id":"4","last_reported":1748895099,"current_range_meters":5600,"station_id":"","pricing_plan_id":"cebpf4jnsgd1na2vs0mg"},{"bike_id":"e42ce24e-d816-4bb6-8c02-8469fc4dee05","system_id":"levelo_inurba_marseille","lat":43.28684,"lon":5.39993,"is_reserved":false,"is_disabled":false,"rental_uris":{"android":"levelo://app?vid=e42ce24e-d816-4bb6-8c02-8469fc4dee05","ios":"levelo://app?vid=e42ce24e-d816-4bb6-8c02-8469fc4dee05"},"vehicle_type_id":"4","last_reported":1748895099,"current_range_meters":6000,"station_id":"ce4bho92rcd13ifvqh3g","pricing_plan_id":"cebpf4jnsgd1na2vs0mg"},{"bike_id":"036a3f84-6c04-4f85-bd69-c60fcc1a093a","system_id":"levelo_inurba_marseille","lat":43.33319,"lon":5.39805,"is_reserved":false,"is_disabled":false,"rental_uris":{"android":"levelo://app?vid=036a3f84-6c04-4f85-bd69-c60fcc1a093a","ios":"levelo://app?vid=036a3f84-6c04-4f85-bd69-c60fcc1a093a"},"vehicle_type_id":"4","last_reported":1748895099,"current_range_meters":6400,"station_id":"","pricing_plan_id":"cebpf4jnsgd1na2vs0mg"},{"bike_id":"a5336a1f-9847-45bd-a293-55f7bf6c9232","system_id":"levelo_inurba_marseille","lat":43.28978,"lon":5.37845,"is_reserved":false,"is_disabled":false,"rental_uris":{"android":"levelo://app?vid=a5336a1f-9847-45bd-a293-55f7bf6c9232","ios":"levelo://app?vid=a5336a1f-9847-45bd-a293-55f7bf6c9232"},"vehicle_type_id":"4","last_reported":1748895099,"current_range_meters":6400,"station_id":"ce4bh9p2rcd13ifvqed0","pricing_plan_id":"cebpf4jnsgd1na2vs0mg"},{"bike_id":"cfd2ad4f-6346-463a-afeb-cc4673065337","system_id":"levelo_inurba_marseille","lat":43.28673,"lon":5.3867,"is_reserved":false,"is_disabled":false,"rental_uris":{"android":"levelo://app?vid=cfd2ad4f-6346-463a-afeb-cc4673065337","ios":"levelo://app?vid=cfd2ad4f-6346-463a-afeb-cc4673065337"},"vehicle_type_id":"4","last_reported":1748895099,"current_range_meters":6800,"station_id":"ce4bh492rcd13ifvqdug","pricing_plan_id":"cebpf4jnsgd1na2vs0mg"},{"bike_id":"0b3654db-33dc-4a56-850c-0b6b7ac0b481","system_id":"levelo_inurba_marseille","lat":43.23084,"lon":5.40177,"is_reserved":false,"is_disabled":false,"rental_uris":{"android":"levelo://app?vid=0b3654db-33dc-4a56-850c-0b6b7ac0b481","ios":"levelo://app?vid=0b3654db-33dc-4a56-850c-0b6b7ac0b481"},"vehicle_type_id":"4","last_reported":1748895099,"current_range_meters":7200,"station_id":"","pricing_plan_id":"cebpf4jnsgd1na2vs0mg"},{"bike_id":"907989c4-217b-4f7b-9ff7-4afa285967be","system_id":"levelo_inurba_marseille","lat":43.30949,"lon":5.40173,"is_reserved":false,"is_disabled":false,"rental_uris":{"android":"levelo://app?vid=907989c4-217b-4f7b-9ff7-4afa285967be","ios":"levelo://app?vid=907989c4-217b-4f7b-9ff7-4afa285967be"},"vehicle_type_id":"4","last_reported":1748895099,"current_range_meters":7200,"station_id":"ce4bgvp2rcd13ifvqct0","pricing_plan_id":"cebpf4jnsgd1na2vs0mg"},{"bike_id":"c00a4779-7442-49ef-9f4c-2a6af0baf955","system_id":"levelo_inurba_marseille","lat":43.33029,"lon":5.39026,"is_reserved":false,"is_disabled":false,"rental_uris":{"android":"levelo://app?vid=c00a4779-7442-49ef-9f4c-2a6af0baf955","ios":"levelo://app?vid=c00a4779-7442-49ef-9f4c-2a6af0baf955"},"vehicle_type_id":"4","last_reported":1748895099,"current_range_meters":7200,"station_id":"ce4bhr92rcd13ifvqhrg","pricing_plan_id":"cebpf4jnsgd1na2vs0mg"},{"bike_id":"5dead81c-52cf-467b-885d-461d40fb80a5","system_id":"levelo_inurba_marseille","lat":43.25098,"lon":5.40968,"is_reserved":false,"is_disabled":false,"rental_uris":{"android":"levelo://app?vid=5dead81c-52cf-467b-885d-461d40fb80a5","ios":"levelo://app?vid=5dead81c-52cf-467b-885d-461d40fb80a5"},"vehicle_type_id":"4","last_reported":1748895099,"current_range_meters":8000,"station_id":"","pricing_plan_id":"cebpf4jnsgd1na2vs0mg"},{"bike_id":"991767c3-91b0-4519-b925-beb59e0f0895","system_id":"levelo_inurba_marseille","lat":43.308822,"lon":5.39656,"is_reserved":false,"is_disabled":false,"rental_uris":{"android":"levelo://app?vid=991767c3-91b0-4519-b925-beb59e0f0895","ios":"levelo://app?vid=991767c3-91b0-4519-b925-beb59e0f0895"},"vehicle_type_id":"4","last_reported":1748895099,"current_range_meters":8000,"station_id":"ce4bh012rcd13ifvqcv0","pricing_plan_id":"cebpf4jnsgd1na2vs0mg"},{"bike_id":"d72d5a5e-a033-4555-a5b7-2e9b101d2f01","system_id":"levelo_inurba_marseille","lat":43.24382,"lon":5.41136,"is_reserved":false,"is_disabled":false,"rental_uris":{"android":"levelo://app?vid=d72d5a5e-a033-4555-a5b7-2e9b101d2f01","ios":"levelo://app?vid=d72d5a5e-a033-4555-a5b7-2e9b101d2f01"},"vehicle_type_id":"4","last_reported":1748895099,"current_range_meters":8400,"station_id":"","pricing_plan_id":"cebpf4jnsgd1na2vs0mg"},{"bike_id":"07633108-981d-45f6-a17d-dc55e09230b7","system_id":"levelo_inurba_marseille","lat":43.29412,"lon":5.38629,"is_reserved":false,"is_disabled":false,"rental_uris":{"android":"levelo://app?vid=07633108-981d-45f6-a17d-dc55e09230b7","ios":"levelo://app?vid=07633108-981d-45f6-a17d-dc55e09230b7"},"vehicle_type_id":"4","last_reported":1748895099,"current_range_meters":8400,"station_id":"ce4bh2h2rcd13ifvqdh0","pricing_plan_id":"cebpf4jnsgd1na2vs0mg"},{"bike_id":"33b89bfc-2285-47c1-8499-a024d6bea59b","system_id":"levelo_inurba_marseille","lat":43.28848,"lon":5.35837,"is_reserved":false,"is_disabled":false,"rental_uris":{"android":"levelo://app?vid=33b89bfc-2285-47c1-8499-a024d6bea59b","ios":"levelo://app?vid=33b89bfc-2285-47c1-8499-a024d6bea59b"},"vehicle_type_id":"4","last_reported":1748895099,"current_range_meters":8400,"station_id":"ce4bhb12rcd13ifvqem0","pricing_plan_id":"cebpf4jnsgd1na2vs0mg"},{"bike_id":"b8bb2bd6-baf7-4705-b1df-7719367f4132","system_id":"levelo_inurba_marseille","lat":43.24165,"lon":5.36387,"is_reserved":false,"is_disabled":false,"rental_uris":{"android":"levelo://app?vid=b8bb2bd6-baf7-4705-b1df-7719367f4132","ios":"levelo://app?vid=b8bb2bd6-baf7-4705-b1df-7719367f4132"},"vehicle_type_id":"4","last_reported":1748895099,"current_range_meters":8400,"station_id":"cpo36qri1sfpv3e86is0","pricing_plan_id":"cebpf4jnsgd1na2vs0mg"},{"bike_id":"113d0131-8168-44ff-af6f-a57421e1ccf2","system_id":"levelo_inurba_marseille","lat":43.309335,"lon":5.401345,"is_reserved":false,"is_disabled":false,"rental_uris":{"android":"levelo://app?vid=113d0131-8168-44ff-af6f-a57421e1ccf2","ios":"levelo://app?vid=113d0131-8168-44ff-af6f-a57421e1ccf2"},"vehicle_type_id":"4","last_reported":1748895099,"current_range_meters":9200,"station_id":"ce4bgvp2rcd13ifvqct0","pricing_plan_id":"cebpf4jnsgd1na2vs0mg"},{"bike_id":"ec703396-c7cc-443f-bdac-322633d79fb4","system_id":"levelo_inurba_marseille","lat":43.29094,"lon":5.38141,"is_reserved":false,"is_disabled":false,"rental_uris":{"android":"levelo://app?vid=ec703396-c7cc-443f-bdac-322633d79fb4","ios":"levelo://app?vid=ec703396-c7cc-443f-bdac-322633d79fb4"},"vehicle_type_id":"4","last_reported":1748895099,"current_range_meters":9200,"station_id":"ce4bh512rcd13ifvqe2g","pricing_plan_id":"cebpf4jnsgd1na2vs0mg"},{"bike_id":"6cec1a6f-7191-4809-a9e5-155bc80c1240","system_id":"levelo_inurba_marseille","lat":43.28665,"lon":5.36359,"is_reserved":false,"is_disabled":false,"rental_uris":{"android":"levelo://app?vid=6cec1a6f-7191-4809-a9e5-155bc80c1240","ios":"levelo://app?vid=6cec1a6f-7191-4809-a9e5-155bc80c1240"},"vehicle_type_id":"4","last_reported":1748895099,"current_range_meters":9200,"station_id":"ce4bhah2rcd13ifvqej0","pricing_plan_id":"cebpf4jnsgd1na2vs0mg"},{"bike_id":"24b5a71f-fabf-4fa6-9fec-f2c7385ad3aa","system_id":"levelo_inurba_marseille","lat":43.3302,"lon":5.39037,"is_reserved":false,"is_disabled":false,"rental_uris":{"android":"levelo://app?vid=24b5a71f-fabf-4fa6-9fec-f2c7385ad3aa","ios":"levelo://app?vid=24b5a71f-fabf-4fa6-9fec-f2c7385ad3aa"},"vehicle_type_id":"4","last_reported":1748895099,"current_range_meters":9600,"station_id":"ce4bhr92rcd13ifvqhrg","pricing_plan_id":"cebpf4jnsgd1na2vs0mg"},{"bike_id":"a0888236-4e90-4aeb-b880-7b9acc4d2d36","system_id":"levelo_inurba_marseille","lat":43.3303,"lon":5.39032,"is_reserved":false,"is_disabled":false,"rental_uris":{"android":"levelo://app?vid=a0888236-4e90-4aeb-b880-7b9acc4d2d36","ios":"levelo://app?vid=a0888236-4e90-4aeb-b880-7b9acc4d2d36"},"vehicle_type_id":"4","last_reported":1748895099,"current_range_meters":9600,"station_id":"ce4bhr92rcd13ifvqhrg","pricing_plan_id":"cebpf4jnsgd1na2vs0mg"},{"bike_id":"5f093059-e061-41bc-82c4-5e3c4180535e","system_id":"levelo_inurba_marseille","lat":43.29717,"lon":5.36612,"is_reserved":false,"is_disabled":false,"rental_uris":{"android":"levelo://app?vid=5f093059-e061-41bc-82c4-5e3c4180535e","ios":"levelo://app?vid=5f093059-e061-41bc-82c4-5e3c4180535e"},"vehicle_type_id":"4","last_reported":1748895099,"current_range_meters":10000,"station_id":"ce4bgn12rcd13ifvqbt0","pricing_plan_id":"cebpf4jnsgd1na2vs0mg"},{"bike_id":"67f948dd-57b8-4f4e-985e-c2a32bd6f699","system_id":"levelo_inurba_marseille","lat":43.29282,"lon":5.40117,"is_reserved":false,"is_disabled":false,"rental_uris":{"android":"levelo://app?vid=67f948dd-57b8-4f4e-985e-c2a32bd6f699","ios":"levelo://app?vid=67f948dd-57b8-4f4e-985e-c2a32bd6f699"},"vehicle_type_id":"4","last_reported":1748895099,"current_range_meters":10000,"station_id":"ce4bh312rcd13ifvqdk0","pricing_plan_id":"cebpf4jnsgd1na2vs0mg"},{"bike_id":"115107e2-3ca0-4a2a-9f49-38bcd9fd8dcd","system_id":"levelo_inurba_marseille","lat":43.28354,"lon":5.38087,"is_reserved":false,"is_disabled":false,"rental_uris":{"android":"levelo://app?vid=115107e2-3ca0-4a2a-9f49-38bcd9fd8dcd","ios":"levelo://app?vid=115107e2-3ca0-4a2a-9f49-38bcd9fd8dcd"},"vehicle_type_id":"4","last_reported":1748895099,"current_range_meters":10000,"station_id":"ce4bh412rcd13ifvqdr0","pricing_plan_id":"cebpf4jnsgd1na2vs0mg"},{"bike_id":"b5f50910-5388-4ef6-ad78-3ee0adac4a70","system_id":"levelo_inurba_marseille","lat":43.3059,"lon":5.39355,"is_reserved":false,"is_disabled":false,"rental_uris":{"android":"levelo://app?vid=b5f50910-5388-4ef6-ad78-3ee0adac4a70","ios":"levelo://app?vid=b5f50910-5388-4ef6-ad78-3ee0adac4a70"},"vehicle_type_id":"4","last_reported":1748895099,"current_range_meters":10800,"station_id":"ce4bh0p2rcd13ifvqd80","pricing_plan_id":"cebpf4jnsgd1na2vs0mg"},{"bike_id":"14c24743-4b70-475b-8902-e68f93b16220","system_id":"levelo_inurba_marseille","lat":43.28359,"lon":5.38092,"is_reserved":false,"is_disabled":false,"rental_uris":{"android":"levelo://app?vid=14c24743-4b70-475b-8902-e68f93b16220","ios":"levelo://app?vid=14c24743-4b70-475b-8902-e68f93b16220"},"vehicle_type_id":"4","last_reported":1748895099,"current_range_meters":10800,"station_id":"ce4bh412rcd13ifvqdr0","pricing_plan_id":"cebpf4jnsgd1na2vs0mg"},{"bike_id":"01ab9412-05f7-4b20-aec7-f695d917b0c5","system_id":"levelo_inurba_marseille","lat":43.28456,"lon":5.35884,"is_reserved":false,"is_disabled":false,"rental_uris":{"android":"levelo://app?vid=01ab9412-05f7-4b20-aec7-f695d917b0c5","ios":"levelo://app?vid=01ab9412-05f7-4b20-aec7-f695d917b0c5"},"vehicle_type_id":"4","last_reported":1748895099,"current_range_meters":10800,"station_id":"ce4bhah2rcd13ifvqei0","pricing_plan_id":"cebpf4jnsgd1na2vs0mg"},{"bike_id":"f1c8c7e1-3f34-4d38-a503-caa580ebde75","system_id":"levelo_inurba_marseille","lat":43.22508,"lon":5.3478,"is_reserved":false,"is_disabled":false,"rental_uris":{"android":"levelo://app?vid=f1c8c7e1-3f34-4d38-a503-caa580ebde75","ios":"levelo://app?vid=f1c8c7e1-3f34-4d38-a503-caa580ebde75"},"vehicle_type_id":"4","last_reported":1748895099,"current_range_meters":10800,"station_id":"st_cvj5dfep6f1abm77gieg","pricing_plan_id":"cebpf4jnsgd1na2vs0mg"},{"bike_id":"8d2ef8e1-df74-47bb-aa3e-6e5a3616699a","system_id":"levelo_inurba_marseille","lat":43.29369,"lon":5.37853,"is_reserved":false,"is_disabled":false,"rental_uris":{"android":"levelo://app?vid=8d2ef8e1-df74-47bb-aa3e-6e5a3616699a","ios":"levelo://app?vid=8d2ef8e1-df74-47bb-aa3e-6e5a3616699a"},"vehicle_type_id":"4","last_reported":1748895099,"current_range_meters":11200,"station_id":"ce4bgjh2rcd13ifvqbf0","pricing_plan_id":"cebpf4jnsgd1na2vs0mg"},{"bike_id":"1a1dd11c-f987-40bb-9ad3-48fb9037aec6","system_id":"levelo_inurba_marseille","lat":43.30463,"lon":5.38875,"is_reserved":false,"is_disabled":false,"rental_uris":{"android":"levelo://app?vid=1a1dd11c-f987-40bb-9ad3-48fb9037aec6","ios":"levelo://app?vid=1a1dd11c-f987-40bb-9ad3-48fb9037aec6"},"vehicle_type_id":"4","last_reported":1748895099,"current_range_meters":11200,"station_id":"ce4bgk12rcd13ifvqbi0","pricing_plan_id":"cebpf4jnsgd1na2vs0mg"},{"bike_id":"772c9000-2019-4afc-90c7-bebfa215c7f5","system_id":"levelo_inurba_marseille","lat":43.30304,"lon":5.3689,"is_reserved":false,"is_disabled":false,"rental_uris":{"android":"levelo://app?vid=772c9000-2019-4afc-90c7-bebfa215c7f5","ios":"levelo://app?vid=772c9000-2019-4afc-90c7-bebfa215c7f5"},"vehicle_type_id":"4","last_reported":1748895099,"current_range_meters":11200,"station_id":"ce4bgqh2rcd13ifvqc5g","pricing_plan_id":"cebpf4jnsgd1na2vs0mg"},{"bike_id":"9873ea8e-c2af-49bc-9f62-b61d54c33967","system_id":"levelo_inurba_marseille","lat":43.28985,"lon":5.36377,"is_reserved":false,"is_disabled":false,"rental_uris":{"android":"levelo://app?vid=9873ea8e-c2af-49bc-9f62-b61d54c33967","ios":"levelo://app?vid=9873ea8e-c2af-49bc-9f62-b61d54c33967"},"vehicle_type_id":"4","last_reported":1748895099,"current_range_meters":11200,"station_id":"ce4bhc92rcd13ifvqetg","pricing_plan_id":"cebpf4jnsgd1na2vs0mg"},{"bike_id":"7cc939c8-73ec-4d74-8ddc-5c63cf34185f","system_id":"levelo_inurba_marseille","lat":43.30738,"lon":5.42446,"is_reserved":false,"is_disabled":false,"rental_uris":{"android":"levelo://app?vid=7cc939c8-73ec-4d74-8ddc-5c63cf34185f","ios":"levelo://app?vid=7cc939c8-73ec-4d74-8ddc-5c63cf34185f"},"vehicle_type_id":"4","last_reported":1748895099,"current_range_meters":11200,"station_id":"st_cvj6ca6bvosntc0bfgr0","pricing_plan_id":"cebpf4jnsgd1na2vs0mg"},{"bike_id":"f9ba8850-482d-43cd-93c6-da015477c7af","system_id":"levelo_inurba_marseille","lat":43.2863,"lon":5.38345,"is_reserved":false,"is_disabled":false,"rental_uris":{"android":"levelo://app?vid=f9ba8850-482d-43cd-93c6-da015477c7af","ios":"levelo://app?vid=f9ba8850-482d-43cd-93c6-da015477c7af"},"vehicle_type_id":"4","last_reported":1748895099,"current_range_meters":11600,"station_id":"","pricing_plan_id":"cebpf4jnsgd1na2vs0mg"},{"bike_id":"cd693c4f-7556-46d4-b51d-98253789afd6","system_id":"levelo_inurba_marseille","lat":43.28429,"lon":5.37501,"is_reserved":false,"is_disabled":false,"rental_uris":{"android":"levelo://app?vid=cd693c4f-7556-46d4-b51d-98253789afd6","ios":"levelo://app?vid=cd693c4f-7556-46d4-b51d-98253789afd6"},"vehicle_type_id":"4","last_reported":1748895099,"current_range_meters":11600,"station_id":"ce4bh412rcd13ifvqds0","pricing_plan_id":"cebpf4jnsgd1na2vs0mg"},{"bike_id":"2302605a-99d9-4544-95d0-991333eead1c","system_id":"levelo_inurba_marseille","lat":43.29261,"lon":5.38438,"is_reserved":false,"is_disabled":false,"rental_uris":{"android":"levelo://app?vid=2302605a-99d9-4544-95d0-991333eead1c","ios":"levelo://app?vid=2302605a-99d9-4544-95d0-991333eead1c"},"vehicle_type_id":"4","last_reported":1748895099,"current_range_meters":11600,"station_id":"ce4bh692rcd13ifvqea0","pricing_plan_id":"cebpf4jnsgd1na2vs0mg"},{"bike_id":"a4a3740d-0d02-472b-94dd-39743a0da8fa","system_id":"levelo_inurba_marseille","lat":43.30862,"lon":5.40128,"is_reserved":false,"is_disabled":false,"rental_uris":{"android":"levelo://app?vid=a4a3740d-0d02-472b-94dd-39743a0da8fa","ios":"levelo://app?vid=a4a3740d-0d02-472b-94dd-39743a0da8fa"},"vehicle_type_id":"4","last_reported":1748895099,"current_range_meters":12000,"station_id":"","pricing_plan_id":"cebpf4jnsgd1na2vs0mg"},{"bike_id":"6c842597-662d-4008-b404-86e67251dde8","system_id":"levelo_inurba_marseille","lat":43.282284,"lon":5.390571,"is_reserved":false,"is_disabled":false,"rental_uris":{"android":"levelo://app?vid=6c842597-662d-4008-b404-86e67251dde8","ios":"levelo://app?vid=6c842597-662d-4008-b404-86e67251dde8"},"vehicle_type_id":"4","last_reported":1748895099,"current_range_meters":12000,"station_id":"","pricing_plan_id":"cebpf4jnsgd1na2vs0mg"},{"bike_id":"39619eec-0441-4966-8f7a-c9874636d14e","system_id":"levelo_inurba_marseille","lat":43.296202,"lon":5.381122,"is_reserved":false,"is_disabled":false,"rental_uris":{"android":"levelo://app?vid=39619eec-0441-4966-8f7a-c9874636d14e","ios":"levelo://app?vid=39619eec-0441-4966-8f7a-c9874636d14e"},"vehicle_type_id":"4","last_reported":1748895099,"current_range_meters":12000,"station_id":"ce4bgl12rcd13ifvqbo0","pricing_plan_id":"cebpf4jnsgd1na2vs0mg"},{"bike_id":"d4e17ebb-d6c3-4062-aed9-0ff6c8e615a9","system_id":"levelo_inurba_marseille","lat":43.309,"lon":5.36845,"is_reserved":false,"is_disabled":false,"rental_uris":{"android":"levelo://app?vid=d4e17ebb-d6c3-4062-aed9-0ff6c8e615a9","ios":"levelo://app?vid=d4e17ebb-d6c3-4062-aed9-0ff6c8e615a9"},"vehicle_type_id":"4","last_reported":1748895099,"current_range_meters":12400,"station_id":"ce4bgn92rcd13ifvqbvg","pricing_plan_id":"cebpf4jnsgd1na2vs0mg"},{"bike_id":"4e0e48a3-c0b7-4ff0-ad8a-47d0f7418f77","system_id":"levelo_inurba_marseille","lat":43.28041,"lon":5.36941,"is_reserved":false,"is_disabled":false,"rental_uris":{"android":"levelo://app?vid=4e0e48a3-c0b7-4ff0-ad8a-47d0f7418f77","ios":"levelo://app?vid=4e0e48a3-c0b7-4ff0-ad8a-47d0f7418f77"},"vehicle_type_id":"4","last_reported":1748895099,"current_range_meters":12400,"station_id":"ce4bha12rcd13ifvqef0","pricing_plan_id":"cebpf4jnsgd1na2vs0mg"},{"bike_id":"5b0c04c7-3e5d-4981-ba91-7d65704822b2","system_id":"levelo_inurba_marseille","lat":43.27899,"lon":5.380096,"is_reserved":false,"is_disabled":false,"rental_uris":{"android":"levelo://app?vid=5b0c04c7-3e5d-4981-ba91-7d65704822b2","ios":"levelo://app?vid=5b0c04c7-3e5d-4981-ba91-7d65704822b2"},"vehicle_type_id":"4","last_reported":1748895099,"current_range_meters":12400,"station_id":"ce4bhf92rcd13ifvqf50","pricing_plan_id":"cebpf4jnsgd1na2vs0mg"},{"bike_id":"fa62253e-e4db-42d1-9a63-6ab16922bf00","system_id":"levelo_inurba_marseille","lat":43.32015,"lon":5.368174,"is_reserved":false,"is_disabled":false,"rental_uris":{"android":"levelo://app?vid=fa62253e-e4db-42d1-9a63-6ab16922bf00","ios":"levelo://app?vid=fa62253e-e4db-42d1-9a63-6ab16922bf00"},"vehicle_type_id":"4","last_reported":1748895099,"current_range_meters":12800,"station_id":"","pricing_plan_id":"cebpf4jnsgd1na2vs0mg"},{"bike_id":"cfd8a61b-5b9f-4b59-b997-bf8355304b02","system_id":"levelo_inurba_marseille","lat":43.28835,"lon":5.35847,"is_reserved":false,"is_disabled":false,"rental_uris":{"android":"levelo://app?vid=cfd8a61b-5b9f-4b59-b997-bf8355304b02","ios":"levelo://app?vid=cfd8a61b-5b9f-4b59-b997-bf8355304b02"},"vehicle_type_id":"4","last_reported":1748895099,"current_range_meters":12800,"station_id":"ce4bhb12rcd13ifvqem0","pricing_plan_id":"cebpf4jnsgd1na2vs0mg"},{"bike_id":"2e454d1b-7315-4339-b29b-5b569ba90d7a","system_id":"levelo_inurba_marseille","lat":43.282286,"lon":5.390644,"is_reserved":false,"is_disabled":false,"rental_uris":{"android":"levelo://app?vid=2e454d1b-7315-4339-b29b-5b569ba90d7a","ios":"levelo://app?vid=2e454d1b-7315-4339-b29b-5b569ba90d7a"},"vehicle_type_id":"4","last_reported":1748895099,"current_range_meters":13600,"station_id":"","pricing_plan_id":"cebpf4jnsgd1na2vs0mg"},{"bike_id":"e108642c-290d-480e-92a6-f5d40409cca4","system_id":"levelo_inurba_marseille","lat":43.29933,"lon":5.36551,"is_reserved":false,"is_disabled":false,"rental_uris":{"android":"levelo://app?vid=e108642c-290d-480e-92a6-f5d40409cca4","ios":"levelo://app?vid=e108642c-290d-480e-92a6-f5d40409cca4"},"vehicle_type_id":"4","last_reported":1748895099,"current_range_meters":13600,"station_id":"ce4bgm92rcd13ifvqbr0","pricing_plan_id":"cebpf4jnsgd1na2vs0mg"},{"bike_id":"f5cb770c-864c-402a-9473-5c3f691aa53d","system_id":"levelo_inurba_marseille","lat":43.295249,"lon":5.390336,"is_reserved":false,"is_disabled":false,"rental_uris":{"android":"levelo://app?vid=f5cb770c-864c-402a-9473-5c3f691aa53d","ios":"levelo://app?vid=f5cb770c-864c-402a-9473-5c3f691aa53d"},"vehicle_type_id":"4","last_reported":1748895099,"current_range_meters":13600,"station_id":"ce4bh3p2rcd13ifvqdp0","pricing_plan_id":"cebpf4jnsgd1na2vs0mg"},{"bike_id":"132751d0-a1d2-4547-8139-b08ba3b87187","system_id":"levelo_inurba_marseille","lat":43.323426,"lon":5.406173,"is_reserved":false,"is_disabled":false,"rental_uris":{"android":"levelo://app?vid=132751d0-a1d2-4547-8139-b08ba3b87187","ios":"levelo://app?vid=132751d0-a1d2-4547-8139-b08ba3b87187"},"vehicle_type_id":"4","last_reported":1748895099,"current_range_meters":13600,"station_id":"ce4bhq92rcd13ifvqhjg","pricing_plan_id":"cebpf4jnsgd1na2vs0mg"},{"bike_id":"45d9f80f-e143-4ccb-8fcb-fa9d13bc6d1a","system_id":"levelo_inurba_marseille","lat":43.28741,"lon":5.36083,"is_reserved":false,"is_disabled":false,"rental_uris":{"android":"levelo://app?vid=45d9f80f-e143-4ccb-8fcb-fa9d13bc6d1a","ios":"levelo://app?vid=45d9f80f-e143-4ccb-8fcb-fa9d13bc6d1a"},"vehicle_type_id":"4","last_reported":1748895099,"current_range_meters":13600,"station_id":"cki0cbj6b192h4jlfktg","pricing_plan_id":"cebpf4jnsgd1na2vs0mg"},{"bike_id":"3082751b-d3f4-42ac-b6c0-bf946931c7e5","system_id":"levelo_inurba_marseille","lat":43.21192,"lon":5.35059,"is_reserved":false,"is_disabled":false,"rental_uris":{"android":"levelo://app?vid=3082751b-d3f4-42ac-b6c0-bf946931c7e5","ios":"levelo://app?vid=3082751b-d3f4-42ac-b6c0-bf946931c7e5"},"vehicle_type_id":"4","last_reported":1748895099,"current_range_meters":13600,"station_id":"st_cvj6sg6p6f1abm77japg","pricing_plan_id":"cebpf4jnsgd1na2vs0mg"},{"bike_id":"a33c9ded-afda-47fd-87fa-ac593a798cfa","system_id":"levelo_inurba_marseille","lat":43.268763,"lon":5.388953,"is_reserved":false,"is_disabled":false,"rental_uris":{"android":"levelo://app?vid=a33c9ded-afda-47fd-87fa-ac593a798cfa","ios":"levelo://app?vid=a33c9ded-afda-47fd-87fa-ac593a798cfa"},"vehicle_type_id":"4","last_reported":1748895099,"current_range_meters":14000,"station_id":"","pricing_plan_id":"cebpf4jnsgd1na2vs0mg"},{"bike_id":"9e286bfa-7896-4c3d-8a03-2dcd1b593c70","system_id":"levelo_inurba_marseille","lat":43.304657,"lon":5.379072,"is_reserved":false,"is_disabled":false,"rental_uris":{"android":"levelo://app?vid=9e286bfa-7896-4c3d-8a03-2dcd1b593c70","ios":"levelo://app?vid=9e286bfa-7896-4c3d-8a03-2dcd1b593c70"},"vehicle_type_id":"4","last_reported":1748895099,"current_range_meters":14000,"station_id":"ce4bgup2rcd13ifvqcn0","pricing_plan_id":"cebpf4jnsgd1na2vs0mg"},{"bike_id":"29c22cf9-71e6-417c-a328-b39aac7394f5","system_id":"levelo_inurba_marseille","lat":43.2993,"lon":5.36542,"is_reserved":false,"is_disabled":false,"rental_uris":{"android":"levelo://app?vid=29c22cf9-71e6-417c-a328-b39aac7394f5","ios":"levelo://app?vid=29c22cf9-71e6-417c-a328-b39aac7394f5"},"vehicle_type_id":"4","last_reported":1748895099,"current_range_meters":14400,"station_id":"ce4bgm92rcd13ifvqbr0","pricing_plan_id":"cebpf4jnsgd1na2vs0mg"},{"bike_id":"d144d0a6-8442-4d6c-b649-3639d789aa9f","system_id":"levelo_inurba_marseille","lat":43.2928,"lon":5.36837,"is_reserved":false,"is_disabled":false,"rental_uris":{"android":"levelo://app?vid=d144d0a6-8442-4d6c-b649-3639d789aa9f","ios":"levelo://app?vid=d144d0a6-8442-4d6c-b649-3639d789aa9f"},"vehicle_type_id":"4","last_reported":1748895099,"current_range_meters":14800,"station_id":"","pricing_plan_id":"cebpf4jnsgd1na2vs0mg"},{"bike_id":"ff806a59-8bed-4b9d-83c3-9f5f32080ef5","system_id":"levelo_inurba_marseille","lat":43.2984,"lon":5.36266,"is_reserved":false,"is_disabled":false,"rental_uris":{"android":"levelo://app?vid=ff806a59-8bed-4b9d-83c3-9f5f32080ef5","ios":"levelo://app?vid=ff806a59-8bed-4b9d-83c3-9f5f32080ef5"},"vehicle_type_id":"4","last_reported":1748895099,"current_range_meters":14800,"station_id":"ce4bgpp2rcd13ifvqc3g","pricing_plan_id":"cebpf4jnsgd1na2vs0mg"},{"bike_id":"541bb4ae-557a-4290-bbe1-c9725b8319a3","system_id":"levelo_inurba_marseille","lat":43.28861,"lon":5.35843,"is_reserved":false,"is_disabled":false,"rental_uris":{"android":"levelo://app?vid=541bb4ae-557a-4290-bbe1-c9725b8319a3","ios":"levelo://app?vid=541bb4ae-557a-4290-bbe1-c9725b8319a3"},"vehicle_type_id":"4","last_reported":1748895099,"current_range_meters":14800,"station_id":"ce4bhb12rcd13ifvqem0","pricing_plan_id":"cebpf4jnsgd1na2vs0mg"},{"bike_id":"82fed7ee-62c2-4848-bb48-5d91af5244c7","system_id":"levelo_inurba_marseille","lat":43.32662,"lon":5.40992,"is_reserved":false,"is_disabled":false,"rental_uris":{"android":"levelo://app?vid=82fed7ee-62c2-4848-bb48-5d91af5244c7","ios":"levelo://app?vid=82fed7ee-62c2-4848-bb48-5d91af5244c7"},"vehicle_type_id":"4","last_reported":1748895099,"current_range_meters":14800,"station_id":"ce4bhpp2rcd13ifvqhgg","pricing_plan_id":"cebpf4jnsgd1na2vs0mg"},{"bike_id":"3c8ee383-f911-4fcb-a7a9-20596b779061","system_id":"levelo_inurba_marseille","lat":43.31069,"lon":5.3835,"is_reserved":false,"is_disabled":false,"rental_uris":{"android":"levelo://app?vid=3c8ee383-f911-4fcb-a7a9-20596b779061","ios":"levelo://app?vid=3c8ee383-f911-4fcb-a7a9-20596b779061"},"vehicle_type_id":"4","last_reported":1748895099,"current_range_meters":15200,"station_id":"ce4bgv92rcd13ifvqcr0","pricing_plan_id":"cebpf4jnsgd1na2vs0mg"},{"bike_id":"80ecbbb7-1d3c-4e5b-bb0f-5a14b30a94de","system_id":"levelo_inurba_marseille","lat":43.29415,"lon":5.38628,"is_reserved":false,"is_disabled":false,"rental_uris":{"android":"levelo://app?vid=80ecbbb7-1d3c-4e5b-bb0f-5a14b30a94de","ios":"levelo://app?vid=80ecbbb7-1d3c-4e5b-bb0f-5a14b30a94de"},"vehicle_type_id":"4","last_reported":1748895099,"current_range_meters":15200,"station_id":"ce4bh2h2rcd13ifvqdh0","pricing_plan_id":"cebpf4jnsgd1na2vs0mg"},{"bike_id":"ca0b3444-318f-4cd4-973f-dcffb61c7ad1","system_id":"levelo_inurba_marseille","lat":43.284527,"lon":5.358892,"is_reserved":false,"is_disabled":false,"rental_uris":{"android":"levelo://app?vid=ca0b3444-318f-4cd4-973f-dcffb61c7ad1","ios":"levelo://app?vid=ca0b3444-318f-4cd4-973f-dcffb61c7ad1"},"vehicle_type_id":"4","last_reported":1748895099,"current_range_meters":15200,"station_id":"ce4bhah2rcd13ifvqei0","pricing_plan_id":"cebpf4jnsgd1na2vs0mg"},{"bike_id":"cf9a9959-303f-40f9-b57e-3ca93b1edd13","system_id":"levelo_inurba_marseille","lat":43.28841,"lon":5.35851,"is_reserved":false,"is_disabled":false,"rental_uris":{"android":"levelo://app?vid=cf9a9959-303f-40f9-b57e-3ca93b1edd13","ios":"levelo://app?vid=cf9a9959-303f-40f9-b57e-3ca93b1edd13"},"vehicle_type_id":"4","last_reported":1748895099,"current_range_meters":15200,"station_id":"ce4bhb12rcd13ifvqem0","pricing_plan_id":"cebpf4jnsgd1na2vs0mg"},{"bike_id":"4dbf5475-d820-4fec-a3e0-5c925cc554bd","system_id":"levelo_inurba_marseille","lat":43.31894,"lon":5.40723,"is_reserved":false,"is_disabled":false,"rental_uris":{"android":"levelo://app?vid=4dbf5475-d820-4fec-a3e0-5c925cc554bd","ios":"levelo://app?vid=4dbf5475-d820-4fec-a3e0-5c925cc554bd"},"vehicle_type_id":"4","last_reported":1748895099,"current_range_meters":15200,"station_id":"ce4bhq12rcd13ifvqhig","pricing_plan_id":"cebpf4jnsgd1na2vs0mg"},{"bike_id":"b8e2d9f2-a9b2-4f49-b353-c4b89a7fa8c7","system_id":"levelo_inurba_marseille","lat":43.29776,"lon":5.38088,"is_reserved":false,"is_disabled":false,"rental_uris":{"android":"levelo://app?vid=b8e2d9f2-a9b2-4f49-b353-c4b89a7fa8c7","ios":"levelo://app?vid=b8e2d9f2-a9b2-4f49-b353-c4b89a7fa8c7"},"vehicle_type_id":"4","last_reported":1748895099,"current_range_meters":16000,"station_id":"ce4bgip2rcd13ifvqbb0","pricing_plan_id":"cebpf4jnsgd1na2vs0mg"},{"bike_id":"8dd40f6b-85b1-43f0-9250-5e6e12011669","system_id":"levelo_inurba_marseille","lat":43.30789,"lon":5.37644,"is_reserved":false,"is_disabled":false,"rental_uris":{"android":"levelo://app?vid=8dd40f6b-85b1-43f0-9250-5e6e12011669","ios":"levelo://app?vid=8dd40f6b-85b1-43f0-9250-5e6e12011669"},"vehicle_type_id":"4","last_reported":1748895099,"current_range_meters":16000,"station_id":"ce4bgv92rcd13ifvqcq0","pricing_plan_id":"cebpf4jnsgd1na2vs0mg"},{"bike_id":"063c29b9-1301-46d1-9308-5957595af501","system_id":"levelo_inurba_marseille","lat":43.30941,"lon":5.40143,"is_reserved":false,"is_disabled":false,"rental_uris":{"android":"levelo://app?vid=063c29b9-1301-46d1-9308-5957595af501","ios":"levelo://app?vid=063c29b9-1301-46d1-9308-5957595af501"},"vehicle_type_id":"4","last_reported":1748895099,"current_range_meters":16000,"station_id":"ce4bgvp2rcd13ifvqct0","pricing_plan_id":"cebpf4jnsgd1na2vs0mg"},{"bike_id":"5d201c71-e0a8-4ff2-baa6-3593c8076b57","system_id":"levelo_inurba_marseille","lat":43.29419,"lon":5.38622,"is_reserved":false,"is_disabled":false,"rental_uris":{"android":"levelo://app?vid=5d201c71-e0a8-4ff2-baa6-3593c8076b57","ios":"levelo://app?vid=5d201c71-e0a8-4ff2-baa6-3593c8076b57"},"vehicle_type_id":"4","last_reported":1748895099,"current_range_meters":16000,"station_id":"ce4bh2h2rcd13ifvqdh0","pricing_plan_id":"cebpf4jnsgd1na2vs0mg"},{"bike_id":"3217bca0-eca5-48b9-889b-e7329da08508","system_id":"levelo_inurba_marseille","lat":43.29262,"lon":5.38437,"is_reserved":false,"is_disabled":false,"rental_uris":{"android":"levelo://app?vid=3217bca0-eca5-48b9-889b-e7329da08508","ios":"levelo://app?vid=3217bca0-eca5-48b9-889b-e7329da08508"},"vehicle_type_id":"4","last_reported":1748895099,"current_range_meters":16000,"station_id":"ce4bh692rcd13ifvqea0","pricing_plan_id":"cebpf4jnsgd1na2vs0mg"},{"bike_id":"cd7b7bd8-5506-4095-a13f-cde7acae8a04","system_id":"levelo_inurba_marseille","lat":43.26209,"lon":5.37441,"is_reserved":false,"is_disabled":false,"rental_uris":{"android":"levelo://app?vid=cd7b7bd8-5506-4095-a13f-cde7acae8a04","ios":"levelo://app?vid=cd7b7bd8-5506-4095-a13f-cde7acae8a04"},"vehicle_type_id":"4","last_reported":1748895099,"current_range_meters":16000,"station_id":"ce4bhgp2rcd13ifvqfc0","pricing_plan_id":"cebpf4jnsgd1na2vs0mg"},{"bike_id":"98d1d76e-4f30-4abc-a043-19e8cb9be672","system_id":"levelo_inurba_marseille","lat":43.24676,"lon":5.38156,"is_reserved":false,"is_disabled":false,"rental_uris":{"android":"levelo://app?vid=98d1d76e-4f30-4abc-a043-19e8cb9be672","ios":"levelo://app?vid=98d1d76e-4f30-4abc-a043-19e8cb9be672"},"vehicle_type_id":"4","last_reported":1748895099,"current_range_meters":16000,"station_id":"ce4bhih2rcd13ifvqfr0","pricing_plan_id":"cebpf4jnsgd1na2vs0mg"},{"bike_id":"82762f70-216b-4762-9e82-daaa45d19a35","system_id":"levelo_inurba_marseille","lat":43.241699,"lon":5.364017,"is_reserved":false,"is_disabled":false,"rental_uris":{"android":"levelo://app?vid=82762f70-216b-4762-9e82-daaa45d19a35","ios":"levelo://app?vid=82762f70-216b-4762-9e82-daaa45d19a35"},"vehicle_type_id":"4","last_reported":1748895099,"current_range_meters":16000,"station_id":"cpo36qri1sfpv3e86is0","pricing_plan_id":"cebpf4jnsgd1na2vs0mg"},{"bike_id":"ad48b340-3a65-42a1-9b18-3cde334cdab0","system_id":"levelo_inurba_marseille","lat":43.293875,"lon":5.367036,"is_reserved":false,"is_disabled":false,"rental_uris":{"android":"levelo://app?vid=ad48b340-3a65-42a1-9b18-3cde334cdab0","ios":"levelo://app?vid=ad48b340-3a65-42a1-9b18-3cde334cdab0"},"vehicle_type_id":"4","last_reported":1748895099,"current_range_meters":16400,"station_id":"ce4bgip2rcd13ifvqbb0","pricing_plan_id":"cebpf4jnsgd1na2vs0mg"},{"bike_id":"a5ebabb8-24ce-4621-a633-aaada072c9fb","system_id":"levelo_inurba_marseille","lat":43.31326,"lon":5.39703,"is_reserved":false,"is_disabled":false,"rental_uris":{"android":"levelo://app?vid=a5ebabb8-24ce-4621-a633-aaada072c9fb","ios":"levelo://app?vid=a5ebabb8-24ce-4621-a633-aaada072c9fb"},"vehicle_type_id":"4","last_reported":1748895099,"current_range_meters":16400,"station_id":"ce4bgvp2rcd13ifvqcu0","pricing_plan_id":"cebpf4jnsgd1na2vs0mg"},{"bike_id":"e6ca1f0d-2f69-4517-9272-b3dc6fb9228d","system_id":"levelo_inurba_marseille","lat":43.30208,"lon":5.39453,"is_reserved":false,"is_disabled":false,"rental_uris":{"android":"levelo://app?vid=e6ca1f0d-2f69-4517-9272-b3dc6fb9228d","ios":"levelo://app?vid=e6ca1f0d-2f69-4517-9272-b3dc6fb9228d"},"vehicle_type_id":"4","last_reported":1748895099,"current_range_meters":16400,"station_id":"ce4bh0p2rcd13ifvqd70","pricing_plan_id":"cebpf4jnsgd1na2vs0mg"},{"bike_id":"c61aa0f8-37eb-4f90-b064-55fcc4e26378","system_id":"levelo_inurba_marseille","lat":43.28353,"lon":5.38117,"is_reserved":false,"is_disabled":false,"rental_uris":{"android":"levelo://app?vid=c61aa0f8-37eb-4f90-b064-55fcc4e26378","ios":"levelo://app?vid=c61aa0f8-37eb-4f90-b064-55fcc4e26378"},"vehicle_type_id":"4","last_reported":1748895099,"current_range_meters":16400,"station_id":"ce4bh412rcd13ifvqdr0","pricing_plan_id":"cebpf4jnsgd1na2vs0mg"},{"bike_id":"10d92665-37e0-493b-9a7f-d869a73b16c8","system_id":"levelo_inurba_marseille","lat":43.26022,"lon":5.37577,"is_reserved":false,"is_disabled":false,"rental_uris":{"android":"levelo://app?vid=10d92665-37e0-493b-9a7f-d869a73b16c8","ios":"levelo://app?vid=10d92665-37e0-493b-9a7f-d869a73b16c8"},"vehicle_type_id":"4","last_reported":1748895099,"current_range_meters":16400,"station_id":"ce4bhgh2rcd13ifvqfa0","pricing_plan_id":"cebpf4jnsgd1na2vs0mg"},{"bike_id":"a8f7a901-ae4e-414a-97fb-3d248c5cdced","system_id":"levelo_inurba_marseille","lat":43.29524,"lon":5.394,"is_reserved":false,"is_disabled":false,"rental_uris":{"android":"levelo://app?vid=a8f7a901-ae4e-414a-97fb-3d248c5cdced","ios":"levelo://app?vid=a8f7a901-ae4e-414a-97fb-3d248c5cdced"},"vehicle_type_id":"4","last_reported":1748895099,"current_range_meters":16800,"station_id":"ce4bh292rcd13ifvqdf0","pricing_plan_id":"cebpf4jnsgd1na2vs0mg"},{"bike_id":"667c34cd-57b7-4207-b615-fd66ddd9efe2","system_id":"levelo_inurba_marseille","lat":43.29534,"lon":5.39029,"is_reserved":false,"is_disabled":false,"rental_uris":{"android":"levelo://app?vid=667c34cd-57b7-4207-b615-fd66ddd9efe2","ios":"levelo://app?vid=667c34cd-57b7-4207-b615-fd66ddd9efe2"},"vehicle_type_id":"4","last_reported":1748895099,"current_range_meters":16800,"station_id":"ce4bh3p2rcd13ifvqdp0","pricing_plan_id":"cebpf4jnsgd1na2vs0mg"},{"bike_id":"0eed25cd-a1c8-4a2a-8ad0-ef25763a9d53","system_id":"levelo_inurba_marseille","lat":43.28926,"lon":5.3839,"is_reserved":false,"is_disabled":false,"rental_uris":{"android":"levelo://app?vid=0eed25cd-a1c8-4a2a-8ad0-ef25763a9d53","ios":"levelo://app?vid=0eed25cd-a1c8-4a2a-8ad0-ef25763a9d53"},"vehicle_type_id":"4","last_reported":1748895099,"current_range_meters":16800,"station_id":"ce4bh612rcd13ifvqe6g","pricing_plan_id":"cebpf4jnsgd1na2vs0mg"},{"bike_id":"4138fca8-1b57-43a6-b6a9-09abaa470214","system_id":"levelo_inurba_marseille","lat":43.3042,"lon":5.41271,"is_reserved":false,"is_disabled":false,"rental_uris":{"android":"levelo://app?vid=4138fca8-1b57-43a6-b6a9-09abaa470214","ios":"levelo://app?vid=4138fca8-1b57-43a6-b6a9-09abaa470214"},"vehicle_type_id":"4","last_reported":1748895099,"current_range_meters":16800,"station_id":"ce4bhop2rcd13ifvqh8g","pricing_plan_id":"cebpf4jnsgd1na2vs0mg"},{"bike_id":"f3254fa9-5ad1-4846-bfd4-4f8bc3692f7a","system_id":"levelo_inurba_marseille","lat":43.32606,"lon":5.42506,"is_reserved":false,"is_disabled":false,"rental_uris":{"android":"levelo://app?vid=f3254fa9-5ad1-4846-bfd4-4f8bc3692f7a","ios":"levelo://app?vid=f3254fa9-5ad1-4846-bfd4-4f8bc3692f7a"},"vehicle_type_id":"4","last_reported":1748895099,"current_range_meters":17200,"station_id":"","pricing_plan_id":"cebpf4jnsgd1na2vs0mg"},{"bike_id":"e31c84f5-c44b-48e2-adf2-52a2beace6c7","system_id":"levelo_inurba_marseille","lat":43.31741,"lon":5.37402,"is_reserved":false,"is_disabled":false,"rental_uris":{"android":"levelo://app?vid=e31c84f5-c44b-48e2-adf2-52a2beace6c7","ios":"levelo://app?vid=e31c84f5-c44b-48e2-adf2-52a2beace6c7"},"vehicle_type_id":"4","last_reported":1748895099,"current_range_meters":17200,"station_id":"","pricing_plan_id":"cebpf4jnsgd1na2vs0mg"},{"bike_id":"493f6b53-2801-4a16-a9f8-8c22510427f2","system_id":"levelo_inurba_marseille","lat":43.30598,"lon":5.39355,"is_reserved":false,"is_disabled":false,"rental_uris":{"android":"levelo://app?vid=493f6b53-2801-4a16-a9f8-8c22510427f2","ios":"levelo://app?vid=493f6b53-2801-4a16-a9f8-8c22510427f2"},"vehicle_type_id":"4","last_reported":1748895099,"current_range_meters":17200,"station_id":"ce4bh0p2rcd13ifvqd80","pricing_plan_id":"cebpf4jnsgd1na2vs0mg"},{"bike_id":"35b9e99d-b287-4042-a480-c9bee2b4b139","system_id":"levelo_inurba_marseille","lat":43.28937,"lon":5.36635,"is_reserved":false,"is_disabled":false,"rental_uris":{"android":"levelo://app?vid=35b9e99d-b287-4042-a480-c9bee2b4b139","ios":"levelo://app?vid=35b9e99d-b287-4042-a480-c9bee2b4b139"},"vehicle_type_id":"4","last_reported":1748895099,"current_range_meters":17200,"station_id":"ce4bhap2rcd13ifvqek0","pricing_plan_id":"cebpf4jnsgd1na2vs0mg"},{"bike_id":"89fe64c7-aff6-494e-8271-d9c172c2b8af","system_id":"levelo_inurba_marseille","lat":43.27942,"lon":5.41047,"is_reserved":false,"is_disabled":false,"rental_uris":{"android":"levelo://app?vid=89fe64c7-aff6-494e-8271-d9c172c2b8af","ios":"levelo://app?vid=89fe64c7-aff6-494e-8271-d9c172c2b8af"},"vehicle_type_id":"4","last_reported":1748895099,"current_range_meters":17200,"station_id":"ce4bhnp2rcd13ifvqh0g","pricing_plan_id":"cebpf4jnsgd1na2vs0mg"},{"bike_id":"56ebd079-5325-4146-a252-c6e09bfabc00","system_id":"levelo_inurba_marseille","lat":43.318944,"lon":5.407361,"is_reserved":false,"is_disabled":false,"rental_uris":{"android":"levelo://app?vid=56ebd079-5325-4146-a252-c6e09bfabc00","ios":"levelo://app?vid=56ebd079-5325-4146-a252-c6e09bfabc00"},"vehicle_type_id":"4","last_reported":1748895099,"current_range_meters":17200,"station_id":"ce4bhq12rcd13ifvqhig","pricing_plan_id":"cebpf4jnsgd1na2vs0mg"},{"bike_id":"b7557344-82f1-4a35-96d4-b128a1446f19","system_id":"levelo_inurba_marseille","lat":43.32377,"lon":5.38874,"is_reserved":false,"is_disabled":false,"rental_uris":{"android":"levelo://app?vid=b7557344-82f1-4a35-96d4-b128a1446f19","ios":"levelo://app?vid=b7557344-82f1-4a35-96d4-b128a1446f19"},"vehicle_type_id":"4","last_reported":1748895099,"current_range_meters":17200,"station_id":"ce4bhqp2rcd13ifvqhog","pricing_plan_id":"cebpf4jnsgd1na2vs0mg"},{"bike_id":"1cb7c0a1-48f8-49ab-9106-52040059037c","system_id":"levelo_inurba_marseille","lat":43.23074,"lon":5.35483,"is_reserved":false,"is_disabled":false,"rental_uris":{"android":"levelo://app?vid=1cb7c0a1-48f8-49ab-9106-52040059037c","ios":"levelo://app?vid=1cb7c0a1-48f8-49ab-9106-52040059037c"},"vehicle_type_id":"4","last_reported":1748895099,"current_range_meters":17200,"station_id":"cpo3342slgdg3j2ifvpg","pricing_plan_id":"cebpf4jnsgd1na2vs0mg"},{"bike_id":"6db8da9d-ed27-45cf-9935-6e37c99d0be9","system_id":"levelo_inurba_marseille","lat":43.26226,"lon":5.40142,"is_reserved":false,"is_disabled":false,"rental_uris":{"android":"levelo://app?vid=6db8da9d-ed27-45cf-9935-6e37c99d0be9","ios":"levelo://app?vid=6db8da9d-ed27-45cf-9935-6e37c99d0be9"},"vehicle_type_id":"4","last_reported":1748895099,"current_range_meters":17600,"station_id":"","pricing_plan_id":"cebpf4jnsgd1na2vs0mg"},{"bike_id":"a082cfc8-70c0-4316-b58b-8dca0406cb1a","system_id":"levelo_inurba_marseille","lat":43.25445,"lon":5.41839,"is_reserved":false,"is_disabled":false,"rental_uris":{"android":"levelo://app?vid=a082cfc8-70c0-4316-b58b-8dca0406cb1a","ios":"levelo://app?vid=a082cfc8-70c0-4316-b58b-8dca0406cb1a"},"vehicle_type_id":"4","last_reported":1748895099,"current_range_meters":17600,"station_id":"","pricing_plan_id":"cebpf4jnsgd1na2vs0mg"},{"bike_id":"e4a4f2e6-4427-4ee3-9200-c5f638b5fe70","system_id":"levelo_inurba_marseille","lat":43.31317,"lon":5.397,"is_reserved":false,"is_disabled":false,"rental_uris":{"android":"levelo://app?vid=e4a4f2e6-4427-4ee3-9200-c5f638b5fe70","ios":"levelo://app?vid=e4a4f2e6-4427-4ee3-9200-c5f638b5fe70"},"vehicle_type_id":"4","last_reported":1748895099,"current_range_meters":17600,"station_id":"ce4bgvp2rcd13ifvqcu0","pricing_plan_id":"cebpf4jnsgd1na2vs0mg"},{"bike_id":"61ce4ee7-d702-4080-8219-2a202017ab3c","system_id":"levelo_inurba_marseille","lat":43.29873,"lon":5.39729,"is_reserved":false,"is_disabled":false,"rental_uris":{"android":"levelo://app?vid=61ce4ee7-d702-4080-8219-2a202017ab3c","ios":"levelo://app?vid=61ce4ee7-d702-4080-8219-2a202017ab3c"},"vehicle_type_id":"4","last_reported":1748895099,"current_range_meters":17600,"station_id":"ce4bh0h2rcd13ifvqd50","pricing_plan_id":"cebpf4jnsgd1na2vs0mg"},{"bike_id":"cb9f28bf-c429-4345-8707-db2b7f7b2e19","system_id":"levelo_inurba_marseille","lat":43.28934,"lon":5.38396,"is_reserved":false,"is_disabled":false,"rental_uris":{"android":"levelo://app?vid=cb9f28bf-c429-4345-8707-db2b7f7b2e19","ios":"levelo://app?vid=cb9f28bf-c429-4345-8707-db2b7f7b2e19"},"vehicle_type_id":"4","last_reported":1748895099,"current_range_meters":17600,"station_id":"ce4bh612rcd13ifvqe6g","pricing_plan_id":"cebpf4jnsgd1na2vs0mg"},{"bike_id":"24687218-9a38-4647-819f-21308d816aef","system_id":"levelo_inurba_marseille","lat":43.29037,"lon":5.37567,"is_reserved":false,"is_disabled":false,"rental_uris":{"android":"levelo://app?vid=24687218-9a38-4647-819f-21308d816aef","ios":"levelo://app?vid=24687218-9a38-4647-819f-21308d816aef"},"vehicle_type_id":"4","last_reported":1748895099,"current_range_meters":17600,"station_id":"ce4bh692rcd13ifvqe90","pricing_plan_id":"cebpf4jnsgd1na2vs0mg"},{"bike_id":"dba232dd-05ec-4177-8fee-3d3dc476d851","system_id":"levelo_inurba_marseille","lat":43.27998,"lon":5.41644,"is_reserved":false,"is_disabled":false,"rental_uris":{"android":"levelo://app?vid=dba232dd-05ec-4177-8fee-3d3dc476d851","ios":"levelo://app?vid=dba232dd-05ec-4177-8fee-3d3dc476d851"},"vehicle_type_id":"4","last_reported":1748895099,"current_range_meters":17600,"station_id":"ce4bho12rcd13ifvqh1g","pricing_plan_id":"cebpf4jnsgd1na2vs0mg"},{"bike_id":"e9bbb308-6d20-4f51-b045-5d1fb32e4b86","system_id":"levelo_inurba_marseille","lat":43.298922,"lon":5.365176,"is_reserved":false,"is_disabled":false,"rental_uris":{"android":"levelo://app?vid=e9bbb308-6d20-4f51-b045-5d1fb32e4b86","ios":"levelo://app?vid=e9bbb308-6d20-4f51-b045-5d1fb32e4b86"},"vehicle_type_id":"4","last_reported":1748895099,"current_range_meters":18000,"station_id":"ce4bgm92rcd13ifvqbr0","pricing_plan_id":"cebpf4jnsgd1na2vs0mg"},{"bike_id":"b9f111af-5490-4e7a-8550-a8876a43d2c3","system_id":"levelo_inurba_marseille","lat":43.308822,"lon":5.396526,"is_reserved":false,"is_disabled":false,"rental_uris":{"android":"levelo://app?vid=b9f111af-5490-4e7a-8550-a8876a43d2c3","ios":"levelo://app?vid=b9f111af-5490-4e7a-8550-a8876a43d2c3"},"vehicle_type_id":"4","last_reported":1748895099,"current_range_meters":18000,"station_id":"ce4bh012rcd13ifvqcv0","pricing_plan_id":"cebpf4jnsgd1na2vs0mg"},{"bike_id":"bd687d19-15c6-41dc-a260-543fd5943fd2","system_id":"levelo_inurba_marseille","lat":43.24655,"lon":5.38889,"is_reserved":false,"is_disabled":false,"rental_uris":{"android":"levelo://app?vid=bd687d19-15c6-41dc-a260-543fd5943fd2","ios":"levelo://app?vid=bd687d19-15c6-41dc-a260-543fd5943fd2"},"vehicle_type_id":"4","last_reported":1748895099,"current_range_meters":18000,"station_id":"ce4bhg12rcd13ifvqf60","pricing_plan_id":"cebpf4jnsgd1na2vs0mg"},{"bike_id":"a1bc7c0e-4e66-4b42-a1c3-d0c07ce1d655","system_id":"levelo_inurba_marseille","lat":43.26051,"lon":5.39396,"is_reserved":false,"is_disabled":false,"rental_uris":{"android":"levelo://app?vid=a1bc7c0e-4e66-4b42-a1c3-d0c07ce1d655","ios":"levelo://app?vid=a1bc7c0e-4e66-4b42-a1c3-d0c07ce1d655"},"vehicle_type_id":"4","last_reported":1748895099,"current_range_meters":18000,"station_id":"ce4bhh92rcd13ifvqfj0","pricing_plan_id":"cebpf4jnsgd1na2vs0mg"},{"bike_id":"8e45c534-9f38-4aaf-bfc0-20831aa0c778","system_id":"levelo_inurba_marseille","lat":43.26064,"lon":5.39383,"is_reserved":false,"is_disabled":false,"rental_uris":{"android":"levelo://app?vid=8e45c534-9f38-4aaf-bfc0-20831aa0c778","ios":"levelo://app?vid=8e45c534-9f38-4aaf-bfc0-20831aa0c778"},"vehicle_type_id":"4","last_reported":1748895099,"current_range_meters":18000,"station_id":"ce4bhh92rcd13ifvqfj0","pricing_plan_id":"cebpf4jnsgd1na2vs0mg"},{"bike_id":"859fcab1-74b2-40a1-b9e6-866c899a681e","system_id":"levelo_inurba_marseille","lat":43.279956,"lon":5.40009,"is_reserved":false,"is_disabled":false,"rental_uris":{"android":"levelo://app?vid=859fcab1-74b2-40a1-b9e6-866c899a681e","ios":"levelo://app?vid=859fcab1-74b2-40a1-b9e6-866c899a681e"},"vehicle_type_id":"4","last_reported":1748895099,"current_range_meters":18000,"station_id":"ce4bho92rcd13ifvqh4g","pricing_plan_id":"cebpf4jnsgd1na2vs0mg"},{"bike_id":"686c9fd3-0b3c-49fa-999b-2496146c6941","system_id":"levelo_inurba_marseille","lat":43.29265,"lon":5.40903,"is_reserved":false,"is_disabled":false,"rental_uris":{"android":"levelo://app?vid=686c9fd3-0b3c-49fa-999b-2496146c6941","ios":"levelo://app?vid=686c9fd3-0b3c-49fa-999b-2496146c6941"},"vehicle_type_id":"4","last_reported":1748895099,"current_range_meters":18800,"station_id":"ce4bh192rcd13ifvqdc0","pricing_plan_id":"cebpf4jnsgd1na2vs0mg"},{"bike_id":"97deeb32-665b-45ed-8b6d-7b8d22c48877","system_id":"levelo_inurba_marseille","lat":43.289703,"lon":5.378432,"is_reserved":false,"is_disabled":false,"rental_uris":{"android":"levelo://app?vid=97deeb32-665b-45ed-8b6d-7b8d22c48877","ios":"levelo://app?vid=97deeb32-665b-45ed-8b6d-7b8d22c48877"},"vehicle_type_id":"4","last_reported":1748895099,"current_range_meters":18800,"station_id":"ce4bh9p2rcd13ifvqed0","pricing_plan_id":"cebpf4jnsgd1na2vs0mg"},{"bike_id":"e073c3b9-579e-431b-8c54-b6a28caa0933","system_id":"levelo_inurba_marseille","lat":43.22931,"lon":5.35393,"is_reserved":false,"is_disabled":false,"rental_uris":{"android":"levelo://app?vid=e073c3b9-579e-431b-8c54-b6a28caa0933","ios":"levelo://app?vid=e073c3b9-579e-431b-8c54-b6a28caa0933"},"vehicle_type_id":"4","last_reported":1748895099,"current_range_meters":18800,"station_id":"cpo3532slgdg3j2ikp40","pricing_plan_id":"cebpf4jnsgd1na2vs0mg"},{"bike_id":"4e17c123-8236-4a02-a8a2-a61cdc625d7e","system_id":"levelo_inurba_marseille","lat":43.30444,"lon":5.37001,"is_reserved":false,"is_disabled":false,"rental_uris":{"android":"levelo://app?vid=4e17c123-8236-4a02-a8a2-a61cdc625d7e","ios":"levelo://app?vid=4e17c123-8236-4a02-a8a2-a61cdc625d7e"},"vehicle_type_id":"4","last_reported":1748895099,"current_range_meters":19200,"station_id":"","pricing_plan_id":"cebpf4jnsgd1na2vs0mg"},{"bike_id":"a062fae3-bf19-4ed3-b11f-bbec44e3344b","system_id":"levelo_inurba_marseille","lat":43.32104,"lon":5.40786,"is_reserved":false,"is_disabled":false,"rental_uris":{"android":"levelo://app?vid=a062fae3-bf19-4ed3-b11f-bbec44e3344b","ios":"levelo://app?vid=a062fae3-bf19-4ed3-b11f-bbec44e3344b"},"vehicle_type_id":"4","last_reported":1748895099,"current_range_meters":19200,"station_id":"","pricing_plan_id":"cebpf4jnsgd1na2vs0mg"},{"bike_id":"1c0d1be6-a5fc-47ef-9364-f57695611439","system_id":"levelo_inurba_marseille","lat":43.3312,"lon":5.41364,"is_reserved":false,"is_disabled":false,"rental_uris":{"android":"levelo://app?vid=1c0d1be6-a5fc-47ef-9364-f57695611439","ios":"levelo://app?vid=1c0d1be6-a5fc-47ef-9364-f57695611439"},"vehicle_type_id":"4","last_reported":1748895099,"current_range_meters":19200,"station_id":"","pricing_plan_id":"cebpf4jnsgd1na2vs0mg"},{"bike_id":"cc2ccf29-b579-4ce4-9787-d87fb43c2382","system_id":"levelo_inurba_marseille","lat":43.29533,"lon":5.38535,"is_reserved":false,"is_disabled":false,"rental_uris":{"android":"levelo://app?vid=cc2ccf29-b579-4ce4-9787-d87fb43c2382","ios":"levelo://app?vid=cc2ccf29-b579-4ce4-9787-d87fb43c2382"},"vehicle_type_id":"4","last_reported":1748895099,"current_range_meters":19200,"station_id":"ce4bgih2rcd13ifvqba0","pricing_plan_id":"cebpf4jnsgd1na2vs0mg"},{"bike_id":"d7fdf19f-866d-44ac-a8f4-5de5df0cf55f","system_id":"levelo_inurba_marseille","lat":43.30435,"lon":5.38882,"is_reserved":false,"is_disabled":false,"rental_uris":{"android":"levelo://app?vid=d7fdf19f-866d-44ac-a8f4-5de5df0cf55f","ios":"levelo://app?vid=d7fdf19f-866d-44ac-a8f4-5de5df0cf55f"},"vehicle_type_id":"4","last_reported":1748895099,"current_range_meters":19200,"station_id":"ce4bgk12rcd13ifvqbi0","pricing_plan_id":"cebpf4jnsgd1na2vs0mg"},{"bike_id":"42a94b57-302d-4374-95f3-d02b95ca02be","system_id":"levelo_inurba_marseille","lat":43.27845,"lon":5.39197,"is_reserved":false,"is_disabled":false,"rental_uris":{"android":"levelo://app?vid=42a94b57-302d-4374-95f3-d02b95ca02be","ios":"levelo://app?vid=42a94b57-302d-4374-95f3-d02b95ca02be"},"vehicle_type_id":"4","last_reported":1748895099,"current_range_meters":19200,"station_id":"ce4bhjp2rcd13ifvqga0","pricing_plan_id":"cebpf4jnsgd1na2vs0mg"},{"bike_id":"b8b09c5a-9099-4234-ae20-c919e9f82aac","system_id":"levelo_inurba_marseille","lat":43.23139,"lon":5.43722,"is_reserved":false,"is_disabled":false,"rental_uris":{"android":"levelo://app?vid=b8b09c5a-9099-4234-ae20-c919e9f82aac","ios":"levelo://app?vid=b8b09c5a-9099-4234-ae20-c919e9f82aac"},"vehicle_type_id":"4","last_reported":1748895099,"current_range_meters":19200,"station_id":"ce4bhmp2rcd13ifvqgog","pricing_plan_id":"cebpf4jnsgd1na2vs0mg"},{"bike_id":"54766665-ebb3-444f-820e-109750a94747","system_id":"levelo_inurba_marseille","lat":43.23176,"lon":5.39982,"is_reserved":false,"is_disabled":false,"rental_uris":{"android":"levelo://app?vid=54766665-ebb3-444f-820e-109750a94747","ios":"levelo://app?vid=54766665-ebb3-444f-820e-109750a94747"},"vehicle_type_id":"4","last_reported":1748895099,"current_range_meters":19200,"station_id":"ce4bhn12rcd13ifvqgqg","pricing_plan_id":"cebpf4jnsgd1na2vs0mg"},{"bike_id":"295fa2bd-3048-4e75-88b4-d06d638fdd7f","system_id":"levelo_inurba_marseille","lat":43.27997,"lon":5.41669,"is_reserved":false,"is_disabled":false,"rental_uris":{"android":"levelo://app?vid=295fa2bd-3048-4e75-88b4-d06d638fdd7f","ios":"levelo://app?vid=295fa2bd-3048-4e75-88b4-d06d638fdd7f"},"vehicle_type_id":"4","last_reported":1748895099,"current_range_meters":19200,"station_id":"ce4bho12rcd13ifvqh1g","pricing_plan_id":"cebpf4jnsgd1na2vs0mg"},{"bike_id":"5b536054-600d-4e23-8558-f74f4f3ec365","system_id":"levelo_inurba_marseille","lat":43.330241,"lon":5.390407,"is_reserved":false,"is_disabled":false,"rental_uris":{"android":"levelo://app?vid=5b536054-600d-4e23-8558-f74f4f3ec365","ios":"levelo://app?vid=5b536054-600d-4e23-8558-f74f4f3ec365"},"vehicle_type_id":"4","last_reported":1748895099,"current_range_meters":19200,"station_id":"ce4bhr92rcd13ifvqhrg","pricing_plan_id":"cebpf4jnsgd1na2vs0mg"},{"bike_id":"ed2ade22-5b7a-41a9-9182-3b41389df743","system_id":"levelo_inurba_marseille","lat":43.28232,"lon":5.39067,"is_reserved":false,"is_disabled":false,"rental_uris":{"android":"levelo://app?vid=ed2ade22-5b7a-41a9-9182-3b41389df743","ios":"levelo://app?vid=ed2ade22-5b7a-41a9-9182-3b41389df743"},"vehicle_type_id":"4","last_reported":1748895099,"current_range_meters":19600,"station_id":"","pricing_plan_id":"cebpf4jnsgd1na2vs0mg"},{"bike_id":"33d965d6-3ce9-424a-8f0e-2bcc3bf8b00d","system_id":"levelo_inurba_marseille","lat":43.29543,"lon":5.38537,"is_reserved":false,"is_disabled":false,"rental_uris":{"android":"levelo://app?vid=33d965d6-3ce9-424a-8f0e-2bcc3bf8b00d","ios":"levelo://app?vid=33d965d6-3ce9-424a-8f0e-2bcc3bf8b00d"},"vehicle_type_id":"4","last_reported":1748895099,"current_range_meters":19600,"station_id":"ce4bgih2rcd13ifvqba0","pricing_plan_id":"cebpf4jnsgd1na2vs0mg"},{"bike_id":"b98b1bb6-7ad7-4d72-af24-a1adcc6d5073","system_id":"levelo_inurba_marseille","lat":43.29027,"lon":5.381404,"is_reserved":false,"is_disabled":false,"rental_uris":{"android":"levelo://app?vid=b98b1bb6-7ad7-4d72-af24-a1adcc6d5073","ios":"levelo://app?vid=b98b1bb6-7ad7-4d72-af24-a1adcc6d5073"},"vehicle_type_id":"4","last_reported":1748895099,"current_range_meters":19600,"station_id":"ce4bh4p2rcd13ifvqe1g","pricing_plan_id":"cebpf4jnsgd1na2vs0mg"},{"bike_id":"7bcd976b-4b97-42d8-be87-08d4dbb890de","system_id":"levelo_inurba_marseille","lat":43.23188,"lon":5.3998,"is_reserved":false,"is_disabled":false,"rental_uris":{"android":"levelo://app?vid=7bcd976b-4b97-42d8-be87-08d4dbb890de","ios":"levelo://app?vid=7bcd976b-4b97-42d8-be87-08d4dbb890de"},"vehicle_type_id":"4","last_reported":1748895099,"current_range_meters":19600,"station_id":"ce4bhn12rcd13ifvqgqg","pricing_plan_id":"cebpf4jnsgd1na2vs0mg"},{"bike_id":"bae57be5-cdae-42d5-be07-b232b26642d0","system_id":"levelo_inurba_marseille","lat":43.3235,"lon":5.40597,"is_reserved":false,"is_disabled":false,"rental_uris":{"android":"levelo://app?vid=bae57be5-cdae-42d5-be07-b232b26642d0","ios":"levelo://app?vid=bae57be5-cdae-42d5-be07-b232b26642d0"},"vehicle_type_id":"4","last_reported":1748895099,"current_range_meters":19600,"station_id":"ce4bhq92rcd13ifvqhjg","pricing_plan_id":"cebpf4jnsgd1na2vs0mg"},{"bike_id":"23976131-e815-4c78-b392-beb17b57ea0f","system_id":"levelo_inurba_marseille","lat":43.341423,"lon":5.409,"is_reserved":false,"is_disabled":false,"rental_uris":{"android":"levelo://app?vid=23976131-e815-4c78-b392-beb17b57ea0f","ios":"levelo://app?vid=23976131-e815-4c78-b392-beb17b57ea0f"},"vehicle_type_id":"4","last_reported":1748895099,"current_range_meters":19600,"station_id":"ce4bhqh2rcd13ifvqhlg","pricing_plan_id":"cebpf4jnsgd1na2vs0mg"},{"bike_id":"2a804f07-ef43-4ee0-aa11-f4b6cb9df5af","system_id":"levelo_inurba_marseille","lat":43.29795,"lon":5.39368,"is_reserved":false,"is_disabled":false,"rental_uris":{"android":"levelo://app?vid=2a804f07-ef43-4ee0-aa11-f4b6cb9df5af","ios":"levelo://app?vid=2a804f07-ef43-4ee0-aa11-f4b6cb9df5af"},"vehicle_type_id":"4","last_reported":1748895099,"current_range_meters":19600,"station_id":"chh1huq6cuj3fo74tm60","pricing_plan_id":"cebpf4jnsgd1na2vs0mg"},{"bike_id":"f0d34e7f-8103-46e9-a438-c85d36f28543","system_id":"levelo_inurba_marseille","lat":43.278696,"lon":5.354303,"is_reserved":false,"is_disabled":false,"rental_uris":{"android":"levelo://app?vid=f0d34e7f-8103-46e9-a438-c85d36f28543","ios":"levelo://app?vid=f0d34e7f-8103-46e9-a438-c85d36f28543"},"vehicle_type_id":"4","last_reported":1748895099,"current_range_meters":20000,"station_id":"","pricing_plan_id":"cebpf4jnsgd1na2vs0mg"},{"bike_id":"71af0257-4ccb-49c9-89e1-f5353687ca7e","system_id":"levelo_inurba_marseille","lat":43.30091,"lon":5.39076,"is_reserved":false,"is_disabled":false,"rental_uris":{"android":"levelo://app?vid=71af0257-4ccb-49c9-89e1-f5353687ca7e","ios":"levelo://app?vid=71af0257-4ccb-49c9-89e1-f5353687ca7e"},"vehicle_type_id":"4","last_reported":1748895099,"current_range_meters":20000,"station_id":"ce4bh192rcd13ifvqdb0","pricing_plan_id":"cebpf4jnsgd1na2vs0mg"},{"bike_id":"bb43fd33-0e19-42ff-a9f1-84855bbfdfdf","system_id":"levelo_inurba_marseille","lat":43.29281,"lon":5.40117,"is_reserved":false,"is_disabled":false,"rental_uris":{"android":"levelo://app?vid=bb43fd33-0e19-42ff-a9f1-84855bbfdfdf","ios":"levelo://app?vid=bb43fd33-0e19-42ff-a9f1-84855bbfdfdf"},"vehicle_type_id":"4","last_reported":1748895099,"current_range_meters":20000,"station_id":"ce4bh312rcd13ifvqdk0","pricing_plan_id":"cebpf4jnsgd1na2vs0mg"},{"bike_id":"f76fef82-f050-49ee-893b-b71824e9c659","system_id":"levelo_inurba_marseille","lat":43.28725,"lon":5.37375,"is_reserved":false,"is_disabled":false,"rental_uris":{"android":"levelo://app?vid=f76fef82-f050-49ee-893b-b71824e9c659","ios":"levelo://app?vid=f76fef82-f050-49ee-893b-b71824e9c659"},"vehicle_type_id":"4","last_reported":1748895099,"current_range_meters":20000,"station_id":"ce4bh3p2rcd13ifvqdq0","pricing_plan_id":"cebpf4jnsgd1na2vs0mg"},{"bike_id":"fb596a8f-b4d3-43a2-8ca3-55a861bd54ea","system_id":"levelo_inurba_marseille","lat":43.28913,"lon":5.35801,"is_reserved":false,"is_disabled":false,"rental_uris":{"android":"levelo://app?vid=fb596a8f-b4d3-43a2-8ca3-55a861bd54ea","ios":"levelo://app?vid=fb596a8f-b4d3-43a2-8ca3-55a861bd54ea"},"vehicle_type_id":"4","last_reported":1748895099,"current_range_meters":20000,"station_id":"ce4bhb12rcd13ifvqem0","pricing_plan_id":"cebpf4jnsgd1na2vs0mg"},{"bike_id":"03c8c524-d600-4d9e-aa7f-f80a900da483","system_id":"levelo_inurba_marseille","lat":43.27944,"lon":5.41029,"is_reserved":false,"is_disabled":false,"rental_uris":{"android":"levelo://app?vid=03c8c524-d600-4d9e-aa7f-f80a900da483","ios":"levelo://app?vid=03c8c524-d600-4d9e-aa7f-f80a900da483"},"vehicle_type_id":"4","last_reported":1748895099,"current_range_meters":20000,"station_id":"ce4bhnp2rcd13ifvqh0g","pricing_plan_id":"cebpf4jnsgd1na2vs0mg"},{"bike_id":"32f91316-7dbf-4af4-af1c-819a2cd9a7dc","system_id":"levelo_inurba_marseille","lat":43.28,"lon":5.41661,"is_reserved":false,"is_disabled":false,"rental_uris":{"android":"levelo://app?vid=32f91316-7dbf-4af4-af1c-819a2cd9a7dc","ios":"levelo://app?vid=32f91316-7dbf-4af4-af1c-819a2cd9a7dc"},"vehicle_type_id":"4","last_reported":1748895099,"current_range_meters":20000,"station_id":"ce4bho12rcd13ifvqh1g","pricing_plan_id":"cebpf4jnsgd1na2vs0mg"},{"bike_id":"80b1fd5c-60f4-4f78-9ee6-4553d53a90b1","system_id":"levelo_inurba_marseille","lat":43.28711,"lon":5.39981,"is_reserved":false,"is_disabled":false,"rental_uris":{"android":"levelo://app?vid=80b1fd5c-60f4-4f78-9ee6-4553d53a90b1","ios":"levelo://app?vid=80b1fd5c-60f4-4f78-9ee6-4553d53a90b1"},"vehicle_type_id":"4","last_reported":1748895099,"current_range_meters":20000,"station_id":"ce4bho92rcd13ifvqh3g","pricing_plan_id":"cebpf4jnsgd1na2vs0mg"},{"bike_id":"631c7bfe-ec5a-460d-82cb-ddc84d840122","system_id":"levelo_inurba_marseille","lat":43.28,"lon":5.40009,"is_reserved":false,"is_disabled":false,"rental_uris":{"android":"levelo://app?vid=631c7bfe-ec5a-460d-82cb-ddc84d840122","ios":"levelo://app?vid=631c7bfe-ec5a-460d-82cb-ddc84d840122"},"vehicle_type_id":"4","last_reported":1748895099,"current_range_meters":20000,"station_id":"ce4bho92rcd13ifvqh4g","pricing_plan_id":"cebpf4jnsgd1na2vs0mg"},{"bike_id":"22f839c0-7837-49f4-b4b1-6cd233d79363","system_id":"levelo_inurba_marseille","lat":43.29897,"lon":5.43694,"is_reserved":false,"is_disabled":false,"rental_uris":{"android":"levelo://app?vid=22f839c0-7837-49f4-b4b1-6cd233d79363","ios":"levelo://app?vid=22f839c0-7837-49f4-b4b1-6cd233d79363"},"vehicle_type_id":"4","last_reported":1748895099,"current_range_meters":20000,"station_id":"ce4bhpp2rcd13ifvqhfg","pricing_plan_id":"cebpf4jnsgd1na2vs0mg"},{"bike_id":"c4704f11-508e-4aaf-bea9-474c3265ad65","system_id":"levelo_inurba_marseille","lat":43.30273,"lon":5.40046,"is_reserved":false,"is_disabled":false,"rental_uris":{"android":"levelo://app?vid=c4704f11-508e-4aaf-bea9-474c3265ad65","ios":"levelo://app?vid=c4704f11-508e-4aaf-bea9-474c3265ad65"},"vehicle_type_id":"4","last_reported":1748895099,"current_range_meters":20400,"station_id":"ce4bgvh2rcd13ifvqcs0","pricing_plan_id":"cebpf4jnsgd1na2vs0mg"},{"bike_id":"8a7eca0d-87ba-48cc-b322-dc27d2355585","system_id":"levelo_inurba_marseille","lat":43.29271,"lon":5.40119,"is_reserved":false,"is_disabled":false,"rental_uris":{"android":"levelo://app?vid=8a7eca0d-87ba-48cc-b322-dc27d2355585","ios":"levelo://app?vid=8a7eca0d-87ba-48cc-b322-dc27d2355585"},"vehicle_type_id":"4","last_reported":1748895099,"current_range_meters":20400,"station_id":"ce4bh312rcd13ifvqdk0","pricing_plan_id":"cebpf4jnsgd1na2vs0mg"},{"bike_id":"fb223d78-6a35-44bd-9bb1-79d5abaefe53","system_id":"levelo_inurba_marseille","lat":43.29096,"lon":5.38148,"is_reserved":false,"is_disabled":false,"rental_uris":{"android":"levelo://app?vid=fb223d78-6a35-44bd-9bb1-79d5abaefe53","ios":"levelo://app?vid=fb223d78-6a35-44bd-9bb1-79d5abaefe53"},"vehicle_type_id":"4","last_reported":1748895099,"current_range_meters":20400,"station_id":"ce4bh512rcd13ifvqe2g","pricing_plan_id":"cebpf4jnsgd1na2vs0mg"},{"bike_id":"549377c2-872f-481d-9866-fa5d22982b8f","system_id":"levelo_inurba_marseille","lat":43.292503,"lon":5.384417,"is_reserved":false,"is_disabled":false,"rental_uris":{"android":"levelo://app?vid=549377c2-872f-481d-9866-fa5d22982b8f","ios":"levelo://app?vid=549377c2-872f-481d-9866-fa5d22982b8f"},"vehicle_type_id":"4","last_reported":1748895099,"current_range_meters":20400,"station_id":"ce4bh692rcd13ifvqea0","pricing_plan_id":"cebpf4jnsgd1na2vs0mg"},{"bike_id":"0a38eff9-8f25-466f-b61d-aedd19594876","system_id":"levelo_inurba_marseille","lat":43.28843,"lon":5.35842,"is_reserved":false,"is_disabled":false,"rental_uris":{"android":"levelo://app?vid=0a38eff9-8f25-466f-b61d-aedd19594876","ios":"levelo://app?vid=0a38eff9-8f25-466f-b61d-aedd19594876"},"vehicle_type_id":"4","last_reported":1748895099,"current_range_meters":20400,"station_id":"ce4bhb12rcd13ifvqem0","pricing_plan_id":"cebpf4jnsgd1na2vs0mg"},{"bike_id":"d0a38fbf-480a-44f9-8c88-81888fc6618a","system_id":"levelo_inurba_marseille","lat":43.29426,"lon":5.38624,"is_reserved":false,"is_disabled":false,"rental_uris":{"android":"levelo://app?vid=d0a38fbf-480a-44f9-8c88-81888fc6618a","ios":"levelo://app?vid=d0a38fbf-480a-44f9-8c88-81888fc6618a"},"vehicle_type_id":"4","last_reported":1748895099,"current_range_meters":20800,"station_id":"ce4bh2h2rcd13ifvqdh0","pricing_plan_id":"cebpf4jnsgd1na2vs0mg"},{"bike_id":"1f59fcca-0a4a-42c2-a297-28cf8298a661","system_id":"levelo_inurba_marseille","lat":43.29575,"lon":5.3997,"is_reserved":false,"is_disabled":false,"rental_uris":{"android":"levelo://app?vid=1f59fcca-0a4a-42c2-a297-28cf8298a661","ios":"levelo://app?vid=1f59fcca-0a4a-42c2-a297-28cf8298a661"},"vehicle_type_id":"4","last_reported":1748895099,"current_range_meters":20800,"station_id":"ce4bh312rcd13ifvqdj0","pricing_plan_id":"cebpf4jnsgd1na2vs0mg"},{"bike_id":"da26f9ff-4cda-48ab-9722-2ad8b0e7cac4","system_id":"levelo_inurba_marseille","lat":43.284118,"lon":5.37513,"is_reserved":false,"is_disabled":false,"rental_uris":{"android":"levelo://app?vid=da26f9ff-4cda-48ab-9722-2ad8b0e7cac4","ios":"levelo://app?vid=da26f9ff-4cda-48ab-9722-2ad8b0e7cac4"},"vehicle_type_id":"4","last_reported":1748895099,"current_range_meters":20800,"station_id":"ce4bh412rcd13ifvqds0","pricing_plan_id":"cebpf4jnsgd1na2vs0mg"},{"bike_id":"e69a33a5-c4d6-4eaa-8ae6-4cc135b884a8","system_id":"levelo_inurba_marseille","lat":43.29253,"lon":5.38434,"is_reserved":false,"is_disabled":false,"rental_uris":{"android":"levelo://app?vid=e69a33a5-c4d6-4eaa-8ae6-4cc135b884a8","ios":"levelo://app?vid=e69a33a5-c4d6-4eaa-8ae6-4cc135b884a8"},"vehicle_type_id":"4","last_reported":1748895099,"current_range_meters":20800,"station_id":"ce4bh692rcd13ifvqea0","pricing_plan_id":"cebpf4jnsgd1na2vs0mg"},{"bike_id":"34cb3d43-dc72-4c3a-b730-77bd15f7cdbd","system_id":"levelo_inurba_marseille","lat":43.28719,"lon":5.37934,"is_reserved":false,"is_disabled":false,"rental_uris":{"android":"levelo://app?vid=34cb3d43-dc72-4c3a-b730-77bd15f7cdbd","ios":"levelo://app?vid=34cb3d43-dc72-4c3a-b730-77bd15f7cdbd"},"vehicle_type_id":"4","last_reported":1748895099,"current_range_meters":20800,"station_id":"ce4bh9p2rcd13ifvqec0","pricing_plan_id":"cebpf4jnsgd1na2vs0mg"},{"bike_id":"8ad0bd36-95c8-4c3d-8a0f-46f925ee5b4b","system_id":"levelo_inurba_marseille","lat":43.28452,"lon":5.3588,"is_reserved":false,"is_disabled":false,"rental_uris":{"android":"levelo://app?vid=8ad0bd36-95c8-4c3d-8a0f-46f925ee5b4b","ios":"levelo://app?vid=8ad0bd36-95c8-4c3d-8a0f-46f925ee5b4b"},"vehicle_type_id":"4","last_reported":1748895099,"current_range_meters":20800,"station_id":"ce4bhah2rcd13ifvqei0","pricing_plan_id":"cebpf4jnsgd1na2vs0mg"},{"bike_id":"39465794-52fd-4ae0-a617-b2ec2aa583f4","system_id":"levelo_inurba_marseille","lat":43.28701,"lon":5.39986,"is_reserved":false,"is_disabled":false,"rental_uris":{"android":"levelo://app?vid=39465794-52fd-4ae0-a617-b2ec2aa583f4","ios":"levelo://app?vid=39465794-52fd-4ae0-a617-b2ec2aa583f4"},"vehicle_type_id":"4","last_reported":1748895099,"current_range_meters":20800,"station_id":"ce4bho92rcd13ifvqh3g","pricing_plan_id":"cebpf4jnsgd1na2vs0mg"},{"bike_id":"5e70487d-abe9-4ca7-88ab-eb13a035bc4e","system_id":"levelo_inurba_marseille","lat":43.31882,"lon":5.40731,"is_reserved":false,"is_disabled":false,"rental_uris":{"android":"levelo://app?vid=5e70487d-abe9-4ca7-88ab-eb13a035bc4e","ios":"levelo://app?vid=5e70487d-abe9-4ca7-88ab-eb13a035bc4e"},"vehicle_type_id":"4","last_reported":1748895099,"current_range_meters":20800,"station_id":"ce4bhq12rcd13ifvqhig","pricing_plan_id":"cebpf4jnsgd1na2vs0mg"},{"bike_id":"d4d879ab-ae05-436f-8537-1396497894db","system_id":"levelo_inurba_marseille","lat":43.30929,"lon":5.40147,"is_reserved":false,"is_disabled":false,"rental_uris":{"android":"levelo://app?vid=d4d879ab-ae05-436f-8537-1396497894db","ios":"levelo://app?vid=d4d879ab-ae05-436f-8537-1396497894db"},"vehicle_type_id":"4","last_reported":1748895099,"current_range_meters":21600,"station_id":"ce4bgvp2rcd13ifvqct0","pricing_plan_id":"cebpf4jnsgd1na2vs0mg"},{"bike_id":"99dc82b5-d21b-48c8-a630-eb4d973d6c61","system_id":"levelo_inurba_marseille","lat":43.29868,"lon":5.39732,"is_reserved":false,"is_disabled":false,"rental_uris":{"android":"levelo://app?vid=99dc82b5-d21b-48c8-a630-eb4d973d6c61","ios":"levelo://app?vid=99dc82b5-d21b-48c8-a630-eb4d973d6c61"},"vehicle_type_id":"4","last_reported":1748895099,"current_range_meters":21600,"station_id":"ce4bh0h2rcd13ifvqd50","pricing_plan_id":"cebpf4jnsgd1na2vs0mg"},{"bike_id":"524d80fc-fe0a-4180-b4e0-b704191992e6","system_id":"levelo_inurba_marseille","lat":43.28867,"lon":5.3931,"is_reserved":false,"is_disabled":false,"rental_uris":{"android":"levelo://app?vid=524d80fc-fe0a-4180-b4e0-b704191992e6","ios":"levelo://app?vid=524d80fc-fe0a-4180-b4e0-b704191992e6"},"vehicle_type_id":"4","last_reported":1748895099,"current_range_meters":21600,"station_id":"ce4bh2p2rcd13ifvqdi0","pricing_plan_id":"cebpf4jnsgd1na2vs0mg"},{"bike_id":"3c8e7a18-de47-410f-938b-d8977225abf3","system_id":"levelo_inurba_marseille","lat":43.29274,"lon":5.40113,"is_reserved":false,"is_disabled":false,"rental_uris":{"android":"levelo://app?vid=3c8e7a18-de47-410f-938b-d8977225abf3","ios":"levelo://app?vid=3c8e7a18-de47-410f-938b-d8977225abf3"},"vehicle_type_id":"4","last_reported":1748895099,"current_range_meters":21600,"station_id":"ce4bh312rcd13ifvqdk0","pricing_plan_id":"cebpf4jnsgd1na2vs0mg"},{"bike_id":"4b8b6b82-1649-48a5-8568-c6d2a474a21c","system_id":"levelo_inurba_marseille","lat":43.2869,"lon":5.37321,"is_reserved":false,"is_disabled":false,"rental_uris":{"android":"levelo://app?vid=4b8b6b82-1649-48a5-8568-c6d2a474a21c","ios":"levelo://app?vid=4b8b6b82-1649-48a5-8568-c6d2a474a21c"},"vehicle_type_id":"4","last_reported":1748895099,"current_range_meters":21600,"station_id":"ce4bh3p2rcd13ifvqdq0","pricing_plan_id":"cebpf4jnsgd1na2vs0mg"},{"bike_id":"826b2db6-1579-4beb-a849-09c1cda03041","system_id":"levelo_inurba_marseille","lat":43.279077,"lon":5.380003,"is_reserved":false,"is_disabled":false,"rental_uris":{"android":"levelo://app?vid=826b2db6-1579-4beb-a849-09c1cda03041","ios":"levelo://app?vid=826b2db6-1579-4beb-a849-09c1cda03041"},"vehicle_type_id":"4","last_reported":1748895099,"current_range_meters":21600,"station_id":"ce4bhf92rcd13ifvqf50","pricing_plan_id":"cebpf4jnsgd1na2vs0mg"},{"bike_id":"e5ffc1cb-a704-403e-ab7b-31df1fc02011","system_id":"levelo_inurba_marseille","lat":43.27942,"lon":5.41027,"is_reserved":false,"is_disabled":false,"rental_uris":{"android":"levelo://app?vid=e5ffc1cb-a704-403e-ab7b-31df1fc02011","ios":"levelo://app?vid=e5ffc1cb-a704-403e-ab7b-31df1fc02011"},"vehicle_type_id":"4","last_reported":1748895099,"current_range_meters":21600,"station_id":"ce4bhnp2rcd13ifvqh0g","pricing_plan_id":"cebpf4jnsgd1na2vs0mg"},{"bike_id":"a3dfb24d-2bc1-4dbc-b2b2-807b9fa8d499","system_id":"levelo_inurba_marseille","lat":43.30806,"lon":5.43515,"is_reserved":false,"is_disabled":false,"rental_uris":{"android":"levelo://app?vid=a3dfb24d-2bc1-4dbc-b2b2-807b9fa8d499","ios":"levelo://app?vid=a3dfb24d-2bc1-4dbc-b2b2-807b9fa8d499"},"vehicle_type_id":"4","last_reported":1748895099,"current_range_meters":21600,"station_id":"ce4bhph2rcd13ifvqheg","pricing_plan_id":"cebpf4jnsgd1na2vs0mg"},{"bike_id":"143434d9-c66a-4f6f-95e1-671fee3703ec","system_id":"levelo_inurba_marseille","lat":43.25322,"lon":5.377037,"is_reserved":false,"is_disabled":false,"rental_uris":{"android":"levelo://app?vid=143434d9-c66a-4f6f-95e1-671fee3703ec","ios":"levelo://app?vid=143434d9-c66a-4f6f-95e1-671fee3703ec"},"vehicle_type_id":"4","last_reported":1748895099,"current_range_meters":22000,"station_id":"","pricing_plan_id":"cebpf4jnsgd1na2vs0mg"},{"bike_id":"3db7697c-d37a-4b72-92fa-5c235edf3010","system_id":"levelo_inurba_marseille","lat":43.30251,"lon":5.40062,"is_reserved":false,"is_disabled":false,"rental_uris":{"android":"levelo://app?vid=3db7697c-d37a-4b72-92fa-5c235edf3010","ios":"levelo://app?vid=3db7697c-d37a-4b72-92fa-5c235edf3010"},"vehicle_type_id":"4","last_reported":1748895099,"current_range_meters":22000,"station_id":"ce4bgvh2rcd13ifvqcs0","pricing_plan_id":"cebpf4jnsgd1na2vs0mg"},{"bike_id":"ea35cbe7-d843-4b51-afad-30004350937b","system_id":"levelo_inurba_marseille","lat":43.29237,"lon":5.36843,"is_reserved":false,"is_disabled":false,"rental_uris":{"android":"levelo://app?vid=ea35cbe7-d843-4b51-afad-30004350937b","ios":"levelo://app?vid=ea35cbe7-d843-4b51-afad-30004350937b"},"vehicle_type_id":"4","last_reported":1748895099,"current_range_meters":22000,"station_id":"ce4bhbp2rcd13ifvqesg","pricing_plan_id":"cebpf4jnsgd1na2vs0mg"},{"bike_id":"827e0f1c-6ea8-4dff-a1f6-0cb7c3b49974","system_id":"levelo_inurba_marseille","lat":43.27905,"lon":5.38018,"is_reserved":false,"is_disabled":false,"rental_uris":{"android":"levelo://app?vid=827e0f1c-6ea8-4dff-a1f6-0cb7c3b49974","ios":"levelo://app?vid=827e0f1c-6ea8-4dff-a1f6-0cb7c3b49974"},"vehicle_type_id":"4","last_reported":1748895099,"current_range_meters":22000,"station_id":"ce4bhf92rcd13ifvqf50","pricing_plan_id":"cebpf4jnsgd1na2vs0mg"},{"bike_id":"ba04a7a3-0ee0-4a4a-a541-5893a2d59118","system_id":"levelo_inurba_marseille","lat":43.25823,"lon":5.39425,"is_reserved":false,"is_disabled":false,"rental_uris":{"android":"levelo://app?vid=ba04a7a3-0ee0-4a4a-a541-5893a2d59118","ios":"levelo://app?vid=ba04a7a3-0ee0-4a4a-a541-5893a2d59118"},"vehicle_type_id":"4","last_reported":1748895099,"current_range_meters":22000,"station_id":"ce4bhip2rcd13ifvqft0","pricing_plan_id":"cebpf4jnsgd1na2vs0mg"},{"bike_id":"70efdef1-36a1-4d6a-b0bb-8cced5b3fc02","system_id":"levelo_inurba_marseille","lat":43.31201,"lon":5.40188,"is_reserved":false,"is_disabled":false,"rental_uris":{"android":"levelo://app?vid=70efdef1-36a1-4d6a-b0bb-8cced5b3fc02","ios":"levelo://app?vid=70efdef1-36a1-4d6a-b0bb-8cced5b3fc02"},"vehicle_type_id":"4","last_reported":1748895099,"current_range_meters":22400,"station_id":"","pricing_plan_id":"cebpf4jnsgd1na2vs0mg"},{"bike_id":"77ceb324-4fe5-4136-af12-e3ad561dc0fa","system_id":"levelo_inurba_marseille","lat":43.30306,"lon":5.39204,"is_reserved":false,"is_disabled":false,"rental_uris":{"android":"levelo://app?vid=77ceb324-4fe5-4136-af12-e3ad561dc0fa","ios":"levelo://app?vid=77ceb324-4fe5-4136-af12-e3ad561dc0fa"},"vehicle_type_id":"4","last_reported":1748895099,"current_range_meters":22400,"station_id":"ce4bgkh2rcd13ifvqbk0","pricing_plan_id":"cebpf4jnsgd1na2vs0mg"},{"bike_id":"05d79a84-39e8-4c20-923b-51b1f1dae499","system_id":"levelo_inurba_marseille","lat":43.29588,"lon":5.38107,"is_reserved":false,"is_disabled":false,"rental_uris":{"android":"levelo://app?vid=05d79a84-39e8-4c20-923b-51b1f1dae499","ios":"levelo://app?vid=05d79a84-39e8-4c20-923b-51b1f1dae499"},"vehicle_type_id":"4","last_reported":1748895099,"current_range_meters":22400,"station_id":"ce4bgl12rcd13ifvqbo0","pricing_plan_id":"cebpf4jnsgd1na2vs0mg"},{"bike_id":"cee58aff-e6bc-45e6-9405-23edfa998a18","system_id":"levelo_inurba_marseille","lat":43.31328,"lon":5.39686,"is_reserved":false,"is_disabled":false,"rental_uris":{"android":"levelo://app?vid=cee58aff-e6bc-45e6-9405-23edfa998a18","ios":"levelo://app?vid=cee58aff-e6bc-45e6-9405-23edfa998a18"},"vehicle_type_id":"4","last_reported":1748895099,"current_range_meters":22400,"station_id":"ce4bgvp2rcd13ifvqcu0","pricing_plan_id":"cebpf4jnsgd1na2vs0mg"},{"bike_id":"ed58e77d-5129-46f9-b1eb-7172074a5190","system_id":"levelo_inurba_marseille","lat":43.28696,"lon":5.37407,"is_reserved":false,"is_disabled":false,"rental_uris":{"android":"levelo://app?vid=ed58e77d-5129-46f9-b1eb-7172074a5190","ios":"levelo://app?vid=ed58e77d-5129-46f9-b1eb-7172074a5190"},"vehicle_type_id":"4","last_reported":1748895099,"current_range_meters":22400,"station_id":"ce4bh3p2rcd13ifvqdq0","pricing_plan_id":"cebpf4jnsgd1na2vs0mg"},{"bike_id":"aedf6f81-d476-43aa-967e-b91c63b8fed7","system_id":"levelo_inurba_marseille","lat":43.2872,"lon":5.37391,"is_reserved":false,"is_disabled":false,"rental_uris":{"android":"levelo://app?vid=aedf6f81-d476-43aa-967e-b91c63b8fed7","ios":"levelo://app?vid=aedf6f81-d476-43aa-967e-b91c63b8fed7"},"vehicle_type_id":"4","last_reported":1748895099,"current_range_meters":22400,"station_id":"ce4bh3p2rcd13ifvqdq0","pricing_plan_id":"cebpf4jnsgd1na2vs0mg"},{"bike_id":"271cc009-1ca5-4c80-9536-07cc2486603f","system_id":"levelo_inurba_marseille","lat":43.289237,"lon":5.384008,"is_reserved":false,"is_disabled":false,"rental_uris":{"android":"levelo://app?vid=271cc009-1ca5-4c80-9536-07cc2486603f","ios":"levelo://app?vid=271cc009-1ca5-4c80-9536-07cc2486603f"},"vehicle_type_id":"4","last_reported":1748895099,"current_range_meters":22400,"station_id":"ce4bh612rcd13ifvqe6g","pricing_plan_id":"cebpf4jnsgd1na2vs0mg"},{"bike_id":"e504d028-81d5-4fdd-b505-e1a9127c4754","system_id":"levelo_inurba_marseille","lat":43.29063,"lon":5.37568,"is_reserved":false,"is_disabled":false,"rental_uris":{"android":"levelo://app?vid=e504d028-81d5-4fdd-b505-e1a9127c4754","ios":"levelo://app?vid=e504d028-81d5-4fdd-b505-e1a9127c4754"},"vehicle_type_id":"4","last_reported":1748895099,"current_range_meters":22400,"station_id":"ce4bh692rcd13ifvqe90","pricing_plan_id":"cebpf4jnsgd1na2vs0mg"},{"bike_id":"48da913c-189e-4adb-8b41-df2f525f675f","system_id":"levelo_inurba_marseille","lat":43.27925,"lon":5.38006,"is_reserved":false,"is_disabled":false,"rental_uris":{"android":"levelo://app?vid=48da913c-189e-4adb-8b41-df2f525f675f","ios":"levelo://app?vid=48da913c-189e-4adb-8b41-df2f525f675f"},"vehicle_type_id":"4","last_reported":1748895099,"current_range_meters":22400,"station_id":"ce4bhf92rcd13ifvqf50","pricing_plan_id":"cebpf4jnsgd1na2vs0mg"},{"bike_id":"b25d3a9d-a320-480e-be17-fc0d2e519688","system_id":"levelo_inurba_marseille","lat":43.2465,"lon":5.38889,"is_reserved":false,"is_disabled":false,"rental_uris":{"android":"levelo://app?vid=b25d3a9d-a320-480e-be17-fc0d2e519688","ios":"levelo://app?vid=b25d3a9d-a320-480e-be17-fc0d2e519688"},"vehicle_type_id":"4","last_reported":1748895099,"current_range_meters":22400,"station_id":"ce4bhg12rcd13ifvqf60","pricing_plan_id":"cebpf4jnsgd1na2vs0mg"},{"bike_id":"5f6b6103-d4f1-4e87-b00b-6ea81a079703","system_id":"levelo_inurba_marseille","lat":43.24662,"lon":5.3816,"is_reserved":false,"is_disabled":false,"rental_uris":{"android":"levelo://app?vid=5f6b6103-d4f1-4e87-b00b-6ea81a079703","ios":"levelo://app?vid=5f6b6103-d4f1-4e87-b00b-6ea81a079703"},"vehicle_type_id":"4","last_reported":1748895099,"current_range_meters":22400,"station_id":"ce4bhih2rcd13ifvqfr0","pricing_plan_id":"cebpf4jnsgd1na2vs0mg"},{"bike_id":"f40c42d0-7cc5-413f-875f-e15cd0659f45","system_id":"levelo_inurba_marseille","lat":43.25717,"lon":5.41111,"is_reserved":false,"is_disabled":false,"rental_uris":{"android":"levelo://app?vid=f40c42d0-7cc5-413f-875f-e15cd0659f45","ios":"levelo://app?vid=f40c42d0-7cc5-413f-875f-e15cd0659f45"},"vehicle_type_id":"4","last_reported":1748895099,"current_range_meters":22400,"station_id":"ce4bhkp2rcd13ifvqgd0","pricing_plan_id":"cebpf4jnsgd1na2vs0mg"},{"bike_id":"c2e1d283-a417-4a2a-b2e7-7c87606a7a42","system_id":"levelo_inurba_marseille","lat":43.251214,"lon":5.403172,"is_reserved":false,"is_disabled":false,"rental_uris":{"android":"levelo://app?vid=c2e1d283-a417-4a2a-b2e7-7c87606a7a42","ios":"levelo://app?vid=c2e1d283-a417-4a2a-b2e7-7c87606a7a42"},"vehicle_type_id":"4","last_reported":1748895099,"current_range_meters":22400,"station_id":"ce4bhlh2rcd13ifvqgig","pricing_plan_id":"cebpf4jnsgd1na2vs0mg"},{"bike_id":"a7047fcd-71af-45de-9710-594d62b61377","system_id":"levelo_inurba_marseille","lat":43.30637,"lon":5.40085,"is_reserved":false,"is_disabled":false,"rental_uris":{"android":"levelo://app?vid=a7047fcd-71af-45de-9710-594d62b61377","ios":"levelo://app?vid=a7047fcd-71af-45de-9710-594d62b61377"},"vehicle_type_id":"4","last_reported":1748895099,"current_range_meters":22800,"station_id":"ce4bh112rcd13ifvqda0","pricing_plan_id":"cebpf4jnsgd1na2vs0mg"},{"bike_id":"1de966ea-3a22-471c-8d93-a1f4ea785791","system_id":"levelo_inurba_marseille","lat":43.29569,"lon":5.39969,"is_reserved":false,"is_disabled":false,"rental_uris":{"android":"levelo://app?vid=1de966ea-3a22-471c-8d93-a1f4ea785791","ios":"levelo://app?vid=1de966ea-3a22-471c-8d93-a1f4ea785791"},"vehicle_type_id":"4","last_reported":1748895099,"current_range_meters":22800,"station_id":"ce4bh312rcd13ifvqdj0","pricing_plan_id":"cebpf4jnsgd1na2vs0mg"},{"bike_id":"b95d2652-74e8-48a3-9a2b-58cb59e86823","system_id":"levelo_inurba_marseille","lat":43.29446,"lon":5.39747,"is_reserved":false,"is_disabled":false,"rental_uris":{"android":"levelo://app?vid=b95d2652-74e8-48a3-9a2b-58cb59e86823","ios":"levelo://app?vid=b95d2652-74e8-48a3-9a2b-58cb59e86823"},"vehicle_type_id":"4","last_reported":1748895099,"current_range_meters":22800,"station_id":"ce4bh3h2rcd13ifvqdo0","pricing_plan_id":"cebpf4jnsgd1na2vs0mg"},{"bike_id":"e1f14640-be02-4abc-ad9b-c3a1a7ff6b08","system_id":"levelo_inurba_marseille","lat":43.28411,"lon":5.37533,"is_reserved":false,"is_disabled":false,"rental_uris":{"android":"levelo://app?vid=e1f14640-be02-4abc-ad9b-c3a1a7ff6b08","ios":"levelo://app?vid=e1f14640-be02-4abc-ad9b-c3a1a7ff6b08"},"vehicle_type_id":"4","last_reported":1748895099,"current_range_meters":22800,"station_id":"ce4bh412rcd13ifvqds0","pricing_plan_id":"cebpf4jnsgd1na2vs0mg"},{"bike_id":"d3c61214-d6e6-414c-9487-50f695a31513","system_id":"levelo_inurba_marseille","lat":43.29258,"lon":5.3844,"is_reserved":false,"is_disabled":false,"rental_uris":{"android":"levelo://app?vid=d3c61214-d6e6-414c-9487-50f695a31513","ios":"levelo://app?vid=d3c61214-d6e6-414c-9487-50f695a31513"},"vehicle_type_id":"4","last_reported":1748895099,"current_range_meters":22800,"station_id":"ce4bh692rcd13ifvqea0","pricing_plan_id":"cebpf4jnsgd1na2vs0mg"},{"bike_id":"ddea05cf-725e-4434-ada8-8766d2fc8394","system_id":"levelo_inurba_marseille","lat":43.28932,"lon":5.364,"is_reserved":false,"is_disabled":false,"rental_uris":{"android":"levelo://app?vid=ddea05cf-725e-4434-ada8-8766d2fc8394","ios":"levelo://app?vid=ddea05cf-725e-4434-ada8-8766d2fc8394"},"vehicle_type_id":"4","last_reported":1748895099,"current_range_meters":22800,"station_id":"ce4bhc92rcd13ifvqetg","pricing_plan_id":"cebpf4jnsgd1na2vs0mg"},{"bike_id":"98c734dd-e4aa-447d-891b-d6b331d7f13e","system_id":"levelo_inurba_marseille","lat":43.258213,"lon":5.394304,"is_reserved":false,"is_disabled":false,"rental_uris":{"android":"levelo://app?vid=98c734dd-e4aa-447d-891b-d6b331d7f13e","ios":"levelo://app?vid=98c734dd-e4aa-447d-891b-d6b331d7f13e"},"vehicle_type_id":"4","last_reported":1748895099,"current_range_meters":22800,"station_id":"ce4bhip2rcd13ifvqft0","pricing_plan_id":"cebpf4jnsgd1na2vs0mg"},{"bike_id":"0d144424-080b-4dfe-bd14-c141b7542ad6","system_id":"levelo_inurba_marseille","lat":43.28704,"lon":5.39985,"is_reserved":false,"is_disabled":false,"rental_uris":{"android":"levelo://app?vid=0d144424-080b-4dfe-bd14-c141b7542ad6","ios":"levelo://app?vid=0d144424-080b-4dfe-bd14-c141b7542ad6"},"vehicle_type_id":"4","last_reported":1748895099,"current_range_meters":22800,"station_id":"ce4bho92rcd13ifvqh3g","pricing_plan_id":"cebpf4jnsgd1na2vs0mg"},{"bike_id":"cba6c288-7603-41a8-92a6-e8587baf262b","system_id":"levelo_inurba_marseille","lat":43.33731,"lon":5.39178,"is_reserved":false,"is_disabled":false,"rental_uris":{"android":"levelo://app?vid=cba6c288-7603-41a8-92a6-e8587baf262b","ios":"levelo://app?vid=cba6c288-7603-41a8-92a6-e8587baf262b"},"vehicle_type_id":"4","last_reported":1748895099,"current_range_meters":22800,"station_id":"ce4bhr92rcd13ifvqhsg","pricing_plan_id":"cebpf4jnsgd1na2vs0mg"},{"bike_id":"1eec2072-a52b-4af8-8b2c-ae122356f86f","system_id":"levelo_inurba_marseille","lat":43.28209,"lon":5.39042,"is_reserved":false,"is_disabled":false,"rental_uris":{"android":"levelo://app?vid=1eec2072-a52b-4af8-8b2c-ae122356f86f","ios":"levelo://app?vid=1eec2072-a52b-4af8-8b2c-ae122356f86f"},"vehicle_type_id":"4","last_reported":1748895099,"current_range_meters":23200,"station_id":"","pricing_plan_id":"cebpf4jnsgd1na2vs0mg"},{"bike_id":"7dc6c57e-3011-4f09-ab7d-4a2137ef0a49","system_id":"levelo_inurba_marseille","lat":43.31376,"lon":5.38489,"is_reserved":false,"is_disabled":false,"rental_uris":{"android":"levelo://app?vid=7dc6c57e-3011-4f09-ab7d-4a2137ef0a49","ios":"levelo://app?vid=7dc6c57e-3011-4f09-ab7d-4a2137ef0a49"},"vehicle_type_id":"4","last_reported":1748895099,"current_range_meters":23200,"station_id":"ce4bgt92rcd13ifvqcf0","pricing_plan_id":"cebpf4jnsgd1na2vs0mg"},{"bike_id":"ba34b329-4766-4ab6-8ae7-7d779bda245a","system_id":"levelo_inurba_marseille","lat":43.28927,"lon":5.3663,"is_reserved":false,"is_disabled":false,"rental_uris":{"android":"levelo://app?vid=ba34b329-4766-4ab6-8ae7-7d779bda245a","ios":"levelo://app?vid=ba34b329-4766-4ab6-8ae7-7d779bda245a"},"vehicle_type_id":"4","last_reported":1748895099,"current_range_meters":23200,"station_id":"ce4bhap2rcd13ifvqek0","pricing_plan_id":"cebpf4jnsgd1na2vs0mg"},{"bike_id":"3e85fa53-1d68-41a8-bbf3-4a193e9a2b22","system_id":"levelo_inurba_marseille","lat":43.245464,"lon":5.395286,"is_reserved":false,"is_disabled":false,"rental_uris":{"android":"levelo://app?vid=3e85fa53-1d68-41a8-bbf3-4a193e9a2b22","ios":"levelo://app?vid=3e85fa53-1d68-41a8-bbf3-4a193e9a2b22"},"vehicle_type_id":"4","last_reported":1748895099,"current_range_meters":23200,"station_id":"ce4bhlp2rcd13ifvqgjg","pricing_plan_id":"cebpf4jnsgd1na2vs0mg"},{"bike_id":"a11ea1a8-2e68-484b-8edf-fe757e754272","system_id":"levelo_inurba_marseille","lat":43.278164,"lon":5.407231,"is_reserved":false,"is_disabled":false,"rental_uris":{"android":"levelo://app?vid=a11ea1a8-2e68-484b-8edf-fe757e754272","ios":"levelo://app?vid=a11ea1a8-2e68-484b-8edf-fe757e754272"},"vehicle_type_id":"4","last_reported":1748895099,"current_range_meters":23200,"station_id":"ce4bhnh2rcd13ifvqgtg","pricing_plan_id":"cebpf4jnsgd1na2vs0mg"},{"bike_id":"bd15d3c1-5fc5-4006-9923-c4638e3da994","system_id":"levelo_inurba_marseille","lat":43.301075,"lon":5.371115,"is_reserved":false,"is_disabled":false,"rental_uris":{"android":"levelo://app?vid=bd15d3c1-5fc5-4006-9923-c4638e3da994","ios":"levelo://app?vid=bd15d3c1-5fc5-4006-9923-c4638e3da994"},"vehicle_type_id":"4","last_reported":1748895099,"current_range_meters":24000,"station_id":"","pricing_plan_id":"cebpf4jnsgd1na2vs0mg"},{"bike_id":"05547ff0-f40c-481e-8970-348cc1f31655","system_id":"levelo_inurba_marseille","lat":43.30546,"lon":5.38432,"is_reserved":false,"is_disabled":false,"rental_uris":{"android":"levelo://app?vid=05547ff0-f40c-481e-8970-348cc1f31655","ios":"levelo://app?vid=05547ff0-f40c-481e-8970-348cc1f31655"},"vehicle_type_id":"4","last_reported":1748895099,"current_range_meters":24000,"station_id":"ce4bgg92rcd13ifvqb30","pricing_plan_id":"cebpf4jnsgd1na2vs0mg"},{"bike_id":"792bca3b-389f-475e-afdc-da168b7070d7","system_id":"levelo_inurba_marseille","lat":43.30314,"lon":5.3921,"is_reserved":false,"is_disabled":false,"rental_uris":{"android":"levelo://app?vid=792bca3b-389f-475e-afdc-da168b7070d7","ios":"levelo://app?vid=792bca3b-389f-475e-afdc-da168b7070d7"},"vehicle_type_id":"4","last_reported":1748895099,"current_range_meters":24000,"station_id":"ce4bgkh2rcd13ifvqbk0","pricing_plan_id":"cebpf4jnsgd1na2vs0mg"},{"bike_id":"c86f6a0c-891c-4286-bef5-3598ef82380a","system_id":"levelo_inurba_marseille","lat":43.29597,"lon":5.38102,"is_reserved":false,"is_disabled":false,"rental_uris":{"android":"levelo://app?vid=c86f6a0c-891c-4286-bef5-3598ef82380a","ios":"levelo://app?vid=c86f6a0c-891c-4286-bef5-3598ef82380a"},"vehicle_type_id":"4","last_reported":1748895099,"current_range_meters":24000,"station_id":"ce4bgl12rcd13ifvqbo0","pricing_plan_id":"cebpf4jnsgd1na2vs0mg"},{"bike_id":"50ba93b6-c5f8-4446-8427-5ddd7161a117","system_id":"levelo_inurba_marseille","lat":43.29417,"lon":5.38633,"is_reserved":false,"is_disabled":false,"rental_uris":{"android":"levelo://app?vid=50ba93b6-c5f8-4446-8427-5ddd7161a117","ios":"levelo://app?vid=50ba93b6-c5f8-4446-8427-5ddd7161a117"},"vehicle_type_id":"4","last_reported":1748895099,"current_range_meters":24000,"station_id":"ce4bh2h2rcd13ifvqdh0","pricing_plan_id":"cebpf4jnsgd1na2vs0mg"},{"bike_id":"59f0cfae-2cf1-4af7-b349-41c24f6b0f68","system_id":"levelo_inurba_marseille","lat":43.28083,"lon":5.39662,"is_reserved":false,"is_disabled":false,"rental_uris":{"android":"levelo://app?vid=59f0cfae-2cf1-4af7-b349-41c24f6b0f68","ios":"levelo://app?vid=59f0cfae-2cf1-4af7-b349-41c24f6b0f68"},"vehicle_type_id":"4","last_reported":1748895099,"current_range_meters":24000,"station_id":"ce4bho12rcd13ifvqh2g","pricing_plan_id":"cebpf4jnsgd1na2vs0mg"},{"bike_id":"392aba08-8c80-4f58-bd27-a0f1e97f2380","system_id":"levelo_inurba_marseille","lat":43.34158,"lon":5.4089,"is_reserved":false,"is_disabled":false,"rental_uris":{"android":"levelo://app?vid=392aba08-8c80-4f58-bd27-a0f1e97f2380","ios":"levelo://app?vid=392aba08-8c80-4f58-bd27-a0f1e97f2380"},"vehicle_type_id":"4","last_reported":1748895099,"current_range_meters":24000,"station_id":"ce4bhqh2rcd13ifvqhlg","pricing_plan_id":"cebpf4jnsgd1na2vs0mg"},{"bike_id":"67025b4c-b990-4842-b8ee-7321a057148a","system_id":"levelo_inurba_marseille","lat":43.26564,"lon":5.40322,"is_reserved":false,"is_disabled":false,"rental_uris":{"android":"levelo://app?vid=67025b4c-b990-4842-b8ee-7321a057148a","ios":"levelo://app?vid=67025b4c-b990-4842-b8ee-7321a057148a"},"vehicle_type_id":"4","last_reported":1748895099,"current_range_meters":24400,"station_id":"","pricing_plan_id":"cebpf4jnsgd1na2vs0mg"},{"bike_id":"8b13bdc1-d9ad-402b-9335-01bd02d81f63","system_id":"levelo_inurba_marseille","lat":43.31069,"lon":5.39076,"is_reserved":false,"is_disabled":false,"rental_uris":{"android":"levelo://app?vid=8b13bdc1-d9ad-402b-9335-01bd02d81f63","ios":"levelo://app?vid=8b13bdc1-d9ad-402b-9335-01bd02d81f63"},"vehicle_type_id":"4","last_reported":1748895099,"current_range_meters":24400,"station_id":"","pricing_plan_id":"cebpf4jnsgd1na2vs0mg"},{"bike_id":"ff892b5b-85f7-4b2e-a31c-f91a7729170a","system_id":"levelo_inurba_marseille","lat":43.30609,"lon":5.37223,"is_reserved":false,"is_disabled":false,"rental_uris":{"android":"levelo://app?vid=ff892b5b-85f7-4b2e-a31c-f91a7729170a","ios":"levelo://app?vid=ff892b5b-85f7-4b2e-a31c-f91a7729170a"},"vehicle_type_id":"4","last_reported":1748895099,"current_range_meters":24400,"station_id":"ce4bgqh2rcd13ifvqc4g","pricing_plan_id":"cebpf4jnsgd1na2vs0mg"},{"bike_id":"83302060-b3ed-4cab-bb63-30cfa9c0b348","system_id":"levelo_inurba_marseille","lat":43.29527,"lon":5.39022,"is_reserved":false,"is_disabled":false,"rental_uris":{"android":"levelo://app?vid=83302060-b3ed-4cab-bb63-30cfa9c0b348","ios":"levelo://app?vid=83302060-b3ed-4cab-bb63-30cfa9c0b348"},"vehicle_type_id":"4","last_reported":1748895099,"current_range_meters":24400,"station_id":"ce4bh3p2rcd13ifvqdp0","pricing_plan_id":"cebpf4jnsgd1na2vs0mg"},{"bike_id":"e6e1e28c-b83a-47d5-8a01-ba64bcbac4d3","system_id":"levelo_inurba_marseille","lat":43.29252,"lon":5.38446,"is_reserved":false,"is_disabled":false,"rental_uris":{"android":"levelo://app?vid=e6e1e28c-b83a-47d5-8a01-ba64bcbac4d3","ios":"levelo://app?vid=e6e1e28c-b83a-47d5-8a01-ba64bcbac4d3"},"vehicle_type_id":"4","last_reported":1748895099,"current_range_meters":24400,"station_id":"ce4bh692rcd13ifvqea0","pricing_plan_id":"cebpf4jnsgd1na2vs0mg"},{"bike_id":"41cc959b-a23c-45c8-b31e-0a514d4b983e","system_id":"levelo_inurba_marseille","lat":43.28736,"lon":5.37925,"is_reserved":false,"is_disabled":false,"rental_uris":{"android":"levelo://app?vid=41cc959b-a23c-45c8-b31e-0a514d4b983e","ios":"levelo://app?vid=41cc959b-a23c-45c8-b31e-0a514d4b983e"},"vehicle_type_id":"4","last_reported":1748895099,"current_range_meters":24400,"station_id":"ce4bh9p2rcd13ifvqec0","pricing_plan_id":"cebpf4jnsgd1na2vs0mg"},{"bike_id":"53120d44-a769-4ff8-8d4a-3d36c2a20c88","system_id":"levelo_inurba_marseille","lat":43.30261,"lon":5.40072,"is_reserved":false,"is_disabled":false,"rental_uris":{"android":"levelo://app?vid=53120d44-a769-4ff8-8d4a-3d36c2a20c88","ios":"levelo://app?vid=53120d44-a769-4ff8-8d4a-3d36c2a20c88"},"vehicle_type_id":"4","last_reported":1748895099,"current_range_meters":24800,"station_id":"ce4bgvh2rcd13ifvqcs0","pricing_plan_id":"cebpf4jnsgd1na2vs0mg"},{"bike_id":"860b7b09-6bff-4105-b03f-da385af72bcc","system_id":"levelo_inurba_marseille","lat":43.292491,"lon":5.401318,"is_reserved":false,"is_disabled":false,"rental_uris":{"android":"levelo://app?vid=860b7b09-6bff-4105-b03f-da385af72bcc","ios":"levelo://app?vid=860b7b09-6bff-4105-b03f-da385af72bcc"},"vehicle_type_id":"4","last_reported":1748895099,"current_range_meters":24800,"station_id":"ce4bh312rcd13ifvqdk0","pricing_plan_id":"cebpf4jnsgd1na2vs0mg"},{"bike_id":"05dd8858-2240-4ec1-a8bd-ad471b03b4f3","system_id":"levelo_inurba_marseille","lat":43.288555,"lon":5.358478,"is_reserved":false,"is_disabled":false,"rental_uris":{"android":"levelo://app?vid=05dd8858-2240-4ec1-a8bd-ad471b03b4f3","ios":"levelo://app?vid=05dd8858-2240-4ec1-a8bd-ad471b03b4f3"},"vehicle_type_id":"4","last_reported":1748895099,"current_range_meters":24800,"station_id":"ce4bhb12rcd13ifvqem0","pricing_plan_id":"cebpf4jnsgd1na2vs0mg"},