{"last_updated":1758802905,"ttl":60,"version":"2.2","data":{"bikes":[{"bike_id":"a3c8c3f4-eb34-46f1-b00f-97f6409bbe67","system_id":"levelo_inurba_marseille","lat":43.24662,"lon":5.38161,"is_reserved":false,"is_disabled":false,"rental_uris":{"android":"levelo://app?vid=a3c8c3f4-eb34-46f1-b00f-97f6409bbe67","ios":"levelo://app?vid=a3c8c3f4-eb34-46f1-b00f-97f6409bbe67"},"vehicle_type_id":"4","last_reported":1758802905,"current_range_meters":2800,"station_id":"ce4bhih2rcd13ifvqfr0","pricing_plan_id":"cebpf4jnsgd1na2vs0mg"},{"bike_id":"81e7eb49-55ac-42f9-b7f1-cdcd3cd7a85f","system_id":"levelo_inurba_marseille","lat":43.2988,"lon":5.39731,"is_reserved":false,"is_disabled":false,"rental_uris":{"android":"levelo://app?vid=81e7eb49-55ac-42f9-b7f1-cdcd3cd7a85f","ios":"levelo://app?vid=81e7eb49-55ac-42f9-b7f1-cdcd3cd7a85f"},"vehicle_type_id":"4","last_reported":1758802905,"current_range_meters":2800,"station_id":"ce4bh0h2rcd13ifvqd50","pricing_plan_id":"cebpf4jnsgd1na2vs0mg"},{"bike_id":"4b8b0e57-e849-447f-9ecb-09f309734ae7","system_id":"levelo_inurba_marseille","lat":43.24667,"lon":5.38157,"is_reserved":false,"is_disabled":false,"rental_uris":{"android":"levelo://app?vid=4b8b0e57-e849-447f-9ecb-09f309734ae7","ios":"levelo://app?vid=4b8b0e57-e849-447f-9ecb-09f309734ae7"},"vehicle_type_id":"4","last_reported":1758802905,"current_range_meters":2800,"station_id":"ce4bhih2rcd13ifvqfr0","pricing_plan_id":"cebpf4jnsgd1na2vs0mg"},{"bike_id":"c0e09fcd-6eb3-4487-95c6-c6f132f39de3","system_id":"levelo_inurba_marseille","lat":43.22537,"lon":5.34823,"is_reserved":false,"is_disabled":false,"rental_uris":{"android":"levelo://app?vid=c0e09fcd-6eb3-4487-95c6-c6f132f39de3","ios":"levelo://app?vid=c0e09fcd-6eb3-4487-95c6-c6f132f39de3"},"vehicle_type_id":"4","last_reported":1758802905,"current_range_meters":2800,"station_id":"","pricing_plan_id":"cebpf4jnsgd1na2vs0mg"},{"bike_id":"2983f6ee-ebb5-4fb5-b220-6788da110599","system_id":"levelo_inurba_marseille","lat":43.29533,"lon":5.38538,"is_reserved":false,"is_disabled":false,"rental_uris":{"android":"levelo://app?vid=2983f6ee-ebb5-4fb5-b220-6788da110599","ios":"levelo://app?vid=2983f6ee-ebb5-4fb5-b220-6788da110599"},"vehicle_type_id":"4","last_reported":1758802905,"current_range_meters":2800,"station_id":"ce4bgih2rcd13ifvqba0","pricing_plan_id":"cebpf4jnsgd1na2vs0mg"},{"bike_id":"7621d2a2-097a-4ce4-a19e-f9673c435b49","system_id":"levelo_inurba_marseille","lat":43.28261,"lon":5.35068,"is_reserved":false,"is_disabled":false,"rental_uris":{"android":"levelo://app?vid=7621d2a2-097a-4ce4-a19e-f9673c435b49","ios":"levelo://app?vid=7621d2a2-097a-4ce4-a19e-f9673c435b49"},"vehicle_type_id":"4","last_reported":1758802905,"current_range_meters":2800,"station_id":"ce4bhbp2rcd13ifvqerg","pricing_plan_id":"cebpf4jnsgd1na2vs0mg"},{"bike_id":"7471be4a-5990-415b-8e7c-987e5472f420","system_id":"levelo_inurba_marseille","lat":43.250023,"lon":5.389295,"is_reserved":false,"is_disabled":false,"rental_uris":{"android":"levelo://app?vid=7471be4a-5990-415b-8e7c-987e5472f420","ios":"levelo://app?vid=7471be4a-5990-415b-8e7c-987e5472f420"},"vehicle_type_id":"4","last_reported":1758802905,"current_range_meters":3200,"station_id":"ce4bhgp2rcd13ifvqfd0","pricing_plan_id":"cebpf4jnsgd1na2vs0mg"},{"bike_id":"b0855c5e-aca0-4613-9ee8-ac04a6327652","system_id":"levelo_inurba_marseille","lat":43.28272,"lon":5.35063,"is_reserved":false,"is_disabled":false,"rental_uris":{"android":"levelo://app?vid=b0855c5e-aca0-4613-9ee8-ac04a6327652","ios":"levelo://app?vid=b0855c5e-aca0-4613-9ee8-ac04a6327652"},"vehicle_type_id":"4","last_reported":1758802905,"current_range_meters":2800,"station_id":"ce4bhbp2rcd13ifvqerg","pricing_plan_id":"cebpf4jnsgd1na2vs0mg"},{"bike_id":"e23224df-fd6c-4519-aa61-dc8a8b8ac79a","system_id":"levelo_inurba_marseille","lat":43.28616,"lon":5.35105,"is_reserved":false,"is_disabled":false,"rental_uris":{"android":"levelo://app?vid=e23224df-fd6c-4519-aa61-dc8a8b8ac79a","ios":"levelo://app?vid=e23224df-fd6c-4519-aa61-dc8a8b8ac79a"},"vehicle_type_id":"4","last_reported":1758802905,"current_range_meters":3200,"station_id":"ce4bhch2rcd13ifvqeug","pricing_plan_id":"cebpf4jnsgd1na2vs0mg"},{"bike_id":"63242fdd-a8e7-43f0-8444-c9fe535bfbd4","system_id":"levelo_inurba_marseille","lat":43.30462,"lon":5.3791,"is_reserved":false,"is_disabled":false,"rental_uris":{"android":"levelo://app?vid=63242fdd-a8e7-43f0-8444-c9fe535bfbd4","ios":"levelo://app?vid=63242fdd-a8e7-43f0-8444-c9fe535bfbd4"},"vehicle_type_id":"4","last_reported":1758802905,"current_range_meters":3200,"station_id":"ce4bgup2rcd13ifvqcn0","pricing_plan_id":"cebpf4jnsgd1na2vs0mg"},{"bike_id":"4420aaf8-e5a0-4c09-92e9-5d0713cd9395","system_id":"levelo_inurba_marseille","lat":43.33628,"lon":5.41052,"is_reserved":false,"is_disabled":false,"rental_uris":{"android":"levelo://app?vid=4420aaf8-e5a0-4c09-92e9-5d0713cd9395","ios":"levelo://app?vid=4420aaf8-e5a0-4c09-92e9-5d0713cd9395"},"vehicle_type_id":"4","last_reported":1758802905,"current_range_meters":4000,"station_id":"ce4bhqh2rcd13ifvqhmg","pricing_plan_id":"cebpf4jnsgd1na2vs0mg"},{"bike_id":"1f65b6e5-5067-46b9-bacd-583574dd4a56","system_id":"levelo_inurba_marseille","lat":43.225641,"lon":5.416287,"is_reserved":false,"is_disabled":false,"rental_uris":{"android":"levelo://app?vid=1f65b6e5-5067-46b9-bacd-583574dd4a56","ios":"levelo://app?vid=1f65b6e5-5067-46b9-bacd-583574dd4a56"},"vehicle_type_id":"4","last_reported":1758802905,"current_range_meters":4000,"station_id":"st_d2o4gvlbi1j2169b742g","pricing_plan_id":"cebpf4jnsgd1na2vs0mg"},{"bike_id":"9446425e-0a86-42ae-bc3c-f72ad738e590","system_id":"levelo_inurba_marseille","lat":43.33643,"lon":5.36277,"is_reserved":false,"is_disabled":false,"rental_uris":{"android":"levelo://app?vid=9446425e-0a86-42ae-bc3c-f72ad738e590","ios":"levelo://app?vid=9446425e-0a86-42ae-bc3c-f72ad738e590"},"vehicle_type_id":"4","last_reported":1758802905,"current_range_meters":4000,"station_id":"","pricing_plan_id":"cebpf4jnsgd1na2vs0mg"},{"bike_id":"29530f0b-9475-4e38-9b0a-09eb9c783c53","system_id":"levelo_inurba_marseille","lat":43.29785,"lon":5.37106,"is_reserved":false,"is_disabled":false,"rental_uris":{"android":"levelo://app?vid=29530f0b-9475-4e38-9b0a-09eb9c783c53","ios":"levelo://app?vid=29530f0b-9475-4e38-9b0a-09eb9c783c53"},"vehicle_type_id":"4","last_reported":1758802905,"current_range_meters":4000,"station_id":"ce4bgop2rcd13ifvqc1g","pricing_plan_id":"cebpf4jnsgd1na2vs0mg"},{"bike_id":"e57855cd-894a-4762-981a-21e3e73bf18e","system_id":"levelo_inurba_marseille","lat":43.30143,"lon":5.3806,"is_reserved":false,"is_disabled":false,"rental_uris":{"android":"levelo://app?vid=e57855cd-894a-4762-981a-21e3e73bf18e","ios":"levelo://app?vid=e57855cd-894a-4762-981a-21e3e73bf18e"},"vehicle_type_id":"4","last_reported":1758802905,"current_range_meters":4000,"station_id":"ce4bgjp2rcd13ifvqbh0","pricing_plan_id":"cebpf4jnsgd1na2vs0mg"},{"bike_id":"bc3f9dc7-f790-45b0-84e5-7a6cab3d5f62","system_id":"levelo_inurba_marseille","lat":43.30974,"lon":5.39038,"is_reserved":false,"is_disabled":false,"rental_uris":{"android":"levelo://app?vid=bc3f9dc7-f790-45b0-84e5-7a6cab3d5f62","ios":"levelo://app?vid=bc3f9dc7-f790-45b0-84e5-7a6cab3d5f62"},"vehicle_type_id":"4","last_reported":1758802905,"current_range_meters":4000,"station_id":"ce4bgup2rcd13ifvqco0","pricing_plan_id":"cebpf4jnsgd1na2vs0mg"},{"bike_id":"3bc3fa5d-9a4c-4698-9cd7-953237170476","system_id":"levelo_inurba_marseille","lat":43.299092,"lon":5.383998,"is_reserved":false,"is_disabled":false,"rental_uris":{"android":"levelo://app?vid=3bc3fa5d-9a4c-4698-9cd7-953237170476","ios":"levelo://app?vid=3bc3fa5d-9a4c-4698-9cd7-953237170476"},"vehicle_type_id":"4","last_reported":1758802905,"current_range_meters":4400,"station_id":"ce4bgj12rcd13ifvqbc0","pricing_plan_id":"cebpf4jnsgd1na2vs0mg"},{"bike_id":"1efddf8d-578f-4e4c-8c3f-e3a8bd592ba4","system_id":"levelo_inurba_marseille","lat":43.29953,"lon":5.37317,"is_reserved":false,"is_disabled":false,"rental_uris":{"android":"levelo://app?vid=1efddf8d-578f-4e4c-8c3f-e3a8bd592ba4","ios":"levelo://app?vid=1efddf8d-578f-4e4c-8c3f-e3a8bd592ba4"},"vehicle_type_id":"4","last_reported":1758802905,"current_range_meters":4400,"station_id":"","pricing_plan_id":"cebpf4jnsgd1na2vs0mg"},{"bike_id":"7cf834ee-7853-4497-b61d-60565063a605","system_id":"levelo_inurba_marseille","lat":43.31356,"lon":5.38496,"is_reserved":false,"is_disabled":false,"rental_uris":{"android":"levelo://app?vid=7cf834ee-7853-4497-b61d-60565063a605","ios":"levelo://app?vid=7cf834ee-7853-4497-b61d-60565063a605"},"vehicle_type_id":"4","last_reported":1758802905,"current_range_meters":4400,"station_id":"ce4bgt92rcd13ifvqcf0","pricing_plan_id":"cebpf4jnsgd1na2vs0mg"},{"bike_id":"1962e59a-2633-4c09-b0c0-7012f4710403","system_id":"levelo_inurba_marseille","lat":43.28665,"lon":5.36356,"is_reserved":false,"is_disabled":false,"rental_uris":{"android":"levelo://app?vid=1962e59a-2633-4c09-b0c0-7012f4710403","ios":"levelo://app?vid=1962e59a-2633-4c09-b0c0-7012f4710403"},"vehicle_type_id":"4","last_reported":1758802905,"current_range_meters":4400,"station_id":"ce4bhah2rcd13ifvqej0","pricing_plan_id":"cebpf4jnsgd1na2vs0mg"},{"bike_id":"9765fd3b-7472-4f3c-b5ea-2cb20800a3a9","system_id":"levelo_inurba_marseille","lat":43.24633,"lon":5.39576,"is_reserved":false,"is_disabled":false,"rental_uris":{"android":"levelo://app?vid=9765fd3b-7472-4f3c-b5ea-2cb20800a3a9","ios":"levelo://app?vid=9765fd3b-7472-4f3c-b5ea-2cb20800a3a9"},"vehicle_type_id":"4","last_reported":1758802905,"current_range_meters":4400,"station_id":"","pricing_plan_id":"cebpf4jnsgd1na2vs0mg"},{"bike_id":"3d65cdd4-248b-4d43-8411-e2327cb0d5d1","system_id":"levelo_inurba_marseille","lat":43.3015,"lon":5.38084,"is_reserved":false,"is_disabled":false,"rental_uris":{"android":"levelo://app?vid=3d65cdd4-248b-4d43-8411-e2327cb0d5d1","ios":"levelo://app?vid=3d65cdd4-248b-4d43-8411-e2327cb0d5d1"},"vehicle_type_id":"4","last_reported":1758802905,"current_range_meters":4800,"station_id":"ce4bgjp2rcd13ifvqbh0","pricing_plan_id":"cebpf4jnsgd1na2vs0mg"},{"bike_id":"34cbcd1f-a8d8-45b4-aee1-5e06b1e40a72","system_id":"levelo_inurba_marseille","lat":43.2981,"lon":5.38091,"is_reserved":false,"is_disabled":false,"rental_uris":{"android":"levelo://app?vid=34cbcd1f-a8d8-45b4-aee1-5e06b1e40a72","ios":"levelo://app?vid=34cbcd1f-a8d8-45b4-aee1-5e06b1e40a72"},"vehicle_type_id":"4","last_reported":1758802905,"current_range_meters":4800,"station_id":"ce4bgip2rcd13ifvqbb0","pricing_plan_id":"cebpf4jnsgd1na2vs0mg"},{"bike_id":"1230955e-12ec-4dd5-9e75-1823c637f5f1","system_id":"levelo_inurba_marseille","lat":43.24072,"lon":5.37751,"is_reserved":false,"is_disabled":false,"rental_uris":{"android":"levelo://app?vid=1230955e-12ec-4dd5-9e75-1823c637f5f1","ios":"levelo://app?vid=1230955e-12ec-4dd5-9e75-1823c637f5f1"},"vehicle_type_id":"4","last_reported":1758802905,"current_range_meters":4800,"station_id":"ce4bhnp2rcd13ifvqgvg","pricing_plan_id":"cebpf4jnsgd1na2vs0mg"},{"bike_id":"3d476d69-4af4-40a8-8ecd-153d3d338261","system_id":"levelo_inurba_marseille","lat":43.27216,"lon":5.42926,"is_reserved":false,"is_disabled":false,"rental_uris":{"android":"levelo://app?vid=3d476d69-4af4-40a8-8ecd-153d3d338261","ios":"levelo://app?vid=3d476d69-4af4-40a8-8ecd-153d3d338261"},"vehicle_type_id":"4","last_reported":1758802905,"current_range_meters":5600,"station_id":"","pricing_plan_id":"cebpf4jnsgd1na2vs0mg"},{"bike_id":"7c0482c3-9253-4d1b-b4f3-be55cdb7721d","system_id":"levelo_inurba_marseille","lat":43.33757,"lon":5.37466,"is_reserved":false,"is_disabled":false,"rental_uris":{"android":"levelo://app?vid=7c0482c3-9253-4d1b-b4f3-be55cdb7721d","ios":"levelo://app?vid=7c0482c3-9253-4d1b-b4f3-be55cdb7721d"},"vehicle_type_id":"4","last_reported":1758802905,"current_range_meters":5600,"station_id":"","pricing_plan_id":"cebpf4jnsgd1na2vs0mg"},{"bike_id":"0815c3bf-32dd-48e9-99f7-4e964c8c20bb","system_id":"levelo_inurba_marseille","lat":43.29024,"lon":5.38638,"is_reserved":false,"is_disabled":false,"rental_uris":{"android":"levelo://app?vid=0815c3bf-32dd-48e9-99f7-4e964c8c20bb","ios":"levelo://app?vid=0815c3bf-32dd-48e9-99f7-4e964c8c20bb"},"vehicle_type_id":"4","last_reported":1758802905,"current_range_meters":5600,"station_id":"ce4bh4p2rcd13ifvqe0g","pricing_plan_id":"cebpf4jnsgd1na2vs0mg"},{"bike_id":"47a7f9ca-5ed2-4ec4-9f62-a2d4b96a4da3","system_id":"levelo_inurba_marseille","lat":43.28268,"lon":5.35066,"is_reserved":false,"is_disabled":false,"rental_uris":{"android":"levelo://app?vid=47a7f9ca-5ed2-4ec4-9f62-a2d4b96a4da3","ios":"levelo://app?vid=47a7f9ca-5ed2-4ec4-9f62-a2d4b96a4da3"},"vehicle_type_id":"4","last_reported":1758802905,"current_range_meters":5600,"station_id":"ce4bhbp2rcd13ifvqerg","pricing_plan_id":"cebpf4jnsgd1na2vs0mg"},{"bike_id":"7a6dc886-9127-4cb0-bb7a-bdde8308a5d0","system_id":"levelo_inurba_marseille","lat":43.34144,"lon":5.40899,"is_reserved":false,"is_disabled":false,"rental_uris":{"android":"levelo://app?vid=7a6dc886-9127-4cb0-bb7a-bdde8308a5d0","ios":"levelo://app?vid=7a6dc886-9127-4cb0-bb7a-bdde8308a5d0"},"vehicle_type_id":"4","last_reported":1758802905,"current_range_meters":5600,"station_id":"ce4bhqh2rcd13ifvqhlg","pricing_plan_id":"cebpf4jnsgd1na2vs0mg"},{"bike_id":"3b21f612-f678-44f5-b410-3799c4ebb03f","system_id":"levelo_inurba_marseille","lat":43.24798,"lon":5.37456,"is_reserved":false,"is_disabled":false,"rental_uris":{"android":"levelo://app?vid=3b21f612-f678-44f5-b410-3799c4ebb03f","ios":"levelo://app?vid=3b21f612-f678-44f5-b410-3799c4ebb03f"},"vehicle_type_id":"4","last_reported":1758802905,"current_range_meters":6000,"station_id":"ce4bhgh2rcd13ifvqfb0","pricing_plan_id":"cebpf4jnsgd1na2vs0mg"},{"bike_id":"84730910-4bf3-4a75-a5ea-4f51c19affdd","system_id":"levelo_inurba_marseille","lat":43.2962,"lon":5.37711,"is_reserved":false,"is_disabled":false,"rental_uris":{"android":"levelo://app?vid=84730910-4bf3-4a75-a5ea-4f51c19affdd","ios":"levelo://app?vid=84730910-4bf3-4a75-a5ea-4f51c19affdd"},"vehicle_type_id":"4","last_reported":1758802905,"current_range_meters":6000,"station_id":"ce4bgi92rcd13ifvqb90","pricing_plan_id":"cebpf4jnsgd1na2vs0mg"},{"bike_id":"0b5edc20-5925-42e8-b313-534f58df8348","system_id":"levelo_inurba_marseille","lat":43.27072,"lon":5.4228,"is_reserved":false,"is_disabled":false,"rental_uris":{"android":"levelo://app?vid=0b5edc20-5925-42e8-b313-534f58df8348","ios":"levelo://app?vid=0b5edc20-5925-42e8-b313-534f58df8348"},"vehicle_type_id":"4","last_reported":1758802905,"current_range_meters":6000,"station_id":"ce4bhk92rcd13ifvqgb0","pricing_plan_id":"cebpf4jnsgd1na2vs0mg"},{"bike_id":"676fa258-8411-40e3-857d-6e191db09b47","system_id":"levelo_inurba_marseille","lat":43.31701,"lon":5.40466,"is_reserved":false,"is_disabled":false,"rental_uris":{"android":"levelo://app?vid=676fa258-8411-40e3-857d-6e191db09b47","ios":"levelo://app?vid=676fa258-8411-40e3-857d-6e191db09b47"},"vehicle_type_id":"4","last_reported":1758802905,"current_range_meters":6400,"station_id":"ce4bh012rcd13ifvqd00","pricing_plan_id":"cebpf4jnsgd1na2vs0mg"},{"bike_id":"68186204-7c58-42c2-ac02-fb65dccafbf0","system_id":"levelo_inurba_marseille","lat":43.27377,"lon":5.36252,"is_reserved":false,"is_disabled":false,"rental_uris":{"android":"levelo://app?vid=68186204-7c58-42c2-ac02-fb65dccafbf0","ios":"levelo://app?vid=68186204-7c58-42c2-ac02-fb65dccafbf0"},"vehicle_type_id":"4","last_reported":1758802905,"current_range_meters":6400,"station_id":"ce4bhbh2rcd13ifvqeo0","pricing_plan_id":"cebpf4jnsgd1na2vs0mg"},{"bike_id":"b11ced11-f1b7-44f7-95cd-8d7449b675b6","system_id":"levelo_inurba_marseille","lat":43.26956,"lon":5.38621,"is_reserved":false,"is_disabled":false,"rental_uris":{"android":"levelo://app?vid=b11ced11-f1b7-44f7-95cd-8d7449b675b6","ios":"levelo://app?vid=b11ced11-f1b7-44f7-95cd-8d7449b675b6"},"vehicle_type_id":"4","last_reported":1758802905,"current_range_meters":6400,"station_id":"ce4bhh92rcd13ifvqfh0","pricing_plan_id":"cebpf4jnsgd1na2vs0mg"},{"bike_id":"939538dc-20bd-4d94-8a10-8e1e0a179bc7","system_id":"levelo_inurba_marseille","lat":43.30487,"lon":5.36639,"is_reserved":false,"is_disabled":false,"rental_uris":{"android":"levelo://app?vid=939538dc-20bd-4d94-8a10-8e1e0a179bc7","ios":"levelo://app?vid=939538dc-20bd-4d94-8a10-8e1e0a179bc7"},"vehicle_type_id":"4","last_reported":1758802905,"current_range_meters":6400,"station_id":"","pricing_plan_id":"cebpf4jnsgd1na2vs0mg"},{"bike_id":"6db8b94b-45ee-47f9-bff3-84b0af941556","system_id":"levelo_inurba_marseille","lat":43.29256,"lon":5.38429,"is_reserved":false,"is_disabled":true,"rental_uris":{"android":"levelo://app?vid=6db8b94b-45ee-47f9-bff3-84b0af941556","ios":"levelo://app?vid=6db8b94b-45ee-47f9-bff3-84b0af941556"},"vehicle_type_id":"4","last_reported":1758802905,"current_range_meters":6400,"station_id":"ce4bh692rcd13ifvqea0","pricing_plan_id":"cebpf4jnsgd1na2vs0mg"},{"bike_id":"bcebb3a1-ab7c-421f-952d-50fec9c24680","system_id":"levelo_inurba_marseille","lat":43.29566,"lon":5.37508,"is_reserved":false,"is_disabled":false,"rental_uris":{"android":"levelo://app?vid=bcebb3a1-ab7c-421f-952d-50fec9c24680","ios":"levelo://app?vid=bcebb3a1-ab7c-421f-952d-50fec9c24680"},"vehicle_type_id":"4","last_reported":1758802905,"current_range_meters":6400,"station_id":"ce4bgh92rcd13ifvqb50","pricing_plan_id":"cebpf4jnsgd1na2vs0mg"},{"bike_id":"056ac641-1eb3-4a0d-b8cc-33734dd295df","system_id":"levelo_inurba_marseille","lat":43.28475,"lon":5.38414,"is_reserved":false,"is_disabled":false,"rental_uris":{"android":"levelo://app?vid=056ac641-1eb3-4a0d-b8cc-33734dd295df","ios":"levelo://app?vid=056ac641-1eb3-4a0d-b8cc-33734dd295df"},"vehicle_type_id":"4","last_reported":1758802905,"current_range_meters":6400,"station_id":"ce4bh512rcd13ifvqe3g","pricing_plan_id":"cebpf4jnsgd1na2vs0mg"},{"bike_id":"f42461a5-4ffc-4070-af78-8a56e07264da","system_id":"levelo_inurba_marseille","lat":43.30141,"lon":5.38067,"is_reserved":false,"is_disabled":false,"rental_uris":{"android":"levelo://app?vid=f42461a5-4ffc-4070-af78-8a56e07264da","ios":"levelo://app?vid=f42461a5-4ffc-4070-af78-8a56e07264da"},"vehicle_type_id":"4","last_reported":1758802905,"current_range_meters":6800,"station_id":"ce4bgjp2rcd13ifvqbh0","pricing_plan_id":"cebpf4jnsgd1na2vs0mg"},{"bike_id":"0e2eeec7-a638-4adb-8d7d-1bec519d2c34","system_id":"levelo_inurba_marseille","lat":43.26215,"lon":5.37446,"is_reserved":false,"is_disabled":false,"rental_uris":{"android":"levelo://app?vid=0e2eeec7-a638-4adb-8d7d-1bec519d2c34","ios":"levelo://app?vid=0e2eeec7-a638-4adb-8d7d-1bec519d2c34"},"vehicle_type_id":"4","last_reported":1758802905,"current_range_meters":6800,"station_id":"ce4bhgp2rcd13ifvqfc0","pricing_plan_id":"cebpf4jnsgd1na2vs0mg"},{"bike_id":"9c4a7bdb-c552-4dfd-8efb-40b9e0b0b147","system_id":"levelo_inurba_marseille","lat":43.30912,"lon":5.36737,"is_reserved":false,"is_disabled":false,"rental_uris":{"android":"levelo://app?vid=9c4a7bdb-c552-4dfd-8efb-40b9e0b0b147","ios":"levelo://app?vid=9c4a7bdb-c552-4dfd-8efb-40b9e0b0b147"},"vehicle_type_id":"4","last_reported":1758802905,"current_range_meters":6800,"station_id":"","pricing_plan_id":"cebpf4jnsgd1na2vs0mg"},{"bike_id":"cbed4a55-e7fa-454f-a4e2-0af1776777a2","system_id":"levelo_inurba_marseille","lat":43.311784,"lon":5.387101,"is_reserved":false,"is_disabled":false,"rental_uris":{"android":"levelo://app?vid=cbed4a55-e7fa-454f-a4e2-0af1776777a2","ios":"levelo://app?vid=cbed4a55-e7fa-454f-a4e2-0af1776777a2"},"vehicle_type_id":"4","last_reported":1758802905,"current_range_meters":6400,"station_id":"ce4bguh2rcd13ifvqcj0","pricing_plan_id":"cebpf4jnsgd1na2vs0mg"},{"bike_id":"cb3d83dd-8277-415b-bc5d-a118e1200728","system_id":"levelo_inurba_marseille","lat":43.30101,"lon":5.4102,"is_reserved":false,"is_disabled":false,"rental_uris":{"android":"levelo://app?vid=cb3d83dd-8277-415b-bc5d-a118e1200728","ios":"levelo://app?vid=cb3d83dd-8277-415b-bc5d-a118e1200728"},"vehicle_type_id":"4","last_reported":1758802905,"current_range_meters":6800,"station_id":"","pricing_plan_id":"cebpf4jnsgd1na2vs0mg"},{"bike_id":"94df3c3f-e936-462f-bf71-e736902a408e","system_id":"levelo_inurba_marseille","lat":43.275757,"lon":5.384375,"is_reserved":false,"is_disabled":false,"rental_uris":{"android":"levelo://app?vid=94df3c3f-e936-462f-bf71-e736902a408e","ios":"levelo://app?vid=94df3c3f-e936-462f-bf71-e736902a408e"},"vehicle_type_id":"4","last_reported":1758802905,"current_range_meters":6800,"station_id":"ce4bhh92rcd13ifvqfi0","pricing_plan_id":"cebpf4jnsgd1na2vs0mg"},{"bike_id":"f684bdf5-de1b-440a-acfc-0d2eababec91","system_id":"levelo_inurba_marseille","lat":43.33606,"lon":5.41027,"is_reserved":false,"is_disabled":false,"rental_uris":{"android":"levelo://app?vid=f684bdf5-de1b-440a-acfc-0d2eababec91","ios":"levelo://app?vid=f684bdf5-de1b-440a-acfc-0d2eababec91"},"vehicle_type_id":"4","last_reported":1758802905,"current_range_meters":6800,"station_id":"ce4bhqh2rcd13ifvqhmg","pricing_plan_id":"cebpf4jnsgd1na2vs0mg"},{"bike_id":"136a707a-b224-4c44-8119-f846f7b7d0a7","system_id":"levelo_inurba_marseille","lat":43.29516,"lon":5.37375,"is_reserved":false,"is_disabled":false,"rental_uris":{"android":"levelo://app?vid=136a707a-b224-4c44-8119-f846f7b7d0a7","ios":"levelo://app?vid=136a707a-b224-4c44-8119-f846f7b7d0a7"},"vehicle_type_id":"4","last_reported":1758802905,"current_range_meters":7200,"station_id":"","pricing_plan_id":"cebpf4jnsgd1na2vs0mg"},{"bike_id":"61343015-8da6-4717-a174-1c0b21eb3ac8","system_id":"levelo_inurba_marseille","lat":43.30175,"lon":5.36587,"is_reserved":false,"is_disabled":false,"rental_uris":{"android":"levelo://app?vid=61343015-8da6-4717-a174-1c0b21eb3ac8","ios":"levelo://app?vid=61343015-8da6-4717-a174-1c0b21eb3ac8"},"vehicle_type_id":"4","last_reported":1758802905,"current_range_meters":7200,"station_id":"ce4bgrh2rcd13ifvqc8g","pricing_plan_id":"cebpf4jnsgd1na2vs0mg"},{"bike_id":"aa36360f-d817-405a-a8bf-3f450aee3943","system_id":"levelo_inurba_marseille","lat":43.29541,"lon":5.39396,"is_reserved":false,"is_disabled":false,"rental_uris":{"android":"levelo://app?vid=aa36360f-d817-405a-a8bf-3f450aee3943","ios":"levelo://app?vid=aa36360f-d817-405a-a8bf-3f450aee3943"},"vehicle_type_id":"4","last_reported":1758802905,"current_range_meters":7200,"station_id":"ce4bh292rcd13ifvqdf0","pricing_plan_id":"cebpf4jnsgd1na2vs0mg"},{"bike_id":"d98418d0-e5f6-4f81-8dce-73cb6ab70407","system_id":"levelo_inurba_marseille","lat":43.23154,"lon":5.43731,"is_reserved":false,"is_disabled":false,"rental_uris":{"android":"levelo://app?vid=d98418d0-e5f6-4f81-8dce-73cb6ab70407","ios":"levelo://app?vid=d98418d0-e5f6-4f81-8dce-73cb6ab70407"},"vehicle_type_id":"4","last_reported":1758802905,"current_range_meters":8000,"station_id":"ce4bhmp2rcd13ifvqgog","pricing_plan_id":"cebpf4jnsgd1na2vs0mg"},{"bike_id":"cbf14a57-e8bf-4b79-b691-a97f72d450ad","system_id":"levelo_inurba_marseille","lat":43.30544,"lon":5.36694,"is_reserved":false,"is_disabled":false,"rental_uris":{"android":"levelo://app?vid=cbf14a57-e8bf-4b79-b691-a97f72d450ad","ios":"levelo://app?vid=cbf14a57-e8bf-4b79-b691-a97f72d450ad"},"vehicle_type_id":"4","last_reported":1758802905,"current_range_meters":8000,"station_id":"ce4bgrp2rcd13ifvqc9g","pricing_plan_id":"cebpf4jnsgd1na2vs0mg"},{"bike_id":"4e737411-53ce-4bdf-9802-c3bc30d9bc94","system_id":"levelo_inurba_marseille","lat":43.29547,"lon":5.40638,"is_reserved":false,"is_disabled":false,"rental_uris":{"android":"levelo://app?vid=4e737411-53ce-4bdf-9802-c3bc30d9bc94","ios":"levelo://app?vid=4e737411-53ce-4bdf-9802-c3bc30d9bc94"},"vehicle_type_id":"4","last_reported":1758802905,"current_range_meters":8400,"station_id":"","pricing_plan_id":"cebpf4jnsgd1na2vs0mg"},{"bike_id":"b61a1c31-5a3d-4eda-8668-5d423eb3a343","system_id":"levelo_inurba_marseille","lat":43.29264,"lon":5.37616,"is_reserved":false,"is_disabled":false,"rental_uris":{"android":"levelo://app?vid=b61a1c31-5a3d-4eda-8668-5d423eb3a343","ios":"levelo://app?vid=b61a1c31-5a3d-4eda-8668-5d423eb3a343"},"vehicle_type_id":"4","last_reported":1758802905,"current_range_meters":8400,"station_id":"ce4bgi12rcd13ifvqb80","pricing_plan_id":"cebpf4jnsgd1na2vs0mg"},{"bike_id":"438ead59-de14-4fa0-a61d-03a70a4122ae","system_id":"levelo_inurba_marseille","lat":43.97269,"lon":4.89111,"is_reserved":false,"is_disabled":true,"rental_uris":{"android":"levelo://app?vid=438ead59-de14-4fa0-a61d-03a70a4122ae","ios":"levelo://app?vid=438ead59-de14-4fa0-a61d-03a70a4122ae"},"vehicle_type_id":"4","last_reported":1758802905,"current_range_meters":8400,"station_id":"","pricing_plan_id":"cebpf4jnsgd1na2vs0mg"},{"bike_id":"e86de4ee-784b-4ad3-9945-ccfde32259ef","system_id":"levelo_inurba_marseille","lat":43.26788,"lon":5.3943,"is_reserved":false,"is_disabled":false,"rental_uris":{"android":"levelo://app?vid=e86de4ee-784b-4ad3-9945-ccfde32259ef","ios":"levelo://app?vid=e86de4ee-784b-4ad3-9945-ccfde32259ef"},"vehicle_type_id":"4","last_reported":1758802905,"current_range_meters":8800,"station_id":"ce4bhh12rcd13ifvqfg0","pricing_plan_id":"cebpf4jnsgd1na2vs0mg"},{"bike_id":"92920a23-c363-48b4-b624-39587ce27378","system_id":"levelo_inurba_marseille","lat":43.26554,"lon":5.37284,"is_reserved":false,"is_disabled":false,"rental_uris":{"android":"levelo://app?vid=92920a23-c363-48b4-b624-39587ce27378","ios":"levelo://app?vid=92920a23-c363-48b4-b624-39587ce27378"},"vehicle_type_id":"4","last_reported":1758802905,"current_range_meters":8800,"station_id":"ce4bhg12rcd13ifvqf70","pricing_plan_id":"cebpf4jnsgd1na2vs0mg"},{"bike_id":"77daa39a-6d92-4fe8-8266-f8eceab04af2","system_id":"levelo_inurba_marseille","lat":43.29904,"lon":5.36303,"is_reserved":false,"is_disabled":false,"rental_uris":{"android":"levelo://app?vid=77daa39a-6d92-4fe8-8266-f8eceab04af2","ios":"levelo://app?vid=77daa39a-6d92-4fe8-8266-f8eceab04af2"},"vehicle_type_id":"4","last_reported":1758802905,"current_range_meters":8800,"station_id":"","pricing_plan_id":"cebpf4jnsgd1na2vs0mg"},{"bike_id":"d16c568a-77de-423c-a91e-bbcd9a55a495","system_id":"levelo_inurba_marseille","lat":43.2315,"lon":5.43717,"is_reserved":false,"is_disabled":false,"rental_uris":{"android":"levelo://app?vid=d16c568a-77de-423c-a91e-bbcd9a55a495","ios":"levelo://app?vid=d16c568a-77de-423c-a91e-bbcd9a55a495"},"vehicle_type_id":"4","last_reported":1758802905,"current_range_meters":8800,"station_id":"ce4bhmp2rcd13ifvqgog","pricing_plan_id":"cebpf4jnsgd1na2vs0mg"},{"bike_id":"24341940-0cc6-4bd8-994d-769f944ee60c","system_id":"levelo_inurba_marseille","lat":43.23198,"lon":5.35546,"is_reserved":false,"is_disabled":false,"rental_uris":{"android":"levelo://app?vid=24341940-0cc6-4bd8-994d-769f944ee60c","ios":"levelo://app?vid=24341940-0cc6-4bd8-994d-769f944ee60c"},"vehicle_type_id":"4","last_reported":1758802905,"current_range_meters":9200,"station_id":"ce4bhu92rcd13ifvqi70","pricing_plan_id":"cebpf4jnsgd1na2vs0mg"},{"bike_id":"3c45f17b-fb8b-4f2a-b14b-0894fce0d912","system_id":"levelo_inurba_marseille","lat":43.30539,"lon":5.36557,"is_reserved":false,"is_disabled":false,"rental_uris":{"android":"levelo://app?vid=3c45f17b-fb8b-4f2a-b14b-0894fce0d912","ios":"levelo://app?vid=3c45f17b-fb8b-4f2a-b14b-0894fce0d912"},"vehicle_type_id":"4","last_reported":1758802905,"current_range_meters":9200,"station_id":"ce4bgs12rcd13ifvqcag","pricing_plan_id":"cebpf4jnsgd1na2vs0mg"},{"bike_id":"7280e9e2-bebf-43bc-8667-4b7f3bd00a84","system_id":"levelo_inurba_marseille","lat":43.29197,"lon":5.35813,"is_reserved":false,"is_disabled":false,"rental_uris":{"android":"levelo://app?vid=7280e9e2-bebf-43bc-8667-4b7f3bd00a84","ios":"levelo://app?vid=7280e9e2-bebf-43bc-8667-4b7f3bd00a84"},"vehicle_type_id":"4","last_reported":1758802905,"current_range_meters":9200,"station_id":"ce4bhb12rcd13ifvqel0","pricing_plan_id":"cebpf4jnsgd1na2vs0mg"},{"bike_id":"47c4f3ab-ac15-4b3d-a5f9-5573a07d0401","system_id":"levelo_inurba_marseille","lat":43.22568,"lon":5.41641,"is_reserved":false,"is_disabled":false,"rental_uris":{"android":"levelo://app?vid=47c4f3ab-ac15-4b3d-a5f9-5573a07d0401","ios":"levelo://app?vid=47c4f3ab-ac15-4b3d-a5f9-5573a07d0401"},"vehicle_type_id":"4","last_reported":1758802905,"current_range_meters":9200,"station_id":"st_d2o4gvlbi1j2169b742g","pricing_plan_id":"cebpf4jnsgd1na2vs0mg"},{"bike_id":"4dceb4c9-9149-4216-a518-fde927f46f81","system_id":"levelo_inurba_marseille","lat":43.28568,"lon":5.3951,"is_reserved":false,"is_disabled":false,"rental_uris":{"android":"levelo://app?vid=4dceb4c9-9149-4216-a518-fde927f46f81","ios":"levelo://app?vid=4dceb4c9-9149-4216-a518-fde927f46f81"},"vehicle_type_id":"4","last_reported":1758802905,"current_range_meters":8800,"station_id":"ce4bh292rcd13ifvqdg0","pricing_plan_id":"cebpf4jnsgd1na2vs0mg"},{"bike_id":"1a69bfa2-0353-449c-a7f1-f7a84a47425c","system_id":"levelo_inurba_marseille","lat":43.28429,"lon":5.34994,"is_reserved":false,"is_disabled":false,"rental_uris":{"android":"levelo://app?vid=1a69bfa2-0353-449c-a7f1-f7a84a47425c","ios":"levelo://app?vid=1a69bfa2-0353-449c-a7f1-f7a84a47425c"},"vehicle_type_id":"4","last_reported":1758802905,"current_range_meters":9200,"station_id":"ce4bhbh2rcd13ifvqepg","pricing_plan_id":"cebpf4jnsgd1na2vs0mg"},{"bike_id":"ae4d123c-65ee-4c52-8933-f4b14d3f9582","system_id":"levelo_inurba_marseille","lat":43.22584,"lon":5.41628,"is_reserved":false,"is_disabled":false,"rental_uris":{"android":"levelo://app?vid=ae4d123c-65ee-4c52-8933-f4b14d3f9582","ios":"levelo://app?vid=ae4d123c-65ee-4c52-8933-f4b14d3f9582"},"vehicle_type_id":"4","last_reported":1758802905,"current_range_meters":9600,"station_id":"st_d2o4gvlbi1j2169b742g","pricing_plan_id":"cebpf4jnsgd1na2vs0mg"},{"bike_id":"2eb39394-d3a5-4ea9-877e-2bde924ae62b","system_id":"levelo_inurba_marseille","lat":43.24803,"lon":5.37448,"is_reserved":false,"is_disabled":false,"rental_uris":{"android":"levelo://app?vid=2eb39394-d3a5-4ea9-877e-2bde924ae62b","ios":"levelo://app?vid=2eb39394-d3a5-4ea9-877e-2bde924ae62b"},"vehicle_type_id":"4","last_reported":1758802905,"current_range_meters":9600,"station_id":"ce4bhgh2rcd13ifvqfb0","pricing_plan_id":"cebpf4jnsgd1na2vs0mg"},{"bike_id":"06c10839-75c7-457b-804b-f341157fb4f3","system_id":"levelo_inurba_marseille","lat":43.25051,"lon":5.4046,"is_reserved":false,"is_disabled":false,"rental_uris":{"android":"levelo://app?vid=06c10839-75c7-457b-804b-f341157fb4f3","ios":"levelo://app?vid=06c10839-75c7-457b-804b-f341157fb4f3"},"vehicle_type_id":"4","last_reported":1758802905,"current_range_meters":9600,"station_id":"","pricing_plan_id":"cebpf4jnsgd1na2vs0mg"},{"bike_id":"f98e3c43-204e-4f44-bd6e-91e4cc2402c0","system_id":"levelo_inurba_marseille","lat":43.296006,"lon":5.403931,"is_reserved":false,"is_disabled":false,"rental_uris":{"android":"levelo://app?vid=f98e3c43-204e-4f44-bd6e-91e4cc2402c0","ios":"levelo://app?vid=f98e3c43-204e-4f44-bd6e-91e4cc2402c0"},"vehicle_type_id":"4","last_reported":1758802905,"current_range_meters":9200,"station_id":"ce4bh0h2rcd13ifvqd60","pricing_plan_id":"cebpf4jnsgd1na2vs0mg"},{"bike_id":"b7d15b37-9a5f-4b39-995a-987ae6496a26","system_id":"levelo_inurba_marseille","lat":43.32478,"lon":5.3658,"is_reserved":false,"is_disabled":false,"rental_uris":{"android":"levelo://app?vid=b7d15b37-9a5f-4b39-995a-987ae6496a26","ios":"levelo://app?vid=b7d15b37-9a5f-4b39-995a-987ae6496a26"},"vehicle_type_id":"4","last_reported":1758802905,"current_range_meters":9600,"station_id":"ce4bhs12rcd13ifvqhvg","pricing_plan_id":"cebpf4jnsgd1na2vs0mg"},{"bike_id":"d2be082e-bd73-4203-addb-18871b3a9587","system_id":"levelo_inurba_marseille","lat":43.29419,"lon":5.374841,"is_reserved":false,"is_disabled":false,"rental_uris":{"android":"levelo://app?vid=d2be082e-bd73-4203-addb-18871b3a9587","ios":"levelo://app?vid=d2be082e-bd73-4203-addb-18871b3a9587"},"vehicle_type_id":"4","last_reported":1758802905,"current_range_meters":9600,"station_id":"","pricing_plan_id":"cebpf4jnsgd1na2vs0mg"},{"bike_id":"94b2f036-4ca4-4693-89f2-72df2150ee98","system_id":"levelo_inurba_marseille","lat":43.258265,"lon":5.394374,"is_reserved":false,"is_disabled":false,"rental_uris":{"android":"levelo://app?vid=94b2f036-4ca4-4693-89f2-72df2150ee98","ios":"levelo://app?vid=94b2f036-4ca4-4693-89f2-72df2150ee98"},"vehicle_type_id":"4","last_reported":1758802905,"current_range_meters":9600,"station_id":"ce4bhip2rcd13ifvqft0","pricing_plan_id":"cebpf4jnsgd1na2vs0mg"},{"bike_id":"1ca7d202-2d28-4037-b76a-fed1cef5aa79","system_id":"levelo_inurba_marseille","lat":43.299762,"lon":5.371806,"is_reserved":false,"is_disabled":false,"rental_uris":{"android":"levelo://app?vid=1ca7d202-2d28-4037-b76a-fed1cef5aa79","ios":"levelo://app?vid=1ca7d202-2d28-4037-b76a-fed1cef5aa79"},"vehicle_type_id":"4","last_reported":1758802905,"current_range_meters":9600,"station_id":"ce4bgr92rcd13ifvqc7g","pricing_plan_id":"cebpf4jnsgd1na2vs0mg"},{"bike_id":"450844ba-2fc2-47be-9959-8fee61f07fb6","system_id":"levelo_inurba_marseille","lat":43.31741,"lon":5.39024,"is_reserved":false,"is_disabled":false,"rental_uris":{"android":"levelo://app?vid=450844ba-2fc2-47be-9959-8fee61f07fb6","ios":"levelo://app?vid=450844ba-2fc2-47be-9959-8fee61f07fb6"},"vehicle_type_id":"4","last_reported":1758802905,"current_range_meters":10000,"station_id":"ce4bhqp2rcd13ifvqhng","pricing_plan_id":"cebpf4jnsgd1na2vs0mg"},{"bike_id":"bf1244d3-d7e7-45bd-8580-d0cbc34b36e3","system_id":"levelo_inurba_marseille","lat":43.22568,"lon":5.41629,"is_reserved":false,"is_disabled":false,"rental_uris":{"android":"levelo://app?vid=bf1244d3-d7e7-45bd-8580-d0cbc34b36e3","ios":"levelo://app?vid=bf1244d3-d7e7-45bd-8580-d0cbc34b36e3"},"vehicle_type_id":"4","last_reported":1758802905,"current_range_meters":10000,"station_id":"st_d2o4gvlbi1j2169b742g","pricing_plan_id":"cebpf4jnsgd1na2vs0mg"},{"bike_id":"404ef866-e4bd-4c2e-a59f-e49edb711cb4","system_id":"levelo_inurba_marseille","lat":43.33607,"lon":5.41015,"is_reserved":false,"is_disabled":false,"rental_uris":{"android":"levelo://app?vid=404ef866-e4bd-4c2e-a59f-e49edb711cb4","ios":"levelo://app?vid=404ef866-e4bd-4c2e-a59f-e49edb711cb4"},"vehicle_type_id":"4","last_reported":1758802905,"current_range_meters":10000,"station_id":"ce4bhqh2rcd13ifvqhmg","pricing_plan_id":"cebpf4jnsgd1na2vs0mg"},{"bike_id":"69d3e1e1-1746-429a-abd4-12f45b00605f","system_id":"levelo_inurba_marseille","lat":43.29196,"lon":5.35804,"is_reserved":false,"is_disabled":false,"rental_uris":{"android":"levelo://app?vid=69d3e1e1-1746-429a-abd4-12f45b00605f","ios":"levelo://app?vid=69d3e1e1-1746-429a-abd4-12f45b00605f"},"vehicle_type_id":"4","last_reported":1758802905,"current_range_meters":10000,"station_id":"ce4bhb12rcd13ifvqel0","pricing_plan_id":"cebpf4jnsgd1na2vs0mg"},{"bike_id":"be3a34af-a80f-4788-95e7-7c28c89a6ba7","system_id":"levelo_inurba_marseille","lat":43.27308,"lon":5.39078,"is_reserved":false,"is_disabled":false,"rental_uris":{"android":"levelo://app?vid=be3a34af-a80f-4788-95e7-7c28c89a6ba7","ios":"levelo://app?vid=be3a34af-a80f-4788-95e7-7c28c89a6ba7"},"vehicle_type_id":"4","last_reported":1758802905,"current_range_meters":10000,"station_id":"ce4bhgp2rcd13ifvqfe0","pricing_plan_id":"cebpf4jnsgd1na2vs0mg"},{"bike_id":"4d8c0619-2764-4088-8319-d4267089fb3b","system_id":"levelo_inurba_marseille","lat":43.30162,"lon":5.38076,"is_reserved":false,"is_disabled":false,"rental_uris":{"android":"levelo://app?vid=4d8c0619-2764-4088-8319-d4267089fb3b","ios":"levelo://app?vid=4d8c0619-2764-4088-8319-d4267089fb3b"},"vehicle_type_id":"4","last_reported":1758802905,"current_range_meters":10000,"station_id":"ce4bgjp2rcd13ifvqbh0","pricing_plan_id":"cebpf4jnsgd1na2vs0mg"},{"bike_id":"3a83ddcd-ce03-4ed4-a7fa-b273c2464f02","system_id":"levelo_inurba_marseille","lat":43.27941,"lon":5.36326,"is_reserved":false,"is_disabled":false,"rental_uris":{"android":"levelo://app?vid=3a83ddcd-ce03-4ed4-a7fa-b273c2464f02","ios":"levelo://app?vid=3a83ddcd-ce03-4ed4-a7fa-b273c2464f02"},"vehicle_type_id":"4","last_reported":1758802905,"current_range_meters":10000,"station_id":"","pricing_plan_id":"cebpf4jnsgd1na2vs0mg"},{"bike_id":"692ff399-e238-4520-ad11-65a0ddf4484a","system_id":"levelo_inurba_marseille","lat":43.27998,"lon":5.4001,"is_reserved":false,"is_disabled":false,"rental_uris":{"android":"levelo://app?vid=692ff399-e238-4520-ad11-65a0ddf4484a","ios":"levelo://app?vid=692ff399-e238-4520-ad11-65a0ddf4484a"},"vehicle_type_id":"4","last_reported":1758802905,"current_range_meters":10000,"station_id":"ce4bho92rcd13ifvqh4g","pricing_plan_id":"cebpf4jnsgd1na2vs0mg"},{"bike_id":"d5e141c0-ba2e-42b0-b748-19bde5abe72f","system_id":"levelo_inurba_marseille","lat":43.25775,"lon":5.41033,"is_reserved":false,"is_disabled":false,"rental_uris":{"android":"levelo://app?vid=d5e141c0-ba2e-42b0-b748-19bde5abe72f","ios":"levelo://app?vid=d5e141c0-ba2e-42b0-b748-19bde5abe72f"},"vehicle_type_id":"4","last_reported":1758802905,"current_range_meters":10000,"station_id":"","pricing_plan_id":"cebpf4jnsgd1na2vs0mg"},{"bike_id":"0040a090-28e7-4bdb-9812-cf35b4c1ee3a","system_id":"levelo_inurba_marseille","lat":43.29031,"lon":5.37564,"is_reserved":false,"is_disabled":false,"rental_uris":{"android":"levelo://app?vid=0040a090-28e7-4bdb-9812-cf35b4c1ee3a","ios":"levelo://app?vid=0040a090-28e7-4bdb-9812-cf35b4c1ee3a"},"vehicle_type_id":"4","last_reported":1758802905,"current_range_meters":10000,"station_id":"ce4bh692rcd13ifvqe90","pricing_plan_id":"cebpf4jnsgd1na2vs0mg"},{"bike_id":"528cf4cd-cc0f-4733-aaeb-469fc4a2d8ea","system_id":"levelo_inurba_marseille","lat":43.23197,"lon":5.35552,"is_reserved":false,"is_disabled":false,"rental_uris":{"android":"levelo://app?vid=528cf4cd-cc0f-4733-aaeb-469fc4a2d8ea","ios":"levelo://app?vid=528cf4cd-cc0f-4733-aaeb-469fc4a2d8ea"},"vehicle_type_id":"4","last_reported":1758802905,"current_range_meters":10000,"station_id":"ce4bhu92rcd13ifvqi70","pricing_plan_id":"cebpf4jnsgd1na2vs0mg"},{"bike_id":"0ef81889-2d7f-4e70-b480-0b08f55cbfba","system_id":"levelo_inurba_marseille","lat":43.30842,"lon":5.36827,"is_reserved":false,"is_disabled":false,"rental_uris":{"android":"levelo://app?vid=0ef81889-2d7f-4e70-b480-0b08f55cbfba","ios":"levelo://app?vid=0ef81889-2d7f-4e70-b480-0b08f55cbfba"},"vehicle_type_id":"4","last_reported":1758802905,"current_range_meters":10000,"station_id":"","pricing_plan_id":"cebpf4jnsgd1na2vs0mg"},{"bike_id":"117acf13-6b03-4ee3-b4a5-edb1f47e11bc","system_id":"levelo_inurba_marseille","lat":43.26843,"lon":5.38697,"is_reserved":false,"is_disabled":false,"rental_uris":{"android":"levelo://app?vid=117acf13-6b03-4ee3-b4a5-edb1f47e11bc","ios":"levelo://app?vid=117acf13-6b03-4ee3-b4a5-edb1f47e11bc"},"vehicle_type_id":"4","last_reported":1758802905,"current_range_meters":10000,"station_id":"","pricing_plan_id":"cebpf4jnsgd1na2vs0mg"},{"bike_id":"3e947ff5-f3b5-4b4a-96ee-9b9b598b70f6","system_id":"levelo_inurba_marseille","lat":43.32483,"lon":5.3657,"is_reserved":false,"is_disabled":false,"rental_uris":{"android":"levelo://app?vid=3e947ff5-f3b5-4b4a-96ee-9b9b598b70f6","ios":"levelo://app?vid=3e947ff5-f3b5-4b4a-96ee-9b9b598b70f6"},"vehicle_type_id":"4","last_reported":1758802905,"current_range_meters":10000,"station_id":"ce4bhs12rcd13ifvqhvg","pricing_plan_id":"cebpf4jnsgd1na2vs0mg"},{"bike_id":"7efba0f6-b0ca-4a79-892a-f13bd56ebd8d","system_id":"levelo_inurba_marseille","lat":43.29034,"lon":5.3999,"is_reserved":false,"is_disabled":false,"rental_uris":{"android":"levelo://app?vid=7efba0f6-b0ca-4a79-892a-f13bd56ebd8d","ios":"levelo://app?vid=7efba0f6-b0ca-4a79-892a-f13bd56ebd8d"},"vehicle_type_id":"4","last_reported":1758802905,"current_range_meters":10800,"station_id":"ce4bh392rcd13ifvqdm0","pricing_plan_id":"cebpf4jnsgd1na2vs0mg"},{"bike_id":"379911e0-a8b9-4b05-96ac-c75be54d3c45","system_id":"levelo_inurba_marseille","lat":43.288618,"lon":5.425271,"is_reserved":false,"is_disabled":false,"rental_uris":{"android":"levelo://app?vid=379911e0-a8b9-4b05-96ac-c75be54d3c45","ios":"levelo://app?vid=379911e0-a8b9-4b05-96ac-c75be54d3c45"},"vehicle_type_id":"4","last_reported":1758802905,"current_range_meters":10800,"station_id":"","pricing_plan_id":"cebpf4jnsgd1na2vs0mg"},{"bike_id":"0e9ca394-4351-4bf8-a641-f4e5215baf20","system_id":"levelo_inurba_marseille","lat":43.28292,"lon":5.35055,"is_reserved":false,"is_disabled":false,"rental_uris":{"android":"levelo://app?vid=0e9ca394-4351-4bf8-a641-f4e5215baf20","ios":"levelo://app?vid=0e9ca394-4351-4bf8-a641-f4e5215baf20"},"vehicle_type_id":"4","last_reported":1758802905,"current_range_meters":11200,"station_id":"ce4bhbp2rcd13ifvqerg","pricing_plan_id":"cebpf4jnsgd1na2vs0mg"},{"bike_id":"c9075cf3-22c5-4198-9b5a-3df9086d960d","system_id":"levelo_inurba_marseille","lat":43.26966,"lon":5.38622,"is_reserved":false,"is_disabled":false,"rental_uris":{"android":"levelo://app?vid=c9075cf3-22c5-4198-9b5a-3df9086d960d","ios":"levelo://app?vid=c9075cf3-22c5-4198-9b5a-3df9086d960d"},"vehicle_type_id":"4","last_reported":1758802905,"current_range_meters":11200,"station_id":"ce4bhh92rcd13ifvqfh0","pricing_plan_id":"cebpf4jnsgd1na2vs0mg"},{"bike_id":"930801c6-982e-48e3-983e-f39dedc3da20","system_id":"levelo_inurba_marseille","lat":43.24952,"lon":5.40484,"is_reserved":false,"is_disabled":false,"rental_uris":{"android":"levelo://app?vid=930801c6-982e-48e3-983e-f39dedc3da20","ios":"levelo://app?vid=930801c6-982e-48e3-983e-f39dedc3da20"},"vehicle_type_id":"4","last_reported":1758802905,"current_range_meters":11200,"station_id":"st_d2ngiaodas8pm72gd1h0","pricing_plan_id":"cebpf4jnsgd1na2vs0mg"},{"bike_id":"8584eb3e-f7b4-4300-97fe-005a37d8d75b","system_id":"levelo_inurba_marseille","lat":43.36865,"lon":5.36302,"is_reserved":false,"is_disabled":false,"rental_uris":{"android":"levelo://app?vid=8584eb3e-f7b4-4300-97fe-005a37d8d75b","ios":"levelo://app?vid=8584eb3e-f7b4-4300-97fe-005a37d8d75b"},"vehicle_type_id":"4","last_reported":1758802905,"current_range_meters":11200,"station_id":"","pricing_plan_id":"cebpf4jnsgd1na2vs0mg"},{"bike_id":"8eae954c-dab6-4303-94f5-569e1c483f62","system_id":"levelo_inurba_marseille","lat":43.29474,"lon":5.40733,"is_reserved":false,"is_disabled":false,"rental_uris":{"android":"levelo://app?vid=8eae954c-dab6-4303-94f5-569e1c483f62","ios":"levelo://app?vid=8eae954c-dab6-4303-94f5-569e1c483f62"},"vehicle_type_id":"4","last_reported":1758802905,"current_range_meters":11600,"station_id":"","pricing_plan_id":"cebpf4jnsgd1na2vs0mg"},{"bike_id":"b978cd69-0c33-4a33-a6d8-0a68559dbc39","system_id":"levelo_inurba_marseille","lat":43.30155,"lon":5.37417,"is_reserved":false,"is_disabled":false,"rental_uris":{"android":"levelo://app?vid=b978cd69-0c33-4a33-a6d8-0a68559dbc39","ios":"levelo://app?vid=b978cd69-0c33-4a33-a6d8-0a68559dbc39"},"vehicle_type_id":"4","last_reported":1758802905,"current_range_meters":11600,"station_id":"ce4bgs92rcd13ifvqcc0","pricing_plan_id":"cebpf4jnsgd1na2vs0mg"},{"bike_id":"c34cd464-5d4b-462e-a363-5b3baac95668","system_id":"levelo_inurba_marseille","lat":43.33792,"lon":5.374664,"is_reserved":false,"is_disabled":false,"rental_uris":{"android":"levelo://app?vid=c34cd464-5d4b-462e-a363-5b3baac95668","ios":"levelo://app?vid=c34cd464-5d4b-462e-a363-5b3baac95668"},"vehicle_type_id":"4","last_reported":1758802905,"current_range_meters":11600,"station_id":"","pricing_plan_id":"cebpf4jnsgd1na2vs0mg"},{"bike_id":"d5632eaf-207f-4351-be9c-95c58bc9c538","system_id":"levelo_inurba_marseille","lat":43.29567,"lon":5.37542,"is_reserved":false,"is_disabled":true,"rental_uris":{"android":"levelo://app?vid=d5632eaf-207f-4351-be9c-95c58bc9c538","ios":"levelo://app?vid=d5632eaf-207f-4351-be9c-95c58bc9c538"},"vehicle_type_id":"4","last_reported":1758802905,"current_range_meters":12000,"station_id":"ce4bgh92rcd13ifvqb50","pricing_plan_id":"cebpf4jnsgd1na2vs0mg"},{"bike_id":"cfba7b81-2ab1-407b-80c3-4649bd12e934","system_id":"levelo_inurba_marseille","lat":43.27314,"lon":5.39072,"is_reserved":false,"is_disabled":false,"rental_uris":{"android":"levelo://app?vid=cfba7b81-2ab1-407b-80c3-4649bd12e934","ios":"levelo://app?vid=cfba7b81-2ab1-407b-80c3-4649bd12e934"},"vehicle_type_id":"4","last_reported":1758802905,"current_range_meters":12000,"station_id":"ce4bhgp2rcd13ifvqfe0","pricing_plan_id":"cebpf4jnsgd1na2vs0mg"},{"bike_id":"34674e84-8c28-42f2-b2b9-e63abc4c0448","system_id":"levelo_inurba_marseille","lat":43.22392,"lon":5.34661,"is_reserved":false,"is_disabled":false,"rental_uris":{"android":"levelo://app?vid=34674e84-8c28-42f2-b2b9-e63abc4c0448","ios":"levelo://app?vid=34674e84-8c28-42f2-b2b9-e63abc4c0448"},"vehicle_type_id":"4","last_reported":1758802905,"current_range_meters":12000,"station_id":"","pricing_plan_id":"cebpf4jnsgd1na2vs0mg"},{"bike_id":"c5df0f87-d219-407b-8b11-01a776704fcd","system_id":"levelo_inurba_marseille","lat":43.29796,"lon":5.37106,"is_reserved":false,"is_disabled":false,"rental_uris":{"android":"levelo://app?vid=c5df0f87-d219-407b-8b11-01a776704fcd","ios":"levelo://app?vid=c5df0f87-d219-407b-8b11-01a776704fcd"},"vehicle_type_id":"4","last_reported":1758802905,"current_range_meters":12000,"station_id":"ce4bgop2rcd13ifvqc1g","pricing_plan_id":"cebpf4jnsgd1na2vs0mg"},{"bike_id":"3b31d633-b5d5-4cb8-bc19-6e3745360861","system_id":"levelo_inurba_marseille","lat":43.31227,"lon":5.36852,"is_reserved":false,"is_disabled":false,"rental_uris":{"android":"levelo://app?vid=3b31d633-b5d5-4cb8-bc19-6e3745360861","ios":"levelo://app?vid=3b31d633-b5d5-4cb8-bc19-6e3745360861"},"vehicle_type_id":"4","last_reported":1758802905,"current_range_meters":12000,"station_id":"ce4bgl92rcd13ifvqbq0","pricing_plan_id":"cebpf4jnsgd1na2vs0mg"},{"bike_id":"003515e8-8117-44bb-979d-5f47e8d50fda","system_id":"levelo_inurba_marseille","lat":43.3065,"lon":5.37585,"is_reserved":false,"is_disabled":false,"rental_uris":{"android":"levelo://app?vid=003515e8-8117-44bb-979d-5f47e8d50fda","ios":"levelo://app?vid=003515e8-8117-44bb-979d-5f47e8d50fda"},"vehicle_type_id":"4","last_reported":1758802905,"current_range_meters":12400,"station_id":"","pricing_plan_id":"cebpf4jnsgd1na2vs0mg"},{"bike_id":"4ed9442b-8d76-48e4-b297-5e708eff2d9a","system_id":"levelo_inurba_marseille","lat":43.28268,"lon":5.35064,"is_reserved":false,"is_disabled":false,"rental_uris":{"android":"levelo://app?vid=4ed9442b-8d76-48e4-b297-5e708eff2d9a","ios":"levelo://app?vid=4ed9442b-8d76-48e4-b297-5e708eff2d9a"},"vehicle_type_id":"4","last_reported":1758802905,"current_range_meters":12400,"station_id":"ce4bhbp2rcd13ifvqerg","pricing_plan_id":"cebpf4jnsgd1na2vs0mg"},{"bike_id":"0c16ac8a-a536-4d89-a0b4-2803631fd83e","system_id":"levelo_inurba_marseille","lat":43.25009,"lon":5.38923,"is_reserved":false,"is_disabled":false,"rental_uris":{"android":"levelo://app?vid=0c16ac8a-a536-4d89-a0b4-2803631fd83e","ios":"levelo://app?vid=0c16ac8a-a536-4d89-a0b4-2803631fd83e"},"vehicle_type_id":"4","last_reported":1758802905,"current_range_meters":12400,"station_id":"ce4bhgp2rcd13ifvqfd0","pricing_plan_id":"cebpf4jnsgd1na2vs0mg"},{"bike_id":"bdec3261-de13-477f-818b-7af8ae1d1f6a","system_id":"levelo_inurba_marseille","lat":43.23954,"lon":5.3768,"is_reserved":false,"is_disabled":false,"rental_uris":{"android":"levelo://app?vid=bdec3261-de13-477f-818b-7af8ae1d1f6a","ios":"levelo://app?vid=bdec3261-de13-477f-818b-7af8ae1d1f6a"},"vehicle_type_id":"4","last_reported":1758802905,"current_range_meters":12400,"station_id":"","pricing_plan_id":"cebpf4jnsgd1na2vs0mg"},{"bike_id":"f295db90-bac2-432b-b21c-e5c74b310cdb","system_id":"levelo_inurba_marseille","lat":43.31328,"lon":5.39685,"is_reserved":false,"is_disabled":false,"rental_uris":{"android":"levelo://app?vid=f295db90-bac2-432b-b21c-e5c74b310cdb","ios":"levelo://app?vid=f295db90-bac2-432b-b21c-e5c74b310cdb"},"vehicle_type_id":"4","last_reported":1758802905,"current_range_meters":12400,"station_id":"ce4bgvp2rcd13ifvqcu0","pricing_plan_id":"cebpf4jnsgd1na2vs0mg"},{"bike_id":"9fd15e46-d713-423e-ab94-b5de949787aa","system_id":"levelo_inurba_marseille","lat":43.26559,"lon":5.3728,"is_reserved":false,"is_disabled":false,"rental_uris":{"android":"levelo://app?vid=9fd15e46-d713-423e-ab94-b5de949787aa","ios":"levelo://app?vid=9fd15e46-d713-423e-ab94-b5de949787aa"},"vehicle_type_id":"4","last_reported":1758802905,"current_range_meters":12400,"station_id":"ce4bhg12rcd13ifvqf70","pricing_plan_id":"cebpf4jnsgd1na2vs0mg"},{"bike_id":"a6ad0c6c-868d-42f3-ba54-573e1a175a36","system_id":"levelo_inurba_marseille","lat":43.26247,"lon":5.41294,"is_reserved":false,"is_disabled":false,"rental_uris":{"android":"levelo://app?vid=a6ad0c6c-868d-42f3-ba54-573e1a175a36","ios":"levelo://app?vid=a6ad0c6c-868d-42f3-ba54-573e1a175a36"},"vehicle_type_id":"4","last_reported":1758802905,"current_range_meters":12400,"station_id":"","pricing_plan_id":"cebpf4jnsgd1na2vs0mg"},{"bike_id":"d1035cda-0828-4480-ab90-b06087f3ef72","system_id":"levelo_inurba_marseille","lat":43.255788,"lon":5.382486,"is_reserved":false,"is_disabled":false,"rental_uris":{"android":"levelo://app?vid=d1035cda-0828-4480-ab90-b06087f3ef72","ios":"levelo://app?vid=d1035cda-0828-4480-ab90-b06087f3ef72"},"vehicle_type_id":"4","last_reported":1758802905,"current_range_meters":12400,"station_id":"ce4bhih2rcd13ifvqfs0","pricing_plan_id":"cebpf4jnsgd1na2vs0mg"},{"bike_id":"f0c5386a-9938-4d6a-81e8-14ec0c5e2580","system_id":"levelo_inurba_marseille","lat":43.3185,"lon":5.38438,"is_reserved":false,"is_disabled":false,"rental_uris":{"android":"levelo://app?vid=f0c5386a-9938-4d6a-81e8-14ec0c5e2580","ios":"levelo://app?vid=f0c5386a-9938-4d6a-81e8-14ec0c5e2580"},"vehicle_type_id":"4","last_reported":1758802905,"current_range_meters":12800,"station_id":"","pricing_plan_id":"cebpf4jnsgd1na2vs0mg"},{"bike_id":"ec961599-ddf7-47fd-b830-ba5566dec725","system_id":"levelo_inurba_marseille","lat":43.29713,"lon":5.36602,"is_reserved":false,"is_disabled":false,"rental_uris":{"android":"levelo://app?vid=ec961599-ddf7-47fd-b830-ba5566dec725","ios":"levelo://app?vid=ec961599-ddf7-47fd-b830-ba5566dec725"},"vehicle_type_id":"4","last_reported":1758802905,"current_range_meters":12000,"station_id":"ce4bgn12rcd13ifvqbt0","pricing_plan_id":"cebpf4jnsgd1na2vs0mg"},{"bike_id":"2bd2a176-8590-4e06-8b8c-a96b49b7b36a","system_id":"levelo_inurba_marseille","lat":43.262237,"lon":5.404538,"is_reserved":false,"is_disabled":false,"rental_uris":{"android":"levelo://app?vid=2bd2a176-8590-4e06-8b8c-a96b49b7b36a","ios":"levelo://app?vid=2bd2a176-8590-4e06-8b8c-a96b49b7b36a"},"vehicle_type_id":"4","last_reported":1758802905,"current_range_meters":12800,"station_id":"","pricing_plan_id":"cebpf4jnsgd1na2vs0mg"},{"bike_id":"2398e714-da7f-4f0e-a401-0b08570bddf3","system_id":"levelo_inurba_marseille","lat":43.32112,"lon":5.36769,"is_reserved":false,"is_disabled":false,"rental_uris":{"android":"levelo://app?vid=2398e714-da7f-4f0e-a401-0b08570bddf3","ios":"levelo://app?vid=2398e714-da7f-4f0e-a401-0b08570bddf3"},"vehicle_type_id":"4","last_reported":1758802905,"current_range_meters":12800,"station_id":"ce4bhrh2rcd13ifvqhug","pricing_plan_id":"cebpf4jnsgd1na2vs0mg"},{"bike_id":"9f93e7a8-4cb0-4fd7-9cc9-1e605c55471a","system_id":"levelo_inurba_marseille","lat":43.29813,"lon":5.38095,"is_reserved":false,"is_disabled":false,"rental_uris":{"android":"levelo://app?vid=9f93e7a8-4cb0-4fd7-9cc9-1e605c55471a","ios":"levelo://app?vid=9f93e7a8-4cb0-4fd7-9cc9-1e605c55471a"},"vehicle_type_id":"4","last_reported":1758802905,"current_range_meters":12800,"station_id":"ce4bgip2rcd13ifvqbb0","pricing_plan_id":"cebpf4jnsgd1na2vs0mg"},{"bike_id":"46923300-e0d3-40c1-8c76-7dadc761100f","system_id":"levelo_inurba_marseille","lat":43.29,"lon":5.35594,"is_reserved":false,"is_disabled":false,"rental_uris":{"android":"levelo://app?vid=46923300-e0d3-40c1-8c76-7dadc761100f","ios":"levelo://app?vid=46923300-e0d3-40c1-8c76-7dadc761100f"},"vehicle_type_id":"4","last_reported":1758802905,"current_range_meters":12800,"station_id":"ce4bhb92rcd13ifvqen0","pricing_plan_id":"cebpf4jnsgd1na2vs0mg"},{"bike_id":"212de2eb-8bbc-413c-b204-9fe1facd76e8","system_id":"levelo_inurba_marseille","lat":43.31292,"lon":5.37825,"is_reserved":false,"is_disabled":false,"rental_uris":{"android":"levelo://app?vid=212de2eb-8bbc-413c-b204-9fe1facd76e8","ios":"levelo://app?vid=212de2eb-8bbc-413c-b204-9fe1facd76e8"},"vehicle_type_id":"4","last_reported":1758802905,"current_range_meters":12800,"station_id":"","pricing_plan_id":"cebpf4jnsgd1na2vs0mg"},{"bike_id":"f9af076b-c426-46f0-97f6-f6a5a530c8e2","system_id":"levelo_inurba_marseille","lat":43.3305,"lon":5.39707,"is_reserved":false,"is_disabled":false,"rental_uris":{"android":"levelo://app?vid=f9af076b-c426-46f0-97f6-f6a5a530c8e2","ios":"levelo://app?vid=f9af076b-c426-46f0-97f6-f6a5a530c8e2"},"vehicle_type_id":"4","last_reported":1758802905,"current_range_meters":12800,"station_id":"","pricing_plan_id":"cebpf4jnsgd1na2vs0mg"},{"bike_id":"0cd8069a-04d0-4c5a-bd7c-c56fe0acfc15","system_id":"levelo_inurba_marseille","lat":43.26683,"lon":5.3827,"is_reserved":false,"is_disabled":false,"rental_uris":{"android":"levelo://app?vid=0cd8069a-04d0-4c5a-bd7c-c56fe0acfc15","ios":"levelo://app?vid=0cd8069a-04d0-4c5a-bd7c-c56fe0acfc15"},"vehicle_type_id":"4","last_reported":1758802905,"current_range_meters":12800,"station_id":"ce4bhg92rcd13ifvqf90","pricing_plan_id":"cebpf4jnsgd1na2vs0mg"},{"bike_id":"de350dac-2de4-4c2d-ac13-f12bee9d566f","system_id":"levelo_inurba_marseille","lat":43.30157,"lon":5.38073,"is_reserved":false,"is_disabled":false,"rental_uris":{"android":"levelo://app?vid=de350dac-2de4-4c2d-ac13-f12bee9d566f","ios":"levelo://app?vid=de350dac-2de4-4c2d-ac13-f12bee9d566f"},"vehicle_type_id":"4","last_reported":1758802905,"current_range_meters":13600,"station_id":"ce4bgjp2rcd13ifvqbh0","pricing_plan_id":"cebpf4jnsgd1na2vs0mg"},{"bike_id":"82b94a24-8706-4f64-b6f6-4cab78682233","system_id":"levelo_inurba_marseille","lat":43.26201,"lon":5.37935,"is_reserved":false,"is_disabled":false,"rental_uris":{"android":"levelo://app?vid=82b94a24-8706-4f64-b6f6-4cab78682233","ios":"levelo://app?vid=82b94a24-8706-4f64-b6f6-4cab78682233"},"vehicle_type_id":"4","last_reported":1758802905,"current_range_meters":13600,"station_id":"ce4bhjp2rcd13ifvqg90","pricing_plan_id":"cebpf4jnsgd1na2vs0mg"},{"bike_id":"14c3ddeb-e0b7-4f41-b888-5d9c930282e2","system_id":"levelo_inurba_marseille","lat":43.30227,"lon":5.39505,"is_reserved":false,"is_disabled":false,"rental_uris":{"android":"levelo://app?vid=14c3ddeb-e0b7-4f41-b888-5d9c930282e2","ios":"levelo://app?vid=14c3ddeb-e0b7-4f41-b888-5d9c930282e2"},"vehicle_type_id":"4","last_reported":1758802905,"current_range_meters":13600,"station_id":"ce4bh0p2rcd13ifvqd70","pricing_plan_id":"cebpf4jnsgd1na2vs0mg"},{"bike_id":"70f51fcf-74f4-45ec-9be6-a0518cc18044","system_id":"levelo_inurba_marseille","lat":43.33585,"lon":5.41021,"is_reserved":false,"is_disabled":false,"rental_uris":{"android":"levelo://app?vid=70f51fcf-74f4-45ec-9be6-a0518cc18044","ios":"levelo://app?vid=70f51fcf-74f4-45ec-9be6-a0518cc18044"},"vehicle_type_id":"4","last_reported":1758802905,"current_range_meters":13600,"station_id":"ce4bhqh2rcd13ifvqhmg","pricing_plan_id":"cebpf4jnsgd1na2vs0mg"},{"bike_id":"f97c0048-c7ff-4b71-93c6-9cda50594045","system_id":"levelo_inurba_marseille","lat":43.27361,"lon":5.36239,"is_reserved":false,"is_disabled":false,"rental_uris":{"android":"levelo://app?vid=f97c0048-c7ff-4b71-93c6-9cda50594045","ios":"levelo://app?vid=f97c0048-c7ff-4b71-93c6-9cda50594045"},"vehicle_type_id":"4","last_reported":1758802905,"current_range_meters":13600,"station_id":"ce4bhbh2rcd13ifvqeo0","pricing_plan_id":"cebpf4jnsgd1na2vs0mg"},{"bike_id":"3b7784af-5b20-4587-9c3b-163666d20134","system_id":"levelo_inurba_marseille","lat":43.290392,"lon":5.378064,"is_reserved":false,"is_disabled":false,"rental_uris":{"android":"levelo://app?vid=3b7784af-5b20-4587-9c3b-163666d20134","ios":"levelo://app?vid=3b7784af-5b20-4587-9c3b-163666d20134"},"vehicle_type_id":"4","last_reported":1758802905,"current_range_meters":13600,"station_id":"ce4bh692rcd13ifvqe90","pricing_plan_id":"cebpf4jnsgd1na2vs0mg"},{"bike_id":"5d14203e-6f3d-4012-a871-c2bd87f0abc9","system_id":"levelo_inurba_marseille","lat":43.269221,"lon":5.3889,"is_reserved":false,"is_disabled":false,"rental_uris":{"android":"levelo://app?vid=5d14203e-6f3d-4012-a871-c2bd87f0abc9","ios":"levelo://app?vid=5d14203e-6f3d-4012-a871-c2bd87f0abc9"},"vehicle_type_id":"4","last_reported":1758802905,"current_range_meters":12800,"station_id":"ce4bhhh2rcd13ifvqfl0","pricing_plan_id":"cebpf4jnsgd1na2vs0mg"},{"bike_id":"1da878b2-6c33-4f2e-8a31-9a256db0616b","system_id":"levelo_inurba_marseille","lat":43.2984,"lon":5.36253,"is_reserved":false,"is_disabled":false,"rental_uris":{"android":"levelo://app?vid=1da878b2-6c33-4f2e-8a31-9a256db0616b","ios":"levelo://app?vid=1da878b2-6c33-4f2e-8a31-9a256db0616b"},"vehicle_type_id":"4","last_reported":1758802905,"current_range_meters":13600,"station_id":"ce4bgpp2rcd13ifvqc3g","pricing_plan_id":"cebpf4jnsgd1na2vs0mg"},{"bike_id":"66fcbac2-88a5-44e2-888a-4522a9a931e0","system_id":"levelo_inurba_marseille","lat":43.30187,"lon":5.36613,"is_reserved":false,"is_disabled":false,"rental_uris":{"android":"levelo://app?vid=66fcbac2-88a5-44e2-888a-4522a9a931e0","ios":"levelo://app?vid=66fcbac2-88a5-44e2-888a-4522a9a931e0"},"vehicle_type_id":"4","last_reported":1758802905,"current_range_meters":13600,"station_id":"ce4bgrh2rcd13ifvqc8g","pricing_plan_id":"cebpf4jnsgd1na2vs0mg"},{"bike_id":"15e81773-13c2-4026-9a7b-90dea0c2e4d0","system_id":"levelo_inurba_marseille","lat":43.31189,"lon":5.36903,"is_reserved":false,"is_disabled":false,"rental_uris":{"android":"levelo://app?vid=15e81773-13c2-4026-9a7b-90dea0c2e4d0","ios":"levelo://app?vid=15e81773-13c2-4026-9a7b-90dea0c2e4d0"},"vehicle_type_id":"4","last_reported":1758802905,"current_range_meters":13600,"station_id":"","pricing_plan_id":"cebpf4jnsgd1na2vs0mg"},{"bike_id":"87e35d32-0ec4-4cda-949d-9256b87baba1","system_id":"levelo_inurba_marseille","lat":43.337444,"lon":5.374475,"is_reserved":false,"is_disabled":false,"rental_uris":{"android":"levelo://app?vid=87e35d32-0ec4-4cda-949d-9256b87baba1","ios":"levelo://app?vid=87e35d32-0ec4-4cda-949d-9256b87baba1"},"vehicle_type_id":"4","last_reported":1758802905,"current_range_meters":13600,"station_id":"","pricing_plan_id":"cebpf4jnsgd1na2vs0mg"},{"bike_id":"17b6e890-308f-4e08-9acd-7090f69670ec","system_id":"levelo_inurba_marseille","lat":43.31229,"lon":5.3689,"is_reserved":false,"is_disabled":false,"rental_uris":{"android":"levelo://app?vid=17b6e890-308f-4e08-9acd-7090f69670ec","ios":"levelo://app?vid=17b6e890-308f-4e08-9acd-7090f69670ec"},"vehicle_type_id":"4","last_reported":1758802905,"current_range_meters":14000,"station_id":"ce4bgl92rcd13ifvqbq0","pricing_plan_id":"cebpf4jnsgd1na2vs0mg"},{"bike_id":"e9a401b6-d4c9-4eb9-b122-b7905cfdef33","system_id":"levelo_inurba_marseille","lat":43.23179,"lon":5.39982,"is_reserved":false,"is_disabled":false,"rental_uris":{"android":"levelo://app?vid=e9a401b6-d4c9-4eb9-b122-b7905cfdef33","ios":"levelo://app?vid=e9a401b6-d4c9-4eb9-b122-b7905cfdef33"},"vehicle_type_id":"4","last_reported":1758802905,"current_range_meters":14000,"station_id":"ce4bhn12rcd13ifvqgqg","pricing_plan_id":"cebpf4jnsgd1na2vs0mg"},{"bike_id":"03c12457-0866-4283-a32c-3c94a04d7d47","system_id":"levelo_inurba_marseille","lat":43.26569,"lon":5.37278,"is_reserved":false,"is_disabled":false,"rental_uris":{"android":"levelo://app?vid=03c12457-0866-4283-a32c-3c94a04d7d47","ios":"levelo://app?vid=03c12457-0866-4283-a32c-3c94a04d7d47"},"vehicle_type_id":"4","last_reported":1758802905,"current_range_meters":14000,"station_id":"ce4bhg12rcd13ifvqf70","pricing_plan_id":"cebpf4jnsgd1na2vs0mg"},{"bike_id":"f2458149-4947-44b8-b604-f9632e9e7032","system_id":"levelo_inurba_marseille","lat":43.26061,"lon":5.39398,"is_reserved":false,"is_disabled":false,"rental_uris":{"android":"levelo://app?vid=f2458149-4947-44b8-b604-f9632e9e7032","ios":"levelo://app?vid=f2458149-4947-44b8-b604-f9632e9e7032"},"vehicle_type_id":"4","last_reported":1758802905,"current_range_meters":14000,"station_id":"ce4bhh92rcd13ifvqfj0","pricing_plan_id":"cebpf4jnsgd1na2vs0mg"},{"bike_id":"f6dda3cc-3869-4349-8c12-0c8c4510fb21","system_id":"levelo_inurba_marseille","lat":43.30148,"lon":5.38061,"is_reserved":false,"is_disabled":false,"rental_uris":{"android":"levelo://app?vid=f6dda3cc-3869-4349-8c12-0c8c4510fb21","ios":"levelo://app?vid=f6dda3cc-3869-4349-8c12-0c8c4510fb21"},"vehicle_type_id":"4","last_reported":1758802905,"current_range_meters":14000,"station_id":"ce4bgjp2rcd13ifvqbh0","pricing_plan_id":"cebpf4jnsgd1na2vs0mg"},{"bike_id":"af60c407-5d0d-4124-90bc-f5c672eb5129","system_id":"levelo_inurba_marseille","lat":43.31694,"lon":5.40482,"is_reserved":false,"is_disabled":false,"rental_uris":{"android":"levelo://app?vid=af60c407-5d0d-4124-90bc-f5c672eb5129","ios":"levelo://app?vid=af60c407-5d0d-4124-90bc-f5c672eb5129"},"vehicle_type_id":"4","last_reported":1758802905,"current_range_meters":14400,"station_id":"ce4bh012rcd13ifvqd00","pricing_plan_id":"cebpf4jnsgd1na2vs0mg"},{"bike_id":"595573fc-e79a-41eb-8127-3c8f7b96d8f1","system_id":"levelo_inurba_marseille","lat":43.26568,"lon":5.37291,"is_reserved":false,"is_disabled":false,"rental_uris":{"android":"levelo://app?vid=595573fc-e79a-41eb-8127-3c8f7b96d8f1","ios":"levelo://app?vid=595573fc-e79a-41eb-8127-3c8f7b96d8f1"},"vehicle_type_id":"4","last_reported":1758802905,"current_range_meters":14400,"station_id":"ce4bhg12rcd13ifvqf70","pricing_plan_id":"cebpf4jnsgd1na2vs0mg"},{"bike_id":"8e9f1a41-50f1-4fd4-9cd5-8e0fde037002","system_id":"levelo_inurba_marseille","lat":43.2867,"lon":5.38664,"is_reserved":false,"is_disabled":false,"rental_uris":{"android":"levelo://app?vid=8e9f1a41-50f1-4fd4-9cd5-8e0fde037002","ios":"levelo://app?vid=8e9f1a41-50f1-4fd4-9cd5-8e0fde037002"},"vehicle_type_id":"4","last_reported":1758802905,"current_range_meters":19600,"station_id":"ce4bh492rcd13ifvqdug","pricing_plan_id":"cebpf4jnsgd1na2vs0mg"},{"bike_id":"1c27f7d4-507d-43e2-b324-44f5e35dee72","system_id":"levelo_inurba_marseille","lat":43.3237,"lon":5.38877,"is_reserved":false,"is_disabled":false,"rental_uris":{"android":"levelo://app?vid=1c27f7d4-507d-43e2-b324-44f5e35dee72","ios":"levelo://app?vid=1c27f7d4-507d-43e2-b324-44f5e35dee72"},"vehicle_type_id":"4","last_reported":1758802905,"current_range_meters":14400,"station_id":"ce4bhqp2rcd13ifvqhog","pricing_plan_id":"cebpf4jnsgd1na2vs0mg"},{"bike_id":"5c2589c3-c826-4294-88ee-d6eba80686d5","system_id":"levelo_inurba_marseille","lat":43.29709,"lon":5.36612,"is_reserved":false,"is_disabled":false,"rental_uris":{"android":"levelo://app?vid=5c2589c3-c826-4294-88ee-d6eba80686d5","ios":"levelo://app?vid=5c2589c3-c826-4294-88ee-d6eba80686d5"},"vehicle_type_id":"4","last_reported":1758802905,"current_range_meters":14400,"station_id":"ce4bgn12rcd13ifvqbt0","pricing_plan_id":"cebpf4jnsgd1na2vs0mg"},{"bike_id":"de751872-870e-40a7-8948-a3e1f340b576","system_id":"levelo_inurba_marseille","lat":43.293043,"lon":5.37452,"is_reserved":false,"is_disabled":false,"rental_uris":{"android":"levelo://app?vid=de751872-870e-40a7-8948-a3e1f340b576","ios":"levelo://app?vid=de751872-870e-40a7-8948-a3e1f340b576"},"vehicle_type_id":"4","last_reported":1758802905,"current_range_meters":14400,"station_id":"ce4bgi12rcd13ifvqb70","pricing_plan_id":"cebpf4jnsgd1na2vs0mg"},{"bike_id":"d31d856a-933d-49cf-948f-ce03657dfc74","system_id":"levelo_inurba_marseille","lat":43.28428,"lon":5.34984,"is_reserved":false,"is_disabled":false,"rental_uris":{"android":"levelo://app?vid=d31d856a-933d-49cf-948f-ce03657dfc74","ios":"levelo://app?vid=d31d856a-933d-49cf-948f-ce03657dfc74"},"vehicle_type_id":"4","last_reported":1758802905,"current_range_meters":14400,"station_id":"ce4bhbh2rcd13ifvqepg","pricing_plan_id":"cebpf4jnsgd1na2vs0mg"},{"bike_id":"f20b9439-62ef-4c0b-ad5e-2cd857b7c708","system_id":"levelo_inurba_marseille","lat":43.2957,"lon":5.39977,"is_reserved":false,"is_disabled":false,"rental_uris":{"android":"levelo://app?vid=f20b9439-62ef-4c0b-ad5e-2cd857b7c708","ios":"levelo://app?vid=f20b9439-62ef-4c0b-ad5e-2cd857b7c708"},"vehicle_type_id":"4","last_reported":1758802905,"current_range_meters":14000,"station_id":"ce4bh312rcd13ifvqdj0","pricing_plan_id":"cebpf4jnsgd1na2vs0mg"},{"bike_id":"c6e82c73-b227-4189-a1f5-a6bf04955aa2","system_id":"levelo_inurba_marseille","lat":43.28277,"lon":5.35057,"is_reserved":false,"is_disabled":false,"rental_uris":{"android":"levelo://app?vid=c6e82c73-b227-4189-a1f5-a6bf04955aa2","ios":"levelo://app?vid=c6e82c73-b227-4189-a1f5-a6bf04955aa2"},"vehicle_type_id":"4","last_reported":1758802905,"current_range_meters":14400,"station_id":"ce4bhbp2rcd13ifvqerg","pricing_plan_id":"cebpf4jnsgd1na2vs0mg"},{"bike_id":"30c9f243-05ec-4a8e-b48d-632993c80e48","system_id":"levelo_inurba_marseille","lat":43.27373,"lon":5.36256,"is_reserved":false,"is_disabled":false,"rental_uris":{"android":"levelo://app?vid=30c9f243-05ec-4a8e-b48d-632993c80e48","ios":"levelo://app?vid=30c9f243-05ec-4a8e-b48d-632993c80e48"},"vehicle_type_id":"4","last_reported":1758802905,"current_range_meters":14400,"station_id":"ce4bhbh2rcd13ifvqeo0","pricing_plan_id":"cebpf4jnsgd1na2vs0mg"},{"bike_id":"96c55bcf-90b7-4618-9025-978539f925b5","system_id":"levelo_inurba_marseille","lat":43.323649,"lon":5.367603,"is_reserved":false,"is_disabled":false,"rental_uris":{"android":"levelo://app?vid=96c55bcf-90b7-4618-9025-978539f925b5","ios":"levelo://app?vid=96c55bcf-90b7-4618-9025-978539f925b5"},"vehicle_type_id":"4","last_reported":1758802905,"current_range_meters":14400,"station_id":"ce4bhsh2rcd13ifvqi2g","pricing_plan_id":"cebpf4jnsgd1na2vs0mg"},{"bike_id":"fd4b0929-5dae-4f92-bfeb-801c6778a0f5","system_id":"levelo_inurba_marseille","lat":43.265639,"lon":5.372886,"is_reserved":false,"is_disabled":false,"rental_uris":{"android":"levelo://app?vid=fd4b0929-5dae-4f92-bfeb-801c6778a0f5","ios":"levelo://app?vid=fd4b0929-5dae-4f92-bfeb-801c6778a0f5"},"vehicle_type_id":"4","last_reported":1758802905,"current_range_meters":14400,"station_id":"ce4bhg12rcd13ifvqf70","pricing_plan_id":"cebpf4jnsgd1na2vs0mg"},{"bike_id":"a291eeae-bc52-451c-8f67-3780447bf373","system_id":"levelo_inurba_marseille","lat":43.32361,"lon":5.36749,"is_reserved":false,"is_disabled":false,"rental_uris":{"android":"levelo://app?vid=a291eeae-bc52-451c-8f67-3780447bf373","ios":"levelo://app?vid=a291eeae-bc52-451c-8f67-3780447bf373"},"vehicle_type_id":"4","last_reported":1758802905,"current_range_meters":14800,"station_id":"ce4bhsh2rcd13ifvqi2g","pricing_plan_id":"cebpf4jnsgd1na2vs0mg"},{"bike_id":"f897d300-643c-4c7a-951b-f56d70ef23ca","system_id":"levelo_inurba_marseille","lat":43.3032,"lon":5.39064,"is_reserved":false,"is_disabled":false,"rental_uris":{"android":"levelo://app?vid=f897d300-643c-4c7a-951b-f56d70ef23ca","ios":"levelo://app?vid=f897d300-643c-4c7a-951b-f56d70ef23ca"},"vehicle_type_id":"4","last_reported":1758802905,"current_range_meters":14800,"station_id":"","pricing_plan_id":"cebpf4jnsgd1na2vs0mg"},{"bike_id":"cbfe4f9d-2fa0-4da2-93dc-4df3c5686f7c","system_id":"levelo_inurba_marseille","lat":43.27079,"lon":5.42282,"is_reserved":false,"is_disabled":false,"rental_uris":{"android":"levelo://app?vid=cbfe4f9d-2fa0-4da2-93dc-4df3c5686f7c","ios":"levelo://app?vid=cbfe4f9d-2fa0-4da2-93dc-4df3c5686f7c"},"vehicle_type_id":"4","last_reported":1758802905,"current_range_meters":14800,"station_id":"ce4bhk92rcd13ifvqgb0","pricing_plan_id":"cebpf4jnsgd1na2vs0mg"},{"bike_id":"725b1ff1-3894-44f1-a38e-91bc39cbab7e","system_id":"levelo_inurba_marseille","lat":43.24651,"lon":5.43129,"is_reserved":false,"is_disabled":false,"rental_uris":{"android":"levelo://app?vid=725b1ff1-3894-44f1-a38e-91bc39cbab7e","ios":"levelo://app?vid=725b1ff1-3894-44f1-a38e-91bc39cbab7e"},"vehicle_type_id":"4","last_reported":1758802905,"current_range_meters":14800,"station_id":"st_d2m6c4gdas8pm72e190g","pricing_plan_id":"cebpf4jnsgd1na2vs0mg"},{"bike_id":"9ababc54-a2fe-4564-9c73-45f4b3ab8ee9","system_id":"levelo_inurba_marseille","lat":43.2572,"lon":5.41113,"is_reserved":false,"is_disabled":false,"rental_uris":{"android":"levelo://app?vid=9ababc54-a2fe-4564-9c73-45f4b3ab8ee9","ios":"levelo://app?vid=9ababc54-a2fe-4564-9c73-45f4b3ab8ee9"},"vehicle_type_id":"4","last_reported":1758802905,"current_range_meters":14800,"station_id":"ce4bhkp2rcd13ifvqgd0","pricing_plan_id":"cebpf4jnsgd1na2vs0mg"},{"bike_id":"3731e4b4-e57b-4ad8-affe-801decac42ca","system_id":"levelo_inurba_marseille","lat":43.24952,"lon":5.40492,"is_reserved":false,"is_disabled":false,"rental_uris":{"android":"levelo://app?vid=3731e4b4-e57b-4ad8-affe-801decac42ca","ios":"levelo://app?vid=3731e4b4-e57b-4ad8-affe-801decac42ca"},"vehicle_type_id":"4","last_reported":1758802905,"current_range_meters":14800,"station_id":"st_d2ngiaodas8pm72gd1h0","pricing_plan_id":"cebpf4jnsgd1na2vs0mg"},{"bike_id":"c7f6a08b-c655-4213-b2ba-7d02e7f382fe","system_id":"levelo_inurba_marseille","lat":43.27988,"lon":5.39483,"is_reserved":false,"is_disabled":false,"rental_uris":{"android":"levelo://app?vid=c7f6a08b-c655-4213-b2ba-7d02e7f382fe","ios":"levelo://app?vid=c7f6a08b-c655-4213-b2ba-7d02e7f382fe"},"vehicle_type_id":"4","last_reported":1758802905,"current_range_meters":14800,"station_id":"","pricing_plan_id":"cebpf4jnsgd1na2vs0mg"},{"bike_id":"761814c8-ed3b-4f00-becb-d2175370c07f","system_id":"levelo_inurba_marseille","lat":43.29273,"lon":5.40115,"is_reserved":false,"is_disabled":false,"rental_uris":{"android":"levelo://app?vid=761814c8-ed3b-4f00-becb-d2175370c07f","ios":"levelo://app?vid=761814c8-ed3b-4f00-becb-d2175370c07f"},"vehicle_type_id":"4","last_reported":1758802905,"current_range_meters":14800,"station_id":"ce4bh312rcd13ifvqdk0","pricing_plan_id":"cebpf4jnsgd1na2vs0mg"},{"bike_id":"e5303607-da03-4ac7-b81e-b332ede84cf7","system_id":"levelo_inurba_marseille","lat":43.31308,"lon":5.37813,"is_reserved":false,"is_disabled":false,"rental_uris":{"android":"levelo://app?vid=e5303607-da03-4ac7-b81e-b332ede84cf7","ios":"levelo://app?vid=e5303607-da03-4ac7-b81e-b332ede84cf7"},"vehicle_type_id":"4","last_reported":1758802905,"current_range_meters":14800,"station_id":"","pricing_plan_id":"cebpf4jnsgd1na2vs0mg"},{"bike_id":"3e795a56-fcd5-414a-824d-13838a97cb44","system_id":"levelo_inurba_marseille","lat":43.241676,"lon":5.36389,"is_reserved":false,"is_disabled":false,"rental_uris":{"android":"levelo://app?vid=3e795a56-fcd5-414a-824d-13838a97cb44","ios":"levelo://app?vid=3e795a56-fcd5-414a-824d-13838a97cb44"},"vehicle_type_id":"4","last_reported":1758802905,"current_range_meters":15200,"station_id":"cpo36qri1sfpv3e86is0","pricing_plan_id":"cebpf4jnsgd1na2vs0mg"},{"bike_id":"041cd397-24ab-4e04-af23-07b961e161f4","system_id":"levelo_inurba_marseille","lat":43.337444,"lon":5.374475,"is_reserved":false,"is_disabled":false,"rental_uris":{"android":"levelo://app?vid=041cd397-24ab-4e04-af23-07b961e161f4","ios":"levelo://app?vid=041cd397-24ab-4e04-af23-07b961e161f4"},"vehicle_type_id":"4","last_reported":1758802905,"current_range_meters":15200,"station_id":"","pricing_plan_id":"cebpf4jnsgd1na2vs0mg"},{"bike_id":"30ebfd57-92a8-47b0-bfcc-5ebdaf67ffae","system_id":"levelo_inurba_marseille","lat":43.231492,"lon":5.437193,"is_reserved":false,"is_disabled":false,"rental_uris":{"android":"levelo://app?vid=30ebfd57-92a8-47b0-bfcc-5ebdaf67ffae","ios":"levelo://app?vid=30ebfd57-92a8-47b0-bfcc-5ebdaf67ffae"},"vehicle_type_id":"4","last_reported":1758802905,"current_range_meters":16000,"station_id":"ce4bhmp2rcd13ifvqgog","pricing_plan_id":"cebpf4jnsgd1na2vs0mg"},{"bike_id":"d734f0f7-bb82-4cbc-9571-824c32d91d22","system_id":"levelo_inurba_marseille","lat":43.24182,"lon":5.36384,"is_reserved":false,"is_disabled":false,"rental_uris":{"android":"levelo://app?vid=d734f0f7-bb82-4cbc-9571-824c32d91d22","ios":"levelo://app?vid=d734f0f7-bb82-4cbc-9571-824c32d91d22"},"vehicle_type_id":"4","last_reported":1758802905,"current_range_meters":16000,"station_id":"cpo36qri1sfpv3e86is0","pricing_plan_id":"cebpf4jnsgd1na2vs0mg"},{"bike_id":"d209835c-7d07-4951-86cd-f32a807dffb5","system_id":"levelo_inurba_marseille","lat":43.29915,"lon":5.37473,"is_reserved":false,"is_disabled":false,"rental_uris":{"android":"levelo://app?vid=d209835c-7d07-4951-86cd-f32a807dffb5","ios":"levelo://app?vid=d209835c-7d07-4951-86cd-f32a807dffb5"},"vehicle_type_id":"4","last_reported":1758802905,"current_range_meters":16000,"station_id":"ce4bgjh2rcd13ifvqbg0","pricing_plan_id":"cebpf4jnsgd1na2vs0mg"},{"bike_id":"fcaecd28-9c45-495b-b16e-ab6e92337613","system_id":"levelo_inurba_marseille","lat":43.28619,"lon":5.35098,"is_reserved":false,"is_disabled":false,"rental_uris":{"android":"levelo://app?vid=fcaecd28-9c45-495b-b16e-ab6e92337613","ios":"levelo://app?vid=fcaecd28-9c45-495b-b16e-ab6e92337613"},"vehicle_type_id":"4","last_reported":1758802905,"current_range_meters":16000,"station_id":"ce4bhch2rcd13ifvqeug","pricing_plan_id":"cebpf4jnsgd1na2vs0mg"},{"bike_id":"d17f8b77-ecb6-436f-8afd-f17e730fd990","system_id":"levelo_inurba_marseille","lat":43.24082,"lon":5.37748,"is_reserved":false,"is_disabled":false,"rental_uris":{"android":"levelo://app?vid=d17f8b77-ecb6-436f-8afd-f17e730fd990","ios":"levelo://app?vid=d17f8b77-ecb6-436f-8afd-f17e730fd990"},"vehicle_type_id":"4","last_reported":1758802905,"current_range_meters":16000,"station_id":"","pricing_plan_id":"cebpf4jnsgd1na2vs0mg"},{"bike_id":"d37309a0-659b-478a-b277-78756ca9e8a8","system_id":"levelo_inurba_marseille","lat":43.2894,"lon":5.36625,"is_reserved":false,"is_disabled":false,"rental_uris":{"android":"levelo://app?vid=d37309a0-659b-478a-b277-78756ca9e8a8","ios":"levelo://app?vid=d37309a0-659b-478a-b277-78756ca9e8a8"},"vehicle_type_id":"4","last_reported":1758802905,"current_range_meters":16000,"station_id":"ce4bhap2rcd13ifvqek0","pricing_plan_id":"cebpf4jnsgd1na2vs0mg"},{"bike_id":"97a5ee76-2e0a-479d-a727-d5a9ad8fecb2","system_id":"levelo_inurba_marseille","lat":43.22949,"lon":5.35373,"is_reserved":false,"is_disabled":false,"rental_uris":{"android":"levelo://app?vid=97a5ee76-2e0a-479d-a727-d5a9ad8fecb2","ios":"levelo://app?vid=97a5ee76-2e0a-479d-a727-d5a9ad8fecb2"},"vehicle_type_id":"4","last_reported":1758802905,"current_range_meters":16400,"station_id":"cpo3532slgdg3j2ikp40","pricing_plan_id":"cebpf4jnsgd1na2vs0mg"},{"bike_id":"ea01a58e-1081-4f0d-9bb9-ce2a5c48144d","system_id":"levelo_inurba_marseille","lat":43.2957,"lon":5.37515,"is_reserved":false,"is_disabled":false,"rental_uris":{"android":"levelo://app?vid=ea01a58e-1081-4f0d-9bb9-ce2a5c48144d","ios":"levelo://app?vid=ea01a58e-1081-4f0d-9bb9-ce2a5c48144d"},"vehicle_type_id":"4","last_reported":1758802905,"current_range_meters":16400,"station_id":"ce4bgh92rcd13ifvqb50","pricing_plan_id":"cebpf4jnsgd1na2vs0mg"},{"bike_id":"1962763a-068c-43af-80ca-b2d480514eda","system_id":"levelo_inurba_marseille","lat":43.24966,"lon":5.405,"is_reserved":false,"is_disabled":false,"rental_uris":{"android":"levelo://app?vid=1962763a-068c-43af-80ca-b2d480514eda","ios":"levelo://app?vid=1962763a-068c-43af-80ca-b2d480514eda"},"vehicle_type_id":"4","last_reported":1758802905,"current_range_meters":16400,"station_id":"st_d2ngiaodas8pm72gd1h0","pricing_plan_id":"cebpf4jnsgd1na2vs0mg"},{"bike_id":"b6ff3672-4e7c-404c-ab2a-bd902cf95e14","system_id":"levelo_inurba_marseille","lat":43.26849,"lon":5.4067,"is_reserved":false,"is_disabled":false,"rental_uris":{"android":"levelo://app?vid=b6ff3672-4e7c-404c-ab2a-bd902cf95e14","ios":"levelo://app?vid=b6ff3672-4e7c-404c-ab2a-bd902cf95e14"},"vehicle_type_id":"4","last_reported":1758802905,"current_range_meters":16400,"station_id":"","pricing_plan_id":"cebpf4jnsgd1na2vs0mg"},{"bike_id":"1833177d-e0e4-4b30-b90d-e171aedc1912","system_id":"levelo_inurba_marseille","lat":43.25935,"lon":5.40911,"is_reserved":false,"is_disabled":false,"rental_uris":{"android":"levelo://app?vid=1833177d-e0e4-4b30-b90d-e171aedc1912","ios":"levelo://app?vid=1833177d-e0e4-4b30-b90d-e171aedc1912"},"vehicle_type_id":"4","last_reported":1758802905,"current_range_meters":16800,"station_id":"ce4bhm92rcd13ifvqglg","pricing_plan_id":"cebpf4jnsgd1na2vs0mg"},{"bike_id":"410c3b60-7ae1-4574-9c5c-d727f421b34d","system_id":"levelo_inurba_marseille","lat":43.292617,"lon":5.376292,"is_reserved":false,"is_disabled":false,"rental_uris":{"android":"levelo://app?vid=410c3b60-7ae1-4574-9c5c-d727f421b34d","ios":"levelo://app?vid=410c3b60-7ae1-4574-9c5c-d727f421b34d"},"vehicle_type_id":"4","last_reported":1758802905,"current_range_meters":16800,"station_id":"ce4bgi12rcd13ifvqb80","pricing_plan_id":"cebpf4jnsgd1na2vs0mg"},{"bike_id":"4dac9ff3-101f-4d1f-86d9-d76634819933","system_id":"levelo_inurba_marseille","lat":43.29184,"lon":5.35804,"is_reserved":false,"is_disabled":false,"rental_uris":{"android":"levelo://app?vid=4dac9ff3-101f-4d1f-86d9-d76634819933","ios":"levelo://app?vid=4dac9ff3-101f-4d1f-86d9-d76634819933"},"vehicle_type_id":"4","last_reported":1758802905,"current_range_meters":16800,"station_id":"ce4bhb12rcd13ifvqel0","pricing_plan_id":"cebpf4jnsgd1na2vs0mg"},{"bike_id":"fb969d4b-5fdc-46a9-949b-6aab70891ce2","system_id":"levelo_inurba_marseille","lat":43.26059,"lon":5.39395,"is_reserved":false,"is_disabled":false,"rental_uris":{"android":"levelo://app?vid=fb969d4b-5fdc-46a9-949b-6aab70891ce2","ios":"levelo://app?vid=fb969d4b-5fdc-46a9-949b-6aab70891ce2"},"vehicle_type_id":"4","last_reported":1758802905,"current_range_meters":16800,"station_id":"ce4bhh92rcd13ifvqfj0","pricing_plan_id":"cebpf4jnsgd1na2vs0mg"},{"bike_id":"c31c58ee-4e29-4ce3-bf0a-25ae5cf57cfc","system_id":"levelo_inurba_marseille","lat":43.24951,"lon":5.40502,"is_reserved":false,"is_disabled":false,"rental_uris":{"android":"levelo://app?vid=c31c58ee-4e29-4ce3-bf0a-25ae5cf57cfc","ios":"levelo://app?vid=c31c58ee-4e29-4ce3-bf0a-25ae5cf57cfc"},"vehicle_type_id":"4","last_reported":1758802905,"current_range_meters":16800,"station_id":"st_d2ngiaodas8pm72gd1h0","pricing_plan_id":"cebpf4jnsgd1na2vs0mg"},{"bike_id":"f84ca7be-c651-4e74-bba2-65c5fe4928ff","system_id":"levelo_inurba_marseille","lat":43.23148,"lon":5.43699,"is_reserved":false,"is_disabled":false,"rental_uris":{"android":"levelo://app?vid=f84ca7be-c651-4e74-bba2-65c5fe4928ff","ios":"levelo://app?vid=f84ca7be-c651-4e74-bba2-65c5fe4928ff"},"vehicle_type_id":"4","last_reported":1758802905,"current_range_meters":16800,"station_id":"ce4bhmp2rcd13ifvqgog","pricing_plan_id":"cebpf4jnsgd1na2vs0mg"},{"bike_id":"39e6b2d7-e7bc-4366-8a01-87bc46855564","system_id":"levelo_inurba_marseille","lat":43.32118,"lon":5.3679,"is_reserved":false,"is_disabled":false,"rental_uris":{"android":"levelo://app?vid=39e6b2d7-e7bc-4366-8a01-87bc46855564","ios":"levelo://app?vid=39e6b2d7-e7bc-4366-8a01-87bc46855564"},"vehicle_type_id":"4","last_reported":1758802905,"current_range_meters":16800,"station_id":"ce4bhrh2rcd13ifvqhug","pricing_plan_id":"cebpf4jnsgd1na2vs0mg"},{"bike_id":"a57b3feb-2354-42fe-87fd-e8fcee3a0260","system_id":"levelo_inurba_marseille","lat":43.26953,"lon":5.40241,"is_reserved":false,"is_disabled":false,"rental_uris":{"android":"levelo://app?vid=a57b3feb-2354-42fe-87fd-e8fcee3a0260","ios":"levelo://app?vid=a57b3feb-2354-42fe-87fd-e8fcee3a0260"},"vehicle_type_id":"4","last_reported":1758802905,"current_range_meters":16800,"station_id":"","pricing_plan_id":"cebpf4jnsgd1na2vs0mg"},{"bike_id":"75d73ab9-ac13-44ed-a5f2-2eb47879b783","system_id":"levelo_inurba_marseille","lat":43.30546,"lon":5.3669,"is_reserved":false,"is_disabled":false,"rental_uris":{"android":"levelo://app?vid=75d73ab9-ac13-44ed-a5f2-2eb47879b783","ios":"levelo://app?vid=75d73ab9-ac13-44ed-a5f2-2eb47879b783"},"vehicle_type_id":"4","last_reported":1758802905,"current_range_meters":16800,"station_id":"ce4bgrp2rcd13ifvqc9g","pricing_plan_id":"cebpf4jnsgd1na2vs0mg"},{"bike_id":"09c6a8cb-4b23-49d2-88a9-9b6b1fe0e5a8","system_id":"levelo_inurba_marseille","lat":43.2732,"lon":5.39077,"is_reserved":false,"is_disabled":false,"rental_uris":{"android":"levelo://app?vid=09c6a8cb-4b23-49d2-88a9-9b6b1fe0e5a8","ios":"levelo://app?vid=09c6a8cb-4b23-49d2-88a9-9b6b1fe0e5a8"},"vehicle_type_id":"4","last_reported":1758802905,"current_range_meters":17200,"station_id":"ce4bhgp2rcd13ifvqfe0","pricing_plan_id":"cebpf4jnsgd1na2vs0mg"},{"bike_id":"02120ce6-8c65-4979-bcd8-3a6c32af9be9","system_id":"levelo_inurba_marseille","lat":43.31338,"lon":5.36715,"is_reserved":false,"is_disabled":false,"rental_uris":{"android":"levelo://app?vid=02120ce6-8c65-4979-bcd8-3a6c32af9be9","ios":"levelo://app?vid=02120ce6-8c65-4979-bcd8-3a6c32af9be9"},"vehicle_type_id":"4","last_reported":1758802905,"current_range_meters":17200,"station_id":"ce4bgr92rcd13ifvqc6g","pricing_plan_id":"cebpf4jnsgd1na2vs0mg"},{"bike_id":"7c4ad0e1-6c14-4cb3-bded-113bec18a207","system_id":"levelo_inurba_marseille","lat":43.336065,"lon":5.410308,"is_reserved":false,"is_disabled":false,"rental_uris":{"android":"levelo://app?vid=7c4ad0e1-6c14-4cb3-bded-113bec18a207","ios":"levelo://app?vid=7c4ad0e1-6c14-4cb3-bded-113bec18a207"},"vehicle_type_id":"4","last_reported":1758802905,"current_range_meters":17200,"station_id":"ce4bhqh2rcd13ifvqhmg","pricing_plan_id":"cebpf4jnsgd1na2vs0mg"},{"bike_id":"e626a054-2193-4013-9627-93e6717bb961","system_id":"levelo_inurba_marseille","lat":43.26059,"lon":5.39396,"is_reserved":false,"is_disabled":false,"rental_uris":{"android":"levelo://app?vid=e626a054-2193-4013-9627-93e6717bb961","ios":"levelo://app?vid=e626a054-2193-4013-9627-93e6717bb961"},"vehicle_type_id":"4","last_reported":1758802905,"current_range_meters":17200,"station_id":"ce4bhh92rcd13ifvqfj0","pricing_plan_id":"cebpf4jnsgd1na2vs0mg"},{"bike_id":"a28c4950-acb8-4027-9776-770922e1aae9","system_id":"levelo_inurba_marseille","lat":43.23145,"lon":5.437209,"is_reserved":false,"is_disabled":false,"rental_uris":{"android":"levelo://app?vid=a28c4950-acb8-4027-9776-770922e1aae9","ios":"levelo://app?vid=a28c4950-acb8-4027-9776-770922e1aae9"},"vehicle_type_id":"4","last_reported":1758802905,"current_range_meters":17200,"station_id":"ce4bhmp2rcd13ifvqgog","pricing_plan_id":"cebpf4jnsgd1na2vs0mg"},{"bike_id":"b76278c7-431d-4bd5-b0d8-d6868cb668f1","system_id":"levelo_inurba_marseille","lat":43.26968,"lon":5.38629,"is_reserved":false,"is_disabled":false,"rental_uris":{"android":"levelo://app?vid=b76278c7-431d-4bd5-b0d8-d6868cb668f1","ios":"levelo://app?vid=b76278c7-431d-4bd5-b0d8-d6868cb668f1"},"vehicle_type_id":"4","last_reported":1758802905,"current_range_meters":17200,"station_id":"ce4bhh92rcd13ifvqfh0","pricing_plan_id":"cebpf4jnsgd1na2vs0mg"},{"bike_id":"d762e2d8-e002-4d71-8d20-40764f080782","system_id":"levelo_inurba_marseille","lat":43.23198,"lon":5.35553,"is_reserved":false,"is_disabled":false,"rental_uris":{"android":"levelo://app?vid=d762e2d8-e002-4d71-8d20-40764f080782","ios":"levelo://app?vid=d762e2d8-e002-4d71-8d20-40764f080782"},"vehicle_type_id":"4","last_reported":1758802905,"current_range_meters":17200,"station_id":"ce4bhu92rcd13ifvqi70","pricing_plan_id":"cebpf4jnsgd1na2vs0mg"},{"bike_id":"237d670d-1d71-4e5a-9874-9ef01d2c1669","system_id":"levelo_inurba_marseille","lat":43.2307,"lon":5.35487,"is_reserved":false,"is_disabled":false,"rental_uris":{"android":"levelo://app?vid=237d670d-1d71-4e5a-9874-9ef01d2c1669","ios":"levelo://app?vid=237d670d-1d71-4e5a-9874-9ef01d2c1669"},"vehicle_type_id":"4","last_reported":1758802905,"current_range_meters":17200,"station_id":"cpo3342slgdg3j2ifvpg","pricing_plan_id":"cebpf4jnsgd1na2vs0mg"},{"bike_id":"4a0fe6b6-7ecb-4343-8994-09d51adb3c1b","system_id":"levelo_inurba_marseille","lat":43.32109,"lon":5.36765,"is_reserved":false,"is_disabled":false,"rental_uris":{"android":"levelo://app?vid=4a0fe6b6-7ecb-4343-8994-09d51adb3c1b","ios":"levelo://app?vid=4a0fe6b6-7ecb-4343-8994-09d51adb3c1b"},"vehicle_type_id":"4","last_reported":1758802905,"current_range_meters":17200,"station_id":"ce4bhrh2rcd13ifvqhug","pricing_plan_id":"cebpf4jnsgd1na2vs0mg"},{"bike_id":"fe122dd9-ae1f-4c60-9d9d-a8486e2196bf","system_id":"levelo_inurba_marseille","lat":43.2316,"lon":5.43698,"is_reserved":false,"is_disabled":false,"rental_uris":{"android":"levelo://app?vid=fe122dd9-ae1f-4c60-9d9d-a8486e2196bf","ios":"levelo://app?vid=fe122dd9-ae1f-4c60-9d9d-a8486e2196bf"},"vehicle_type_id":"4","last_reported":1758802905,"current_range_meters":17600,"station_id":"ce4bhmp2rcd13ifvqgog","pricing_plan_id":"cebpf4jnsgd1na2vs0mg"},{"bike_id":"aeff7e6b-a7f3-4140-a005-9822fe4e1519","system_id":"levelo_inurba_marseille","lat":43.24645,"lon":5.4314,"is_reserved":false,"is_disabled":true,"rental_uris":{"android":"levelo://app?vid=aeff7e6b-a7f3-4140-a005-9822fe4e1519","ios":"levelo://app?vid=aeff7e6b-a7f3-4140-a005-9822fe4e1519"},"vehicle_type_id":"4","last_reported":1758802905,"current_range_meters":17600,"station_id":"st_d2m6c4gdas8pm72e190g","pricing_plan_id":"cebpf4jnsgd1na2vs0mg"},{"bike_id":"1b20e7b2-029e-485f-b298-949b9e96bacd","system_id":"levelo_inurba_marseille","lat":43.33609,"lon":5.41029,"is_reserved":false,"is_disabled":false,"rental_uris":{"android":"levelo://app?vid=1b20e7b2-029e-485f-b298-949b9e96bacd","ios":"levelo://app?vid=1b20e7b2-029e-485f-b298-949b9e96bacd"},"vehicle_type_id":"4","last_reported":1758802905,"current_range_meters":17600,"station_id":"ce4bhqh2rcd13ifvqhmg","pricing_plan_id":"cebpf4jnsgd1na2vs0mg"},{"bike_id":"6abff3ff-6f25-403c-932e-68932b6e0682","system_id":"levelo_inurba_marseille","lat":43.23156,"lon":5.43706,"is_reserved":false,"is_disabled":false,"rental_uris":{"android":"levelo://app?vid=6abff3ff-6f25-403c-932e-68932b6e0682","ios":"levelo://app?vid=6abff3ff-6f25-403c-932e-68932b6e0682"},"vehicle_type_id":"4","last_reported":1758802905,"current_range_meters":17600,"station_id":"ce4bhmp2rcd13ifvqgog","pricing_plan_id":"cebpf4jnsgd1na2vs0mg"},{"bike_id":"3610a91b-b28a-428a-a2b9-e58a16855e69","system_id":"levelo_inurba_marseille","lat":43.29005,"lon":5.35599,"is_reserved":false,"is_disabled":false,"rental_uris":{"android":"levelo://app?vid=3610a91b-b28a-428a-a2b9-e58a16855e69","ios":"levelo://app?vid=3610a91b-b28a-428a-a2b9-e58a16855e69"},"vehicle_type_id":"4","last_reported":1758802905,"current_range_meters":17200,"station_id":"ce4bhb92rcd13ifvqen0","pricing_plan_id":"cebpf4jnsgd1na2vs0mg"},{"bike_id":"d1761ccc-e662-4b9a-ae12-6acab88ee54c","system_id":"levelo_inurba_marseille","lat":43.29781,"lon":5.37099,"is_reserved":false,"is_disabled":false,"rental_uris":{"android":"levelo://app?vid=d1761ccc-e662-4b9a-ae12-6acab88ee54c","ios":"levelo://app?vid=d1761ccc-e662-4b9a-ae12-6acab88ee54c"},"vehicle_type_id":"4","last_reported":1758802905,"current_range_meters":17600,"station_id":"ce4bgop2rcd13ifvqc1g","pricing_plan_id":"cebpf4jnsgd1na2vs0mg"},{"bike_id":"a10f7ed7-4d21-45d1-b57d-01405ef498fe","system_id":"levelo_inurba_marseille","lat":43.31229,"lon":5.36863,"is_reserved":false,"is_disabled":false,"rental_uris":{"android":"levelo://app?vid=a10f7ed7-4d21-45d1-b57d-01405ef498fe","ios":"levelo://app?vid=a10f7ed7-4d21-45d1-b57d-01405ef498fe"},"vehicle_type_id":"4","last_reported":1758802905,"current_range_meters":17600,"station_id":"ce4bgl92rcd13ifvqbq0","pricing_plan_id":"cebpf4jnsgd1na2vs0mg"},{"bike_id":"35425744-1bb5-4605-bd68-007206a687a1","system_id":"levelo_inurba_marseille","lat":43.3133,"lon":5.3969,"is_reserved":false,"is_disabled":false,"rental_uris":{"android":"levelo://app?vid=35425744-1bb5-4605-bd68-007206a687a1","ios":"levelo://app?vid=35425744-1bb5-4605-bd68-007206a687a1"},"vehicle_type_id":"4","last_reported":1758802905,"current_range_meters":17600,"station_id":"ce4bgvp2rcd13ifvqcu0","pricing_plan_id":"cebpf4jnsgd1na2vs0mg"},{"bike_id":"43009bdc-c1d2-476d-8753-a235cb8d1a73","system_id":"levelo_inurba_marseille","lat":43.25013,"lon":5.38934,"is_reserved":false,"is_disabled":false,"rental_uris":{"android":"levelo://app?vid=43009bdc-c1d2-476d-8753-a235cb8d1a73","ios":"levelo://app?vid=43009bdc-c1d2-476d-8753-a235cb8d1a73"},"vehicle_type_id":"4","last_reported":1758802905,"current_range_meters":17600,"station_id":"ce4bhgp2rcd13ifvqfd0","pricing_plan_id":"cebpf4jnsgd1na2vs0mg"},{"bike_id":"13c164d5-dbe0-4ef3-9b5a-3f5c81fc6c01","system_id":"levelo_inurba_marseille","lat":43.30477,"lon":5.37906,"is_reserved":false,"is_disabled":false,"rental_uris":{"android":"levelo://app?vid=13c164d5-dbe0-4ef3-9b5a-3f5c81fc6c01","ios":"levelo://app?vid=13c164d5-dbe0-4ef3-9b5a-3f5c81fc6c01"},"vehicle_type_id":"4","last_reported":1758802905,"current_range_meters":17600,"station_id":"ce4bgup2rcd13ifvqcn0","pricing_plan_id":"cebpf4jnsgd1na2vs0mg"},{"bike_id":"327c041e-5c9e-4b0d-a97c-a2dbaab036ae","system_id":"levelo_inurba_marseille","lat":43.32807,"lon":5.41125,"is_reserved":false,"is_disabled":false,"rental_uris":{"android":"levelo://app?vid=327c041e-5c9e-4b0d-a97c-a2dbaab036ae","ios":"levelo://app?vid=327c041e-5c9e-4b0d-a97c-a2dbaab036ae"},"vehicle_type_id":"4","last_reported":1758802905,"current_range_meters":18000,"station_id":"","pricing_plan_id":"cebpf4jnsgd1na2vs0mg"},{"bike_id":"dd64c74e-9efb-46f0-a85b-00c101f649b0","system_id":"levelo_inurba_marseille","lat":43.30537,"lon":5.36704,"is_reserved":false,"is_disabled":false,"rental_uris":{"android":"levelo://app?vid=dd64c74e-9efb-46f0-a85b-00c101f649b0","ios":"levelo://app?vid=dd64c74e-9efb-46f0-a85b-00c101f649b0"},"vehicle_type_id":"4","last_reported":1758802905,"current_range_meters":18000,"station_id":"ce4bgrp2rcd13ifvqc9g","pricing_plan_id":"cebpf4jnsgd1na2vs0mg"},{"bike_id":"012b98bf-d6ae-4caf-bcc5-00e35587e68b","system_id":"levelo_inurba_marseille","lat":43.28872,"lon":5.35831,"is_reserved":false,"is_disabled":false,"rental_uris":{"android":"levelo://app?vid=012b98bf-d6ae-4caf-bcc5-00e35587e68b","ios":"levelo://app?vid=012b98bf-d6ae-4caf-bcc5-00e35587e68b"},"vehicle_type_id":"4","last_reported":1758802905,"current_range_meters":18000,"station_id":"ce4bhb12rcd13ifvqem0","pricing_plan_id":"cebpf4jnsgd1na2vs0mg"},{"bike_id":"804775e9-a2f9-4bb9-b370-a78162905497","system_id":"levelo_inurba_marseille","lat":43.24656,"lon":5.38144,"is_reserved":false,"is_disabled":false,"rental_uris":{"android":"levelo://app?vid=804775e9-a2f9-4bb9-b370-a78162905497","ios":"levelo://app?vid=804775e9-a2f9-4bb9-b370-a78162905497"},"vehicle_type_id":"4","last_reported":1758802905,"current_range_meters":18000,"station_id":"ce4bhih2rcd13ifvqfr0","pricing_plan_id":"cebpf4jnsgd1na2vs0mg"},{"bike_id":"27c7dccf-293e-424c-b564-456ad9a2e6b3","system_id":"levelo_inurba_marseille","lat":43.24183,"lon":5.36382,"is_reserved":false,"is_disabled":false,"rental_uris":{"android":"levelo://app?vid=27c7dccf-293e-424c-b564-456ad9a2e6b3","ios":"levelo://app?vid=27c7dccf-293e-424c-b564-456ad9a2e6b3"},"vehicle_type_id":"4","last_reported":1758802905,"current_range_meters":18000,"station_id":"cpo36qri1sfpv3e86is0","pricing_plan_id":"cebpf4jnsgd1na2vs0mg"},{"bike_id":"7f09bc43-02a6-468a-9182-731c83281b4a","system_id":"levelo_inurba_marseille","lat":43.263634,"lon":5.374952,"is_reserved":false,"is_disabled":false,"rental_uris":{"android":"levelo://app?vid=7f09bc43-02a6-468a-9182-731c83281b4a","ios":"levelo://app?vid=7f09bc43-02a6-468a-9182-731c83281b4a"},"vehicle_type_id":"4","last_reported":1758802905,"current_range_meters":18000,"station_id":"","pricing_plan_id":"cebpf4jnsgd1na2vs0mg"},{"bike_id":"13be0879-670b-43f4-8fc1-8fbc1c4ccf9c","system_id":"levelo_inurba_marseille","lat":43.28429,"lon":5.34978,"is_reserved":false,"is_disabled":false,"rental_uris":{"android":"levelo://app?vid=13be0879-670b-43f4-8fc1-8fbc1c4ccf9c","ios":"levelo://app?vid=13be0879-670b-43f4-8fc1-8fbc1c4ccf9c"},"vehicle_type_id":"4","last_reported":1758802905,"current_range_meters":18000,"station_id":"ce4bhbh2rcd13ifvqepg","pricing_plan_id":"cebpf4jnsgd1na2vs0mg"},{"bike_id":"f5a888db-229a-4246-81ee-0ff2a1bcfdfa","system_id":"levelo_inurba_marseille","lat":43.22939,"lon":5.35363,"is_reserved":false,"is_disabled":false,"rental_uris":{"android":"levelo://app?vid=f5a888db-229a-4246-81ee-0ff2a1bcfdfa","ios":"levelo://app?vid=f5a888db-229a-4246-81ee-0ff2a1bcfdfa"},"vehicle_type_id":"4","last_reported":1758802905,"current_range_meters":18000,"station_id":"cpo3532slgdg3j2ikp40","pricing_plan_id":"cebpf4jnsgd1na2vs0mg"},{"bike_id":"467b4306-5fd8-484e-9a4b-cf8eb50151ba","system_id":"levelo_inurba_marseille","lat":43.32288,"lon":5.38236,"is_reserved":false,"is_disabled":false,"rental_uris":{"android":"levelo://app?vid=467b4306-5fd8-484e-9a4b-cf8eb50151ba","ios":"levelo://app?vid=467b4306-5fd8-484e-9a4b-cf8eb50151ba"},"vehicle_type_id":"4","last_reported":1758802905,"current_range_meters":18800,"station_id":"ce4bhr12rcd13ifvqhqg","pricing_plan_id":"cebpf4jnsgd1na2vs0mg"},{"bike_id":"75611fb7-df45-4d9f-9db0-a181136cc424","system_id":"levelo_inurba_marseille","lat":43.21753,"lon":5.34598,"is_reserved":false,"is_disabled":true,"rental_uris":{"android":"levelo://app?vid=75611fb7-df45-4d9f-9db0-a181136cc424","ios":"levelo://app?vid=75611fb7-df45-4d9f-9db0-a181136cc424"},"vehicle_type_id":"4","last_reported":1758802905,"current_range_meters":18800,"station_id":"st_cvj6r9ubvosntc0bgbag","pricing_plan_id":"cebpf4jnsgd1na2vs0mg"},{"bike_id":"7417f4be-82f7-46d4-bf60-730e50ab943c","system_id":"levelo_inurba_marseille","lat":43.29281,"lon":5.3684,"is_reserved":false,"is_disabled":false,"rental_uris":{"android":"levelo://app?vid=7417f4be-82f7-46d4-bf60-730e50ab943c","ios":"levelo://app?vid=7417f4be-82f7-46d4-bf60-730e50ab943c"},"vehicle_type_id":"4","last_reported":1758802905,"current_range_meters":18800,"station_id":"ce4bhbp2rcd13ifvqesg","pricing_plan_id":"cebpf4jnsgd1na2vs0mg"},{"bike_id":"b567dfa6-db04-4eb0-a3dc-2ac34452da5d","system_id":"levelo_inurba_marseille","lat":43.23157,"lon":5.43699,"is_reserved":false,"is_disabled":true,"rental_uris":{"android":"levelo://app?vid=b567dfa6-db04-4eb0-a3dc-2ac34452da5d","ios":"levelo://app?vid=b567dfa6-db04-4eb0-a3dc-2ac34452da5d"},"vehicle_type_id":"4","last_reported":1758802905,"current_range_meters":18800,"station_id":"ce4bhmp2rcd13ifvqgog","pricing_plan_id":"cebpf4jnsgd1na2vs0mg"},{"bike_id":"bf5c6fa1-813e-4a46-a2b1-8b9db09dd5d1","system_id":"levelo_inurba_marseille","lat":43.30253,"lon":5.40055,"is_reserved":false,"is_disabled":false,"rental_uris":{"android":"levelo://app?vid=bf5c6fa1-813e-4a46-a2b1-8b9db09dd5d1","ios":"levelo://app?vid=bf5c6fa1-813e-4a46-a2b1-8b9db09dd5d1"},"vehicle_type_id":"4","last_reported":1758802905,"current_range_meters":18000,"station_id":"ce4bgvh2rcd13ifvqcs0","pricing_plan_id":"cebpf4jnsgd1na2vs0mg"},{"bike_id":"48f118ba-5e81-4c62-9fdf-4f2e2bca94e9","system_id":"levelo_inurba_marseille","lat":43.26208,"lon":5.37439,"is_reserved":false,"is_disabled":false,"rental_uris":{"android":"levelo://app?vid=48f118ba-5e81-4c62-9fdf-4f2e2bca94e9","ios":"levelo://app?vid=48f118ba-5e81-4c62-9fdf-4f2e2bca94e9"},"vehicle_type_id":"4","last_reported":1758802905,"current_range_meters":18800,"station_id":"ce4bhgp2rcd13ifvqfc0","pricing_plan_id":"cebpf4jnsgd1na2vs0mg"},{"bike_id":"0c8cc4cf-1548-4702-8beb-4813f33f974a","system_id":"levelo_inurba_marseille","lat":43.23171,"lon":5.43704,"is_reserved":false,"is_disabled":false,"rental_uris":{"android":"levelo://app?vid=0c8cc4cf-1548-4702-8beb-4813f33f974a","ios":"levelo://app?vid=0c8cc4cf-1548-4702-8beb-4813f33f974a"},"vehicle_type_id":"4","last_reported":1758802905,"current_range_meters":18800,"station_id":"ce4bhmp2rcd13ifvqgog","pricing_plan_id":"cebpf4jnsgd1na2vs0mg"},{"bike_id":"77e2d895-129a-4ff3-9d84-075d048492b7","system_id":"levelo_inurba_marseille","lat":43.24992,"lon":5.38935,"is_reserved":false,"is_disabled":false,"rental_uris":{"android":"levelo://app?vid=77e2d895-129a-4ff3-9d84-075d048492b7","ios":"levelo://app?vid=77e2d895-129a-4ff3-9d84-075d048492b7"},"vehicle_type_id":"4","last_reported":1758802905,"current_range_meters":18800,"station_id":"ce4bhgp2rcd13ifvqfd0","pricing_plan_id":"cebpf4jnsgd1na2vs0mg"},{"bike_id":"9006bf3d-4da8-4adb-9ea9-b302b3a5f525","system_id":"levelo_inurba_marseille","lat":43.24089,"lon":5.37744,"is_reserved":false,"is_disabled":false,"rental_uris":{"android":"levelo://app?vid=9006bf3d-4da8-4adb-9ea9-b302b3a5f525","ios":"levelo://app?vid=9006bf3d-4da8-4adb-9ea9-b302b3a5f525"},"vehicle_type_id":"4","last_reported":1758802905,"current_range_meters":18800,"station_id":"ce4bhnp2rcd13ifvqgvg","pricing_plan_id":"cebpf4jnsgd1na2vs0mg"},{"bike_id":"f792f6de-294f-410b-a3c8-e012988cffd4","system_id":"levelo_inurba_marseille","lat":43.32539,"lon":5.41445,"is_reserved":false,"is_disabled":false,"rental_uris":{"android":"levelo://app?vid=f792f6de-294f-410b-a3c8-e012988cffd4","ios":"levelo://app?vid=f792f6de-294f-410b-a3c8-e012988cffd4"},"vehicle_type_id":"4","last_reported":1758802905,"current_range_meters":18800,"station_id":"ce4bhq12rcd13ifvqhhg","pricing_plan_id":"cebpf4jnsgd1na2vs0mg"},{"bike_id":"08fe2b08-b3fa-43f8-ae73-04061f76318d","system_id":"levelo_inurba_marseille","lat":43.305552,"lon":5.365395,"is_reserved":false,"is_disabled":false,"rental_uris":{"android":"levelo://app?vid=08fe2b08-b3fa-43f8-ae73-04061f76318d","ios":"levelo://app?vid=08fe2b08-b3fa-43f8-ae73-04061f76318d"},"vehicle_type_id":"4","last_reported":1758802905,"current_range_meters":18800,"station_id":"","pricing_plan_id":"cebpf4jnsgd1na2vs0mg"},{"bike_id":"2467a753-313c-471d-a85f-f37385397fb9","system_id":"levelo_inurba_marseille","lat":43.25944,"lon":5.40925,"is_reserved":false,"is_disabled":false,"rental_uris":{"android":"levelo://app?vid=2467a753-313c-471d-a85f-f37385397fb9","ios":"levelo://app?vid=2467a753-313c-471d-a85f-f37385397fb9"},"vehicle_type_id":"4","last_reported":1758802905,"current_range_meters":18800,"station_id":"ce4bhm92rcd13ifvqglg","pricing_plan_id":"cebpf4jnsgd1na2vs0mg"},{"bike_id":"27db5da4-fbb9-43ee-b3a8-076c752d9eb1","system_id":"levelo_inurba_marseille","lat":43.25723,"lon":5.41109,"is_reserved":false,"is_disabled":false,"rental_uris":{"android":"levelo://app?vid=27db5da4-fbb9-43ee-b3a8-076c752d9eb1","ios":"levelo://app?vid=27db5da4-fbb9-43ee-b3a8-076c752d9eb1"},"vehicle_type_id":"4","last_reported":1758802905,"current_range_meters":18800,"station_id":"ce4bhkp2rcd13ifvqgd0","pricing_plan_id":"cebpf4jnsgd1na2vs0mg"},{"bike_id":"1d5d14cf-15e7-4470-bff9-613bb9abe120","system_id":"levelo_inurba_marseille","lat":43.33483,"lon":5.4206,"is_reserved":false,"is_disabled":false,"rental_uris":{"android":"levelo://app?vid=1d5d14cf-15e7-4470-bff9-613bb9abe120","ios":"levelo://app?vid=1d5d14cf-15e7-4470-bff9-613bb9abe120"},"vehicle_type_id":"4","last_reported":1758802905,"current_range_meters":18800,"station_id":"","pricing_plan_id":"cebpf4jnsgd1na2vs0mg"},{"bike_id":"a0c3a589-8344-46ea-a99a-a68515cf55a6","system_id":"levelo_inurba_marseille","lat":43.29227,"lon":5.36069,"is_reserved":false,"is_disabled":false,"rental_uris":{"android":"levelo://app?vid=a0c3a589-8344-46ea-a99a-a68515cf55a6","ios":"levelo://app?vid=a0c3a589-8344-46ea-a99a-a68515cf55a6"},"vehicle_type_id":"4","last_reported":1758802905,"current_range_meters":18800,"station_id":"ce4bhbh2rcd13ifvqeqg","pricing_plan_id":"cebpf4jnsgd1na2vs0mg"},{"bike_id":"0850322e-223c-40f6-9cf6-f506ac5c8015","system_id":"levelo_inurba_marseille","lat":43.31175,"lon":5.36937,"is_reserved":false,"is_disabled":false,"rental_uris":{"android":"levelo://app?vid=0850322e-223c-40f6-9cf6-f506ac5c8015","ios":"levelo://app?vid=0850322e-223c-40f6-9cf6-f506ac5c8015"},"vehicle_type_id":"4","last_reported":1758802905,"current_range_meters":18800,"station_id":"","pricing_plan_id":"cebpf4jnsgd1na2vs0mg"},{"bike_id":"208d8654-3228-40c7-b9c8-8618c2e5fa52","system_id":"levelo_inurba_marseille","lat":43.28631,"lon":5.38272,"is_reserved":false,"is_disabled":false,"rental_uris":{"android":"levelo://app?vid=208d8654-3228-40c7-b9c8-8618c2e5fa52","ios":"levelo://app?vid=208d8654-3228-40c7-b9c8-8618c2e5fa52"},"vehicle_type_id":"4","last_reported":1758802905,"current_range_meters":18800,"station_id":"","pricing_plan_id":"cebpf4jnsgd1na2vs0mg"},{"bike_id":"1df5ce8c-d7d2-4870-a705-78837839c325","system_id":"levelo_inurba_marseille","lat":43.26786,"lon":5.39419,"is_reserved":false,"is_disabled":false,"rental_uris":{"android":"levelo://app?vid=1df5ce8c-d7d2-4870-a705-78837839c325","ios":"levelo://app?vid=1df5ce8c-d7d2-4870-a705-78837839c325"},"vehicle_type_id":"4","last_reported":1758802905,"current_range_meters":18800,"station_id":"ce4bhh12rcd13ifvqfg0","pricing_plan_id":"cebpf4jnsgd1na2vs0mg"},{"bike_id":"10b8d871-07e9-4114-9eb9-6bcce40e7beb","system_id":"levelo_inurba_marseille","lat":43.27045,"lon":5.392226,"is_reserved":false,"is_disabled":false,"rental_uris":{"android":"levelo://app?vid=10b8d871-07e9-4114-9eb9-6bcce40e7beb","ios":"levelo://app?vid=10b8d871-07e9-4114-9eb9-6bcce40e7beb"},