{"last_updated":1678522160,"ttl":30,"version":"2.2","data":{"bikes":[{"bike_id":"d0737950-90ef-444e-8136-90126181dcfa","system_id":"levelo_inurba_marseille","lat":43.312239,"lon":5.368562,"is_reserved":false,"is_disabled":false,"rental_uris":{"android":"levelo://app?vid=d0737950-90ef-444e-8136-90126181dcfa","ios":"levelo://app?vid=d0737950-90ef-444e-8136-90126181dcfa"},"vehicle_type_id":"4","last_reported":1678522161,"current_range_meters":30400,"station_id":"ce4bgl92rcd13ifvqbq0","pricing_plan_id":"free"},{"bike_id":"1c64c75a-c4f6-4ab6-ab46-31e613f15330","system_id":"levelo_inurba_marseille","lat":43.312239,"lon":5.368562,"is_reserved":false,"is_disabled":false,"rental_uris":{"android":"levelo://app?vid=1c64c75a-c4f6-4ab6-ab46-31e613f15330","ios":"levelo://app?vid=1c64c75a-c4f6-4ab6-ab46-31e613f15330"},"vehicle_type_id":"4","last_reported":1678522161,"current_range_meters":29200,"station_id":"ce4bgl92rcd13ifvqbq0","pricing_plan_id":"free"},{"bike_id":"209d1147-70eb-4e09-8ddf-7e5fca6f4a12","system_id":"levelo_inurba_marseille","lat":43.312239,"lon":5.368562,"is_reserved":false,"is_disabled":false,"rental_uris":{"android":"levelo://app?vid=209d1147-70eb-4e09-8ddf-7e5fca6f4a12","ios":"levelo://app?vid=209d1147-70eb-4e09-8ddf-7e5fca6f4a12"},"vehicle_type_id":"4","last_reported":1678522161,"current_range_meters":30400,"station_id":"ce4bgl92rcd13ifvqbq0","pricing_plan_id":"free"},{"bike_id":"38e45496-8953-4d11-a58d-751f296a241f","system_id":"levelo_inurba_marseille","lat":43.312224,"lon":5.368542,"is_reserved":false,"is_disabled":false,"rental_uris":{"android":"levelo://app?vid=38e45496-8953-4d11-a58d-751f296a241f","ios":"levelo://app?vid=38e45496-8953-4d11-a58d-751f296a241f"},"vehicle_type_id":"4","last_reported":1678522161,"current_range_meters":28000,"station_id":"ce4bgl92rcd13ifvqbq0","pricing_plan_id":"free"},{"bike_id":"f707a4b3-aacd-4953-9b5f-b1f35ee41275","system_id":"levelo_inurba_marseille","lat":43.312239,"lon":5.368562,"is_reserved":false,"is_disabled":false,"rental_uris":{"android":"levelo://app?vid=f707a4b3-aacd-4953-9b5f-b1f35ee41275","ios":"levelo://app?vid=f707a4b3-aacd-4953-9b5f-b1f35ee41275"},"vehicle_type_id":"4","last_reported":1678522161,"current_range_meters":23600,"station_id":"ce4bgl92rcd13ifvqbq0","pricing_plan_id":"free"},{"bike_id":"0f36200e-0632-4e19-b249-45f3bcdcc2e7","system_id":"levelo_inurba_marseille","lat":43.30903,"lon":5.36852,"is_reserved":false,"is_disabled":false,"rental_uris":{"android":"levelo://app?vid=0f36200e-0632-4e19-b249-45f3bcdcc2e7","ios":"levelo://app?vid=0f36200e-0632-4e19-b249-45f3bcdcc2e7"},"vehicle_type_id":"4","last_reported":1678522161,"current_range_meters":12800,"station_id":"ce4bgn92rcd13ifvqbvg","pricing_plan_id":"free"},{"bike_id":"79e696dd-6abb-46d0-a9fb-be12eef7e9a7","system_id":"levelo_inurba_marseille","lat":43.30899,"lon":5.3685,"is_reserved":false,"is_disabled":false,"rental_uris":{"android":"levelo://app?vid=79e696dd-6abb-46d0-a9fb-be12eef7e9a7","ios":"levelo://app?vid=79e696dd-6abb-46d0-a9fb-be12eef7e9a7"},"vehicle_type_id":"4","last_reported":1678522161,"current_range_meters":9600,"station_id":"ce4bgn92rcd13ifvqbvg","pricing_plan_id":"free"},{"bike_id":"29ddd9c3-8b25-49bf-9bd3-595431a62207","system_id":"levelo_inurba_marseille","lat":43.314811,"lon":5.373103,"is_reserved":false,"is_disabled":false,"rental_uris":{"android":"levelo://app?vid=29ddd9c3-8b25-49bf-9bd3-595431a62207","ios":"levelo://app?vid=29ddd9c3-8b25-49bf-9bd3-595431a62207"},"vehicle_type_id":"4","last_reported":1678522161,"current_range_meters":19600,"station_id":"ce4bgt12rcd13ifvqcd0","pricing_plan_id":"free"},{"bike_id":"f8edda47-84ea-4677-97c7-2e2456aed61d","system_id":"levelo_inurba_marseille","lat":43.314811,"lon":5.373103,"is_reserved":false,"is_disabled":false,"rental_uris":{"android":"levelo://app?vid=f8edda47-84ea-4677-97c7-2e2456aed61d","ios":"levelo://app?vid=f8edda47-84ea-4677-97c7-2e2456aed61d"},"vehicle_type_id":"4","last_reported":1678522161,"current_range_meters":31600,"station_id":"ce4bgt12rcd13ifvqcd0","pricing_plan_id":"free"},{"bike_id":"6e8cdd63-9c9a-455e-8641-70bfbf96ceef","system_id":"levelo_inurba_marseille","lat":43.314811,"lon":5.373103,"is_reserved":false,"is_disabled":false,"rental_uris":{"android":"levelo://app?vid=6e8cdd63-9c9a-455e-8641-70bfbf96ceef","ios":"levelo://app?vid=6e8cdd63-9c9a-455e-8641-70bfbf96ceef"},"vehicle_type_id":"4","last_reported":1678522161,"current_range_meters":16400,"station_id":"ce4bgt12rcd13ifvqcd0","pricing_plan_id":"free"},{"bike_id":"5c63ebbb-8f0d-4bbe-988c-d4c9f9b1149b","system_id":"levelo_inurba_marseille","lat":43.314811,"lon":5.373103,"is_reserved":false,"is_disabled":false,"rental_uris":{"android":"levelo://app?vid=5c63ebbb-8f0d-4bbe-988c-d4c9f9b1149b","ios":"levelo://app?vid=5c63ebbb-8f0d-4bbe-988c-d4c9f9b1149b"},"vehicle_type_id":"4","last_reported":1678522161,"current_range_meters":22800,"station_id":"ce4bgt12rcd13ifvqcd0","pricing_plan_id":"free"},{"bike_id":"0cd30444-a11d-4cde-add5-383efd6d9afe","system_id":"levelo_inurba_marseille","lat":43.315026,"lon":5.372967,"is_reserved":false,"is_disabled":false,"rental_uris":{"android":"levelo://app?vid=0cd30444-a11d-4cde-add5-383efd6d9afe","ios":"levelo://app?vid=0cd30444-a11d-4cde-add5-383efd6d9afe"},"vehicle_type_id":"4","last_reported":1678522161,"current_range_meters":29200,"station_id":"","pricing_plan_id":"free"},{"bike_id":"6bc2c41e-242d-425e-81a6-1d46493fd316","system_id":"levelo_inurba_marseille","lat":43.314811,"lon":5.373103,"is_reserved":false,"is_disabled":false,"rental_uris":{"android":"levelo://app?vid=6bc2c41e-242d-425e-81a6-1d46493fd316","ios":"levelo://app?vid=6bc2c41e-242d-425e-81a6-1d46493fd316"},"vehicle_type_id":"4","last_reported":1678522161,"current_range_meters":30400,"station_id":"ce4bgt12rcd13ifvqcd0","pricing_plan_id":"free"},{"bike_id":"4e12d16d-d9ce-490a-af15-9b3135bb93ac","system_id":"levelo_inurba_marseille","lat":43.314811,"lon":5.373103,"is_reserved":false,"is_disabled":false,"rental_uris":{"android":"levelo://app?vid=4e12d16d-d9ce-490a-af15-9b3135bb93ac","ios":"levelo://app?vid=4e12d16d-d9ce-490a-af15-9b3135bb93ac"},"vehicle_type_id":"4","last_reported":1678522161,"current_range_meters":31600,"station_id":"ce4bgt12rcd13ifvqcd0","pricing_plan_id":"free"},{"bike_id":"4b318eb4-5ac1-4b68-8c58-d418ec5c6103","system_id":"levelo_inurba_marseille","lat":43.317896,"lon":5.368143,"is_reserved":false,"is_disabled":false,"rental_uris":{"android":"levelo://app?vid=4b318eb4-5ac1-4b68-8c58-d418ec5c6103","ios":"levelo://app?vid=4b318eb4-5ac1-4b68-8c58-d418ec5c6103"},"vehicle_type_id":"4","last_reported":1678522161,"current_range_meters":15200,"station_id":"","pricing_plan_id":"free"},{"bike_id":"d643d077-1c05-489c-9fd4-f388cb48123f","system_id":"levelo_inurba_marseille","lat":43.30752,"lon":5.36606,"is_reserved":false,"is_disabled":false,"rental_uris":{"android":"levelo://app?vid=d643d077-1c05-489c-9fd4-f388cb48123f","ios":"levelo://app?vid=d643d077-1c05-489c-9fd4-f388cb48123f"},"vehicle_type_id":"4","last_reported":1678522161,"current_range_meters":31600,"station_id":"","pricing_plan_id":"free"},{"bike_id":"b0196122-c627-478f-8e65-143c5c97a186","system_id":"levelo_inurba_marseille","lat":43.308614,"lon":5.372098,"is_reserved":false,"is_disabled":false,"rental_uris":{"android":"levelo://app?vid=b0196122-c627-478f-8e65-143c5c97a186","ios":"levelo://app?vid=b0196122-c627-478f-8e65-143c5c97a186"},"vehicle_type_id":"4","last_reported":1678522161,"current_range_meters":25600,"station_id":"ce4bguh2rcd13ifvqckg","pricing_plan_id":"free"},{"bike_id":"79e634b5-1a20-4f23-a00c-af84fc998131","system_id":"levelo_inurba_marseille","lat":43.308868,"lon":5.371983,"is_reserved":false,"is_disabled":false,"rental_uris":{"android":"levelo://app?vid=79e634b5-1a20-4f23-a00c-af84fc998131","ios":"levelo://app?vid=79e634b5-1a20-4f23-a00c-af84fc998131"},"vehicle_type_id":"4","last_reported":1678522161,"current_range_meters":29200,"station_id":"","pricing_plan_id":"free"},{"bike_id":"03c01d00-5081-4558-9d7c-a25608f4f878","system_id":"levelo_inurba_marseille","lat":43.308614,"lon":5.372098,"is_reserved":false,"is_disabled":false,"rental_uris":{"android":"levelo://app?vid=03c01d00-5081-4558-9d7c-a25608f4f878","ios":"levelo://app?vid=03c01d00-5081-4558-9d7c-a25608f4f878"},"vehicle_type_id":"4","last_reported":1678522161,"current_range_meters":29600,"station_id":"ce4bguh2rcd13ifvqckg","pricing_plan_id":"free"},{"bike_id":"bf6961cc-9826-4055-b4fa-6e163a2ab59b","system_id":"levelo_inurba_marseille","lat":43.305989,"lon":5.37225,"is_reserved":false,"is_disabled":false,"rental_uris":{"android":"levelo://app?vid=bf6961cc-9826-4055-b4fa-6e163a2ab59b","ios":"levelo://app?vid=bf6961cc-9826-4055-b4fa-6e163a2ab59b"},"vehicle_type_id":"4","last_reported":1678522161,"current_range_meters":27600,"station_id":"ce4bgqh2rcd13ifvqc4g","pricing_plan_id":"free"},{"bike_id":"0687f5f8-a309-44cb-baa9-ab49024f17e7","system_id":"levelo_inurba_marseille","lat":43.306107,"lon":5.372204,"is_reserved":false,"is_disabled":false,"rental_uris":{"android":"levelo://app?vid=0687f5f8-a309-44cb-baa9-ab49024f17e7","ios":"levelo://app?vid=0687f5f8-a309-44cb-baa9-ab49024f17e7"},"vehicle_type_id":"4","last_reported":1678522161,"current_range_meters":30400,"station_id":"","pricing_plan_id":"free"},{"bike_id":"0094667f-7308-4b30-959e-ee3f3f2d3baa","system_id":"levelo_inurba_marseille","lat":43.305989,"lon":5.37225,"is_reserved":false,"is_disabled":false,"rental_uris":{"android":"levelo://app?vid=0094667f-7308-4b30-959e-ee3f3f2d3baa","ios":"levelo://app?vid=0094667f-7308-4b30-959e-ee3f3f2d3baa"},"vehicle_type_id":"4","last_reported":1678522161,"current_range_meters":28400,"station_id":"ce4bgqh2rcd13ifvqc4g","pricing_plan_id":"free"},{"bike_id":"312eeb2d-45a0-420a-a2f6-1d8d879d4c6a","system_id":"levelo_inurba_marseille","lat":43.305989,"lon":5.37225,"is_reserved":false,"is_disabled":false,"rental_uris":{"android":"levelo://app?vid=312eeb2d-45a0-420a-a2f6-1d8d879d4c6a","ios":"levelo://app?vid=312eeb2d-45a0-420a-a2f6-1d8d879d4c6a"},"vehicle_type_id":"4","last_reported":1678522161,"current_range_meters":30400,"station_id":"ce4bgqh2rcd13ifvqc4g","pricing_plan_id":"free"},{"bike_id":"c60684f2-0739-4075-aa29-a0a585b6bc2f","system_id":"levelo_inurba_marseille","lat":43.305989,"lon":5.37225,"is_reserved":false,"is_disabled":false,"rental_uris":{"android":"levelo://app?vid=c60684f2-0739-4075-aa29-a0a585b6bc2f","ios":"levelo://app?vid=c60684f2-0739-4075-aa29-a0a585b6bc2f"},"vehicle_type_id":"4","last_reported":1678522161,"current_range_meters":27600,"station_id":"ce4bgqh2rcd13ifvqc4g","pricing_plan_id":"free"},{"bike_id":"14f41db6-e9b8-4193-8c56-e2eea4f26cb4","system_id":"levelo_inurba_marseille","lat":43.305989,"lon":5.37225,"is_reserved":false,"is_disabled":false,"rental_uris":{"android":"levelo://app?vid=14f41db6-e9b8-4193-8c56-e2eea4f26cb4","ios":"levelo://app?vid=14f41db6-e9b8-4193-8c56-e2eea4f26cb4"},"vehicle_type_id":"4","last_reported":1678522161,"current_range_meters":28000,"station_id":"ce4bgqh2rcd13ifvqc4g","pricing_plan_id":"free"},{"bike_id":"d693ac60-4d4b-4b26-852f-16b1222b73a4","system_id":"levelo_inurba_marseille","lat":43.305989,"lon":5.37225,"is_reserved":false,"is_disabled":false,"rental_uris":{"android":"levelo://app?vid=d693ac60-4d4b-4b26-852f-16b1222b73a4","ios":"levelo://app?vid=d693ac60-4d4b-4b26-852f-16b1222b73a4"},"vehicle_type_id":"4","last_reported":1678522161,"current_range_meters":30000,"station_id":"ce4bgqh2rcd13ifvqc4g","pricing_plan_id":"free"},{"bike_id":"64270dce-9b59-4a87-acf0-856299de31f3","system_id":"levelo_inurba_marseille","lat":43.317075,"lon":5.377367,"is_reserved":false,"is_disabled":false,"rental_uris":{"android":"levelo://app?vid=64270dce-9b59-4a87-acf0-856299de31f3","ios":"levelo://app?vid=64270dce-9b59-4a87-acf0-856299de31f3"},"vehicle_type_id":"4","last_reported":1678522161,"current_range_meters":16000,"station_id":"ce4bgth2rcd13ifvqch0","pricing_plan_id":"free"},{"bike_id":"cc386935-c204-4174-bafd-acc1d24e4fa9","system_id":"levelo_inurba_marseille","lat":43.30342,"lon":5.37255,"is_reserved":false,"is_disabled":false,"rental_uris":{"android":"levelo://app?vid=cc386935-c204-4174-bafd-acc1d24e4fa9","ios":"levelo://app?vid=cc386935-c204-4174-bafd-acc1d24e4fa9"},"vehicle_type_id":"4","last_reported":1678522161,"current_range_meters":2000,"station_id":"","pricing_plan_id":"free"},{"bike_id":"9f269833-a27f-4696-836f-2dee2eac6cd2","system_id":"levelo_inurba_marseille","lat":43.301939,"lon":5.366286,"is_reserved":false,"is_disabled":false,"rental_uris":{"android":"levelo://app?vid=9f269833-a27f-4696-836f-2dee2eac6cd2","ios":"levelo://app?vid=9f269833-a27f-4696-836f-2dee2eac6cd2"},"vehicle_type_id":"4","last_reported":1678522161,"current_range_meters":24000,"station_id":"ce4bgrh2rcd13ifvqc8g","pricing_plan_id":"free"},{"bike_id":"dd1627e5-e885-49e4-9401-81d3408e07cd","system_id":"levelo_inurba_marseille","lat":43.308012,"lon":5.381511,"is_reserved":false,"is_disabled":false,"rental_uris":{"android":"levelo://app?vid=dd1627e5-e885-49e4-9401-81d3408e07cd","ios":"levelo://app?vid=dd1627e5-e885-49e4-9401-81d3408e07cd"},"vehicle_type_id":"4","last_reported":1678522161,"current_range_meters":30000,"station_id":"ce4bgt12rcd13ifvqce0","pricing_plan_id":"free"},{"bike_id":"2de073a0-6a46-4244-8fcf-a05f207abe45","system_id":"levelo_inurba_marseille","lat":43.308012,"lon":5.381511,"is_reserved":false,"is_disabled":false,"rental_uris":{"android":"levelo://app?vid=2de073a0-6a46-4244-8fcf-a05f207abe45","ios":"levelo://app?vid=2de073a0-6a46-4244-8fcf-a05f207abe45"},"vehicle_type_id":"4","last_reported":1678522161,"current_range_meters":31600,"station_id":"ce4bgt12rcd13ifvqce0","pricing_plan_id":"free"},{"bike_id":"55521688-2a41-4fa6-b6b0-91ab69d43989","system_id":"levelo_inurba_marseille","lat":43.308012,"lon":5.381511,"is_reserved":false,"is_disabled":false,"rental_uris":{"android":"levelo://app?vid=55521688-2a41-4fa6-b6b0-91ab69d43989","ios":"levelo://app?vid=55521688-2a41-4fa6-b6b0-91ab69d43989"},"vehicle_type_id":"4","last_reported":1678522161,"current_range_meters":23200,"station_id":"ce4bgt12rcd13ifvqce0","pricing_plan_id":"free"},{"bike_id":"7d4d4f3a-ce18-40da-a860-0e93cc31263c","system_id":"levelo_inurba_marseille","lat":43.308012,"lon":5.381511,"is_reserved":false,"is_disabled":false,"rental_uris":{"android":"levelo://app?vid=7d4d4f3a-ce18-40da-a860-0e93cc31263c","ios":"levelo://app?vid=7d4d4f3a-ce18-40da-a860-0e93cc31263c"},"vehicle_type_id":"4","last_reported":1678522161,"current_range_meters":27600,"station_id":"ce4bgt12rcd13ifvqce0","pricing_plan_id":"free"},{"bike_id":"41b580b4-90ef-4bd4-9ea9-1cfd32ed7e23","system_id":"levelo_inurba_marseille","lat":43.308012,"lon":5.381511,"is_reserved":false,"is_disabled":false,"rental_uris":{"android":"levelo://app?vid=41b580b4-90ef-4bd4-9ea9-1cfd32ed7e23","ios":"levelo://app?vid=41b580b4-90ef-4bd4-9ea9-1cfd32ed7e23"},"vehicle_type_id":"4","last_reported":1678522161,"current_range_meters":28000,"station_id":"ce4bgt12rcd13ifvqce0","pricing_plan_id":"free"},{"bike_id":"6b6d0dc5-ce5f-4962-a36f-34474a90c1c0","system_id":"levelo_inurba_marseille","lat":43.304606,"lon":5.379026,"is_reserved":false,"is_disabled":false,"rental_uris":{"android":"levelo://app?vid=6b6d0dc5-ce5f-4962-a36f-34474a90c1c0","ios":"levelo://app?vid=6b6d0dc5-ce5f-4962-a36f-34474a90c1c0"},"vehicle_type_id":"4","last_reported":1678522161,"current_range_meters":31600,"station_id":"ce4bgup2rcd13ifvqcn0","pricing_plan_id":"free"},{"bike_id":"dfa53992-1766-4cde-ae7c-3b8e73bbff46","system_id":"levelo_inurba_marseille","lat":43.304606,"lon":5.379026,"is_reserved":false,"is_disabled":false,"rental_uris":{"android":"levelo://app?vid=dfa53992-1766-4cde-ae7c-3b8e73bbff46","ios":"levelo://app?vid=dfa53992-1766-4cde-ae7c-3b8e73bbff46"},"vehicle_type_id":"4","last_reported":1678522161,"current_range_meters":28800,"station_id":"ce4bgup2rcd13ifvqcn0","pricing_plan_id":"free"},{"bike_id":"f91319bf-dd4c-4338-b24b-098617e6e6b1","system_id":"levelo_inurba_marseille","lat":43.304606,"lon":5.379026,"is_reserved":false,"is_disabled":false,"rental_uris":{"android":"levelo://app?vid=f91319bf-dd4c-4338-b24b-098617e6e6b1","ios":"levelo://app?vid=f91319bf-dd4c-4338-b24b-098617e6e6b1"},"vehicle_type_id":"4","last_reported":1678522161,"current_range_meters":25600,"station_id":"ce4bgup2rcd13ifvqcn0","pricing_plan_id":"free"},{"bike_id":"43c86b82-f39f-472a-9b82-e5cca2872737","system_id":"levelo_inurba_marseille","lat":43.304606,"lon":5.379026,"is_reserved":false,"is_disabled":false,"rental_uris":{"android":"levelo://app?vid=43c86b82-f39f-472a-9b82-e5cca2872737","ios":"levelo://app?vid=43c86b82-f39f-472a-9b82-e5cca2872737"},"vehicle_type_id":"4","last_reported":1678522161,"current_range_meters":29200,"station_id":"ce4bgup2rcd13ifvqcn0","pricing_plan_id":"free"},{"bike_id":"0dd5fd81-9bc5-4a19-a53d-0a395414fee1","system_id":"levelo_inurba_marseille","lat":43.304606,"lon":5.379026,"is_reserved":false,"is_disabled":false,"rental_uris":{"android":"levelo://app?vid=0dd5fd81-9bc5-4a19-a53d-0a395414fee1","ios":"levelo://app?vid=0dd5fd81-9bc5-4a19-a53d-0a395414fee1"},"vehicle_type_id":"4","last_reported":1678522161,"current_range_meters":13200,"station_id":"ce4bgup2rcd13ifvqcn0","pricing_plan_id":"free"},{"bike_id":"866bd550-c3dd-4959-a0fa-dc1ac821137f","system_id":"levelo_inurba_marseille","lat":43.304606,"lon":5.379026,"is_reserved":false,"is_disabled":false,"rental_uris":{"android":"levelo://app?vid=866bd550-c3dd-4959-a0fa-dc1ac821137f","ios":"levelo://app?vid=866bd550-c3dd-4959-a0fa-dc1ac821137f"},"vehicle_type_id":"4","last_reported":1678522161,"current_range_meters":26400,"station_id":"ce4bgup2rcd13ifvqcn0","pricing_plan_id":"free"},{"bike_id":"82cfb591-fd75-4fcb-a064-83ce4bbd2ffa","system_id":"levelo_inurba_marseille","lat":43.304606,"lon":5.379026,"is_reserved":false,"is_disabled":false,"rental_uris":{"android":"levelo://app?vid=82cfb591-fd75-4fcb-a064-83ce4bbd2ffa","ios":"levelo://app?vid=82cfb591-fd75-4fcb-a064-83ce4bbd2ffa"},"vehicle_type_id":"4","last_reported":1678522161,"current_range_meters":24400,"station_id":"ce4bgup2rcd13ifvqcn0","pricing_plan_id":"free"},{"bike_id":"6a74c7d4-5268-4adf-ba52-7c47c3e8b699","system_id":"levelo_inurba_marseille","lat":43.304606,"lon":5.379026,"is_reserved":false,"is_disabled":false,"rental_uris":{"android":"levelo://app?vid=6a74c7d4-5268-4adf-ba52-7c47c3e8b699","ios":"levelo://app?vid=6a74c7d4-5268-4adf-ba52-7c47c3e8b699"},"vehicle_type_id":"4","last_reported":1678522161,"current_range_meters":19200,"station_id":"ce4bgup2rcd13ifvqcn0","pricing_plan_id":"free"},{"bike_id":"c60bed40-ff6b-46ef-b6e2-c680ff11cce7","system_id":"levelo_inurba_marseille","lat":43.304606,"lon":5.379026,"is_reserved":false,"is_disabled":false,"rental_uris":{"android":"levelo://app?vid=c60bed40-ff6b-46ef-b6e2-c680ff11cce7","ios":"levelo://app?vid=c60bed40-ff6b-46ef-b6e2-c680ff11cce7"},"vehicle_type_id":"4","last_reported":1678522161,"current_range_meters":30000,"station_id":"ce4bgup2rcd13ifvqcn0","pricing_plan_id":"free"},{"bike_id":"a840a20c-1590-48cb-a5d5-060ab5dad234","system_id":"levelo_inurba_marseille","lat":43.304606,"lon":5.379026,"is_reserved":false,"is_disabled":false,"rental_uris":{"android":"levelo://app?vid=a840a20c-1590-48cb-a5d5-060ab5dad234","ios":"levelo://app?vid=a840a20c-1590-48cb-a5d5-060ab5dad234"},"vehicle_type_id":"4","last_reported":1678522161,"current_range_meters":28800,"station_id":"ce4bgup2rcd13ifvqcn0","pricing_plan_id":"free"},{"bike_id":"090fd4bb-475a-47f2-a07e-538d5ecba164","system_id":"levelo_inurba_marseille","lat":43.304606,"lon":5.379026,"is_reserved":false,"is_disabled":false,"rental_uris":{"android":"levelo://app?vid=090fd4bb-475a-47f2-a07e-538d5ecba164","ios":"levelo://app?vid=090fd4bb-475a-47f2-a07e-538d5ecba164"},"vehicle_type_id":"4","last_reported":1678522161,"current_range_meters":30800,"station_id":"ce4bgup2rcd13ifvqcn0","pricing_plan_id":"free"},{"bike_id":"03f04302-9400-4ca5-b91c-faa28a26d11a","system_id":"levelo_inurba_marseille","lat":43.304606,"lon":5.379026,"is_reserved":false,"is_disabled":false,"rental_uris":{"android":"levelo://app?vid=03f04302-9400-4ca5-b91c-faa28a26d11a","ios":"levelo://app?vid=03f04302-9400-4ca5-b91c-faa28a26d11a"},"vehicle_type_id":"4","last_reported":1678522161,"current_range_meters":24400,"station_id":"ce4bgup2rcd13ifvqcn0","pricing_plan_id":"free"},{"bike_id":"7ef93d62-e27b-48ca-a3cd-1d1f94410daf","system_id":"levelo_inurba_marseille","lat":43.30162,"lon":5.37323,"is_reserved":false,"is_disabled":false,"rental_uris":{"android":"levelo://app?vid=7ef93d62-e27b-48ca-a3cd-1d1f94410daf","ios":"levelo://app?vid=7ef93d62-e27b-48ca-a3cd-1d1f94410daf"},"vehicle_type_id":"4","last_reported":1678522161,"current_range_meters":25200,"station_id":"","pricing_plan_id":"free"},{"bike_id":"8c4a88b3-ca33-4220-8e69-f4a290a49348","system_id":"levelo_inurba_marseille","lat":43.304606,"lon":5.379026,"is_reserved":false,"is_disabled":false,"rental_uris":{"android":"levelo://app?vid=8c4a88b3-ca33-4220-8e69-f4a290a49348","ios":"levelo://app?vid=8c4a88b3-ca33-4220-8e69-f4a290a49348"},"vehicle_type_id":"4","last_reported":1678522161,"current_range_meters":16000,"station_id":"ce4bgup2rcd13ifvqcn0","pricing_plan_id":"free"},{"bike_id":"ee590099-3bee-4e9e-92da-4b04869a6c8f","system_id":"levelo_inurba_marseille","lat":43.304606,"lon":5.379026,"is_reserved":false,"is_disabled":false,"rental_uris":{"android":"levelo://app?vid=ee590099-3bee-4e9e-92da-4b04869a6c8f","ios":"levelo://app?vid=ee590099-3bee-4e9e-92da-4b04869a6c8f"},"vehicle_type_id":"4","last_reported":1678522161,"current_range_meters":25600,"station_id":"ce4bgup2rcd13ifvqcn0","pricing_plan_id":"free"},{"bike_id":"39913b67-36fc-4dc5-bfc6-df9e44fda058","system_id":"levelo_inurba_marseille","lat":43.30143,"lon":5.37413,"is_reserved":false,"is_disabled":false,"rental_uris":{"android":"levelo://app?vid=39913b67-36fc-4dc5-bfc6-df9e44fda058","ios":"levelo://app?vid=39913b67-36fc-4dc5-bfc6-df9e44fda058"},"vehicle_type_id":"4","last_reported":1678522161,"current_range_meters":30800,"station_id":"ce4bgs92rcd13ifvqcc0","pricing_plan_id":"free"},{"bike_id":"d0d97f9a-b60d-4fc8-b084-e4fc3ea31a9c","system_id":"levelo_inurba_marseille","lat":43.301429,"lon":5.37413,"is_reserved":false,"is_disabled":false,"rental_uris":{"android":"levelo://app?vid=d0d97f9a-b60d-4fc8-b084-e4fc3ea31a9c","ios":"levelo://app?vid=d0d97f9a-b60d-4fc8-b084-e4fc3ea31a9c"},"vehicle_type_id":"4","last_reported":1678522161,"current_range_meters":25600,"station_id":"ce4bgs92rcd13ifvqcc0","pricing_plan_id":"free"},{"bike_id":"6c96cd4c-9aab-4fc8-b0c0-5cd17657b66e","system_id":"levelo_inurba_marseille","lat":43.301385,"lon":5.374115,"is_reserved":false,"is_disabled":false,"rental_uris":{"android":"levelo://app?vid=6c96cd4c-9aab-4fc8-b0c0-5cd17657b66e","ios":"levelo://app?vid=6c96cd4c-9aab-4fc8-b0c0-5cd17657b66e"},"vehicle_type_id":"4","last_reported":1678522161,"current_range_meters":31200,"station_id":"","pricing_plan_id":"free"},{"bike_id":"4a6bf3aa-bb16-4433-a9f8-20412b06ee87","system_id":"levelo_inurba_marseille","lat":43.301429,"lon":5.37413,"is_reserved":false,"is_disabled":false,"rental_uris":{"android":"levelo://app?vid=4a6bf3aa-bb16-4433-a9f8-20412b06ee87","ios":"levelo://app?vid=4a6bf3aa-bb16-4433-a9f8-20412b06ee87"},"vehicle_type_id":"4","last_reported":1678522161,"current_range_meters":30800,"station_id":"ce4bgs92rcd13ifvqcc0","pricing_plan_id":"free"},{"bike_id":"d0f6cef8-7779-4f7b-8fc4-96e3b8a7f499","system_id":"levelo_inurba_marseille","lat":43.305364,"lon":5.384119,"is_reserved":false,"is_disabled":false,"rental_uris":{"android":"levelo://app?vid=d0f6cef8-7779-4f7b-8fc4-96e3b8a7f499","ios":"levelo://app?vid=d0f6cef8-7779-4f7b-8fc4-96e3b8a7f499"},"vehicle_type_id":"4","last_reported":1678522161,"current_range_meters":24400,"station_id":"ce4bgg92rcd13ifvqb30","pricing_plan_id":"free"},{"bike_id":"ad3699b8-f297-4867-b839-28f8ad7ebe3b","system_id":"levelo_inurba_marseille","lat":43.298453,"lon":5.362757,"is_reserved":false,"is_disabled":false,"rental_uris":{"android":"levelo://app?vid=ad3699b8-f297-4867-b839-28f8ad7ebe3b","ios":"levelo://app?vid=ad3699b8-f297-4867-b839-28f8ad7ebe3b"},"vehicle_type_id":"4","last_reported":1678522161,"current_range_meters":8000,"station_id":"ce4bgpp2rcd13ifvqc3g","pricing_plan_id":"free"},{"bike_id":"92d33cbc-6f2c-4112-a2f9-2f6f8f949ea2","system_id":"levelo_inurba_marseille","lat":43.305364,"lon":5.384119,"is_reserved":false,"is_disabled":false,"rental_uris":{"android":"levelo://app?vid=92d33cbc-6f2c-4112-a2f9-2f6f8f949ea2","ios":"levelo://app?vid=92d33cbc-6f2c-4112-a2f9-2f6f8f949ea2"},"vehicle_type_id":"4","last_reported":1678522161,"current_range_meters":23600,"station_id":"ce4bgg92rcd13ifvqb30","pricing_plan_id":"free"},{"bike_id":"0eb28556-d687-44e1-919e-5fb003b6be92","system_id":"levelo_inurba_marseille","lat":43.2984,"lon":5.36272,"is_reserved":false,"is_disabled":false,"rental_uris":{"android":"levelo://app?vid=0eb28556-d687-44e1-919e-5fb003b6be92","ios":"levelo://app?vid=0eb28556-d687-44e1-919e-5fb003b6be92"},"vehicle_type_id":"4","last_reported":1678522161,"current_range_meters":30000,"station_id":"","pricing_plan_id":"free"},{"bike_id":"f0bce95b-3e50-4e6a-afa1-2a31aec36fc9","system_id":"levelo_inurba_marseille","lat":43.305364,"lon":5.384119,"is_reserved":false,"is_disabled":false,"rental_uris":{"android":"levelo://app?vid=f0bce95b-3e50-4e6a-afa1-2a31aec36fc9","ios":"levelo://app?vid=f0bce95b-3e50-4e6a-afa1-2a31aec36fc9"},"vehicle_type_id":"4","last_reported":1678522161,"current_range_meters":25600,"station_id":"ce4bgg92rcd13ifvqb30","pricing_plan_id":"free"},{"bike_id":"b77571b9-3ddd-4625-818c-d3737487cc32","system_id":"levelo_inurba_marseille","lat":43.311653,"lon":5.38712,"is_reserved":false,"is_disabled":false,"rental_uris":{"android":"levelo://app?vid=b77571b9-3ddd-4625-818c-d3737487cc32","ios":"levelo://app?vid=b77571b9-3ddd-4625-818c-d3737487cc32"},"vehicle_type_id":"4","last_reported":1678522161,"current_range_meters":11200,"station_id":"ce4bgv12rcd13ifvqcp0","pricing_plan_id":"free"},{"bike_id":"7718c0d8-a5a3-4718-afdc-b5dfb54c87e1","system_id":"levelo_inurba_marseille","lat":43.328371,"lon":5.366909,"is_reserved":false,"is_disabled":false,"rental_uris":{"android":"levelo://app?vid=7718c0d8-a5a3-4718-afdc-b5dfb54c87e1","ios":"levelo://app?vid=7718c0d8-a5a3-4718-afdc-b5dfb54c87e1"},"vehicle_type_id":"4","last_reported":1678522161,"current_range_meters":28800,"station_id":"ce4bhs92rcd13ifvqi0g","pricing_plan_id":"free"},{"bike_id":"c461ea74-97bf-4b08-8c33-8ce312bbe742","system_id":"levelo_inurba_marseille","lat":43.328371,"lon":5.366909,"is_reserved":false,"is_disabled":false,"rental_uris":{"android":"levelo://app?vid=c461ea74-97bf-4b08-8c33-8ce312bbe742","ios":"levelo://app?vid=c461ea74-97bf-4b08-8c33-8ce312bbe742"},"vehicle_type_id":"4","last_reported":1678522161,"current_range_meters":29600,"station_id":"ce4bhs92rcd13ifvqi0g","pricing_plan_id":"free"},{"bike_id":"fefff64e-d41d-44a2-9f0f-3c756f096689","system_id":"levelo_inurba_marseille","lat":43.328371,"lon":5.366909,"is_reserved":false,"is_disabled":false,"rental_uris":{"android":"levelo://app?vid=fefff64e-d41d-44a2-9f0f-3c756f096689","ios":"levelo://app?vid=fefff64e-d41d-44a2-9f0f-3c756f096689"},"vehicle_type_id":"4","last_reported":1678522161,"current_range_meters":31600,"station_id":"ce4bhs92rcd13ifvqi0g","pricing_plan_id":"free"},{"bike_id":"38ac62c5-1121-4e03-8039-215141469d6d","system_id":"levelo_inurba_marseille","lat":43.328371,"lon":5.366909,"is_reserved":false,"is_disabled":false,"rental_uris":{"android":"levelo://app?vid=38ac62c5-1121-4e03-8039-215141469d6d","ios":"levelo://app?vid=38ac62c5-1121-4e03-8039-215141469d6d"},"vehicle_type_id":"4","last_reported":1678522161,"current_range_meters":31600,"station_id":"ce4bhs92rcd13ifvqi0g","pricing_plan_id":"free"},{"bike_id":"cbeb4ab6-fc4b-45a6-be91-76b7e0b54803","system_id":"levelo_inurba_marseille","lat":43.328371,"lon":5.366909,"is_reserved":false,"is_disabled":false,"rental_uris":{"android":"levelo://app?vid=cbeb4ab6-fc4b-45a6-be91-76b7e0b54803","ios":"levelo://app?vid=cbeb4ab6-fc4b-45a6-be91-76b7e0b54803"},"vehicle_type_id":"4","last_reported":1678522161,"current_range_meters":30800,"station_id":"ce4bhs92rcd13ifvqi0g","pricing_plan_id":"free"},{"bike_id":"f2571945-374b-42a8-ae7e-8e29368d9e34","system_id":"levelo_inurba_marseille","lat":43.328371,"lon":5.366909,"is_reserved":false,"is_disabled":false,"rental_uris":{"android":"levelo://app?vid=f2571945-374b-42a8-ae7e-8e29368d9e34","ios":"levelo://app?vid=f2571945-374b-42a8-ae7e-8e29368d9e34"},"vehicle_type_id":"4","last_reported":1678522161,"current_range_meters":31600,"station_id":"ce4bhs92rcd13ifvqi0g","pricing_plan_id":"free"},{"bike_id":"e559e30d-10be-4be0-b67a-3d0b565ffa7e","system_id":"levelo_inurba_marseille","lat":43.328371,"lon":5.366909,"is_reserved":false,"is_disabled":false,"rental_uris":{"android":"levelo://app?vid=e559e30d-10be-4be0-b67a-3d0b565ffa7e","ios":"levelo://app?vid=e559e30d-10be-4be0-b67a-3d0b565ffa7e"},"vehicle_type_id":"4","last_reported":1678522161,"current_range_meters":30800,"station_id":"ce4bhs92rcd13ifvqi0g","pricing_plan_id":"free"},{"bike_id":"625cbb79-6f67-45f7-a76c-a58a0262f4cc","system_id":"levelo_inurba_marseille","lat":43.32828,"lon":5.36679,"is_reserved":false,"is_disabled":false,"rental_uris":{"android":"levelo://app?vid=625cbb79-6f67-45f7-a76c-a58a0262f4cc","ios":"levelo://app?vid=625cbb79-6f67-45f7-a76c-a58a0262f4cc"},"vehicle_type_id":"4","last_reported":1678522161,"current_range_meters":25600,"station_id":"ce4bhs92rcd13ifvqi0g","pricing_plan_id":"free"},{"bike_id":"84370daf-a9d8-46ae-9f74-bb49748464ed","system_id":"levelo_inurba_marseille","lat":43.328371,"lon":5.366909,"is_reserved":false,"is_disabled":false,"rental_uris":{"android":"levelo://app?vid=84370daf-a9d8-46ae-9f74-bb49748464ed","ios":"levelo://app?vid=84370daf-a9d8-46ae-9f74-bb49748464ed"},"vehicle_type_id":"4","last_reported":1678522161,"current_range_meters":23600,"station_id":"ce4bhs92rcd13ifvqi0g","pricing_plan_id":"free"},{"bike_id":"66c9f54d-b66b-4bfb-bdb9-99e719be1bc9","system_id":"levelo_inurba_marseille","lat":43.328371,"lon":5.366909,"is_reserved":false,"is_disabled":false,"rental_uris":{"android":"levelo://app?vid=66c9f54d-b66b-4bfb-bdb9-99e719be1bc9","ios":"levelo://app?vid=66c9f54d-b66b-4bfb-bdb9-99e719be1bc9"},"vehicle_type_id":"4","last_reported":1678522161,"current_range_meters":31600,"station_id":"ce4bhs92rcd13ifvqi0g","pricing_plan_id":"free"},{"bike_id":"0b012e63-7b16-425f-9dc0-3c2470d3ee78","system_id":"levelo_inurba_marseille","lat":43.328371,"lon":5.366909,"is_reserved":false,"is_disabled":false,"rental_uris":{"android":"levelo://app?vid=0b012e63-7b16-425f-9dc0-3c2470d3ee78","ios":"levelo://app?vid=0b012e63-7b16-425f-9dc0-3c2470d3ee78"},"vehicle_type_id":"4","last_reported":1678522161,"current_range_meters":31600,"station_id":"ce4bhs92rcd13ifvqi0g","pricing_plan_id":"free"},{"bike_id":"95cbf81a-20d0-46c6-8719-f9b04d191e4c","system_id":"levelo_inurba_marseille","lat":43.328371,"lon":5.366909,"is_reserved":false,"is_disabled":false,"rental_uris":{"android":"levelo://app?vid=95cbf81a-20d0-46c6-8719-f9b04d191e4c","ios":"levelo://app?vid=95cbf81a-20d0-46c6-8719-f9b04d191e4c"},"vehicle_type_id":"4","last_reported":1678522161,"current_range_meters":30400,"station_id":"ce4bhs92rcd13ifvqi0g","pricing_plan_id":"free"},{"bike_id":"8b98e011-4a3c-4f8a-a509-832ce7cd1416","system_id":"levelo_inurba_marseille","lat":43.3284,"lon":5.36677,"is_reserved":false,"is_disabled":false,"rental_uris":{"android":"levelo://app?vid=8b98e011-4a3c-4f8a-a509-832ce7cd1416","ios":"levelo://app?vid=8b98e011-4a3c-4f8a-a509-832ce7cd1416"},"vehicle_type_id":"4","last_reported":1678522161,"current_range_meters":6800,"station_id":"","pricing_plan_id":"free"},{"bike_id":"1940c0a4-6908-4353-b766-358c397d2a49","system_id":"levelo_inurba_marseille","lat":43.30135,"lon":5.38324,"is_reserved":false,"is_disabled":false,"rental_uris":{"android":"levelo://app?vid=1940c0a4-6908-4353-b766-358c397d2a49","ios":"levelo://app?vid=1940c0a4-6908-4353-b766-358c397d2a49"},"vehicle_type_id":"4","last_reported":1678522161,"current_range_meters":29200,"station_id":"ce4bhs92rcd13ifvqi0g","pricing_plan_id":"free"},{"bike_id":"1fc896fa-d613-453a-9578-d7e0613257bb","system_id":"levelo_inurba_marseille","lat":43.296277,"lon":5.377108,"is_reserved":false,"is_disabled":false,"rental_uris":{"android":"levelo://app?vid=1fc896fa-d613-453a-9578-d7e0613257bb","ios":"levelo://app?vid=1fc896fa-d613-453a-9578-d7e0613257bb"},"vehicle_type_id":"4","last_reported":1678522161,"current_range_meters":6400,"station_id":"ce4bgi92rcd13ifvqb90","pricing_plan_id":"free"},{"bike_id":"a4fac1e7-7777-4193-8762-7e9c3b018485","system_id":"levelo_inurba_marseille","lat":43.296277,"lon":5.377108,"is_reserved":false,"is_disabled":false,"rental_uris":{"android":"levelo://app?vid=a4fac1e7-7777-4193-8762-7e9c3b018485","ios":"levelo://app?vid=a4fac1e7-7777-4193-8762-7e9c3b018485"},"vehicle_type_id":"4","last_reported":1678522161,"current_range_meters":10400,"station_id":"ce4bgi92rcd13ifvqb90","pricing_plan_id":"free"},{"bike_id":"1e9d54a8-4749-42e8-94ec-9b5b64a793f2","system_id":"levelo_inurba_marseille","lat":43.309589,"lon":5.390258,"is_reserved":false,"is_disabled":false,"rental_uris":{"android":"levelo://app?vid=1e9d54a8-4749-42e8-94ec-9b5b64a793f2","ios":"levelo://app?vid=1e9d54a8-4749-42e8-94ec-9b5b64a793f2"},"vehicle_type_id":"4","last_reported":1678522161,"current_range_meters":31200,"station_id":"ce4bgup2rcd13ifvqco0","pricing_plan_id":"free"},{"bike_id":"1368a87f-9cad-49c8-800b-86651ed9da9e","system_id":"levelo_inurba_marseille","lat":43.299028,"lon":5.381509,"is_reserved":false,"is_disabled":false,"rental_uris":{"android":"levelo://app?vid=1368a87f-9cad-49c8-800b-86651ed9da9e","ios":"levelo://app?vid=1368a87f-9cad-49c8-800b-86651ed9da9e"},"vehicle_type_id":"4","last_reported":1678522161,"current_range_meters":16400,"station_id":"ce4bgj12rcd13ifvqbc0","pricing_plan_id":"free"},{"bike_id":"5e61ed84-21e8-402b-9b20-549cc48c9354","system_id":"levelo_inurba_marseille","lat":43.309589,"lon":5.390258,"is_reserved":false,"is_disabled":false,"rental_uris":{"android":"levelo://app?vid=5e61ed84-21e8-402b-9b20-549cc48c9354","ios":"levelo://app?vid=5e61ed84-21e8-402b-9b20-549cc48c9354"},"vehicle_type_id":"4","last_reported":1678522161,"current_range_meters":28400,"station_id":"ce4bgup2rcd13ifvqco0","pricing_plan_id":"free"},{"bike_id":"cb2925fb-ff07-4040-9cd7-8f16d54be96e","system_id":"levelo_inurba_marseille","lat":43.309589,"lon":5.390258,"is_reserved":false,"is_disabled":false,"rental_uris":{"android":"levelo://app?vid=cb2925fb-ff07-4040-9cd7-8f16d54be96e","ios":"levelo://app?vid=cb2925fb-ff07-4040-9cd7-8f16d54be96e"},"vehicle_type_id":"4","last_reported":1678522161,"current_range_meters":30400,"station_id":"ce4bgup2rcd13ifvqco0","pricing_plan_id":"free"},{"bike_id":"324cffda-4b61-470e-a3d0-53297658d34c","system_id":"levelo_inurba_marseille","lat":43.309589,"lon":5.390258,"is_reserved":false,"is_disabled":false,"rental_uris":{"android":"levelo://app?vid=324cffda-4b61-470e-a3d0-53297658d34c","ios":"levelo://app?vid=324cffda-4b61-470e-a3d0-53297658d34c"},"vehicle_type_id":"4","last_reported":1678522161,"current_range_meters":30000,"station_id":"ce4bgup2rcd13ifvqco0","pricing_plan_id":"free"},{"bike_id":"8427462d-6182-4575-a4f7-80a5b50c6744","system_id":"levelo_inurba_marseille","lat":43.317559,"lon":5.390092,"is_reserved":false,"is_disabled":false,"rental_uris":{"android":"levelo://app?vid=8427462d-6182-4575-a4f7-80a5b50c6744","ios":"levelo://app?vid=8427462d-6182-4575-a4f7-80a5b50c6744"},"vehicle_type_id":"4","last_reported":1678522161,"current_range_meters":13600,"station_id":"ce4bhqp2rcd13ifvqhng","pricing_plan_id":"free"},{"bike_id":"a24f0e0d-9424-428a-a6c7-46b8925355d0","system_id":"levelo_inurba_marseille","lat":43.317513,"lon":5.390127,"is_reserved":false,"is_disabled":false,"rental_uris":{"android":"levelo://app?vid=a24f0e0d-9424-428a-a6c7-46b8925355d0","ios":"levelo://app?vid=a24f0e0d-9424-428a-a6c7-46b8925355d0"},"vehicle_type_id":"4","last_reported":1678522161,"current_range_meters":12000,"station_id":"ce4bhqp2rcd13ifvqhng","pricing_plan_id":"free"},{"bike_id":"74018703-86c6-4cba-90c6-ae32279939ad","system_id":"levelo_inurba_marseille","lat":43.31754,"lon":5.39012,"is_reserved":false,"is_disabled":false,"rental_uris":{"android":"levelo://app?vid=74018703-86c6-4cba-90c6-ae32279939ad","ios":"levelo://app?vid=74018703-86c6-4cba-90c6-ae32279939ad"},"vehicle_type_id":"4","last_reported":1678522161,"current_range_meters":30400,"station_id":"ce4bhqp2rcd13ifvqhng","pricing_plan_id":"free"},{"bike_id":"79d84336-b1ee-42bb-a0cc-9e229ad0927b","system_id":"levelo_inurba_marseille","lat":43.317557,"lon":5.390173,"is_reserved":false,"is_disabled":false,"rental_uris":{"android":"levelo://app?vid=79d84336-b1ee-42bb-a0cc-9e229ad0927b","ios":"levelo://app?vid=79d84336-b1ee-42bb-a0cc-9e229ad0927b"},"vehicle_type_id":"4","last_reported":1678522161,"current_range_meters":30000,"station_id":"ce4bhqp2rcd13ifvqhng","pricing_plan_id":"free"},{"bike_id":"b156b7a5-3d5e-4828-afac-052c76ec132a","system_id":"levelo_inurba_marseille","lat":43.317557,"lon":5.390173,"is_reserved":false,"is_disabled":false,"rental_uris":{"android":"levelo://app?vid=b156b7a5-3d5e-4828-afac-052c76ec132a","ios":"levelo://app?vid=b156b7a5-3d5e-4828-afac-052c76ec132a"},"vehicle_type_id":"4","last_reported":1678522161,"current_range_meters":27600,"station_id":"ce4bhqp2rcd13ifvqhng","pricing_plan_id":"free"},{"bike_id":"d00222d7-bf50-4cd8-bdff-c73869bc52df","system_id":"levelo_inurba_marseille","lat":43.317557,"lon":5.390173,"is_reserved":false,"is_disabled":false,"rental_uris":{"android":"levelo://app?vid=d00222d7-bf50-4cd8-bdff-c73869bc52df","ios":"levelo://app?vid=d00222d7-bf50-4cd8-bdff-c73869bc52df"},"vehicle_type_id":"4","last_reported":1678522161,"current_range_meters":31600,"station_id":"ce4bhqp2rcd13ifvqhng","pricing_plan_id":"free"},{"bike_id":"508f1836-e0e8-469b-89cd-a6a32720545d","system_id":"levelo_inurba_marseille","lat":43.317557,"lon":5.390173,"is_reserved":false,"is_disabled":false,"rental_uris":{"android":"levelo://app?vid=508f1836-e0e8-469b-89cd-a6a32720545d","ios":"levelo://app?vid=508f1836-e0e8-469b-89cd-a6a32720545d"},"vehicle_type_id":"4","last_reported":1678522161,"current_range_meters":30000,"station_id":"ce4bhqp2rcd13ifvqhng","pricing_plan_id":"free"},{"bike_id":"67ecba48-cbe0-45d2-a604-3d22d6e6eded","system_id":"levelo_inurba_marseille","lat":43.317557,"lon":5.390173,"is_reserved":false,"is_disabled":false,"rental_uris":{"android":"levelo://app?vid=67ecba48-cbe0-45d2-a604-3d22d6e6eded","ios":"levelo://app?vid=67ecba48-cbe0-45d2-a604-3d22d6e6eded"},"vehicle_type_id":"4","last_reported":1678522161,"current_range_meters":400,"station_id":"ce4bhqp2rcd13ifvqhng","pricing_plan_id":"free"},{"bike_id":"5480a0b5-d185-4dd4-8821-54090040ce7f","system_id":"levelo_inurba_marseille","lat":43.317557,"lon":5.390173,"is_reserved":false,"is_disabled":false,"rental_uris":{"android":"levelo://app?vid=5480a0b5-d185-4dd4-8821-54090040ce7f","ios":"levelo://app?vid=5480a0b5-d185-4dd4-8821-54090040ce7f"},"vehicle_type_id":"4","last_reported":1678522161,"current_range_meters":0,"station_id":"ce4bhqp2rcd13ifvqhng","pricing_plan_id":"free"},{"bike_id":"dab551d3-6300-4d10-9510-9ea2ccfa7d8e","system_id":"levelo_inurba_marseille","lat":43.317557,"lon":5.390173,"is_reserved":false,"is_disabled":false,"rental_uris":{"android":"levelo://app?vid=dab551d3-6300-4d10-9510-9ea2ccfa7d8e","ios":"levelo://app?vid=dab551d3-6300-4d10-9510-9ea2ccfa7d8e"},"vehicle_type_id":"4","last_reported":1678522161,"current_range_meters":30000,"station_id":"ce4bhqp2rcd13ifvqhng","pricing_plan_id":"free"},{"bike_id":"2b13b27d-a813-474a-9350-ea89f55ff132","system_id":"levelo_inurba_marseille","lat":43.309589,"lon":5.390258,"is_reserved":false,"is_disabled":false,"rental_uris":{"android":"levelo://app?vid=2b13b27d-a813-474a-9350-ea89f55ff132","ios":"levelo://app?vid=2b13b27d-a813-474a-9350-ea89f55ff132"},"vehicle_type_id":"4","last_reported":1678522161,"current_range_meters":26800,"station_id":"ce4bgup2rcd13ifvqco0","pricing_plan_id":"free"},{"bike_id":"5b4f779f-b2a6-4b35-9ae4-d6627c8b9ead","system_id":"levelo_inurba_marseille","lat":43.298037,"lon":5.381066,"is_reserved":false,"is_disabled":false,"rental_uris":{"android":"levelo://app?vid=5b4f779f-b2a6-4b35-9ae4-d6627c8b9ead","ios":"levelo://app?vid=5b4f779f-b2a6-4b35-9ae4-d6627c8b9ead"},"vehicle_type_id":"4","last_reported":1678522161,"current_range_meters":29200,"station_id":"ce4bgip2rcd13ifvqbb0","pricing_plan_id":"free"},{"bike_id":"af3c27a4-5e7c-4672-b6f3-afabb089b9ef","system_id":"levelo_inurba_marseille","lat":43.304278,"lon":5.388868,"is_reserved":false,"is_disabled":false,"rental_uris":{"android":"levelo://app?vid=af3c27a4-5e7c-4672-b6f3-afabb089b9ef","ios":"levelo://app?vid=af3c27a4-5e7c-4672-b6f3-afabb089b9ef"},"vehicle_type_id":"4","last_reported":1678522161,"current_range_meters":4000,"station_id":"ce4bgk12rcd13ifvqbi0","pricing_plan_id":"free"},{"bike_id":"401fee1c-9a6e-4fbf-a4b3-57398dd73d56","system_id":"levelo_inurba_marseille","lat":43.296277,"lon":5.377108,"is_reserved":false,"is_disabled":false,"rental_uris":{"android":"levelo://app?vid=401fee1c-9a6e-4fbf-a4b3-57398dd73d56","ios":"levelo://app?vid=401fee1c-9a6e-4fbf-a4b3-57398dd73d56"},"vehicle_type_id":"4","last_reported":1678522161,"current_range_meters":5600,"station_id":"ce4bgi92rcd13ifvqb90","pricing_plan_id":"free"},{"bike_id":"cb500aba-d77c-48ac-81b7-29569282a0b0","system_id":"levelo_inurba_marseille","lat":43.304278,"lon":5.388868,"is_reserved":false,"is_disabled":false,"rental_uris":{"android":"levelo://app?vid=cb500aba-d77c-48ac-81b7-29569282a0b0","ios":"levelo://app?vid=cb500aba-d77c-48ac-81b7-29569282a0b0"},"vehicle_type_id":"4","last_reported":1678522161,"current_range_meters":28000,"station_id":"ce4bgk12rcd13ifvqbi0","pricing_plan_id":"free"},{"bike_id":"b3d7f0c5-190f-4fc8-a47a-e56ae6dbb1d4","system_id":"levelo_inurba_marseille","lat":43.304359,"lon":5.388942,"is_reserved":false,"is_disabled":false,"rental_uris":{"android":"levelo://app?vid=b3d7f0c5-190f-4fc8-a47a-e56ae6dbb1d4","ios":"levelo://app?vid=b3d7f0c5-190f-4fc8-a47a-e56ae6dbb1d4"},"vehicle_type_id":"4","last_reported":1678522161,"current_range_meters":22800,"station_id":"ce4bgk12rcd13ifvqbi0","pricing_plan_id":"free"},{"bike_id":"c6454c5f-713c-4f4f-86ec-2211ec24205f","system_id":"levelo_inurba_marseille","lat":43.296149,"lon":5.377226,"is_reserved":false,"is_disabled":false,"rental_uris":{"android":"levelo://app?vid=c6454c5f-713c-4f4f-86ec-2211ec24205f","ios":"levelo://app?vid=c6454c5f-713c-4f4f-86ec-2211ec24205f"},"vehicle_type_id":"4","last_reported":1678522161,"current_range_meters":25600,"station_id":"","pricing_plan_id":"free"},{"bike_id":"3dc4e397-ee58-48f0-bb49-c76ce23bb0cc","system_id":"levelo_inurba_marseille","lat":43.296145,"lon":5.377223,"is_reserved":false,"is_disabled":false,"rental_uris":{"android":"levelo://app?vid=3dc4e397-ee58-48f0-bb49-c76ce23bb0cc","ios":"levelo://app?vid=3dc4e397-ee58-48f0-bb49-c76ce23bb0cc"},"vehicle_type_id":"4","last_reported":1678522161,"current_range_meters":0,"station_id":"","pricing_plan_id":"free"},{"bike_id":"0a7d6148-8ad3-4711-9441-37056c72fbe9","system_id":"levelo_inurba_marseille","lat":43.296125,"lon":5.377189,"is_reserved":false,"is_disabled":false,"rental_uris":{"android":"levelo://app?vid=0a7d6148-8ad3-4711-9441-37056c72fbe9","ios":"levelo://app?vid=0a7d6148-8ad3-4711-9441-37056c72fbe9"},"vehicle_type_id":"4","last_reported":1678522161,"current_range_meters":31600,"station_id":"","pricing_plan_id":"free"},{"bike_id":"0a9cde33-2105-48d5-8e81-f1bb2f6b1203","system_id":"levelo_inurba_marseille","lat":43.32367,"lon":5.388836,"is_reserved":false,"is_disabled":false,"rental_uris":{"android":"levelo://app?vid=0a9cde33-2105-48d5-8e81-f1bb2f6b1203","ios":"levelo://app?vid=0a9cde33-2105-48d5-8e81-f1bb2f6b1203"},"vehicle_type_id":"4","last_reported":1678522161,"current_range_meters":2800,"station_id":"ce4bhqp2rcd13ifvqhog","pricing_plan_id":"free"},{"bike_id":"f837d9ce-e2c9-43b5-a86f-0d0ca5fbda3e","system_id":"levelo_inurba_marseille","lat":43.32367,"lon":5.388836,"is_reserved":false,"is_disabled":false,"rental_uris":{"android":"levelo://app?vid=f837d9ce-e2c9-43b5-a86f-0d0ca5fbda3e","ios":"levelo://app?vid=f837d9ce-e2c9-43b5-a86f-0d0ca5fbda3e"},"vehicle_type_id":"4","last_reported":1678522161,"current_range_meters":8000,"station_id":"ce4bhqp2rcd13ifvqhog","pricing_plan_id":"free"},{"bike_id":"aa7b2c7c-1453-4f13-aaa0-5108ce9c5969","system_id":"levelo_inurba_marseille","lat":43.323654,"lon":5.388833,"is_reserved":false,"is_disabled":false,"rental_uris":{"android":"levelo://app?vid=aa7b2c7c-1453-4f13-aaa0-5108ce9c5969","ios":"levelo://app?vid=aa7b2c7c-1453-4f13-aaa0-5108ce9c5969"},"vehicle_type_id":"4","last_reported":1678522161,"current_range_meters":28000,"station_id":"ce4bhqp2rcd13ifvqhog","pricing_plan_id":"free"},{"bike_id":"8d7b4ab4-03e3-49f7-bbad-b06e81a998a8","system_id":"levelo_inurba_marseille","lat":43.323659,"lon":5.388853,"is_reserved":false,"is_disabled":false,"rental_uris":{"android":"levelo://app?vid=8d7b4ab4-03e3-49f7-bbad-b06e81a998a8","ios":"levelo://app?vid=8d7b4ab4-03e3-49f7-bbad-b06e81a998a8"},"vehicle_type_id":"4","last_reported":1678522161,"current_range_meters":26800,"station_id":"ce4bhqp2rcd13ifvqhog","pricing_plan_id":"free"},{"bike_id":"da8287f9-ab85-4b25-84bf-2f07d8c9f712","system_id":"levelo_inurba_marseille","lat":43.304493,"lon":5.39135,"is_reserved":false,"is_disabled":false,"rental_uris":{"android":"levelo://app?vid=da8287f9-ab85-4b25-84bf-2f07d8c9f712","ios":"levelo://app?vid=da8287f9-ab85-4b25-84bf-2f07d8c9f712"},"vehicle_type_id":"4","last_reported":1678522161,"current_range_meters":30000,"station_id":"","pricing_plan_id":"free"},{"bike_id":"d7d7a8e5-a5e9-422c-9d23-849209d16512","system_id":"levelo_inurba_marseille","lat":43.30521,"lon":5.39202,"is_reserved":false,"is_disabled":false,"rental_uris":{"android":"levelo://app?vid=d7d7a8e5-a5e9-422c-9d23-849209d16512","ios":"levelo://app?vid=d7d7a8e5-a5e9-422c-9d23-849209d16512"},"vehicle_type_id":"4","last_reported":1678522161,"current_range_meters":8000,"station_id":"","pricing_plan_id":"free"},{"bike_id":"67329fa4-4e2e-45d8-bd87-598da0f72818","system_id":"levelo_inurba_marseille","lat":43.31282,"lon":5.39423,"is_reserved":false,"is_disabled":false,"rental_uris":{"android":"levelo://app?vid=67329fa4-4e2e-45d8-bd87-598da0f72818","ios":"levelo://app?vid=67329fa4-4e2e-45d8-bd87-598da0f72818"},"vehicle_type_id":"4","last_reported":1678522161,"current_range_meters":400,"station_id":"","pricing_plan_id":"free"},{"bike_id":"95105821-d3ce-49be-8d44-04fffd405094","system_id":"levelo_inurba_marseille","lat":43.293001,"lon":5.371792,"is_reserved":false,"is_disabled":false,"rental_uris":{"android":"levelo://app?vid=95105821-d3ce-49be-8d44-04fffd405094","ios":"levelo://app?vid=95105821-d3ce-49be-8d44-04fffd405094"},"vehicle_type_id":"4","last_reported":1678522161,"current_range_meters":23200,"station_id":"ce4bha92rcd13ifvqeh0","pricing_plan_id":"free"},{"bike_id":"69fad45d-4f36-4306-a69f-7493e2b9d34a","system_id":"levelo_inurba_marseille","lat":43.305994,"lon":5.393687,"is_reserved":false,"is_disabled":false,"rental_uris":{"android":"levelo://app?vid=69fad45d-4f36-4306-a69f-7493e2b9d34a","ios":"levelo://app?vid=69fad45d-4f36-4306-a69f-7493e2b9d34a"},"vehicle_type_id":"4","last_reported":1678522161,"current_range_meters":26000,"station_id":"ce4bh0p2rcd13ifvqd80","pricing_plan_id":"free"},{"bike_id":"48665c17-8362-4b6b-9be6-2825ce37b319","system_id":"levelo_inurba_marseille","lat":43.293009,"lon":5.374584,"is_reserved":false,"is_disabled":false,"rental_uris":{"android":"levelo://app?vid=48665c17-8362-4b6b-9be6-2825ce37b319","ios":"levelo://app?vid=48665c17-8362-4b6b-9be6-2825ce37b319"},"vehicle_type_id":"4","last_reported":1678522161,"current_range_meters":23600,"station_id":"ce4bgi12rcd13ifvqb70","pricing_plan_id":"free"},{"bike_id":"a89f790a-1b6f-4d71-92c4-eca033df250b","system_id":"levelo_inurba_marseille","lat":43.2936,"lon":5.37835,"is_reserved":false,"is_disabled":false,"rental_uris":{"android":"levelo://app?vid=a89f790a-1b6f-4d71-92c4-eca033df250b","ios":"levelo://app?vid=a89f790a-1b6f-4d71-92c4-eca033df250b"},"vehicle_type_id":"4","last_reported":1678522161,"current_range_meters":15200,"station_id":"ce4bgjh2rcd13ifvqbf0","pricing_plan_id":"free"},{"bike_id":"df72e23b-1f39-4ed5-a368-af40c8ebd3fe","system_id":"levelo_inurba_marseille","lat":43.29225,"lon":5.36062,"is_reserved":false,"is_disabled":false,"rental_uris":{"android":"levelo://app?vid=df72e23b-1f39-4ed5-a368-af40c8ebd3fe","ios":"levelo://app?vid=df72e23b-1f39-4ed5-a368-af40c8ebd3fe"},"vehicle_type_id":"4","last_reported":1678522161,"current_range_meters":24000,"station_id":"","pricing_plan_id":"free"},{"bike_id":"fcc6b810-c9ab-4c90-b9e5-83e62d1f7090","system_id":"levelo_inurba_marseille","lat":43.292311,"lon":5.360731,"is_reserved":false,"is_disabled":false,"rental_uris":{"android":"levelo://app?vid=fcc6b810-c9ab-4c90-b9e5-83e62d1f7090","ios":"levelo://app?vid=fcc6b810-c9ab-4c90-b9e5-83e62d1f7090"},"vehicle_type_id":"4","last_reported":1678522161,"current_range_meters":25200,"station_id":"ce4bhbh2rcd13ifvqeqg","pricing_plan_id":"free"},{"bike_id":"1b9efeaf-da48-4340-b805-56ceaddf41a8","system_id":"levelo_inurba_marseille","lat":43.291705,"lon":5.371428,"is_reserved":false,"is_disabled":false,"rental_uris":{"android":"levelo://app?vid=1b9efeaf-da48-4340-b805-56ceaddf41a8","ios":"levelo://app?vid=1b9efeaf-da48-4340-b805-56ceaddf41a8"},"vehicle_type_id":"4","last_reported":1678522161,"current_range_meters":0,"station_id":"ce4bha92rcd13ifvqeh0","pricing_plan_id":"free"},{"bike_id":"8cf4983b-2724-4498-b790-d914e9aaa54a","system_id":"levelo_inurba_marseille","lat":43.313291,"lon":5.396838,"is_reserved":false,"is_disabled":false,"rental_uris":{"android":"levelo://app?vid=8cf4983b-2724-4498-b790-d914e9aaa54a","ios":"levelo://app?vid=8cf4983b-2724-4498-b790-d914e9aaa54a"},"vehicle_type_id":"4","last_reported":1678522161,"current_range_meters":16800,"station_id":"ce4bgvp2rcd13ifvqcu0","pricing_plan_id":"free"},{"bike_id":"22315384-46c4-4cc6-b844-3daa32b38295","system_id":"levelo_inurba_marseille","lat":43.313291,"lon":5.396838,"is_reserved":false,"is_disabled":false,"rental_uris":{"android":"levelo://app?vid=22315384-46c4-4cc6-b844-3daa32b38295","ios":"levelo://app?vid=22315384-46c4-4cc6-b844-3daa32b38295"},"vehicle_type_id":"4","last_reported":1678522161,"current_range_meters":12400,"station_id":"ce4bgvp2rcd13ifvqcu0","pricing_plan_id":"free"},{"bike_id":"7d8f12db-adec-4c53-86fd-68ce9acdb503","system_id":"levelo_inurba_marseille","lat":43.29529,"lon":5.385581,"is_reserved":false,"is_disabled":false,"rental_uris":{"android":"levelo://app?vid=7d8f12db-adec-4c53-86fd-68ce9acdb503","ios":"levelo://app?vid=7d8f12db-adec-4c53-86fd-68ce9acdb503"},"vehicle_type_id":"4","last_reported":1678522161,"current_range_meters":24000,"station_id":"ce4bgih2rcd13ifvqba0","pricing_plan_id":"free"},{"bike_id":"087ee0b6-2c28-4260-a08b-183c92c31f4b","system_id":"levelo_inurba_marseille","lat":43.29071,"lon":5.37163,"is_reserved":false,"is_disabled":false,"rental_uris":{"android":"levelo://app?vid=087ee0b6-2c28-4260-a08b-183c92c31f4b","ios":"levelo://app?vid=087ee0b6-2c28-4260-a08b-183c92c31f4b"},"vehicle_type_id":"4","last_reported":1678522161,"current_range_meters":23200,"station_id":"ce4bh5p2rcd13ifvqe4g","pricing_plan_id":"free"},{"bike_id":"8fccd644-54f2-4e78-bf91-9d949d39dcc2","system_id":"levelo_inurba_marseille","lat":43.32255,"lon":5.394744,"is_reserved":false,"is_disabled":false,"rental_uris":{"android":"levelo://app?vid=8fccd644-54f2-4e78-bf91-9d949d39dcc2","ios":"levelo://app?vid=8fccd644-54f2-4e78-bf91-9d949d39dcc2"},"vehicle_type_id":"4","last_reported":1678522161,"current_range_meters":400,"station_id":"","pricing_plan_id":"free"},{"bike_id":"c44dd717-4c25-4a47-97a8-1d3fbee39e2a","system_id":"levelo_inurba_marseille","lat":43.30223,"lon":5.39456,"is_reserved":false,"is_disabled":false,"rental_uris":{"android":"levelo://app?vid=c44dd717-4c25-4a47-97a8-1d3fbee39e2a","ios":"levelo://app?vid=c44dd717-4c25-4a47-97a8-1d3fbee39e2a"},"vehicle_type_id":"4","last_reported":1678522161,"current_range_meters":31600,"station_id":"ce4bh0p2rcd13ifvqd70","pricing_plan_id":"free"},{"bike_id":"6205b889-d970-4d61-a886-a7f3181f65c8","system_id":"levelo_inurba_marseille","lat":43.30223,"lon":5.39491,"is_reserved":false,"is_disabled":false,"rental_uris":{"android":"levelo://app?vid=6205b889-d970-4d61-a886-a7f3181f65c8","ios":"levelo://app?vid=6205b889-d970-4d61-a886-a7f3181f65c8"},"vehicle_type_id":"4","last_reported":1678522161,"current_range_meters":31600,"station_id":"","pricing_plan_id":"free"},{"bike_id":"1c83dd2e-b589-4ad8-b2e1-9474a8e72516","system_id":"levelo_inurba_marseille","lat":43.290624,"lon":5.359245,"is_reserved":false,"is_disabled":false,"rental_uris":{"android":"levelo://app?vid=1c83dd2e-b589-4ad8-b2e1-9474a8e72516","ios":"levelo://app?vid=1c83dd2e-b589-4ad8-b2e1-9474a8e72516"},"vehicle_type_id":"4","last_reported":1678522161,"current_range_meters":0,"station_id":"ce4bha92rcd13ifvqeg0","pricing_plan_id":"free"},{"bike_id":"7121d424-3b5b-4513-9f52-53f801e83ef5","system_id":"levelo_inurba_marseille","lat":43.290624,"lon":5.359245,"is_reserved":false,"is_disabled":false,"rental_uris":{"android":"levelo://app?vid=7121d424-3b5b-4513-9f52-53f801e83ef5","ios":"levelo://app?vid=7121d424-3b5b-4513-9f52-53f801e83ef5"},"vehicle_type_id":"4","last_reported":1678522161,"current_range_meters":4800,"station_id":"ce4bha92rcd13ifvqeg0","pricing_plan_id":"free"},{"bike_id":"61358f03-f74b-4931-a8e7-8aee7255a22a","system_id":"levelo_inurba_marseille","lat":43.290319,"lon":5.375732,"is_reserved":false,"is_disabled":false,"rental_uris":{"android":"levelo://app?vid=61358f03-f74b-4931-a8e7-8aee7255a22a","ios":"levelo://app?vid=61358f03-f74b-4931-a8e7-8aee7255a22a"},"vehicle_type_id":"4","last_reported":1678522161,"current_range_meters":28000,"station_id":"ce4bh692rcd13ifvqe90","pricing_plan_id":"free"},{"bike_id":"04a63fe4-0ff5-451e-ab02-36fde5643757","system_id":"levelo_inurba_marseille","lat":43.294162,"lon":5.386292,"is_reserved":false,"is_disabled":false,"rental_uris":{"android":"levelo://app?vid=04a63fe4-0ff5-451e-ab02-36fde5643757","ios":"levelo://app?vid=04a63fe4-0ff5-451e-ab02-36fde5643757"},"vehicle_type_id":"4","last_reported":1678522161,"current_range_meters":28400,"station_id":"ce4bh2h2rcd13ifvqdh0","pricing_plan_id":"free"},{"bike_id":"4b73eaa3-0c3e-4fb4-a6c3-ec9987120461","system_id":"levelo_inurba_marseille","lat":43.28937,"lon":5.36684,"is_reserved":false,"is_disabled":false,"rental_uris":{"android":"levelo://app?vid=4b73eaa3-0c3e-4fb4-a6c3-ec9987120461","ios":"levelo://app?vid=4b73eaa3-0c3e-4fb4-a6c3-ec9987120461"},"vehicle_type_id":"4","last_reported":1678522161,"current_range_meters":0,"station_id":"ce4bhap2rcd13ifvqek0","pricing_plan_id":"free"},{"bike_id":"f088487d-61da-49b0-bac0-ed8388b07c94","system_id":"levelo_inurba_marseille","lat":43.28936,"lon":5.36632,"is_reserved":false,"is_disabled":false,"rental_uris":{"android":"levelo://app?vid=f088487d-61da-49b0-bac0-ed8388b07c94","ios":"levelo://app?vid=f088487d-61da-49b0-bac0-ed8388b07c94"},"vehicle_type_id":"4","last_reported":1678522161,"current_range_meters":2000,"station_id":"ce4bhap2rcd13ifvqek0","pricing_plan_id":"free"},{"bike_id":"37f2853d-9018-47cb-be3d-af36dfb0ca9f","system_id":"levelo_inurba_marseille","lat":43.28934,"lon":5.36627,"is_reserved":false,"is_disabled":false,"rental_uris":{"android":"levelo://app?vid=37f2853d-9018-47cb-be3d-af36dfb0ca9f","ios":"levelo://app?vid=37f2853d-9018-47cb-be3d-af36dfb0ca9f"},"vehicle_type_id":"4","last_reported":1678522161,"current_range_meters":1200,"station_id":"ce4bhap2rcd13ifvqek0","pricing_plan_id":"free"},{"bike_id":"4e4a8092-efb5-4e9f-9056-e037cea8b200","system_id":"levelo_inurba_marseille","lat":43.3023,"lon":5.39572,"is_reserved":false,"is_disabled":false,"rental_uris":{"android":"levelo://app?vid=4e4a8092-efb5-4e9f-9056-e037cea8b200","ios":"levelo://app?vid=4e4a8092-efb5-4e9f-9056-e037cea8b200"},"vehicle_type_id":"4","last_reported":1678522161,"current_range_meters":31600,"station_id":"","pricing_plan_id":"free"},{"bike_id":"569ce7ca-b165-4b1d-9311-a327396d2e05","system_id":"levelo_inurba_marseille","lat":43.289575,"lon":5.371737,"is_reserved":false,"is_disabled":false,"rental_uris":{"android":"levelo://app?vid=569ce7ca-b165-4b1d-9311-a327396d2e05","ios":"levelo://app?vid=569ce7ca-b165-4b1d-9311-a327396d2e05"},"vehicle_type_id":"4","last_reported":1678522161,"current_range_meters":8000,"station_id":"","pricing_plan_id":"free"},{"bike_id":"6c8ef6c9-bf72-47fd-9b27-2142a38e2579","system_id":"levelo_inurba_marseille","lat":43.289468,"lon":5.363719,"is_reserved":false,"is_disabled":false,"rental_uris":{"android":"levelo://app?vid=6c8ef6c9-bf72-47fd-9b27-2142a38e2579","ios":"levelo://app?vid=6c8ef6c9-bf72-47fd-9b27-2142a38e2579"},"vehicle_type_id":"4","last_reported":1678522161,"current_range_meters":21600,"station_id":"ce4bhc92rcd13ifvqetg","pricing_plan_id":"free"},{"bike_id":"32f9cb14-1105-4b63-be4d-d1ac1c510046","system_id":"levelo_inurba_marseille","lat":43.29261,"lon":5.384435,"is_reserved":false,"is_disabled":false,"rental_uris":{"android":"levelo://app?vid=32f9cb14-1105-4b63-be4d-d1ac1c510046","ios":"levelo://app?vid=32f9cb14-1105-4b63-be4d-d1ac1c510046"},"vehicle_type_id":"4","last_reported":1678522161,"current_range_meters":0,"station_id":"ce4bh692rcd13ifvqea0","pricing_plan_id":"free"},{"bike_id":"c26e5911-0744-4f51-b992-a72f52f2b771","system_id":"levelo_inurba_marseille","lat":43.292636,"lon":5.384514,"is_reserved":false,"is_disabled":false,"rental_uris":{"android":"levelo://app?vid=c26e5911-0744-4f51-b992-a72f52f2b771","ios":"levelo://app?vid=c26e5911-0744-4f51-b992-a72f52f2b771"},"vehicle_type_id":"4","last_reported":1678522161,"current_range_meters":0,"station_id":"ce4bh692rcd13ifvqea0","pricing_plan_id":"free"},{"bike_id":"47c11c15-1cea-437e-93a0-8d4a1b7727ba","system_id":"levelo_inurba_marseille","lat":43.292604,"lon":5.384477,"is_reserved":false,"is_disabled":false,"rental_uris":{"android":"levelo://app?vid=47c11c15-1cea-437e-93a0-8d4a1b7727ba","ios":"levelo://app?vid=47c11c15-1cea-437e-93a0-8d4a1b7727ba"},"vehicle_type_id":"4","last_reported":1678522161,"current_range_meters":0,"station_id":"ce4bh692rcd13ifvqea0","pricing_plan_id":"free"},{"bike_id":"87b129da-7b2d-49fa-94bc-29b2b162babe","system_id":"levelo_inurba_marseille","lat":43.330442,"lon":5.389148,"is_reserved":false,"is_disabled":false,"rental_uris":{"android":"levelo://app?vid=87b129da-7b2d-49fa-94bc-29b2b162babe","ios":"levelo://app?vid=87b129da-7b2d-49fa-94bc-29b2b162babe"},"vehicle_type_id":"4","last_reported":1678522161,"current_range_meters":24000,"station_id":"ce4bhr92rcd13ifvqhrg","pricing_plan_id":"free"},{"bike_id":"153c5ef8-3ec2-4ed2-94f0-25591d281d8e","system_id":"levelo_inurba_marseille","lat":43.33046,"lon":5.38909,"is_reserved":false,"is_disabled":false,"rental_uris":{"android":"levelo://app?vid=153c5ef8-3ec2-4ed2-94f0-25591d281d8e","ios":"levelo://app?vid=153c5ef8-3ec2-4ed2-94f0-25591d281d8e"},"vehicle_type_id":"4","last_reported":1678522161,"current_range_meters":24000,"station_id":"","pricing_plan_id":"free"},{"bike_id":"6aa4d43d-d3cb-44c3-b8ca-d718d20e335b","system_id":"levelo_inurba_marseille","lat":43.330442,"lon":5.389148,"is_reserved":false,"is_disabled":false,"rental_uris":{"android":"levelo://app?vid=6aa4d43d-d3cb-44c3-b8ca-d718d20e335b","ios":"levelo://app?vid=6aa4d43d-d3cb-44c3-b8ca-d718d20e335b"},"vehicle_type_id":"4","last_reported":1678522161,"current_range_meters":20000,"station_id":"ce4bhr92rcd13ifvqhrg","pricing_plan_id":"free"},{"bike_id":"0037ae0a-6165-4289-8c3e-49ef67b6b3ea","system_id":"levelo_inurba_marseille","lat":43.330382,"lon":5.389214,"is_reserved":false,"is_disabled":false,"rental_uris":{"android":"levelo://app?vid=0037ae0a-6165-4289-8c3e-49ef67b6b3ea","ios":"levelo://app?vid=0037ae0a-6165-4289-8c3e-49ef67b6b3ea"},"vehicle_type_id":"4","last_reported":1678522161,"current_range_meters":15600,"station_id":"ce4bhr92rcd13ifvqhrg","pricing_plan_id":"free"},{"bike_id":"693499c9-c39b-44af-9f35-2c590bd87c81","system_id":"levelo_inurba_marseille","lat":43.330442,"lon":5.389148,"is_reserved":false,"is_disabled":false,"rental_uris":{"android":"levelo://app?vid=693499c9-c39b-44af-9f35-2c590bd87c81","ios":"levelo://app?vid=693499c9-c39b-44af-9f35-2c590bd87c81"},"vehicle_type_id":"4","last_reported":1678522161,"current_range_meters":8800,"station_id":"ce4bhr92rcd13ifvqhrg","pricing_plan_id":"free"},{"bike_id":"aa206919-e247-4f55-aaa4-91ee5b1e7373","system_id":"levelo_inurba_marseille","lat":43.33042,"lon":5.38918,"is_reserved":false,"is_disabled":false,"rental_uris":{"android":"levelo://app?vid=aa206919-e247-4f55-aaa4-91ee5b1e7373","ios":"levelo://app?vid=aa206919-e247-4f55-aaa4-91ee5b1e7373"},"vehicle_type_id":"4","last_reported":1678522161,"current_range_meters":14400,"station_id":"ce4bhr92rcd13ifvqhrg","pricing_plan_id":"free"},{"bike_id":"b2c84c7b-6edf-4e2e-8760-4def01da6594","system_id":"levelo_inurba_marseille","lat":43.33042,"lon":5.3892,"is_reserved":false,"is_disabled":false,"rental_uris":{"android":"levelo://app?vid=b2c84c7b-6edf-4e2e-8760-4def01da6594","ios":"levelo://app?vid=b2c84c7b-6edf-4e2e-8760-4def01da6594"},"vehicle_type_id":"4","last_reported":1678522161,"current_range_meters":28400,"station_id":"ce4bhr92rcd13ifvqhrg","pricing_plan_id":"free"},{"bike_id":"427a5da5-2804-4106-b83c-1684b0002f43","system_id":"levelo_inurba_marseille","lat":43.330442,"lon":5.389148,"is_reserved":false,"is_disabled":false,"rental_uris":{"android":"levelo://app?vid=427a5da5-2804-4106-b83c-1684b0002f43","ios":"levelo://app?vid=427a5da5-2804-4106-b83c-1684b0002f43"},"vehicle_type_id":"4","last_reported":1678522161,"current_range_meters":25200,"station_id":"ce4bhr92rcd13ifvqhrg","pricing_plan_id":"free"},{"bike_id":"32bab2d7-fc00-4769-a759-afa0281bfd61","system_id":"levelo_inurba_marseille","lat":43.33042,"lon":5.38921,"is_reserved":false,"is_disabled":false,"rental_uris":{"android":"levelo://app?vid=32bab2d7-fc00-4769-a759-afa0281bfd61","ios":"levelo://app?vid=32bab2d7-fc00-4769-a759-afa0281bfd61"},"vehicle_type_id":"4","last_reported":1678522161,"current_range_meters":22800,"station_id":"","pricing_plan_id":"free"},{"bike_id":"a0b5a7a5-ed90-4867-ab18-7101a63f568b","system_id":"levelo_inurba_marseille","lat":43.330442,"lon":5.389148,"is_reserved":false,"is_disabled":false,"rental_uris":{"android":"levelo://app?vid=a0b5a7a5-ed90-4867-ab18-7101a63f568b","ios":"levelo://app?vid=a0b5a7a5-ed90-4867-ab18-7101a63f568b"},"vehicle_type_id":"4","last_reported":1678522161,"current_range_meters":30400,"station_id":"ce4bhr92rcd13ifvqhrg","pricing_plan_id":"free"},{"bike_id":"dfa3acba-d41d-423d-a7de-2dfc2e123dc8","system_id":"levelo_inurba_marseille","lat":43.330447,"lon":5.389192,"is_reserved":false,"is_disabled":false,"rental_uris":{"android":"levelo://app?vid=dfa3acba-d41d-423d-a7de-2dfc2e123dc8","ios":"levelo://app?vid=dfa3acba-d41d-423d-a7de-2dfc2e123dc8"},"vehicle_type_id":"4","last_reported":1678522161,"current_range_meters":6800,"station_id":"ce4bhr92rcd13ifvqhrg","pricing_plan_id":"free"},{"bike_id":"8c8eb10b-e9fb-4f65-ab68-a33fe156a3a0","system_id":"levelo_inurba_marseille","lat":43.330462,"lon":5.389175,"is_reserved":false,"is_disabled":false,"rental_uris":{"android":"levelo://app?vid=8c8eb10b-e9fb-4f65-ab68-a33fe156a3a0","ios":"levelo://app?vid=8c8eb10b-e9fb-4f65-ab68-a33fe156a3a0"},"vehicle_type_id":"4","last_reported":1678522161,"current_range_meters":23200,"station_id":"ce4bhr92rcd13ifvqhrg","pricing_plan_id":"free"},{"bike_id":"d1b48164-49c0-49c5-afad-93b319d98d9a","system_id":"levelo_inurba_marseille","lat":43.330449,"lon":5.389197,"is_reserved":false,"is_disabled":false,"rental_uris":{"android":"levelo://app?vid=d1b48164-49c0-49c5-afad-93b319d98d9a","ios":"levelo://app?vid=d1b48164-49c0-49c5-afad-93b319d98d9a"},"vehicle_type_id":"4","last_reported":1678522161,"current_range_meters":18000,"station_id":"ce4bhr92rcd13ifvqhrg","pricing_plan_id":"free"},{"bike_id":"f2a4b2a8-67a4-4d27-a073-170b46aa588a","system_id":"levelo_inurba_marseille","lat":43.290048,"lon":5.356139,"is_reserved":false,"is_disabled":false,"rental_uris":{"android":"levelo://app?vid=f2a4b2a8-67a4-4d27-a073-170b46aa588a","ios":"levelo://app?vid=f2a4b2a8-67a4-4d27-a073-170b46aa588a"},"vehicle_type_id":"4","last_reported":1678522161,"current_range_meters":0,"station_id":"ce4bhb92rcd13ifvqen0","pricing_plan_id":"free"},{"bike_id":"a0ffc563-0060-4e12-a276-f5254af4f18e","system_id":"levelo_inurba_marseille","lat":43.290104,"lon":5.356111,"is_reserved":false,"is_disabled":false,"rental_uris":{"android":"levelo://app?vid=a0ffc563-0060-4e12-a276-f5254af4f18e","ios":"levelo://app?vid=a0ffc563-0060-4e12-a276-f5254af4f18e"},"vehicle_type_id":"4","last_reported":1678522161,"current_range_meters":28800,"station_id":"ce4bhb92rcd13ifvqen0","pricing_plan_id":"free"},{"bike_id":"c69d6939-70c3-41a5-8dfd-6279d4d6a7f9","system_id":"levelo_inurba_marseille","lat":43.289958,"lon":5.356107,"is_reserved":false,"is_disabled":false,"rental_uris":{"android":"levelo://app?vid=c69d6939-70c3-41a5-8dfd-6279d4d6a7f9","ios":"levelo://app?vid=c69d6939-70c3-41a5-8dfd-6279d4d6a7f9"},"vehicle_type_id":"4","last_reported":1678522161,"current_range_meters":0,"station_id":"ce4bhb92rcd13ifvqen0","pricing_plan_id":"free"},{"bike_id":"dc4c6760-d15e-4813-bf12-5e9c9b13af11","system_id":"levelo_inurba_marseille","lat":43.298037,"lon":5.381066,"is_reserved":false,"is_disabled":false,"rental_uris":{"android":"levelo://app?vid=dc4c6760-d15e-4813-bf12-5e9c9b13af11","ios":"levelo://app?vid=dc4c6760-d15e-4813-bf12-5e9c9b13af11"},"vehicle_type_id":"4","last_reported":1678522161,"current_range_meters":5200,"station_id":"ce4bgip2rcd13ifvqbb0","pricing_plan_id":"free"},{"bike_id":"f8fff29f-bcef-4b1d-a9e5-259bf970ccc4","system_id":"levelo_inurba_marseille","lat":43.300815,"lon":5.39633,"is_reserved":false,"is_disabled":false,"rental_uris":{"android":"levelo://app?vid=f8fff29f-bcef-4b1d-a9e5-259bf970ccc4","ios":"levelo://app?vid=f8fff29f-bcef-4b1d-a9e5-259bf970ccc4"},"vehicle_type_id":"4","last_reported":1678522161,"current_range_meters":19600,"station_id":"","pricing_plan_id":"free"},{"bike_id":"bc994097-c84a-48a1-a560-c1b9f749ea47","system_id":"levelo_inurba_marseille","lat":43.28856,"lon":5.358371,"is_reserved":false,"is_disabled":false,"rental_uris":{"android":"levelo://app?vid=bc994097-c84a-48a1-a560-c1b9f749ea47","ios":"levelo://app?vid=bc994097-c84a-48a1-a560-c1b9f749ea47"},"vehicle_type_id":"4","last_reported":1678522161,"current_range_meters":23200,"station_id":"ce4bhb12rcd13ifvqem0","pricing_plan_id":"free"},{"bike_id":"58bb54c4-36a3-42ce-9e67-10cea901257a","system_id":"levelo_inurba_marseille","lat":43.28856,"lon":5.358371,"is_reserved":false,"is_disabled":false,"rental_uris":{"android":"levelo://app?vid=58bb54c4-36a3-42ce-9e67-10cea901257a","ios":"levelo://app?vid=58bb54c4-36a3-42ce-9e67-10cea901257a"},"vehicle_type_id":"4","last_reported":1678522161,"current_range_meters":15600,"station_id":"ce4bhb12rcd13ifvqem0","pricing_plan_id":"free"},{"bike_id":"7728a15b-dc8d-48f8-9b80-c356a814f315","system_id":"levelo_inurba_marseille","lat":43.29984,"lon":5.39644,"is_reserved":false,"is_disabled":false,"rental_uris":{"android":"levelo://app?vid=7728a15b-dc8d-48f8-9b80-c356a814f315","ios":"levelo://app?vid=7728a15b-dc8d-48f8-9b80-c356a814f315"},"vehicle_type_id":"4","last_reported":1678522161,"current_range_meters":17200,"station_id":"","pricing_plan_id":"free"},{"bike_id":"894d2861-e10e-460e-9162-dade06c2220a","system_id":"levelo_inurba_marseille","lat":43.306452,"lon":5.400719,"is_reserved":false,"is_disabled":false,"rental_uris":{"android":"levelo://app?vid=894d2861-e10e-460e-9162-dade06c2220a","ios":"levelo://app?vid=894d2861-e10e-460e-9162-dade06c2220a"},"vehicle_type_id":"4","last_reported":1678522161,"current_range_meters":2400,"station_id":"ce4bh112rcd13ifvqda0","pricing_plan_id":"free"},{"bike_id":"af3cf7c2-ad69-4d2f-bfa8-ae5920a788ea","system_id":"levelo_inurba_marseille","lat":43.306373,"lon":5.400693,"is_reserved":false,"is_disabled":false,"rental_uris":{"android":"levelo://app?vid=af3cf7c2-ad69-4d2f-bfa8-ae5920a788ea","ios":"levelo://app?vid=af3cf7c2-ad69-4d2f-bfa8-ae5920a788ea"},"vehicle_type_id":"4","last_reported":1678522161,"current_range_meters":25600,"station_id":"","pricing_plan_id":"free"},{"bike_id":"5f0b3dbc-cf79-4396-83b6-4ba47d2bdeba","system_id":"levelo_inurba_marseille","lat":43.306457,"lon":5.40075,"is_reserved":false,"is_disabled":false,"rental_uris":{"android":"levelo://app?vid=5f0b3dbc-cf79-4396-83b6-4ba47d2bdeba","ios":"levelo://app?vid=5f0b3dbc-cf79-4396-83b6-4ba47d2bdeba"},"vehicle_type_id":"4","last_reported":1678522161,"current_range_meters":13600,"station_id":"","pricing_plan_id":"free"},{"bike_id":"8ef203f4-f76d-4b36-b651-5b2b735a1c5b","system_id":"levelo_inurba_marseille","lat":43.306485,"lon":5.40089,"is_reserved":false,"is_disabled":false,"rental_uris":{"android":"levelo://app?vid=8ef203f4-f76d-4b36-b651-5b2b735a1c5b","ios":"levelo://app?vid=8ef203f4-f76d-4b36-b651-5b2b735a1c5b"},"vehicle_type_id":"4","last_reported":1678522161,"current_range_meters":0,"station_id":"","pricing_plan_id":"free"},{"bike_id":"1fa5ded3-1636-43fa-832c-c81b40897678","system_id":"levelo_inurba_marseille","lat":43.306482,"lon":5.401033,"is_reserved":false,"is_disabled":false,"rental_uris":{"android":"levelo://app?vid=1fa5ded3-1636-43fa-832c-c81b40897678","ios":"levelo://app?vid=1fa5ded3-1636-43fa-832c-c81b40897678"},"vehicle_type_id":"4","last_reported":1678522161,"current_range_meters":0,"station_id":"","pricing_plan_id":"free"},{"bike_id":"deec41dd-aa06-4d0b-a20b-23427af89093","system_id":"levelo_inurba_marseille","lat":43.299,"lon":5.39728,"is_reserved":false,"is_disabled":false,"rental_uris":{"android":"levelo://app?vid=deec41dd-aa06-4d0b-a20b-23427af89093","ios":"levelo://app?vid=deec41dd-aa06-4d0b-a20b-23427af89093"},"vehicle_type_id":"4","last_reported":1678522161,"current_range_meters":18400,"station_id":"","pricing_plan_id":"free"},{"bike_id":"d3fa9502-16af-4b4b-9c27-6e307ab2d313","system_id":"levelo_inurba_marseille","lat":43.2952,"lon":5.39405,"is_reserved":false,"is_disabled":false,"rental_uris":{"android":"levelo://app?vid=d3fa9502-16af-4b4b-9c27-6e307ab2d313","ios":"levelo://app?vid=d3fa9502-16af-4b4b-9c27-6e307ab2d313"},"vehicle_type_id":"4","last_reported":1678522161,"current_range_meters":25200,"station_id":"ce4bh212rcd13ifvqde0","pricing_plan_id":"free"},{"bike_id":"746d902c-a499-4dc0-81e2-e4606e2512d5","system_id":"levelo_inurba_marseille","lat":43.286039,"lon":5.370679,"is_reserved":false,"is_disabled":false,"rental_uris":{"android":"levelo://app?vid=746d902c-a499-4dc0-81e2-e4606e2512d5","ios":"levelo://app?vid=746d902c-a499-4dc0-81e2-e4606e2512d5"},"vehicle_type_id":"4","last_reported":1678522161,"current_range_meters":20000,"station_id":"ce4bht12rcd13ifvqi60","pricing_plan_id":"free"},{"bike_id":"c5bacce0-7826-4436-b838-4aa9295f94a5","system_id":"levelo_inurba_marseille","lat":43.28609,"lon":5.37065,"is_reserved":false,"is_disabled":false,"rental_uris":{"android":"levelo://app?vid=c5bacce0-7826-4436-b838-4aa9295f94a5","ios":"levelo://app?vid=c5bacce0-7826-4436-b838-4aa9295f94a5"},"vehicle_type_id":"4","last_reported":1678522161,"current_range_meters":20000,"station_id":"ce4bht12rcd13ifvqi60","pricing_plan_id":"free"},{"bike_id":"233cd70f-ae07-490a-b850-5c0890c6266d","system_id":"levelo_inurba_marseille","lat":43.316517,"lon":5.404375,"is_reserved":false,"is_disabled":false,"rental_uris":{"android":"levelo://app?vid=233cd70f-ae07-490a-b850-5c0890c6266d","ios":"levelo://app?vid=233cd70f-ae07-490a-b850-5c0890c6266d"},"vehicle_type_id":"4","last_reported":1678522161,"current_range_meters":31600,"station_id":"ce4bh012rcd13ifvqd00","pricing_plan_id":"free"},{"bike_id":"8359ec29-81cd-454e-86db-315925141fb1","system_id":"levelo_inurba_marseille","lat":43.316517,"lon":5.404375,"is_reserved":false,"is_disabled":false,"rental_uris":{"android":"levelo://app?vid=8359ec29-81cd-454e-86db-315925141fb1","ios":"levelo://app?vid=8359ec29-81cd-454e-86db-315925141fb1"},"vehicle_type_id":"4","last_reported":1678522161,"current_range_meters":31600,"station_id":"ce4bh012rcd13ifvqd00","pricing_plan_id":"free"},{"bike_id":"05e792dc-7cea-4599-accc-f9da832b4c05","system_id":"levelo_inurba_marseille","lat":43.316517,"lon":5.404375,"is_reserved":false,"is_disabled":false,"rental_uris":{"android":"levelo://app?vid=05e792dc-7cea-4599-accc-f9da832b4c05","ios":"levelo://app?vid=05e792dc-7cea-4599-accc-f9da832b4c05"},"vehicle_type_id":"4","last_reported":1678522161,"current_range_meters":28800,"station_id":"ce4bh012rcd13ifvqd00","pricing_plan_id":"free"},{"bike_id":"fc59079e-5199-4fd5-ba77-f84ed1d5976f","system_id":"levelo_inurba_marseille","lat":43.316517,"lon":5.404375,"is_reserved":false,"is_disabled":false,"rental_uris":{"android":"levelo://app?vid=fc59079e-5199-4fd5-ba77-f84ed1d5976f","ios":"levelo://app?vid=fc59079e-5199-4fd5-ba77-f84ed1d5976f"},"vehicle_type_id":"4","last_reported":1678522161,"current_range_meters":6800,"station_id":"ce4bh012rcd13ifvqd00","pricing_plan_id":"free"},{"bike_id":"92e4c49a-8f22-44f5-8b29-54caa999db77","system_id":"levelo_inurba_marseille","lat":43.316517,"lon":5.404375,"is_reserved":false,"is_disabled":false,"rental_uris":{"android":"levelo://app?vid=92e4c49a-8f22-44f5-8b29-54caa999db77","ios":"levelo://app?vid=92e4c49a-8f22-44f5-8b29-54caa999db77"},"vehicle_type_id":"4","last_reported":1678522161,"current_range_meters":29600,"station_id":"ce4bh012rcd13ifvqd00","pricing_plan_id":"free"},{"bike_id":"add5150c-4f18-48dd-af62-a5992cab0a58","system_id":"levelo_inurba_marseille","lat":43.316517,"lon":5.404375,"is_reserved":false,"is_disabled":false,"rental_uris":{"android":"levelo://app?vid=add5150c-4f18-48dd-af62-a5992cab0a58","ios":"levelo://app?vid=add5150c-4f18-48dd-af62-a5992cab0a58"},"vehicle_type_id":"4","last_reported":1678522161,"current_range_meters":31600,"station_id":"ce4bh012rcd13ifvqd00","pricing_plan_id":"free"},{"bike_id":"24e96cae-6e15-400c-a9f2-7ee73713f185","system_id":"levelo_inurba_marseille","lat":43.316517,"lon":5.404375,"is_reserved":false,"is_disabled":false,"rental_uris":{"android":"levelo://app?vid=24e96cae-6e15-400c-a9f2-7ee73713f185","ios":"levelo://app?vid=24e96cae-6e15-400c-a9f2-7ee73713f185"},"vehicle_type_id":"4","last_reported":1678522161,"current_range_meters":29600,"station_id":"ce4bh012rcd13ifvqd00","pricing_plan_id":"free"},{"bike_id":"1b81e5f2-4ab7-4b94-98f1-0e01bc09ad8b","system_id":"levelo_inurba_marseille","lat":43.316517,"lon":5.404375,"is_reserved":false,"is_disabled":false,"rental_uris":{"android":"levelo://app?vid=1b81e5f2-4ab7-4b94-98f1-0e01bc09ad8b","ios":"levelo://app?vid=1b81e5f2-4ab7-4b94-98f1-0e01bc09ad8b"},"vehicle_type_id":"4","last_reported":1678522161,"current_range_meters":1200,"station_id":"ce4bh012rcd13ifvqd00","pricing_plan_id":"free"},{"bike_id":"34db8165-18fd-4d84-8ac6-2508d299276d","system_id":"levelo_inurba_marseille","lat":43.32232,"lon":5.40635,"is_reserved":false,"is_disabled":false,"rental_uris":{"android":"levelo://app?vid=34db8165-18fd-4d84-8ac6-2508d299276d","ios":"levelo://app?vid=34db8165-18fd-4d84-8ac6-2508d299276d"},"vehicle_type_id":"4","last_reported":1678522161,"current_range_meters":0,"station_id":"","pricing_plan_id":"free"},{"bike_id":"855f6a2d-ee69-481f-9bb7-ffde94010762","system_id":"levelo_inurba_marseille","lat":43.336837,"lon":5.392117,"is_reserved":false,"is_disabled":false,"rental_uris":{"android":"levelo://app?vid=855f6a2d-ee69-481f-9bb7-ffde94010762","ios":"levelo://app?vid=855f6a2d-ee69-481f-9bb7-ffde94010762"},"vehicle_type_id":"4","last_reported":1678522161,"current_range_meters":22000,"station_id":"","pricing_plan_id":"free"},{"bike_id":"5653e0aa-0ad5-4ace-b52b-0e96b57ad81c","system_id":"levelo_inurba_marseille","lat":43.337168,"lon":5.391825,"is_reserved":false,"is_disabled":false,"rental_uris":{"android":"levelo://app?vid=5653e0aa-0ad5-4ace-b52b-0e96b57ad81c","ios":"levelo://app?vid=5653e0aa-0ad5-4ace-b52b-0e96b57ad81c"},"vehicle_type_id":"4","last_reported":1678522161,"current_range_meters":5600,"station_id":"ce4bhr92rcd13ifvqhsg","pricing_plan_id":"free"},{"bike_id":"76847b6d-11ba-4923-bbdd-3a1229493e58","system_id":"levelo_inurba_marseille","lat":43.337168,"lon":5.391825,"is_reserved":false,"is_disabled":false,"rental_uris":{"android":"levelo://app?vid=76847b6d-11ba-4923-bbdd-3a1229493e58","ios":"levelo://app?vid=76847b6d-11ba-4923-bbdd-3a1229493e58"},"vehicle_type_id":"4","last_reported":1678522161,"current_range_meters":24400,"station_id":"ce4bhr92rcd13ifvqhsg","pricing_plan_id":"free"},{"bike_id":"9f00a16a-14f0-41e0-b020-55e96a55cc34","system_id":"levelo_inurba_marseille","lat":43.32336,"lon":5.40616,"is_reserved":false,"is_disabled":false,"rental_uris":{"android":"levelo://app?vid=9f00a16a-14f0-41e0-b020-55e96a55cc34","ios":"levelo://app?vid=9f00a16a-14f0-41e0-b020-55e96a55cc34"},"vehicle_type_id":"4","last_reported":1678522161,"current_range_meters":0,"station_id":"","pricing_plan_id":"free"},{"bike_id":"212360a1-057e-42ae-85fb-8bd672ebdeea","system_id":"levelo_inurba_marseille","lat":43.33717,"lon":5.391857,"is_reserved":false,"is_disabled":false,"rental_uris":{"android":"levelo://app?vid=212360a1-057e-42ae-85fb-8bd672ebdeea","ios":"levelo://app?vid=212360a1-057e-42ae-85fb-8bd672ebdeea"},"vehicle_type_id":"4","last_reported":1678522161,"current_range_meters":26000,"station_id":"ce4bhr92rcd13ifvqhsg","pricing_plan_id":"free"},{"bike_id":"7fe7ded2-595f-4c37-a50b-7f9a866a9b94","system_id":"levelo_inurba_marseille","lat":43.32338,"lon":5.4062,"is_reserved":false,"is_disabled":false,"rental_uris":{"android":"levelo://app?vid=7fe7ded2-595f-4c37-a50b-7f9a866a9b94","ios":"levelo://app?vid=7fe7ded2-595f-4c37-a50b-7f9a866a9b94"},"vehicle_type_id":"4","last_reported":1678522161,"current_range_meters":9200,"station_id":"","pricing_plan_id":"free"},{"bike_id":"2f587577-e724-4d6c-b766-df0c92c3d293","system_id":"levelo_inurba_marseille","lat":43.32342,"lon":5.4062,"is_reserved":false,"is_disabled":false,"rental_uris":{"android":"levelo://app?vid=2f587577-e724-4d6c-b766-df0c92c3d293","ios":"levelo://app?vid=2f587577-e724-4d6c-b766-df0c92c3d293"},"vehicle_type_id":"4","last_reported":1678522161,"current_range_meters":0,"station_id":"ce4bhq92rcd13ifvqhjg","pricing_plan_id":"free"},{"bike_id":"83576488-5cf5-4240-ace4-45d28f16adbc","system_id":"levelo_inurba_marseille","lat":43.33717,"lon":5.391857,"is_reserved":false,"is_disabled":false,"rental_uris":{"android":"levelo://app?vid=83576488-5cf5-4240-ace4-45d28f16adbc","ios":"levelo://app?vid=83576488-5cf5-4240-ace4-45d28f16adbc"},"vehicle_type_id":"4","last_reported":1678522161,"current_range_meters":13600,"station_id":"ce4bhr92rcd13ifvqhsg","pricing_plan_id":"free"},{"bike_id":"177abfe3-b28d-4ab3-bb7c-3739deacaa74","system_id":"levelo_inurba_marseille","lat":43.284787,"lon":5.384116,"is_reserved":false,"is_disabled":false,"rental_uris":{"android":"levelo://app?vid=177abfe3-b28d-4ab3-bb7c-3739deacaa74","ios":"levelo://app?vid=177abfe3-b28d-4ab3-bb7c-3739deacaa74"},"vehicle_type_id":"4","last_reported":1678522161,"current_range_meters":27200,"station_id":"ce4bh512rcd13ifvqe3g","pricing_plan_id":"free"},{"bike_id":"99d42e2f-1279-49e5-a569-52cda2cf6225","system_id":"levelo_inurba_marseille","lat":43.284782,"lon":5.384066,"is_reserved":false,"is_disabled":false,"rental_uris":{"android":"levelo://app?vid=99d42e2f-1279-49e5-a569-52cda2cf6225","ios":"levelo://app?vid=99d42e2f-1279-49e5-a569-52cda2cf6225"},"vehicle_type_id":"4","last_reported":1678522161,"current_range_meters":0,"station_id":"","pricing_plan_id":"free"},{"bike_id":"e5183bfc-46d7-4518-adf8-c9f330d141c6","system_id":"levelo_inurba_marseille","lat":43.284787,"lon":5.384116,"is_reserved":false,"is_disabled":false,"rental_uris":{"android":"levelo://app?vid=e5183bfc-46d7-4518-adf8-c9f330d141c6","ios":"levelo://app?vid=e5183bfc-46d7-4518-adf8-c9f330d141c6"},"vehicle_type_id":"4","last_reported":1678522161,"current_range_meters":31600,"station_id":"ce4bh512rcd13ifvqe3g","pricing_plan_id":"free"},{"bike_id":"bb9d38c6-b21b-43ea-a2e4-d794ae7e1a0f","system_id":"levelo_inurba_marseille","lat":43.284787,"lon":5.384116,"is_reserved":false,"is_disabled":false,"rental_uris":{"android":"levelo://app?vid=bb9d38c6-b21b-43ea-a2e4-d794ae7e1a0f","ios":"levelo://app?vid=bb9d38c6-b21b-43ea-a2e4-d794ae7e1a0f"},"vehicle_type_id":"4","last_reported":1678522161,"current_range_meters":31600,"station_id":"ce4bh512rcd13ifvqe3g","pricing_plan_id":"free"},{"bike_id":"fb56b0d8-9be7-403e-9f88-35bd1d1f8131","system_id":"levelo_inurba_marseille","lat":43.284787,"lon":5.384116,"is_reserved":false,"is_disabled":false,"rental_uris":{"android":"levelo://app?vid=fb56b0d8-9be7-403e-9f88-35bd1d1f8131","ios":"levelo://app?vid=fb56b0d8-9be7-403e-9f88-35bd1d1f8131"},"vehicle_type_id":"4","last_reported":1678522161,"current_range_meters":24000,"station_id":"ce4bh512rcd13ifvqe3g","pricing_plan_id":"free"},{"bike_id":"e8e2125d-75c1-4e5e-b8c2-6cb1dfeb709f","system_id":"levelo_inurba_marseille","lat":43.28415,"lon":5.3499,"is_reserved":false,"is_disabled":false,"rental_uris":{"android":"levelo://app?vid=e8e2125d-75c1-4e5e-b8c2-6cb1dfeb709f","ios":"levelo://app?vid=e8e2125d-75c1-4e5e-b8c2-6cb1dfeb709f"},"vehicle_type_id":"4","last_reported":1678522161,"current_range_meters":0,"station_id":"ce4bhbh2rcd13ifvqepg","pricing_plan_id":"free"},{"bike_id":"0b35e9a0-661c-4418-a28f-d4e5bdeb230d","system_id":"levelo_inurba_marseille","lat":43.28417,"lon":5.34976,"is_reserved":false,"is_disabled":false,"rental_uris":{"android":"levelo://app?vid=0b35e9a0-661c-4418-a28f-d4e5bdeb230d","ios":"levelo://app?vid=0b35e9a0-661c-4418-a28f-d4e5bdeb230d"},"vehicle_type_id":"4","last_reported":1678522161,"current_range_meters":12000,"station_id":"ce4bhbh2rcd13ifvqepg","pricing_plan_id":"free"},{"bike_id":"b4238959-3a09-4895-b423-5773306c3b9d","system_id":"levelo_inurba_marseille","lat":43.33935,"lon":5.39097,"is_reserved":false,"is_disabled":false,"rental_uris":{"android":"levelo://app?vid=b4238959-3a09-4895-b423-5773306c3b9d","ios":"levelo://app?vid=b4238959-3a09-4895-b423-5773306c3b9d"},"vehicle_type_id":"4","last_reported":1678522161,"current_range_meters":0,"station_id":"","pricing_plan_id":"free"},{"bike_id":"f6d9b3da-2c23-4af4-b2ac-a5dcad82b1d8","system_id":"levelo_inurba_marseille","lat":43.292746,"lon":5.401287,"is_reserved":false,"is_disabled":false,"rental_uris":{"android":"levelo://app?vid=f6d9b3da-2c23-4af4-b2ac-a5dcad82b1d8","ios":"levelo://app?vid=f6d9b3da-2c23-4af4-b2ac-a5dcad82b1d8"},"vehicle_type_id":"4","last_reported":1678522161,"current_range_meters":0,"station_id":"ce4bh312rcd13ifvqdk0","pricing_plan_id":"free"},{"bike_id":"f0468949-7d7d-4f10-b654-18e596612e65","system_id":"levelo_inurba_marseille","lat":43.28272,"lon":5.350728,"is_reserved":false,"is_disabled":false,"rental_uris":{"android":"levelo://app?vid=f0468949-7d7d-4f10-b654-18e596612e65","ios":"levelo://app?vid=f0468949-7d7d-4f10-b654-18e596612e65"},"vehicle_type_id":"4","last_reported":1678522161,"current_range_meters":5200,"station_id":"ce4bhbp2rcd13ifvqerg","pricing_plan_id":"free"},{"bike_id":"8e0e0fde-6700-42d3-844d-a956fcfa9a84","system_id":"levelo_inurba_marseille","lat":43.282744,"lon":5.350533,"is_reserved":false,"is_disabled":false,"rental_uris":{"android":"levelo://app?vid=8e0e0fde-6700-42d3-844d-a956fcfa9a84","ios":"levelo://app?vid=8e0e0fde-6700-42d3-844d-a956fcfa9a84"},"vehicle_type_id":"4","last_reported":1678522161,"current_range_meters":7600,"station_id":"ce4bhbp2rcd13ifvqerg","pricing_plan_id":"free"},{"bike_id":"c0e99776-f80a-4add-84f2-9843362ab74a","system_id":"levelo_inurba_marseille","lat":43.282744,"lon":5.350533,"is_reserved":false,"is_disabled":false,"rental_uris":{"android":"levelo://app?vid=c0e99776-f80a-4add-84f2-9843362ab74a","ios":"levelo://app?vid=c0e99776-f80a-4add-84f2-9843362ab74a"},"vehicle_type_id":"4","last_reported":1678522161,"current_range_meters":5200,"station_id":"ce4bhbp2rcd13ifvqerg","pricing_plan_id":"free"},{"bike_id":"dd009eab-93ac-4c41-951b-45c78eb95178","system_id":"levelo_inurba_marseille","lat":43.296337,"lon":5.405989,"is_reserved":false,"is_disabled":false,"rental_uris":{"android":"levelo://app?vid=dd009eab-93ac-4c41-951b-45c78eb95178","ios":"levelo://app?vid=dd009eab-93ac-4c41-951b-45c78eb95178"},"vehicle_type_id":"4","last_reported":1678522161,"current_range_meters":0,"station_id":"ce4bh0h2rcd13ifvqd60","pricing_plan_id":"free"},{"bike_id":"750dd95e-6ccd-4d4d-a56c-cbf4f19e574e","system_id":"levelo_inurba_marseille","lat":43.284462,"lon":5.392121,"is_reserved":false,"is_disabled":false,"rental_uris":{"android":"levelo://app?vid=750dd95e-6ccd-4d4d-a56c-cbf4f19e574e","ios":"levelo://app?vid=750dd95e-6ccd-4d4d-a56c-cbf4f19e574e"},"vehicle_type_id":"4","last_reported":1678522161,"current_range_meters":27200,"station_id":"ce4bhoh2rcd13ifvqh5g","pricing_plan_id":"free"},{"bike_id":"25aa8396-5aa4-4bb4-bccc-7770ab528d5a","system_id":"levelo_inurba_marseille","lat":43.284462,"lon":5.392121,"is_reserved":false,"is_disabled":false,"rental_uris":{"android":"levelo://app?vid=25aa8396-5aa4-4bb4-bccc-7770ab528d5a","ios":"levelo://app?vid=25aa8396-5aa4-4bb4-bccc-7770ab528d5a"},"vehicle_type_id":"4","last_reported":1678522161,"current_range_meters":24400,"station_id":"ce4bhoh2rcd13ifvqh5g","pricing_plan_id":"free"},{"bike_id":"ac78823f-fde4-47d7-a168-aa2ebb384f92","system_id":"levelo_inurba_marseille","lat":43.304188,"lon":5.412904,"is_reserved":false,"is_disabled":false,"rental_uris":{"android":"levelo://app?vid=ac78823f-fde4-47d7-a168-aa2ebb384f92","ios":"levelo://app?vid=ac78823f-fde4-47d7-a168-aa2ebb384f92"},"vehicle_type_id":"4","last_reported":1678522161,"current_range_meters":27600,"station_id":"ce4bhop2rcd13ifvqh8g","pricing_plan_id":"free"},{"bike_id":"45c6c558-c789-4f62-82db-48b9268a25a3","system_id":"levelo_inurba_marseille","lat":43.286788,"lon":5.399986,"is_reserved":false,"is_disabled":false,"rental_uris":{"android":"levelo://app?vid=45c6c558-c789-4f62-82db-48b9268a25a3","ios":"levelo://app?vid=45c6c558-c789-4f62-82db-48b9268a25a3"},"vehicle_type_id":"4","last_reported":1678522161,"current_range_meters":4000,"station_id":"","pricing_plan_id":"free"},{"bike_id":"e736322b-db1a-4bd8-bea1-662a7464c523","system_id":"levelo_inurba_marseille","lat":43.286413,"lon":5.399551,"is_reserved":false,"is_disabled":false,"rental_uris":{"android":"levelo://app?vid=e736322b-db1a-4bd8-bea1-662a7464c523","ios":"levelo://app?vid=e736322b-db1a-4bd8-bea1-662a7464c523"},"vehicle_type_id":"4","last_reported":1678522161,"current_range_meters":0,"station_id":"","pricing_plan_id":"free"},{"bike_id":"9398ed13-19f9-4818-8990-e991eea7c425","system_id":"levelo_inurba_marseille","lat":43.32536,"lon":5.41256,"is_reserved":false,"is_disabled":false,"rental_uris":{"android":"levelo://app?vid=9398ed13-19f9-4818-8990-e991eea7c425","ios":"levelo://app?vid=9398ed13-19f9-4818-8990-e991eea7c425"},"vehicle_type_id":"4","last_reported":1678522161,"current_range_meters":0,"station_id":"","pricing_plan_id":"free"},{"bike_id":"7f92b6ab-d108-4c5b-851c-a7032c8b49c1","system_id":"levelo_inurba_marseille","lat":43.299577,"lon":5.413277,"is_reserved":false,"is_disabled":false,"rental_uris":{"android":"levelo://app?vid=7f92b6ab-d108-4c5b-851c-a7032c8b49c1","ios":"levelo://app?vid=7f92b6ab-d108-4c5b-851c-a7032c8b49c1"},"vehicle_type_id":"4","last_reported":1678522161,"current_range_meters":5600,"station_id":"ce4bhp12rcd13ifvqh9g","pricing_plan_id":"free"},{"bike_id":"b3aadf4c-7fc3-447a-911e-5382dbacdd8d","system_id":"levelo_inurba_marseille","lat":43.279742,"lon":5.38744,"is_reserved":false,"is_disabled":false,"rental_uris":{"android":"levelo://app?vid=b3aadf4c-7fc3-447a-911e-5382dbacdd8d","ios":"levelo://app?vid=b3aadf4c-7fc3-447a-911e-5382dbacdd8d"},"vehicle_type_id":"4","last_reported":1678522161,"current_range_meters":27600,"station_id":"ce4bhg12rcd13ifvqf80","pricing_plan_id":"free"},{"bike_id":"f3701f72-777e-4adb-a643-fb3413e6c0bf","system_id":"levelo_inurba_marseille","lat":43.279598,"lon":5.387154,"is_reserved":false,"is_disabled":false,"rental_uris":{"android":"levelo://app?vid=f3701f72-777e-4adb-a643-fb3413e6c0bf","ios":"levelo://app?vid=f3701f72-777e-4adb-a643-fb3413e6c0bf"},"vehicle_type_id":"4","last_reported":1678522161,"current_range_meters":31600,"station_id":"ce4bhg12rcd13ifvqf80","pricing_plan_id":"free"},{"bike_id":"752392a3-8b3d-47c7-8499-0ec626caa87c","system_id":"levelo_inurba_marseille","lat":43.279552,"lon":5.387039,"is_reserved":false,"is_disabled":false,"rental_uris":{"android":"levelo://app?vid=752392a3-8b3d-47c7-8499-0ec626caa87c","ios":"levelo://app?vid=752392a3-8b3d-47c7-8499-0ec626caa87c"},"vehicle_type_id":"4","last_reported":1678522161,"current_range_meters":27600,"station_id":"ce4bhg12rcd13ifvqf80","pricing_plan_id":"free"},{"bike_id":"446c5d48-b0fe-47dd-94e0-77e80ff24d66","system_id":"levelo_inurba_marseille","lat":43.292569,"lon":5.409107,"is_reserved":false,"is_disabled":false,"rental_uris":{"android":"levelo://app?vid=446c5d48-b0fe-47dd-94e0-77e80ff24d66","ios":"levelo://app?vid=446c5d48-b0fe-47dd-94e0-77e80ff24d66"},"vehicle_type_id":"4","last_reported":1678522161,"current_range_meters":26000,"station_id":"ce4bh192rcd13ifvqdc0","pricing_plan_id":"free"},{"bike_id":"f449bbbd-bfc1-4b96-909e-560210d0a9b3","system_id":"levelo_inurba_marseille","lat":43.27618,"lon":5.361009,"is_reserved":false,"is_disabled":false,"rental_uris":{"android":"levelo://app?vid=f449bbbd-bfc1-4b96-909e-560210d0a9b3","ios":"levelo://app?vid=f449bbbd-bfc1-4b96-909e-560210d0a9b3"},"vehicle_type_id":"4","last_reported":1678522161,"current_range_meters":12000,"station_id":"ce4bgj92rcd13ifvqbe0","pricing_plan_id":"free"},{"bike_id":"b148287a-8782-42ac-bd38-a943485090f5","system_id":"levelo_inurba_marseille","lat":43.27618,"lon":5.361009,"is_reserved":false,"is_disabled":false,"rental_uris":{"android":"levelo://app?vid=b148287a-8782-42ac-bd38-a943485090f5","ios":"levelo://app?vid=b148287a-8782-42ac-bd38-a943485090f5"},"vehicle_type_id":"4","last_reported":1678522161,"current_range_meters":4000,"station_id":"ce4bgj92rcd13ifvqbe0","pricing_plan_id":"free"},{"bike_id":"d99b127c-8c4c-4184-85ec-f38cfef62580","system_id":"levelo_inurba_marseille","lat":43.320045,"lon":5.415048,"is_reserved":false,"is_disabled":false,"rental_uris":{"android":"levelo://app?vid=d99b127c-8c4c-4184-85ec-f38cfef62580","ios":"levelo://app?vid=d99b127c-8c4c-4184-85ec-f38cfef62580"},"vehicle_type_id":"4","last_reported":1678522161,"current_range_meters":22800,"station_id":"ce4bhq92rcd13ifvqhkg","pricing_plan_id":"free"},{"bike_id":"76c009d3-d68d-40ef-9f50-72c3556e8400","system_id":"levelo_inurba_marseille","lat":43.33612,"lon":5.410321,"is_reserved":false,"is_disabled":false,"rental_uris":{"android":"levelo://app?vid=76c009d3-d68d-40ef-9f50-72c3556e8400","ios":"levelo://app?vid=76c009d3-d68d-40ef-9f50-72c3556e8400"},"vehicle_type_id":"4","last_reported":1678522161,"current_range_meters":27600,"station_id":"ce4bhqh2rcd13ifvqhmg","pricing_plan_id":"free"},{"bike_id":"d8ee8fb5-0f04-44b2-a85e-67decd8c0010","system_id":"levelo_inurba_marseille","lat":43.33612,"lon":5.410321,"is_reserved":false,"is_disabled":false,"rental_uris":{"android":"levelo://app?vid=d8ee8fb5-0f04-44b2-a85e-67decd8c0010","ios":"levelo://app?vid=d8ee8fb5-0f04-44b2-a85e-67decd8c0010"},"vehicle_type_id":"4","last_reported":1678522161,"current_range_meters":20800,"station_id":"ce4bhqh2rcd13ifvqhmg","pricing_plan_id":"free"},{"bike_id":"d0dbd069-bf22-4df8-b15c-1f2f60538f33","system_id":"levelo_inurba_marseille","lat":43.33612,"lon":5.410321,"is_reserved":false,"is_disabled":false,"rental_uris":{"android":"levelo://app?vid=d0dbd069-bf22-4df8-b15c-1f2f60538f33","ios":"levelo://app?vid=d0dbd069-bf22-4df8-b15c-1f2f60538f33"},"vehicle_type_id":"4","last_reported":1678522161,"current_range_meters":17600,"station_id":"ce4bhqh2rcd13ifvqhmg","pricing_plan_id":"free"},{"bike_id":"7d3a1e4b-58a6-4494-a80c-8c4f4ef04af8","system_id":"levelo_inurba_marseille","lat":43.33612,"lon":5.410321,"is_reserved":false,"is_disabled":false,"rental_uris":{"android":"levelo://app?vid=7d3a1e4b-58a6-4494-a80c-8c4f4ef04af8","ios":"levelo://app?vid=7d3a1e4b-58a6-4494-a80c-8c4f4ef04af8"},"vehicle_type_id":"4","last_reported":1678522161,"current_range_meters":27200,"station_id":"ce4bhqh2rcd13ifvqhmg","pricing_plan_id":"free"},{"bike_id":"cc25412d-692f-472d-8dc6-c0bdca783751","system_id":"levelo_inurba_marseille","lat":43.336148,"lon":5.410349,"is_reserved":false,"is_disabled":false,"rental_uris":{"android":"levelo://app?vid=cc25412d-692f-472d-8dc6-c0bdca783751","ios":"levelo://app?vid=cc25412d-692f-472d-8dc6-c0bdca783751"},"vehicle_type_id":"4","last_reported":1678522161,"current_range_meters":21600,"station_id":"ce4bhqh2rcd13ifvqhmg","pricing_plan_id":"free"},{"bike_id":"7e286d1f-b858-419e-b0c3-adef1b4d895d","system_id":"levelo_inurba_marseille","lat":43.273613,"lon":5.362705,"is_reserved":false,"is_disabled":false,"rental_uris":{"android":"levelo://app?vid=7e286d1f-b858-419e-b0c3-adef1b4d895d","ios":"levelo://app?vid=7e286d1f-b858-419e-b0c3-adef1b4d895d"},"vehicle_type_id":"4","last_reported":1678522161,"current_range_meters":19200,"station_id":"ce4bhbh2rcd13ifvqeo0","pricing_plan_id":"free"},{"bike_id":"9125830e-f968-4976-a4a0-cbfa76a7fd96","system_id":"levelo_inurba_marseille","lat":43.33612,"lon":5.410321,"is_reserved":false,"is_disabled":false,"rental_uris":{"android":"levelo://app?vid=9125830e-f968-4976-a4a0-cbfa76a7fd96","ios":"levelo://app?vid=9125830e-f968-4976-a4a0-cbfa76a7fd96"},"vehicle_type_id":"4","last_reported":1678522161,"current_range_meters":5200,"station_id":"ce4bhqh2rcd13ifvqhmg","pricing_plan_id":"free"},{"bike_id":"be6321f3-6439-48bc-b19b-90a05fe235b7","system_id":"levelo_inurba_marseille","lat":43.33612,"lon":5.410321,"is_reserved":false,"is_disabled":false,"rental_uris":{"android":"levelo://app?vid=be6321f3-6439-48bc-b19b-90a05fe235b7","ios":"levelo://app?vid=be6321f3-6439-48bc-b19b-90a05fe235b7"},"vehicle_type_id":"4","last_reported":1678522161,"current_range_meters":31600,"station_id":"ce4bhqh2rcd13ifvqhmg","pricing_plan_id":"free"},{"bike_id":"15c09e9d-7e57-486f-8afa-2a479ff732d2","system_id":"levelo_inurba_marseille","lat":43.336134,"lon":5.410341,"is_reserved":false,"is_disabled":false,"rental_uris":{"android":"levelo://app?vid=15c09e9d-7e57-486f-8afa-2a479ff732d2","ios":"levelo://app?vid=15c09e9d-7e57-486f-8afa-2a479ff732d2"},"vehicle_type_id":"4","last_reported":1678522161,"current_range_meters":26800,"station_id":"ce4bhqh2rcd13ifvqhmg","pricing_plan_id":"free"},{"bike_id":"4cb86ed4-a9ae-400a-ad0e-144ba0300a80","system_id":"levelo_inurba_marseille","lat":43.33612,"lon":5.410321,"is_reserved":false,"is_disabled":false,"rental_uris":{"android":"levelo://app?vid=4cb86ed4-a9ae-400a-ad0e-144ba0300a80","ios":"levelo://app?vid=4cb86ed4-a9ae-400a-ad0e-144ba0300a80"},"vehicle_type_id":"4","last_reported":1678522161,"current_range_meters":27200,"station_id":"ce4bhqh2rcd13ifvqhmg","pricing_plan_id":"free"},{"bike_id":"0f279910-81ea-459b-9d8b-0e275b1faea5","system_id":"levelo_inurba_marseille","lat":43.336148,"lon":5.410349,"is_reserved":false,"is_disabled":false,"rental_uris":{"android":"levelo://app?vid=0f279910-81ea-459b-9d8b-0e275b1faea5","ios":"levelo://app?vid=0f279910-81ea-459b-9d8b-0e275b1faea5"},"vehicle_type_id":"4","last_reported":1678522161,"current_range_meters":28400,"station_id":"ce4bhqh2rcd13ifvqhmg","pricing_plan_id":"free"},{"bike_id":"58988db0-4fd6-420e-b2e5-e4ccdf258bc5","system_id":"levelo_inurba_marseille","lat":43.336134,"lon":5.410341,"is_reserved":false,"is_disabled":false,"rental_uris":{"android":"levelo://app?vid=58988db0-4fd6-420e-b2e5-e4ccdf258bc5","ios":"levelo://app?vid=58988db0-4fd6-420e-b2e5-e4ccdf258bc5"},"vehicle_type_id":"4","last_reported":1678522161,"current_range_meters":12800,"station_id":"ce4bhqh2rcd13ifvqhmg","pricing_plan_id":"free"},{"bike_id":"4321ece3-93bb-430d-a40d-c8319fcf3b50","system_id":"levelo_inurba_marseille","lat":43.336148,"lon":5.410349,"is_reserved":false,"is_disabled":false,"rental_uris":{"android":"levelo://app?vid=4321ece3-93bb-430d-a40d-c8319fcf3b50","ios":"levelo://app?vid=4321ece3-93bb-430d-a40d-c8319fcf3b50"},"vehicle_type_id":"4","last_reported":1678522161,"current_range_meters":22000,"station_id":"ce4bhqh2rcd13ifvqhmg","pricing_plan_id":"free"},{"bike_id":"a28aa652-2fd7-4c75-81e1-9e734eb8c0d3","system_id":"levelo_inurba_marseille","lat":43.33612,"lon":5.410321,"is_reserved":false,"is_disabled":false,"rental_uris":{"android":"levelo://app?vid=a28aa652-2fd7-4c75-81e1-9e734eb8c0d3","ios":"levelo://app?vid=a28aa652-2fd7-4c75-81e1-9e734eb8c0d3"},"vehicle_type_id":"4","last_reported":1678522161,"current_range_meters":21200,"station_id":"ce4bhqh2rcd13ifvqhmg","pricing_plan_id":"free"},{"bike_id":"79a6d6f7-9848-4c28-9755-9126a2d1ef53","system_id":"levelo_inurba_marseille","lat":43.336032,"lon":5.410354,"is_reserved":false,"is_disabled":false,"rental_uris":{"android":"levelo://app?vid=79a6d6f7-9848-4c28-9755-9126a2d1ef53","ios":"levelo://app?vid=79a6d6f7-9848-4c28-9755-9126a2d1ef53"},"vehicle_type_id":"4","last_reported":1678522161,"current_range_meters":24400,"station_id":"","pricing_plan_id":"free"},{"bike_id":"d15870ce-a9d9-4e00-9bf4-acf0ebdfe9c7","system_id":"levelo_inurba_marseille","lat":43.33612,"lon":5.410321,"is_reserved":false,"is_disabled":false,"rental_uris":{"android":"levelo://app?vid=d15870ce-a9d9-4e00-9bf4-acf0ebdfe9c7","ios":"levelo://app?vid=d15870ce-a9d9-4e00-9bf4-acf0ebdfe9c7"},"vehicle_type_id":"4","last_reported":1678522161,"current_range_meters":12800,"station_id":"ce4bhqh2rcd13ifvqhmg","pricing_plan_id":"free"},{"bike_id":"ea9082ca-9453-4eee-ba32-5187a8e8d3c2","system_id":"levelo_inurba_marseille","lat":43.336148,"lon":5.410349,"is_reserved":false,"is_disabled":false,"rental_uris":{"android":"levelo://app?vid=ea9082ca-9453-4eee-ba32-5187a8e8d3c2","ios":"levelo://app?vid=ea9082ca-9453-4eee-ba32-5187a8e8d3c2"},"vehicle_type_id":"4","last_reported":1678522161,"current_range_meters":27600,"station_id":"ce4bhqh2rcd13ifvqhmg","pricing_plan_id":"free"},{"bike_id":"4693c25b-9b18-491c-9945-8d9b6180ae9f","system_id":"levelo_inurba_marseille","lat":43.33612,"lon":5.410321,"is_reserved":false,"is_disabled":false,"rental_uris":{"android":"levelo://app?vid=4693c25b-9b18-491c-9945-8d9b6180ae9f","ios":"levelo://app?vid=4693c25b-9b18-491c-9945-8d9b6180ae9f"},"vehicle_type_id":"4","last_reported":1678522161,"current_range_meters":25600,"station_id":"ce4bhqh2rcd13ifvqhmg","pricing_plan_id":"free"},{"bike_id":"720320c0-03db-40f5-8299-6481008059a9","system_id":"levelo_inurba_marseille","lat":43.336052,"lon":5.410366,"is_reserved":false,"is_disabled":false,"rental_uris":{"android":"levelo://app?vid=720320c0-03db-40f5-8299-6481008059a9","ios":"levelo://app?vid=720320c0-03db-40f5-8299-6481008059a9"},"vehicle_type_id":"4","last_reported":1678522161,"current_range_meters":19600,"station_id":"","pricing_plan_id":"free"},{"bike_id":"39244527-13b0-4387-881a-0b995a7a76b4","system_id":"levelo_inurba_marseille","lat":43.33612,"lon":5.410321,"is_reserved":false,"is_disabled":false,"rental_uris":{"android":"levelo://app?vid=39244527-13b0-4387-881a-0b995a7a76b4","ios":"levelo://app?vid=39244527-13b0-4387-881a-0b995a7a76b4"},"vehicle_type_id":"4","last_reported":1678522161,"current_range_meters":31600,"station_id":"ce4bhqh2rcd13ifvqhmg","pricing_plan_id":"free"},{"bike_id":"4886aa5f-1330-4874-b921-972c56b3d9c0","system_id":"levelo_inurba_marseille","lat":43.336134,"lon":5.410341,"is_reserved":false,"is_disabled":false,"rental_uris":{"android":"levelo://app?vid=4886aa5f-1330-4874-b921-972c56b3d9c0","ios":"levelo://app?vid=4886aa5f-1330-4874-b921-972c56b3d9c0"},