{"last_updated":1700338007,"ttl":30,"version":"2.2","data":{"bikes":[{"bike_id":"943dfc2f-eec4-44b8-ae3a-bf8f278b58c3","system_id":"levelo_inurba_marseille","lat":43.311508,"lon":5.368928,"is_reserved":false,"is_disabled":false,"rental_uris":{"android":"levelo://app?vid=943dfc2f-eec4-44b8-ae3a-bf8f278b58c3","ios":"levelo://app?vid=943dfc2f-eec4-44b8-ae3a-bf8f278b58c3"},"vehicle_type_id":"4","last_reported":1700338007,"current_range_meters":0,"station_id":"","pricing_plan_id":"free"},{"bike_id":"53cc2861-524d-43ab-9cd7-f01e0f6106a0","system_id":"levelo_inurba_marseille","lat":43.309076,"lon":5.368465,"is_reserved":false,"is_disabled":false,"rental_uris":{"android":"levelo://app?vid=53cc2861-524d-43ab-9cd7-f01e0f6106a0","ios":"levelo://app?vid=53cc2861-524d-43ab-9cd7-f01e0f6106a0"},"vehicle_type_id":"4","last_reported":1700338007,"current_range_meters":29200,"station_id":"ce4bgn92rcd13ifvqbvg","pricing_plan_id":"free"},{"bike_id":"3475d204-43b6-43d9-b615-ca1d0d58200e","system_id":"levelo_inurba_marseille","lat":43.30679,"lon":5.3679,"is_reserved":false,"is_disabled":false,"rental_uris":{"android":"levelo://app?vid=3475d204-43b6-43d9-b615-ca1d0d58200e","ios":"levelo://app?vid=3475d204-43b6-43d9-b615-ca1d0d58200e"},"vehicle_type_id":"4","last_reported":1700338007,"current_range_meters":13600,"station_id":"","pricing_plan_id":"free"},{"bike_id":"09ccbac6-0f01-4cfb-8bb8-da5484277d5c","system_id":"levelo_inurba_marseille","lat":43.319525,"lon":5.37096,"is_reserved":false,"is_disabled":false,"rental_uris":{"android":"levelo://app?vid=09ccbac6-0f01-4cfb-8bb8-da5484277d5c","ios":"levelo://app?vid=09ccbac6-0f01-4cfb-8bb8-da5484277d5c"},"vehicle_type_id":"4","last_reported":1700338007,"current_range_meters":4400,"station_id":"","pricing_plan_id":"free"},{"bike_id":"b1b4fe3f-68a0-4f3f-a790-49e4d69fac01","system_id":"levelo_inurba_marseille","lat":43.305989,"lon":5.37225,"is_reserved":false,"is_disabled":false,"rental_uris":{"android":"levelo://app?vid=b1b4fe3f-68a0-4f3f-a790-49e4d69fac01","ios":"levelo://app?vid=b1b4fe3f-68a0-4f3f-a790-49e4d69fac01"},"vehicle_type_id":"4","last_reported":1700338007,"current_range_meters":800,"station_id":"ce4bgqh2rcd13ifvqc4g","pricing_plan_id":"free"},{"bike_id":"dcbf9c93-0758-41cf-8699-4ede01d69428","system_id":"levelo_inurba_marseille","lat":43.30817,"lon":5.376591,"is_reserved":false,"is_disabled":false,"rental_uris":{"android":"levelo://app?vid=dcbf9c93-0758-41cf-8699-4ede01d69428","ios":"levelo://app?vid=dcbf9c93-0758-41cf-8699-4ede01d69428"},"vehicle_type_id":"4","last_reported":1700338007,"current_range_meters":14800,"station_id":"ce4bgv92rcd13ifvqcq0","pricing_plan_id":"free"},{"bike_id":"9c6cb93e-1760-40ad-b03f-91f534a7dbc3","system_id":"levelo_inurba_marseille","lat":43.317075,"lon":5.377367,"is_reserved":false,"is_disabled":false,"rental_uris":{"android":"levelo://app?vid=9c6cb93e-1760-40ad-b03f-91f534a7dbc3","ios":"levelo://app?vid=9c6cb93e-1760-40ad-b03f-91f534a7dbc3"},"vehicle_type_id":"4","last_reported":1700338007,"current_range_meters":12000,"station_id":"ce4bgth2rcd13ifvqch0","pricing_plan_id":"free"},{"bike_id":"9819bebf-0513-4f3a-af1f-5960e3e4346a","system_id":"levelo_inurba_marseille","lat":43.30464,"lon":5.37893,"is_reserved":false,"is_disabled":false,"rental_uris":{"android":"levelo://app?vid=9819bebf-0513-4f3a-af1f-5960e3e4346a","ios":"levelo://app?vid=9819bebf-0513-4f3a-af1f-5960e3e4346a"},"vehicle_type_id":"4","last_reported":1700338007,"current_range_meters":0,"station_id":"ce4bgup2rcd13ifvqcn0","pricing_plan_id":"free"},{"bike_id":"58c33dcf-cd45-4379-9705-9f1a54a0af11","system_id":"levelo_inurba_marseille","lat":43.324805,"lon":5.36558,"is_reserved":false,"is_disabled":false,"rental_uris":{"android":"levelo://app?vid=58c33dcf-cd45-4379-9705-9f1a54a0af11","ios":"levelo://app?vid=58c33dcf-cd45-4379-9705-9f1a54a0af11"},"vehicle_type_id":"4","last_reported":1700338007,"current_range_meters":14000,"station_id":"ce4bhs12rcd13ifvqhvg","pricing_plan_id":"free"},{"bike_id":"8582e63c-68af-4a5e-a41b-a2e2d4df8807","system_id":"levelo_inurba_marseille","lat":43.324808,"lon":5.365619,"is_reserved":false,"is_disabled":false,"rental_uris":{"android":"levelo://app?vid=8582e63c-68af-4a5e-a41b-a2e2d4df8807","ios":"levelo://app?vid=8582e63c-68af-4a5e-a41b-a2e2d4df8807"},"vehicle_type_id":"4","last_reported":1700338007,"current_range_meters":7600,"station_id":"ce4bhs12rcd13ifvqhvg","pricing_plan_id":"free"},{"bike_id":"5a6db0fc-cfe2-47a7-ae76-d4e0529428ab","system_id":"levelo_inurba_marseille","lat":43.319907,"lon":5.38083,"is_reserved":false,"is_disabled":false,"rental_uris":{"android":"levelo://app?vid=5a6db0fc-cfe2-47a7-ae76-d4e0529428ab","ios":"levelo://app?vid=5a6db0fc-cfe2-47a7-ae76-d4e0529428ab"},"vehicle_type_id":"4","last_reported":1700338007,"current_range_meters":17200,"station_id":"","pricing_plan_id":"free"},{"bike_id":"b07df4dc-5dee-47d2-9384-cdf7d13ef59f","system_id":"levelo_inurba_marseille","lat":43.31756,"lon":5.38328,"is_reserved":false,"is_disabled":false,"rental_uris":{"android":"levelo://app?vid=b07df4dc-5dee-47d2-9384-cdf7d13ef59f","ios":"levelo://app?vid=b07df4dc-5dee-47d2-9384-cdf7d13ef59f"},"vehicle_type_id":"4","last_reported":1700338007,"current_range_meters":22400,"station_id":"","pricing_plan_id":"free"},{"bike_id":"15693ee3-d003-4d40-a401-0ba9d6fc6292","system_id":"levelo_inurba_marseille","lat":43.299222,"lon":5.365554,"is_reserved":false,"is_disabled":false,"rental_uris":{"android":"levelo://app?vid=15693ee3-d003-4d40-a401-0ba9d6fc6292","ios":"levelo://app?vid=15693ee3-d003-4d40-a401-0ba9d6fc6292"},"vehicle_type_id":"4","last_reported":1700338007,"current_range_meters":0,"station_id":"ce4bgm92rcd13ifvqbr0","pricing_plan_id":"free"},{"bike_id":"b6d754bb-cb61-4a44-9b11-bc6dfc065525","system_id":"levelo_inurba_marseille","lat":43.299724,"lon":5.371829,"is_reserved":false,"is_disabled":false,"rental_uris":{"android":"levelo://app?vid=b6d754bb-cb61-4a44-9b11-bc6dfc065525","ios":"levelo://app?vid=b6d754bb-cb61-4a44-9b11-bc6dfc065525"},"vehicle_type_id":"4","last_reported":1700338007,"current_range_meters":12800,"station_id":"ce4bgr92rcd13ifvqc7g","pricing_plan_id":"free"},{"bike_id":"5da9dea2-bd9f-4746-b637-56e44ea9e587","system_id":"levelo_inurba_marseille","lat":43.298489,"lon":5.362942,"is_reserved":false,"is_disabled":false,"rental_uris":{"android":"levelo://app?vid=5da9dea2-bd9f-4746-b637-56e44ea9e587","ios":"levelo://app?vid=5da9dea2-bd9f-4746-b637-56e44ea9e587"},"vehicle_type_id":"4","last_reported":1700338007,"current_range_meters":0,"station_id":"","pricing_plan_id":"free"},{"bike_id":"0fd63cff-4032-48cb-b0b8-2df76def3f64","system_id":"levelo_inurba_marseille","lat":43.305364,"lon":5.384119,"is_reserved":false,"is_disabled":false,"rental_uris":{"android":"levelo://app?vid=0fd63cff-4032-48cb-b0b8-2df76def3f64","ios":"levelo://app?vid=0fd63cff-4032-48cb-b0b8-2df76def3f64"},"vehicle_type_id":"4","last_reported":1700338007,"current_range_meters":6000,"station_id":"ce4bgg92rcd13ifvqb30","pricing_plan_id":"free"},{"bike_id":"67b7b9ec-436a-4d23-8b2c-e6620194026a","system_id":"levelo_inurba_marseille","lat":43.31172,"lon":5.38708,"is_reserved":false,"is_disabled":false,"rental_uris":{"android":"levelo://app?vid=67b7b9ec-436a-4d23-8b2c-e6620194026a","ios":"levelo://app?vid=67b7b9ec-436a-4d23-8b2c-e6620194026a"},"vehicle_type_id":"4","last_reported":1700338007,"current_range_meters":0,"station_id":"ce4bgv12rcd13ifvqcp0","pricing_plan_id":"free"},{"bike_id":"f23849c0-d8fa-4cf3-85dc-231066b37fb6","system_id":"levelo_inurba_marseille","lat":43.299243,"lon":5.374807,"is_reserved":false,"is_disabled":false,"rental_uris":{"android":"levelo://app?vid=f23849c0-d8fa-4cf3-85dc-231066b37fb6","ios":"levelo://app?vid=f23849c0-d8fa-4cf3-85dc-231066b37fb6"},"vehicle_type_id":"4","last_reported":1700338007,"current_range_meters":18800,"station_id":"ce4bgjh2rcd13ifvqbg0","pricing_plan_id":"free"},{"bike_id":"04911b89-986a-47d4-9bcd-7b37a2d4cf4f","system_id":"levelo_inurba_marseille","lat":43.299243,"lon":5.374807,"is_reserved":false,"is_disabled":false,"rental_uris":{"android":"levelo://app?vid=04911b89-986a-47d4-9bcd-7b37a2d4cf4f","ios":"levelo://app?vid=04911b89-986a-47d4-9bcd-7b37a2d4cf4f"},"vehicle_type_id":"4","last_reported":1700338007,"current_range_meters":6400,"station_id":"ce4bgjh2rcd13ifvqbg0","pricing_plan_id":"free"},{"bike_id":"dadade26-8d95-44b2-86a8-a68427fdc33d","system_id":"levelo_inurba_marseille","lat":43.3229,"lon":5.38263,"is_reserved":false,"is_disabled":false,"rental_uris":{"android":"levelo://app?vid=dadade26-8d95-44b2-86a8-a68427fdc33d","ios":"levelo://app?vid=dadade26-8d95-44b2-86a8-a68427fdc33d"},"vehicle_type_id":"4","last_reported":1700338007,"current_range_meters":9200,"station_id":"ce4bhr12rcd13ifvqhqg","pricing_plan_id":"free"},{"bike_id":"102812eb-ec05-4b94-acc8-6fddb1761fe6","system_id":"levelo_inurba_marseille","lat":43.32827,"lon":5.36678,"is_reserved":false,"is_disabled":false,"rental_uris":{"android":"levelo://app?vid=102812eb-ec05-4b94-acc8-6fddb1761fe6","ios":"levelo://app?vid=102812eb-ec05-4b94-acc8-6fddb1761fe6"},"vehicle_type_id":"4","last_reported":1700338007,"current_range_meters":6400,"station_id":"ce4bhs92rcd13ifvqi0g","pricing_plan_id":"free"},{"bike_id":"971ef656-b95a-417d-b69d-a5ba3954e948","system_id":"levelo_inurba_marseille","lat":43.32837,"lon":5.36677,"is_reserved":false,"is_disabled":false,"rental_uris":{"android":"levelo://app?vid=971ef656-b95a-417d-b69d-a5ba3954e948","ios":"levelo://app?vid=971ef656-b95a-417d-b69d-a5ba3954e948"},"vehicle_type_id":"4","last_reported":1700338007,"current_range_meters":6400,"station_id":"ce4bhs92rcd13ifvqi0g","pricing_plan_id":"free"},{"bike_id":"bab6e1e8-0726-4f51-8b18-d54941f080d7","system_id":"levelo_inurba_marseille","lat":43.29726,"lon":5.37141,"is_reserved":false,"is_disabled":false,"rental_uris":{"android":"levelo://app?vid=bab6e1e8-0726-4f51-8b18-d54941f080d7","ios":"levelo://app?vid=bab6e1e8-0726-4f51-8b18-d54941f080d7"},"vehicle_type_id":"4","last_reported":1700338007,"current_range_meters":0,"station_id":"","pricing_plan_id":"free"},{"bike_id":"b51e0e49-0598-499e-84a9-6ac2c4621bff","system_id":"levelo_inurba_marseille","lat":43.305364,"lon":5.384119,"is_reserved":false,"is_disabled":false,"rental_uris":{"android":"levelo://app?vid=b51e0e49-0598-499e-84a9-6ac2c4621bff","ios":"levelo://app?vid=b51e0e49-0598-499e-84a9-6ac2c4621bff"},"vehicle_type_id":"4","last_reported":1700338007,"current_range_meters":22400,"station_id":"ce4bgg92rcd13ifvqb30","pricing_plan_id":"free"},{"bike_id":"d447991a-59b4-4778-a190-7d2b0920a414","system_id":"levelo_inurba_marseille","lat":43.32215,"lon":5.38613,"is_reserved":false,"is_disabled":false,"rental_uris":{"android":"levelo://app?vid=d447991a-59b4-4778-a190-7d2b0920a414","ios":"levelo://app?vid=d447991a-59b4-4778-a190-7d2b0920a414"},"vehicle_type_id":"4","last_reported":1700338007,"current_range_meters":0,"station_id":"","pricing_plan_id":"free"},{"bike_id":"462f3972-b241-4a66-856d-4bbab8a9a4ee","system_id":"levelo_inurba_marseille","lat":43.296935,"lon":5.376544,"is_reserved":false,"is_disabled":false,"rental_uris":{"android":"levelo://app?vid=462f3972-b241-4a66-856d-4bbab8a9a4ee","ios":"levelo://app?vid=462f3972-b241-4a66-856d-4bbab8a9a4ee"},"vehicle_type_id":"4","last_reported":1700338007,"current_range_meters":6000,"station_id":"ce4bgkh2rcd13ifvqbl0","pricing_plan_id":"free"},{"bike_id":"eec7b089-7c2f-498e-b88d-9fc953a39380","system_id":"levelo_inurba_marseille","lat":43.317573,"lon":5.390186,"is_reserved":false,"is_disabled":false,"rental_uris":{"android":"levelo://app?vid=eec7b089-7c2f-498e-b88d-9fc953a39380","ios":"levelo://app?vid=eec7b089-7c2f-498e-b88d-9fc953a39380"},"vehicle_type_id":"4","last_reported":1700338007,"current_range_meters":0,"station_id":"ce4bhqp2rcd13ifvqhng","pricing_plan_id":"free"},{"bike_id":"416d9943-f07e-495b-8f28-05ae82c1f6a3","system_id":"levelo_inurba_marseille","lat":43.31757,"lon":5.3902,"is_reserved":false,"is_disabled":false,"rental_uris":{"android":"levelo://app?vid=416d9943-f07e-495b-8f28-05ae82c1f6a3","ios":"levelo://app?vid=416d9943-f07e-495b-8f28-05ae82c1f6a3"},"vehicle_type_id":"4","last_reported":1700338007,"current_range_meters":0,"station_id":"ce4bhqp2rcd13ifvqhng","pricing_plan_id":"free"},{"bike_id":"6c329484-e479-40c3-a025-ddf170725a9d","system_id":"levelo_inurba_marseille","lat":43.298037,"lon":5.381066,"is_reserved":false,"is_disabled":false,"rental_uris":{"android":"levelo://app?vid=6c329484-e479-40c3-a025-ddf170725a9d","ios":"levelo://app?vid=6c329484-e479-40c3-a025-ddf170725a9d"},"vehicle_type_id":"4","last_reported":1700338007,"current_range_meters":8800,"station_id":"ce4bgip2rcd13ifvqbb0","pricing_plan_id":"free"},{"bike_id":"d2dced52-b7fb-4d11-ad33-56be009e3364","system_id":"levelo_inurba_marseille","lat":43.321847,"lon":5.388263,"is_reserved":false,"is_disabled":false,"rental_uris":{"android":"levelo://app?vid=d2dced52-b7fb-4d11-ad33-56be009e3364","ios":"levelo://app?vid=d2dced52-b7fb-4d11-ad33-56be009e3364"},"vehicle_type_id":"4","last_reported":1700338007,"current_range_meters":17600,"station_id":"","pricing_plan_id":"free"},{"bike_id":"67ffd28a-0325-489b-a10f-d90500122751","system_id":"levelo_inurba_marseille","lat":43.295748,"lon":5.37522,"is_reserved":false,"is_disabled":false,"rental_uris":{"android":"levelo://app?vid=67ffd28a-0325-489b-a10f-d90500122751","ios":"levelo://app?vid=67ffd28a-0325-489b-a10f-d90500122751"},"vehicle_type_id":"4","last_reported":1700338007,"current_range_meters":30000,"station_id":"ce4bgh92rcd13ifvqb50","pricing_plan_id":"free"},{"bike_id":"3e3e92fe-39b7-4933-99ff-3747b28b5d69","system_id":"levelo_inurba_marseille","lat":43.328154,"lon":5.380034,"is_reserved":false,"is_disabled":false,"rental_uris":{"android":"levelo://app?vid=3e3e92fe-39b7-4933-99ff-3747b28b5d69","ios":"levelo://app?vid=3e3e92fe-39b7-4933-99ff-3747b28b5d69"},"vehicle_type_id":"4","last_reported":1700338007,"current_range_meters":8800,"station_id":"","pricing_plan_id":"free"},{"bike_id":"3ed52e46-f82d-447a-b309-b07d2f7a67e5","system_id":"levelo_inurba_marseille","lat":43.299707,"lon":5.384859,"is_reserved":false,"is_disabled":false,"rental_uris":{"android":"levelo://app?vid=3ed52e46-f82d-447a-b309-b07d2f7a67e5","ios":"levelo://app?vid=3ed52e46-f82d-447a-b309-b07d2f7a67e5"},"vehicle_type_id":"4","last_reported":1700338007,"current_range_meters":4000,"station_id":"ce4bgj92rcd13ifvqbd0","pricing_plan_id":"free"},{"bike_id":"9fc18c28-f0cb-42cc-b3ae-5bd6aa262b03","system_id":"levelo_inurba_marseille","lat":43.299717,"lon":5.384845,"is_reserved":false,"is_disabled":false,"rental_uris":{"android":"levelo://app?vid=9fc18c28-f0cb-42cc-b3ae-5bd6aa262b03","ios":"levelo://app?vid=9fc18c28-f0cb-42cc-b3ae-5bd6aa262b03"},"vehicle_type_id":"4","last_reported":1700338007,"current_range_meters":22400,"station_id":"ce4bgj92rcd13ifvqbd0","pricing_plan_id":"free"},{"bike_id":"c88d3868-9290-453b-a334-6cb48176eb69","system_id":"levelo_inurba_marseille","lat":43.299717,"lon":5.384845,"is_reserved":false,"is_disabled":false,"rental_uris":{"android":"levelo://app?vid=c88d3868-9290-453b-a334-6cb48176eb69","ios":"levelo://app?vid=c88d3868-9290-453b-a334-6cb48176eb69"},"vehicle_type_id":"4","last_reported":1700338007,"current_range_meters":18000,"station_id":"ce4bgj92rcd13ifvqbd0","pricing_plan_id":"free"},{"bike_id":"2bab9a9b-8431-4c51-864d-3be772699667","system_id":"levelo_inurba_marseille","lat":43.299158,"lon":5.3853,"is_reserved":false,"is_disabled":false,"rental_uris":{"android":"levelo://app?vid=2bab9a9b-8431-4c51-864d-3be772699667","ios":"levelo://app?vid=2bab9a9b-8431-4c51-864d-3be772699667"},"vehicle_type_id":"4","last_reported":1700338007,"current_range_meters":0,"station_id":"","pricing_plan_id":"free"},{"bike_id":"e145a3f7-00ac-4f8f-bfe5-435bc38ccaf7","system_id":"levelo_inurba_marseille","lat":43.293801,"lon":5.363066,"is_reserved":false,"is_disabled":false,"rental_uris":{"android":"levelo://app?vid=e145a3f7-00ac-4f8f-bfe5-435bc38ccaf7","ios":"levelo://app?vid=e145a3f7-00ac-4f8f-bfe5-435bc38ccaf7"},"vehicle_type_id":"4","last_reported":1700338007,"current_range_meters":26400,"station_id":"","pricing_plan_id":"free"},{"bike_id":"17b67d55-ade0-4734-bd2b-dd79595255df","system_id":"levelo_inurba_marseille","lat":43.29602,"lon":5.381084,"is_reserved":false,"is_disabled":false,"rental_uris":{"android":"levelo://app?vid=17b67d55-ade0-4734-bd2b-dd79595255df","ios":"levelo://app?vid=17b67d55-ade0-4734-bd2b-dd79595255df"},"vehicle_type_id":"4","last_reported":1700338007,"current_range_meters":15200,"station_id":"ce4bgl12rcd13ifvqbo0","pricing_plan_id":"free"},{"bike_id":"9443134e-a76a-4e2f-a204-4468bedda3c9","system_id":"levelo_inurba_marseille","lat":43.29285,"lon":5.36836,"is_reserved":false,"is_disabled":false,"rental_uris":{"android":"levelo://app?vid=9443134e-a76a-4e2f-a204-4468bedda3c9","ios":"levelo://app?vid=9443134e-a76a-4e2f-a204-4468bedda3c9"},"vehicle_type_id":"4","last_reported":1700338007,"current_range_meters":5600,"station_id":"ce4bhbp2rcd13ifvqesg","pricing_plan_id":"free"},{"bike_id":"1d9b3c16-b525-4e32-a2b6-a15acd8040ad","system_id":"levelo_inurba_marseille","lat":43.293249,"lon":5.371578,"is_reserved":false,"is_disabled":false,"rental_uris":{"android":"levelo://app?vid=1d9b3c16-b525-4e32-a2b6-a15acd8040ad","ios":"levelo://app?vid=1d9b3c16-b525-4e32-a2b6-a15acd8040ad"},"vehicle_type_id":"4","last_reported":1700338007,"current_range_meters":14400,"station_id":"ce4bgh92rcd13ifvqb40","pricing_plan_id":"free"},{"bike_id":"21bcb42b-5b1e-4404-89ab-85b0162c05cf","system_id":"levelo_inurba_marseille","lat":43.29278,"lon":5.36844,"is_reserved":false,"is_disabled":false,"rental_uris":{"android":"levelo://app?vid=21bcb42b-5b1e-4404-89ab-85b0162c05cf","ios":"levelo://app?vid=21bcb42b-5b1e-4404-89ab-85b0162c05cf"},"vehicle_type_id":"4","last_reported":1700338007,"current_range_meters":18000,"station_id":"ce4bhbp2rcd13ifvqesg","pricing_plan_id":"free"},{"bike_id":"7a76e56b-ba32-4210-9e31-66f9efebfdaa","system_id":"levelo_inurba_marseille","lat":43.293259,"lon":5.371586,"is_reserved":false,"is_disabled":false,"rental_uris":{"android":"levelo://app?vid=7a76e56b-ba32-4210-9e31-66f9efebfdaa","ios":"levelo://app?vid=7a76e56b-ba32-4210-9e31-66f9efebfdaa"},"vehicle_type_id":"4","last_reported":1700338007,"current_range_meters":22800,"station_id":"ce4bgh92rcd13ifvqb40","pricing_plan_id":"free"},{"bike_id":"8443a442-67df-4e4d-b823-44e66ebd72a5","system_id":"levelo_inurba_marseille","lat":43.293009,"lon":5.374584,"is_reserved":false,"is_disabled":false,"rental_uris":{"android":"levelo://app?vid=8443a442-67df-4e4d-b823-44e66ebd72a5","ios":"levelo://app?vid=8443a442-67df-4e4d-b823-44e66ebd72a5"},"vehicle_type_id":"4","last_reported":1700338007,"current_range_meters":26800,"station_id":"ce4bgi12rcd13ifvqb70","pricing_plan_id":"free"},{"bike_id":"cee96600-9145-4145-af9e-02fd343b33b4","system_id":"levelo_inurba_marseille","lat":43.2936,"lon":5.37835,"is_reserved":false,"is_disabled":false,"rental_uris":{"android":"levelo://app?vid=cee96600-9145-4145-af9e-02fd343b33b4","ios":"levelo://app?vid=cee96600-9145-4145-af9e-02fd343b33b4"},"vehicle_type_id":"4","last_reported":1700338007,"current_range_meters":6000,"station_id":"ce4bgjh2rcd13ifvqbf0","pricing_plan_id":"free"},{"bike_id":"840b1f58-2873-4892-9620-21b4ae53a1cd","system_id":"levelo_inurba_marseille","lat":43.29351,"lon":5.37834,"is_reserved":false,"is_disabled":false,"rental_uris":{"android":"levelo://app?vid=840b1f58-2873-4892-9620-21b4ae53a1cd","ios":"levelo://app?vid=840b1f58-2873-4892-9620-21b4ae53a1cd"},"vehicle_type_id":"4","last_reported":1700338007,"current_range_meters":0,"station_id":"ce4bgjh2rcd13ifvqbf0","pricing_plan_id":"free"},{"bike_id":"dafa8b1e-fa43-4873-83d7-7eaa0a8b8e58","system_id":"levelo_inurba_marseille","lat":43.291762,"lon":5.371356,"is_reserved":false,"is_disabled":false,"rental_uris":{"android":"levelo://app?vid=dafa8b1e-fa43-4873-83d7-7eaa0a8b8e58","ios":"levelo://app?vid=dafa8b1e-fa43-4873-83d7-7eaa0a8b8e58"},"vehicle_type_id":"4","last_reported":1700338007,"current_range_meters":0,"station_id":"ce4bha92rcd13ifvqeh0","pricing_plan_id":"free"},{"bike_id":"786afbe7-ae1c-4641-93b3-eee911fd07e4","system_id":"levelo_inurba_marseille","lat":43.292847,"lon":5.377115,"is_reserved":false,"is_disabled":false,"rental_uris":{"android":"levelo://app?vid=786afbe7-ae1c-4641-93b3-eee911fd07e4","ios":"levelo://app?vid=786afbe7-ae1c-4641-93b3-eee911fd07e4"},"vehicle_type_id":"4","last_reported":1700338007,"current_range_meters":0,"station_id":"","pricing_plan_id":"free"},{"bike_id":"4eef38cc-64cf-4f4d-8d5b-99bd9d3b1b37","system_id":"levelo_inurba_marseille","lat":43.291675,"lon":5.371583,"is_reserved":false,"is_disabled":false,"rental_uris":{"android":"levelo://app?vid=4eef38cc-64cf-4f4d-8d5b-99bd9d3b1b37","ios":"levelo://app?vid=4eef38cc-64cf-4f4d-8d5b-99bd9d3b1b37"},"vehicle_type_id":"4","last_reported":1700338007,"current_range_meters":27200,"station_id":"ce4bha92rcd13ifvqeh0","pricing_plan_id":"free"},{"bike_id":"76468b57-6bfa-4c52-88ad-9a1b2576a117","system_id":"levelo_inurba_marseille","lat":43.29879,"lon":5.38911,"is_reserved":false,"is_disabled":false,"rental_uris":{"android":"levelo://app?vid=76468b57-6bfa-4c52-88ad-9a1b2576a117","ios":"levelo://app?vid=76468b57-6bfa-4c52-88ad-9a1b2576a117"},"vehicle_type_id":"4","last_reported":1700338007,"current_range_meters":0,"station_id":"ce4bh392rcd13ifvqdl0","pricing_plan_id":"free"},{"bike_id":"1045079f-fe33-4948-938b-51dceba28122","system_id":"levelo_inurba_marseille","lat":43.291645,"lon":5.371519,"is_reserved":false,"is_disabled":false,"rental_uris":{"android":"levelo://app?vid=1045079f-fe33-4948-938b-51dceba28122","ios":"levelo://app?vid=1045079f-fe33-4948-938b-51dceba28122"},"vehicle_type_id":"4","last_reported":1700338007,"current_range_meters":0,"station_id":"ce4bha92rcd13ifvqeh0","pricing_plan_id":"free"},{"bike_id":"a506ac13-3efc-4709-a266-76c8c0cb3498","system_id":"levelo_inurba_marseille","lat":43.29529,"lon":5.385581,"is_reserved":false,"is_disabled":false,"rental_uris":{"android":"levelo://app?vid=a506ac13-3efc-4709-a266-76c8c0cb3498","ios":"levelo://app?vid=a506ac13-3efc-4709-a266-76c8c0cb3498"},"vehicle_type_id":"4","last_reported":1700338007,"current_range_meters":7600,"station_id":"ce4bgih2rcd13ifvqba0","pricing_plan_id":"free"},{"bike_id":"a0cd015c-50bd-41a6-bd7b-46228302d2b2","system_id":"levelo_inurba_marseille","lat":43.29529,"lon":5.385581,"is_reserved":false,"is_disabled":false,"rental_uris":{"android":"levelo://app?vid=a0cd015c-50bd-41a6-bd7b-46228302d2b2","ios":"levelo://app?vid=a0cd015c-50bd-41a6-bd7b-46228302d2b2"},"vehicle_type_id":"4","last_reported":1700338007,"current_range_meters":2400,"station_id":"ce4bgih2rcd13ifvqba0","pricing_plan_id":"free"},{"bike_id":"890d0e58-6671-46cd-99b3-791fbc6f90f0","system_id":"levelo_inurba_marseille","lat":43.29529,"lon":5.385581,"is_reserved":false,"is_disabled":false,"rental_uris":{"android":"levelo://app?vid=890d0e58-6671-46cd-99b3-791fbc6f90f0","ios":"levelo://app?vid=890d0e58-6671-46cd-99b3-791fbc6f90f0"},"vehicle_type_id":"4","last_reported":1700338007,"current_range_meters":3600,"station_id":"ce4bgih2rcd13ifvqba0","pricing_plan_id":"free"},{"bike_id":"e8381a91-4c62-4a5d-b2d1-f5ce192b37e3","system_id":"levelo_inurba_marseille","lat":43.29529,"lon":5.385581,"is_reserved":false,"is_disabled":false,"rental_uris":{"android":"levelo://app?vid=e8381a91-4c62-4a5d-b2d1-f5ce192b37e3","ios":"levelo://app?vid=e8381a91-4c62-4a5d-b2d1-f5ce192b37e3"},"vehicle_type_id":"4","last_reported":1700338007,"current_range_meters":3200,"station_id":"ce4bgih2rcd13ifvqba0","pricing_plan_id":"free"},{"bike_id":"3a844fce-819a-43ba-ab0e-40124eb4729b","system_id":"levelo_inurba_marseille","lat":43.294162,"lon":5.386292,"is_reserved":false,"is_disabled":false,"rental_uris":{"android":"levelo://app?vid=3a844fce-819a-43ba-ab0e-40124eb4729b","ios":"levelo://app?vid=3a844fce-819a-43ba-ab0e-40124eb4729b"},"vehicle_type_id":"4","last_reported":1700338007,"current_range_meters":14800,"station_id":"ce4bh2h2rcd13ifvqdh0","pricing_plan_id":"free"},{"bike_id":"8e0d4e1e-2325-49a0-a300-7cfc50fe364e","system_id":"levelo_inurba_marseille","lat":43.28942,"lon":5.36631,"is_reserved":false,"is_disabled":false,"rental_uris":{"android":"levelo://app?vid=8e0d4e1e-2325-49a0-a300-7cfc50fe364e","ios":"levelo://app?vid=8e0d4e1e-2325-49a0-a300-7cfc50fe364e"},"vehicle_type_id":"4","last_reported":1700338007,"current_range_meters":0,"station_id":"ce4bhap2rcd13ifvqek0","pricing_plan_id":"free"},{"bike_id":"51fc42eb-7f4b-47e4-925e-2a7ec37cde40","system_id":"levelo_inurba_marseille","lat":43.290327,"lon":5.375711,"is_reserved":false,"is_disabled":false,"rental_uris":{"android":"levelo://app?vid=51fc42eb-7f4b-47e4-925e-2a7ec37cde40","ios":"levelo://app?vid=51fc42eb-7f4b-47e4-925e-2a7ec37cde40"},"vehicle_type_id":"4","last_reported":1700338007,"current_range_meters":6400,"station_id":"ce4bh692rcd13ifvqe90","pricing_plan_id":"free"},{"bike_id":"f4084f4c-6d3f-40db-8d58-f1ecc2784a95","system_id":"levelo_inurba_marseille","lat":43.29263,"lon":5.38436,"is_reserved":false,"is_disabled":false,"rental_uris":{"android":"levelo://app?vid=f4084f4c-6d3f-40db-8d58-f1ecc2784a95","ios":"levelo://app?vid=f4084f4c-6d3f-40db-8d58-f1ecc2784a95"},"vehicle_type_id":"4","last_reported":1700338007,"current_range_meters":0,"station_id":"ce4bh692rcd13ifvqea0","pricing_plan_id":"free"},{"bike_id":"5a6c3c29-4e8d-4002-86df-f756558c85d3","system_id":"levelo_inurba_marseille","lat":43.29265,"lon":5.38444,"is_reserved":false,"is_disabled":false,"rental_uris":{"android":"levelo://app?vid=5a6c3c29-4e8d-4002-86df-f756558c85d3","ios":"levelo://app?vid=5a6c3c29-4e8d-4002-86df-f756558c85d3"},"vehicle_type_id":"4","last_reported":1700338007,"current_range_meters":1600,"station_id":"ce4bh692rcd13ifvqea0","pricing_plan_id":"free"},{"bike_id":"cba94d6e-8466-42db-8d54-536dc5dbdb13","system_id":"levelo_inurba_marseille","lat":43.29265,"lon":5.38445,"is_reserved":false,"is_disabled":false,"rental_uris":{"android":"levelo://app?vid=cba94d6e-8466-42db-8d54-536dc5dbdb13","ios":"levelo://app?vid=cba94d6e-8466-42db-8d54-536dc5dbdb13"},"vehicle_type_id":"4","last_reported":1700338007,"current_range_meters":0,"station_id":"ce4bh692rcd13ifvqea0","pricing_plan_id":"free"},{"bike_id":"0e307cd0-4ba9-4a37-8bce-b4d5ea6ea795","system_id":"levelo_inurba_marseille","lat":43.29006,"lon":5.35623,"is_reserved":false,"is_disabled":false,"rental_uris":{"android":"levelo://app?vid=0e307cd0-4ba9-4a37-8bce-b4d5ea6ea795","ios":"levelo://app?vid=0e307cd0-4ba9-4a37-8bce-b4d5ea6ea795"},"vehicle_type_id":"4","last_reported":1700338007,"current_range_meters":0,"station_id":"ce4bhb92rcd13ifvqen0","pricing_plan_id":"free"},{"bike_id":"f72bebe9-6dad-46d5-ad95-abcd4dca89e5","system_id":"levelo_inurba_marseille","lat":43.2901,"lon":5.381269,"is_reserved":false,"is_disabled":false,"rental_uris":{"android":"levelo://app?vid=f72bebe9-6dad-46d5-ad95-abcd4dca89e5","ios":"levelo://app?vid=f72bebe9-6dad-46d5-ad95-abcd4dca89e5"},"vehicle_type_id":"4","last_reported":1700338007,"current_range_meters":2000,"station_id":"ce4bh4p2rcd13ifvqe1g","pricing_plan_id":"free"},{"bike_id":"07202f70-50d7-46f0-a5bd-59712659d6a0","system_id":"levelo_inurba_marseille","lat":43.31251,"lon":5.40162,"is_reserved":false,"is_disabled":false,"rental_uris":{"android":"levelo://app?vid=07202f70-50d7-46f0-a5bd-59712659d6a0","ios":"levelo://app?vid=07202f70-50d7-46f0-a5bd-59712659d6a0"},"vehicle_type_id":"4","last_reported":1700338007,"current_range_meters":13600,"station_id":"","pricing_plan_id":"free"},{"bike_id":"ed95fae0-5138-4277-ba77-36f491fb90fd","system_id":"levelo_inurba_marseille","lat":43.30935,"lon":5.40135,"is_reserved":false,"is_disabled":false,"rental_uris":{"android":"levelo://app?vid=ed95fae0-5138-4277-ba77-36f491fb90fd","ios":"levelo://app?vid=ed95fae0-5138-4277-ba77-36f491fb90fd"},"vehicle_type_id":"4","last_reported":1700338007,"current_range_meters":1200,"station_id":"ce4bgvp2rcd13ifvqct0","pricing_plan_id":"free"},{"bike_id":"feddc8ae-8a67-44cd-908e-3d916bf5a63d","system_id":"levelo_inurba_marseille","lat":43.30642,"lon":5.401031,"is_reserved":false,"is_disabled":false,"rental_uris":{"android":"levelo://app?vid=feddc8ae-8a67-44cd-908e-3d916bf5a63d","ios":"levelo://app?vid=feddc8ae-8a67-44cd-908e-3d916bf5a63d"},"vehicle_type_id":"4","last_reported":1700338007,"current_range_meters":0,"station_id":"ce4bh112rcd13ifvqda0","pricing_plan_id":"free"},{"bike_id":"a15746cc-e744-434a-bc6d-91cbb4fd603c","system_id":"levelo_inurba_marseille","lat":43.30642,"lon":5.401031,"is_reserved":false,"is_disabled":false,"rental_uris":{"android":"levelo://app?vid=a15746cc-e744-434a-bc6d-91cbb4fd603c","ios":"levelo://app?vid=a15746cc-e744-434a-bc6d-91cbb4fd603c"},"vehicle_type_id":"4","last_reported":1700338007,"current_range_meters":26000,"station_id":"ce4bh112rcd13ifvqda0","pricing_plan_id":"free"},{"bike_id":"731d164c-b66a-4982-a5e2-0507bdca889a","system_id":"levelo_inurba_marseille","lat":43.301117,"lon":5.398795,"is_reserved":false,"is_disabled":false,"rental_uris":{"android":"levelo://app?vid=731d164c-b66a-4982-a5e2-0507bdca889a","ios":"levelo://app?vid=731d164c-b66a-4982-a5e2-0507bdca889a"},"vehicle_type_id":"4","last_reported":1700338007,"current_range_meters":12000,"station_id":"ce4bh0h2rcd13ifvqd40","pricing_plan_id":"free"},{"bike_id":"01415aa6-4d5e-4406-a413-0fd7c809c541","system_id":"levelo_inurba_marseille","lat":43.28727,"lon":5.36078,"is_reserved":false,"is_disabled":false,"rental_uris":{"android":"levelo://app?vid=01415aa6-4d5e-4406-a413-0fd7c809c541","ios":"levelo://app?vid=01415aa6-4d5e-4406-a413-0fd7c809c541"},"vehicle_type_id":"4","last_reported":1700338007,"current_range_meters":12800,"station_id":"cki0cbj6b192h4jlfktg","pricing_plan_id":"free"},{"bike_id":"8e5cf5c8-1dc2-4e3c-a31e-02e895926b4b","system_id":"levelo_inurba_marseille","lat":43.28725,"lon":5.36095,"is_reserved":false,"is_disabled":false,"rental_uris":{"android":"levelo://app?vid=8e5cf5c8-1dc2-4e3c-a31e-02e895926b4b","ios":"levelo://app?vid=8e5cf5c8-1dc2-4e3c-a31e-02e895926b4b"},"vehicle_type_id":"4","last_reported":1700338007,"current_range_meters":15600,"station_id":"cki0cbj6b192h4jlfktg","pricing_plan_id":"free"},{"bike_id":"cfd45320-503c-4fa2-8f9b-6675e74ca49f","system_id":"levelo_inurba_marseille","lat":43.301117,"lon":5.398795,"is_reserved":false,"is_disabled":false,"rental_uris":{"android":"levelo://app?vid=cfd45320-503c-4fa2-8f9b-6675e74ca49f","ios":"levelo://app?vid=cfd45320-503c-4fa2-8f9b-6675e74ca49f"},"vehicle_type_id":"4","last_reported":1700338007,"current_range_meters":4000,"station_id":"ce4bh0h2rcd13ifvqd40","pricing_plan_id":"free"},{"bike_id":"b3b31a9c-2b06-4731-a6fe-886992b25751","system_id":"levelo_inurba_marseille","lat":43.287226,"lon":5.360852,"is_reserved":false,"is_disabled":false,"rental_uris":{"android":"levelo://app?vid=b3b31a9c-2b06-4731-a6fe-886992b25751","ios":"levelo://app?vid=b3b31a9c-2b06-4731-a6fe-886992b25751"},"vehicle_type_id":"4","last_reported":1700338007,"current_range_meters":31200,"station_id":"cki0cbj6b192h4jlfktg","pricing_plan_id":"free"},{"bike_id":"85ae88ea-00da-4683-995e-4182dc8df8e3","system_id":"levelo_inurba_marseille","lat":43.28721,"lon":5.36079,"is_reserved":false,"is_disabled":false,"rental_uris":{"android":"levelo://app?vid=85ae88ea-00da-4683-995e-4182dc8df8e3","ios":"levelo://app?vid=85ae88ea-00da-4683-995e-4182dc8df8e3"},"vehicle_type_id":"4","last_reported":1700338007,"current_range_meters":0,"station_id":"cki0cbj6b192h4jlfktg","pricing_plan_id":"free"},{"bike_id":"d0cc0c1a-15d8-473f-87c9-ae1e944c1c6f","system_id":"levelo_inurba_marseille","lat":43.295196,"lon":5.39397,"is_reserved":false,"is_disabled":false,"rental_uris":{"android":"levelo://app?vid=d0cc0c1a-15d8-473f-87c9-ae1e944c1c6f","ios":"levelo://app?vid=d0cc0c1a-15d8-473f-87c9-ae1e944c1c6f"},"vehicle_type_id":"4","last_reported":1700338007,"current_range_meters":13600,"station_id":"ce4bh292rcd13ifvqdf0","pricing_plan_id":"free"},{"bike_id":"e172977f-6c2f-4f90-911c-8442b51b4347","system_id":"levelo_inurba_marseille","lat":43.2903,"lon":5.38632,"is_reserved":false,"is_disabled":false,"rental_uris":{"android":"levelo://app?vid=e172977f-6c2f-4f90-911c-8442b51b4347","ios":"levelo://app?vid=e172977f-6c2f-4f90-911c-8442b51b4347"},"vehicle_type_id":"4","last_reported":1700338007,"current_range_meters":26400,"station_id":"","pricing_plan_id":"free"},{"bike_id":"c481e3ed-bd70-4aa7-a2e1-bd468838a7f2","system_id":"levelo_inurba_marseille","lat":43.287666,"lon":5.379788,"is_reserved":false,"is_disabled":false,"rental_uris":{"android":"levelo://app?vid=c481e3ed-bd70-4aa7-a2e1-bd468838a7f2","ios":"levelo://app?vid=c481e3ed-bd70-4aa7-a2e1-bd468838a7f2"},"vehicle_type_id":"4","last_reported":1700338007,"current_range_meters":800,"station_id":"","pricing_plan_id":"free"},{"bike_id":"ceef56d8-2172-4c9e-b5a0-525b6b25e56c","system_id":"levelo_inurba_marseille","lat":43.286039,"lon":5.370681,"is_reserved":false,"is_disabled":false,"rental_uris":{"android":"levelo://app?vid=ceef56d8-2172-4c9e-b5a0-525b6b25e56c","ios":"levelo://app?vid=ceef56d8-2172-4c9e-b5a0-525b6b25e56c"},"vehicle_type_id":"4","last_reported":1700338007,"current_range_meters":2400,"station_id":"ce4bht12rcd13ifvqi60","pricing_plan_id":"free"},{"bike_id":"66e829d4-f471-42ed-a656-abf2b6c09fee","system_id":"levelo_inurba_marseille","lat":43.291994,"lon":5.392907,"is_reserved":false,"is_disabled":false,"rental_uris":{"android":"levelo://app?vid=66e829d4-f471-42ed-a656-abf2b6c09fee","ios":"levelo://app?vid=66e829d4-f471-42ed-a656-abf2b6c09fee"},"vehicle_type_id":"4","last_reported":1700338007,"current_range_meters":10800,"station_id":"ce4bh192rcd13ifvqdd0","pricing_plan_id":"free"},{"bike_id":"6bed2bda-9df5-4bf4-a3c2-96acf0df3abe","system_id":"levelo_inurba_marseille","lat":43.291994,"lon":5.392907,"is_reserved":false,"is_disabled":false,"rental_uris":{"android":"levelo://app?vid=6bed2bda-9df5-4bf4-a3c2-96acf0df3abe","ios":"levelo://app?vid=6bed2bda-9df5-4bf4-a3c2-96acf0df3abe"},"vehicle_type_id":"4","last_reported":1700338007,"current_range_meters":20800,"station_id":"ce4bh192rcd13ifvqdd0","pricing_plan_id":"free"},{"bike_id":"0a12431e-fe41-4c97-aca8-58b575d6bdbe","system_id":"levelo_inurba_marseille","lat":43.291994,"lon":5.392907,"is_reserved":false,"is_disabled":false,"rental_uris":{"android":"levelo://app?vid=0a12431e-fe41-4c97-aca8-58b575d6bdbe","ios":"levelo://app?vid=0a12431e-fe41-4c97-aca8-58b575d6bdbe"},"vehicle_type_id":"4","last_reported":1700338007,"current_range_meters":27600,"station_id":"ce4bh192rcd13ifvqdd0","pricing_plan_id":"free"},{"bike_id":"0b46b1b4-f42b-4e67-9aef-2797da64a2b5","system_id":"levelo_inurba_marseille","lat":43.33112,"lon":5.396731,"is_reserved":false,"is_disabled":false,"rental_uris":{"android":"levelo://app?vid=0b46b1b4-f42b-4e67-9aef-2797da64a2b5","ios":"levelo://app?vid=0b46b1b4-f42b-4e67-9aef-2797da64a2b5"},"vehicle_type_id":"4","last_reported":1700338007,"current_range_meters":17600,"station_id":"","pricing_plan_id":"free"},{"bike_id":"c7e1942f-9f12-41d7-a0dd-c61f4f31dc6a","system_id":"levelo_inurba_marseille","lat":43.284729,"lon":5.358973,"is_reserved":false,"is_disabled":false,"rental_uris":{"android":"levelo://app?vid=c7e1942f-9f12-41d7-a0dd-c61f4f31dc6a","ios":"levelo://app?vid=c7e1942f-9f12-41d7-a0dd-c61f4f31dc6a"},"vehicle_type_id":"4","last_reported":1700338007,"current_range_meters":23600,"station_id":"ce4bhah2rcd13ifvqei0","pricing_plan_id":"free"},{"bike_id":"f033a5d4-09b5-4cb7-a947-c11b95e78df5","system_id":"levelo_inurba_marseille","lat":43.284607,"lon":5.358897,"is_reserved":false,"is_disabled":false,"rental_uris":{"android":"levelo://app?vid=f033a5d4-09b5-4cb7-a947-c11b95e78df5","ios":"levelo://app?vid=f033a5d4-09b5-4cb7-a947-c11b95e78df5"},"vehicle_type_id":"4","last_reported":1700338007,"current_range_meters":23200,"station_id":"ce4bhah2rcd13ifvqei0","pricing_plan_id":"free"},{"bike_id":"5ad3762e-98c7-4713-b667-13446714c1da","system_id":"levelo_inurba_marseille","lat":43.28622,"lon":5.35111,"is_reserved":false,"is_disabled":false,"rental_uris":{"android":"levelo://app?vid=5ad3762e-98c7-4713-b667-13446714c1da","ios":"levelo://app?vid=5ad3762e-98c7-4713-b667-13446714c1da"},"vehicle_type_id":"4","last_reported":1700338007,"current_range_meters":24800,"station_id":"ce4bhch2rcd13ifvqeug","pricing_plan_id":"free"},{"bike_id":"0aa4f654-d46e-440a-978d-bdebfe7b92f0","system_id":"levelo_inurba_marseille","lat":43.283998,"lon":5.375062,"is_reserved":false,"is_disabled":false,"rental_uris":{"android":"levelo://app?vid=0aa4f654-d46e-440a-978d-bdebfe7b92f0","ios":"levelo://app?vid=0aa4f654-d46e-440a-978d-bdebfe7b92f0"},"vehicle_type_id":"4","last_reported":1700338007,"current_range_meters":2400,"station_id":"ce4bh412rcd13ifvqds0","pricing_plan_id":"free"},{"bike_id":"d94dfb15-e572-4e59-af3c-ee7cbd62cef5","system_id":"levelo_inurba_marseille","lat":43.295717,"lon":5.399697,"is_reserved":false,"is_disabled":false,"rental_uris":{"android":"levelo://app?vid=d94dfb15-e572-4e59-af3c-ee7cbd62cef5","ios":"levelo://app?vid=d94dfb15-e572-4e59-af3c-ee7cbd62cef5"},"vehicle_type_id":"4","last_reported":1700338007,"current_range_meters":12800,"station_id":"","pricing_plan_id":"free"},{"bike_id":"83817918-40fc-48a0-b4d2-4ca9f198594c","system_id":"levelo_inurba_marseille","lat":43.294538,"lon":5.39855,"is_reserved":false,"is_disabled":false,"rental_uris":{"android":"levelo://app?vid=83817918-40fc-48a0-b4d2-4ca9f198594c","ios":"levelo://app?vid=83817918-40fc-48a0-b4d2-4ca9f198594c"},"vehicle_type_id":"4","last_reported":1700338007,"current_range_meters":0,"station_id":"","pricing_plan_id":"free"},{"bike_id":"4427649d-be64-4c6b-9c97-a0f5957113c2","system_id":"levelo_inurba_marseille","lat":43.28672,"lon":5.38668,"is_reserved":false,"is_disabled":false,"rental_uris":{"android":"levelo://app?vid=4427649d-be64-4c6b-9c97-a0f5957113c2","ios":"levelo://app?vid=4427649d-be64-4c6b-9c97-a0f5957113c2"},"vehicle_type_id":"4","last_reported":1700338007,"current_range_meters":0,"station_id":"ce4bh492rcd13ifvqdug","pricing_plan_id":"free"},{"bike_id":"fa37f1fa-6821-4fd8-820b-b85152e80cf4","system_id":"levelo_inurba_marseille","lat":43.319179,"lon":5.407725,"is_reserved":false,"is_disabled":false,"rental_uris":{"android":"levelo://app?vid=fa37f1fa-6821-4fd8-820b-b85152e80cf4","ios":"levelo://app?vid=fa37f1fa-6821-4fd8-820b-b85152e80cf4"},"vehicle_type_id":"4","last_reported":1700338007,"current_range_meters":8000,"station_id":"ce4bhq12rcd13ifvqhig","pricing_plan_id":"free"},{"bike_id":"5974ad3b-da81-42ca-a08b-1b3632a47afa","system_id":"levelo_inurba_marseille","lat":43.33237,"lon":5.3985,"is_reserved":false,"is_disabled":false,"rental_uris":{"android":"levelo://app?vid=5974ad3b-da81-42ca-a08b-1b3632a47afa","ios":"levelo://app?vid=5974ad3b-da81-42ca-a08b-1b3632a47afa"},"vehicle_type_id":"4","last_reported":1700338007,"current_range_meters":4000,"station_id":"","pricing_plan_id":"free"},{"bike_id":"3602b74d-bc5d-4276-85ce-c45681ab1737","system_id":"levelo_inurba_marseille","lat":43.33717,"lon":5.391857,"is_reserved":false,"is_disabled":false,"rental_uris":{"android":"levelo://app?vid=3602b74d-bc5d-4276-85ce-c45681ab1737","ios":"levelo://app?vid=3602b74d-bc5d-4276-85ce-c45681ab1737"},"vehicle_type_id":"4","last_reported":1700338007,"current_range_meters":23600,"station_id":"ce4bhr92rcd13ifvqhsg","pricing_plan_id":"free"},{"bike_id":"ea3b5648-f090-41e6-b2bb-8c8be19c5099","system_id":"levelo_inurba_marseille","lat":43.323464,"lon":5.406297,"is_reserved":false,"is_disabled":false,"rental_uris":{"android":"levelo://app?vid=ea3b5648-f090-41e6-b2bb-8c8be19c5099","ios":"levelo://app?vid=ea3b5648-f090-41e6-b2bb-8c8be19c5099"},"vehicle_type_id":"4","last_reported":1700338007,"current_range_meters":15200,"station_id":"ce4bhq92rcd13ifvqhjg","pricing_plan_id":"free"},{"bike_id":"6364147f-5b0d-4e52-9491-e43b350f5c7a","system_id":"levelo_inurba_marseille","lat":43.33717,"lon":5.391857,"is_reserved":false,"is_disabled":false,"rental_uris":{"android":"levelo://app?vid=6364147f-5b0d-4e52-9491-e43b350f5c7a","ios":"levelo://app?vid=6364147f-5b0d-4e52-9491-e43b350f5c7a"},"vehicle_type_id":"4","last_reported":1700338007,"current_range_meters":22800,"station_id":"ce4bhr92rcd13ifvqhsg","pricing_plan_id":"free"},{"bike_id":"7a927666-a755-4181-96ae-b53a1c680b3b","system_id":"levelo_inurba_marseille","lat":43.284793,"lon":5.384119,"is_reserved":false,"is_disabled":false,"rental_uris":{"android":"levelo://app?vid=7a927666-a755-4181-96ae-b53a1c680b3b","ios":"levelo://app?vid=7a927666-a755-4181-96ae-b53a1c680b3b"},"vehicle_type_id":"4","last_reported":1700338007,"current_range_meters":8000,"station_id":"ce4bh512rcd13ifvqe3g","pricing_plan_id":"free"},{"bike_id":"d3dd3e3d-57b0-4c9e-949f-fddd56c2349c","system_id":"levelo_inurba_marseille","lat":43.32521,"lon":5.40575,"is_reserved":false,"is_disabled":false,"rental_uris":{"android":"levelo://app?vid=d3dd3e3d-57b0-4c9e-949f-fddd56c2349c","ios":"levelo://app?vid=d3dd3e3d-57b0-4c9e-949f-fddd56c2349c"},"vehicle_type_id":"4","last_reported":1700338007,"current_range_meters":1200,"station_id":"","pricing_plan_id":"free"},{"bike_id":"0aa2c8da-96eb-4c4c-9574-70cf976aa171","system_id":"levelo_inurba_marseille","lat":43.28039,"lon":5.369297,"is_reserved":false,"is_disabled":false,"rental_uris":{"android":"levelo://app?vid=0aa2c8da-96eb-4c4c-9574-70cf976aa171","ios":"levelo://app?vid=0aa2c8da-96eb-4c4c-9574-70cf976aa171"},"vehicle_type_id":"4","last_reported":1700338007,"current_range_meters":12800,"station_id":"ce4bha12rcd13ifvqef0","pricing_plan_id":"free"},{"bike_id":"5ee9925e-19f8-4eec-97ec-4f4d09ed7738","system_id":"levelo_inurba_marseille","lat":43.289363,"lon":5.396322,"is_reserved":false,"is_disabled":false,"rental_uris":{"android":"levelo://app?vid=5ee9925e-19f8-4eec-97ec-4f4d09ed7738","ios":"levelo://app?vid=5ee9925e-19f8-4eec-97ec-4f4d09ed7738"},"vehicle_type_id":"4","last_reported":1700338007,"current_range_meters":20000,"station_id":"ce4bh3h2rcd13ifvqdn0","pricing_plan_id":"free"},{"bike_id":"b54a5be1-3206-463d-a51e-a2c085cd81c5","system_id":"levelo_inurba_marseille","lat":43.28272,"lon":5.35066,"is_reserved":false,"is_disabled":false,"rental_uris":{"android":"levelo://app?vid=b54a5be1-3206-463d-a51e-a2c085cd81c5","ios":"levelo://app?vid=b54a5be1-3206-463d-a51e-a2c085cd81c5"},"vehicle_type_id":"4","last_reported":1700338007,"current_range_meters":0,"station_id":"ce4bhbp2rcd13ifvqerg","pricing_plan_id":"free"},{"bike_id":"df348ccf-7ffc-4253-95f7-bf3beb0b8892","system_id":"levelo_inurba_marseille","lat":43.280382,"lon":5.369291,"is_reserved":false,"is_disabled":false,"rental_uris":{"android":"levelo://app?vid=df348ccf-7ffc-4253-95f7-bf3beb0b8892","ios":"levelo://app?vid=df348ccf-7ffc-4253-95f7-bf3beb0b8892"},"vehicle_type_id":"4","last_reported":1700338007,"current_range_meters":10000,"station_id":"ce4bha12rcd13ifvqef0","pricing_plan_id":"free"},{"bike_id":"9d813253-84b6-4a8e-9ccb-76b69888cab3","system_id":"levelo_inurba_marseille","lat":43.325233,"lon":5.414318,"is_reserved":false,"is_disabled":false,"rental_uris":{"android":"levelo://app?vid=9d813253-84b6-4a8e-9ccb-76b69888cab3","ios":"levelo://app?vid=9d813253-84b6-4a8e-9ccb-76b69888cab3"},"vehicle_type_id":"4","last_reported":1700338007,"current_range_meters":28400,"station_id":"ce4bhq12rcd13ifvqhhg","pricing_plan_id":"free"},{"bike_id":"d40d0dcd-2570-4c01-8398-98aa7c8815b1","system_id":"levelo_inurba_marseille","lat":43.284462,"lon":5.392121,"is_reserved":false,"is_disabled":false,"rental_uris":{"android":"levelo://app?vid=d40d0dcd-2570-4c01-8398-98aa7c8815b1","ios":"levelo://app?vid=d40d0dcd-2570-4c01-8398-98aa7c8815b1"},"vehicle_type_id":"4","last_reported":1700338007,"current_range_meters":24800,"station_id":"ce4bhoh2rcd13ifvqh5g","pricing_plan_id":"free"},{"bike_id":"8edf0d05-33bd-4964-aaa8-09b6b89fb224","system_id":"levelo_inurba_marseille","lat":43.28438,"lon":5.39195,"is_reserved":false,"is_disabled":false,"rental_uris":{"android":"levelo://app?vid=8edf0d05-33bd-4964-aaa8-09b6b89fb224","ios":"levelo://app?vid=8edf0d05-33bd-4964-aaa8-09b6b89fb224"},"vehicle_type_id":"4","last_reported":1700338007,"current_range_meters":3200,"station_id":"ce4bhoh2rcd13ifvqh5g","pricing_plan_id":"free"},{"bike_id":"ccf9b17e-2fb6-47d5-b5cb-73ea08fcb6e5","system_id":"levelo_inurba_marseille","lat":43.28575,"lon":5.39498,"is_reserved":false,"is_disabled":false,"rental_uris":{"android":"levelo://app?vid=ccf9b17e-2fb6-47d5-b5cb-73ea08fcb6e5","ios":"levelo://app?vid=ccf9b17e-2fb6-47d5-b5cb-73ea08fcb6e5"},"vehicle_type_id":"4","last_reported":1700338007,"current_range_meters":0,"station_id":"ce4bh292rcd13ifvqdg0","pricing_plan_id":"free"},{"bike_id":"b53c6344-d261-47c2-a2c1-abcd37b3f794","system_id":"levelo_inurba_marseille","lat":43.28575,"lon":5.39505,"is_reserved":false,"is_disabled":false,"rental_uris":{"android":"levelo://app?vid=b53c6344-d261-47c2-a2c1-abcd37b3f794","ios":"levelo://app?vid=b53c6344-d261-47c2-a2c1-abcd37b3f794"},"vehicle_type_id":"4","last_reported":1700338007,"current_range_meters":12400,"station_id":"ce4bh292rcd13ifvqdg0","pricing_plan_id":"free"},{"bike_id":"55028695-dcf1-484d-957a-b6123366fc08","system_id":"levelo_inurba_marseille","lat":43.28568,"lon":5.39495,"is_reserved":false,"is_disabled":false,"rental_uris":{"android":"levelo://app?vid=55028695-dcf1-484d-957a-b6123366fc08","ios":"levelo://app?vid=55028695-dcf1-484d-957a-b6123366fc08"},"vehicle_type_id":"4","last_reported":1700338007,"current_range_meters":10000,"station_id":"ce4bh292rcd13ifvqdg0","pricing_plan_id":"free"},{"bike_id":"4b793e88-a644-4389-8d75-1bfbab991631","system_id":"levelo_inurba_marseille","lat":43.28573,"lon":5.394992,"is_reserved":false,"is_disabled":false,"rental_uris":{"android":"levelo://app?vid=4b793e88-a644-4389-8d75-1bfbab991631","ios":"levelo://app?vid=4b793e88-a644-4389-8d75-1bfbab991631"},"vehicle_type_id":"4","last_reported":1700338007,"current_range_meters":13600,"station_id":"ce4bh292rcd13ifvqdg0","pricing_plan_id":"free"},{"bike_id":"8924b6c5-e243-470f-866d-456ff62dcf96","system_id":"levelo_inurba_marseille","lat":43.285742,"lon":5.395004,"is_reserved":false,"is_disabled":false,"rental_uris":{"android":"levelo://app?vid=8924b6c5-e243-470f-866d-456ff62dcf96","ios":"levelo://app?vid=8924b6c5-e243-470f-866d-456ff62dcf96"},"vehicle_type_id":"4","last_reported":1700338007,"current_range_meters":31200,"station_id":"ce4bh292rcd13ifvqdg0","pricing_plan_id":"free"},{"bike_id":"c5be3c2d-b375-445b-81bd-0b1293e3d8ed","system_id":"levelo_inurba_marseille","lat":43.304188,"lon":5.412904,"is_reserved":false,"is_disabled":false,"rental_uris":{"android":"levelo://app?vid=c5be3c2d-b375-445b-81bd-0b1293e3d8ed","ios":"levelo://app?vid=c5be3c2d-b375-445b-81bd-0b1293e3d8ed"},"vehicle_type_id":"4","last_reported":1700338007,"current_range_meters":11600,"station_id":"ce4bhop2rcd13ifvqh8g","pricing_plan_id":"free"},{"bike_id":"04b486dd-29d6-46be-87cd-4a3bb562e98c","system_id":"levelo_inurba_marseille","lat":43.279087,"lon":5.380114,"is_reserved":false,"is_disabled":false,"rental_uris":{"android":"levelo://app?vid=04b486dd-29d6-46be-87cd-4a3bb562e98c","ios":"levelo://app?vid=04b486dd-29d6-46be-87cd-4a3bb562e98c"},"vehicle_type_id":"4","last_reported":1700338007,"current_range_meters":12400,"station_id":"ce4bhf92rcd13ifvqf50","pricing_plan_id":"free"},{"bike_id":"f4a126b7-ca1d-41e5-94fa-6e607fc0c77e","system_id":"levelo_inurba_marseille","lat":43.279087,"lon":5.380114,"is_reserved":false,"is_disabled":false,"rental_uris":{"android":"levelo://app?vid=f4a126b7-ca1d-41e5-94fa-6e607fc0c77e","ios":"levelo://app?vid=f4a126b7-ca1d-41e5-94fa-6e607fc0c77e"},"vehicle_type_id":"4","last_reported":1700338007,"current_range_meters":25200,"station_id":"ce4bhf92rcd13ifvqf50","pricing_plan_id":"free"},{"bike_id":"651a41d1-64d1-482a-be4f-650d06abf2b8","system_id":"levelo_inurba_marseille","lat":43.287154,"lon":5.399979,"is_reserved":false,"is_disabled":false,"rental_uris":{"android":"levelo://app?vid=651a41d1-64d1-482a-be4f-650d06abf2b8","ios":"levelo://app?vid=651a41d1-64d1-482a-be4f-650d06abf2b8"},"vehicle_type_id":"4","last_reported":1700338007,"current_range_meters":4800,"station_id":"ce4bho92rcd13ifvqh3g","pricing_plan_id":"free"},{"bike_id":"c55443e2-5769-493a-9769-7817ddc1bdff","system_id":"levelo_inurba_marseille","lat":43.2804,"lon":5.386726,"is_reserved":false,"is_disabled":false,"rental_uris":{"android":"levelo://app?vid=c55443e2-5769-493a-9769-7817ddc1bdff","ios":"levelo://app?vid=c55443e2-5769-493a-9769-7817ddc1bdff"},"vehicle_type_id":"4","last_reported":1700338007,"current_range_meters":0,"station_id":"","pricing_plan_id":"free"},{"bike_id":"feca28d2-7019-4e39-96be-d7938cc29597","system_id":"levelo_inurba_marseille","lat":43.32435,"lon":5.4137,"is_reserved":false,"is_disabled":false,"rental_uris":{"android":"levelo://app?vid=feca28d2-7019-4e39-96be-d7938cc29597","ios":"levelo://app?vid=feca28d2-7019-4e39-96be-d7938cc29597"},"vehicle_type_id":"4","last_reported":1700338007,"current_range_meters":0,"station_id":"","pricing_plan_id":"free"},{"bike_id":"6d844257-b09d-4592-bcec-a60aff98cb4a","system_id":"levelo_inurba_marseille","lat":43.299579,"lon":5.413255,"is_reserved":false,"is_disabled":false,"rental_uris":{"android":"levelo://app?vid=6d844257-b09d-4592-bcec-a60aff98cb4a","ios":"levelo://app?vid=6d844257-b09d-4592-bcec-a60aff98cb4a"},"vehicle_type_id":"4","last_reported":1700338007,"current_range_meters":5600,"station_id":"ce4bhp12rcd13ifvqh9g","pricing_plan_id":"free"},{"bike_id":"5f02dab6-5497-47b7-910a-aae2b0571951","system_id":"levelo_inurba_marseille","lat":43.320045,"lon":5.415048,"is_reserved":false,"is_disabled":false,"rental_uris":{"android":"levelo://app?vid=5f02dab6-5497-47b7-910a-aae2b0571951","ios":"levelo://app?vid=5f02dab6-5497-47b7-910a-aae2b0571951"},"vehicle_type_id":"4","last_reported":1700338007,"current_range_meters":14800,"station_id":"ce4bhq92rcd13ifvqhkg","pricing_plan_id":"free"},{"bike_id":"92fbbf8c-71b6-4e9c-b10e-70a690f0010a","system_id":"levelo_inurba_marseille","lat":43.320405,"lon":5.415585,"is_reserved":false,"is_disabled":false,"rental_uris":{"android":"levelo://app?vid=92fbbf8c-71b6-4e9c-b10e-70a690f0010a","ios":"levelo://app?vid=92fbbf8c-71b6-4e9c-b10e-70a690f0010a"},"vehicle_type_id":"4","last_reported":1700338007,"current_range_meters":0,"station_id":"ce4bhq92rcd13ifvqhkg","pricing_plan_id":"free"},{"bike_id":"06e55444-8c7b-4286-8721-edc4e2df61d8","system_id":"levelo_inurba_marseille","lat":43.279673,"lon":5.38731,"is_reserved":false,"is_disabled":false,"rental_uris":{"android":"levelo://app?vid=06e55444-8c7b-4286-8721-edc4e2df61d8","ios":"levelo://app?vid=06e55444-8c7b-4286-8721-edc4e2df61d8"},"vehicle_type_id":"4","last_reported":1700338007,"current_range_meters":0,"station_id":"ce4bhg12rcd13ifvqf80","pricing_plan_id":"free"},{"bike_id":"55118acd-67a3-4650-a017-364909cf9c18","system_id":"levelo_inurba_marseille","lat":43.277403,"lon":5.38362,"is_reserved":false,"is_disabled":false,"rental_uris":{"android":"levelo://app?vid=55118acd-67a3-4650-a017-364909cf9c18","ios":"levelo://app?vid=55118acd-67a3-4650-a017-364909cf9c18"},"vehicle_type_id":"4","last_reported":1700338007,"current_range_meters":0,"station_id":"","pricing_plan_id":"free"},{"bike_id":"aba18ede-dbdc-467d-a9b0-d6bfc986572d","system_id":"levelo_inurba_marseille","lat":43.280784,"lon":5.396622,"is_reserved":false,"is_disabled":false,"rental_uris":{"android":"levelo://app?vid=aba18ede-dbdc-467d-a9b0-d6bfc986572d","ios":"levelo://app?vid=aba18ede-dbdc-467d-a9b0-d6bfc986572d"},"vehicle_type_id":"4","last_reported":1700338007,"current_range_meters":11200,"station_id":"ce4bho12rcd13ifvqh2g","pricing_plan_id":"free"},{"bike_id":"47ee4542-796a-4471-bbfd-8b08271e2540","system_id":"levelo_inurba_marseille","lat":43.273609,"lon":5.362708,"is_reserved":false,"is_disabled":false,"rental_uris":{"android":"levelo://app?vid=47ee4542-796a-4471-bbfd-8b08271e2540","ios":"levelo://app?vid=47ee4542-796a-4471-bbfd-8b08271e2540"},"vehicle_type_id":"4","last_reported":1700338007,"current_range_meters":30400,"station_id":"ce4bhbh2rcd13ifvqeo0","pricing_plan_id":"free"},{"bike_id":"9dac5942-603a-4067-8846-ae5ff17a0b1e","system_id":"levelo_inurba_marseille","lat":43.276771,"lon":5.388799,"is_reserved":false,"is_disabled":false,"rental_uris":{"android":"levelo://app?vid=9dac5942-603a-4067-8846-ae5ff17a0b1e","ios":"levelo://app?vid=9dac5942-603a-4067-8846-ae5ff17a0b1e"},"vehicle_type_id":"4","last_reported":1700338007,"current_range_meters":4000,"station_id":"ce4bhi12rcd13ifvqfo0","pricing_plan_id":"free"},{"bike_id":"1c489e8f-9c52-4563-a1a2-18535a1743aa","system_id":"levelo_inurba_marseille","lat":43.28002,"lon":5.40003,"is_reserved":false,"is_disabled":false,"rental_uris":{"android":"levelo://app?vid=1c489e8f-9c52-4563-a1a2-18535a1743aa","ios":"levelo://app?vid=1c489e8f-9c52-4563-a1a2-18535a1743aa"},"vehicle_type_id":"4","last_reported":1700338007,"current_range_meters":31200,"station_id":"ce4bho92rcd13ifvqh4g","pricing_plan_id":"free"},{"bike_id":"e6d4981d-66fd-40f8-9520-f7addfae3aee","system_id":"levelo_inurba_marseille","lat":43.28001,"lon":5.40007,"is_reserved":false,"is_disabled":false,"rental_uris":{"android":"levelo://app?vid=e6d4981d-66fd-40f8-9520-f7addfae3aee","ios":"levelo://app?vid=e6d4981d-66fd-40f8-9520-f7addfae3aee"},"vehicle_type_id":"4","last_reported":1700338007,"current_range_meters":11600,"station_id":"ce4bho92rcd13ifvqh4g","pricing_plan_id":"free"},{"bike_id":"17079bb1-bcfb-4408-a134-b8b494517d1c","system_id":"levelo_inurba_marseille","lat":43.279952,"lon":5.400085,"is_reserved":false,"is_disabled":false,"rental_uris":{"android":"levelo://app?vid=17079bb1-bcfb-4408-a134-b8b494517d1c","ios":"levelo://app?vid=17079bb1-bcfb-4408-a134-b8b494517d1c"},"vehicle_type_id":"4","last_reported":1700338007,"current_range_meters":18000,"station_id":"ce4bho92rcd13ifvqh4g","pricing_plan_id":"free"},{"bike_id":"c269d7d7-1176-487f-aae0-6ddeec3d553a","system_id":"levelo_inurba_marseille","lat":43.279952,"lon":5.400085,"is_reserved":false,"is_disabled":false,"rental_uris":{"android":"levelo://app?vid=c269d7d7-1176-487f-aae0-6ddeec3d553a","ios":"levelo://app?vid=c269d7d7-1176-487f-aae0-6ddeec3d553a"},"vehicle_type_id":"4","last_reported":1700338007,"current_range_meters":6000,"station_id":"ce4bho92rcd13ifvqh4g","pricing_plan_id":"free"},{"bike_id":"afc0c8e9-55e8-458c-a8cc-ad2f68146d69","system_id":"levelo_inurba_marseille","lat":43.27992,"lon":5.40004,"is_reserved":false,"is_disabled":false,"rental_uris":{"android":"levelo://app?vid=afc0c8e9-55e8-458c-a8cc-ad2f68146d69","ios":"levelo://app?vid=afc0c8e9-55e8-458c-a8cc-ad2f68146d69"},"vehicle_type_id":"4","last_reported":1700338007,"current_range_meters":3200,"station_id":"ce4bho92rcd13ifvqh4g","pricing_plan_id":"free"},{"bike_id":"18d269e8-2e40-4f1f-8cc3-732ff54d70ea","system_id":"levelo_inurba_marseille","lat":43.27992,"lon":5.40021,"is_reserved":false,"is_disabled":false,"rental_uris":{"android":"levelo://app?vid=18d269e8-2e40-4f1f-8cc3-732ff54d70ea","ios":"levelo://app?vid=18d269e8-2e40-4f1f-8cc3-732ff54d70ea"},"vehicle_type_id":"4","last_reported":1700338007,"current_range_meters":9200,"station_id":"ce4bho92rcd13ifvqh4g","pricing_plan_id":"free"},{"bike_id":"8cb3fbde-a7e5-41de-94f3-c33c37555f74","system_id":"levelo_inurba_marseille","lat":43.317121,"lon":5.423936,"is_reserved":false,"is_disabled":false,"rental_uris":{"android":"levelo://app?vid=8cb3fbde-a7e5-41de-94f3-c33c37555f74","ios":"levelo://app?vid=8cb3fbde-a7e5-41de-94f3-c33c37555f74"},"vehicle_type_id":"4","last_reported":1700338007,"current_range_meters":28400,"station_id":"ce4bhp92rcd13ifvqhbg","pricing_plan_id":"free"},{"bike_id":"1f675464-1fc9-4eb9-949d-be8a1f26b9d4","system_id":"levelo_inurba_marseille","lat":43.31082,"lon":5.42429,"is_reserved":false,"is_disabled":false,"rental_uris":{"android":"levelo://app?vid=1f675464-1fc9-4eb9-949d-be8a1f26b9d4","ios":"levelo://app?vid=1f675464-1fc9-4eb9-949d-be8a1f26b9d4"},"vehicle_type_id":"4","last_reported":1700338007,"current_range_meters":28400,"station_id":"ce4bhp92rcd13ifvqhag","pricing_plan_id":"free"},{"bike_id":"d2840ce7-777c-4c0a-8d16-8870e8cac5a8","system_id":"levelo_inurba_marseille","lat":43.304096,"lon":5.425385,"is_reserved":false,"is_disabled":false,"rental_uris":{"android":"levelo://app?vid=d2840ce7-777c-4c0a-8d16-8870e8cac5a8","ios":"levelo://app?vid=d2840ce7-777c-4c0a-8d16-8870e8cac5a8"},"vehicle_type_id":"4","last_reported":1700338007,"current_range_meters":0,"station_id":"ce4bhoh2rcd13ifvqh6g","pricing_plan_id":"free"},{"bike_id":"50114d05-00ad-4e58-9cab-b97c88475600","system_id":"levelo_inurba_marseille","lat":43.29554,"lon":5.42287,"is_reserved":false,"is_disabled":false,"rental_uris":{"android":"levelo://app?vid=50114d05-00ad-4e58-9cab-b97c88475600","ios":"levelo://app?vid=50114d05-00ad-4e58-9cab-b97c88475600"},"vehicle_type_id":"4","last_reported":1700338007,"current_range_meters":12800,"station_id":"ce4bhph2rcd13ifvqhdg","pricing_plan_id":"free"},{"bike_id":"7d66142f-a467-42b1-b0a8-9872b1a4e78b","system_id":"levelo_inurba_marseille","lat":43.295523,"lon":5.422926,"is_reserved":false,"is_disabled":false,"rental_uris":{"android":"levelo://app?vid=7d66142f-a467-42b1-b0a8-9872b1a4e78b","ios":"levelo://app?vid=7d66142f-a467-42b1-b0a8-9872b1a4e78b"},"vehicle_type_id":"4","last_reported":1700338007,"current_range_meters":28400,"station_id":"ce4bhph2rcd13ifvqhdg","pricing_plan_id":"free"},{"bike_id":"a7f1db7e-385c-4410-bf64-f58f92e6d136","system_id":"levelo_inurba_marseille","lat":43.29556,"lon":5.42292,"is_reserved":false,"is_disabled":false,"rental_uris":{"android":"levelo://app?vid=a7f1db7e-385c-4410-bf64-f58f92e6d136","ios":"levelo://app?vid=a7f1db7e-385c-4410-bf64-f58f92e6d136"},"vehicle_type_id":"4","last_reported":1700338007,"current_range_meters":15200,"station_id":"ce4bhph2rcd13ifvqhdg","pricing_plan_id":"free"},{"bike_id":"f8f5619a-a183-461d-b100-453fb972fcd4","system_id":"levelo_inurba_marseille","lat":43.272118,"lon":5.391758,"is_reserved":false,"is_disabled":false,"rental_uris":{"android":"levelo://app?vid=f8f5619a-a183-461d-b100-453fb972fcd4","ios":"levelo://app?vid=f8f5619a-a183-461d-b100-453fb972fcd4"},"vehicle_type_id":"4","last_reported":1700338007,"current_range_meters":25200,"station_id":"ce4bhhp2rcd13ifvqfm0","pricing_plan_id":"free"},{"bike_id":"139753b1-0b83-4c3a-80f1-5052bac15461","system_id":"levelo_inurba_marseille","lat":43.272099,"lon":5.392668,"is_reserved":false,"is_disabled":false,"rental_uris":{"android":"levelo://app?vid=139753b1-0b83-4c3a-80f1-5052bac15461","ios":"levelo://app?vid=139753b1-0b83-4c3a-80f1-5052bac15461"},"vehicle_type_id":"4","last_reported":1700338007,"current_range_meters":9600,"station_id":"","pricing_plan_id":"free"},{"bike_id":"fe139271-7817-4645-9ec4-f7eee743e805","system_id":"levelo_inurba_marseille","lat":43.271896,"lon":5.392307,"is_reserved":false,"is_disabled":false,"rental_uris":{"android":"levelo://app?vid=fe139271-7817-4645-9ec4-f7eee743e805","ios":"levelo://app?vid=fe139271-7817-4645-9ec4-f7eee743e805"},"vehicle_type_id":"4","last_reported":1700338007,"current_range_meters":0,"station_id":"ce4bhhp2rcd13ifvqfm0","pricing_plan_id":"free"},{"bike_id":"f0ed4531-078e-42fb-a007-3ed80505eb54","system_id":"levelo_inurba_marseille","lat":43.271891,"lon":5.392412,"is_reserved":false,"is_disabled":false,"rental_uris":{"android":"levelo://app?vid=f0ed4531-078e-42fb-a007-3ed80505eb54","ios":"levelo://app?vid=f0ed4531-078e-42fb-a007-3ed80505eb54"},"vehicle_type_id":"4","last_reported":1700338007,"current_range_meters":6000,"station_id":"","pricing_plan_id":"free"},{"bike_id":"f9aa93c7-ef9b-4c09-b88b-3c4a52c1051f","system_id":"levelo_inurba_marseille","lat":43.278128,"lon":5.407195,"is_reserved":false,"is_disabled":false,"rental_uris":{"android":"levelo://app?vid=f9aa93c7-ef9b-4c09-b88b-3c4a52c1051f","ios":"levelo://app?vid=f9aa93c7-ef9b-4c09-b88b-3c4a52c1051f"},"vehicle_type_id":"4","last_reported":1700338007,"current_range_meters":29600,"station_id":"ce4bhnh2rcd13ifvqgtg","pricing_plan_id":"free"},{"bike_id":"462126be-b935-4202-aab0-db26edf447e2","system_id":"levelo_inurba_marseille","lat":43.326111,"lon":5.427105,"is_reserved":false,"is_disabled":false,"rental_uris":{"android":"levelo://app?vid=462126be-b935-4202-aab0-db26edf447e2","ios":"levelo://app?vid=462126be-b935-4202-aab0-db26edf447e2"},"vehicle_type_id":"4","last_reported":1700338007,"current_range_meters":10400,"station_id":"","pricing_plan_id":"free"},{"bike_id":"f43d9a9c-5cec-49e0-a18d-9b539aa37375","system_id":"levelo_inurba_marseille","lat":43.279465,"lon":5.410561,"is_reserved":false,"is_disabled":false,"rental_uris":{"android":"levelo://app?vid=f43d9a9c-5cec-49e0-a18d-9b539aa37375","ios":"levelo://app?vid=f43d9a9c-5cec-49e0-a18d-9b539aa37375"},"vehicle_type_id":"4","last_reported":1700338007,"current_range_meters":20000,"station_id":"ce4bhnp2rcd13ifvqh0g","pricing_plan_id":"free"},{"bike_id":"474f0885-4fc1-42fc-bc31-2d07f8c6b7dc","system_id":"levelo_inurba_marseille","lat":43.269319,"lon":5.389397,"is_reserved":false,"is_disabled":false,"rental_uris":{"android":"levelo://app?vid=474f0885-4fc1-42fc-bc31-2d07f8c6b7dc","ios":"levelo://app?vid=474f0885-4fc1-42fc-bc31-2d07f8c6b7dc"},"vehicle_type_id":"4","last_reported":1700338007,"current_range_meters":0,"station_id":"ce4bhhh2rcd13ifvqfl0","pricing_plan_id":"free"},{"bike_id":"c66ddc89-f5f8-4891-a146-125b11f6fdcb","system_id":"levelo_inurba_marseille","lat":43.29674,"lon":5.42784,"is_reserved":false,"is_disabled":false,"rental_uris":{"android":"levelo://app?vid=c66ddc89-f5f8-4891-a146-125b11f6fdcb","ios":"levelo://app?vid=c66ddc89-f5f8-4891-a146-125b11f6fdcb"},"vehicle_type_id":"4","last_reported":1700338007,"current_range_meters":20800,"station_id":"","pricing_plan_id":"free"},{"bike_id":"a931a996-82d9-44c7-a291-69850cd0a086","system_id":"levelo_inurba_marseille","lat":43.26553,"lon":5.37281,"is_reserved":false,"is_disabled":false,"rental_uris":{"android":"levelo://app?vid=a931a996-82d9-44c7-a291-69850cd0a086","ios":"levelo://app?vid=a931a996-82d9-44c7-a291-69850cd0a086"},"vehicle_type_id":"4","last_reported":1700338007,"current_range_meters":800,"station_id":"ce4bhg12rcd13ifvqf70","pricing_plan_id":"free"},{"bike_id":"17897448-14f0-4ad7-9ac6-dac516b32f85","system_id":"levelo_inurba_marseille","lat":43.26551,"lon":5.37282,"is_reserved":false,"is_disabled":false,"rental_uris":{"android":"levelo://app?vid=17897448-14f0-4ad7-9ac6-dac516b32f85","ios":"levelo://app?vid=17897448-14f0-4ad7-9ac6-dac516b32f85"},"vehicle_type_id":"4","last_reported":1700338007,"current_range_meters":2400,"station_id":"ce4bhg12rcd13ifvqf70","pricing_plan_id":"free"},{"bike_id":"5e9c6dd7-6870-4371-984b-4dd18f2dfef1","system_id":"levelo_inurba_marseille","lat":43.26551,"lon":5.37285,"is_reserved":false,"is_disabled":false,"rental_uris":{"android":"levelo://app?vid=5e9c6dd7-6870-4371-984b-4dd18f2dfef1","ios":"levelo://app?vid=5e9c6dd7-6870-4371-984b-4dd18f2dfef1"},"vehicle_type_id":"4","last_reported":1700338007,"current_range_meters":10400,"station_id":"ce4bhg12rcd13ifvqf70","pricing_plan_id":"free"},{"bike_id":"c7758cb2-2a45-4f89-aa5c-0e391d845c76","system_id":"levelo_inurba_marseille","lat":43.326053,"lon":5.429943,"is_reserved":false,"is_disabled":false,"rental_uris":{"android":"levelo://app?vid=c7758cb2-2a45-4f89-aa5c-0e391d845c76","ios":"levelo://app?vid=c7758cb2-2a45-4f89-aa5c-0e391d845c76"},"vehicle_type_id":"4","last_reported":1700338007,"current_range_meters":3200,"station_id":"","pricing_plan_id":"free"},{"bike_id":"42871d3b-8c03-490f-baf1-f4b57c44a331","system_id":"levelo_inurba_marseille","lat":43.326569,"lon":5.430586,"is_reserved":false,"is_disabled":false,"rental_uris":{"android":"levelo://app?vid=42871d3b-8c03-490f-baf1-f4b57c44a331","ios":"levelo://app?vid=42871d3b-8c03-490f-baf1-f4b57c44a331"},"vehicle_type_id":"4","last_reported":1700338007,"current_range_meters":17200,"station_id":"","pricing_plan_id":"free"},{"bike_id":"fb0f8f02-5c4d-4282-bd1c-d6f69569b453","system_id":"levelo_inurba_marseille","lat":43.27996,"lon":5.416624,"is_reserved":false,"is_disabled":false,"rental_uris":{"android":"levelo://app?vid=fb0f8f02-5c4d-4282-bd1c-d6f69569b453","ios":"levelo://app?vid=fb0f8f02-5c4d-4282-bd1c-d6f69569b453"},"vehicle_type_id":"4","last_reported":1700338007,"current_range_meters":8000,"station_id":"ce4bho12rcd13ifvqh1g","pricing_plan_id":"free"},{"bike_id":"84baad44-8054-4ec7-97de-37c428c44e0a","system_id":"levelo_inurba_marseille","lat":43.265714,"lon":5.372891,"is_reserved":false,"is_disabled":false,"rental_uris":{"android":"levelo://app?vid=84baad44-8054-4ec7-97de-37c428c44e0a","ios":"levelo://app?vid=84baad44-8054-4ec7-97de-37c428c44e0a"},"vehicle_type_id":"4","last_reported":1700338007,"current_range_meters":10800,"station_id":"ce4bhg12rcd13ifvqf70","pricing_plan_id":"free"},{"bike_id":"6b213b3a-d6ed-4f8e-9c6b-c6d116db3f78","system_id":"levelo_inurba_marseille","lat":43.267966,"lon":5.393976,"is_reserved":false,"is_disabled":false,"rental_uris":{"android":"levelo://app?vid=6b213b3a-d6ed-4f8e-9c6b-c6d116db3f78","ios":"levelo://app?vid=6b213b3a-d6ed-4f8e-9c6b-c6d116db3f78"},"vehicle_type_id":"4","last_reported":1700338007,"current_range_meters":15200,"station_id":"ce4bhh12rcd13ifvqfg0","pricing_plan_id":"free"},{"bike_id":"1a6d06e2-c6a7-4a09-88b1-48d139c6706f","system_id":"levelo_inurba_marseille","lat":43.308051,"lon":5.43527,"is_reserved":false,"is_disabled":false,"rental_uris":{"android":"levelo://app?vid=1a6d06e2-c6a7-4a09-88b1-48d139c6706f","ios":"levelo://app?vid=1a6d06e2-c6a7-4a09-88b1-48d139c6706f"},"vehicle_type_id":"4","last_reported":1700338007,"current_range_meters":13200,"station_id":"ce4bhph2rcd13ifvqheg","pricing_plan_id":"free"},{"bike_id":"6db8fb69-0626-4574-bb1e-0b47b0dacfba","system_id":"levelo_inurba_marseille","lat":43.269422,"lon":5.402428,"is_reserved":false,"is_disabled":false,"rental_uris":{"android":"levelo://app?vid=6db8fb69-0626-4574-bb1e-0b47b0dacfba","ios":"levelo://app?vid=6db8fb69-0626-4574-bb1e-0b47b0dacfba"},"vehicle_type_id":"4","last_reported":1700338007,"current_range_meters":0,"station_id":"cjm6bp8fraef2m0cb0m0","pricing_plan_id":"free"},{"bike_id":"7bf7502f-8a1e-4c6b-8330-76cb45e79340","system_id":"levelo_inurba_marseille","lat":43.317104,"lon":5.436818,"is_reserved":false,"is_disabled":false,"rental_uris":{"android":"levelo://app?vid=7bf7502f-8a1e-4c6b-8330-76cb45e79340","ios":"levelo://app?vid=7bf7502f-8a1e-4c6b-8330-76cb45e79340"},"vehicle_type_id":"4","last_reported":1700338007,"current_range_meters":4800,"station_id":"ce4bhp92rcd13ifvqhcg","pricing_plan_id":"free"},{"bike_id":"99f25bbf-5ae2-4db7-9d8f-d035ab1cf052","system_id":"levelo_inurba_marseille","lat":43.261782,"lon":5.374515,"is_reserved":false,"is_disabled":false,"rental_uris":{"android":"levelo://app?vid=99f25bbf-5ae2-4db7-9d8f-d035ab1cf052","ios":"levelo://app?vid=99f25bbf-5ae2-4db7-9d8f-d035ab1cf052"},"vehicle_type_id":"4","last_reported":1700338007,"current_range_meters":5600,"station_id":"ce4bhgp2rcd13ifvqfc0","pricing_plan_id":"free"},{"bike_id":"d077710c-062f-4bb5-bc07-f925193fbbe9","system_id":"levelo_inurba_marseille","lat":43.31711,"lon":5.43706,"is_reserved":false,"is_disabled":false,"rental_uris":{"android":"levelo://app?vid=d077710c-062f-4bb5-bc07-f925193fbbe9","ios":"levelo://app?vid=d077710c-062f-4bb5-bc07-f925193fbbe9"},"vehicle_type_id":"4","last_reported":1700338007,"current_range_meters":5600,"station_id":"ce4bhp92rcd13ifvqhcg","pricing_plan_id":"free"},{"bike_id":"584c5199-357e-4900-bd58-cb216b28e7ac","system_id":"levelo_inurba_marseille","lat":43.317104,"lon":5.436818,"is_reserved":false,"is_disabled":false,"rental_uris":{"android":"levelo://app?vid=584c5199-357e-4900-bd58-cb216b28e7ac","ios":"levelo://app?vid=584c5199-357e-4900-bd58-cb216b28e7ac"},"vehicle_type_id":"4","last_reported":1700338007,"current_range_meters":30000,"station_id":"ce4bhp92rcd13ifvqhcg","pricing_plan_id":"free"},{"bike_id":"555c7a59-3825-4d1d-aa0c-d8563490d9db","system_id":"levelo_inurba_marseille","lat":43.271388,"lon":5.409269,"is_reserved":false,"is_disabled":false,"rental_uris":{"android":"levelo://app?vid=555c7a59-3825-4d1d-aa0c-d8563490d9db","ios":"levelo://app?vid=555c7a59-3825-4d1d-aa0c-d8563490d9db"},"vehicle_type_id":"4","last_reported":1700338007,"current_range_meters":30000,"station_id":"ce4bhl12rcd13ifvqgf0","pricing_plan_id":"free"},{"bike_id":"e8766bd2-dbc5-4fac-9fd5-8196dc51357d","system_id":"levelo_inurba_marseille","lat":43.271368,"lon":5.40928,"is_reserved":false,"is_disabled":false,"rental_uris":{"android":"levelo://app?vid=e8766bd2-dbc5-4fac-9fd5-8196dc51357d","ios":"levelo://app?vid=e8766bd2-dbc5-4fac-9fd5-8196dc51357d"},"vehicle_type_id":"4","last_reported":1700338007,"current_range_meters":8400,"station_id":"ce4bhl12rcd13ifvqgf0","pricing_plan_id":"free"},{"bike_id":"3bd25bbc-4e67-46fb-8283-cbd6812b4cf2","system_id":"levelo_inurba_marseille","lat":43.271368,"lon":5.40928,"is_reserved":false,"is_disabled":false,"rental_uris":{"android":"levelo://app?vid=3bd25bbc-4e67-46fb-8283-cbd6812b4cf2","ios":"levelo://app?vid=3bd25bbc-4e67-46fb-8283-cbd6812b4cf2"},"vehicle_type_id":"4","last_reported":1700338007,"current_range_meters":14000,"station_id":"ce4bhl12rcd13ifvqgf0","pricing_plan_id":"free"},{"bike_id":"fa58810b-747c-4c1e-b99c-235f33b57f33","system_id":"levelo_inurba_marseille","lat":43.271368,"lon":5.40928,"is_reserved":false,"is_disabled":false,"rental_uris":{"android":"levelo://app?vid=fa58810b-747c-4c1e-b99c-235f33b57f33","ios":"levelo://app?vid=fa58810b-747c-4c1e-b99c-235f33b57f33"},"vehicle_type_id":"4","last_reported":1700338007,"current_range_meters":27600,"station_id":"ce4bhl12rcd13ifvqgf0","pricing_plan_id":"free"},{"bike_id":"6678d850-aeac-4b4e-99a0-10ec8de012c5","system_id":"levelo_inurba_marseille","lat":43.271368,"lon":5.40928,"is_reserved":false,"is_disabled":false,"rental_uris":{"android":"levelo://app?vid=6678d850-aeac-4b4e-99a0-10ec8de012c5","ios":"levelo://app?vid=6678d850-aeac-4b4e-99a0-10ec8de012c5"},"vehicle_type_id":"4","last_reported":1700338007,"current_range_meters":8000,"station_id":"ce4bhl12rcd13ifvqgf0","pricing_plan_id":"free"},{"bike_id":"a2f8a691-b707-4862-b78d-0eea081e7573","system_id":"levelo_inurba_marseille","lat":43.271368,"lon":5.40928,"is_reserved":false,"is_disabled":false,"rental_uris":{"android":"levelo://app?vid=a2f8a691-b707-4862-b78d-0eea081e7573","ios":"levelo://app?vid=a2f8a691-b707-4862-b78d-0eea081e7573"},"vehicle_type_id":"4","last_reported":1700338007,"current_range_meters":20800,"station_id":"ce4bhl12rcd13ifvqgf0","pricing_plan_id":"free"},{"bike_id":"0fc44dcc-7efb-444a-ada4-1b34b8557063","system_id":"levelo_inurba_marseille","lat":43.267959,"lon":5.402687,"is_reserved":false,"is_disabled":false,"rental_uris":{"android":"levelo://app?vid=0fc44dcc-7efb-444a-ada4-1b34b8557063","ios":"levelo://app?vid=0fc44dcc-7efb-444a-ada4-1b34b8557063"},"vehicle_type_id":"4","last_reported":1700338007,"current_range_meters":11600,"station_id":"ce501612rcd8frsf0b60","pricing_plan_id":"free"},{"bike_id":"74ce853b-0d8b-42c9-81c8-17a7564a4b34","system_id":"levelo_inurba_marseille","lat":43.31725,"lon":5.43786,"is_reserved":false,"is_disabled":false,"rental_uris":{"android":"levelo://app?vid=74ce853b-0d8b-42c9-81c8-17a7564a4b34","ios":"levelo://app?vid=74ce853b-0d8b-42c9-81c8-17a7564a4b34"},"vehicle_type_id":"4","last_reported":1700338007,"current_range_meters":17200,"station_id":"","pricing_plan_id":"free"},{"bike_id":"1046635b-c1e6-41f1-8dbc-d28bbd202581","system_id":"levelo_inurba_marseille","lat":43.298768,"lon":5.43643,"is_reserved":false,"is_disabled":false,"rental_uris":{"android":"levelo://app?vid=1046635b-c1e6-41f1-8dbc-d28bbd202581","ios":"levelo://app?vid=1046635b-c1e6-41f1-8dbc-d28bbd202581"},"vehicle_type_id":"4","last_reported":1700338007,"current_range_meters":28400,"station_id":"ce4bhpp2rcd13ifvqhfg","pricing_plan_id":"free"},{"bike_id":"080343fe-0b44-49d6-891f-b4e59d6a5c68","system_id":"levelo_inurba_marseille","lat":43.260219,"lon":5.37546,"is_reserved":false,"is_disabled":false,"rental_uris":{"android":"levelo://app?vid=080343fe-0b44-49d6-891f-b4e59d6a5c68","ios":"levelo://app?vid=080343fe-0b44-49d6-891f-b4e59d6a5c68"},"vehicle_type_id":"4","last_reported":1700338007,"current_range_meters":12000,"station_id":"ce4bhgh2rcd13ifvqfa0","pricing_plan_id":"free"},{"bike_id":"d2e1bce3-fd87-4008-91e5-5365f8cf69e9","system_id":"levelo_inurba_marseille","lat":43.281548,"lon":5.42643,"is_reserved":false,"is_disabled":false,"rental_uris":{"android":"levelo://app?vid=d2e1bce3-fd87-4008-91e5-5365f8cf69e9","ios":"levelo://app?vid=d2e1bce3-fd87-4008-91e5-5365f8cf69e9"},"vehicle_type_id":"4","last_reported":1700338007,"current_range_meters":19200,"station_id":"ce4bhnh2rcd13ifvqgug","pricing_plan_id":"free"},{"bike_id":"923702a8-1c1c-4d82-af9d-9339b82061db","system_id":"levelo_inurba_marseille","lat":43.281548,"lon":5.42643,"is_reserved":false,"is_disabled":false,"rental_uris":{"android":"levelo://app?vid=923702a8-1c1c-4d82-af9d-9339b82061db","ios":"levelo://app?vid=923702a8-1c1c-4d82-af9d-9339b82061db"},"vehicle_type_id":"4","last_reported":1700338007,"current_range_meters":2000,"station_id":"ce4bhnh2rcd13ifvqgug","pricing_plan_id":"free"},{"bike_id":"52c2449e-ba19-42b2-a2b7-5e9532985598","system_id":"levelo_inurba_marseille","lat":43.32279,"lon":5.43926,"is_reserved":false,"is_disabled":false,"rental_uris":{"android":"levelo://app?vid=52c2449e-ba19-42b2-a2b7-5e9532985598","ios":"levelo://app?vid=52c2449e-ba19-42b2-a2b7-5e9532985598"},"vehicle_type_id":"4","last_reported":1700338007,"current_range_meters":15200,"station_id":"","pricing_plan_id":"free"},{"bike_id":"d88b6a73-531b-425a-9e55-b97c354f59a2","system_id":"levelo_inurba_marseille","lat":43.32279,"lon":5.43934,"is_reserved":false,"is_disabled":false,"rental_uris":{"android":"levelo://app?vid=d88b6a73-531b-425a-9e55-b97c354f59a2","ios":"levelo://app?vid=d88b6a73-531b-425a-9e55-b97c354f59a2"},"vehicle_type_id":"4","last_reported":1700338007,"current_range_meters":28400,"station_id":"","pricing_plan_id":"free"},{"bike_id":"e957f39a-4414-4ccb-acf6-0847fedc287a","system_id":"levelo_inurba_marseille","lat":43.26065,"lon":5.39398,"is_reserved":false,"is_disabled":false,"rental_uris":{"android":"levelo://app?vid=e957f39a-4414-4ccb-acf6-0847fedc287a","ios":"levelo://app?vid=e957f39a-4414-4ccb-acf6-0847fedc287a"},"vehicle_type_id":"4","last_reported":1700338007,"current_range_meters":0,"station_id":"ce4bhh92rcd13ifvqfj0","pricing_plan_id":"free"},{"bike_id":"29611ddf-2142-42d8-a93f-205ca8309b2b","system_id":"levelo_inurba_marseille","lat":43.260909,"lon":5.397591,"is_reserved":false,"is_disabled":false,"rental_uris":{"android":"levelo://app?vid=29611ddf-2142-42d8-a93f-205ca8309b2b","ios":"levelo://app?vid=29611ddf-2142-42d8-a93f-205ca8309b2b"},"vehicle_type_id":"4","last_reported":1700338007,"current_range_meters":0,"station_id":"ce4bhi12rcd13ifvqfq0","pricing_plan_id":"free"},{"bike_id":"1aaf1d72-482d-4a4a-9137-926de2425109","system_id":"levelo_inurba_marseille","lat":43.25584,"lon":5.38224,"is_reserved":false,"is_disabled":false,"rental_uris":{"android":"levelo://app?vid=1aaf1d72-482d-4a4a-9137-926de2425109","ios":"levelo://app?vid=1aaf1d72-482d-4a4a-9137-926de2425109"},"vehicle_type_id":"4","last_reported":1700338007,"current_range_meters":0,"station_id":"ce4bhih2rcd13ifvqfs0","pricing_plan_id":"free"},{"bike_id":"60e7629f-18a4-4242-af10-c7e9f7af4899","system_id":"levelo_inurba_marseille","lat":43.254947,"lon":5.376454,"is_reserved":false,"is_disabled":false,"rental_uris":{"android":"levelo://app?vid=60e7629f-18a4-4242-af10-c7e9f7af4899","ios":"levelo://app?vid=60e7629f-18a4-4242-af10-c7e9f7af4899"},"vehicle_type_id":"4","last_reported":1700338007,"current_range_meters":10400,"station_id":"ce4bhh12rcd13ifvqff0","pricing_plan_id":"free"},{"bike_id":"7ad27884-6005-4573-b788-863e7849e691","system_id":"levelo_inurba_marseille","lat":43.257079,"lon":5.411051,"is_reserved":false,"is_disabled":false,"rental_uris":{"android":"levelo://app?vid=7ad27884-6005-4573-b788-863e7849e691","ios":"levelo://app?vid=7ad27884-6005-4573-b788-863e7849e691"},"vehicle_type_id":"4","last_reported":1700338007,"current_range_meters":2000,"station_id":"ce4bhkp2rcd13ifvqgd0","pricing_plan_id":"free"},{"bike_id":"268e7890-750e-4202-904d-61f2525519c6","system_id":"levelo_inurba_marseille","lat":43.257079,"lon":5.411051,"is_reserved":false,"is_disabled":false,"rental_uris":{"android":"levelo://app?vid=268e7890-750e-4202-904d-61f2525519c6","ios":"levelo://app?vid=268e7890-750e-4202-904d-61f2525519c6"},"vehicle_type_id":"4","last_reported":1700338007,"current_range_meters":14400,"station_id":"ce4bhkp2rcd13ifvqgd0","pricing_plan_id":"free"},{"bike_id":"c066fd2a-8fee-4202-8f47-33f36da84f5d","system_id":"levelo_inurba_marseille","lat":43.257079,"lon":5.411051,"is_reserved":false,"is_disabled":false,"rental_uris":{"android":"levelo://app?vid=c066fd2a-8fee-4202-8f47-33f36da84f5d","ios":"levelo://app?vid=c066fd2a-8fee-4202-8f47-33f36da84f5d"},"vehicle_type_id":"4","last_reported":1700338007,"current_range_meters":31600,"station_id":"ce4bhkp2rcd13ifvqgd0","pricing_plan_id":"free"},{"bike_id":"44f08415-9b06-48c1-9eeb-6c227f27cac1","system_id":"levelo_inurba_marseille","lat":43.257079,"lon":5.411051,"is_reserved":false,"is_disabled":false,"rental_uris":{"android":"levelo://app?vid=44f08415-9b06-48c1-9eeb-6c227f27cac1","ios":"levelo://app?vid=44f08415-9b06-48c1-9eeb-6c227f27cac1"},"vehicle_type_id":"4","last_reported":1700338007,"current_range_meters":8800,"station_id":"ce4bhkp2rcd13ifvqgd0","pricing_plan_id":"free"},{"bike_id":"a953df85-3e17-46d8-8fc3-c1498b813fc5","system_id":"levelo_inurba_marseille","lat":43.250009,"lon":5.389195,"is_reserved":false,"is_disabled":false,"rental_uris":{"android":"levelo://app?vid=a953df85-3e17-46d8-8fc3-c1498b813fc5","ios":"levelo://app?vid=a953df85-3e17-46d8-8fc3-c1498b813fc5"},"vehicle_type_id":"4","last_reported":1700338007,"current_range_meters":4400,"station_id":"ce4bhgp2rcd13ifvqfd0","pricing_plan_id":"free"},{"bike_id":"961fc85e-a432-471f-b1c4-71f9c8f489a3","system_id":"levelo_inurba_marseille","lat":43.25115,"lon":5.40318,"is_reserved":false,"is_disabled":false,"rental_uris":{"android":"levelo://app?vid=961fc85e-a432-471f-b1c4-71f9c8f489a3","ios":"levelo://app?vid=961fc85e-a432-471f-b1c4-71f9c8f489a3"},"vehicle_type_id":"4","last_reported":1700338007,"current_range_meters":0,"station_id":"ce4bhlh2rcd13ifvqgig","pricing_plan_id":"free"},{"bike_id":"7dfbe2e2-1c77-43cd-bf80-ef2dd0692863","system_id":"levelo_inurba_marseille","lat":43.243884,"lon":5.370737,"is_reserved":false,"is_disabled":false,"rental_uris":{"android":"levelo://app?vid=7dfbe2e2-1c77-43cd-bf80-ef2dd0692863","ios":"levelo://app?vid=7dfbe2e2-1c77-43cd-bf80-ef2dd0692863"},"vehicle_type_id":"4","last_reported":1700338007,"current_range_meters":12800,"station_id":"ce4bhhh2rcd13ifvqfk0","pricing_plan_id":"free"},{"bike_id":"ae1d832f-9f1d-4597-8ace-fefa6c42ded5","system_id":"levelo_inurba_marseille","lat":43.245581,"lon":5.395069,"is_reserved":false,"is_disabled":false,"rental_uris":{"android":"levelo://app?vid=ae1d832f-9f1d-4597-8ace-fefa6c42ded5","ios":"levelo://app?vid=ae1d832f-9f1d-4597-8ace-fefa6c42ded5"},"vehicle_type_id":"4","last_reported":1700338007,"current_range_meters":16400,"station_id":"ce4bhlp2rcd13ifvqgjg","pricing_plan_id":"free"},{"bike_id":"93dc94b0-b371-41cb-a3ad-83444bc01171","system_id":"levelo_inurba_marseille","lat":43.24546,"lon":5.39526,"is_reserved":false,"is_disabled":false,"rental_uris":{"android":"levelo://app?vid=93dc94b0-b371-41cb-a3ad-83444bc01171","ios":"levelo://app?vid=93dc94b0-b371-41cb-a3ad-83444bc01171"},"vehicle_type_id":"4","last_reported":1700338007,"current_range_meters":400,"station_id":"ce4bhlp2rcd13ifvqgjg","pricing_plan_id":"free"},{"bike_id":"08f996b4-c32d-4eea-b86e-7af65b7cc749","system_id":"levelo_inurba_marseille","lat":43.24546,"lon":5.39527,"is_reserved":false,"is_disabled":false,"rental_uris":{"android":"levelo://app?vid=08f996b4-c32d-4eea-b86e-7af65b7cc749","ios":"levelo://app?vid=08f996b4-c32d-4eea-b86e-7af65b7cc749"},"vehicle_type_id":"4","last_reported":1700338007,"current_range_meters":30000,"station_id":"ce4bhlp2rcd13ifvqgjg","pricing_plan_id":"free"},{"bike_id":"5a980be7-c7ae-42db-bd64-63cc5cf9e0f6","system_id":"levelo_inurba_marseille","lat":43.24075,"lon":5.37765,"is_reserved":false,"is_disabled":false,"rental_uris":{"android":"levelo://app?vid=5a980be7-c7ae-42db-bd64-63cc5cf9e0f6","ios":"levelo://app?vid=5a980be7-c7ae-42db-bd64-63cc5cf9e0f6"},"vehicle_type_id":"4","last_reported":1700338007,"current_range_meters":31200,"station_id":"ce4bhnp2rcd13ifvqgvg","pricing_plan_id":"free"},{"bike_id":"4ac96d8e-b61c-445c-8129-7bb4ec63d003","system_id":"levelo_inurba_marseille","lat":43.24072,"lon":5.37758,"is_reserved":false,"is_disabled":false,"rental_uris":{"android":"levelo://app?vid=4ac96d8e-b61c-445c-8129-7bb4ec63d003","ios":"levelo://app?vid=4ac96d8e-b61c-445c-8129-7bb4ec63d003"},"vehicle_type_id":"4","last_reported":1700338007,"current_range_meters":23200,"station_id":"ce4bhnp2rcd13ifvqgvg","pricing_plan_id":"free"},{"bike_id":"ed419b13-266f-407c-bf9b-711a3ecbb865","system_id":"levelo_inurba_marseille","lat":43.24072,"lon":5.37759,"is_reserved":false,"is_disabled":false,"rental_uris":{"android":"levelo://app?vid=ed419b13-266f-407c-bf9b-711a3ecbb865","ios":"levelo://app?vid=ed419b13-266f-407c-bf9b-711a3ecbb865"},"vehicle_type_id":"4","last_reported":1700338007,"current_range_meters":23200,"station_id":"ce4bhnp2rcd13ifvqgvg","pricing_plan_id":"free"},{"bike_id":"b17abfb9-7775-45d9-aa1e-bf036e6fdf06","system_id":"levelo_inurba_marseille","lat":43.24071,"lon":5.37759,"is_reserved":false,"is_disabled":false,"rental_uris":{"android":"levelo://app?vid=b17abfb9-7775-45d9-aa1e-bf036e6fdf06","ios":"levelo://app?vid=b17abfb9-7775-45d9-aa1e-bf036e6fdf06"},"vehicle_type_id":"4","last_reported":1700338007,"current_range_meters":26800,"station_id":"ce4bhnp2rcd13ifvqgvg","pricing_plan_id":"free"},{"bike_id":"b7259dfd-d67b-474c-8edf-2acc3dd0f3e3","system_id":"levelo_inurba_marseille","lat":43.240623,"lon":5.377642,"is_reserved":false,"is_disabled":false,"rental_uris":{"android":"levelo://app?vid=b7259dfd-d67b-474c-8edf-2acc3dd0f3e3","ios":"levelo://app?vid=b7259dfd-d67b-474c-8edf-2acc3dd0f3e3"},"vehicle_type_id":"4","last_reported":1700338007,"current_range_meters":2400,"station_id":"ce4bhnp2rcd13ifvqgvg","pricing_plan_id":"free"},{"bike_id":"b328869e-b700-47d0-905d-19f08fd5ecd8","system_id":"levelo_inurba_marseille","lat":43.24068,"lon":5.37768,"is_reserved":false,"is_disabled":false,"rental_uris":{"android":"levelo://app?vid=b328869e-b700-47d0-905d-19f08fd5ecd8","ios":"levelo://app?vid=b328869e-b700-47d0-905d-19f08fd5ecd8"},"vehicle_type_id":"4","last_reported":1700338007,"current_range_meters":28800,"station_id":"ce4bhnp2rcd13ifvqgvg","pricing_plan_id":"free"},{"bike_id":"e885b31d-961a-462f-96d6-52d50a79aff5","system_id":"levelo_inurba_marseille","lat":43.240623,"lon":5.377642,"is_reserved":false,"is_disabled":false,"rental_uris":{"android":"levelo://app?vid=e885b31d-961a-462f-96d6-52d50a79aff5","ios":"levelo://app?vid=e885b31d-961a-462f-96d6-52d50a79aff5"},"vehicle_type_id":"4","last_reported":1700338007,"current_range_meters":6400,"station_id":"ce4bhnp2rcd13ifvqgvg","pricing_plan_id":"free"},{"bike_id":"9e46b193-eb61-4abb-bb79-057457196951","system_id":"levelo_inurba_marseille","lat":43.239588,"lon":5.366238,"is_reserved":false,"is_disabled":false,"rental_uris":{"android":"levelo://app?vid=9e46b193-eb61-4abb-bb79-057457196951","ios":"levelo://app?vid=9e46b193-eb61-4abb-bb79-057457196951"},"vehicle_type_id":"4","last_reported":1700338007,"current_range_meters":22400,"station_id":"ce4bhi12rcd13ifvqfp0","pricing_plan_id":"free"},{"bike_id":"5d885cb0-8f85-473f-a9ad-af52a4dd621c","system_id":"levelo_inurba_marseille","lat":43.24184,"lon":5.3972,"is_reserved":false,"is_disabled":false,"rental_uris":{"android":"levelo://app?vid=5d885cb0-8f85-473f-a9ad-af52a4dd621c","ios":"levelo://app?vid=5d885cb0-8f85-473f-a9ad-af52a4dd621c"},"vehicle_type_id":"4","last_reported":1700338007,"current_range_meters":5200,"station_id":"ce4bhn12rcd13ifvqgpg","pricing_plan_id":"free"},{"bike_id":"7a968926-db99-4b95-ac83-d11f6fb36aeb","system_id":"levelo_inurba_marseille","lat":43.24186,"lon":5.39734,"is_reserved":false,"is_disabled":false,"rental_uris":{"android":"levelo://app?vid=7a968926-db99-4b95-ac83-d11f6fb36aeb","ios":"levelo://app?vid=7a968926-db99-4b95-ac83-d11f6fb36aeb"},"vehicle_type_id":"4","last_reported":1700338007,"current_range_meters":1200,"station_id":"ce4bhn12rcd13ifvqgpg","pricing_plan_id":"free"},{"bike_id":"24a1bb83-f44f-4d17-aa66-2ebe98122d38","system_id":"levelo_inurba_marseille","lat":43.24184,"lon":5.39726,"is_reserved":false,"is_disabled":false,"rental_uris":{"android":"levelo://app?vid=24a1bb83-f44f-4d17-aa66-2ebe98122d38","ios":"levelo://app?vid=24a1bb83-f44f-4d17-aa66-2ebe98122d38"},"vehicle_type_id":"4","last_reported":1700338007,"current_range_meters":1200,"station_id":"ce4bhn12rcd13ifvqgpg","pricing_plan_id":"free"},{"bike_id":"4370869b-0c59-4e1b-b4c7-59bf3a7bc50e","system_id":"levelo_inurba_marseille","lat":43.24179,"lon":5.39719,"is_reserved":false,"is_disabled":false,"rental_uris":{"android":"levelo://app?vid=4370869b-0c59-4e1b-b4c7-59bf3a7bc50e","ios":"levelo://app?vid=4370869b-0c59-4e1b-b4c7-59bf3a7bc50e"},"vehicle_type_id":"4","last_reported":1700338007,"current_range_meters":17600,"station_id":"ce4bhn12rcd13ifvqgpg","pricing_plan_id":"free"},{"bike_id":"07e8793f-b5c8-4815-95b2-cfd73adfc584","system_id":"levelo_inurba_marseille","lat":43.24179,"lon":5.39727,"is_reserved":false,"is_disabled":false,"rental_uris":{"android":"levelo://app?vid=07e8793f-b5c8-4815-95b2-cfd73adfc584","ios":"levelo://app?vid=07e8793f-b5c8-4815-95b2-cfd73adfc584"},"vehicle_type_id":"4","last_reported":1700338007,"current_range_meters":27200,"station_id":"ce4bhn12rcd13ifvqgpg","pricing_plan_id":"free"},{"bike_id":"c16c660d-17b5-4dda-ab83-4414adbe0487","system_id":"levelo_inurba_marseille","lat":43.241788,"lon":5.397302,"is_reserved":false,"is_disabled":false,"rental_uris":{"android":"levelo://app?vid=c16c660d-17b5-4dda-ab83-4414adbe0487","ios":"levelo://app?vid=c16c660d-17b5-4dda-ab83-4414adbe0487"},"vehicle_type_id":"4","last_reported":1700338007,"current_range_meters":7600,"station_id":"ce4bhn12rcd13ifvqgpg","pricing_plan_id":"free"},{"bike_id":"4f5534b5-aefd-49d1-810b-7263e1241940","system_id":"levelo_inurba_marseille","lat":43.241782,"lon":5.397261,"is_reserved":false,"is_disabled":false,"rental_uris":{"android":"levelo://app?vid=4f5534b5-aefd-49d1-810b-7263e1241940","ios":"levelo://app?vid=4f5534b5-aefd-49d1-810b-7263e1241940"},"vehicle_type_id":"4","last_reported":1700338007,"current_range_meters":31200,"station_id":"ce4bhn12rcd13ifvqgpg","pricing_plan_id":"free"},{"bike_id":"c2f60803-3cb5-46d9-a585-43ffdbe1feb4","system_id":"levelo_inurba_marseille","lat":43.241782,"lon":5.397261,"is_reserved":false,"is_disabled":false,"rental_uris":{"android":"levelo://app?vid=c2f60803-3cb5-46d9-a585-43ffdbe1feb4","ios":"levelo://app?vid=c2f60803-3cb5-46d9-a585-43ffdbe1feb4"},"vehicle_type_id":"4","last_reported":1700338007,"current_range_meters":30000,"station_id":"ce4bhn12rcd13ifvqgpg","pricing_plan_id":"free"},{"bike_id":"99cc6b38-3aad-4c65-a2a0-1c4ce9965de4","system_id":"levelo_inurba_marseille","lat":43.241782,"lon":5.397261,"is_reserved":false,"is_disabled":false,"rental_uris":{"android":"levelo://app?vid=99cc6b38-3aad-4c65-a2a0-1c4ce9965de4","ios":"levelo://app?vid=99cc6b38-3aad-4c65-a2a0-1c4ce9965de4"},"vehicle_type_id":"4","last_reported":1700338007,"current_range_meters":26400,"station_id":"ce4bhn12rcd13ifvqgpg","pricing_plan_id":"free"},{"bike_id":"fb647ab6-bdfe-4d43-8021-469b840e3f01","system_id":"levelo_inurba_marseille","lat":43.231794,"lon":5.400052,"is_reserved":false,"is_disabled":false,"rental_uris":{"android":"levelo://app?vid=fb647ab6-bdfe-4d43-8021-469b840e3f01","ios":"levelo://app?vid=fb647ab6-bdfe-4d43-8021-469b840e3f01"},"vehicle_type_id":"4","last_reported":1700338007,"current_range_meters":28400,"station_id":"ce4bhn12rcd13ifvqgqg","pricing_plan_id":"free"},{"bike_id":"adac1971-5e73-41e6-9ade-b5ded0f026e7","system_id":"levelo_inurba_marseille","lat":43.231793,"lon":5.400044,"is_reserved":false,"is_disabled":false,"rental_uris":{"android":"levelo://app?vid=adac1971-5e73-41e6-9ade-b5ded0f026e7","ios":"levelo://app?vid=adac1971-5e73-41e6-9ade-b5ded0f026e7"},"vehicle_type_id":"4","last_reported":1700338007,"current_range_meters":30800,"station_id":"ce4bhn12rcd13ifvqgqg","pricing_plan_id":"free"},{"bike_id":"f4a8cd9e-70db-4af1-b4c0-7aa0a7fac3fa","system_id":"levelo_inurba_marseille","lat":43.231861,"lon":5.399877,"is_reserved":false,"is_disabled":false,"rental_uris":{"android":"levelo://app?vid=f4a8cd9e-70db-4af1-b4c0-7aa0a7fac3fa","ios":"levelo://app?vid=f4a8cd9e-70db-4af1-b4c0-7aa0a7fac3fa"},"vehicle_type_id":"4","last_reported":1700338007,"current_range_meters":30400,"station_id":"ce4bhn12rcd13ifvqgqg","pricing_plan_id":"free"},{"bike_id":"486fecf0-765d-4eee-9a85-898f8aa27175","system_id":"levelo_inurba_marseille","lat":43.231793,"lon":5.400044,"is_reserved":false,"is_disabled":false,"rental_uris":{"android":"levelo://app?vid=486fecf0-765d-4eee-9a85-898f8aa27175","ios":"levelo://app?vid=486fecf0-765d-4eee-9a85-898f8aa27175"},"vehicle_type_id":"4","last_reported":1700338007,"current_range_meters":30400,"station_id":"ce4bhn12rcd13ifvqgqg","pricing_plan_id":"free"},{"bike_id":"ad9d26be-fd61-4954-b04a-614ee9d33f7d","system_id":"levelo_inurba_marseille","lat":43.231794,"lon":5.400052,"is_reserved":false,"is_disabled":false,"rental_uris":{"android":"levelo://app?vid=ad9d26be-fd61-4954-b04a-614ee9d33f7d","ios":"levelo://app?vid=ad9d26be-fd61-4954-b04a-614ee9d33f7d"},"vehicle_type_id":"4","last_reported":1700338007,"current_range_meters":31200,"station_id":"ce4bhn12rcd13ifvqgqg","pricing_plan_id":"free"},{"bike_id":"a77536b5-5a4a-4d26-b9d3-350ffe3416bd","system_id":"levelo_inurba_marseille","lat":43.231793,"lon":5.400044,"is_reserved":false,"is_disabled":false,"rental_uris":{"android":"levelo://app?vid=a77536b5-5a4a-4d26-b9d3-350ffe3416bd","ios":"levelo://app?vid=a77536b5-5a4a-4d26-b9d3-350ffe3416bd"},"vehicle_type_id":"4","last_reported":1700338007,"current_range_meters":10800,"station_id":"ce4bhn12rcd13ifvqgqg","pricing_plan_id":"free"},{"bike_id":"efc139d5-8bb1-4a6b-b437-01d31830d455","system_id":"levelo_inurba_marseille","lat":43.231794,"lon":5.400052,"is_reserved":false,"is_disabled":false,"rental_uris":{"android":"levelo://app?vid=efc139d5-8bb1-4a6b-b437-01d31830d455","ios":"levelo://app?vid=efc139d5-8bb1-4a6b-b437-01d31830d455"},"vehicle_type_id":"4","last_reported":1700338007,"current_range_meters":31200,"station_id":"ce4bhn12rcd13ifvqgqg","pricing_plan_id":"free"},{"bike_id":"fa9cc91c-c78c-4cb3-ab2e-3cc3c66a937c","system_id":"levelo_inurba_marseille","lat":43.23184,"lon":5.39989,"is_reserved":false,"is_disabled":false,"rental_uris":{"android":"levelo://app?vid=fa9cc91c-c78c-4cb3-ab2e-3cc3c66a937c","ios":"levelo://app?vid=fa9cc91c-c78c-4cb3-ab2e-3cc3c66a937c"},"vehicle_type_id":"4","last_reported":1700338007,"current_range_meters":21200,"station_id":"ce4bhn12rcd13ifvqgqg","pricing_plan_id":"free"},{"bike_id":"7bc95a0e-72f8-4232-b877-46fe8e7f9e0c","system_id":"levelo_inurba_marseille","lat":43.231794,"lon":5.400052,"is_reserved":false,"is_disabled":false,"rental_uris":{"android":"levelo://app?vid=7bc95a0e-72f8-4232-b877-46fe8e7f9e0c","ios":"levelo://app?vid=7bc95a0e-72f8-4232-b877-46fe8e7f9e0c"},"vehicle_type_id":"4","last_reported":1700338007,"current_range_meters":31200,"station_id":"ce4bhn12rcd13ifvqgqg","pricing_plan_id":"free"},{"bike_id":"5d8316f4-9b3b-4f22-8b0a-d975b6faa1c0","system_id":"levelo_inurba_marseille","lat":43.231793,"lon":5.400044,"is_reserved":false,"is_disabled":false,"rental_uris":{"android":"levelo://app?vid=5d8316f4-9b3b-4f22-8b0a-d975b6faa1c0","ios":"levelo://app?vid=5d8316f4-9b3b-4f22-8b0a-d975b6faa1c0"},"vehicle_type_id":"4","last_reported":1700338007,"current_range_meters":18400,"station_id":"ce4bhn12rcd13ifvqgqg","pricing_plan_id":"free"},{"bike_id":"783c2926-1dc2-4ed5-9fa1-46c3c02b6534","system_id":"levelo_inurba_marseille","lat":43.231562,"lon":5.436933,"is_reserved":false,"is_disabled":false,"rental_uris":{"android":"levelo://app?vid=783c2926-1dc2-4ed5-9fa1-46c3c02b6534","ios":"levelo://app?vid=783c2926-1dc2-4ed5-9fa1-46c3c02b6534"},"vehicle_type_id":"4","last_reported":1700338007,"current_range_meters":7600,"station_id":"ce4bhmp2rcd13ifvqgog","pricing_plan_id":"free"}]}}