{"last_updated":1770406228,"ttl":60,"version":"2.2","data":{"bikes":[{"bike_id":"49bc0ac4-ec4c-46b4-bcba-c5b87d948aa1","system_id":"levelo_inurba_marseille","lat":43.239834,"lon":5.366199,"is_reserved":false,"is_disabled":false,"rental_uris":{"android":"levelo://app?vid=49bc0ac4-ec4c-46b4-bcba-c5b87d948aa1","ios":"levelo://app?vid=49bc0ac4-ec4c-46b4-bcba-c5b87d948aa1"},"vehicle_type_id":"4","last_reported":1770406229,"current_range_meters":2800,"station_id":"ce4bhi12rcd13ifvqfp0","pricing_plan_id":"cebpf4jnsgd1na2vs0mg"},{"bike_id":"e384d104-aadd-4ada-ac2a-a5e1f7cc9954","system_id":"levelo_inurba_marseille","lat":43.265514,"lon":5.372772,"is_reserved":false,"is_disabled":false,"rental_uris":{"android":"levelo://app?vid=e384d104-aadd-4ada-ac2a-a5e1f7cc9954","ios":"levelo://app?vid=e384d104-aadd-4ada-ac2a-a5e1f7cc9954"},"vehicle_type_id":"4","last_reported":1770406229,"current_range_meters":2800,"station_id":"ce4bhg12rcd13ifvqf70","pricing_plan_id":"cebpf4jnsgd1na2vs0mg"},{"bike_id":"e82b4782-3dd2-401e-bab5-6db1b58e268a","system_id":"levelo_inurba_marseille","lat":43.28411,"lon":5.3753,"is_reserved":false,"is_disabled":false,"rental_uris":{"android":"levelo://app?vid=e82b4782-3dd2-401e-bab5-6db1b58e268a","ios":"levelo://app?vid=e82b4782-3dd2-401e-bab5-6db1b58e268a"},"vehicle_type_id":"4","last_reported":1770406229,"current_range_meters":2800,"station_id":"ce4bh412rcd13ifvqds0","pricing_plan_id":"cebpf4jnsgd1na2vs0mg"},{"bike_id":"eb6e4376-7ea4-43db-a90a-cfc7927c5754","system_id":"levelo_inurba_marseille","lat":43.295348,"lon":5.385398,"is_reserved":false,"is_disabled":false,"rental_uris":{"android":"levelo://app?vid=eb6e4376-7ea4-43db-a90a-cfc7927c5754","ios":"levelo://app?vid=eb6e4376-7ea4-43db-a90a-cfc7927c5754"},"vehicle_type_id":"4","last_reported":1770406229,"current_range_meters":2800,"station_id":"ce4bgih2rcd13ifvqba0","pricing_plan_id":"cebpf4jnsgd1na2vs0mg"},{"bike_id":"f81b6c21-0a09-4ca5-9d34-642210d7c0f7","system_id":"levelo_inurba_marseille","lat":43.28074,"lon":5.39678,"is_reserved":false,"is_disabled":false,"rental_uris":{"android":"levelo://app?vid=f81b6c21-0a09-4ca5-9d34-642210d7c0f7","ios":"levelo://app?vid=f81b6c21-0a09-4ca5-9d34-642210d7c0f7"},"vehicle_type_id":"4","last_reported":1770406229,"current_range_meters":2800,"station_id":"ce4bho12rcd13ifvqh2g","pricing_plan_id":"cebpf4jnsgd1na2vs0mg"},{"bike_id":"e67c0a17-a60b-47e9-97a9-0d4cf01793a6","system_id":"levelo_inurba_marseille","lat":43.30118,"lon":5.39864,"is_reserved":false,"is_disabled":false,"rental_uris":{"android":"levelo://app?vid=e67c0a17-a60b-47e9-97a9-0d4cf01793a6","ios":"levelo://app?vid=e67c0a17-a60b-47e9-97a9-0d4cf01793a6"},"vehicle_type_id":"4","last_reported":1770406229,"current_range_meters":2800,"station_id":"ce4bh0h2rcd13ifvqd40","pricing_plan_id":"cebpf4jnsgd1na2vs0mg"},{"bike_id":"0d85fd5a-75c6-45d0-a6d2-6dfb04229aea","system_id":"levelo_inurba_marseille","lat":43.30458,"lon":5.40875,"is_reserved":false,"is_disabled":false,"rental_uris":{"android":"levelo://app?vid=0d85fd5a-75c6-45d0-a6d2-6dfb04229aea","ios":"levelo://app?vid=0d85fd5a-75c6-45d0-a6d2-6dfb04229aea"},"vehicle_type_id":"4","last_reported":1770406229,"current_range_meters":2800,"station_id":"","pricing_plan_id":"cebpf4jnsgd1na2vs0mg"},{"bike_id":"f19552e5-b8be-4ac0-bab3-b1e24771cb0c","system_id":"levelo_inurba_marseille","lat":43.32112,"lon":5.36776,"is_reserved":false,"is_disabled":false,"rental_uris":{"android":"levelo://app?vid=f19552e5-b8be-4ac0-bab3-b1e24771cb0c","ios":"levelo://app?vid=f19552e5-b8be-4ac0-bab3-b1e24771cb0c"},"vehicle_type_id":"4","last_reported":1770406229,"current_range_meters":2800,"station_id":"ce4bhrh2rcd13ifvqhug","pricing_plan_id":"cebpf4jnsgd1na2vs0mg"},{"bike_id":"03414a6d-caa9-4966-8ffd-1cbcbc02f0d6","system_id":"levelo_inurba_marseille","lat":43.2439,"lon":5.37043,"is_reserved":false,"is_disabled":false,"rental_uris":{"android":"levelo://app?vid=03414a6d-caa9-4966-8ffd-1cbcbc02f0d6","ios":"levelo://app?vid=03414a6d-caa9-4966-8ffd-1cbcbc02f0d6"},"vehicle_type_id":"4","last_reported":1770406229,"current_range_meters":2800,"station_id":"ce4bhhh2rcd13ifvqfk0","pricing_plan_id":"cebpf4jnsgd1na2vs0mg"},{"bike_id":"5309610c-bf76-4542-a232-389bbf17cbff","system_id":"levelo_inurba_marseille","lat":43.33537,"lon":5.37457,"is_reserved":false,"is_disabled":false,"rental_uris":{"android":"levelo://app?vid=5309610c-bf76-4542-a232-389bbf17cbff","ios":"levelo://app?vid=5309610c-bf76-4542-a232-389bbf17cbff"},"vehicle_type_id":"4","last_reported":1770406229,"current_range_meters":3200,"station_id":"st_d46tts09ee8s73dlu43g","pricing_plan_id":"cebpf4jnsgd1na2vs0mg"},{"bike_id":"866e42bf-04d6-4e0a-b192-1e6ab504bef4","system_id":"levelo_inurba_marseille","lat":43.264868,"lon":5.395492,"is_reserved":false,"is_disabled":false,"rental_uris":{"android":"levelo://app?vid=866e42bf-04d6-4e0a-b192-1e6ab504bef4","ios":"levelo://app?vid=866e42bf-04d6-4e0a-b192-1e6ab504bef4"},"vehicle_type_id":"4","last_reported":1770406229,"current_range_meters":3200,"station_id":"ce4bhi12rcd13ifvqfq0","pricing_plan_id":"cebpf4jnsgd1na2vs0mg"},{"bike_id":"c90bb09d-ccde-4562-81be-1f4933d75958","system_id":"levelo_inurba_marseille","lat":43.29968,"lon":5.38494,"is_reserved":false,"is_disabled":false,"rental_uris":{"android":"levelo://app?vid=c90bb09d-ccde-4562-81be-1f4933d75958","ios":"levelo://app?vid=c90bb09d-ccde-4562-81be-1f4933d75958"},"vehicle_type_id":"4","last_reported":1770406229,"current_range_meters":3200,"station_id":"ce4bgj92rcd13ifvqbd0","pricing_plan_id":"cebpf4jnsgd1na2vs0mg"},{"bike_id":"f97cfa03-c4f4-43fd-ac7e-e8695c9c7516","system_id":"levelo_inurba_marseille","lat":43.25568,"lon":5.38255,"is_reserved":false,"is_disabled":false,"rental_uris":{"android":"levelo://app?vid=f97cfa03-c4f4-43fd-ac7e-e8695c9c7516","ios":"levelo://app?vid=f97cfa03-c4f4-43fd-ac7e-e8695c9c7516"},"vehicle_type_id":"4","last_reported":1770406229,"current_range_meters":3200,"station_id":"ce4bhih2rcd13ifvqfs0","pricing_plan_id":"cebpf4jnsgd1na2vs0mg"},{"bike_id":"4ee730ce-34fe-4aba-9304-7d3726087afa","system_id":"levelo_inurba_marseille","lat":43.26225,"lon":5.40426,"is_reserved":false,"is_disabled":false,"rental_uris":{"android":"levelo://app?vid=4ee730ce-34fe-4aba-9304-7d3726087afa","ios":"levelo://app?vid=4ee730ce-34fe-4aba-9304-7d3726087afa"},"vehicle_type_id":"4","last_reported":1770406229,"current_range_meters":3200,"station_id":"ce4bhmh2rcd13ifvqgmg","pricing_plan_id":"cebpf4jnsgd1na2vs0mg"},{"bike_id":"7f4a45d0-8b7a-435e-90dd-ab80726af51a","system_id":"levelo_inurba_marseille","lat":43.28364,"lon":5.38106,"is_reserved":false,"is_disabled":false,"rental_uris":{"android":"levelo://app?vid=7f4a45d0-8b7a-435e-90dd-ab80726af51a","ios":"levelo://app?vid=7f4a45d0-8b7a-435e-90dd-ab80726af51a"},"vehicle_type_id":"4","last_reported":1770406229,"current_range_meters":3200,"station_id":"ce4bh412rcd13ifvqdr0","pricing_plan_id":"cebpf4jnsgd1na2vs0mg"},{"bike_id":"e0cd5266-fcbf-4b5a-b114-e277e746069f","system_id":"levelo_inurba_marseille","lat":43.27206,"lon":5.39185,"is_reserved":false,"is_disabled":false,"rental_uris":{"android":"levelo://app?vid=e0cd5266-fcbf-4b5a-b114-e277e746069f","ios":"levelo://app?vid=e0cd5266-fcbf-4b5a-b114-e277e746069f"},"vehicle_type_id":"4","last_reported":1770406229,"current_range_meters":3200,"station_id":"ce4bhhp2rcd13ifvqfm0","pricing_plan_id":"cebpf4jnsgd1na2vs0mg"},{"bike_id":"aca6ea62-6cf8-4e32-a797-d9da48e9af3e","system_id":"levelo_inurba_marseille","lat":43.28002,"lon":5.4001,"is_reserved":false,"is_disabled":false,"rental_uris":{"android":"levelo://app?vid=aca6ea62-6cf8-4e32-a797-d9da48e9af3e","ios":"levelo://app?vid=aca6ea62-6cf8-4e32-a797-d9da48e9af3e"},"vehicle_type_id":"4","last_reported":1770406229,"current_range_meters":3200,"station_id":"ce4bho92rcd13ifvqh4g","pricing_plan_id":"cebpf4jnsgd1na2vs0mg"},{"bike_id":"a6977f2a-cd72-455e-be1c-672172e04f38","system_id":"levelo_inurba_marseille","lat":43.24667,"lon":5.38175,"is_reserved":false,"is_disabled":false,"rental_uris":{"android":"levelo://app?vid=a6977f2a-cd72-455e-be1c-672172e04f38","ios":"levelo://app?vid=a6977f2a-cd72-455e-be1c-672172e04f38"},"vehicle_type_id":"4","last_reported":1770406229,"current_range_meters":3200,"station_id":"ce4bhih2rcd13ifvqfr0","pricing_plan_id":"cebpf4jnsgd1na2vs0mg"},{"bike_id":"41b543e7-0975-40d7-8522-2197540ada13","system_id":"levelo_inurba_marseille","lat":43.28353,"lon":5.381005,"is_reserved":false,"is_disabled":false,"rental_uris":{"android":"levelo://app?vid=41b543e7-0975-40d7-8522-2197540ada13","ios":"levelo://app?vid=41b543e7-0975-40d7-8522-2197540ada13"},"vehicle_type_id":"4","last_reported":1770406229,"current_range_meters":3200,"station_id":"ce4bh412rcd13ifvqdr0","pricing_plan_id":"cebpf4jnsgd1na2vs0mg"},{"bike_id":"58c659e7-05d3-46a2-9255-27ef09abaeb3","system_id":"levelo_inurba_marseille","lat":43.26566,"lon":5.37335,"is_reserved":false,"is_disabled":false,"rental_uris":{"android":"levelo://app?vid=58c659e7-05d3-46a2-9255-27ef09abaeb3","ios":"levelo://app?vid=58c659e7-05d3-46a2-9255-27ef09abaeb3"},"vehicle_type_id":"4","last_reported":1770406229,"current_range_meters":3200,"station_id":"ce4bhg12rcd13ifvqf70","pricing_plan_id":"cebpf4jnsgd1na2vs0mg"},{"bike_id":"fee0750a-8d27-43e0-94f7-17675fd554cc","system_id":"levelo_inurba_marseille","lat":43.2317,"lon":5.35574,"is_reserved":false,"is_disabled":false,"rental_uris":{"android":"levelo://app?vid=fee0750a-8d27-43e0-94f7-17675fd554cc","ios":"levelo://app?vid=fee0750a-8d27-43e0-94f7-17675fd554cc"},"vehicle_type_id":"4","last_reported":1770406229,"current_range_meters":3200,"station_id":"ce4bhu92rcd13ifvqi70","pricing_plan_id":"cebpf4jnsgd1na2vs0mg"},{"bike_id":"812430a0-952a-4ba5-b41b-bd37f61e0edd","system_id":"levelo_inurba_marseille","lat":43.31172,"lon":5.38718,"is_reserved":false,"is_disabled":false,"rental_uris":{"android":"levelo://app?vid=812430a0-952a-4ba5-b41b-bd37f61e0edd","ios":"levelo://app?vid=812430a0-952a-4ba5-b41b-bd37f61e0edd"},"vehicle_type_id":"4","last_reported":1770406229,"current_range_meters":3200,"station_id":"ce4bgv12rcd13ifvqcp0","pricing_plan_id":"cebpf4jnsgd1na2vs0mg"},{"bike_id":"bf716aa5-5db6-4f44-aa24-9167a51e58ca","system_id":"levelo_inurba_marseille","lat":43.317271,"lon":5.423947,"is_reserved":false,"is_disabled":false,"rental_uris":{"android":"levelo://app?vid=bf716aa5-5db6-4f44-aa24-9167a51e58ca","ios":"levelo://app?vid=bf716aa5-5db6-4f44-aa24-9167a51e58ca"},"vehicle_type_id":"4","last_reported":1770406229,"current_range_meters":3600,"station_id":"ce4bhp92rcd13ifvqhbg","pricing_plan_id":"cebpf4jnsgd1na2vs0mg"},{"bike_id":"7a9437dc-9620-4e4d-ac55-f97780f81760","system_id":"levelo_inurba_marseille","lat":43.24809,"lon":5.3745,"is_reserved":false,"is_disabled":false,"rental_uris":{"android":"levelo://app?vid=7a9437dc-9620-4e4d-ac55-f97780f81760","ios":"levelo://app?vid=7a9437dc-9620-4e4d-ac55-f97780f81760"},"vehicle_type_id":"4","last_reported":1770406229,"current_range_meters":3600,"station_id":"ce4bhgh2rcd13ifvqfb0","pricing_plan_id":"cebpf4jnsgd1na2vs0mg"},{"bike_id":"2d9b7179-82a1-455c-ab4a-7bba1fb285af","system_id":"levelo_inurba_marseille","lat":43.29781,"lon":5.38123,"is_reserved":false,"is_disabled":false,"rental_uris":{"android":"levelo://app?vid=2d9b7179-82a1-455c-ab4a-7bba1fb285af","ios":"levelo://app?vid=2d9b7179-82a1-455c-ab4a-7bba1fb285af"},"vehicle_type_id":"4","last_reported":1770406229,"current_range_meters":3600,"station_id":"ce4bgip2rcd13ifvqbb0","pricing_plan_id":"cebpf4jnsgd1na2vs0mg"},{"bike_id":"5da19c60-8d18-4f89-9f34-861cb03ee1b3","system_id":"levelo_inurba_marseille","lat":43.24667,"lon":5.38148,"is_reserved":false,"is_disabled":false,"rental_uris":{"android":"levelo://app?vid=5da19c60-8d18-4f89-9f34-861cb03ee1b3","ios":"levelo://app?vid=5da19c60-8d18-4f89-9f34-861cb03ee1b3"},"vehicle_type_id":"4","last_reported":1770406229,"current_range_meters":3600,"station_id":"ce4bhih2rcd13ifvqfr0","pricing_plan_id":"cebpf4jnsgd1na2vs0mg"},{"bike_id":"76f74f2d-9a44-41ca-9849-4322a4616434","system_id":"levelo_inurba_marseille","lat":43.29526,"lon":5.39043,"is_reserved":false,"is_disabled":false,"rental_uris":{"android":"levelo://app?vid=76f74f2d-9a44-41ca-9849-4322a4616434","ios":"levelo://app?vid=76f74f2d-9a44-41ca-9849-4322a4616434"},"vehicle_type_id":"4","last_reported":1770406229,"current_range_meters":4000,"station_id":"ce4bh3p2rcd13ifvqdp0","pricing_plan_id":"cebpf4jnsgd1na2vs0mg"},{"bike_id":"24e18bc3-60f4-4f22-8411-08ca6d2228f2","system_id":"levelo_inurba_marseille","lat":43.305526,"lon":5.365733,"is_reserved":false,"is_disabled":true,"rental_uris":{"android":"levelo://app?vid=24e18bc3-60f4-4f22-8411-08ca6d2228f2","ios":"levelo://app?vid=24e18bc3-60f4-4f22-8411-08ca6d2228f2"},"vehicle_type_id":"4","last_reported":1770406229,"current_range_meters":4000,"station_id":"ce4bgs12rcd13ifvqcag","pricing_plan_id":"cebpf4jnsgd1na2vs0mg"},{"bike_id":"b53f497c-0cdf-42a8-ab5a-d6dc45b07b09","system_id":"levelo_inurba_marseille","lat":43.24166,"lon":5.36388,"is_reserved":false,"is_disabled":false,"rental_uris":{"android":"levelo://app?vid=b53f497c-0cdf-42a8-ab5a-d6dc45b07b09","ios":"levelo://app?vid=b53f497c-0cdf-42a8-ab5a-d6dc45b07b09"},"vehicle_type_id":"4","last_reported":1770406229,"current_range_meters":4000,"station_id":"cpo36qri1sfpv3e86is0","pricing_plan_id":"cebpf4jnsgd1na2vs0mg"},{"bike_id":"33b2027f-e695-4d46-8701-c84ef1f437b5","system_id":"levelo_inurba_marseille","lat":43.27936,"lon":5.40054,"is_reserved":false,"is_disabled":false,"rental_uris":{"android":"levelo://app?vid=33b2027f-e695-4d46-8701-c84ef1f437b5","ios":"levelo://app?vid=33b2027f-e695-4d46-8701-c84ef1f437b5"},"vehicle_type_id":"4","last_reported":1770406229,"current_range_meters":4000,"station_id":"","pricing_plan_id":"cebpf4jnsgd1na2vs0mg"},{"bike_id":"48cace33-2014-4eaa-868e-0348750abab8","system_id":"levelo_inurba_marseille","lat":43.23965,"lon":5.36626,"is_reserved":false,"is_disabled":false,"rental_uris":{"android":"levelo://app?vid=48cace33-2014-4eaa-868e-0348750abab8","ios":"levelo://app?vid=48cace33-2014-4eaa-868e-0348750abab8"},"vehicle_type_id":"4","last_reported":1770406229,"current_range_meters":4000,"station_id":"ce4bhi12rcd13ifvqfp0","pricing_plan_id":"cebpf4jnsgd1na2vs0mg"},{"bike_id":"c0bcc2b4-0c21-4712-82e8-d7d1de58590b","system_id":"levelo_inurba_marseille","lat":43.26396,"lon":5.41079,"is_reserved":false,"is_disabled":true,"rental_uris":{"android":"levelo://app?vid=c0bcc2b4-0c21-4712-82e8-d7d1de58590b","ios":"levelo://app?vid=c0bcc2b4-0c21-4712-82e8-d7d1de58590b"},"vehicle_type_id":"4","last_reported":1770406229,"current_range_meters":4000,"station_id":"","pricing_plan_id":"cebpf4jnsgd1na2vs0mg"},{"bike_id":"298da479-6033-4963-93d3-3c040dc391a3","system_id":"levelo_inurba_marseille","lat":43.30136,"lon":5.38759,"is_reserved":false,"is_disabled":false,"rental_uris":{"android":"levelo://app?vid=298da479-6033-4963-93d3-3c040dc391a3","ios":"levelo://app?vid=298da479-6033-4963-93d3-3c040dc391a3"},"vehicle_type_id":"4","last_reported":1770406229,"current_range_meters":4000,"station_id":"ce4bghh2rcd13ifvqb60","pricing_plan_id":"cebpf4jnsgd1na2vs0mg"},{"bike_id":"2702666f-48eb-4739-bd04-66d864e30edf","system_id":"levelo_inurba_marseille","lat":43.29041,"lon":5.37554,"is_reserved":false,"is_disabled":false,"rental_uris":{"android":"levelo://app?vid=2702666f-48eb-4739-bd04-66d864e30edf","ios":"levelo://app?vid=2702666f-48eb-4739-bd04-66d864e30edf"},"vehicle_type_id":"4","last_reported":1770406229,"current_range_meters":4000,"station_id":"ce4bh692rcd13ifvqe90","pricing_plan_id":"cebpf4jnsgd1na2vs0mg"},{"bike_id":"b52a1cbb-2a62-4739-b145-242f6c6c585e","system_id":"levelo_inurba_marseille","lat":43.246566,"lon":5.381546,"is_reserved":false,"is_disabled":false,"rental_uris":{"android":"levelo://app?vid=b52a1cbb-2a62-4739-b145-242f6c6c585e","ios":"levelo://app?vid=b52a1cbb-2a62-4739-b145-242f6c6c585e"},"vehicle_type_id":"4","last_reported":1770406229,"current_range_meters":4000,"station_id":"ce4bhih2rcd13ifvqfr0","pricing_plan_id":"cebpf4jnsgd1na2vs0mg"},{"bike_id":"205c7b6e-5a43-4b7b-a265-d77d002f4d9a","system_id":"levelo_inurba_marseille","lat":43.27906,"lon":5.38005,"is_reserved":false,"is_disabled":false,"rental_uris":{"android":"levelo://app?vid=205c7b6e-5a43-4b7b-a265-d77d002f4d9a","ios":"levelo://app?vid=205c7b6e-5a43-4b7b-a265-d77d002f4d9a"},"vehicle_type_id":"4","last_reported":1770406229,"current_range_meters":4000,"station_id":"ce4bhf92rcd13ifvqf50","pricing_plan_id":"cebpf4jnsgd1na2vs0mg"},{"bike_id":"0ff7d1fc-c942-4e04-bb24-6b30b880d197","system_id":"levelo_inurba_marseille","lat":43.315248,"lon":5.368663,"is_reserved":false,"is_disabled":false,"rental_uris":{"android":"levelo://app?vid=0ff7d1fc-c942-4e04-bb24-6b30b880d197","ios":"levelo://app?vid=0ff7d1fc-c942-4e04-bb24-6b30b880d197"},"vehicle_type_id":"4","last_reported":1770406229,"current_range_meters":4000,"station_id":"","pricing_plan_id":"cebpf4jnsgd1na2vs0mg"},{"bike_id":"603ae8c7-f050-4b0a-9606-f136ed190344","system_id":"levelo_inurba_marseille","lat":43.31697,"lon":5.37784,"is_reserved":false,"is_disabled":false,"rental_uris":{"android":"levelo://app?vid=603ae8c7-f050-4b0a-9606-f136ed190344","ios":"levelo://app?vid=603ae8c7-f050-4b0a-9606-f136ed190344"},"vehicle_type_id":"4","last_reported":1770406229,"current_range_meters":4000,"station_id":"ce4bgth2rcd13ifvqch0","pricing_plan_id":"cebpf4jnsgd1na2vs0mg"},{"bike_id":"6d4ca5d4-54c2-49b6-929b-b75532580f5c","system_id":"levelo_inurba_marseille","lat":43.24649,"lon":5.38903,"is_reserved":false,"is_disabled":false,"rental_uris":{"android":"levelo://app?vid=6d4ca5d4-54c2-49b6-929b-b75532580f5c","ios":"levelo://app?vid=6d4ca5d4-54c2-49b6-929b-b75532580f5c"},"vehicle_type_id":"4","last_reported":1770406229,"current_range_meters":4000,"station_id":"ce4bhg12rcd13ifvqf60","pricing_plan_id":"cebpf4jnsgd1na2vs0mg"},{"bike_id":"c2b4bf01-2d51-42ae-81ff-c231218a7411","system_id":"levelo_inurba_marseille","lat":43.2885,"lon":5.39313,"is_reserved":false,"is_disabled":false,"rental_uris":{"android":"levelo://app?vid=c2b4bf01-2d51-42ae-81ff-c231218a7411","ios":"levelo://app?vid=c2b4bf01-2d51-42ae-81ff-c231218a7411"},"vehicle_type_id":"4","last_reported":1770406229,"current_range_meters":4400,"station_id":"ce4bh2p2rcd13ifvqdi0","pricing_plan_id":"cebpf4jnsgd1na2vs0mg"},{"bike_id":"b54f4aa0-6a29-43a8-b1f7-d70dbfeab1cf","system_id":"levelo_inurba_marseille","lat":43.2844,"lon":5.37524,"is_reserved":false,"is_disabled":false,"rental_uris":{"android":"levelo://app?vid=b54f4aa0-6a29-43a8-b1f7-d70dbfeab1cf","ios":"levelo://app?vid=b54f4aa0-6a29-43a8-b1f7-d70dbfeab1cf"},"vehicle_type_id":"4","last_reported":1770406229,"current_range_meters":4400,"station_id":"ce4bh412rcd13ifvqds0","pricing_plan_id":"cebpf4jnsgd1na2vs0mg"},{"bike_id":"6c706595-1835-4ddf-8d94-5e35d4a0f5cb","system_id":"levelo_inurba_marseille","lat":43.312,"lon":5.36893,"is_reserved":false,"is_disabled":false,"rental_uris":{"android":"levelo://app?vid=6c706595-1835-4ddf-8d94-5e35d4a0f5cb","ios":"levelo://app?vid=6c706595-1835-4ddf-8d94-5e35d4a0f5cb"},"vehicle_type_id":"4","last_reported":1770406229,"current_range_meters":4400,"station_id":"ce4bgl92rcd13ifvqbq0","pricing_plan_id":"cebpf4jnsgd1na2vs0mg"},{"bike_id":"94b44417-a21a-4d69-bb88-2cb88dfc3dca","system_id":"levelo_inurba_marseille","lat":43.30152,"lon":5.43146,"is_reserved":false,"is_disabled":false,"rental_uris":{"android":"levelo://app?vid=94b44417-a21a-4d69-bb88-2cb88dfc3dca","ios":"levelo://app?vid=94b44417-a21a-4d69-bb88-2cb88dfc3dca"},"vehicle_type_id":"4","last_reported":1770406229,"current_range_meters":4400,"station_id":"st_d3js3co5814s73ftftug","pricing_plan_id":"cebpf4jnsgd1na2vs0mg"},{"bike_id":"1d300b7f-3017-48d2-939a-4f62cc472f6f","system_id":"levelo_inurba_marseille","lat":43.3047,"lon":5.37897,"is_reserved":false,"is_disabled":false,"rental_uris":{"android":"levelo://app?vid=1d300b7f-3017-48d2-939a-4f62cc472f6f","ios":"levelo://app?vid=1d300b7f-3017-48d2-939a-4f62cc472f6f"},"vehicle_type_id":"4","last_reported":1770406229,"current_range_meters":4400,"station_id":"ce4bgup2rcd13ifvqcn0","pricing_plan_id":"cebpf4jnsgd1na2vs0mg"},{"bike_id":"7ce3271c-9e28-4d5e-b3b1-77311e5df5d7","system_id":"levelo_inurba_marseille","lat":43.31488,"lon":5.38089,"is_reserved":false,"is_disabled":false,"rental_uris":{"android":"levelo://app?vid=7ce3271c-9e28-4d5e-b3b1-77311e5df5d7","ios":"levelo://app?vid=7ce3271c-9e28-4d5e-b3b1-77311e5df5d7"},"vehicle_type_id":"4","last_reported":1770406229,"current_range_meters":4400,"station_id":"","pricing_plan_id":"cebpf4jnsgd1na2vs0mg"},{"bike_id":"8648d317-2471-4c72-8dd2-7c0302b6bfbe","system_id":"levelo_inurba_marseille","lat":43.269501,"lon":5.38634,"is_reserved":false,"is_disabled":false,"rental_uris":{"android":"levelo://app?vid=8648d317-2471-4c72-8dd2-7c0302b6bfbe","ios":"levelo://app?vid=8648d317-2471-4c72-8dd2-7c0302b6bfbe"},"vehicle_type_id":"4","last_reported":1770406229,"current_range_meters":4400,"station_id":"","pricing_plan_id":"cebpf4jnsgd1na2vs0mg"},{"bike_id":"ed0b7b07-9c38-4fb9-bc30-93ba90939795","system_id":"levelo_inurba_marseille","lat":43.33156,"lon":5.3767,"is_reserved":false,"is_disabled":false,"rental_uris":{"android":"levelo://app?vid=ed0b7b07-9c38-4fb9-bc30-93ba90939795","ios":"levelo://app?vid=ed0b7b07-9c38-4fb9-bc30-93ba90939795"},"vehicle_type_id":"4","last_reported":1770406229,"current_range_meters":4400,"station_id":"st_d46cu089ee8s73dldbu0","pricing_plan_id":"cebpf4jnsgd1na2vs0mg"},{"bike_id":"c79d63d7-0dac-478e-9523-659b3a13c6c7","system_id":"levelo_inurba_marseille","lat":43.257189,"lon":5.411073,"is_reserved":false,"is_disabled":false,"rental_uris":{"android":"levelo://app?vid=c79d63d7-0dac-478e-9523-659b3a13c6c7","ios":"levelo://app?vid=c79d63d7-0dac-478e-9523-659b3a13c6c7"},"vehicle_type_id":"4","last_reported":1770406229,"current_range_meters":4400,"station_id":"ce4bhkp2rcd13ifvqgd0","pricing_plan_id":"cebpf4jnsgd1na2vs0mg"},{"bike_id":"99850a36-9afb-45da-956a-515b07324791","system_id":"levelo_inurba_marseille","lat":43.27953,"lon":5.41057,"is_reserved":false,"is_disabled":false,"rental_uris":{"android":"levelo://app?vid=99850a36-9afb-45da-956a-515b07324791","ios":"levelo://app?vid=99850a36-9afb-45da-956a-515b07324791"},"vehicle_type_id":"4","last_reported":1770406229,"current_range_meters":4400,"station_id":"ce4bhnp2rcd13ifvqh0g","pricing_plan_id":"cebpf4jnsgd1na2vs0mg"},{"bike_id":"0c761b47-f97e-46a4-baf9-3e10a77fa599","system_id":"levelo_inurba_marseille","lat":43.22539,"lon":5.34835,"is_reserved":false,"is_disabled":false,"rental_uris":{"android":"levelo://app?vid=0c761b47-f97e-46a4-baf9-3e10a77fa599","ios":"levelo://app?vid=0c761b47-f97e-46a4-baf9-3e10a77fa599"},"vehicle_type_id":"4","last_reported":1770406229,"current_range_meters":4400,"station_id":"st_cvj5dfep6f1abm77gieg","pricing_plan_id":"cebpf4jnsgd1na2vs0mg"},{"bike_id":"d7e22d7d-f9dd-4de6-93c7-6e06b85a4bea","system_id":"levelo_inurba_marseille","lat":43.28084,"lon":5.39658,"is_reserved":false,"is_disabled":false,"rental_uris":{"android":"levelo://app?vid=d7e22d7d-f9dd-4de6-93c7-6e06b85a4bea","ios":"levelo://app?vid=d7e22d7d-f9dd-4de6-93c7-6e06b85a4bea"},"vehicle_type_id":"4","last_reported":1770406229,"current_range_meters":4400,"station_id":"ce4bho12rcd13ifvqh2g","pricing_plan_id":"cebpf4jnsgd1na2vs0mg"},{"bike_id":"c386ec6e-fb78-4c32-b5b7-07e0ae746028","system_id":"levelo_inurba_marseille","lat":43.24654,"lon":5.38896,"is_reserved":false,"is_disabled":false,"rental_uris":{"android":"levelo://app?vid=c386ec6e-fb78-4c32-b5b7-07e0ae746028","ios":"levelo://app?vid=c386ec6e-fb78-4c32-b5b7-07e0ae746028"},"vehicle_type_id":"4","last_reported":1770406229,"current_range_meters":4400,"station_id":"ce4bhg12rcd13ifvqf60","pricing_plan_id":"cebpf4jnsgd1na2vs0mg"},{"bike_id":"9b908f9d-4660-44bb-b17a-c35c07c0e6d2","system_id":"levelo_inurba_marseille","lat":43.27996,"lon":5.40004,"is_reserved":false,"is_disabled":false,"rental_uris":{"android":"levelo://app?vid=9b908f9d-4660-44bb-b17a-c35c07c0e6d2","ios":"levelo://app?vid=9b908f9d-4660-44bb-b17a-c35c07c0e6d2"},"vehicle_type_id":"4","last_reported":1770406229,"current_range_meters":4800,"station_id":"ce4bho92rcd13ifvqh4g","pricing_plan_id":"cebpf4jnsgd1na2vs0mg"},{"bike_id":"1a0bce21-6c8f-4aea-aa73-fc78a15d533d","system_id":"levelo_inurba_marseille","lat":43.29535,"lon":5.38509,"is_reserved":false,"is_disabled":false,"rental_uris":{"android":"levelo://app?vid=1a0bce21-6c8f-4aea-aa73-fc78a15d533d","ios":"levelo://app?vid=1a0bce21-6c8f-4aea-aa73-fc78a15d533d"},"vehicle_type_id":"4","last_reported":1770406229,"current_range_meters":4800,"station_id":"ce4bgih2rcd13ifvqba0","pricing_plan_id":"cebpf4jnsgd1na2vs0mg"},{"bike_id":"6e841bf6-5397-4553-8cf2-e04c1ae59db0","system_id":"levelo_inurba_marseille","lat":43.29013,"lon":5.35618,"is_reserved":false,"is_disabled":true,"rental_uris":{"android":"levelo://app?vid=6e841bf6-5397-4553-8cf2-e04c1ae59db0","ios":"levelo://app?vid=6e841bf6-5397-4553-8cf2-e04c1ae59db0"},"vehicle_type_id":"4","last_reported":1770406229,"current_range_meters":4800,"station_id":"ce4bhb92rcd13ifvqen0","pricing_plan_id":"cebpf4jnsgd1na2vs0mg"},{"bike_id":"3a5ad6bb-5967-4a43-8a3d-23934f4743ed","system_id":"levelo_inurba_marseille","lat":43.27998,"lon":5.40007,"is_reserved":false,"is_disabled":false,"rental_uris":{"android":"levelo://app?vid=3a5ad6bb-5967-4a43-8a3d-23934f4743ed","ios":"levelo://app?vid=3a5ad6bb-5967-4a43-8a3d-23934f4743ed"},"vehicle_type_id":"4","last_reported":1770406229,"current_range_meters":4800,"station_id":"ce4bho92rcd13ifvqh4g","pricing_plan_id":"cebpf4jnsgd1na2vs0mg"},{"bike_id":"938af5bf-c152-4add-ae39-2572b9446bc3","system_id":"levelo_inurba_marseille","lat":43.29303,"lon":5.37167,"is_reserved":false,"is_disabled":false,"rental_uris":{"android":"levelo://app?vid=938af5bf-c152-4add-ae39-2572b9446bc3","ios":"levelo://app?vid=938af5bf-c152-4add-ae39-2572b9446bc3"},"vehicle_type_id":"4","last_reported":1770406229,"current_range_meters":4800,"station_id":"ce4bgh92rcd13ifvqb40","pricing_plan_id":"cebpf4jnsgd1na2vs0mg"},{"bike_id":"e1ae38e0-9f14-4406-91cc-1b4515ca2de5","system_id":"levelo_inurba_marseille","lat":43.30887,"lon":5.39639,"is_reserved":false,"is_disabled":false,"rental_uris":{"android":"levelo://app?vid=e1ae38e0-9f14-4406-91cc-1b4515ca2de5","ios":"levelo://app?vid=e1ae38e0-9f14-4406-91cc-1b4515ca2de5"},"vehicle_type_id":"4","last_reported":1770406229,"current_range_meters":4800,"station_id":"ce4bh012rcd13ifvqcv0","pricing_plan_id":"cebpf4jnsgd1na2vs0mg"},{"bike_id":"f1bff026-bd99-4af5-9efa-17efa0f261ab","system_id":"levelo_inurba_marseille","lat":43.30533,"lon":5.36538,"is_reserved":false,"is_disabled":false,"rental_uris":{"android":"levelo://app?vid=f1bff026-bd99-4af5-9efa-17efa0f261ab","ios":"levelo://app?vid=f1bff026-bd99-4af5-9efa-17efa0f261ab"},"vehicle_type_id":"4","last_reported":1770406229,"current_range_meters":4800,"station_id":"ce4bgs12rcd13ifvqcag","pricing_plan_id":"cebpf4jnsgd1na2vs0mg"},{"bike_id":"ac551100-dc22-4913-9a52-4829a5f95f35","system_id":"levelo_inurba_marseille","lat":43.28612,"lon":5.39895,"is_reserved":false,"is_disabled":true,"rental_uris":{"android":"levelo://app?vid=ac551100-dc22-4913-9a52-4829a5f95f35","ios":"levelo://app?vid=ac551100-dc22-4913-9a52-4829a5f95f35"},"vehicle_type_id":"4","last_reported":1770406229,"current_range_meters":4800,"station_id":"st_d4a7ka997mjs738ck50g","pricing_plan_id":"cebpf4jnsgd1na2vs0mg"},{"bike_id":"2a0c1dc7-44c8-4dc5-a28a-dcecefa69bff","system_id":"levelo_inurba_marseille","lat":43.26223,"lon":5.40452,"is_reserved":false,"is_disabled":false,"rental_uris":{"android":"levelo://app?vid=2a0c1dc7-44c8-4dc5-a28a-dcecefa69bff","ios":"levelo://app?vid=2a0c1dc7-44c8-4dc5-a28a-dcecefa69bff"},"vehicle_type_id":"4","last_reported":1770406229,"current_range_meters":4800,"station_id":"ce4bhmh2rcd13ifvqgmg","pricing_plan_id":"cebpf4jnsgd1na2vs0mg"},{"bike_id":"a1ea8089-c8a8-4ed1-a706-a21001d23915","system_id":"levelo_inurba_marseille","lat":43.29569,"lon":5.38174,"is_reserved":false,"is_disabled":false,"rental_uris":{"android":"levelo://app?vid=a1ea8089-c8a8-4ed1-a706-a21001d23915","ios":"levelo://app?vid=a1ea8089-c8a8-4ed1-a706-a21001d23915"},"vehicle_type_id":"4","last_reported":1770406229,"current_range_meters":4800,"station_id":"ce4bgl12rcd13ifvqbo0","pricing_plan_id":"cebpf4jnsgd1na2vs0mg"},{"bike_id":"eb1aee22-66f7-40e1-8d42-129f37193ad0","system_id":"levelo_inurba_marseille","lat":43.2926,"lon":5.39949,"is_reserved":false,"is_disabled":false,"rental_uris":{"android":"levelo://app?vid=eb1aee22-66f7-40e1-8d42-129f37193ad0","ios":"levelo://app?vid=eb1aee22-66f7-40e1-8d42-129f37193ad0"},"vehicle_type_id":"4","last_reported":1770406229,"current_range_meters":4800,"station_id":"","pricing_plan_id":"cebpf4jnsgd1na2vs0mg"},{"bike_id":"0cc9c6d7-0f61-445c-965c-e73db718ba2a","system_id":"levelo_inurba_marseille","lat":43.292666,"lon":5.384336,"is_reserved":false,"is_disabled":false,"rental_uris":{"android":"levelo://app?vid=0cc9c6d7-0f61-445c-965c-e73db718ba2a","ios":"levelo://app?vid=0cc9c6d7-0f61-445c-965c-e73db718ba2a"},"vehicle_type_id":"4","last_reported":1770406229,"current_range_meters":4800,"station_id":"ce4bha12rcd13ifvqee0","pricing_plan_id":"cebpf4jnsgd1na2vs0mg"},{"bike_id":"f962822c-06bc-4486-a477-eaae1a981a6b","system_id":"levelo_inurba_marseille","lat":43.275383,"lon":5.384437,"is_reserved":false,"is_disabled":false,"rental_uris":{"android":"levelo://app?vid=f962822c-06bc-4486-a477-eaae1a981a6b","ios":"levelo://app?vid=f962822c-06bc-4486-a477-eaae1a981a6b"},"vehicle_type_id":"4","last_reported":1770406229,"current_range_meters":4800,"station_id":"ce4bhh92rcd13ifvqfi0","pricing_plan_id":"cebpf4jnsgd1na2vs0mg"},{"bike_id":"5edc943a-26a0-45d5-8289-4363633082c0","system_id":"levelo_inurba_marseille","lat":43.28702,"lon":5.37393,"is_reserved":false,"is_disabled":false,"rental_uris":{"android":"levelo://app?vid=5edc943a-26a0-45d5-8289-4363633082c0","ios":"levelo://app?vid=5edc943a-26a0-45d5-8289-4363633082c0"},"vehicle_type_id":"4","last_reported":1770406229,"current_range_meters":4800,"station_id":"ce4bh3p2rcd13ifvqdq0","pricing_plan_id":"cebpf4jnsgd1na2vs0mg"},{"bike_id":"13cdd38b-ee04-4a6b-b592-699aabd0f176","system_id":"levelo_inurba_marseille","lat":43.30948,"lon":5.39032,"is_reserved":false,"is_disabled":false,"rental_uris":{"android":"levelo://app?vid=13cdd38b-ee04-4a6b-b592-699aabd0f176","ios":"levelo://app?vid=13cdd38b-ee04-4a6b-b592-699aabd0f176"},"vehicle_type_id":"4","last_reported":1770406229,"current_range_meters":5600,"station_id":"ce4bgup2rcd13ifvqco0","pricing_plan_id":"cebpf4jnsgd1na2vs0mg"},{"bike_id":"5b9a945f-6f2c-4749-9daa-74d70cdf596a","system_id":"levelo_inurba_marseille","lat":43.27573,"lon":5.384241,"is_reserved":false,"is_disabled":false,"rental_uris":{"android":"levelo://app?vid=5b9a945f-6f2c-4749-9daa-74d70cdf596a","ios":"levelo://app?vid=5b9a945f-6f2c-4749-9daa-74d70cdf596a"},"vehicle_type_id":"4","last_reported":1770406229,"current_range_meters":5600,"station_id":"ce4bhh92rcd13ifvqfi0","pricing_plan_id":"cebpf4jnsgd1na2vs0mg"},{"bike_id":"ef79007e-ef6d-4e7f-a3ae-3ed5ead69e87","system_id":"levelo_inurba_marseille","lat":43.2319,"lon":5.355472,"is_reserved":false,"is_disabled":false,"rental_uris":{"android":"levelo://app?vid=ef79007e-ef6d-4e7f-a3ae-3ed5ead69e87","ios":"levelo://app?vid=ef79007e-ef6d-4e7f-a3ae-3ed5ead69e87"},"vehicle_type_id":"4","last_reported":1770406229,"current_range_meters":5600,"station_id":"ce4bhu92rcd13ifvqi70","pricing_plan_id":"cebpf4jnsgd1na2vs0mg"},{"bike_id":"ad619ee0-99a3-44ca-9244-1a662aeff669","system_id":"levelo_inurba_marseille","lat":43.29028,"lon":5.38647,"is_reserved":false,"is_disabled":false,"rental_uris":{"android":"levelo://app?vid=ad619ee0-99a3-44ca-9244-1a662aeff669","ios":"levelo://app?vid=ad619ee0-99a3-44ca-9244-1a662aeff669"},"vehicle_type_id":"4","last_reported":1770406229,"current_range_meters":5600,"station_id":"ce4bh4p2rcd13ifvqe0g","pricing_plan_id":"cebpf4jnsgd1na2vs0mg"},{"bike_id":"2f69afc2-51d1-4223-b73c-f3e5d3ce5ca4","system_id":"levelo_inurba_marseille","lat":43.29606,"lon":5.38618,"is_reserved":false,"is_disabled":false,"rental_uris":{"android":"levelo://app?vid=2f69afc2-51d1-4223-b73c-f3e5d3ce5ca4","ios":"levelo://app?vid=2f69afc2-51d1-4223-b73c-f3e5d3ce5ca4"},"vehicle_type_id":"4","last_reported":1770406229,"current_range_meters":5600,"station_id":"","pricing_plan_id":"cebpf4jnsgd1na2vs0mg"},{"bike_id":"03ad2331-9143-4c56-8562-0bbdd2eecb49","system_id":"levelo_inurba_marseille","lat":43.29517,"lon":5.390406,"is_reserved":false,"is_disabled":false,"rental_uris":{"android":"levelo://app?vid=03ad2331-9143-4c56-8562-0bbdd2eecb49","ios":"levelo://app?vid=03ad2331-9143-4c56-8562-0bbdd2eecb49"},"vehicle_type_id":"4","last_reported":1770406229,"current_range_meters":5600,"station_id":"ce4bh3p2rcd13ifvqdp0","pricing_plan_id":"cebpf4jnsgd1na2vs0mg"},{"bike_id":"90e59ac1-cd46-446b-b3a8-2b22481380d2","system_id":"levelo_inurba_marseille","lat":43.30887,"lon":5.37193,"is_reserved":false,"is_disabled":false,"rental_uris":{"android":"levelo://app?vid=90e59ac1-cd46-446b-b3a8-2b22481380d2","ios":"levelo://app?vid=90e59ac1-cd46-446b-b3a8-2b22481380d2"},"vehicle_type_id":"4","last_reported":1770406229,"current_range_meters":5600,"station_id":"ce4bguh2rcd13ifvqckg","pricing_plan_id":"cebpf4jnsgd1na2vs0mg"},{"bike_id":"dfe42049-7562-40f5-b3b8-06f2eb145588","system_id":"levelo_inurba_marseille","lat":43.28679,"lon":5.3636,"is_reserved":false,"is_disabled":false,"rental_uris":{"android":"levelo://app?vid=dfe42049-7562-40f5-b3b8-06f2eb145588","ios":"levelo://app?vid=dfe42049-7562-40f5-b3b8-06f2eb145588"},"vehicle_type_id":"4","last_reported":1770406229,"current_range_meters":5600,"station_id":"ce4bhah2rcd13ifvqej0","pricing_plan_id":"cebpf4jnsgd1na2vs0mg"},{"bike_id":"63b5e7ff-784a-44cb-b53d-dd43a84f5930","system_id":"levelo_inurba_marseille","lat":43.24157,"lon":5.36418,"is_reserved":false,"is_disabled":false,"rental_uris":{"android":"levelo://app?vid=63b5e7ff-784a-44cb-b53d-dd43a84f5930","ios":"levelo://app?vid=63b5e7ff-784a-44cb-b53d-dd43a84f5930"},"vehicle_type_id":"4","last_reported":1770406229,"current_range_meters":5600,"station_id":"cpo36qri1sfpv3e86is0","pricing_plan_id":"cebpf4jnsgd1na2vs0mg"},{"bike_id":"736bddce-2a84-45e5-b4c6-08b82f4f0da3","system_id":"levelo_inurba_marseille","lat":43.27378,"lon":5.36249,"is_reserved":false,"is_disabled":false,"rental_uris":{"android":"levelo://app?vid=736bddce-2a84-45e5-b4c6-08b82f4f0da3","ios":"levelo://app?vid=736bddce-2a84-45e5-b4c6-08b82f4f0da3"},"vehicle_type_id":"4","last_reported":1770406229,"current_range_meters":5600,"station_id":"ce4bhbh2rcd13ifvqeo0","pricing_plan_id":"cebpf4jnsgd1na2vs0mg"},{"bike_id":"1ffbc665-6c4c-41c3-b238-13564e8f0294","system_id":"levelo_inurba_marseille","lat":43.27962,"lon":5.38749,"is_reserved":false,"is_disabled":false,"rental_uris":{"android":"levelo://app?vid=1ffbc665-6c4c-41c3-b238-13564e8f0294","ios":"levelo://app?vid=1ffbc665-6c4c-41c3-b238-13564e8f0294"},"vehicle_type_id":"4","last_reported":1770406229,"current_range_meters":5600,"station_id":"ce4bhg12rcd13ifvqf80","pricing_plan_id":"cebpf4jnsgd1na2vs0mg"},{"bike_id":"0c0204e9-2e2c-4854-9498-c261c0135345","system_id":"levelo_inurba_marseille","lat":43.23781,"lon":5.3662,"is_reserved":false,"is_disabled":false,"rental_uris":{"android":"levelo://app?vid=0c0204e9-2e2c-4854-9498-c261c0135345","ios":"levelo://app?vid=0c0204e9-2e2c-4854-9498-c261c0135345"},"vehicle_type_id":"4","last_reported":1770406229,"current_range_meters":5600,"station_id":"st_d3nk18o9ro0c73en2l3g","pricing_plan_id":"cebpf4jnsgd1na2vs0mg"},{"bike_id":"90cd76a0-f0c8-4656-96c3-d2c3284c85e6","system_id":"levelo_inurba_marseille","lat":43.28275,"lon":5.35069,"is_reserved":false,"is_disabled":false,"rental_uris":{"android":"levelo://app?vid=90cd76a0-f0c8-4656-96c3-d2c3284c85e6","ios":"levelo://app?vid=90cd76a0-f0c8-4656-96c3-d2c3284c85e6"},"vehicle_type_id":"4","last_reported":1770406229,"current_range_meters":5600,"station_id":"ce4bhbp2rcd13ifvqerg","pricing_plan_id":"cebpf4jnsgd1na2vs0mg"},{"bike_id":"b0cec839-9044-416d-92eb-61b8dee05fdc","system_id":"levelo_inurba_marseille","lat":43.28032,"lon":5.36939,"is_reserved":false,"is_disabled":false,"rental_uris":{"android":"levelo://app?vid=b0cec839-9044-416d-92eb-61b8dee05fdc","ios":"levelo://app?vid=b0cec839-9044-416d-92eb-61b8dee05fdc"},"vehicle_type_id":"4","last_reported":1770406229,"current_range_meters":5600,"station_id":"ce4bha12rcd13ifvqef0","pricing_plan_id":"cebpf4jnsgd1na2vs0mg"},{"bike_id":"0388f24a-b566-45b1-a38a-12fb5d338f89","system_id":"levelo_inurba_marseille","lat":43.31652,"lon":5.37647,"is_reserved":false,"is_disabled":false,"rental_uris":{"android":"levelo://app?vid=0388f24a-b566-45b1-a38a-12fb5d338f89","ios":"levelo://app?vid=0388f24a-b566-45b1-a38a-12fb5d338f89"},"vehicle_type_id":"4","last_reported":1770406229,"current_range_meters":5600,"station_id":"","pricing_plan_id":"cebpf4jnsgd1na2vs0mg"},{"bike_id":"3e49c387-36ef-4304-825f-ad050f57eba5","system_id":"levelo_inurba_marseille","lat":43.29553,"lon":5.42297,"is_reserved":false,"is_disabled":false,"rental_uris":{"android":"levelo://app?vid=3e49c387-36ef-4304-825f-ad050f57eba5","ios":"levelo://app?vid=3e49c387-36ef-4304-825f-ad050f57eba5"},"vehicle_type_id":"4","last_reported":1770406229,"current_range_meters":5600,"station_id":"ce4bhph2rcd13ifvqhdg","pricing_plan_id":"cebpf4jnsgd1na2vs0mg"},{"bike_id":"adc4f4a8-5803-45b4-ab63-1626777f21f7","system_id":"levelo_inurba_marseille","lat":43.27312,"lon":5.39073,"is_reserved":false,"is_disabled":false,"rental_uris":{"android":"levelo://app?vid=adc4f4a8-5803-45b4-ab63-1626777f21f7","ios":"levelo://app?vid=adc4f4a8-5803-45b4-ab63-1626777f21f7"},"vehicle_type_id":"4","last_reported":1770406229,"current_range_meters":5600,"station_id":"ce4bhgp2rcd13ifvqfe0","pricing_plan_id":"cebpf4jnsgd1na2vs0mg"},{"bike_id":"093b5c25-1717-4997-b35f-f7db6496c0d7","system_id":"levelo_inurba_marseille","lat":43.30642,"lon":5.40102,"is_reserved":false,"is_disabled":false,"rental_uris":{"android":"levelo://app?vid=093b5c25-1717-4997-b35f-f7db6496c0d7","ios":"levelo://app?vid=093b5c25-1717-4997-b35f-f7db6496c0d7"},"vehicle_type_id":"4","last_reported":1770406229,"current_range_meters":5600,"station_id":"ce4bh112rcd13ifvqda0","pricing_plan_id":"cebpf4jnsgd1na2vs0mg"},{"bike_id":"578e58a8-1e56-47a1-a322-e983c6778cb9","system_id":"levelo_inurba_marseille","lat":43.23792,"lon":5.36628,"is_reserved":false,"is_disabled":false,"rental_uris":{"android":"levelo://app?vid=578e58a8-1e56-47a1-a322-e983c6778cb9","ios":"levelo://app?vid=578e58a8-1e56-47a1-a322-e983c6778cb9"},"vehicle_type_id":"4","last_reported":1770406229,"current_range_meters":6000,"station_id":"st_d3nk18o9ro0c73en2l3g","pricing_plan_id":"cebpf4jnsgd1na2vs0mg"},{"bike_id":"594b0097-3093-45cc-97da-a204372bd9c9","system_id":"levelo_inurba_marseille","lat":43.3094,"lon":5.39185,"is_reserved":false,"is_disabled":false,"rental_uris":{"android":"levelo://app?vid=594b0097-3093-45cc-97da-a204372bd9c9","ios":"levelo://app?vid=594b0097-3093-45cc-97da-a204372bd9c9"},"vehicle_type_id":"4","last_reported":1770406229,"current_range_meters":6000,"station_id":"","pricing_plan_id":"cebpf4jnsgd1na2vs0mg"},{"bike_id":"375e9bcb-b945-4768-82d3-b05471dcf5fd","system_id":"levelo_inurba_marseille","lat":43.28925,"lon":5.46032,"is_reserved":false,"is_disabled":false,"rental_uris":{"android":"levelo://app?vid=375e9bcb-b945-4768-82d3-b05471dcf5fd","ios":"levelo://app?vid=375e9bcb-b945-4768-82d3-b05471dcf5fd"},"vehicle_type_id":"4","last_reported":1770406229,"current_range_meters":6000,"station_id":"","pricing_plan_id":"cebpf4jnsgd1na2vs0mg"},{"bike_id":"86ef6d29-a1ae-4ad3-85ee-72ede19038e6","system_id":"levelo_inurba_marseille","lat":43.32118,"lon":5.36781,"is_reserved":false,"is_disabled":false,"rental_uris":{"android":"levelo://app?vid=86ef6d29-a1ae-4ad3-85ee-72ede19038e6","ios":"levelo://app?vid=86ef6d29-a1ae-4ad3-85ee-72ede19038e6"},"vehicle_type_id":"4","last_reported":1770406229,"current_range_meters":6000,"station_id":"ce4bhrh2rcd13ifvqhug","pricing_plan_id":"cebpf4jnsgd1na2vs0mg"},{"bike_id":"8b3683af-7da9-4ef2-b4f6-c3e28584ec58","system_id":"levelo_inurba_marseille","lat":43.24976,"lon":5.40468,"is_reserved":false,"is_disabled":false,"rental_uris":{"android":"levelo://app?vid=8b3683af-7da9-4ef2-b4f6-c3e28584ec58","ios":"levelo://app?vid=8b3683af-7da9-4ef2-b4f6-c3e28584ec58"},"vehicle_type_id":"4","last_reported":1770406229,"current_range_meters":6000,"station_id":"st_d2ngiaodas8pm72gd1h0","pricing_plan_id":"cebpf4jnsgd1na2vs0mg"},{"bike_id":"bbed6bef-ee2e-4db5-9869-30536413903b","system_id":"levelo_inurba_marseille","lat":43.312017,"lon":5.381602,"is_reserved":false,"is_disabled":false,"rental_uris":{"android":"levelo://app?vid=bbed6bef-ee2e-4db5-9869-30536413903b","ios":"levelo://app?vid=bbed6bef-ee2e-4db5-9869-30536413903b"},"vehicle_type_id":"4","last_reported":1770406229,"current_range_meters":6000,"station_id":"ce4bgt92rcd13ifvqcf0","pricing_plan_id":"cebpf4jnsgd1na2vs0mg"},{"bike_id":"d1637f9c-b515-44be-9270-b91684a11fd5","system_id":"levelo_inurba_marseille","lat":43.23381,"lon":5.41233,"is_reserved":false,"is_disabled":false,"rental_uris":{"android":"levelo://app?vid=d1637f9c-b515-44be-9270-b91684a11fd5","ios":"levelo://app?vid=d1637f9c-b515-44be-9270-b91684a11fd5"},"vehicle_type_id":"4","last_reported":1770406229,"current_range_meters":6000,"station_id":"","pricing_plan_id":"cebpf4jnsgd1na2vs0mg"},{"bike_id":"228b0147-c0cb-4635-a0c4-219cf741185e","system_id":"levelo_inurba_marseille","lat":43.29977,"lon":5.38502,"is_reserved":false,"is_disabled":false,"rental_uris":{"android":"levelo://app?vid=228b0147-c0cb-4635-a0c4-219cf741185e","ios":"levelo://app?vid=228b0147-c0cb-4635-a0c4-219cf741185e"},"vehicle_type_id":"4","last_reported":1770406229,"current_range_meters":6000,"station_id":"ce4bgj92rcd13ifvqbd0","pricing_plan_id":"cebpf4jnsgd1na2vs0mg"},{"bike_id":"733f0ff5-75ca-4c77-bbb2-e43b4255c9f8","system_id":"levelo_inurba_marseille","lat":43.292605,"lon":5.384292,"is_reserved":false,"is_disabled":false,"rental_uris":{"android":"levelo://app?vid=733f0ff5-75ca-4c77-bbb2-e43b4255c9f8","ios":"levelo://app?vid=733f0ff5-75ca-4c77-bbb2-e43b4255c9f8"},"vehicle_type_id":"4","last_reported":1770406229,"current_range_meters":6000,"station_id":"ce4bh692rcd13ifvqea0","pricing_plan_id":"cebpf4jnsgd1na2vs0mg"},{"bike_id":"ea394ce4-561e-40c3-b5d8-13958e8a40d6","system_id":"levelo_inurba_marseille","lat":43.23186,"lon":5.35553,"is_reserved":false,"is_disabled":false,"rental_uris":{"android":"levelo://app?vid=ea394ce4-561e-40c3-b5d8-13958e8a40d6","ios":"levelo://app?vid=ea394ce4-561e-40c3-b5d8-13958e8a40d6"},"vehicle_type_id":"4","last_reported":1770406229,"current_range_meters":6000,"station_id":"ce4bhu92rcd13ifvqi70","pricing_plan_id":"cebpf4jnsgd1na2vs0mg"},{"bike_id":"7f2cf31b-bee8-4ec3-bf91-98a412e4dab9","system_id":"levelo_inurba_marseille","lat":43.21773,"lon":5.34558,"is_reserved":false,"is_disabled":true,"rental_uris":{"android":"levelo://app?vid=7f2cf31b-bee8-4ec3-bf91-98a412e4dab9","ios":"levelo://app?vid=7f2cf31b-bee8-4ec3-bf91-98a412e4dab9"},"vehicle_type_id":"4","last_reported":1770406229,"current_range_meters":6000,"station_id":"st_cvj6r9ubvosntc0bgbag","pricing_plan_id":"cebpf4jnsgd1na2vs0mg"},{"bike_id":"c34fc098-6c16-44df-b605-cc6bd8adadcf","system_id":"levelo_inurba_marseille","lat":43.28687,"lon":5.38662,"is_reserved":false,"is_disabled":false,"rental_uris":{"android":"levelo://app?vid=c34fc098-6c16-44df-b605-cc6bd8adadcf","ios":"levelo://app?vid=c34fc098-6c16-44df-b605-cc6bd8adadcf"},"vehicle_type_id":"4","last_reported":1770406229,"current_range_meters":6000,"station_id":"ce4bh492rcd13ifvqdug","pricing_plan_id":"cebpf4jnsgd1na2vs0mg"},{"bike_id":"36af6b9c-3b6f-432b-8541-51b5e2f4a92f","system_id":"levelo_inurba_marseille","lat":43.25006,"lon":5.38916,"is_reserved":false,"is_disabled":false,"rental_uris":{"android":"levelo://app?vid=36af6b9c-3b6f-432b-8541-51b5e2f4a92f","ios":"levelo://app?vid=36af6b9c-3b6f-432b-8541-51b5e2f4a92f"},"vehicle_type_id":"4","last_reported":1770406229,"current_range_meters":6000,"station_id":"ce4bhgp2rcd13ifvqfd0","pricing_plan_id":"cebpf4jnsgd1na2vs0mg"},{"bike_id":"e04d7957-2695-4c2a-bb1b-5e0e64401da0","system_id":"levelo_inurba_marseille","lat":43.29317,"lon":5.37488,"is_reserved":false,"is_disabled":false,"rental_uris":{"android":"levelo://app?vid=e04d7957-2695-4c2a-bb1b-5e0e64401da0","ios":"levelo://app?vid=e04d7957-2695-4c2a-bb1b-5e0e64401da0"},"vehicle_type_id":"4","last_reported":1770406229,"current_range_meters":6000,"station_id":"ce4bgi12rcd13ifvqb70","pricing_plan_id":"cebpf4jnsgd1na2vs0mg"},{"bike_id":"2b358923-c030-4481-a0eb-830aa62ff249","system_id":"levelo_inurba_marseille","lat":43.273729,"lon":5.362489,"is_reserved":false,"is_disabled":false,"rental_uris":{"android":"levelo://app?vid=2b358923-c030-4481-a0eb-830aa62ff249","ios":"levelo://app?vid=2b358923-c030-4481-a0eb-830aa62ff249"},"vehicle_type_id":"4","last_reported":1770406229,"current_range_meters":6000,"station_id":"ce4bhbh2rcd13ifvqeo0","pricing_plan_id":"cebpf4jnsgd1na2vs0mg"},{"bike_id":"c168f197-aac7-455a-b9c3-92be85ce0714","system_id":"levelo_inurba_marseille","lat":43.23149,"lon":5.43709,"is_reserved":false,"is_disabled":false,"rental_uris":{"android":"levelo://app?vid=c168f197-aac7-455a-b9c3-92be85ce0714","ios":"levelo://app?vid=c168f197-aac7-455a-b9c3-92be85ce0714"},"vehicle_type_id":"4","last_reported":1770406229,"current_range_meters":6000,"station_id":"ce4bhmp2rcd13ifvqgog","pricing_plan_id":"cebpf4jnsgd1na2vs0mg"},{"bike_id":"6ea399dc-5917-4833-9a9c-0c6527aa49fe","system_id":"levelo_inurba_marseille","lat":43.28275,"lon":5.35056,"is_reserved":false,"is_disabled":false,"rental_uris":{"android":"levelo://app?vid=6ea399dc-5917-4833-9a9c-0c6527aa49fe","ios":"levelo://app?vid=6ea399dc-5917-4833-9a9c-0c6527aa49fe"},"vehicle_type_id":"4","last_reported":1770406229,"current_range_meters":6000,"station_id":"ce4bhbp2rcd13ifvqerg","pricing_plan_id":"cebpf4jnsgd1na2vs0mg"},{"bike_id":"ea97a2a4-cc5a-4d7f-bf38-8e94f201d189","system_id":"levelo_inurba_marseille","lat":43.28499,"lon":5.48415,"is_reserved":false,"is_disabled":false,"rental_uris":{"android":"levelo://app?vid=ea97a2a4-cc5a-4d7f-bf38-8e94f201d189","ios":"levelo://app?vid=ea97a2a4-cc5a-4d7f-bf38-8e94f201d189"},"vehicle_type_id":"4","last_reported":1770406229,"current_range_meters":6000,"station_id":"","pricing_plan_id":"cebpf4jnsgd1na2vs0mg"},{"bike_id":"5638c18f-ee6c-4ee5-b21a-789fc9850573","system_id":"levelo_inurba_marseille","lat":43.31233,"lon":5.40308,"is_reserved":false,"is_disabled":false,"rental_uris":{"android":"levelo://app?vid=5638c18f-ee6c-4ee5-b21a-789fc9850573","ios":"levelo://app?vid=5638c18f-ee6c-4ee5-b21a-789fc9850573"},"vehicle_type_id":"4","last_reported":1770406229,"current_range_meters":6400,"station_id":"","pricing_plan_id":"cebpf4jnsgd1na2vs0mg"},{"bike_id":"5825814f-7023-4d5f-a20a-f996200a6f78","system_id":"levelo_inurba_marseille","lat":43.27989,"lon":5.41072,"is_reserved":false,"is_disabled":false,"rental_uris":{"android":"levelo://app?vid=5825814f-7023-4d5f-a20a-f996200a6f78","ios":"levelo://app?vid=5825814f-7023-4d5f-a20a-f996200a6f78"},"vehicle_type_id":"4","last_reported":1770406229,"current_range_meters":6400,"station_id":"ce4bhnp2rcd13ifvqh0g","pricing_plan_id":"cebpf4jnsgd1na2vs0mg"},{"bike_id":"b8d5c126-a49f-42bb-a06b-73e5424e7351","system_id":"levelo_inurba_marseille","lat":43.33165,"lon":5.37671,"is_reserved":false,"is_disabled":false,"rental_uris":{"android":"levelo://app?vid=b8d5c126-a49f-42bb-a06b-73e5424e7351","ios":"levelo://app?vid=b8d5c126-a49f-42bb-a06b-73e5424e7351"},"vehicle_type_id":"4","last_reported":1770406229,"current_range_meters":6400,"station_id":"st_d46cu089ee8s73dldbu0","pricing_plan_id":"cebpf4jnsgd1na2vs0mg"},{"bike_id":"8a8b8e72-9951-490e-8aaa-3c1625d2978c","system_id":"levelo_inurba_marseille","lat":43.28419,"lon":5.35005,"is_reserved":false,"is_disabled":false,"rental_uris":{"android":"levelo://app?vid=8a8b8e72-9951-490e-8aaa-3c1625d2978c","ios":"levelo://app?vid=8a8b8e72-9951-490e-8aaa-3c1625d2978c"},"vehicle_type_id":"4","last_reported":1770406229,"current_range_meters":6400,"station_id":"ce4bhbh2rcd13ifvqepg","pricing_plan_id":"cebpf4jnsgd1na2vs0mg"},{"bike_id":"661e5608-6549-4720-a5e8-0e1eeb33e31d","system_id":"levelo_inurba_marseille","lat":43.27936,"lon":5.41031,"is_reserved":false,"is_disabled":false,"rental_uris":{"android":"levelo://app?vid=661e5608-6549-4720-a5e8-0e1eeb33e31d","ios":"levelo://app?vid=661e5608-6549-4720-a5e8-0e1eeb33e31d"},"vehicle_type_id":"4","last_reported":1770406229,"current_range_meters":6400,"station_id":"ce4bhnp2rcd13ifvqh0g","pricing_plan_id":"cebpf4jnsgd1na2vs0mg"},{"bike_id":"88de999f-78fd-498c-86b8-c0b83e9a1087","system_id":"levelo_inurba_marseille","lat":43.25966,"lon":5.40893,"is_reserved":false,"is_disabled":false,"rental_uris":{"android":"levelo://app?vid=88de999f-78fd-498c-86b8-c0b83e9a1087","ios":"levelo://app?vid=88de999f-78fd-498c-86b8-c0b83e9a1087"},"vehicle_type_id":"4","last_reported":1770406229,"current_range_meters":6400,"station_id":"ce4bhm92rcd13ifvqglg","pricing_plan_id":"cebpf4jnsgd1na2vs0mg"},{"bike_id":"14d4deb9-ad14-46ec-a0e8-7734c3874f01","system_id":"levelo_inurba_marseille","lat":43.28006,"lon":5.40002,"is_reserved":false,"is_disabled":false,"rental_uris":{"android":"levelo://app?vid=14d4deb9-ad14-46ec-a0e8-7734c3874f01","ios":"levelo://app?vid=14d4deb9-ad14-46ec-a0e8-7734c3874f01"},"vehicle_type_id":"4","last_reported":1770406229,"current_range_meters":6400,"station_id":"ce4bho92rcd13ifvqh4g","pricing_plan_id":"cebpf4jnsgd1na2vs0mg"},{"bike_id":"3b84882a-13e5-4f61-b437-796d46cf32a5","system_id":"levelo_inurba_marseille","lat":43.29229,"lon":5.36066,"is_reserved":false,"is_disabled":false,"rental_uris":{"android":"levelo://app?vid=3b84882a-13e5-4f61-b437-796d46cf32a5","ios":"levelo://app?vid=3b84882a-13e5-4f61-b437-796d46cf32a5"},"vehicle_type_id":"4","last_reported":1770406229,"current_range_meters":6400,"station_id":"ce4bhbh2rcd13ifvqeqg","pricing_plan_id":"cebpf4jnsgd1na2vs0mg"},{"bike_id":"c033ea1f-2cce-4de4-80b5-0f4247c745ee","system_id":"levelo_inurba_marseille","lat":43.29273,"lon":5.38452,"is_reserved":false,"is_disabled":false,"rental_uris":{"android":"levelo://app?vid=c033ea1f-2cce-4de4-80b5-0f4247c745ee","ios":"levelo://app?vid=c033ea1f-2cce-4de4-80b5-0f4247c745ee"},"vehicle_type_id":"4","last_reported":1770406229,"current_range_meters":6400,"station_id":"ce4bh692rcd13ifvqea0","pricing_plan_id":"cebpf4jnsgd1na2vs0mg"},{"bike_id":"15250344-db40-4db8-b0c9-19733389e808","system_id":"levelo_inurba_marseille","lat":43.27389,"lon":5.3627,"is_reserved":false,"is_disabled":false,"rental_uris":{"android":"levelo://app?vid=15250344-db40-4db8-b0c9-19733389e808","ios":"levelo://app?vid=15250344-db40-4db8-b0c9-19733389e808"},"vehicle_type_id":"4","last_reported":1770406229,"current_range_meters":6400,"station_id":"ce4bhbh2rcd13ifvqeo0","pricing_plan_id":"cebpf4jnsgd1na2vs0mg"},{"bike_id":"3b986d99-7b42-471f-993a-11fde28f3c51","system_id":"levelo_inurba_marseille","lat":43.22577,"lon":5.41618,"is_reserved":false,"is_disabled":false,"rental_uris":{"android":"levelo://app?vid=3b986d99-7b42-471f-993a-11fde28f3c51","ios":"levelo://app?vid=3b986d99-7b42-471f-993a-11fde28f3c51"},"vehicle_type_id":"4","last_reported":1770406229,"current_range_meters":6400,"station_id":"st_d2o4gvlbi1j2169b742g","pricing_plan_id":"cebpf4jnsgd1na2vs0mg"},{"bike_id":"735c03e4-d6e6-49f6-81ba-72ebbef9fba5","system_id":"levelo_inurba_marseille","lat":43.25075,"lon":5.39495,"is_reserved":false,"is_disabled":false,"rental_uris":{"android":"levelo://app?vid=735c03e4-d6e6-49f6-81ba-72ebbef9fba5","ios":"levelo://app?vid=735c03e4-d6e6-49f6-81ba-72ebbef9fba5"},"vehicle_type_id":"4","last_reported":1770406229,"current_range_meters":6400,"station_id":"ce4bhm12rcd13ifvqgkg","pricing_plan_id":"cebpf4jnsgd1na2vs0mg"},{"bike_id":"31187af9-c44b-44b9-86e6-81ceb0eb435c","system_id":"levelo_inurba_marseille","lat":43.27074,"lon":5.42283,"is_reserved":false,"is_disabled":false,"rental_uris":{"android":"levelo://app?vid=31187af9-c44b-44b9-86e6-81ceb0eb435c","ios":"levelo://app?vid=31187af9-c44b-44b9-86e6-81ceb0eb435c"},"vehicle_type_id":"4","last_reported":1770406229,"current_range_meters":6400,"station_id":"ce4bhk92rcd13ifvqgb0","pricing_plan_id":"cebpf4jnsgd1na2vs0mg"},{"bike_id":"5dea93d7-2b00-4423-81b5-9e768d42cacb","system_id":"levelo_inurba_marseille","lat":43.29024,"lon":5.38636,"is_reserved":false,"is_disabled":true,"rental_uris":{"android":"levelo://app?vid=5dea93d7-2b00-4423-81b5-9e768d42cacb","ios":"levelo://app?vid=5dea93d7-2b00-4423-81b5-9e768d42cacb"},"vehicle_type_id":"4","last_reported":1770406229,"current_range_meters":6800,"station_id":"ce4bh4p2rcd13ifvqe0g","pricing_plan_id":"cebpf4jnsgd1na2vs0mg"},{"bike_id":"7ad5b625-433d-40d1-85a2-020d0fac3afe","system_id":"levelo_inurba_marseille","lat":43.29911,"lon":5.37541,"is_reserved":false,"is_disabled":false,"rental_uris":{"android":"levelo://app?vid=7ad5b625-433d-40d1-85a2-020d0fac3afe","ios":"levelo://app?vid=7ad5b625-433d-40d1-85a2-020d0fac3afe"},"vehicle_type_id":"4","last_reported":1770406229,"current_range_meters":6800,"station_id":"","pricing_plan_id":"cebpf4jnsgd1na2vs0mg"},{"bike_id":"978d4176-ee2f-4cac-b739-e147a27c26bd","system_id":"levelo_inurba_marseille","lat":43.2917,"lon":5.371525,"is_reserved":false,"is_disabled":false,"rental_uris":{"android":"levelo://app?vid=978d4176-ee2f-4cac-b739-e147a27c26bd","ios":"levelo://app?vid=978d4176-ee2f-4cac-b739-e147a27c26bd"},"vehicle_type_id":"4","last_reported":1770406229,"current_range_meters":6800,"station_id":"ce4bha92rcd13ifvqeh0","pricing_plan_id":"cebpf4jnsgd1na2vs0mg"},{"bike_id":"1dd6f4de-6a4a-4fa1-b038-a756a6cbac96","system_id":"levelo_inurba_marseille","lat":43.2319,"lon":5.35532,"is_reserved":false,"is_disabled":false,"rental_uris":{"android":"levelo://app?vid=1dd6f4de-6a4a-4fa1-b038-a756a6cbac96","ios":"levelo://app?vid=1dd6f4de-6a4a-4fa1-b038-a756a6cbac96"},"vehicle_type_id":"4","last_reported":1770406229,"current_range_meters":6800,"station_id":"ce4bhu92rcd13ifvqi70","pricing_plan_id":"cebpf4jnsgd1na2vs0mg"},{"bike_id":"964b1027-147a-4524-9755-36fea34c2830","system_id":"levelo_inurba_marseille","lat":43.26776,"lon":5.39433,"is_reserved":false,"is_disabled":false,"rental_uris":{"android":"levelo://app?vid=964b1027-147a-4524-9755-36fea34c2830","ios":"levelo://app?vid=964b1027-147a-4524-9755-36fea34c2830"},"vehicle_type_id":"4","last_reported":1770406229,"current_range_meters":6800,"station_id":"ce4bhh12rcd13ifvqfg0","pricing_plan_id":"cebpf4jnsgd1na2vs0mg"},{"bike_id":"5a187460-8a66-4724-b912-3168a0d26c4b","system_id":"levelo_inurba_marseille","lat":43.309386,"lon":5.401349,"is_reserved":false,"is_disabled":false,"rental_uris":{"android":"levelo://app?vid=5a187460-8a66-4724-b912-3168a0d26c4b","ios":"levelo://app?vid=5a187460-8a66-4724-b912-3168a0d26c4b"},"vehicle_type_id":"4","last_reported":1770406229,"current_range_meters":6800,"station_id":"ce4bgvp2rcd13ifvqct0","pricing_plan_id":"cebpf4jnsgd1na2vs0mg"},{"bike_id":"b19876aa-88fe-4c52-b3cb-d5483e8e513e","system_id":"levelo_inurba_marseille","lat":43.31164,"lon":5.38679,"is_reserved":false,"is_disabled":false,"rental_uris":{"android":"levelo://app?vid=b19876aa-88fe-4c52-b3cb-d5483e8e513e","ios":"levelo://app?vid=b19876aa-88fe-4c52-b3cb-d5483e8e513e"},"vehicle_type_id":"4","last_reported":1770406229,"current_range_meters":6800,"station_id":"ce4bgv12rcd13ifvqcp0","pricing_plan_id":"cebpf4jnsgd1na2vs0mg"},{"bike_id":"58d16e10-99ba-424c-8d7d-f247b1c47cde","system_id":"levelo_inurba_marseille","lat":43.28973,"lon":5.38362,"is_reserved":false,"is_disabled":false,"rental_uris":{"android":"levelo://app?vid=58d16e10-99ba-424c-8d7d-f247b1c47cde","ios":"levelo://app?vid=58d16e10-99ba-424c-8d7d-f247b1c47cde"},"vehicle_type_id":"4","last_reported":1770406229,"current_range_meters":6800,"station_id":"","pricing_plan_id":"cebpf4jnsgd1na2vs0mg"},{"bike_id":"66d4f07c-f956-4ddd-856d-10dc3144e894","system_id":"levelo_inurba_marseille","lat":43.3052,"lon":5.3669,"is_reserved":false,"is_disabled":false,"rental_uris":{"android":"levelo://app?vid=66d4f07c-f956-4ddd-856d-10dc3144e894","ios":"levelo://app?vid=66d4f07c-f956-4ddd-856d-10dc3144e894"},"vehicle_type_id":"4","last_reported":1770406229,"current_range_meters":6800,"station_id":"ce4bgrp2rcd13ifvqc9g","pricing_plan_id":"cebpf4jnsgd1na2vs0mg"},{"bike_id":"1996eb86-7076-4765-a554-4eb6129634a7","system_id":"levelo_inurba_marseille","lat":43.279936,"lon":5.40007,"is_reserved":false,"is_disabled":false,"rental_uris":{"android":"levelo://app?vid=1996eb86-7076-4765-a554-4eb6129634a7","ios":"levelo://app?vid=1996eb86-7076-4765-a554-4eb6129634a7"},"vehicle_type_id":"4","last_reported":1770406229,"current_range_meters":6800,"station_id":"ce4bho92rcd13ifvqh4g","pricing_plan_id":"cebpf4jnsgd1na2vs0mg"},{"bike_id":"f086e6a6-7f96-42e4-96de-367ff3edfb33","system_id":"levelo_inurba_marseille","lat":43.25572,"lon":5.38263,"is_reserved":false,"is_disabled":false,"rental_uris":{"android":"levelo://app?vid=f086e6a6-7f96-42e4-96de-367ff3edfb33","ios":"levelo://app?vid=f086e6a6-7f96-42e4-96de-367ff3edfb33"},"vehicle_type_id":"4","last_reported":1770406229,"current_range_meters":6800,"station_id":"ce4bhih2rcd13ifvqfs0","pricing_plan_id":"cebpf4jnsgd1na2vs0mg"},{"bike_id":"c6782d87-e485-4a2c-b62b-9a52105fb0ef","system_id":"levelo_inurba_marseille","lat":43.250146,"lon":5.389137,"is_reserved":false,"is_disabled":false,"rental_uris":{"android":"levelo://app?vid=c6782d87-e485-4a2c-b62b-9a52105fb0ef","ios":"levelo://app?vid=c6782d87-e485-4a2c-b62b-9a52105fb0ef"},"vehicle_type_id":"4","last_reported":1770406229,"current_range_meters":6800,"station_id":"ce4bhgp2rcd13ifvqfd0","pricing_plan_id":"cebpf4jnsgd1na2vs0mg"},{"bike_id":"5f73df9e-39aa-4410-9779-59728c52cec1","system_id":"levelo_inurba_marseille","lat":43.29538,"lon":5.38546,"is_reserved":false,"is_disabled":false,"rental_uris":{"android":"levelo://app?vid=5f73df9e-39aa-4410-9779-59728c52cec1","ios":"levelo://app?vid=5f73df9e-39aa-4410-9779-59728c52cec1"},"vehicle_type_id":"4","last_reported":1770406229,"current_range_meters":6800,"station_id":"ce4bgih2rcd13ifvqba0","pricing_plan_id":"cebpf4jnsgd1na2vs0mg"},{"bike_id":"a519b213-5c5f-4d43-a6ca-587ac5348f84","system_id":"levelo_inurba_marseille","lat":43.29538,"lon":5.38546,"is_reserved":false,"is_disabled":false,"rental_uris":{"android":"levelo://app?vid=a519b213-5c5f-4d43-a6ca-587ac5348f84","ios":"levelo://app?vid=a519b213-5c5f-4d43-a6ca-587ac5348f84"},"vehicle_type_id":"4","last_reported":1770406229,"current_range_meters":6800,"station_id":"ce4bgih2rcd13ifvqba0","pricing_plan_id":"cebpf4jnsgd1na2vs0mg"},{"bike_id":"fe3ad832-425c-4bd3-bc4a-30bb55887307","system_id":"levelo_inurba_marseille","lat":43.30599,"lon":5.37211,"is_reserved":false,"is_disabled":false,"rental_uris":{"android":"levelo://app?vid=fe3ad832-425c-4bd3-bc4a-30bb55887307","ios":"levelo://app?vid=fe3ad832-425c-4bd3-bc4a-30bb55887307"},"vehicle_type_id":"4","last_reported":1770406229,"current_range_meters":6800,"station_id":"ce4bgqh2rcd13ifvqc4g","pricing_plan_id":"cebpf4jnsgd1na2vs0mg"},{"bike_id":"10b7ff92-38aa-45c7-b400-0f651a01b259","system_id":"levelo_inurba_marseille","lat":43.29988,"lon":5.38499,"is_reserved":false,"is_disabled":false,"rental_uris":{"android":"levelo://app?vid=10b7ff92-38aa-45c7-b400-0f651a01b259","ios":"levelo://app?vid=10b7ff92-38aa-45c7-b400-0f651a01b259"},"vehicle_type_id":"4","last_reported":1770406229,"current_range_meters":6800,"station_id":"ce4bgj92rcd13ifvqbd0","pricing_plan_id":"cebpf4jnsgd1na2vs0mg"},{"bike_id":"6465cfcd-711b-441e-8b87-6b4237088812","system_id":"levelo_inurba_marseille","lat":43.25821,"lon":5.39432,"is_reserved":false,"is_disabled":false,"rental_uris":{"android":"levelo://app?vid=6465cfcd-711b-441e-8b87-6b4237088812","ios":"levelo://app?vid=6465cfcd-711b-441e-8b87-6b4237088812"},"vehicle_type_id":"4","last_reported":1770406229,"current_range_meters":6800,"station_id":"ce4bhip2rcd13ifvqft0","pricing_plan_id":"cebpf4jnsgd1na2vs0mg"},{"bike_id":"17e35f94-3fec-45dd-96a9-f18976bedc1b","system_id":"levelo_inurba_marseille","lat":43.27939,"lon":5.41036,"is_reserved":false,"is_disabled":false,"rental_uris":{"android":"levelo://app?vid=17e35f94-3fec-45dd-96a9-f18976bedc1b","ios":"levelo://app?vid=17e35f94-3fec-45dd-96a9-f18976bedc1b"},"vehicle_type_id":"4","last_reported":1770406229,"current_range_meters":6800,"station_id":"ce4bhnp2rcd13ifvqh0g","pricing_plan_id":"cebpf4jnsgd1na2vs0mg"},{"bike_id":"e92c52a2-6b35-4ea9-9829-1eb9501c85fc","system_id":"levelo_inurba_marseille","lat":43.31164,"lon":5.393625,"is_reserved":false,"is_disabled":false,"rental_uris":{"android":"levelo://app?vid=e92c52a2-6b35-4ea9-9829-1eb9501c85fc","ios":"levelo://app?vid=e92c52a2-6b35-4ea9-9829-1eb9501c85fc"},"vehicle_type_id":"4","last_reported":1770406229,"current_range_meters":6800,"station_id":"","pricing_plan_id":"cebpf4jnsgd1na2vs0mg"},{"bike_id":"7913ecf5-95cc-46db-ad1a-05494005e5b1","system_id":"levelo_inurba_marseille","lat":43.25692,"lon":5.41654,"is_reserved":false,"is_disabled":false,"rental_uris":{"android":"levelo://app?vid=7913ecf5-95cc-46db-ad1a-05494005e5b1","ios":"levelo://app?vid=7913ecf5-95cc-46db-ad1a-05494005e5b1"},"vehicle_type_id":"4","last_reported":1770406229,"current_range_meters":6800,"station_id":"","pricing_plan_id":"cebpf4jnsgd1na2vs0mg"},{"bike_id":"968a1130-5ab4-497c-b27f-cb61b0d6cd96","system_id":"levelo_inurba_marseille","lat":43.30274,"lon":5.37749,"is_reserved":false,"is_disabled":false,"rental_uris":{"android":"levelo://app?vid=968a1130-5ab4-497c-b27f-cb61b0d6cd96","ios":"levelo://app?vid=968a1130-5ab4-497c-b27f-cb61b0d6cd96"},"vehicle_type_id":"4","last_reported":1770406229,"current_range_meters":6800,"station_id":"ce4bguh2rcd13ifvqcj0","pricing_plan_id":"cebpf4jnsgd1na2vs0mg"},{"bike_id":"7fe289d7-a40a-48e6-b71a-ee8c544f0123","system_id":"levelo_inurba_marseille","lat":43.262,"lon":5.37921,"is_reserved":false,"is_disabled":false,"rental_uris":{"android":"levelo://app?vid=7fe289d7-a40a-48e6-b71a-ee8c544f0123","ios":"levelo://app?vid=7fe289d7-a40a-48e6-b71a-ee8c544f0123"},"vehicle_type_id":"4","last_reported":1770406229,"current_range_meters":6800,"station_id":"ce4bhjp2rcd13ifvqg90","pricing_plan_id":"cebpf4jnsgd1na2vs0mg"},{"bike_id":"d20cc4ea-4583-4d20-a475-b964a706cc2e","system_id":"levelo_inurba_marseille","lat":43.29201,"lon":5.35795,"is_reserved":false,"is_disabled":false,"rental_uris":{"android":"levelo://app?vid=d20cc4ea-4583-4d20-a475-b964a706cc2e","ios":"levelo://app?vid=d20cc4ea-4583-4d20-a475-b964a706cc2e"},"vehicle_type_id":"4","last_reported":1770406229,"current_range_meters":6800,"station_id":"ce4bhb12rcd13ifvqel0","pricing_plan_id":"cebpf4jnsgd1na2vs0mg"},{"bike_id":"ade30b85-cb9d-426c-ac57-5ae905bb80d8","system_id":"levelo_inurba_marseille","lat":43.3033,"lon":5.40433,"is_reserved":false,"is_disabled":false,"rental_uris":{"android":"levelo://app?vid=ade30b85-cb9d-426c-ac57-5ae905bb80d8","ios":"levelo://app?vid=ade30b85-cb9d-426c-ac57-5ae905bb80d8"},"vehicle_type_id":"4","last_reported":1770406229,"current_range_meters":7200,"station_id":"ce4bh012rcd13ifvqd10","pricing_plan_id":"cebpf4jnsgd1na2vs0mg"},{"bike_id":"b24d9fcb-40c7-4016-8998-c4860e8f06c3","system_id":"levelo_inurba_marseille","lat":43.24071,"lon":5.37764,"is_reserved":false,"is_disabled":false,"rental_uris":{"android":"levelo://app?vid=b24d9fcb-40c7-4016-8998-c4860e8f06c3","ios":"levelo://app?vid=b24d9fcb-40c7-4016-8998-c4860e8f06c3"},"vehicle_type_id":"4","last_reported":1770406229,"current_range_meters":7200,"station_id":"ce4bhnp2rcd13ifvqgvg","pricing_plan_id":"cebpf4jnsgd1na2vs0mg"},{"bike_id":"379685d2-9e90-4f9b-bb24-a80a4545550e","system_id":"levelo_inurba_marseille","lat":43.29825,"lon":5.44069,"is_reserved":false,"is_disabled":false,"rental_uris":{"android":"levelo://app?vid=379685d2-9e90-4f9b-bb24-a80a4545550e","ios":"levelo://app?vid=379685d2-9e90-4f9b-bb24-a80a4545550e"},"vehicle_type_id":"4","last_reported":1770406229,"current_range_meters":7200,"station_id":"st_d3jp68qikq2c7381ktn0","pricing_plan_id":"cebpf4jnsgd1na2vs0mg"},{"bike_id":"fb5d4fc4-ba2c-4de8-9431-a182cb2708ee","system_id":"levelo_inurba_marseille","lat":43.23965,"lon":5.366257,"is_reserved":false,"is_disabled":false,"rental_uris":{"android":"levelo://app?vid=fb5d4fc4-ba2c-4de8-9431-a182cb2708ee","ios":"levelo://app?vid=fb5d4fc4-ba2c-4de8-9431-a182cb2708ee"},"vehicle_type_id":"4","last_reported":1770406229,"current_range_meters":7200,"station_id":"ce4bhi12rcd13ifvqfp0","pricing_plan_id":"cebpf4jnsgd1na2vs0mg"},{"bike_id":"4022598c-6605-421d-929f-d80b4ad79dcf","system_id":"levelo_inurba_marseille","lat":43.246687,"lon":5.381492,"is_reserved":false,"is_disabled":false,"rental_uris":{"android":"levelo://app?vid=4022598c-6605-421d-929f-d80b4ad79dcf","ios":"levelo://app?vid=4022598c-6605-421d-929f-d80b4ad79dcf"},"vehicle_type_id":"4","last_reported":1770406229,"current_range_meters":7200,"station_id":"ce4bhih2rcd13ifvqfr0","pricing_plan_id":"cebpf4jnsgd1na2vs0mg"},{"bike_id":"142a21c2-9a29-466a-92f6-5ab3ecc5b60d","system_id":"levelo_inurba_marseille","lat":43.23792,"lon":5.36655,"is_reserved":false,"is_disabled":false,"rental_uris":{"android":"levelo://app?vid=142a21c2-9a29-466a-92f6-5ab3ecc5b60d","ios":"levelo://app?vid=142a21c2-9a29-466a-92f6-5ab3ecc5b60d"},"vehicle_type_id":"4","last_reported":1770406229,"current_range_meters":7200,"station_id":"st_d3nk18o9ro0c73en2l3g","pricing_plan_id":"cebpf4jnsgd1na2vs0mg"},{"bike_id":"dd437957-0aff-4547-95a7-4714be39c933","system_id":"levelo_inurba_marseille","lat":43.28814,"lon":5.38927,"is_reserved":false,"is_disabled":false,"rental_uris":{"android":"levelo://app?vid=dd437957-0aff-4547-95a7-4714be39c933","ios":"levelo://app?vid=dd437957-0aff-4547-95a7-4714be39c933"},"vehicle_type_id":"4","last_reported":1770406229,"current_range_meters":7200,"station_id":"ce4bho92rcd13ifvqh4g","pricing_plan_id":"cebpf4jnsgd1na2vs0mg"},{"bike_id":"34ce4070-8bf1-4f6c-90db-46999ff058d6","system_id":"levelo_inurba_marseille","lat":43.29259,"lon":5.3844,"is_reserved":false,"is_disabled":false,"rental_uris":{"android":"levelo://app?vid=34ce4070-8bf1-4f6c-90db-46999ff058d6","ios":"levelo://app?vid=34ce4070-8bf1-4f6c-90db-46999ff058d6"},"vehicle_type_id":"4","last_reported":1770406229,"current_range_meters":7200,"station_id":"ce4bh692rcd13ifvqea0","pricing_plan_id":"cebpf4jnsgd1na2vs0mg"},{"bike_id":"f0d45e46-9d23-4329-92a4-e4ddc618e990","system_id":"levelo_inurba_marseille","lat":43.22927,"lon":5.35375,"is_reserved":false,"is_disabled":false,"rental_uris":{"android":"levelo://app?vid=f0d45e46-9d23-4329-92a4-e4ddc618e990","ios":"levelo://app?vid=f0d45e46-9d23-4329-92a4-e4ddc618e990"},"vehicle_type_id":"4","last_reported":1770406229,"current_range_meters":7200,"station_id":"cpo3532slgdg3j2ikp40","pricing_plan_id":"cebpf4jnsgd1na2vs0mg"},{"bike_id":"4ad61516-4665-4f29-91ba-005525b2194a","system_id":"levelo_inurba_marseille","lat":43.33027,"lon":5.39048,"is_reserved":false,"is_disabled":false,"rental_uris":{"android":"levelo://app?vid=4ad61516-4665-4f29-91ba-005525b2194a","ios":"levelo://app?vid=4ad61516-4665-4f29-91ba-005525b2194a"},"vehicle_type_id":"4","last_reported":1770406229,"current_range_meters":7200,"station_id":"ce4bhr92rcd13ifvqhrg","pricing_plan_id":"cebpf4jnsgd1na2vs0mg"},{"bike_id":"bd830301-856a-4947-bbd9-0c9aae46f8c5","system_id":"levelo_inurba_marseille","lat":43.28883,"lon":5.42529,"is_reserved":false,"is_disabled":false,"rental_uris":{"android":"levelo://app?vid=bd830301-856a-4947-bbd9-0c9aae46f8c5","ios":"levelo://app?vid=bd830301-856a-4947-bbd9-0c9aae46f8c5"},"vehicle_type_id":"4","last_reported":1770406229,"current_range_meters":7200,"station_id":"st_d3b462108ojc7389ooeg","pricing_plan_id":"cebpf4jnsgd1na2vs0mg"},{"bike_id":"4f7d41e3-f9d8-470b-99d3-80dafc768b1e","system_id":"levelo_inurba_marseille","lat":43.290049,"lon":5.356144,"is_reserved":false,"is_disabled":false,"rental_uris":{"android":"levelo://app?vid=4f7d41e3-f9d8-470b-99d3-80dafc768b1e","ios":"levelo://app?vid=4f7d41e3-f9d8-470b-99d3-80dafc768b1e"},"vehicle_type_id":"4","last_reported":1770406229,"current_range_meters":7200,"station_id":"ce4bhb92rcd13ifvqen0","pricing_plan_id":"cebpf4jnsgd1na2vs0mg"},{"bike_id":"28038112-793b-4a40-88c6-af51aa30dc6d","system_id":"levelo_inurba_marseille","lat":43.23199,"lon":5.35547,"is_reserved":false,"is_disabled":false,"rental_uris":{"android":"levelo://app?vid=28038112-793b-4a40-88c6-af51aa30dc6d","ios":"levelo://app?vid=28038112-793b-4a40-88c6-af51aa30dc6d"},"vehicle_type_id":"4","last_reported":1770406229,"current_range_meters":7200,"station_id":"ce4bhu92rcd13ifvqi70","pricing_plan_id":"cebpf4jnsgd1na2vs0mg"},{"bike_id":"6809d87e-7242-4772-8526-bd1f9e441f49","system_id":"levelo_inurba_marseille","lat":43.33785,"lon":5.39199,"is_reserved":false,"is_disabled":false,"rental_uris":{"android":"levelo://app?vid=6809d87e-7242-4772-8526-bd1f9e441f49","ios":"levelo://app?vid=6809d87e-7242-4772-8526-bd1f9e441f49"},"vehicle_type_id":"4","last_reported":1770406229,"current_range_meters":7200,"station_id":"","pricing_plan_id":"cebpf4jnsgd1na2vs0mg"},{"bike_id":"3b0243a7-d2ce-4bc6-9d86-9216cc3b3554","system_id":"levelo_inurba_marseille","lat":43.24836,"lon":5.37434,"is_reserved":false,"is_disabled":false,"rental_uris":{"android":"levelo://app?vid=3b0243a7-d2ce-4bc6-9d86-9216cc3b3554","ios":"levelo://app?vid=3b0243a7-d2ce-4bc6-9d86-9216cc3b3554"},"vehicle_type_id":"4","last_reported":1770406229,"current_range_meters":7200,"station_id":"","pricing_plan_id":"cebpf4jnsgd1na2vs0mg"},{"bike_id":"1eb6ac42-7cee-4455-a886-41479bd5acf7","system_id":"levelo_inurba_marseille","lat":43.29975,"lon":5.38479,"is_reserved":false,"is_disabled":false,"rental_uris":{"android":"levelo://app?vid=1eb6ac42-7cee-4455-a886-41479bd5acf7","ios":"levelo://app?vid=1eb6ac42-7cee-4455-a886-41479bd5acf7"},"vehicle_type_id":"4","last_reported":1770406229,"current_range_meters":7200,"station_id":"ce4bgj92rcd13ifvqbd0","pricing_plan_id":"cebpf4jnsgd1na2vs0mg"},{"bike_id":"4573242e-b265-4331-b57e-964b4ba015f2","system_id":"levelo_inurba_marseille","lat":43.262101,"lon":5.374441,"is_reserved":false,"is_disabled":false,"rental_uris":{"android":"levelo://app?vid=4573242e-b265-4331-b57e-964b4ba015f2","ios":"levelo://app?vid=4573242e-b265-4331-b57e-964b4ba015f2"},"vehicle_type_id":"4","last_reported":1770406229,"current_range_meters":7200,"station_id":"ce4bhgp2rcd13ifvqfc0","pricing_plan_id":"cebpf4jnsgd1na2vs0mg"},{"bike_id":"9679c4e1-2229-42c5-8d72-1b2432948479","system_id":"levelo_inurba_marseille","lat":43.299643,"lon":5.384951,"is_reserved":false,"is_disabled":false,"rental_uris":{"android":"levelo://app?vid=9679c4e1-2229-42c5-8d72-1b2432948479","ios":"levelo://app?vid=9679c4e1-2229-42c5-8d72-1b2432948479"},"vehicle_type_id":"4","last_reported":1770406229,"current_range_meters":7200,"station_id":"","pricing_plan_id":"cebpf4jnsgd1na2vs0mg"},{"bike_id":"672b134f-d425-4285-b816-94973da2e069","system_id":"levelo_inurba_marseille","lat":43.29976,"lon":5.38488,"is_reserved":false,"is_disabled":false,"rental_uris":{"android":"levelo://app?vid=672b134f-d425-4285-b816-94973da2e069","ios":"levelo://app?vid=672b134f-d425-4285-b816-94973da2e069"},"vehicle_type_id":"4","last_reported":1770406229,"current_range_meters":7200,"station_id":"ce4bgj92rcd13ifvqbd0","pricing_plan_id":"cebpf4jnsgd1na2vs0mg"},{"bike_id":"08a72aa8-a8bf-4ea7-b4e8-ca689c129c6a","system_id":"levelo_inurba_marseille","lat":43.29801,"lon":5.40401,"is_reserved":false,"is_disabled":false,"rental_uris":{"android":"levelo://app?vid=08a72aa8-a8bf-4ea7-b4e8-ca689c129c6a","ios":"levelo://app?vid=08a72aa8-a8bf-4ea7-b4e8-ca689c129c6a"},"vehicle_type_id":"4","last_reported":1770406229,"current_range_meters":7200,"station_id":"ce4bh112rcd13ifvqd90","pricing_plan_id":"cebpf4jnsgd1na2vs0mg"},{"bike_id":"60ca853d-c339-47db-9e29-6229ff2c1b26","system_id":"levelo_inurba_marseille","lat":43.256758,"lon":5.410484,"is_reserved":false,"is_disabled":false,"rental_uris":{"android":"levelo://app?vid=60ca853d-c339-47db-9e29-6229ff2c1b26","ios":"levelo://app?vid=60ca853d-c339-47db-9e29-6229ff2c1b26"},"vehicle_type_id":"4","last_reported":1770406229,"current_range_meters":7200,"station_id":"ce4bhkp2rcd13ifvqgd0","pricing_plan_id":"cebpf4jnsgd1na2vs0mg"},{"bike_id":"24ed0f82-01d0-4d75-81e6-b7cc42aa5836","system_id":"levelo_inurba_marseille","lat":43.29004,"lon":5.35615,"is_reserved":false,"is_disabled":false,"rental_uris":{"android":"levelo://app?vid=24ed0f82-01d0-4d75-81e6-b7cc42aa5836","ios":"levelo://app?vid=24ed0f82-01d0-4d75-81e6-b7cc42aa5836"},"vehicle_type_id":"4","last_reported":1770406229,"current_range_meters":7200,"station_id":"ce4bhb92rcd13ifvqen0","pricing_plan_id":"cebpf4jnsgd1na2vs0mg"},{"bike_id":"9d3ed593-094a-4bdc-bc1c-c8fe762a539a","system_id":"levelo_inurba_marseille","lat":43.28927,"lon":5.38391,"is_reserved":false,"is_disabled":false,"rental_uris":{"android":"levelo://app?vid=9d3ed593-094a-4bdc-bc1c-c8fe762a539a","ios":"levelo://app?vid=9d3ed593-094a-4bdc-bc1c-c8fe762a539a"},"vehicle_type_id":"4","last_reported":1770406229,"current_range_meters":7200,"station_id":"ce4bh612rcd13ifvqe6g","pricing_plan_id":"cebpf4jnsgd1na2vs0mg"},{"bike_id":"fb70c546-2c71-4eab-8987-e71f757386fe","system_id":"levelo_inurba_marseille","lat":43.295324,"lon":5.385404,"is_reserved":false,"is_disabled":false,"rental_uris":{"android":"levelo://app?vid=fb70c546-2c71-4eab-8987-e71f757386fe","ios":"levelo://app?vid=fb70c546-2c71-4eab-8987-e71f757386fe"},"vehicle_type_id":"4","last_reported":1770406229,"current_range_meters":7200,"station_id":"ce4bgih2rcd13ifvqba0","pricing_plan_id":"cebpf4jnsgd1na2vs0mg"},{"bike_id":"66ac484a-7a0c-4d64-bcea-4a863811aeba","system_id":"levelo_inurba_marseille","lat":43.29896,"lon":5.43675,"is_reserved":false,"is_disabled":true,"rental_uris":{"android":"levelo://app?vid=66ac484a-7a0c-4d64-bcea-4a863811aeba","ios":"levelo://app?vid=66ac484a-7a0c-4d64-bcea-4a863811aeba"},"vehicle_type_id":"4","last_reported":1770406229,"current_range_meters":7200,"station_id":"ce4bhpp2rcd13ifvqhfg","pricing_plan_id":"cebpf4jnsgd1na2vs0mg"},{"bike_id":"04dfd052-6f1b-4d4d-9bca-fcd27e281a60","system_id":"levelo_inurba_marseille","lat":43.29539,"lon":5.3855,"is_reserved":false,"is_disabled":false,"rental_uris":{"android":"levelo://app?vid=04dfd052-6f1b-4d4d-9bca-fcd27e281a60","ios":"levelo://app?vid=04dfd052-6f1b-4d4d-9bca-fcd27e281a60"},"vehicle_type_id":"4","last_reported":1770406229,"current_range_meters":7200,"station_id":"ce4bgih2rcd13ifvqba0","pricing_plan_id":"cebpf4jnsgd1na2vs0mg"},{"bike_id":"efbe792f-1198-41b4-852b-4a2323f0ee78","system_id":"levelo_inurba_marseille","lat":43.24998,"lon":5.38957,"is_reserved":false,"is_disabled":false,"rental_uris":{"android":"levelo://app?vid=efbe792f-1198-41b4-852b-4a2323f0ee78","ios":"levelo://app?vid=efbe792f-1198-41b4-852b-4a2323f0ee78"},"vehicle_type_id":"4","last_reported":1770406229,"current_range_meters":7200,"station_id":"ce4bhgp2rcd13ifvqfd0","pricing_plan_id":"cebpf4jnsgd1na2vs0mg"},{"bike_id":"58b75f9a-9109-4ad4-bff3-1796073efe92","system_id":"levelo_inurba_marseille","lat":43.24393,"lon":5.3706,"is_reserved":false,"is_disabled":false,"rental_uris":{"android":"levelo://app?vid=58b75f9a-9109-4ad4-bff3-1796073efe92","ios":"levelo://app?vid=58b75f9a-9109-4ad4-bff3-1796073efe92"},"vehicle_type_id":"4","last_reported":1770406229,"current_range_meters":8000,"station_id":"ce4bhhh2rcd13ifvqfk0","pricing_plan_id":"cebpf4jnsgd1na2vs0mg"},{"bike_id":"f80af0fc-206a-4ad4-9ce1-df5c67b5af5a","system_id":"levelo_inurba_marseille","lat":43.291686,"lon":5.371518,"is_reserved":false,"is_disabled":false,"rental_uris":{"android":"levelo://app?vid=f80af0fc-206a-4ad4-9ce1-df5c67b5af5a","ios":"levelo://app?vid=f80af0fc-206a-4ad4-9ce1-df5c67b5af5a"},"vehicle_type_id":"4","last_reported":1770406229,"current_range_meters":8000,"station_id":"ce4bha92rcd13ifvqeh0","pricing_plan_id":"cebpf4jnsgd1na2vs0mg"},{"bike_id":"d13cc862-d1fc-41d4-be4b-efb44f920c08","system_id":"levelo_inurba_marseille","lat":43.309539,"lon":5.390353,"is_reserved":false,"is_disabled":false,"rental_uris":{"android":"levelo://app?vid=d13cc862-d1fc-41d4-be4b-efb44f920c08","ios":"levelo://app?vid=d13cc862-d1fc-41d4-be4b-efb44f920c08"},"vehicle_type_id":"4","last_reported":1770406229,"current_range_meters":8000,"station_id":"ce4bgup2rcd13ifvqco0","pricing_plan_id":"cebpf4jnsgd1na2vs0mg"},{"bike_id":"5e9d7b89-ee8f-42bc-87df-a5a05a1d1db8","system_id":"levelo_inurba_marseille","lat":43.24278,"lon":5.39676,"is_reserved":false,"is_disabled":false,"rental_uris":{"android":"levelo://app?vid=5e9d7b89-ee8f-42bc-87df-a5a05a1d1db8","ios":"levelo://app?vid=5e9d7b89-ee8f-42bc-87df-a5a05a1d1db8"},"vehicle_type_id":"4","last_reported":1770406229,"current_range_meters":8000,"station_id":"","pricing_plan_id":"cebpf4jnsgd1na2vs0mg"},{"bike_id":"c6e25874-c646-4223-9fb1-4a2c71cb2059","system_id":"levelo_inurba_marseille","lat":43.31213,"lon":5.36857,"is_reserved":false,"is_disabled":false,"rental_uris":{"android":"levelo://app?vid=c6e25874-c646-4223-9fb1-4a2c71cb2059","ios":"levelo://app?vid=c6e25874-c646-4223-9fb1-4a2c71cb2059"},"vehicle_type_id":"4","last_reported":1770406229,"current_range_meters":8000,"station_id":"ce4bgl92rcd13ifvqbq0","pricing_plan_id":"cebpf4jnsgd1na2vs0mg"},{"bike_id":"f29fecf0-b15e-47f7-92d4-df26aee4f522","system_id":"levelo_inurba_marseille","lat":43.30005,"lon":5.38471,"is_reserved":false,"is_disabled":false,"rental_uris":{"android":"levelo://app?vid=f29fecf0-b15e-47f7-92d4-df26aee4f522","ios":"levelo://app?vid=f29fecf0-b15e-47f7-92d4-df26aee4f522"},"vehicle_type_id":"4","last_reported":1770406229,"current_range_meters":8000,"station_id":"ce4bgj92rcd13ifvqbd0","pricing_plan_id":"cebpf4jnsgd1na2vs0mg"},{"bike_id":"34b0e592-5a12-495a-a81b-b7a9e8350c09","system_id":"levelo_inurba_marseille","lat":43.28428,"lon":5.3499,"is_reserved":false,"is_disabled":false,"rental_uris":{"android":"levelo://app?vid=34b0e592-5a12-495a-a81b-b7a9e8350c09","ios":"levelo://app?vid=34b0e592-5a12-495a-a81b-b7a9e8350c09"},"vehicle_type_id":"4","last_reported":1770406229,"current_range_meters":8000,"station_id":"ce4bhbh2rcd13ifvqepg","pricing_plan_id":"cebpf4jnsgd1na2vs0mg"},{"bike_id":"acbb60c2-51a9-4e85-bf28-51e234add295","system_id":"levelo_inurba_marseille","lat":43.28683,"lon":5.38663,"is_reserved":false,"is_disabled":false,"rental_uris":{"android":"levelo://app?vid=acbb60c2-51a9-4e85-bf28-51e234add295","ios":"levelo://app?vid=acbb60c2-51a9-4e85-bf28-51e234add295"},"vehicle_type_id":"4","last_reported":1770406229,"current_range_meters":8000,"station_id":"ce4bh492rcd13ifvqdug","pricing_plan_id":"cebpf4jnsgd1na2vs0mg"},{"bike_id":"6c826141-83c8-450c-bb51-8b69baba0bf3","system_id":"levelo_inurba_marseille","lat":43.26695,"lon":5.40813,"is_reserved":false,"is_disabled":false,"rental_uris":{"android":"levelo://app?vid=6c826141-83c8-450c-bb51-8b69baba0bf3","ios":"levelo://app?vid=6c826141-83c8-450c-bb51-8b69baba0bf3"},"vehicle_type_id":"4","last_reported":1770406229,"current_range_meters":8000,"station_id":"","pricing_plan_id":"cebpf4jnsgd1na2vs0mg"},{"bike_id":"dbabb026-dc29-4d6b-8fea-01f85f327c05","system_id":"levelo_inurba_marseille","lat":43.292753,"lon":5.368477,"is_reserved":false,"is_disabled":false,"rental_uris":{"android":"levelo://app?vid=dbabb026-dc29-4d6b-8fea-01f85f327c05","ios":"levelo://app?vid=dbabb026-dc29-4d6b-8fea-01f85f327c05"},"vehicle_type_id":"4","last_reported":1770406229,"current_range_meters":8000,"station_id":"ce4bhbp2rcd13ifvqesg","pricing_plan_id":"cebpf4jnsgd1na2vs0mg"},{"bike_id":"5514686a-b854-4db2-9779-3506b95972b1","system_id":"levelo_inurba_marseille","lat":43.23139,"lon":5.43763,"is_reserved":false,"is_disabled":false,"rental_uris":{"android":"levelo://app?vid=5514686a-b854-4db2-9779-3506b95972b1","ios":"levelo://app?vid=5514686a-b854-4db2-9779-3506b95972b1"},"vehicle_type_id":"4","last_reported":1770406229,"current_range_meters":8000,"station_id":"","pricing_plan_id":"cebpf4jnsgd1na2vs0mg"},{"bike_id":"675ec433-caf3-4517-83f9-75769cd57605","system_id":"levelo_inurba_marseille","lat":43.32104,"lon":5.36773,"is_reserved":false,"is_disabled":false,"rental_uris":{"android":"levelo://app?vid=675ec433-caf3-4517-83f9-75769cd57605","ios":"levelo://app?vid=675ec433-caf3-4517-83f9-75769cd57605"},"vehicle_type_id":"4","last_reported":1770406229,"current_range_meters":8000,"station_id":"ce4bhrh2rcd13ifvqhug","pricing_plan_id":"cebpf4jnsgd1na2vs0mg"},{"bike_id":"adfdce83-5160-451d-875c-3c98397c50af","system_id":"levelo_inurba_marseille","lat":43.284764,"lon":5.39075,"is_reserved":false,"is_disabled":false,"rental_uris":{"android":"levelo://app?vid=adfdce83-5160-451d-875c-3c98397c50af","ios":"levelo://app?vid=adfdce83-5160-451d-875c-3c98397c50af"},"vehicle_type_id":"4","last_reported":1770406229,"current_range_meters":8000,"station_id":"","pricing_plan_id":"cebpf4jnsgd1na2vs0mg"},{"bike_id":"98b89a63-b3c9-4748-8f93-0ccb5ab9560d","system_id":"levelo_inurba_marseille","lat":43.26568,"lon":5.37317,"is_reserved":false,"is_disabled":false,"rental_uris":{"android":"levelo://app?vid=98b89a63-b3c9-4748-8f93-0ccb5ab9560d","ios":"levelo://app?vid=98b89a63-b3c9-4748-8f93-0ccb5ab9560d"},"vehicle_type_id":"4","last_reported":1770406229,"current_range_meters":8000,"station_id":"ce4bhg12rcd13ifvqf70","pricing_plan_id":"cebpf4jnsgd1na2vs0mg"},{"bike_id":"c57155d9-12b5-4d63-b1ef-c288098818cd","system_id":"levelo_inurba_marseille","lat":43.29528,"lon":5.39021,"is_reserved":false,"is_disabled":false,"rental_uris":{"android":"levelo://app?vid=c57155d9-12b5-4d63-b1ef-c288098818cd","ios":"levelo://app?vid=c57155d9-12b5-4d63-b1ef-c288098818cd"},"vehicle_type_id":"4","last_reported":1770406229,"current_range_meters":8000,"station_id":"ce4bh3p2rcd13ifvqdp0","pricing_plan_id":"cebpf4jnsgd1na2vs0mg"},{"bike_id":"731447a5-bd31-4208-aa2f-c0645944403a","system_id":"levelo_inurba_marseille","lat":43.24629,"lon":5.43132,"is_reserved":false,"is_disabled":false,"rental_uris":{"android":"levelo://app?vid=731447a5-bd31-4208-aa2f-c0645944403a","ios":"levelo://app?vid=731447a5-bd31-4208-aa2f-c0645944403a"},"vehicle_type_id":"4","last_reported":1770406229,"current_range_meters":8000,"station_id":"st_d2m6c4gdas8pm72e190g","pricing_plan_id":"cebpf4jnsgd1na2vs0mg"},{"bike_id":"6bc9ce40-5574-4061-9301-63ba9a63352d","system_id":"levelo_inurba_marseille","lat":43.29797,"lon":5.38088,"is_reserved":false,"is_disabled":false,"rental_uris":{"android":"levelo://app?vid=6bc9ce40-5574-4061-9301-63ba9a63352d","ios":"levelo://app?vid=6bc9ce40-5574-4061-9301-63ba9a63352d"},"vehicle_type_id":"4","last_reported":1770406229,"current_range_meters":8000,"station_id":"ce4bgip2rcd13ifvqbb0","pricing_plan_id":"cebpf4jnsgd1na2vs0mg"},{"bike_id":"fbcf21cf-1451-4509-b24e-f9de7d4ad033","system_id":"levelo_inurba_marseille","lat":43.28485,"lon":5.38423,"is_reserved":false,"is_disabled":false,"rental_uris":{"android":"levelo://app?vid=fbcf21cf-1451-4509-b24e-f9de7d4ad033","ios":"levelo://app?vid=fbcf21cf-1451-4509-b24e-f9de7d4ad033"},"vehicle_type_id":"4","last_reported":1770406229,"current_range_meters":8000,"station_id":"ce4bh512rcd13ifvqe3g","pricing_plan_id":"cebpf4jnsgd1na2vs0mg"},{"bike_id":"651a1f03-9041-47f3-9a0b-971a8399b544","system_id":"levelo_inurba_marseille","lat":43.311884,"lon":5.387054,"is_reserved":false,"is_disabled":true,"rental_uris":{"android":"levelo://app?vid=651a1f03-9041-47f3-9a0b-971a8399b544","ios":"levelo://app?vid=651a1f03-9041-47f3-9a0b-971a8399b544"},"vehicle_type_id":"4","last_reported":1770406229,"current_range_meters":8000,"station_id":"ce4bgv12rcd13ifvqcp0","pricing_plan_id":"cebpf4jnsgd1na2vs0mg"},{"bike_id":"901dd229-8b77-439a-b67d-22b4890d43d9","system_id":"levelo_inurba_marseille","lat":43.31713,"lon":5.40476,"is_reserved":false,"is_disabled":false,"rental_uris":{"android":"levelo://app?vid=901dd229-8b77-439a-b67d-22b4890d43d9","ios":"levelo://app?vid=901dd229-8b77-439a-b67d-22b4890d43d9"},"vehicle_type_id":"4","last_reported":1770406229,"current_range_meters":8000,"station_id":"ce4bh012rcd13ifvqd00","pricing_plan_id":"cebpf4jnsgd1na2vs0mg"},{"bike_id":"f5da9401-db7e-426f-9a0f-2330a30b8658","system_id":"levelo_inurba_marseille","lat":43.24392,"lon":5.37081,"is_reserved":false,"is_disabled":true,"rental_uris":{"android":"levelo://app?vid=f5da9401-db7e-426f-9a0f-2330a30b8658","ios":"levelo://app?vid=f5da9401-db7e-426f-9a0f-2330a30b8658"},"vehicle_type_id":"4","last_reported":1770406229,"current_range_meters":8000,"station_id":"ce4bhhh2rcd13ifvqfk0","pricing_plan_id":"cebpf4jnsgd1na2vs0mg"},{"bike_id":"0c612691-dc2e-4b8c-a828-2dec429e0473","system_id":"levelo_inurba_marseille","lat":43.22947,"lon":5.35358,"is_reserved":false,"is_disabled":false,"rental_uris":{"android":"levelo://app?vid=0c612691-dc2e-4b8c-a828-2dec429e0473","ios":"levelo://app?vid=0c612691-dc2e-4b8c-a828-2dec429e0473"},"vehicle_type_id":"4","last_reported":1770406229,"current_range_meters":8000,"station_id":"cpo3532slgdg3j2ikp40","pricing_plan_id":"cebpf4jnsgd1na2vs0mg"},{"bike_id":"b53a7d14-2e51-421a-988d-b8ea59b98909","system_id":"levelo_inurba_marseille","lat":43.273807,"lon":5.362557,"is_reserved":false,"is_disabled":false,"rental_uris":{"android":"levelo://app?vid=b53a7d14-2e51-421a-988d-b8ea59b98909","ios":"levelo://app?vid=b53a7d14-2e51-421a-988d-b8ea59b98909"},"vehicle_type_id":"4","last_reported":1770406229,"current_range_meters":8000,"station_id":"ce4bhbh2rcd13ifvqeo0","pricing_plan_id":"cebpf4jnsgd1na2vs0mg"},{"bike_id":"2645d702-9780-4155-954e-9ff091dcb668","system_id":"levelo_inurba_marseille","lat":43.24388,"lon":5.37051,"is_reserved":false,"is_disabled":false,"rental_uris":{"android":"levelo://app?vid=2645d702-9780-4155-954e-9ff091dcb668","ios":"levelo://app?vid=2645d702-9780-4155-954e-9ff091dcb668"},"vehicle_type_id":"4","last_reported":1770406229,"current_range_meters":8000,"station_id":"ce4bhhh2rcd13ifvqfk0","pricing_plan_id":"cebpf4jnsgd1na2vs0mg"},{"bike_id":"2c93a42a-4cfa-4bcc-ae5d-919aa911761b","system_id":"levelo_inurba_marseille","lat":43.29282,"lon":5.3845,"is_reserved":false,"is_disabled":false,"rental_uris":{"android":"levelo://app?vid=2c93a42a-4cfa-4bcc-ae5d-919aa911761b","ios":"levelo://app?vid=2c93a42a-4cfa-4bcc-ae5d-919aa911761b"},"vehicle_type_id":"4","last_reported":1770406229,"current_range_meters":8000,"station_id":"ce4bh692rcd13ifvqea0","pricing_plan_id":"cebpf4jnsgd1na2vs0mg"},{"bike_id":"b7fc64ee-0a1a-4639-af60-46d03219d45f","system_id":"levelo_inurba_marseille","lat":43.23191,"lon":5.35555,"is_reserved":false,"is_disabled":false,"rental_uris":{"android":"levelo://app?vid=b7fc64ee-0a1a-4639-af60-46d03219d45f","ios":"levelo://app?vid=b7fc64ee-0a1a-4639-af60-46d03219d45f"},"vehicle_type_id":"4","last_reported":1770406229,"current_range_meters":8000,"station_id":"ce4bhu92rcd13ifvqi70","pricing_plan_id":"cebpf4jnsgd1na2vs0mg"},{"bike_id":"92c1614d-7b83-4042-bed0-c2053b99249a","system_id":"levelo_inurba_marseille","lat":43.30154,"lon":5.38074,"is_reserved":false,"is_disabled":false,"rental_uris":{"android":"levelo://app?vid=92c1614d-7b83-4042-bed0-c2053b99249a","ios":"levelo://app?vid=92c1614d-7b83-4042-bed0-c2053b99249a"},"vehicle_type_id":"4","last_reported":1770406229,"current_range_meters":8000,"station_id":"ce4bgjp2rcd13ifvqbh0","pricing_plan_id":"cebpf4jnsgd1na2vs0mg"},{"bike_id":"879ded2d-c1ba-486f-aec2-51583bb0fd6d","system_id":"levelo_inurba_marseille","lat":43.31276,"lon":5.40174,"is_reserved":false,"is_disabled":false,"rental_uris":{"android":"levelo://app?vid=879ded2d-c1ba-486f-aec2-51583bb0fd6d","ios":"levelo://app?vid=879ded2d-c1ba-486f-aec2-51583bb0fd6d"},"vehicle_type_id":"4","last_reported":1770406229,"current_range_meters":8000,"station_id":"ce4bh092rcd13ifvqd30","pricing_plan_id":"cebpf4jnsgd1na2vs0mg"},{"bike_id":"c65ee838-9f7d-4c27-9ebf-55f173988146","system_id":"levelo_inurba_marseille","lat":43.24821,"lon":5.37466,"is_reserved":false,"is_disabled":false,"rental_uris":{"android":"levelo://app?vid=c65ee838-9f7d-4c27-9ebf-55f173988146","ios":"levelo://app?vid=c65ee838-9f7d-4c27-9ebf-55f173988146"},"vehicle_type_id":"4","last_reported":1770406229,"current_range_meters":8000,"station_id":"ce4bhgh2rcd13ifvqfb0","pricing_plan_id":"cebpf4jnsgd1na2vs0mg"},{"bike_id":"fc0559cd-bbc1-4443-84bf-92d98b4c0233","system_id":"levelo_inurba_marseille","lat":43.3021,"lon":5.39462,"is_reserved":false,"is_disabled":false,"rental_uris":{"android":"levelo://app?vid=fc0559cd-bbc1-4443-84bf-92d98b4c0233","ios":"levelo://app?vid=fc0559cd-bbc1-4443-84bf-92d98b4c0233"},"vehicle_type_id":"4","last_reported":1770406229,"current_range_meters":8000,"station_id":"ce4bh0p2rcd13ifvqd70","pricing_plan_id":"cebpf4jnsgd1na2vs0mg"},{"bike_id":"29554745-e0e5-4276-b587-71d331cae345","system_id":"levelo_inurba_marseille","lat":43.29543,"lon":5.39027,"is_reserved":false,"is_disabled":true,"rental_uris":{"android":"levelo://app?vid=29554745-e0e5-4276-b587-71d331cae345","ios":"levelo://app?vid=29554745-e0e5-4276-b587-71d331cae345"},"vehicle_type_id":"4","last_reported":1770406229,"current_range_meters":8000,"station_id":"ce4bh3p2rcd13ifvqdp0","pricing_plan_id":"cebpf4jnsgd1na2vs0mg"},{"bike_id":"ecde9447-d2d8-4eed-be47-e39468252cc3","system_id":"levelo_inurba_marseille","lat":43.29778,"lon":5.38048,"is_reserved":false,"is_disabled":false,"rental_uris":{"android":"levelo://app?vid=ecde9447-d2d8-4eed-be47-e39468252cc3","ios":"levelo://app?vid=ecde9447-d2d8-4eed-be47-e39468252cc3"},"vehicle_type_id":"4","last_reported":1770406229,"current_range_meters":8000,"station_id":"","pricing_plan_id":"cebpf4jnsgd1na2vs0mg"},{"bike_id":"bfd25251-539f-4af2-b210-9dd24d5d09be","system_id":"levelo_inurba_marseille","lat":43.28706,"lon":5.39985,"is_reserved":false,"is_disabled":false,"rental_uris":{"android":"levelo://app?vid=bfd25251-539f-4af2-b210-9dd24d5d09be","ios":"levelo://app?vid=bfd25251-539f-4af2-b210-9dd24d5d09be"},"vehicle_type_id":"4","last_reported":1770406229,"current_range_meters":8000,"station_id":"ce4bho92rcd13ifvqh3g","pricing_plan_id":"cebpf4jnsgd1na2vs0mg"},{"bike_id":"6740a58b-d996-4f25-9f16-4a4253d7ea38","system_id":"levelo_inurba_marseille","lat":43.299622,"lon":5.384888,"is_reserved":false,"is_disabled":false,"rental_uris":{"android":"levelo://app?vid=6740a58b-d996-4f25-9f16-4a4253d7ea38","ios":"levelo://app?vid=6740a58b-d996-4f25-9f16-4a4253d7ea38"},"vehicle_type_id":"4","last_reported":1770406229,"current_range_meters":8000,"station_id":"ce4bha92rcd13ifvqeh0","pricing_plan_id":"cebpf4jnsgd1na2vs0mg"},{"bike_id":"071937d3-6d39-428f-88a6-e135b0e61119","system_id":"levelo_inurba_marseille","lat":43.31066,"lon":5.37167,"is_reserved":false,"is_disabled":false,"rental_uris":{"android":"levelo://app?vid=071937d3-6d39-428f-88a6-e135b0e61119","ios":"levelo://app?vid=071937d3-6d39-428f-88a6-e135b0e61119"},"vehicle_type_id":"4","last_reported":1770406229,"current_range_meters":8400,"station_id":"st_d4kl2rp97mjs73e7tdfg","pricing_plan_id":"cebpf4jnsgd1na2vs0mg"},{"bike_id":"15a3e00a-e415-4bc9-8ff7-ed96b5a8614d","system_id":"levelo_inurba_marseille","lat":43.302088,"lon":5.382622,"is_reserved":false,"is_disabled":false,"rental_uris":{"android":"levelo://app?vid=15a3e00a-e415-4bc9-8ff7-ed96b5a8614d","ios":"levelo://app?vid=15a3e00a-e415-4bc9-8ff7-ed96b5a8614d"},"vehicle_type_id":"4","last_reported":1770406229,"current_range_meters":8400,"station_id":"","pricing_plan_id":"cebpf4jnsgd1na2vs0mg"},{"bike_id":"3e8f969f-f505-4cac-b453-01240a0ec1b8","system_id":"levelo_inurba_marseille","lat":43.33025,"lon":5.39028,"is_reserved":false,"is_disabled":false,"rental_uris":{"android":"levelo://app?vid=3e8f969f-f505-4cac-b453-01240a0ec1b8","ios":"levelo://app?vid=3e8f969f-f505-4cac-b453-01240a0ec1b8"},"vehicle_type_id":"4","last_reported":1770406229,"current_range_meters":8400,"station_id":"ce4bhr92rcd13ifvqhrg","pricing_plan_id":"cebpf4jnsgd1na2vs0mg"},{"bike_id":"439bd22f-6eba-4666-a4b9-6453714a90c3","system_id":"levelo_inurba_marseille","lat":43.305365,"lon":5.36707,"is_reserved":false,"is_disabled":false,"rental_uris":{"android":"levelo://app?vid=439bd22f-6eba-4666-a4b9-6453714a90c3","ios":"levelo://app?vid=439bd22f-6eba-4666-a4b9-6453714a90c3"},"vehicle_type_id":"4","last_reported":1770406229,"current_range_meters":8400,"station_id":"ce4bgrp2rcd13ifvqc9g","pricing_plan_id":"cebpf4jnsgd1na2vs0mg"},{"bike_id":"9d9ada7e-8bfb-4948-82e1-5314689a8b39","system_id":"levelo_inurba_marseille","lat":43.33548,"lon":5.37484,"is_reserved":false,"is_disabled":false,"rental_uris":{"android":"levelo://app?vid=9d9ada7e-8bfb-4948-82e1-5314689a8b39","ios":"levelo://app?vid=9d9ada7e-8bfb-4948-82e1-5314689a8b39"},"vehicle_type_id":"4","last_reported":1770406229,"current_range_meters":8400,"station_id":"st_d46tts09ee8s73dlu43g","pricing_plan_id":"cebpf4jnsgd1na2vs0mg"},{"bike_id":"a5faf7a6-7f2f-419a-b628-e8f939b70083","system_id":"levelo_inurba_marseille","lat":43.28531,"lon":5.44103,"is_reserved":false,"is_disabled":false,"rental_uris":{"android":"levelo://app?vid=a5faf7a6-7f2f-419a-b628-e8f939b70083","ios":"levelo://app?vid=a5faf7a6-7f2f-419a-b628-e8f939b70083"},"vehicle_type_id":"4","last_reported":1770406229,"current_range_meters":8400,"station_id":"st_d3j3df2ikq2c7380ej80","pricing_plan_id":"cebpf4jnsgd1na2vs0mg"},{"bike_id":"f9f20417-aa53-44b8-9a40-4c1958fef358","system_id":"levelo_inurba_marseille","lat":43.29979,"lon":5.3852,"is_reserved":false,"is_disabled":false,"rental_uris":{"android":"levelo://app?vid=f9f20417-aa53-44b8-9a40-4c1958fef358","ios":"levelo://app?vid=f9f20417-aa53-44b8-9a40-4c1958fef358"},"vehicle_type_id":"4","last_reported":1770406229,"current_range_meters":8400,"station_id":"ce4bgj92rcd13ifvqbd0","pricing_plan_id":"cebpf4jnsgd1na2vs0mg"},{"bike_id":"eef7d0ae-7f39-41bf-867c-8a8e8d2a2015","system_id":"levelo_inurba_marseille","lat":43.30428,"lon":5.39753,"is_reserved":false,"is_disabled":true,"rental_uris":{"android":"levelo://app?vid=eef7d0ae-7f39-41bf-867c-8a8e8d2a2015","ios":"levelo://app?vid=eef7d0ae-7f39-41bf-867c-8a8e8d2a2015"},"vehicle_type_id":"4","last_reported":1770406229,"current_range_meters":8400,"station_id":"ce4bh092rcd13ifvqd20","pricing_plan_id":"cebpf4jnsgd1na2vs0mg"},{"bike_id":"b0c3d441-fa9a-4312-858a-e0f5eaf46fd5","system_id":"levelo_inurba_marseille","lat":43.32126,"lon":5.36767,"is_reserved":false,"is_disabled":false,"rental_uris":{"android":"levelo://app?vid=b0c3d441-fa9a-4312-858a-e0f5eaf46fd5","ios":"levelo://app?vid=b0c3d441-fa9a-4312-858a-e0f5eaf46fd5"},"vehicle_type_id":"4","last_reported":1770406229,"current_range_meters":8400,"station_id":"ce4bhrh2rcd13ifvqhug","pricing_plan_id":"cebpf4jnsgd1na2vs0mg"},{"bike_id":"9e15bb93-0180-4037-9736-c5dcd15ad590","system_id":"levelo_inurba_marseille","lat":43.283447,"lon":5.381017,"is_reserved":false,"is_disabled":false,"rental_uris":{"android":"levelo://app?vid=9e15bb93-0180-4037-9736-c5dcd15ad590","ios":"levelo://app?vid=9e15bb93-0180-4037-9736-c5dcd15ad590"},"vehicle_type_id":"4","last_reported":1770406229,"current_range_meters":8400,"station_id":"ce4bh412rcd13ifvqdr0","pricing_plan_id":"cebpf4jnsgd1na2vs0mg"},{"bike_id":"7e1bd1ac-a4a5-4fb0-8a98-67e48e88cd76","system_id":"levelo_inurba_marseille","lat":43.28923,"lon":5.38381,"is_reserved":false,"is_disabled":false,"rental_uris":{"android":"levelo://app?vid=7e1bd1ac-a4a5-4fb0-8a98-67e48e88cd76","ios":"levelo://app?vid=7e1bd1ac-a4a5-4fb0-8a98-67e48e88cd76"},"vehicle_type_id":"4","last_reported":1770406229,"current_range_meters":8400,"station_id":"","pricing_plan_id":"cebpf4jnsgd1na2vs0mg"},{"bike_id":"978f37f4-a5e1-4f79-bf8d-a3f4a5f281e7","system_id":"levelo_inurba_marseille","lat":43.30798,"lon":5.37653,"is_reserved":false,"is_disabled":false,"rental_uris":{"android":"levelo://app?vid=978f37f4-a5e1-4f79-bf8d-a3f4a5f281e7","ios":"levelo://app?vid=978f37f4-a5e1-4f79-bf8d-a3f4a5f281e7"},"vehicle_type_id":"4","last_reported":1770406229,"current_range_meters":8400,"station_id":"ce4bgv92rcd13ifvqcq0","pricing_plan_id":"cebpf4jnsgd1na2vs0mg"},{"bike_id":"695a138c-9117-4798-9030-e462ffee3fe5","system_id":"levelo_inurba_marseille","lat":43.24816,"lon":5.37456,"is_reserved":false,"is_disabled":false,"rental_uris":{"android":"levelo://app?vid=695a138c-9117-4798-9030-e462ffee3fe5","ios":"levelo://app?vid=695a138c-9117-4798-9030-e462ffee3fe5"},"vehicle_type_id":"4","last_reported":1770406229,"current_range_meters":8400,"station_id":"ce4bhgh2rcd13ifvqfb0","pricing_plan_id":"cebpf4jnsgd1na2vs0mg"},{"bike_id":"596e8b7d-7cb7-4bce-bed5-c069c5df7df0","system_id":"levelo_inurba_marseille","lat":43.2419,"lon":5.36387,"is_reserved":false,"is_disabled":false,"rental_uris":{"android":"levelo://app?vid=596e8b7d-7cb7-4bce-bed5-c069c5df7df0","ios":"levelo://app?vid=596e8b7d-7cb7-4bce-bed5-c069c5df7df0"},"vehicle_type_id":"4","last_reported":1770406229,"current_range_meters":8400,"station_id":"cpo36qri1sfpv3e86is0","pricing_plan_id":"cebpf4jnsgd1na2vs0mg"},{"bike_id":"1db4703c-41a5-4511-8088-731b5910a4f5","system_id":"levelo_inurba_marseille","lat":43.3132,"lon":5.39706,"is_reserved":false,"is_disabled":false,"rental_uris":{"android":"levelo://app?vid=1db4703c-41a5-4511-8088-731b5910a4f5","ios":"levelo://app?vid=1db4703c-41a5-4511-8088-731b5910a4f5"},"vehicle_type_id":"4","last_reported":1770406229,"current_range_meters":8400,"station_id":"ce4bgvp2rcd13ifvqcu0","pricing_plan_id":"cebpf4jnsgd1na2vs0mg"},{"bike_id":"22a18f5a-e84b-4706-acdf-fdede8aeea20","system_id":"levelo_inurba_marseille","lat":43.25873,"lon":5.39902,"is_reserved":false,"is_disabled":false,"rental_uris":{"android":"levelo://app?vid=22a18f5a-e84b-4706-acdf-fdede8aeea20","ios":"levelo://app?vid=22a18f5a-e84b-4706-acdf-fdede8aeea20"},"vehicle_type_id":"4","last_reported":1770406229,"current_range_meters":8400,"station_id":"ce4bhl92rcd13ifvqghg","pricing_plan_id":"cebpf4jnsgd1na2vs0mg"},{"bike_id":"4e768b9d-ac09-4aa9-91e9-f26739b610c9","system_id":"levelo_inurba_marseille","lat":43.23778,"lon":5.36616,"is_reserved":false,"is_disabled":false,"rental_uris":{"android":"levelo://app?vid=4e768b9d-ac09-4aa9-91e9-f26739b610c9","ios":"levelo://app?vid=4e768b9d-ac09-4aa9-91e9-f26739b610c9"},"vehicle_type_id":"4","last_reported":1770406229,"current_range_meters":8400,"station_id":"st_d3nk18o9ro0c73en2l3g","pricing_plan_id":"cebpf4jnsgd1na2vs0mg"},{"bike_id":"4cb8922e-4cdf-46d1-8a1d-27e69136b780","system_id":"levelo_inurba_marseille","lat":43.28418,"lon":5.3752,"is_reserved":false,"is_disabled":false,"rental_uris":{"android":"levelo://app?vid=4cb8922e-4cdf-46d1-8a1d-27e69136b780","ios":"levelo://app?vid=4cb8922e-4cdf-46d1-8a1d-27e69136b780"},"vehicle_type_id":"4","last_reported":1770406229,"current_range_meters":8400,"station_id":"ce4bh412rcd13ifvqds0","pricing_plan_id":"cebpf4jnsgd1na2vs0mg"},{"bike_id":"487b15c0-55eb-459e-a616-8fbf5a10ade2","system_id":"levelo_inurba_marseille","lat":43.29606,"lon":5.38092,"is_reserved":false,"is_disabled":false,"rental_uris":{"android":"levelo://app?vid=487b15c0-55eb-459e-a616-8fbf5a10ade2","ios":"levelo://app?vid=487b15c0-55eb-459e-a616-8fbf5a10ade2"},"vehicle_type_id":"4","last_reported":1770406229,"current_range_meters":8400,"station_id":"ce4bgl12rcd13ifvqbo0","pricing_plan_id":"cebpf4jnsgd1na2vs0mg"},{"bike_id":"346787f4-b208-43b3-a13c-6d535139ef57","system_id":"levelo_inurba_marseille","lat":43.29907,"lon":5.43677,"is_reserved":false,"is_disabled":false,"rental_uris":{"android":"levelo://app?vid=346787f4-b208-43b3-a13c-6d535139ef57","ios":"levelo://app?vid=346787f4-b208-43b3-a13c-6d535139ef57"},"vehicle_type_id":"4","last_reported":1770406229,"current_range_meters":8800,"station_id":"ce4bhpp2rcd13ifvqhfg","pricing_plan_id":"cebpf4jnsgd1na2vs0mg"},{"bike_id":"a974f125-46b6-492b-a0bb-f810fede54b4","system_id":"levelo_inurba_marseille","lat":43.28944,"lon":5.36318,"is_reserved":false,"is_disabled":false,"rental_uris":{"android":"levelo://app?vid=a974f125-46b6-492b-a0bb-f810fede54b4","ios":"levelo://app?vid=a974f125-46b6-492b-a0bb-f810fede54b4"},"vehicle_type_id":"4","last_reported":1770406229,"current_range_meters":8800,"station_id":"ce4bhc92rcd13ifvqetg","pricing_plan_id":"cebpf4jnsgd1na2vs0mg"},