{"last_updated":1712329627,"ttl":30,"version":"2.2","data":{"bikes":[{"bike_id":"ec94ca94-aa32-4d96-8489-5c246f00ac5b","system_id":"levelo_inurba_marseille","lat":43.31336,"lon":5.367218,"is_reserved":false,"is_disabled":false,"rental_uris":{"android":"levelo://app?vid=ec94ca94-aa32-4d96-8489-5c246f00ac5b","ios":"levelo://app?vid=ec94ca94-aa32-4d96-8489-5c246f00ac5b"},"vehicle_type_id":"4","last_reported":1712329627,"current_range_meters":4000,"station_id":"ce4bgr92rcd13ifvqc6g","pricing_plan_id":"cebpf4jnsgd1na2vs0mg"},{"bike_id":"95234a6c-8999-4684-8def-cbd6c649cf6e","system_id":"levelo_inurba_marseille","lat":43.313491,"lon":5.367186,"is_reserved":false,"is_disabled":false,"rental_uris":{"android":"levelo://app?vid=95234a6c-8999-4684-8def-cbd6c649cf6e","ios":"levelo://app?vid=95234a6c-8999-4684-8def-cbd6c649cf6e"},"vehicle_type_id":"4","last_reported":1712329627,"current_range_meters":0,"station_id":"ce4bgr92rcd13ifvqc6g","pricing_plan_id":"cebpf4jnsgd1na2vs0mg"},{"bike_id":"8c981305-2514-4bd4-b39a-6b7e38d9b856","system_id":"levelo_inurba_marseille","lat":43.313391,"lon":5.36706,"is_reserved":false,"is_disabled":false,"rental_uris":{"android":"levelo://app?vid=8c981305-2514-4bd4-b39a-6b7e38d9b856","ios":"levelo://app?vid=8c981305-2514-4bd4-b39a-6b7e38d9b856"},"vehicle_type_id":"4","last_reported":1712329627,"current_range_meters":20400,"station_id":"ce4bgr92rcd13ifvqc6g","pricing_plan_id":"cebpf4jnsgd1na2vs0mg"},{"bike_id":"f2a798b4-0ad7-4566-9f2f-5f1796d907f3","system_id":"levelo_inurba_marseille","lat":43.313391,"lon":5.36706,"is_reserved":false,"is_disabled":false,"rental_uris":{"android":"levelo://app?vid=f2a798b4-0ad7-4566-9f2f-5f1796d907f3","ios":"levelo://app?vid=f2a798b4-0ad7-4566-9f2f-5f1796d907f3"},"vehicle_type_id":"4","last_reported":1712329627,"current_range_meters":20800,"station_id":"ce4bgr92rcd13ifvqc6g","pricing_plan_id":"cebpf4jnsgd1na2vs0mg"},{"bike_id":"d996360f-2b7a-4473-847a-09d046cc99ab","system_id":"levelo_inurba_marseille","lat":43.313577,"lon":5.367129,"is_reserved":false,"is_disabled":false,"rental_uris":{"android":"levelo://app?vid=d996360f-2b7a-4473-847a-09d046cc99ab","ios":"levelo://app?vid=d996360f-2b7a-4473-847a-09d046cc99ab"},"vehicle_type_id":"4","last_reported":1712329627,"current_range_meters":3200,"station_id":"ce4bgr92rcd13ifvqc6g","pricing_plan_id":"cebpf4jnsgd1na2vs0mg"},{"bike_id":"7eeddc7c-cb99-4b0e-9a84-ebaa61ba30e7","system_id":"levelo_inurba_marseille","lat":43.313391,"lon":5.36706,"is_reserved":false,"is_disabled":false,"rental_uris":{"android":"levelo://app?vid=7eeddc7c-cb99-4b0e-9a84-ebaa61ba30e7","ios":"levelo://app?vid=7eeddc7c-cb99-4b0e-9a84-ebaa61ba30e7"},"vehicle_type_id":"4","last_reported":1712329627,"current_range_meters":9200,"station_id":"ce4bgr92rcd13ifvqc6g","pricing_plan_id":"cebpf4jnsgd1na2vs0mg"},{"bike_id":"398a3081-fe4d-4042-8606-0208e7e00fe6","system_id":"levelo_inurba_marseille","lat":43.313391,"lon":5.36706,"is_reserved":false,"is_disabled":false,"rental_uris":{"android":"levelo://app?vid=398a3081-fe4d-4042-8606-0208e7e00fe6","ios":"levelo://app?vid=398a3081-fe4d-4042-8606-0208e7e00fe6"},"vehicle_type_id":"4","last_reported":1712329627,"current_range_meters":18000,"station_id":"ce4bgr92rcd13ifvqc6g","pricing_plan_id":"cebpf4jnsgd1na2vs0mg"},{"bike_id":"b408dba6-9051-48d3-91e6-3dfa0af7661b","system_id":"levelo_inurba_marseille","lat":43.312239,"lon":5.368562,"is_reserved":false,"is_disabled":false,"rental_uris":{"android":"levelo://app?vid=b408dba6-9051-48d3-91e6-3dfa0af7661b","ios":"levelo://app?vid=b408dba6-9051-48d3-91e6-3dfa0af7661b"},"vehicle_type_id":"4","last_reported":1712329627,"current_range_meters":0,"station_id":"ce4bgl92rcd13ifvqbq0","pricing_plan_id":"cebpf4jnsgd1na2vs0mg"},{"bike_id":"f1bfc30a-0ca3-446e-8583-3086a2c823bf","system_id":"levelo_inurba_marseille","lat":43.312239,"lon":5.368562,"is_reserved":false,"is_disabled":false,"rental_uris":{"android":"levelo://app?vid=f1bfc30a-0ca3-446e-8583-3086a2c823bf","ios":"levelo://app?vid=f1bfc30a-0ca3-446e-8583-3086a2c823bf"},"vehicle_type_id":"4","last_reported":1712329627,"current_range_meters":4400,"station_id":"ce4bgl92rcd13ifvqbq0","pricing_plan_id":"cebpf4jnsgd1na2vs0mg"},{"bike_id":"1838b2b9-30de-492e-ac3a-57a6f910615a","system_id":"levelo_inurba_marseille","lat":43.312239,"lon":5.368562,"is_reserved":false,"is_disabled":false,"rental_uris":{"android":"levelo://app?vid=1838b2b9-30de-492e-ac3a-57a6f910615a","ios":"levelo://app?vid=1838b2b9-30de-492e-ac3a-57a6f910615a"},"vehicle_type_id":"4","last_reported":1712329627,"current_range_meters":31600,"station_id":"ce4bgl92rcd13ifvqbq0","pricing_plan_id":"cebpf4jnsgd1na2vs0mg"},{"bike_id":"9ca70898-6b2f-47c5-9bb3-d2a396a5d454","system_id":"levelo_inurba_marseille","lat":43.312239,"lon":5.368562,"is_reserved":false,"is_disabled":false,"rental_uris":{"android":"levelo://app?vid=9ca70898-6b2f-47c5-9bb3-d2a396a5d454","ios":"levelo://app?vid=9ca70898-6b2f-47c5-9bb3-d2a396a5d454"},"vehicle_type_id":"4","last_reported":1712329627,"current_range_meters":31600,"station_id":"ce4bgl92rcd13ifvqbq0","pricing_plan_id":"cebpf4jnsgd1na2vs0mg"},{"bike_id":"e38acbba-aad9-48ea-8e53-a9b1b3b2af8e","system_id":"levelo_inurba_marseille","lat":43.312239,"lon":5.368562,"is_reserved":false,"is_disabled":false,"rental_uris":{"android":"levelo://app?vid=e38acbba-aad9-48ea-8e53-a9b1b3b2af8e","ios":"levelo://app?vid=e38acbba-aad9-48ea-8e53-a9b1b3b2af8e"},"vehicle_type_id":"4","last_reported":1712329627,"current_range_meters":18000,"station_id":"ce4bgl92rcd13ifvqbq0","pricing_plan_id":"cebpf4jnsgd1na2vs0mg"},{"bike_id":"a3533ced-4367-4a63-a66c-4c5f39106abd","system_id":"levelo_inurba_marseille","lat":43.312239,"lon":5.368562,"is_reserved":false,"is_disabled":false,"rental_uris":{"android":"levelo://app?vid=a3533ced-4367-4a63-a66c-4c5f39106abd","ios":"levelo://app?vid=a3533ced-4367-4a63-a66c-4c5f39106abd"},"vehicle_type_id":"4","last_reported":1712329627,"current_range_meters":31200,"station_id":"ce4bgl92rcd13ifvqbq0","pricing_plan_id":"cebpf4jnsgd1na2vs0mg"},{"bike_id":"e13b4544-1ec5-4058-9b91-2fcfd4625c70","system_id":"levelo_inurba_marseille","lat":43.312239,"lon":5.368562,"is_reserved":false,"is_disabled":false,"rental_uris":{"android":"levelo://app?vid=e13b4544-1ec5-4058-9b91-2fcfd4625c70","ios":"levelo://app?vid=e13b4544-1ec5-4058-9b91-2fcfd4625c70"},"vehicle_type_id":"4","last_reported":1712329627,"current_range_meters":15600,"station_id":"ce4bgl92rcd13ifvqbq0","pricing_plan_id":"cebpf4jnsgd1na2vs0mg"},{"bike_id":"6ffe277c-6caa-46fe-9dc4-0e2bde7344fd","system_id":"levelo_inurba_marseille","lat":43.312239,"lon":5.368562,"is_reserved":false,"is_disabled":false,"rental_uris":{"android":"levelo://app?vid=6ffe277c-6caa-46fe-9dc4-0e2bde7344fd","ios":"levelo://app?vid=6ffe277c-6caa-46fe-9dc4-0e2bde7344fd"},"vehicle_type_id":"4","last_reported":1712329627,"current_range_meters":400,"station_id":"ce4bgl92rcd13ifvqbq0","pricing_plan_id":"cebpf4jnsgd1na2vs0mg"},{"bike_id":"24e0af8c-668e-4cc6-9e28-090162555e39","system_id":"levelo_inurba_marseille","lat":43.312239,"lon":5.368562,"is_reserved":false,"is_disabled":false,"rental_uris":{"android":"levelo://app?vid=24e0af8c-668e-4cc6-9e28-090162555e39","ios":"levelo://app?vid=24e0af8c-668e-4cc6-9e28-090162555e39"},"vehicle_type_id":"4","last_reported":1712329627,"current_range_meters":8000,"station_id":"ce4bgl92rcd13ifvqbq0","pricing_plan_id":"cebpf4jnsgd1na2vs0mg"},{"bike_id":"964c09b1-acbd-4d36-a72f-38d80d33e6c8","system_id":"levelo_inurba_marseille","lat":43.312239,"lon":5.368562,"is_reserved":false,"is_disabled":false,"rental_uris":{"android":"levelo://app?vid=964c09b1-acbd-4d36-a72f-38d80d33e6c8","ios":"levelo://app?vid=964c09b1-acbd-4d36-a72f-38d80d33e6c8"},"vehicle_type_id":"4","last_reported":1712329627,"current_range_meters":4000,"station_id":"ce4bgl92rcd13ifvqbq0","pricing_plan_id":"cebpf4jnsgd1na2vs0mg"},{"bike_id":"7592cd9b-f972-4a15-9185-71dad133023b","system_id":"levelo_inurba_marseille","lat":43.312239,"lon":5.368562,"is_reserved":false,"is_disabled":false,"rental_uris":{"android":"levelo://app?vid=7592cd9b-f972-4a15-9185-71dad133023b","ios":"levelo://app?vid=7592cd9b-f972-4a15-9185-71dad133023b"},"vehicle_type_id":"4","last_reported":1712329627,"current_range_meters":12000,"station_id":"ce4bgl92rcd13ifvqbq0","pricing_plan_id":"cebpf4jnsgd1na2vs0mg"},{"bike_id":"28f16525-cde5-4dc4-814f-14db59777728","system_id":"levelo_inurba_marseille","lat":43.312239,"lon":5.368562,"is_reserved":false,"is_disabled":false,"rental_uris":{"android":"levelo://app?vid=28f16525-cde5-4dc4-814f-14db59777728","ios":"levelo://app?vid=28f16525-cde5-4dc4-814f-14db59777728"},"vehicle_type_id":"4","last_reported":1712329627,"current_range_meters":20800,"station_id":"ce4bgl92rcd13ifvqbq0","pricing_plan_id":"cebpf4jnsgd1na2vs0mg"},{"bike_id":"ce6bd348-cf12-452e-81db-4abda6ca7cb9","system_id":"levelo_inurba_marseille","lat":43.312239,"lon":5.368562,"is_reserved":false,"is_disabled":false,"rental_uris":{"android":"levelo://app?vid=ce6bd348-cf12-452e-81db-4abda6ca7cb9","ios":"levelo://app?vid=ce6bd348-cf12-452e-81db-4abda6ca7cb9"},"vehicle_type_id":"4","last_reported":1712329627,"current_range_meters":22000,"station_id":"ce4bgl92rcd13ifvqbq0","pricing_plan_id":"cebpf4jnsgd1na2vs0mg"},{"bike_id":"15e6d6ad-fa88-453f-bf8e-fdb22c634936","system_id":"levelo_inurba_marseille","lat":43.309076,"lon":5.368465,"is_reserved":false,"is_disabled":false,"rental_uris":{"android":"levelo://app?vid=15e6d6ad-fa88-453f-bf8e-fdb22c634936","ios":"levelo://app?vid=15e6d6ad-fa88-453f-bf8e-fdb22c634936"},"vehicle_type_id":"4","last_reported":1712329627,"current_range_meters":19600,"station_id":"ce4bgn92rcd13ifvqbvg","pricing_plan_id":"cebpf4jnsgd1na2vs0mg"},{"bike_id":"523000e7-dff0-498d-811c-1ed60cf00378","system_id":"levelo_inurba_marseille","lat":43.3092,"lon":5.36853,"is_reserved":false,"is_disabled":false,"rental_uris":{"android":"levelo://app?vid=523000e7-dff0-498d-811c-1ed60cf00378","ios":"levelo://app?vid=523000e7-dff0-498d-811c-1ed60cf00378"},"vehicle_type_id":"4","last_reported":1712329627,"current_range_meters":12000,"station_id":"ce4bgn92rcd13ifvqbvg","pricing_plan_id":"cebpf4jnsgd1na2vs0mg"},{"bike_id":"fd57eed4-a621-45ea-892e-893d0d82faf3","system_id":"levelo_inurba_marseille","lat":43.309076,"lon":5.368465,"is_reserved":false,"is_disabled":false,"rental_uris":{"android":"levelo://app?vid=fd57eed4-a621-45ea-892e-893d0d82faf3","ios":"levelo://app?vid=fd57eed4-a621-45ea-892e-893d0d82faf3"},"vehicle_type_id":"4","last_reported":1712329627,"current_range_meters":31600,"station_id":"ce4bgn92rcd13ifvqbvg","pricing_plan_id":"cebpf4jnsgd1na2vs0mg"},{"bike_id":"ea7ff974-d656-41bc-9658-db60a36dbd2b","system_id":"levelo_inurba_marseille","lat":43.309076,"lon":5.368465,"is_reserved":false,"is_disabled":false,"rental_uris":{"android":"levelo://app?vid=ea7ff974-d656-41bc-9658-db60a36dbd2b","ios":"levelo://app?vid=ea7ff974-d656-41bc-9658-db60a36dbd2b"},"vehicle_type_id":"4","last_reported":1712329627,"current_range_meters":19600,"station_id":"ce4bgn92rcd13ifvqbvg","pricing_plan_id":"cebpf4jnsgd1na2vs0mg"},{"bike_id":"f92e7609-c402-49c1-b740-c033fe72a389","system_id":"levelo_inurba_marseille","lat":43.309076,"lon":5.368465,"is_reserved":false,"is_disabled":false,"rental_uris":{"android":"levelo://app?vid=f92e7609-c402-49c1-b740-c033fe72a389","ios":"levelo://app?vid=f92e7609-c402-49c1-b740-c033fe72a389"},"vehicle_type_id":"4","last_reported":1712329627,"current_range_meters":20000,"station_id":"ce4bgn92rcd13ifvqbvg","pricing_plan_id":"cebpf4jnsgd1na2vs0mg"},{"bike_id":"f539eb2c-c308-43cc-9c55-d0cc81380235","system_id":"levelo_inurba_marseille","lat":43.30911,"lon":5.36855,"is_reserved":false,"is_disabled":false,"rental_uris":{"android":"levelo://app?vid=f539eb2c-c308-43cc-9c55-d0cc81380235","ios":"levelo://app?vid=f539eb2c-c308-43cc-9c55-d0cc81380235"},"vehicle_type_id":"4","last_reported":1712329627,"current_range_meters":8400,"station_id":"ce4bgn92rcd13ifvqbvg","pricing_plan_id":"cebpf4jnsgd1na2vs0mg"},{"bike_id":"c5d820da-02ce-469e-879a-b2f308c46d52","system_id":"levelo_inurba_marseille","lat":43.309076,"lon":5.368465,"is_reserved":false,"is_disabled":false,"rental_uris":{"android":"levelo://app?vid=c5d820da-02ce-469e-879a-b2f308c46d52","ios":"levelo://app?vid=c5d820da-02ce-469e-879a-b2f308c46d52"},"vehicle_type_id":"4","last_reported":1712329627,"current_range_meters":22800,"station_id":"ce4bgn92rcd13ifvqbvg","pricing_plan_id":"cebpf4jnsgd1na2vs0mg"},{"bike_id":"bdbcd4c5-6c33-4d0b-ade2-39e836023368","system_id":"levelo_inurba_marseille","lat":43.314811,"lon":5.373103,"is_reserved":false,"is_disabled":false,"rental_uris":{"android":"levelo://app?vid=bdbcd4c5-6c33-4d0b-ade2-39e836023368","ios":"levelo://app?vid=bdbcd4c5-6c33-4d0b-ade2-39e836023368"},"vehicle_type_id":"4","last_reported":1712329627,"current_range_meters":14800,"station_id":"ce4bgt12rcd13ifvqcd0","pricing_plan_id":"cebpf4jnsgd1na2vs0mg"},{"bike_id":"f1ba049c-5e2f-4f89-b424-4551cde45b07","system_id":"levelo_inurba_marseille","lat":43.314811,"lon":5.373104,"is_reserved":false,"is_disabled":false,"rental_uris":{"android":"levelo://app?vid=f1ba049c-5e2f-4f89-b424-4551cde45b07","ios":"levelo://app?vid=f1ba049c-5e2f-4f89-b424-4551cde45b07"},"vehicle_type_id":"4","last_reported":1712329627,"current_range_meters":400,"station_id":"ce4bgt12rcd13ifvqcd0","pricing_plan_id":"cebpf4jnsgd1na2vs0mg"},{"bike_id":"0d02f702-d9d4-43fe-9798-d5c4d80c7c4a","system_id":"levelo_inurba_marseille","lat":43.314811,"lon":5.373103,"is_reserved":false,"is_disabled":false,"rental_uris":{"android":"levelo://app?vid=0d02f702-d9d4-43fe-9798-d5c4d80c7c4a","ios":"levelo://app?vid=0d02f702-d9d4-43fe-9798-d5c4d80c7c4a"},"vehicle_type_id":"4","last_reported":1712329627,"current_range_meters":15200,"station_id":"ce4bgt12rcd13ifvqcd0","pricing_plan_id":"cebpf4jnsgd1na2vs0mg"},{"bike_id":"d8f67cf6-3b6a-443f-a323-061e23e3debf","system_id":"levelo_inurba_marseille","lat":43.314811,"lon":5.373104,"is_reserved":false,"is_disabled":false,"rental_uris":{"android":"levelo://app?vid=d8f67cf6-3b6a-443f-a323-061e23e3debf","ios":"levelo://app?vid=d8f67cf6-3b6a-443f-a323-061e23e3debf"},"vehicle_type_id":"4","last_reported":1712329627,"current_range_meters":14800,"station_id":"ce4bgt12rcd13ifvqcd0","pricing_plan_id":"cebpf4jnsgd1na2vs0mg"},{"bike_id":"2dfe17d4-07b3-4c68-856a-e2ddcf49f2f5","system_id":"levelo_inurba_marseille","lat":43.314811,"lon":5.373104,"is_reserved":false,"is_disabled":false,"rental_uris":{"android":"levelo://app?vid=2dfe17d4-07b3-4c68-856a-e2ddcf49f2f5","ios":"levelo://app?vid=2dfe17d4-07b3-4c68-856a-e2ddcf49f2f5"},"vehicle_type_id":"4","last_reported":1712329627,"current_range_meters":0,"station_id":"ce4bgt12rcd13ifvqcd0","pricing_plan_id":"cebpf4jnsgd1na2vs0mg"},{"bike_id":"a26ec451-223d-42ab-b187-7cb689d0f80b","system_id":"levelo_inurba_marseille","lat":43.309039,"lon":5.371797,"is_reserved":false,"is_disabled":false,"rental_uris":{"android":"levelo://app?vid=a26ec451-223d-42ab-b187-7cb689d0f80b","ios":"levelo://app?vid=a26ec451-223d-42ab-b187-7cb689d0f80b"},"vehicle_type_id":"4","last_reported":1712329627,"current_range_meters":4800,"station_id":"ce4bguh2rcd13ifvqckg","pricing_plan_id":"cebpf4jnsgd1na2vs0mg"},{"bike_id":"850f7487-1fe4-4082-8952-a41a9dbc932e","system_id":"levelo_inurba_marseille","lat":43.309039,"lon":5.371797,"is_reserved":false,"is_disabled":false,"rental_uris":{"android":"levelo://app?vid=850f7487-1fe4-4082-8952-a41a9dbc932e","ios":"levelo://app?vid=850f7487-1fe4-4082-8952-a41a9dbc932e"},"vehicle_type_id":"4","last_reported":1712329627,"current_range_meters":31600,"station_id":"ce4bguh2rcd13ifvqckg","pricing_plan_id":"cebpf4jnsgd1na2vs0mg"},{"bike_id":"ef4404f5-4d78-4673-b780-f47b8cf33330","system_id":"levelo_inurba_marseille","lat":43.309034,"lon":5.371783,"is_reserved":false,"is_disabled":false,"rental_uris":{"android":"levelo://app?vid=ef4404f5-4d78-4673-b780-f47b8cf33330","ios":"levelo://app?vid=ef4404f5-4d78-4673-b780-f47b8cf33330"},"vehicle_type_id":"4","last_reported":1712329627,"current_range_meters":2000,"station_id":"ce4bguh2rcd13ifvqckg","pricing_plan_id":"cebpf4jnsgd1na2vs0mg"},{"bike_id":"ad11641b-0164-47c9-882f-e5221d411b90","system_id":"levelo_inurba_marseille","lat":43.3089,"lon":5.37206,"is_reserved":false,"is_disabled":false,"rental_uris":{"android":"levelo://app?vid=ad11641b-0164-47c9-882f-e5221d411b90","ios":"levelo://app?vid=ad11641b-0164-47c9-882f-e5221d411b90"},"vehicle_type_id":"4","last_reported":1712329627,"current_range_meters":12000,"station_id":"ce4bho92rcd13ifvqh4g","pricing_plan_id":"cebpf4jnsgd1na2vs0mg"},{"bike_id":"a426677e-ee95-48cc-9513-bbe55f2a6e42","system_id":"levelo_inurba_marseille","lat":43.30537,"lon":5.367345,"is_reserved":false,"is_disabled":false,"rental_uris":{"android":"levelo://app?vid=a426677e-ee95-48cc-9513-bbe55f2a6e42","ios":"levelo://app?vid=a426677e-ee95-48cc-9513-bbe55f2a6e42"},"vehicle_type_id":"4","last_reported":1712329627,"current_range_meters":31600,"station_id":"ce4bgrp2rcd13ifvqc9g","pricing_plan_id":"cebpf4jnsgd1na2vs0mg"},{"bike_id":"7a322616-6719-4d22-b5db-9f8bc5d391bf","system_id":"levelo_inurba_marseille","lat":43.305712,"lon":5.365641,"is_reserved":false,"is_disabled":false,"rental_uris":{"android":"levelo://app?vid=7a322616-6719-4d22-b5db-9f8bc5d391bf","ios":"levelo://app?vid=7a322616-6719-4d22-b5db-9f8bc5d391bf"},"vehicle_type_id":"4","last_reported":1712329627,"current_range_meters":400,"station_id":"ce4bgs12rcd13ifvqcag","pricing_plan_id":"cebpf4jnsgd1na2vs0mg"},{"bike_id":"49c6c80b-a632-42c2-bb69-c9df84841e85","system_id":"levelo_inurba_marseille","lat":43.305527,"lon":5.365263,"is_reserved":false,"is_disabled":false,"rental_uris":{"android":"levelo://app?vid=49c6c80b-a632-42c2-bb69-c9df84841e85","ios":"levelo://app?vid=49c6c80b-a632-42c2-bb69-c9df84841e85"},"vehicle_type_id":"4","last_reported":1712329627,"current_range_meters":3200,"station_id":"ce4bgs12rcd13ifvqcag","pricing_plan_id":"cebpf4jnsgd1na2vs0mg"},{"bike_id":"db1613ff-a81e-4f04-aff3-54fcf8c4b972","system_id":"levelo_inurba_marseille","lat":43.314811,"lon":5.373104,"is_reserved":false,"is_disabled":false,"rental_uris":{"android":"levelo://app?vid=db1613ff-a81e-4f04-aff3-54fcf8c4b972","ios":"levelo://app?vid=db1613ff-a81e-4f04-aff3-54fcf8c4b972"},"vehicle_type_id":"4","last_reported":1712329627,"current_range_meters":8000,"station_id":"ce4bgt12rcd13ifvqcd0","pricing_plan_id":"cebpf4jnsgd1na2vs0mg"},{"bike_id":"64b21bbb-d196-4a04-843c-90151e6c558d","system_id":"levelo_inurba_marseille","lat":43.30537,"lon":5.367345,"is_reserved":false,"is_disabled":false,"rental_uris":{"android":"levelo://app?vid=64b21bbb-d196-4a04-843c-90151e6c558d","ios":"levelo://app?vid=64b21bbb-d196-4a04-843c-90151e6c558d"},"vehicle_type_id":"4","last_reported":1712329627,"current_range_meters":2800,"station_id":"ce4bgrp2rcd13ifvqc9g","pricing_plan_id":"cebpf4jnsgd1na2vs0mg"},{"bike_id":"e8a2921f-54f0-42a6-b7f5-1e0d19c1a940","system_id":"levelo_inurba_marseille","lat":43.311722,"lon":5.387247,"is_reserved":false,"is_disabled":false,"rental_uris":{"android":"levelo://app?vid=e8a2921f-54f0-42a6-b7f5-1e0d19c1a940","ios":"levelo://app?vid=e8a2921f-54f0-42a6-b7f5-1e0d19c1a940"},"vehicle_type_id":"4","last_reported":1712329627,"current_range_meters":0,"station_id":"ce4bgv12rcd13ifvqcp0","pricing_plan_id":"cebpf4jnsgd1na2vs0mg"},{"bike_id":"23e4da91-c113-4e64-8687-8b751eca07e8","system_id":"levelo_inurba_marseille","lat":43.305368,"lon":5.367343,"is_reserved":false,"is_disabled":false,"rental_uris":{"android":"levelo://app?vid=23e4da91-c113-4e64-8687-8b751eca07e8","ios":"levelo://app?vid=23e4da91-c113-4e64-8687-8b751eca07e8"},"vehicle_type_id":"4","last_reported":1712329627,"current_range_meters":2000,"station_id":"ce4bgrp2rcd13ifvqc9g","pricing_plan_id":"cebpf4jnsgd1na2vs0mg"},{"bike_id":"692b0927-6fca-4daf-b40b-045688690b25","system_id":"levelo_inurba_marseille","lat":43.311125,"lon":5.377624,"is_reserved":false,"is_disabled":false,"rental_uris":{"android":"levelo://app?vid=692b0927-6fca-4daf-b40b-045688690b25","ios":"levelo://app?vid=692b0927-6fca-4daf-b40b-045688690b25"},"vehicle_type_id":"4","last_reported":1712329627,"current_range_meters":11600,"station_id":"ce4bgt92rcd13ifvqcg0","pricing_plan_id":"cebpf4jnsgd1na2vs0mg"},{"bike_id":"13da459d-204d-4ac8-b239-99ca02fe67e5","system_id":"levelo_inurba_marseille","lat":43.290104,"lon":5.356111,"is_reserved":false,"is_disabled":false,"rental_uris":{"android":"levelo://app?vid=13da459d-204d-4ac8-b239-99ca02fe67e5","ios":"levelo://app?vid=13da459d-204d-4ac8-b239-99ca02fe67e5"},"vehicle_type_id":"4","last_reported":1712329627,"current_range_meters":1600,"station_id":"ce4bhb92rcd13ifvqen0","pricing_plan_id":"cebpf4jnsgd1na2vs0mg"},{"bike_id":"798981fa-b51e-4d38-9638-9cb28a93532f","system_id":"levelo_inurba_marseille","lat":43.311125,"lon":5.377624,"is_reserved":false,"is_disabled":false,"rental_uris":{"android":"levelo://app?vid=798981fa-b51e-4d38-9638-9cb28a93532f","ios":"levelo://app?vid=798981fa-b51e-4d38-9638-9cb28a93532f"},"vehicle_type_id":"4","last_reported":1712329627,"current_range_meters":3200,"station_id":"ce4bgt92rcd13ifvqcg0","pricing_plan_id":"cebpf4jnsgd1na2vs0mg"},{"bike_id":"9f3ccb41-493f-4ec4-964f-aa7e034ce393","system_id":"levelo_inurba_marseille","lat":43.311125,"lon":5.377624,"is_reserved":false,"is_disabled":false,"rental_uris":{"android":"levelo://app?vid=9f3ccb41-493f-4ec4-964f-aa7e034ce393","ios":"levelo://app?vid=9f3ccb41-493f-4ec4-964f-aa7e034ce393"},"vehicle_type_id":"4","last_reported":1712329627,"current_range_meters":400,"station_id":"ce4bgt92rcd13ifvqcg0","pricing_plan_id":"cebpf4jnsgd1na2vs0mg"},{"bike_id":"a0576e41-33cf-40a9-906c-92ad25d7712b","system_id":"levelo_inurba_marseille","lat":43.307945,"lon":5.376487,"is_reserved":false,"is_disabled":false,"rental_uris":{"android":"levelo://app?vid=a0576e41-33cf-40a9-906c-92ad25d7712b","ios":"levelo://app?vid=a0576e41-33cf-40a9-906c-92ad25d7712b"},"vehicle_type_id":"4","last_reported":1712329627,"current_range_meters":4400,"station_id":"ce4bgv92rcd13ifvqcq0","pricing_plan_id":"cebpf4jnsgd1na2vs0mg"},{"bike_id":"bbfed310-f5ca-41c8-bf3a-f83cd6959697","system_id":"levelo_inurba_marseille","lat":43.313254,"lon":5.37881,"is_reserved":false,"is_disabled":false,"rental_uris":{"android":"levelo://app?vid=bbfed310-f5ca-41c8-bf3a-f83cd6959697","ios":"levelo://app?vid=bbfed310-f5ca-41c8-bf3a-f83cd6959697"},"vehicle_type_id":"4","last_reported":1712329627,"current_range_meters":4800,"station_id":"","pricing_plan_id":"cebpf4jnsgd1na2vs0mg"},{"bike_id":"538c02de-05b0-424e-8d40-87f24b26eb0e","system_id":"levelo_inurba_marseille","lat":43.317075,"lon":5.377367,"is_reserved":false,"is_disabled":false,"rental_uris":{"android":"levelo://app?vid=538c02de-05b0-424e-8d40-87f24b26eb0e","ios":"levelo://app?vid=538c02de-05b0-424e-8d40-87f24b26eb0e"},"vehicle_type_id":"4","last_reported":1712329627,"current_range_meters":9600,"station_id":"ce4bgth2rcd13ifvqch0","pricing_plan_id":"cebpf4jnsgd1na2vs0mg"},{"bike_id":"116e8dc3-e840-4513-84a1-0c9494c42119","system_id":"levelo_inurba_marseille","lat":43.30315,"lon":5.36902,"is_reserved":false,"is_disabled":false,"rental_uris":{"android":"levelo://app?vid=116e8dc3-e840-4513-84a1-0c9494c42119","ios":"levelo://app?vid=116e8dc3-e840-4513-84a1-0c9494c42119"},"vehicle_type_id":"4","last_reported":1712329627,"current_range_meters":0,"station_id":"ce4bgqh2rcd13ifvqc5g","pricing_plan_id":"cebpf4jnsgd1na2vs0mg"},{"bike_id":"4bba5c31-0948-4a60-8881-1e5a3c4aa397","system_id":"levelo_inurba_marseille","lat":43.30991,"lon":5.38013,"is_reserved":false,"is_disabled":false,"rental_uris":{"android":"levelo://app?vid=4bba5c31-0948-4a60-8881-1e5a3c4aa397","ios":"levelo://app?vid=4bba5c31-0948-4a60-8881-1e5a3c4aa397"},"vehicle_type_id":"4","last_reported":1712329627,"current_range_meters":17600,"station_id":"","pricing_plan_id":"cebpf4jnsgd1na2vs0mg"},{"bike_id":"0b6a4b4b-7476-4956-84a1-d9abbad0c8f1","system_id":"levelo_inurba_marseille","lat":43.315289,"lon":5.380349,"is_reserved":false,"is_disabled":false,"rental_uris":{"android":"levelo://app?vid=0b6a4b4b-7476-4956-84a1-d9abbad0c8f1","ios":"levelo://app?vid=0b6a4b4b-7476-4956-84a1-d9abbad0c8f1"},"vehicle_type_id":"4","last_reported":1712329627,"current_range_meters":9600,"station_id":"ce4bhsp2rcd13ifvqi50","pricing_plan_id":"cebpf4jnsgd1na2vs0mg"},{"bike_id":"02cd8fda-5054-4b5b-9ff2-f0be0b4554c9","system_id":"levelo_inurba_marseille","lat":43.300852,"lon":5.390859,"is_reserved":false,"is_disabled":false,"rental_uris":{"android":"levelo://app?vid=02cd8fda-5054-4b5b-9ff2-f0be0b4554c9","ios":"levelo://app?vid=02cd8fda-5054-4b5b-9ff2-f0be0b4554c9"},"vehicle_type_id":"4","last_reported":1712329627,"current_range_meters":16800,"station_id":"ce4bh192rcd13ifvqdb0","pricing_plan_id":"cebpf4jnsgd1na2vs0mg"},{"bike_id":"1179b424-e642-4cc9-8eef-6573e93ba9dd","system_id":"levelo_inurba_marseille","lat":43.302957,"lon":5.372327,"is_reserved":false,"is_disabled":false,"rental_uris":{"android":"levelo://app?vid=1179b424-e642-4cc9-8eef-6573e93ba9dd","ios":"levelo://app?vid=1179b424-e642-4cc9-8eef-6573e93ba9dd"},"vehicle_type_id":"4","last_reported":1712329627,"current_range_meters":0,"station_id":"","pricing_plan_id":"cebpf4jnsgd1na2vs0mg"},{"bike_id":"18ff01d5-6600-458d-9aea-4a5a188e9a1d","system_id":"levelo_inurba_marseille","lat":43.301939,"lon":5.366286,"is_reserved":false,"is_disabled":false,"rental_uris":{"android":"levelo://app?vid=18ff01d5-6600-458d-9aea-4a5a188e9a1d","ios":"levelo://app?vid=18ff01d5-6600-458d-9aea-4a5a188e9a1d"},"vehicle_type_id":"4","last_reported":1712329627,"current_range_meters":18000,"station_id":"ce4bgrh2rcd13ifvqc8g","pricing_plan_id":"cebpf4jnsgd1na2vs0mg"},{"bike_id":"d08e1e44-aeaf-4a48-8177-be30c351035b","system_id":"levelo_inurba_marseille","lat":43.301939,"lon":5.366286,"is_reserved":false,"is_disabled":false,"rental_uris":{"android":"levelo://app?vid=d08e1e44-aeaf-4a48-8177-be30c351035b","ios":"levelo://app?vid=d08e1e44-aeaf-4a48-8177-be30c351035b"},"vehicle_type_id":"4","last_reported":1712329627,"current_range_meters":12800,"station_id":"ce4bgrh2rcd13ifvqc8g","pricing_plan_id":"cebpf4jnsgd1na2vs0mg"},{"bike_id":"42f6deb0-2534-4d73-af54-4cf4d99377aa","system_id":"levelo_inurba_marseille","lat":43.301939,"lon":5.366286,"is_reserved":false,"is_disabled":false,"rental_uris":{"android":"levelo://app?vid=42f6deb0-2534-4d73-af54-4cf4d99377aa","ios":"levelo://app?vid=42f6deb0-2534-4d73-af54-4cf4d99377aa"},"vehicle_type_id":"4","last_reported":1712329627,"current_range_meters":28000,"station_id":"ce4bgrh2rcd13ifvqc8g","pricing_plan_id":"cebpf4jnsgd1na2vs0mg"},{"bike_id":"5a6f2c2d-9adf-4003-947a-a2ea0a7266ca","system_id":"levelo_inurba_marseille","lat":43.301939,"lon":5.366286,"is_reserved":false,"is_disabled":false,"rental_uris":{"android":"levelo://app?vid=5a6f2c2d-9adf-4003-947a-a2ea0a7266ca","ios":"levelo://app?vid=5a6f2c2d-9adf-4003-947a-a2ea0a7266ca"},"vehicle_type_id":"4","last_reported":1712329627,"current_range_meters":4400,"station_id":"ce4bgrh2rcd13ifvqc8g","pricing_plan_id":"cebpf4jnsgd1na2vs0mg"},{"bike_id":"c27c04d7-5b7b-4270-bb96-5e8678c8d54a","system_id":"levelo_inurba_marseille","lat":43.30184,"lon":5.36627,"is_reserved":false,"is_disabled":false,"rental_uris":{"android":"levelo://app?vid=c27c04d7-5b7b-4270-bb96-5e8678c8d54a","ios":"levelo://app?vid=c27c04d7-5b7b-4270-bb96-5e8678c8d54a"},"vehicle_type_id":"4","last_reported":1712329627,"current_range_meters":14800,"station_id":"ce4bhgp2rcd13ifvqfc0","pricing_plan_id":"cebpf4jnsgd1na2vs0mg"},{"bike_id":"9fe7dd9f-7b27-4d50-89e0-8f5ecb6b5b19","system_id":"levelo_inurba_marseille","lat":43.308012,"lon":5.381511,"is_reserved":false,"is_disabled":false,"rental_uris":{"android":"levelo://app?vid=9fe7dd9f-7b27-4d50-89e0-8f5ecb6b5b19","ios":"levelo://app?vid=9fe7dd9f-7b27-4d50-89e0-8f5ecb6b5b19"},"vehicle_type_id":"4","last_reported":1712329627,"current_range_meters":31200,"station_id":"ce4bgt12rcd13ifvqce0","pricing_plan_id":"cebpf4jnsgd1na2vs0mg"},{"bike_id":"fac22faa-0cd1-48a9-a308-b35f6a30b8a0","system_id":"levelo_inurba_marseille","lat":43.30808,"lon":5.38151,"is_reserved":false,"is_disabled":false,"rental_uris":{"android":"levelo://app?vid=fac22faa-0cd1-48a9-a308-b35f6a30b8a0","ios":"levelo://app?vid=fac22faa-0cd1-48a9-a308-b35f6a30b8a0"},"vehicle_type_id":"4","last_reported":1712329627,"current_range_meters":0,"station_id":"ce4bgt12rcd13ifvqce0","pricing_plan_id":"cebpf4jnsgd1na2vs0mg"},{"bike_id":"d6b49193-5ca2-4548-b3d1-febfe2b2e01c","system_id":"levelo_inurba_marseille","lat":43.308012,"lon":5.381511,"is_reserved":false,"is_disabled":false,"rental_uris":{"android":"levelo://app?vid=d6b49193-5ca2-4548-b3d1-febfe2b2e01c","ios":"levelo://app?vid=d6b49193-5ca2-4548-b3d1-febfe2b2e01c"},"vehicle_type_id":"4","last_reported":1712329627,"current_range_meters":20000,"station_id":"ce4bgt12rcd13ifvqce0","pricing_plan_id":"cebpf4jnsgd1na2vs0mg"},{"bike_id":"7bf5d164-4c07-45cf-8245-2474d8a99266","system_id":"levelo_inurba_marseille","lat":43.32323,"lon":5.37425,"is_reserved":false,"is_disabled":false,"rental_uris":{"android":"levelo://app?vid=7bf5d164-4c07-45cf-8245-2474d8a99266","ios":"levelo://app?vid=7bf5d164-4c07-45cf-8245-2474d8a99266"},"vehicle_type_id":"4","last_reported":1712329627,"current_range_meters":17200,"station_id":"","pricing_plan_id":"cebpf4jnsgd1na2vs0mg"},{"bike_id":"85d8048b-47ca-43de-b813-5b7cc5e25752","system_id":"levelo_inurba_marseille","lat":43.30471,"lon":5.37904,"is_reserved":false,"is_disabled":false,"rental_uris":{"android":"levelo://app?vid=85d8048b-47ca-43de-b813-5b7cc5e25752","ios":"levelo://app?vid=85d8048b-47ca-43de-b813-5b7cc5e25752"},"vehicle_type_id":"4","last_reported":1712329627,"current_range_meters":20000,"station_id":"ce4bgup2rcd13ifvqcn0","pricing_plan_id":"cebpf4jnsgd1na2vs0mg"},{"bike_id":"a3b89a26-7880-4e7e-9f68-9c8df8e0480c","system_id":"levelo_inurba_marseille","lat":43.313291,"lon":5.396838,"is_reserved":false,"is_disabled":false,"rental_uris":{"android":"levelo://app?vid=a3b89a26-7880-4e7e-9f68-9c8df8e0480c","ios":"levelo://app?vid=a3b89a26-7880-4e7e-9f68-9c8df8e0480c"},"vehicle_type_id":"4","last_reported":1712329627,"current_range_meters":12000,"station_id":"ce4bgvp2rcd13ifvqcu0","pricing_plan_id":"cebpf4jnsgd1na2vs0mg"},{"bike_id":"bd035276-1873-4d04-9b29-cbe5c165e050","system_id":"levelo_inurba_marseille","lat":43.304606,"lon":5.379026,"is_reserved":false,"is_disabled":false,"rental_uris":{"android":"levelo://app?vid=bd035276-1873-4d04-9b29-cbe5c165e050","ios":"levelo://app?vid=bd035276-1873-4d04-9b29-cbe5c165e050"},"vehicle_type_id":"4","last_reported":1712329627,"current_range_meters":19600,"station_id":"ce4bgup2rcd13ifvqcn0","pricing_plan_id":"cebpf4jnsgd1na2vs0mg"},{"bike_id":"c7857900-1253-4a8c-ba25-94d54cf288e4","system_id":"levelo_inurba_marseille","lat":43.324819,"lon":5.365765,"is_reserved":false,"is_disabled":false,"rental_uris":{"android":"levelo://app?vid=c7857900-1253-4a8c-ba25-94d54cf288e4","ios":"levelo://app?vid=c7857900-1253-4a8c-ba25-94d54cf288e4"},"vehicle_type_id":"4","last_reported":1712329627,"current_range_meters":12800,"station_id":"ce4bhs12rcd13ifvqhvg","pricing_plan_id":"cebpf4jnsgd1na2vs0mg"},{"bike_id":"9683fe50-dcaf-48c4-b272-f6a925073b36","system_id":"levelo_inurba_marseille","lat":43.324815,"lon":5.365524,"is_reserved":false,"is_disabled":false,"rental_uris":{"android":"levelo://app?vid=9683fe50-dcaf-48c4-b272-f6a925073b36","ios":"levelo://app?vid=9683fe50-dcaf-48c4-b272-f6a925073b36"},"vehicle_type_id":"4","last_reported":1712329627,"current_range_meters":0,"station_id":"ce4bhs12rcd13ifvqhvg","pricing_plan_id":"cebpf4jnsgd1na2vs0mg"},{"bike_id":"e1fd5e5a-5ac1-4228-a575-548cbeb63e2e","system_id":"levelo_inurba_marseille","lat":43.32483,"lon":5.3656,"is_reserved":false,"is_disabled":false,"rental_uris":{"android":"levelo://app?vid=e1fd5e5a-5ac1-4228-a575-548cbeb63e2e","ios":"levelo://app?vid=e1fd5e5a-5ac1-4228-a575-548cbeb63e2e"},"vehicle_type_id":"4","last_reported":1712329627,"current_range_meters":1600,"station_id":"ce4bhs12rcd13ifvqhvg","pricing_plan_id":"cebpf4jnsgd1na2vs0mg"},{"bike_id":"50a92b26-cdd6-4a68-b770-f530b7e1039d","system_id":"levelo_inurba_marseille","lat":43.324771,"lon":5.36557,"is_reserved":false,"is_disabled":false,"rental_uris":{"android":"levelo://app?vid=50a92b26-cdd6-4a68-b770-f530b7e1039d","ios":"levelo://app?vid=50a92b26-cdd6-4a68-b770-f530b7e1039d"},"vehicle_type_id":"4","last_reported":1712329627,"current_range_meters":0,"station_id":"ce4bhs12rcd13ifvqhvg","pricing_plan_id":"cebpf4jnsgd1na2vs0mg"},{"bike_id":"3953ed17-8b7e-4328-bc32-0f320c11e744","system_id":"levelo_inurba_marseille","lat":43.310804,"lon":5.38359,"is_reserved":false,"is_disabled":false,"rental_uris":{"android":"levelo://app?vid=3953ed17-8b7e-4328-bc32-0f320c11e744","ios":"levelo://app?vid=3953ed17-8b7e-4328-bc32-0f320c11e744"},"vehicle_type_id":"4","last_reported":1712329627,"current_range_meters":4400,"station_id":"ce4bgv92rcd13ifvqcr0","pricing_plan_id":"cebpf4jnsgd1na2vs0mg"},{"bike_id":"89e1665d-faa4-4544-bab2-b11dfa497648","system_id":"levelo_inurba_marseille","lat":43.310804,"lon":5.38359,"is_reserved":false,"is_disabled":false,"rental_uris":{"android":"levelo://app?vid=89e1665d-faa4-4544-bab2-b11dfa497648","ios":"levelo://app?vid=89e1665d-faa4-4544-bab2-b11dfa497648"},"vehicle_type_id":"4","last_reported":1712329627,"current_range_meters":0,"station_id":"ce4bgv92rcd13ifvqcr0","pricing_plan_id":"cebpf4jnsgd1na2vs0mg"},{"bike_id":"650614a4-9b79-499e-9ceb-581ba4172564","system_id":"levelo_inurba_marseille","lat":43.310804,"lon":5.38359,"is_reserved":false,"is_disabled":false,"rental_uris":{"android":"levelo://app?vid=650614a4-9b79-499e-9ceb-581ba4172564","ios":"levelo://app?vid=650614a4-9b79-499e-9ceb-581ba4172564"},"vehicle_type_id":"4","last_reported":1712329627,"current_range_meters":27200,"station_id":"ce4bgv92rcd13ifvqcr0","pricing_plan_id":"cebpf4jnsgd1na2vs0mg"},{"bike_id":"93e3b698-aef7-4998-b7b9-f49e5b294787","system_id":"levelo_inurba_marseille","lat":43.302784,"lon":5.377158,"is_reserved":false,"is_disabled":false,"rental_uris":{"android":"levelo://app?vid=93e3b698-aef7-4998-b7b9-f49e5b294787","ios":"levelo://app?vid=93e3b698-aef7-4998-b7b9-f49e5b294787"},"vehicle_type_id":"4","last_reported":1712329627,"current_range_meters":20000,"station_id":"ce4bguh2rcd13ifvqcj0","pricing_plan_id":"cebpf4jnsgd1na2vs0mg"},{"bike_id":"a3c89889-47b2-4ca5-ab73-961438a1079d","system_id":"levelo_inurba_marseille","lat":43.301429,"lon":5.37413,"is_reserved":false,"is_disabled":false,"rental_uris":{"android":"levelo://app?vid=a3c89889-47b2-4ca5-ab73-961438a1079d","ios":"levelo://app?vid=a3c89889-47b2-4ca5-ab73-961438a1079d"},"vehicle_type_id":"4","last_reported":1712329627,"current_range_meters":1200,"station_id":"ce4bgs92rcd13ifvqcc0","pricing_plan_id":"cebpf4jnsgd1na2vs0mg"},{"bike_id":"d29e0271-1194-4a32-aa80-8d8a2627b431","system_id":"levelo_inurba_marseille","lat":43.301418,"lon":5.374208,"is_reserved":false,"is_disabled":false,"rental_uris":{"android":"levelo://app?vid=d29e0271-1194-4a32-aa80-8d8a2627b431","ios":"levelo://app?vid=d29e0271-1194-4a32-aa80-8d8a2627b431"},"vehicle_type_id":"4","last_reported":1712329627,"current_range_meters":23200,"station_id":"ce4bhi12rcd13ifvqfp0","pricing_plan_id":"cebpf4jnsgd1na2vs0mg"},{"bike_id":"6482488a-baa7-4b18-babc-ebcf4ca26a36","system_id":"levelo_inurba_marseille","lat":43.319935,"lon":5.381699,"is_reserved":false,"is_disabled":false,"rental_uris":{"android":"levelo://app?vid=6482488a-baa7-4b18-babc-ebcf4ca26a36","ios":"levelo://app?vid=6482488a-baa7-4b18-babc-ebcf4ca26a36"},"vehicle_type_id":"4","last_reported":1712329627,"current_range_meters":1600,"station_id":"ce4bhr12rcd13ifvqhpg","pricing_plan_id":"cebpf4jnsgd1na2vs0mg"},{"bike_id":"da4af5c6-73c2-4738-9a2d-cc0c250b8563","system_id":"levelo_inurba_marseille","lat":43.31993,"lon":5.3815,"is_reserved":false,"is_disabled":false,"rental_uris":{"android":"levelo://app?vid=da4af5c6-73c2-4738-9a2d-cc0c250b8563","ios":"levelo://app?vid=da4af5c6-73c2-4738-9a2d-cc0c250b8563"},"vehicle_type_id":"4","last_reported":1712329627,"current_range_meters":4000,"station_id":"ce4bhr12rcd13ifvqhpg","pricing_plan_id":"cebpf4jnsgd1na2vs0mg"},{"bike_id":"f6c92934-8666-40dd-a110-b530dd1f9470","system_id":"levelo_inurba_marseille","lat":43.319935,"lon":5.381699,"is_reserved":false,"is_disabled":false,"rental_uris":{"android":"levelo://app?vid=f6c92934-8666-40dd-a110-b530dd1f9470","ios":"levelo://app?vid=f6c92934-8666-40dd-a110-b530dd1f9470"},"vehicle_type_id":"4","last_reported":1712329627,"current_range_meters":2800,"station_id":"ce4bhr12rcd13ifvqhpg","pricing_plan_id":"cebpf4jnsgd1na2vs0mg"},{"bike_id":"a911dbe5-e808-495e-94cf-19328bf619bf","system_id":"levelo_inurba_marseille","lat":43.313571,"lon":5.384829,"is_reserved":false,"is_disabled":false,"rental_uris":{"android":"levelo://app?vid=a911dbe5-e808-495e-94cf-19328bf619bf","ios":"levelo://app?vid=a911dbe5-e808-495e-94cf-19328bf619bf"},"vehicle_type_id":"4","last_reported":1712329627,"current_range_meters":13600,"station_id":"ce4bgt92rcd13ifvqcf0","pricing_plan_id":"cebpf4jnsgd1na2vs0mg"},{"bike_id":"3655092d-e902-42fb-8235-50875fb0ea80","system_id":"levelo_inurba_marseille","lat":43.313571,"lon":5.384829,"is_reserved":false,"is_disabled":false,"rental_uris":{"android":"levelo://app?vid=3655092d-e902-42fb-8235-50875fb0ea80","ios":"levelo://app?vid=3655092d-e902-42fb-8235-50875fb0ea80"},"vehicle_type_id":"4","last_reported":1712329627,"current_range_meters":6400,"station_id":"ce4bgt92rcd13ifvqcf0","pricing_plan_id":"cebpf4jnsgd1na2vs0mg"},{"bike_id":"478c1656-046c-4344-8081-c8644256530a","system_id":"levelo_inurba_marseille","lat":43.313571,"lon":5.384829,"is_reserved":false,"is_disabled":false,"rental_uris":{"android":"levelo://app?vid=478c1656-046c-4344-8081-c8644256530a","ios":"levelo://app?vid=478c1656-046c-4344-8081-c8644256530a"},"vehicle_type_id":"4","last_reported":1712329627,"current_range_meters":25200,"station_id":"ce4bgt92rcd13ifvqcf0","pricing_plan_id":"cebpf4jnsgd1na2vs0mg"},{"bike_id":"b3ac17a8-7a89-4f47-b566-2c83e5b49d3a","system_id":"levelo_inurba_marseille","lat":43.299724,"lon":5.371829,"is_reserved":false,"is_disabled":false,"rental_uris":{"android":"levelo://app?vid=b3ac17a8-7a89-4f47-b566-2c83e5b49d3a","ios":"levelo://app?vid=b3ac17a8-7a89-4f47-b566-2c83e5b49d3a"},"vehicle_type_id":"4","last_reported":1712329627,"current_range_meters":0,"station_id":"ce4bgr92rcd13ifvqc7g","pricing_plan_id":"cebpf4jnsgd1na2vs0mg"},{"bike_id":"e8e7761b-1ed9-48ba-bbac-2a664baaf33f","system_id":"levelo_inurba_marseille","lat":43.299222,"lon":5.365554,"is_reserved":false,"is_disabled":false,"rental_uris":{"android":"levelo://app?vid=e8e7761b-1ed9-48ba-bbac-2a664baaf33f","ios":"levelo://app?vid=e8e7761b-1ed9-48ba-bbac-2a664baaf33f"},"vehicle_type_id":"4","last_reported":1712329627,"current_range_meters":0,"station_id":"ce4bgm92rcd13ifvqbr0","pricing_plan_id":"cebpf4jnsgd1na2vs0mg"},{"bike_id":"236339e9-145d-48d9-938f-e27c40d5a063","system_id":"levelo_inurba_marseille","lat":43.299724,"lon":5.371829,"is_reserved":false,"is_disabled":false,"rental_uris":{"android":"levelo://app?vid=236339e9-145d-48d9-938f-e27c40d5a063","ios":"levelo://app?vid=236339e9-145d-48d9-938f-e27c40d5a063"},"vehicle_type_id":"4","last_reported":1712329627,"current_range_meters":22800,"station_id":"ce4bgr92rcd13ifvqc7g","pricing_plan_id":"cebpf4jnsgd1na2vs0mg"},{"bike_id":"11a81cf0-1e4a-4134-8028-fa7becce2a26","system_id":"levelo_inurba_marseille","lat":43.298433,"lon":5.362774,"is_reserved":false,"is_disabled":false,"rental_uris":{"android":"levelo://app?vid=11a81cf0-1e4a-4134-8028-fa7becce2a26","ios":"levelo://app?vid=11a81cf0-1e4a-4134-8028-fa7becce2a26"},"vehicle_type_id":"4","last_reported":1712329627,"current_range_meters":0,"station_id":"ce4bgpp2rcd13ifvqc3g","pricing_plan_id":"cebpf4jnsgd1na2vs0mg"},{"bike_id":"f3b2f70d-4b2d-4cef-9e3a-257028fccf56","system_id":"levelo_inurba_marseille","lat":43.305364,"lon":5.384119,"is_reserved":false,"is_disabled":false,"rental_uris":{"android":"levelo://app?vid=f3b2f70d-4b2d-4cef-9e3a-257028fccf56","ios":"levelo://app?vid=f3b2f70d-4b2d-4cef-9e3a-257028fccf56"},"vehicle_type_id":"4","last_reported":1712329627,"current_range_meters":20800,"station_id":"ce4bgg92rcd13ifvqb30","pricing_plan_id":"cebpf4jnsgd1na2vs0mg"},{"bike_id":"e23835b0-6720-4c6e-929c-8af4ccffd982","system_id":"levelo_inurba_marseille","lat":43.299243,"lon":5.37481,"is_reserved":false,"is_disabled":false,"rental_uris":{"android":"levelo://app?vid=e23835b0-6720-4c6e-929c-8af4ccffd982","ios":"levelo://app?vid=e23835b0-6720-4c6e-929c-8af4ccffd982"},"vehicle_type_id":"4","last_reported":1712329627,"current_range_meters":0,"station_id":"ce4bgjh2rcd13ifvqbg0","pricing_plan_id":"cebpf4jnsgd1na2vs0mg"},{"bike_id":"b65d40ea-4369-4c2f-97b8-a2b9057c25ae","system_id":"levelo_inurba_marseille","lat":43.311722,"lon":5.387247,"is_reserved":false,"is_disabled":false,"rental_uris":{"android":"levelo://app?vid=b65d40ea-4369-4c2f-97b8-a2b9057c25ae","ios":"levelo://app?vid=b65d40ea-4369-4c2f-97b8-a2b9057c25ae"},"vehicle_type_id":"4","last_reported":1712329627,"current_range_meters":2400,"station_id":"ce4bgv12rcd13ifvqcp0","pricing_plan_id":"cebpf4jnsgd1na2vs0mg"},{"bike_id":"fa99ef13-2379-4f42-b164-e246b0863398","system_id":"levelo_inurba_marseille","lat":43.311722,"lon":5.387247,"is_reserved":false,"is_disabled":false,"rental_uris":{"android":"levelo://app?vid=fa99ef13-2379-4f42-b164-e246b0863398","ios":"levelo://app?vid=fa99ef13-2379-4f42-b164-e246b0863398"},"vehicle_type_id":"4","last_reported":1712329627,"current_range_meters":10000,"station_id":"ce4bgv12rcd13ifvqcp0","pricing_plan_id":"cebpf4jnsgd1na2vs0mg"},{"bike_id":"7dccd720-86ac-455a-ae4c-7b5d6d471052","system_id":"levelo_inurba_marseille","lat":43.297774,"lon":5.370875,"is_reserved":false,"is_disabled":false,"rental_uris":{"android":"levelo://app?vid=7dccd720-86ac-455a-ae4c-7b5d6d471052","ios":"levelo://app?vid=7dccd720-86ac-455a-ae4c-7b5d6d471052"},"vehicle_type_id":"4","last_reported":1712329627,"current_range_meters":21600,"station_id":"ce4bgop2rcd13ifvqc1g","pricing_plan_id":"cebpf4jnsgd1na2vs0mg"},{"bike_id":"cfeb0dd4-e27f-4eeb-8615-c2953c48f0d2","system_id":"levelo_inurba_marseille","lat":43.297794,"lon":5.370888,"is_reserved":false,"is_disabled":false,"rental_uris":{"android":"levelo://app?vid=cfeb0dd4-e27f-4eeb-8615-c2953c48f0d2","ios":"levelo://app?vid=cfeb0dd4-e27f-4eeb-8615-c2953c48f0d2"},"vehicle_type_id":"4","last_reported":1712329627,"current_range_meters":10800,"station_id":"ce4bgop2rcd13ifvqc1g","pricing_plan_id":"cebpf4jnsgd1na2vs0mg"},{"bike_id":"12868420-cd43-4d41-9cd6-9b5eadd40bbb","system_id":"levelo_inurba_marseille","lat":43.322872,"lon":5.382756,"is_reserved":false,"is_disabled":false,"rental_uris":{"android":"levelo://app?vid=12868420-cd43-4d41-9cd6-9b5eadd40bbb","ios":"levelo://app?vid=12868420-cd43-4d41-9cd6-9b5eadd40bbb"},"vehicle_type_id":"4","last_reported":1712329627,"current_range_meters":31200,"station_id":"ce4bhr12rcd13ifvqhqg","pricing_plan_id":"cebpf4jnsgd1na2vs0mg"},{"bike_id":"c78e3508-ec59-44b9-b552-66f435a0864b","system_id":"levelo_inurba_marseille","lat":43.322872,"lon":5.382756,"is_reserved":false,"is_disabled":false,"rental_uris":{"android":"levelo://app?vid=c78e3508-ec59-44b9-b552-66f435a0864b","ios":"levelo://app?vid=c78e3508-ec59-44b9-b552-66f435a0864b"},"vehicle_type_id":"4","last_reported":1712329627,"current_range_meters":30800,"station_id":"ce4bhr12rcd13ifvqhqg","pricing_plan_id":"cebpf4jnsgd1na2vs0mg"},{"bike_id":"97eae8a2-fb5d-49ee-ba87-65f20c87a05d","system_id":"levelo_inurba_marseille","lat":43.322872,"lon":5.382756,"is_reserved":false,"is_disabled":false,"rental_uris":{"android":"levelo://app?vid=97eae8a2-fb5d-49ee-ba87-65f20c87a05d","ios":"levelo://app?vid=97eae8a2-fb5d-49ee-ba87-65f20c87a05d"},"vehicle_type_id":"4","last_reported":1712329627,"current_range_meters":25600,"station_id":"ce4bhr12rcd13ifvqhqg","pricing_plan_id":"cebpf4jnsgd1na2vs0mg"},{"bike_id":"fdf1145a-722f-4fb3-9a43-5ec5f1e0bb08","system_id":"levelo_inurba_marseille","lat":43.322872,"lon":5.382756,"is_reserved":false,"is_disabled":false,"rental_uris":{"android":"levelo://app?vid=fdf1145a-722f-4fb3-9a43-5ec5f1e0bb08","ios":"levelo://app?vid=fdf1145a-722f-4fb3-9a43-5ec5f1e0bb08"},"vehicle_type_id":"4","last_reported":1712329627,"current_range_meters":22000,"station_id":"ce4bhr12rcd13ifvqhqg","pricing_plan_id":"cebpf4jnsgd1na2vs0mg"},{"bike_id":"9f4dcfd9-01e1-4440-b3bd-d86fa4e623b6","system_id":"levelo_inurba_marseille","lat":43.292311,"lon":5.360731,"is_reserved":false,"is_disabled":false,"rental_uris":{"android":"levelo://app?vid=9f4dcfd9-01e1-4440-b3bd-d86fa4e623b6","ios":"levelo://app?vid=9f4dcfd9-01e1-4440-b3bd-d86fa4e623b6"},"vehicle_type_id":"4","last_reported":1712329627,"current_range_meters":17600,"station_id":"ce4bhbh2rcd13ifvqeqg","pricing_plan_id":"cebpf4jnsgd1na2vs0mg"},{"bike_id":"303b92e4-2f22-429e-8593-bb1f42650d86","system_id":"levelo_inurba_marseille","lat":43.298433,"lon":5.362774,"is_reserved":false,"is_disabled":false,"rental_uris":{"android":"levelo://app?vid=303b92e4-2f22-429e-8593-bb1f42650d86","ios":"levelo://app?vid=303b92e4-2f22-429e-8593-bb1f42650d86"},"vehicle_type_id":"4","last_reported":1712329627,"current_range_meters":7600,"station_id":"ce4bgpp2rcd13ifvqc3g","pricing_plan_id":"cebpf4jnsgd1na2vs0mg"},{"bike_id":"da3bf61a-55f1-44d1-b43c-7363dc197636","system_id":"levelo_inurba_marseille","lat":43.297163,"lon":5.365866,"is_reserved":false,"is_disabled":false,"rental_uris":{"android":"levelo://app?vid=da3bf61a-55f1-44d1-b43c-7363dc197636","ios":"levelo://app?vid=da3bf61a-55f1-44d1-b43c-7363dc197636"},"vehicle_type_id":"4","last_reported":1712329627,"current_range_meters":15600,"station_id":"ce4bgn12rcd13ifvqbt0","pricing_plan_id":"cebpf4jnsgd1na2vs0mg"},{"bike_id":"c40a597b-6670-42e0-b0e6-d3c8f72c3946","system_id":"levelo_inurba_marseille","lat":43.297774,"lon":5.370875,"is_reserved":false,"is_disabled":false,"rental_uris":{"android":"levelo://app?vid=c40a597b-6670-42e0-b0e6-d3c8f72c3946","ios":"levelo://app?vid=c40a597b-6670-42e0-b0e6-d3c8f72c3946"},"vehicle_type_id":"4","last_reported":1712329627,"current_range_meters":8000,"station_id":"ce4bgop2rcd13ifvqc1g","pricing_plan_id":"cebpf4jnsgd1na2vs0mg"},{"bike_id":"ef653276-c1bb-494f-963d-644c1915efa7","system_id":"levelo_inurba_marseille","lat":43.2968,"lon":5.37291,"is_reserved":false,"is_disabled":false,"rental_uris":{"android":"levelo://app?vid=ef653276-c1bb-494f-963d-644c1915efa7","ios":"levelo://app?vid=ef653276-c1bb-494f-963d-644c1915efa7"},"vehicle_type_id":"4","last_reported":1712329627,"current_range_meters":29200,"station_id":"ce4bgk12rcd13ifvqbj0","pricing_plan_id":"cebpf4jnsgd1na2vs0mg"},{"bike_id":"5f5cdb39-56e4-4c12-af95-8b174f7e5bca","system_id":"levelo_inurba_marseille","lat":43.296131,"lon":5.370791,"is_reserved":false,"is_disabled":false,"rental_uris":{"android":"levelo://app?vid=5f5cdb39-56e4-4c12-af95-8b174f7e5bca","ios":"levelo://app?vid=5f5cdb39-56e4-4c12-af95-8b174f7e5bca"},"vehicle_type_id":"4","last_reported":1712329627,"current_range_meters":14800,"station_id":"ce4bgnh2rcd13ifvqc0g","pricing_plan_id":"cebpf4jnsgd1na2vs0mg"},{"bike_id":"f8a1fc2f-8611-4d15-8fe4-a4e88c8da402","system_id":"levelo_inurba_marseille","lat":43.29629,"lon":5.37165,"is_reserved":false,"is_disabled":false,"rental_uris":{"android":"levelo://app?vid=f8a1fc2f-8611-4d15-8fe4-a4e88c8da402","ios":"levelo://app?vid=f8a1fc2f-8611-4d15-8fe4-a4e88c8da402"},"vehicle_type_id":"4","last_reported":1712329627,"current_range_meters":8000,"station_id":"ce4bhu92rcd13ifvqi70","pricing_plan_id":"cebpf4jnsgd1na2vs0mg"},{"bike_id":"d52f2dab-e2ea-4f94-8145-03b67e06ba1a","system_id":"levelo_inurba_marseille","lat":43.296935,"lon":5.376544,"is_reserved":false,"is_disabled":false,"rental_uris":{"android":"levelo://app?vid=d52f2dab-e2ea-4f94-8145-03b67e06ba1a","ios":"levelo://app?vid=d52f2dab-e2ea-4f94-8145-03b67e06ba1a"},"vehicle_type_id":"4","last_reported":1712329627,"current_range_meters":30000,"station_id":"ce4bgkh2rcd13ifvqbl0","pricing_plan_id":"cebpf4jnsgd1na2vs0mg"},{"bike_id":"babd4892-8fb4-407f-bb2a-5951b4604611","system_id":"levelo_inurba_marseille","lat":43.29634,"lon":5.361403,"is_reserved":false,"is_disabled":false,"rental_uris":{"android":"levelo://app?vid=babd4892-8fb4-407f-bb2a-5951b4604611","ios":"levelo://app?vid=babd4892-8fb4-407f-bb2a-5951b4604611"},"vehicle_type_id":"4","last_reported":1712329627,"current_range_meters":4400,"station_id":"ce4bguh2rcd13ifvqckg","pricing_plan_id":"cebpf4jnsgd1na2vs0mg"},{"bike_id":"05463739-b4eb-424c-a200-39aa926637c4","system_id":"levelo_inurba_marseille","lat":43.296935,"lon":5.376544,"is_reserved":false,"is_disabled":false,"rental_uris":{"android":"levelo://app?vid=05463739-b4eb-424c-a200-39aa926637c4","ios":"levelo://app?vid=05463739-b4eb-424c-a200-39aa926637c4"},"vehicle_type_id":"4","last_reported":1712329627,"current_range_meters":1200,"station_id":"ce4bgkh2rcd13ifvqbl0","pricing_plan_id":"cebpf4jnsgd1na2vs0mg"},{"bike_id":"b40d91d3-2924-4be2-92a3-0f7532b58383","system_id":"levelo_inurba_marseille","lat":43.299028,"lon":5.381509,"is_reserved":false,"is_disabled":false,"rental_uris":{"android":"levelo://app?vid=b40d91d3-2924-4be2-92a3-0f7532b58383","ios":"levelo://app?vid=b40d91d3-2924-4be2-92a3-0f7532b58383"},"vehicle_type_id":"4","last_reported":1712329627,"current_range_meters":800,"station_id":"ce4bgj12rcd13ifvqbc0","pricing_plan_id":"cebpf4jnsgd1na2vs0mg"},{"bike_id":"69549ce1-ad1d-4a15-9055-b11b2d599a3d","system_id":"levelo_inurba_marseille","lat":43.299028,"lon":5.381509,"is_reserved":false,"is_disabled":false,"rental_uris":{"android":"levelo://app?vid=69549ce1-ad1d-4a15-9055-b11b2d599a3d","ios":"levelo://app?vid=69549ce1-ad1d-4a15-9055-b11b2d599a3d"},"vehicle_type_id":"4","last_reported":1712329627,"current_range_meters":28800,"station_id":"ce4bgj12rcd13ifvqbc0","pricing_plan_id":"cebpf4jnsgd1na2vs0mg"},{"bike_id":"316f4c62-d250-4eb7-8cf0-8f07c54f304b","system_id":"levelo_inurba_marseille","lat":43.301117,"lon":5.398795,"is_reserved":false,"is_disabled":false,"rental_uris":{"android":"levelo://app?vid=316f4c62-d250-4eb7-8cf0-8f07c54f304b","ios":"levelo://app?vid=316f4c62-d250-4eb7-8cf0-8f07c54f304b"},"vehicle_type_id":"4","last_reported":1712329627,"current_range_meters":0,"station_id":"ce4bh0h2rcd13ifvqd40","pricing_plan_id":"cebpf4jnsgd1na2vs0mg"},{"bike_id":"e538fbea-1269-4ad8-8558-72acf4d99326","system_id":"levelo_inurba_marseille","lat":43.30951,"lon":5.390274,"is_reserved":false,"is_disabled":false,"rental_uris":{"android":"levelo://app?vid=e538fbea-1269-4ad8-8558-72acf4d99326","ios":"levelo://app?vid=e538fbea-1269-4ad8-8558-72acf4d99326"},"vehicle_type_id":"4","last_reported":1712329627,"current_range_meters":0,"station_id":"ce4bgup2rcd13ifvqco0","pricing_plan_id":"cebpf4jnsgd1na2vs0mg"},{"bike_id":"037b63eb-ff4a-41d5-ae93-cb13ae2e8b77","system_id":"levelo_inurba_marseille","lat":43.309589,"lon":5.390258,"is_reserved":false,"is_disabled":false,"rental_uris":{"android":"levelo://app?vid=037b63eb-ff4a-41d5-ae93-cb13ae2e8b77","ios":"levelo://app?vid=037b63eb-ff4a-41d5-ae93-cb13ae2e8b77"},"vehicle_type_id":"4","last_reported":1712329627,"current_range_meters":1600,"station_id":"ce4bgup2rcd13ifvqco0","pricing_plan_id":"cebpf4jnsgd1na2vs0mg"},{"bike_id":"0d56a755-7128-4371-b428-a94247b06d29","system_id":"levelo_inurba_marseille","lat":43.309589,"lon":5.390258,"is_reserved":false,"is_disabled":false,"rental_uris":{"android":"levelo://app?vid=0d56a755-7128-4371-b428-a94247b06d29","ios":"levelo://app?vid=0d56a755-7128-4371-b428-a94247b06d29"},"vehicle_type_id":"4","last_reported":1712329627,"current_range_meters":12800,"station_id":"ce4bgup2rcd13ifvqco0","pricing_plan_id":"cebpf4jnsgd1na2vs0mg"},{"bike_id":"af4fc5f2-c176-40f3-99e0-1ae6552e0b82","system_id":"levelo_inurba_marseille","lat":43.30949,"lon":5.3904,"is_reserved":false,"is_disabled":false,"rental_uris":{"android":"levelo://app?vid=af4fc5f2-c176-40f3-99e0-1ae6552e0b82","ios":"levelo://app?vid=af4fc5f2-c176-40f3-99e0-1ae6552e0b82"},"vehicle_type_id":"4","last_reported":1712329627,"current_range_meters":0,"station_id":"","pricing_plan_id":"cebpf4jnsgd1na2vs0mg"},{"bike_id":"d68de6f6-98e8-4480-b571-d6b908b44251","system_id":"levelo_inurba_marseille","lat":43.314811,"lon":5.373103,"is_reserved":false,"is_disabled":false,"rental_uris":{"android":"levelo://app?vid=d68de6f6-98e8-4480-b571-d6b908b44251","ios":"levelo://app?vid=d68de6f6-98e8-4480-b571-d6b908b44251"},"vehicle_type_id":"4","last_reported":1712329627,"current_range_meters":27600,"station_id":"ce4bgt12rcd13ifvqcd0","pricing_plan_id":"cebpf4jnsgd1na2vs0mg"},{"bike_id":"7a85027d-96ee-47db-b695-4cac4ab34f4c","system_id":"levelo_inurba_marseille","lat":43.31754,"lon":5.39009,"is_reserved":false,"is_disabled":false,"rental_uris":{"android":"levelo://app?vid=7a85027d-96ee-47db-b695-4cac4ab34f4c","ios":"levelo://app?vid=7a85027d-96ee-47db-b695-4cac4ab34f4c"},"vehicle_type_id":"4","last_reported":1712329627,"current_range_meters":10400,"station_id":"ce4bhqp2rcd13ifvqhng","pricing_plan_id":"cebpf4jnsgd1na2vs0mg"},{"bike_id":"80fcc4f9-3fc8-4010-879a-fa129fbcced2","system_id":"levelo_inurba_marseille","lat":43.317557,"lon":5.390173,"is_reserved":false,"is_disabled":false,"rental_uris":{"android":"levelo://app?vid=80fcc4f9-3fc8-4010-879a-fa129fbcced2","ios":"levelo://app?vid=80fcc4f9-3fc8-4010-879a-fa129fbcced2"},"vehicle_type_id":"4","last_reported":1712329627,"current_range_meters":23600,"station_id":"ce4bhqp2rcd13ifvqhng","pricing_plan_id":"cebpf4jnsgd1na2vs0mg"},{"bike_id":"3b95d255-179c-41cd-a1ab-d677628cc67e","system_id":"levelo_inurba_marseille","lat":43.31763,"lon":5.39011,"is_reserved":false,"is_disabled":false,"rental_uris":{"android":"levelo://app?vid=3b95d255-179c-41cd-a1ab-d677628cc67e","ios":"levelo://app?vid=3b95d255-179c-41cd-a1ab-d677628cc67e"},"vehicle_type_id":"4","last_reported":1712329627,"current_range_meters":24800,"station_id":"ce4bhqp2rcd13ifvqhng","pricing_plan_id":"cebpf4jnsgd1na2vs0mg"},{"bike_id":"b60e337a-aa0c-4cd1-bb24-00b724fe9ee6","system_id":"levelo_inurba_marseille","lat":43.31758,"lon":5.39021,"is_reserved":false,"is_disabled":false,"rental_uris":{"android":"levelo://app?vid=b60e337a-aa0c-4cd1-bb24-00b724fe9ee6","ios":"levelo://app?vid=b60e337a-aa0c-4cd1-bb24-00b724fe9ee6"},"vehicle_type_id":"4","last_reported":1712329627,"current_range_meters":26800,"station_id":"ce4bhqp2rcd13ifvqhng","pricing_plan_id":"cebpf4jnsgd1na2vs0mg"},{"bike_id":"3098847b-82fd-402c-848e-b5d60e51ad8f","system_id":"levelo_inurba_marseille","lat":43.297116,"lon":5.378288,"is_reserved":false,"is_disabled":false,"rental_uris":{"android":"levelo://app?vid=3098847b-82fd-402c-848e-b5d60e51ad8f","ios":"levelo://app?vid=3098847b-82fd-402c-848e-b5d60e51ad8f"},"vehicle_type_id":"4","last_reported":1712329627,"current_range_meters":16800,"station_id":"ce4bgkh2rcd13ifvqbl0","pricing_plan_id":"cebpf4jnsgd1na2vs0mg"},{"bike_id":"f8b18ce6-bc2b-4adb-8943-b35fb7bb0280","system_id":"levelo_inurba_marseille","lat":43.31764,"lon":5.39028,"is_reserved":false,"is_disabled":false,"rental_uris":{"android":"levelo://app?vid=f8b18ce6-bc2b-4adb-8943-b35fb7bb0280","ios":"levelo://app?vid=f8b18ce6-bc2b-4adb-8943-b35fb7bb0280"},"vehicle_type_id":"4","last_reported":1712329627,"current_range_meters":14000,"station_id":"ce4bhqp2rcd13ifvqhng","pricing_plan_id":"cebpf4jnsgd1na2vs0mg"},{"bike_id":"8ad5016c-6fad-4ddd-9b6f-c44399f80d8d","system_id":"levelo_inurba_marseille","lat":43.298037,"lon":5.381066,"is_reserved":false,"is_disabled":false,"rental_uris":{"android":"levelo://app?vid=8ad5016c-6fad-4ddd-9b6f-c44399f80d8d","ios":"levelo://app?vid=8ad5016c-6fad-4ddd-9b6f-c44399f80d8d"},"vehicle_type_id":"4","last_reported":1712329627,"current_range_meters":13600,"station_id":"ce4bgip2rcd13ifvqbb0","pricing_plan_id":"cebpf4jnsgd1na2vs0mg"},{"bike_id":"fcf53178-c7de-405c-8eb6-538605f79c44","system_id":"levelo_inurba_marseille","lat":43.296263,"lon":5.377094,"is_reserved":false,"is_disabled":false,"rental_uris":{"android":"levelo://app?vid=fcf53178-c7de-405c-8eb6-538605f79c44","ios":"levelo://app?vid=fcf53178-c7de-405c-8eb6-538605f79c44"},"vehicle_type_id":"4","last_reported":1712329627,"current_range_meters":0,"station_id":"ce4bgi92rcd13ifvqb90","pricing_plan_id":"cebpf4jnsgd1na2vs0mg"},{"bike_id":"779cfd2e-b50c-48e4-9b0f-f7d504226a6a","system_id":"levelo_inurba_marseille","lat":43.299707,"lon":5.384859,"is_reserved":false,"is_disabled":false,"rental_uris":{"android":"levelo://app?vid=779cfd2e-b50c-48e4-9b0f-f7d504226a6a","ios":"levelo://app?vid=779cfd2e-b50c-48e4-9b0f-f7d504226a6a"},"vehicle_type_id":"4","last_reported":1712329627,"current_range_meters":23200,"station_id":"ce4bgj92rcd13ifvqbd0","pricing_plan_id":"cebpf4jnsgd1na2vs0mg"},{"bike_id":"121937e0-d1b5-43a1-bd7e-446c84f0b675","system_id":"levelo_inurba_marseille","lat":43.299724,"lon":5.384848,"is_reserved":false,"is_disabled":false,"rental_uris":{"android":"levelo://app?vid=121937e0-d1b5-43a1-bd7e-446c84f0b675","ios":"levelo://app?vid=121937e0-d1b5-43a1-bd7e-446c84f0b675"},"vehicle_type_id":"4","last_reported":1712329627,"current_range_meters":17600,"station_id":"ce4bgj92rcd13ifvqbd0","pricing_plan_id":"cebpf4jnsgd1na2vs0mg"},{"bike_id":"329bfe22-ad2c-4b75-b9b1-e83e20e475e8","system_id":"levelo_inurba_marseille","lat":43.2997,"lon":5.38496,"is_reserved":false,"is_disabled":false,"rental_uris":{"android":"levelo://app?vid=329bfe22-ad2c-4b75-b9b1-e83e20e475e8","ios":"levelo://app?vid=329bfe22-ad2c-4b75-b9b1-e83e20e475e8"},"vehicle_type_id":"4","last_reported":1712329627,"current_range_meters":22400,"station_id":"ce4bgj92rcd13ifvqbd0","pricing_plan_id":"cebpf4jnsgd1na2vs0mg"},{"bike_id":"1f75333d-7a7a-40f9-a97f-67e62ac67f9d","system_id":"levelo_inurba_marseille","lat":43.299724,"lon":5.384848,"is_reserved":false,"is_disabled":false,"rental_uris":{"android":"levelo://app?vid=1f75333d-7a7a-40f9-a97f-67e62ac67f9d","ios":"levelo://app?vid=1f75333d-7a7a-40f9-a97f-67e62ac67f9d"},"vehicle_type_id":"4","last_reported":1712329627,"current_range_meters":15200,"station_id":"ce4bgj92rcd13ifvqbd0","pricing_plan_id":"cebpf4jnsgd1na2vs0mg"},{"bike_id":"bb0afddf-65bc-4c79-a820-fc5081a08f68","system_id":"levelo_inurba_marseille","lat":43.323674,"lon":5.388745,"is_reserved":false,"is_disabled":false,"rental_uris":{"android":"levelo://app?vid=bb0afddf-65bc-4c79-a820-fc5081a08f68","ios":"levelo://app?vid=bb0afddf-65bc-4c79-a820-fc5081a08f68"},"vehicle_type_id":"4","last_reported":1712329627,"current_range_meters":2800,"station_id":"ce4bhqp2rcd13ifvqhog","pricing_plan_id":"cebpf4jnsgd1na2vs0mg"},{"bike_id":"ead7ca05-88d6-434d-8203-13af34d3413c","system_id":"levelo_inurba_marseille","lat":43.323636,"lon":5.38886,"is_reserved":false,"is_disabled":false,"rental_uris":{"android":"levelo://app?vid=ead7ca05-88d6-434d-8203-13af34d3413c","ios":"levelo://app?vid=ead7ca05-88d6-434d-8203-13af34d3413c"},"vehicle_type_id":"4","last_reported":1712329627,"current_range_meters":8000,"station_id":"ce4bhqp2rcd13ifvqhog","pricing_plan_id":"cebpf4jnsgd1na2vs0mg"},{"bike_id":"0e109999-0509-4c76-90d3-ca97dbf42859","system_id":"levelo_inurba_marseille","lat":43.323686,"lon":5.388814,"is_reserved":false,"is_disabled":false,"rental_uris":{"android":"levelo://app?vid=0e109999-0509-4c76-90d3-ca97dbf42859","ios":"levelo://app?vid=0e109999-0509-4c76-90d3-ca97dbf42859"},"vehicle_type_id":"4","last_reported":1712329627,"current_range_meters":800,"station_id":"ce4bhqp2rcd13ifvqhog","pricing_plan_id":"cebpf4jnsgd1na2vs0mg"},{"bike_id":"bee4723c-8c5f-4aec-809e-2c4c31351fd7","system_id":"levelo_inurba_marseille","lat":43.32367,"lon":5.388836,"is_reserved":false,"is_disabled":false,"rental_uris":{"android":"levelo://app?vid=bee4723c-8c5f-4aec-809e-2c4c31351fd7","ios":"levelo://app?vid=bee4723c-8c5f-4aec-809e-2c4c31351fd7"},"vehicle_type_id":"4","last_reported":1712329627,"current_range_meters":4000,"station_id":"ce4bhqp2rcd13ifvqhog","pricing_plan_id":"cebpf4jnsgd1na2vs0mg"},{"bike_id":"00e1dee4-e671-49f3-b2e8-3aea910fd197","system_id":"levelo_inurba_marseille","lat":43.3237,"lon":5.38883,"is_reserved":false,"is_disabled":false,"rental_uris":{"android":"levelo://app?vid=00e1dee4-e671-49f3-b2e8-3aea910fd197","ios":"levelo://app?vid=00e1dee4-e671-49f3-b2e8-3aea910fd197"},"vehicle_type_id":"4","last_reported":1712329627,"current_range_meters":18800,"station_id":"ce4bhqp2rcd13ifvqhog","pricing_plan_id":"cebpf4jnsgd1na2vs0mg"},{"bike_id":"c5ed90dd-85d0-4191-b4fa-f5b81de4b1cc","system_id":"levelo_inurba_marseille","lat":43.323705,"lon":5.388832,"is_reserved":false,"is_disabled":false,"rental_uris":{"android":"levelo://app?vid=c5ed90dd-85d0-4191-b4fa-f5b81de4b1cc","ios":"levelo://app?vid=c5ed90dd-85d0-4191-b4fa-f5b81de4b1cc"},"vehicle_type_id":"4","last_reported":1712329627,"current_range_meters":6400,"station_id":"ce4bhqp2rcd13ifvqhog","pricing_plan_id":"cebpf4jnsgd1na2vs0mg"},{"bike_id":"9da9dc9e-5c61-4779-b9db-5655f0b90cde","system_id":"levelo_inurba_marseille","lat":43.32367,"lon":5.388836,"is_reserved":false,"is_disabled":false,"rental_uris":{"android":"levelo://app?vid=9da9dc9e-5c61-4779-b9db-5655f0b90cde","ios":"levelo://app?vid=9da9dc9e-5c61-4779-b9db-5655f0b90cde"},"vehicle_type_id":"4","last_reported":1712329627,"current_range_meters":15600,"station_id":"ce4bhqp2rcd13ifvqhog","pricing_plan_id":"cebpf4jnsgd1na2vs0mg"},{"bike_id":"acf4cd8e-424e-4650-be45-83611a6ed41e","system_id":"levelo_inurba_marseille","lat":43.32367,"lon":5.388836,"is_reserved":false,"is_disabled":false,"rental_uris":{"android":"levelo://app?vid=acf4cd8e-424e-4650-be45-83611a6ed41e","ios":"levelo://app?vid=acf4cd8e-424e-4650-be45-83611a6ed41e"},"vehicle_type_id":"4","last_reported":1712329627,"current_range_meters":18800,"station_id":"ce4bhqp2rcd13ifvqhog","pricing_plan_id":"cebpf4jnsgd1na2vs0mg"},{"bike_id":"a76cb730-3da3-47b0-8be2-86f3017760b0","system_id":"levelo_inurba_marseille","lat":43.29602,"lon":5.381084,"is_reserved":false,"is_disabled":false,"rental_uris":{"android":"levelo://app?vid=a76cb730-3da3-47b0-8be2-86f3017760b0","ios":"levelo://app?vid=a76cb730-3da3-47b0-8be2-86f3017760b0"},"vehicle_type_id":"4","last_reported":1712329627,"current_range_meters":17200,"station_id":"ce4bgl12rcd13ifvqbo0","pricing_plan_id":"cebpf4jnsgd1na2vs0mg"},{"bike_id":"76c214f9-efe5-4a8f-ae00-4e0c939ea6d2","system_id":"levelo_inurba_marseille","lat":43.293259,"lon":5.371586,"is_reserved":false,"is_disabled":false,"rental_uris":{"android":"levelo://app?vid=76c214f9-efe5-4a8f-ae00-4e0c939ea6d2","ios":"levelo://app?vid=76c214f9-efe5-4a8f-ae00-4e0c939ea6d2"},"vehicle_type_id":"4","last_reported":1712329627,"current_range_meters":9600,"station_id":"ce4bgh92rcd13ifvqb40","pricing_plan_id":"cebpf4jnsgd1na2vs0mg"},{"bike_id":"88a536d9-50c6-4f97-b6c5-c1dcbf4dd636","system_id":"levelo_inurba_marseille","lat":43.293009,"lon":5.374584,"is_reserved":false,"is_disabled":false,"rental_uris":{"android":"levelo://app?vid=88a536d9-50c6-4f97-b6c5-c1dcbf4dd636","ios":"levelo://app?vid=88a536d9-50c6-4f97-b6c5-c1dcbf4dd636"},"vehicle_type_id":"4","last_reported":1712329627,"current_range_meters":30800,"station_id":"ce4bgi12rcd13ifvqb70","pricing_plan_id":"cebpf4jnsgd1na2vs0mg"},{"bike_id":"ed3ad2dc-dd24-42c6-9c4d-6c77e5a85467","system_id":"levelo_inurba_marseille","lat":43.29304,"lon":5.37467,"is_reserved":false,"is_disabled":false,"rental_uris":{"android":"levelo://app?vid=ed3ad2dc-dd24-42c6-9c4d-6c77e5a85467","ios":"levelo://app?vid=ed3ad2dc-dd24-42c6-9c4d-6c77e5a85467"},"vehicle_type_id":"4","last_reported":1712329627,"current_range_meters":20800,"station_id":"ce4bgi12rcd13ifvqb70","pricing_plan_id":"cebpf4jnsgd1na2vs0mg"},{"bike_id":"dfa8e8fa-63e7-48fa-bb49-554521c9281b","system_id":"levelo_inurba_marseille","lat":43.293,"lon":5.37452,"is_reserved":false,"is_disabled":false,"rental_uris":{"android":"levelo://app?vid=dfa8e8fa-63e7-48fa-bb49-554521c9281b","ios":"levelo://app?vid=dfa8e8fa-63e7-48fa-bb49-554521c9281b"},"vehicle_type_id":"4","last_reported":1712329627,"current_range_meters":0,"station_id":"ce4bgi12rcd13ifvqb70","pricing_plan_id":"cebpf4jnsgd1na2vs0mg"},{"bike_id":"20d3dad5-a13c-410e-a540-81bdf32606d4","system_id":"levelo_inurba_marseille","lat":43.305994,"lon":5.393687,"is_reserved":false,"is_disabled":false,"rental_uris":{"android":"levelo://app?vid=20d3dad5-a13c-410e-a540-81bdf32606d4","ios":"levelo://app?vid=20d3dad5-a13c-410e-a540-81bdf32606d4"},"vehicle_type_id":"4","last_reported":1712329627,"current_range_meters":5200,"station_id":"ce4bh0p2rcd13ifvqd80","pricing_plan_id":"cebpf4jnsgd1na2vs0mg"},{"bike_id":"eb2cb7f3-ed25-4e95-bfa8-815ee3d321dc","system_id":"levelo_inurba_marseille","lat":43.293009,"lon":5.374584,"is_reserved":false,"is_disabled":false,"rental_uris":{"android":"levelo://app?vid=eb2cb7f3-ed25-4e95-bfa8-815ee3d321dc","ios":"levelo://app?vid=eb2cb7f3-ed25-4e95-bfa8-815ee3d321dc"},"vehicle_type_id":"4","last_reported":1712329627,"current_range_meters":30000,"station_id":"ce4bgi12rcd13ifvqb70","pricing_plan_id":"cebpf4jnsgd1na2vs0mg"},{"bike_id":"3ea688ce-5c92-4d34-ba60-aed9b482d970","system_id":"levelo_inurba_marseille","lat":43.305994,"lon":5.393687,"is_reserved":false,"is_disabled":false,"rental_uris":{"android":"levelo://app?vid=3ea688ce-5c92-4d34-ba60-aed9b482d970","ios":"levelo://app?vid=3ea688ce-5c92-4d34-ba60-aed9b482d970"},"vehicle_type_id":"4","last_reported":1712329627,"current_range_meters":4000,"station_id":"ce4bh0p2rcd13ifvqd80","pricing_plan_id":"cebpf4jnsgd1na2vs0mg"},{"bike_id":"20cc7577-ca07-4250-aeec-a4ec6a9cb055","system_id":"levelo_inurba_marseille","lat":43.29294,"lon":5.37464,"is_reserved":false,"is_disabled":false,"rental_uris":{"android":"levelo://app?vid=20cc7577-ca07-4250-aeec-a4ec6a9cb055","ios":"levelo://app?vid=20cc7577-ca07-4250-aeec-a4ec6a9cb055"},"vehicle_type_id":"4","last_reported":1712329627,"current_range_meters":30800,"station_id":"","pricing_plan_id":"cebpf4jnsgd1na2vs0mg"},{"bike_id":"5cd3535f-9824-4cc4-bceb-f2242fe55b6a","system_id":"levelo_inurba_marseille","lat":43.295196,"lon":5.39397,"is_reserved":false,"is_disabled":false,"rental_uris":{"android":"levelo://app?vid=5cd3535f-9824-4cc4-bceb-f2242fe55b6a","ios":"levelo://app?vid=5cd3535f-9824-4cc4-bceb-f2242fe55b6a"},"vehicle_type_id":"4","last_reported":1712329627,"current_range_meters":18400,"station_id":"ce4bh292rcd13ifvqdf0","pricing_plan_id":"cebpf4jnsgd1na2vs0mg"},{"bike_id":"ff52c046-cc28-4aad-82de-10a48ee5cce2","system_id":"levelo_inurba_marseille","lat":43.301117,"lon":5.398795,"is_reserved":false,"is_disabled":false,"rental_uris":{"android":"levelo://app?vid=ff52c046-cc28-4aad-82de-10a48ee5cce2","ios":"levelo://app?vid=ff52c046-cc28-4aad-82de-10a48ee5cce2"},"vehicle_type_id":"4","last_reported":1712329627,"current_range_meters":21600,"station_id":"ce4bh0h2rcd13ifvqd40","pricing_plan_id":"cebpf4jnsgd1na2vs0mg"},{"bike_id":"379233eb-b8af-45df-832b-5c0ac3c029c8","system_id":"levelo_inurba_marseille","lat":43.302992,"lon":5.392136,"is_reserved":false,"is_disabled":false,"rental_uris":{"android":"levelo://app?vid=379233eb-b8af-45df-832b-5c0ac3c029c8","ios":"levelo://app?vid=379233eb-b8af-45df-832b-5c0ac3c029c8"},"vehicle_type_id":"4","last_reported":1712329627,"current_range_meters":17600,"station_id":"ce4bgkh2rcd13ifvqbk0","pricing_plan_id":"cebpf4jnsgd1na2vs0mg"},{"bike_id":"f3b9414a-dede-44a5-a102-be7ecd690fbc","system_id":"levelo_inurba_marseille","lat":43.2936,"lon":5.37835,"is_reserved":false,"is_disabled":false,"rental_uris":{"android":"levelo://app?vid=f3b9414a-dede-44a5-a102-be7ecd690fbc","ios":"levelo://app?vid=f3b9414a-dede-44a5-a102-be7ecd690fbc"},"vehicle_type_id":"4","last_reported":1712329627,"current_range_meters":400,"station_id":"ce4bgjh2rcd13ifvqbf0","pricing_plan_id":"cebpf4jnsgd1na2vs0mg"},{"bike_id":"2a9d845a-cd6f-4211-bcd5-0256d770c8f2","system_id":"levelo_inurba_marseille","lat":43.292311,"lon":5.360731,"is_reserved":false,"is_disabled":false,"rental_uris":{"android":"levelo://app?vid=2a9d845a-cd6f-4211-bcd5-0256d770c8f2","ios":"levelo://app?vid=2a9d845a-cd6f-4211-bcd5-0256d770c8f2"},"vehicle_type_id":"4","last_reported":1712329627,"current_range_meters":0,"station_id":"ce4bhbh2rcd13ifvqeqg","pricing_plan_id":"cebpf4jnsgd1na2vs0mg"},{"bike_id":"610995e5-78eb-4781-9d28-a8530810425d","system_id":"levelo_inurba_marseille","lat":43.292311,"lon":5.360731,"is_reserved":false,"is_disabled":false,"rental_uris":{"android":"levelo://app?vid=610995e5-78eb-4781-9d28-a8530810425d","ios":"levelo://app?vid=610995e5-78eb-4781-9d28-a8530810425d"},"vehicle_type_id":"4","last_reported":1712329627,"current_range_meters":0,"station_id":"ce4bhbh2rcd13ifvqeqg","pricing_plan_id":"cebpf4jnsgd1na2vs0mg"},{"bike_id":"56bda740-aa6e-49aa-bc9e-b756efee2c48","system_id":"levelo_inurba_marseille","lat":43.292311,"lon":5.360731,"is_reserved":false,"is_disabled":false,"rental_uris":{"android":"levelo://app?vid=56bda740-aa6e-49aa-bc9e-b756efee2c48","ios":"levelo://app?vid=56bda740-aa6e-49aa-bc9e-b756efee2c48"},"vehicle_type_id":"4","last_reported":1712329627,"current_range_meters":10400,"station_id":"ce4bhbh2rcd13ifvqeqg","pricing_plan_id":"cebpf4jnsgd1na2vs0mg"},{"bike_id":"3ab1d3a3-c595-4647-984a-e85ca789bd86","system_id":"levelo_inurba_marseille","lat":43.300852,"lon":5.390859,"is_reserved":false,"is_disabled":false,"rental_uris":{"android":"levelo://app?vid=3ab1d3a3-c595-4647-984a-e85ca789bd86","ios":"levelo://app?vid=3ab1d3a3-c595-4647-984a-e85ca789bd86"},"vehicle_type_id":"4","last_reported":1712329627,"current_range_meters":18400,"station_id":"ce4bh192rcd13ifvqdb0","pricing_plan_id":"cebpf4jnsgd1na2vs0mg"},{"bike_id":"ea11263f-f132-49c6-8514-4e7c70869f7a","system_id":"levelo_inurba_marseille","lat":43.265569,"lon":5.390047,"is_reserved":false,"is_disabled":false,"rental_uris":{"android":"levelo://app?vid=ea11263f-f132-49c6-8514-4e7c70869f7a","ios":"levelo://app?vid=ea11263f-f132-49c6-8514-4e7c70869f7a"},"vehicle_type_id":"4","last_reported":1712329627,"current_range_meters":24800,"station_id":"ce4bhe12rcd13ifvqf30","pricing_plan_id":"cebpf4jnsgd1na2vs0mg"},{"bike_id":"d6b382ec-634d-45d5-9e22-9cbb790b3e7e","system_id":"levelo_inurba_marseille","lat":43.292005,"lon":5.357875,"is_reserved":false,"is_disabled":false,"rental_uris":{"android":"levelo://app?vid=d6b382ec-634d-45d5-9e22-9cbb790b3e7e","ios":"levelo://app?vid=d6b382ec-634d-45d5-9e22-9cbb790b3e7e"},"vehicle_type_id":"4","last_reported":1712329627,"current_range_meters":30800,"station_id":"ce4bhb12rcd13ifvqel0","pricing_plan_id":"cebpf4jnsgd1na2vs0mg"},{"bike_id":"2c754861-34ca-4e67-979d-3d2aaabf73c4","system_id":"levelo_inurba_marseille","lat":43.292005,"lon":5.357875,"is_reserved":false,"is_disabled":false,"rental_uris":{"android":"levelo://app?vid=2c754861-34ca-4e67-979d-3d2aaabf73c4","ios":"levelo://app?vid=2c754861-34ca-4e67-979d-3d2aaabf73c4"},"vehicle_type_id":"4","last_reported":1712329627,"current_range_meters":17200,"station_id":"ce4bhb12rcd13ifvqel0","pricing_plan_id":"cebpf4jnsgd1na2vs0mg"},{"bike_id":"6471ea6f-23f6-4893-8bf5-5daa890940f0","system_id":"levelo_inurba_marseille","lat":43.292005,"lon":5.357875,"is_reserved":false,"is_disabled":false,"rental_uris":{"android":"levelo://app?vid=6471ea6f-23f6-4893-8bf5-5daa890940f0","ios":"levelo://app?vid=6471ea6f-23f6-4893-8bf5-5daa890940f0"},"vehicle_type_id":"4","last_reported":1712329627,"current_range_meters":14000,"station_id":"ce4bhb12rcd13ifvqel0","pricing_plan_id":"cebpf4jnsgd1na2vs0mg"},{"bike_id":"166d154a-663d-4d45-ac2e-713b9eace718","system_id":"levelo_inurba_marseille","lat":43.291994,"lon":5.357886,"is_reserved":false,"is_disabled":false,"rental_uris":{"android":"levelo://app?vid=166d154a-663d-4d45-ac2e-713b9eace718","ios":"levelo://app?vid=166d154a-663d-4d45-ac2e-713b9eace718"},"vehicle_type_id":"4","last_reported":1712329627,"current_range_meters":10800,"station_id":"ce4bhb12rcd13ifvqel0","pricing_plan_id":"cebpf4jnsgd1na2vs0mg"},{"bike_id":"72f2f8ce-0215-4a29-b6d1-df39719587a7","system_id":"levelo_inurba_marseille","lat":43.309047,"lon":5.396551,"is_reserved":false,"is_disabled":false,"rental_uris":{"android":"levelo://app?vid=72f2f8ce-0215-4a29-b6d1-df39719587a7","ios":"levelo://app?vid=72f2f8ce-0215-4a29-b6d1-df39719587a7"},"vehicle_type_id":"4","last_reported":1712329627,"current_range_meters":0,"station_id":"ce4bh012rcd13ifvqcv0","pricing_plan_id":"cebpf4jnsgd1na2vs0mg"},{"bike_id":"339f9ec2-03ea-461b-b69c-07c008929c00","system_id":"levelo_inurba_marseille","lat":43.309038,"lon":5.396546,"is_reserved":false,"is_disabled":false,"rental_uris":{"android":"levelo://app?vid=339f9ec2-03ea-461b-b69c-07c008929c00","ios":"levelo://app?vid=339f9ec2-03ea-461b-b69c-07c008929c00"},"vehicle_type_id":"4","last_reported":1712329627,"current_range_meters":10000,"station_id":"ce4bh012rcd13ifvqcv0","pricing_plan_id":"cebpf4jnsgd1na2vs0mg"},{"bike_id":"5efb1ceb-6872-495b-8d52-21f1dac9a5e8","system_id":"levelo_inurba_marseille","lat":43.313291,"lon":5.396838,"is_reserved":false,"is_disabled":false,"rental_uris":{"android":"levelo://app?vid=5efb1ceb-6872-495b-8d52-21f1dac9a5e8","ios":"levelo://app?vid=5efb1ceb-6872-495b-8d52-21f1dac9a5e8"},"vehicle_type_id":"4","last_reported":1712329627,"current_range_meters":9600,"station_id":"ce4bgvp2rcd13ifvqcu0","pricing_plan_id":"cebpf4jnsgd1na2vs0mg"},{"bike_id":"2f08c50b-5749-4683-9566-0511479872f4","system_id":"levelo_inurba_marseille","lat":43.290631,"lon":5.359244,"is_reserved":false,"is_disabled":false,"rental_uris":{"android":"levelo://app?vid=2f08c50b-5749-4683-9566-0511479872f4","ios":"levelo://app?vid=2f08c50b-5749-4683-9566-0511479872f4"},"vehicle_type_id":"4","last_reported":1712329627,"current_range_meters":28400,"station_id":"ce4bha92rcd13ifvqeg0","pricing_plan_id":"cebpf4jnsgd1na2vs0mg"},{"bike_id":"9d7484a5-d577-4437-9b3a-36b376ea0696","system_id":"levelo_inurba_marseille","lat":43.294153,"lon":5.386305,"is_reserved":false,"is_disabled":false,"rental_uris":{"android":"levelo://app?vid=9d7484a5-d577-4437-9b3a-36b376ea0696","ios":"levelo://app?vid=9d7484a5-d577-4437-9b3a-36b376ea0696"},"vehicle_type_id":"4","last_reported":1712329627,"current_range_meters":19600,"station_id":"ce4bh2h2rcd13ifvqdh0","pricing_plan_id":"cebpf4jnsgd1na2vs0mg"},{"bike_id":"7ed2e5cc-26ad-43f5-bf85-b4ebee1b62cb","system_id":"levelo_inurba_marseille","lat":43.309038,"lon":5.396546,"is_reserved":false,"is_disabled":false,"rental_uris":{"android":"levelo://app?vid=7ed2e5cc-26ad-43f5-bf85-b4ebee1b62cb","ios":"levelo://app?vid=7ed2e5cc-26ad-43f5-bf85-b4ebee1b62cb"},"vehicle_type_id":"4","last_reported":1712329627,"current_range_meters":2800,"station_id":"ce4bh012rcd13ifvqcv0","pricing_plan_id":"cebpf4jnsgd1na2vs0mg"},{"bike_id":"49c3c6cf-2bcb-4492-bd7b-e445bc72c048","system_id":"levelo_inurba_marseille","lat":43.294162,"lon":5.386292,"is_reserved":false,"is_disabled":false,"rental_uris":{"android":"levelo://app?vid=49c3c6cf-2bcb-4492-bd7b-e445bc72c048","ios":"levelo://app?vid=49c3c6cf-2bcb-4492-bd7b-e445bc72c048"},"vehicle_type_id":"4","last_reported":1712329627,"current_range_meters":0,"station_id":"ce4bh2h2rcd13ifvqdh0","pricing_plan_id":"cebpf4jnsgd1na2vs0mg"},{"bike_id":"1c776c8f-064d-4bbb-ae74-04316a4a0633","system_id":"levelo_inurba_marseille","lat":43.294153,"lon":5.386305,"is_reserved":false,"is_disabled":false,"rental_uris":{"android":"levelo://app?vid=1c776c8f-064d-4bbb-ae74-04316a4a0633","ios":"levelo://app?vid=1c776c8f-064d-4bbb-ae74-04316a4a0633"},"vehicle_type_id":"4","last_reported":1712329627,"current_range_meters":18400,"station_id":"ce4bh2h2rcd13ifvqdh0","pricing_plan_id":"cebpf4jnsgd1na2vs0mg"},{"bike_id":"bfc228c8-6e44-4145-a149-7d93cad1debd","system_id":"levelo_inurba_marseille","lat":43.29422,"lon":5.38637,"is_reserved":false,"is_disabled":false,"rental_uris":{"android":"levelo://app?vid=bfc228c8-6e44-4145-a149-7d93cad1debd","ios":"levelo://app?vid=bfc228c8-6e44-4145-a149-7d93cad1debd"},"vehicle_type_id":"4","last_reported":1712329627,"current_range_meters":0,"station_id":"ce4bh2h2rcd13ifvqdh0","pricing_plan_id":"cebpf4jnsgd1na2vs0mg"},{"bike_id":"dc172f65-0dc5-4400-84f7-5c3082c16442","system_id":"levelo_inurba_marseille","lat":43.2894,"lon":5.36629,"is_reserved":false,"is_disabled":false,"rental_uris":{"android":"levelo://app?vid=dc172f65-0dc5-4400-84f7-5c3082c16442","ios":"levelo://app?vid=dc172f65-0dc5-4400-84f7-5c3082c16442"},"vehicle_type_id":"4","last_reported":1712329627,"current_range_meters":0,"station_id":"ce4bhap2rcd13ifvqek0","pricing_plan_id":"cebpf4jnsgd1na2vs0mg"},{"bike_id":"be793e5a-0a0a-4b68-833f-044c65c65b6d","system_id":"levelo_inurba_marseille","lat":43.289468,"lon":5.363719,"is_reserved":false,"is_disabled":false,"rental_uris":{"android":"levelo://app?vid=be793e5a-0a0a-4b68-833f-044c65c65b6d","ios":"levelo://app?vid=be793e5a-0a0a-4b68-833f-044c65c65b6d"},"vehicle_type_id":"4","last_reported":1712329627,"current_range_meters":28400,"station_id":"ce4bhc92rcd13ifvqetg","pricing_plan_id":"cebpf4jnsgd1na2vs0mg"},{"bike_id":"fe64af63-be04-4d60-9f1d-72d9407613dc","system_id":"levelo_inurba_marseille","lat":43.292592,"lon":5.384295,"is_reserved":false,"is_disabled":false,"rental_uris":{"android":"levelo://app?vid=fe64af63-be04-4d60-9f1d-72d9407613dc","ios":"levelo://app?vid=fe64af63-be04-4d60-9f1d-72d9407613dc"},"vehicle_type_id":"4","last_reported":1712329627,"current_range_meters":14800,"station_id":"ce4bh692rcd13ifvqea0","pricing_plan_id":"cebpf4jnsgd1na2vs0mg"},{"bike_id":"359f6064-a4f3-43d6-913c-9aa64bfd8952","system_id":"levelo_inurba_marseille","lat":43.301429,"lon":5.37413,"is_reserved":false,"is_disabled":false,"rental_uris":{"android":"levelo://app?vid=359f6064-a4f3-43d6-913c-9aa64bfd8952","ios":"levelo://app?vid=359f6064-a4f3-43d6-913c-9aa64bfd8952"},"vehicle_type_id":"4","last_reported":1712329627,"current_range_meters":3600,"station_id":"ce4bgs92rcd13ifvqcc0","pricing_plan_id":"cebpf4jnsgd1na2vs0mg"},{"bike_id":"3cf93c3e-696e-4b58-a410-164ed2a9bb00","system_id":"levelo_inurba_marseille","lat":43.2926,"lon":5.38441,"is_reserved":false,"is_disabled":false,"rental_uris":{"android":"levelo://app?vid=3cf93c3e-696e-4b58-a410-164ed2a9bb00","ios":"levelo://app?vid=3cf93c3e-696e-4b58-a410-164ed2a9bb00"},"vehicle_type_id":"4","last_reported":1712329627,"current_range_meters":0,"station_id":"ce4bh692rcd13ifvqea0","pricing_plan_id":"cebpf4jnsgd1na2vs0mg"},{"bike_id":"deaa809b-deb8-4904-a4f6-54d1587ad7de","system_id":"levelo_inurba_marseille","lat":43.289743,"lon":5.378304,"is_reserved":false,"is_disabled":false,"rental_uris":{"android":"levelo://app?vid=deaa809b-deb8-4904-a4f6-54d1587ad7de","ios":"levelo://app?vid=deaa809b-deb8-4904-a4f6-54d1587ad7de"},"vehicle_type_id":"4","last_reported":1712329627,"current_range_meters":5200,"station_id":"ce4bh9p2rcd13ifvqed0","pricing_plan_id":"cebpf4jnsgd1na2vs0mg"},{"bike_id":"65d56cf3-ec2a-4cd1-a531-19b423c2bf09","system_id":"levelo_inurba_marseille","lat":43.290103,"lon":5.356114,"is_reserved":false,"is_disabled":false,"rental_uris":{"android":"levelo://app?vid=65d56cf3-ec2a-4cd1-a531-19b423c2bf09","ios":"levelo://app?vid=65d56cf3-ec2a-4cd1-a531-19b423c2bf09"},"vehicle_type_id":"4","last_reported":1712329627,"current_range_meters":1600,"station_id":"ce4bhb92rcd13ifvqen0","pricing_plan_id":"cebpf4jnsgd1na2vs0mg"},{"bike_id":"928a01be-6155-4a9a-a723-a2a3135d6613","system_id":"levelo_inurba_marseille","lat":43.2901,"lon":5.35617,"is_reserved":false,"is_disabled":false,"rental_uris":{"android":"levelo://app?vid=928a01be-6155-4a9a-a723-a2a3135d6613","ios":"levelo://app?vid=928a01be-6155-4a9a-a723-a2a3135d6613"},"vehicle_type_id":"4","last_reported":1712329627,"current_range_meters":6400,"station_id":"ce4bhb92rcd13ifvqen0","pricing_plan_id":"cebpf4jnsgd1na2vs0mg"},{"bike_id":"1ea8a5a5-aefd-4a91-9a3d-0775d6a4675a","system_id":"levelo_inurba_marseille","lat":43.290104,"lon":5.356111,"is_reserved":false,"is_disabled":false,"rental_uris":{"android":"levelo://app?vid=1ea8a5a5-aefd-4a91-9a3d-0775d6a4675a","ios":"levelo://app?vid=1ea8a5a5-aefd-4a91-9a3d-0775d6a4675a"},"vehicle_type_id":"4","last_reported":1712329627,"current_range_meters":19200,"station_id":"ce4bhb92rcd13ifvqen0","pricing_plan_id":"cebpf4jnsgd1na2vs0mg"},{"bike_id":"02a8e107-faf9-4e22-b74a-44d86a962e40","system_id":"levelo_inurba_marseille","lat":43.290103,"lon":5.356114,"is_reserved":false,"is_disabled":false,"rental_uris":{"android":"levelo://app?vid=02a8e107-faf9-4e22-b74a-44d86a962e40","ios":"levelo://app?vid=02a8e107-faf9-4e22-b74a-44d86a962e40"},"vehicle_type_id":"4","last_reported":1712329627,"current_range_meters":0,"station_id":"ce4bhb92rcd13ifvqen0","pricing_plan_id":"cebpf4jnsgd1na2vs0mg"},{"bike_id":"e6a406eb-bb7a-48e2-b395-26c7b2037916","system_id":"levelo_inurba_marseille","lat":43.290103,"lon":5.356114,"is_reserved":false,"is_disabled":false,"rental_uris":{"android":"levelo://app?vid=e6a406eb-bb7a-48e2-b395-26c7b2037916","ios":"levelo://app?vid=e6a406eb-bb7a-48e2-b395-26c7b2037916"},"vehicle_type_id":"4","last_reported":1712329627,"current_range_meters":8000,"station_id":"ce4bhb92rcd13ifvqen0","pricing_plan_id":"cebpf4jnsgd1na2vs0mg"},{"bike_id":"66cf159a-3656-43fd-adbe-1810ded7334f","system_id":"levelo_inurba_marseille","lat":43.290104,"lon":5.356111,"is_reserved":false,"is_disabled":false,"rental_uris":{"android":"levelo://app?vid=66cf159a-3656-43fd-adbe-1810ded7334f","ios":"levelo://app?vid=66cf159a-3656-43fd-adbe-1810ded7334f"},"vehicle_type_id":"4","last_reported":1712329627,"current_range_meters":400,"station_id":"ce4bhb92rcd13ifvqen0","pricing_plan_id":"cebpf4jnsgd1na2vs0mg"},{"bike_id":"a5685b6e-31d4-423b-942a-02b4dd2c5c28","system_id":"levelo_inurba_marseille","lat":43.284219,"lon":5.3497,"is_reserved":false,"is_disabled":false,"rental_uris":{"android":"levelo://app?vid=a5685b6e-31d4-423b-942a-02b4dd2c5c28","ios":"levelo://app?vid=a5685b6e-31d4-423b-942a-02b4dd2c5c28"},"vehicle_type_id":"4","last_reported":1712329627,"current_range_meters":19600,"station_id":"ce4bhbh2rcd13ifvqepg","pricing_plan_id":"cebpf4jnsgd1na2vs0mg"},{"bike_id":"223e296a-c174-4699-ad7b-0fd443b8ec97","system_id":"levelo_inurba_marseille","lat":43.29107,"lon":5.38144,"is_reserved":false,"is_disabled":false,"rental_uris":{"android":"levelo://app?vid=223e296a-c174-4699-ad7b-0fd443b8ec97","ios":"levelo://app?vid=223e296a-c174-4699-ad7b-0fd443b8ec97"},"vehicle_type_id":"4","last_reported":1712329627,"current_range_meters":0,"station_id":"ce4bh512rcd13ifvqe2g","pricing_plan_id":"cebpf4jnsgd1na2vs0mg"},{"bike_id":"b56f83fe-a992-4d53-ad00-71032e3744d5","system_id":"levelo_inurba_marseille","lat":43.290995,"lon":5.381361,"is_reserved":false,"is_disabled":false,"rental_uris":{"android":"levelo://app?vid=b56f83fe-a992-4d53-ad00-71032e3744d5","ios":"levelo://app?vid=b56f83fe-a992-4d53-ad00-71032e3744d5"},"vehicle_type_id":"4","last_reported":1712329627,"current_range_meters":8800,"station_id":"ce4bh512rcd13ifvqe2g","pricing_plan_id":"cebpf4jnsgd1na2vs0mg"},{"bike_id":"76c86439-ca48-4fc1-8990-f104f7f3fe1c","system_id":"levelo_inurba_marseille","lat":43.29529,"lon":5.385581,"is_reserved":false,"is_disabled":false,"rental_uris":{"android":"levelo://app?vid=76c86439-ca48-4fc1-8990-f104f7f3fe1c","ios":"levelo://app?vid=76c86439-ca48-4fc1-8990-f104f7f3fe1c"},"vehicle_type_id":"4","last_reported":1712329627,"current_range_meters":21600,"station_id":"ce4bgih2rcd13ifvqba0","pricing_plan_id":"cebpf4jnsgd1na2vs0mg"},{"bike_id":"d921e7a2-eb78-47d4-8bdb-1bd2dab0b1e7","system_id":"levelo_inurba_marseille","lat":43.295169,"lon":5.390426,"is_reserved":false,"is_disabled":false,"rental_uris":{"android":"levelo://app?vid=d921e7a2-eb78-47d4-8bdb-1bd2dab0b1e7","ios":"levelo://app?vid=d921e7a2-eb78-47d4-8bdb-1bd2dab0b1e7"},"vehicle_type_id":"4","last_reported":1712329627,"current_range_meters":20000,"station_id":"ce4bh3p2rcd13ifvqdp0","pricing_plan_id":"cebpf4jnsgd1na2vs0mg"},{"bike_id":"41f2d59e-12e5-4572-b9eb-f2548173516b","system_id":"levelo_inurba_marseille","lat":43.273125,"lon":5.390731,"is_reserved":false,"is_disabled":false,"rental_uris":{"android":"levelo://app?vid=41f2d59e-12e5-4572-b9eb-f2548173516b","ios":"levelo://app?vid=41f2d59e-12e5-4572-b9eb-f2548173516b"},"vehicle_type_id":"4","last_reported":1712329627,"current_range_meters":12000,"station_id":"ce4bhgp2rcd13ifvqfe0","pricing_plan_id":"cebpf4jnsgd1na2vs0mg"},{"bike_id":"816999b8-5667-4579-91c8-99a4005dd824","system_id":"levelo_inurba_marseille","lat":43.295169,"lon":5.390426,"is_reserved":false,"is_disabled":false,"rental_uris":{"android":"levelo://app?vid=816999b8-5667-4579-91c8-99a4005dd824","ios":"levelo://app?vid=816999b8-5667-4579-91c8-99a4005dd824"},"vehicle_type_id":"4","last_reported":1712329627,"current_range_meters":0,"station_id":"ce4bh3p2rcd13ifvqdp0","pricing_plan_id":"cebpf4jnsgd1na2vs0mg"},{"bike_id":"c1ad96ca-4321-4a0b-ab9b-653ce444b28e","system_id":"levelo_inurba_marseille","lat":43.295169,"lon":5.390426,"is_reserved":false,"is_disabled":false,"rental_uris":{"android":"levelo://app?vid=c1ad96ca-4321-4a0b-ab9b-653ce444b28e","ios":"levelo://app?vid=c1ad96ca-4321-4a0b-ab9b-653ce444b28e"},"vehicle_type_id":"4","last_reported":1712329627,"current_range_meters":20400,"station_id":"ce4bh3p2rcd13ifvqdp0","pricing_plan_id":"cebpf4jnsgd1na2vs0mg"},{"bike_id":"e4cad91b-c81a-46ef-8811-667e714f8790","system_id":"levelo_inurba_marseille","lat":43.330442,"lon":5.389148,"is_reserved":false,"is_disabled":false,"rental_uris":{"android":"levelo://app?vid=e4cad91b-c81a-46ef-8811-667e714f8790","ios":"levelo://app?vid=e4cad91b-c81a-46ef-8811-667e714f8790"},"vehicle_type_id":"4","last_reported":1712329627,"current_range_meters":28400,"station_id":"ce4bhr92rcd13ifvqhrg","pricing_plan_id":"cebpf4jnsgd1na2vs0mg"},{"bike_id":"dc0238b4-59e1-42bb-8958-a41849d79d26","system_id":"levelo_inurba_marseille","lat":43.330442,"lon":5.389148,"is_reserved":false,"is_disabled":false,"rental_uris":{"android":"levelo://app?vid=dc0238b4-59e1-42bb-8958-a41849d79d26","ios":"levelo://app?vid=dc0238b4-59e1-42bb-8958-a41849d79d26"},"vehicle_type_id":"4","last_reported":1712329627,"current_range_meters":26000,"station_id":"ce4bhr92rcd13ifvqhrg","pricing_plan_id":"cebpf4jnsgd1na2vs0mg"},{"bike_id":"53e0c1be-b6c9-4a98-a224-1656bdfd3bb0","system_id":"levelo_inurba_marseille","lat":43.330442,"lon":5.389148,"is_reserved":false,"is_disabled":false,"rental_uris":{"android":"levelo://app?vid=53e0c1be-b6c9-4a98-a224-1656bdfd3bb0","ios":"levelo://app?vid=53e0c1be-b6c9-4a98-a224-1656bdfd3bb0"},"vehicle_type_id":"4","last_reported":1712329627,"current_range_meters":31200,"station_id":"ce4bhr92rcd13ifvqhrg","pricing_plan_id":"cebpf4jnsgd1na2vs0mg"},{"bike_id":"c2e9d430-2537-43af-85e1-448ce2a265cf","system_id":"levelo_inurba_marseille","lat":43.330442,"lon":5.389148,"is_reserved":false,"is_disabled":false,"rental_uris":{"android":"levelo://app?vid=c2e9d430-2537-43af-85e1-448ce2a265cf","ios":"levelo://app?vid=c2e9d430-2537-43af-85e1-448ce2a265cf"},"vehicle_type_id":"4","last_reported":1712329627,"current_range_meters":16800,"station_id":"ce4bhr92rcd13ifvqhrg","pricing_plan_id":"cebpf4jnsgd1na2vs0mg"},{"bike_id":"a1b3a091-944b-4acd-88df-380f73f363cf","system_id":"levelo_inurba_marseille","lat":43.33024,"lon":5.39033,"is_reserved":false,"is_disabled":false,"rental_uris":{"android":"levelo://app?vid=a1b3a091-944b-4acd-88df-380f73f363cf","ios":"levelo://app?vid=a1b3a091-944b-4acd-88df-380f73f363cf"},"vehicle_type_id":"4","last_reported":1712329627,"current_range_meters":18000,"station_id":"ce4bhr92rcd13ifvqhrg","pricing_plan_id":"cebpf4jnsgd1na2vs0mg"},{"bike_id":"f5efb968-c2c9-46b2-8c96-74076d3513fc","system_id":"levelo_inurba_marseille","lat":43.33024,"lon":5.39034,"is_reserved":false,"is_disabled":false,"rental_uris":{"android":"levelo://app?vid=f5efb968-c2c9-46b2-8c96-74076d3513fc","ios":"levelo://app?vid=f5efb968-c2c9-46b2-8c96-74076d3513fc"},"vehicle_type_id":"4","last_reported":1712329627,"current_range_meters":0,"station_id":"ce4bhr92rcd13ifvqhrg","pricing_plan_id":"cebpf4jnsgd1na2vs0mg"},{"bike_id":"9df3f58b-59d7-47a8-94f7-205d1a6d2571","system_id":"levelo_inurba_marseille","lat":43.33025,"lon":5.39039,"is_reserved":false,"is_disabled":false,"rental_uris":{"android":"levelo://app?vid=9df3f58b-59d7-47a8-94f7-205d1a6d2571","ios":"levelo://app?vid=9df3f58b-59d7-47a8-94f7-205d1a6d2571"},"vehicle_type_id":"4","last_reported":1712329627,"current_range_meters":15200,"station_id":"ce4bhr92rcd13ifvqhrg","pricing_plan_id":"cebpf4jnsgd1na2vs0mg"},{"bike_id":"4cd20912-ace4-4413-9b8c-fb64fba2ca03","system_id":"levelo_inurba_marseille","lat":43.288711,"lon":5.373173,"is_reserved":false,"is_disabled":false,"rental_uris":{"android":"levelo://app?vid=4cd20912-ace4-4413-9b8c-fb64fba2ca03","ios":"levelo://app?vid=4cd20912-ace4-4413-9b8c-fb64fba2ca03"},"vehicle_type_id":"4","last_reported":1712329627,"current_range_meters":24400,"station_id":"","pricing_plan_id":"cebpf4jnsgd1na2vs0mg"},{"bike_id":"347d1f46-f135-40c9-81a4-7e1a5cd0ff3f","system_id":"levelo_inurba_marseille","lat":43.330442,"lon":5.389148,"is_reserved":false,"is_disabled":false,"rental_uris":{"android":"levelo://app?vid=347d1f46-f135-40c9-81a4-7e1a5cd0ff3f","ios":"levelo://app?vid=347d1f46-f135-40c9-81a4-7e1a5cd0ff3f"},"vehicle_type_id":"4","last_reported":1712329627,"current_range_meters":8800,"station_id":"ce4bhr92rcd13ifvqhrg","pricing_plan_id":"cebpf4jnsgd1na2vs0mg"},{"bike_id":"3a91dd90-9171-4330-aac6-09ca7e2835fd","system_id":"levelo_inurba_marseille","lat":43.33024,"lon":5.39044,"is_reserved":false,"is_disabled":false,"rental_uris":{"android":"levelo://app?vid=3a91dd90-9171-4330-aac6-09ca7e2835fd","ios":"levelo://app?vid=3a91dd90-9171-4330-aac6-09ca7e2835fd"},"vehicle_type_id":"4","last_reported":1712329627,"current_range_meters":14000,"station_id":"ce4bhr92rcd13ifvqhrg","pricing_plan_id":"cebpf4jnsgd1na2vs0mg"},{"bike_id":"b9619109-98bf-4653-a9b3-d3e04b3933fb","system_id":"levelo_inurba_marseille","lat":43.33029,"lon":5.39037,"is_reserved":false,"is_disabled":false,"rental_uris":{"android":"levelo://app?vid=b9619109-98bf-4653-a9b3-d3e04b3933fb","ios":"levelo://app?vid=b9619109-98bf-4653-a9b3-d3e04b3933fb"},"vehicle_type_id":"4","last_reported":1712329627,"current_range_meters":19600,"station_id":"ce4bhr92rcd13ifvqhrg","pricing_plan_id":"cebpf4jnsgd1na2vs0mg"},{"bike_id":"92f6e33f-91c9-438a-abeb-3bd4dfa2d9ed","system_id":"levelo_inurba_marseille","lat":43.33026,"lon":5.39042,"is_reserved":false,"is_disabled":false,"rental_uris":{"android":"levelo://app?vid=92f6e33f-91c9-438a-abeb-3bd4dfa2d9ed","ios":"levelo://app?vid=92f6e33f-91c9-438a-abeb-3bd4dfa2d9ed"},"vehicle_type_id":"4","last_reported":1712329627,"current_range_meters":27200,"station_id":"ce4bhr92rcd13ifvqhrg","pricing_plan_id":"cebpf4jnsgd1na2vs0mg"},{"bike_id":"1dce9aa1-5232-4b74-8ce2-5f74a5bbde23","system_id":"levelo_inurba_marseille","lat":43.33113,"lon":5.38923,"is_reserved":false,"is_disabled":false,"rental_uris":{"android":"levelo://app?vid=1dce9aa1-5232-4b74-8ce2-5f74a5bbde23","ios":"levelo://app?vid=1dce9aa1-5232-4b74-8ce2-5f74a5bbde23"},"vehicle_type_id":"4","last_reported":1712329627,"current_range_meters":20400,"station_id":"","pricing_plan_id":"cebpf4jnsgd1na2vs0mg"},{"bike_id":"00acad63-ffff-4a53-89d2-c0a157da1982","system_id":"levelo_inurba_marseille","lat":43.306412,"lon":5.401035,"is_reserved":false,"is_disabled":false,"rental_uris":{"android":"levelo://app?vid=00acad63-ffff-4a53-89d2-c0a157da1982","ios":"levelo://app?vid=00acad63-ffff-4a53-89d2-c0a157da1982"},"vehicle_type_id":"4","last_reported":1712329627,"current_range_meters":0,"station_id":"ce4bh112rcd13ifvqda0","pricing_plan_id":"cebpf4jnsgd1na2vs0mg"},{"bike_id":"3b87a693-8ce6-42e3-8ed8-1fbf50b15285","system_id":"levelo_inurba_marseille","lat":43.33659,"lon":5.37508,"is_reserved":false,"is_disabled":false,"rental_uris":{"android":"levelo://app?vid=3b87a693-8ce6-42e3-8ed8-1fbf50b15285","ios":"levelo://app?vid=3b87a693-8ce6-42e3-8ed8-1fbf50b15285"},"vehicle_type_id":"4","last_reported":1712329627,"current_range_meters":2000,"station_id":"","pricing_plan_id":"cebpf4jnsgd1na2vs0mg"},{"bike_id":"7fd64579-be49-45b9-83c9-ba5d1805f490","system_id":"levelo_inurba_marseille","lat":43.330324,"lon":5.391501,"is_reserved":false,"is_disabled":false,"rental_uris":{"android":"levelo://app?vid=7fd64579-be49-45b9-83c9-ba5d1805f490","ios":"levelo://app?vid=7fd64579-be49-45b9-83c9-ba5d1805f490"},"vehicle_type_id":"4","last_reported":1712329627,"current_range_meters":800,"station_id":"ce4bhr92rcd13ifvqhrg","pricing_plan_id":"cebpf4jnsgd1na2vs0mg"},{"bike_id":"fdb464a2-93a1-4673-9f94-c903707771ab","system_id":"levelo_inurba_marseille","lat":43.312609,"lon":5.401662,"is_reserved":false,"is_disabled":false,"rental_uris":{"android":"levelo://app?vid=fdb464a2-93a1-4673-9f94-c903707771ab","ios":"levelo://app?vid=fdb464a2-93a1-4673-9f94-c903707771ab"},"vehicle_type_id":"4","last_reported":1712329627,"current_range_meters":18000,"station_id":"ce4bh092rcd13ifvqd30","pricing_plan_id":"cebpf4jnsgd1na2vs0mg"},{"bike_id":"f92d4438-b127-48f2-bb29-432fc791aa74","system_id":"levelo_inurba_marseille","lat":43.312609,"lon":5.401662,"is_reserved":false,"is_disabled":false,"rental_uris":{"android":"levelo://app?vid=f92d4438-b127-48f2-bb29-432fc791aa74","ios":"levelo://app?vid=f92d4438-b127-48f2-bb29-432fc791aa74"},"vehicle_type_id":"4","last_reported":1712329627,"current_range_meters":18400,"station_id":"ce4bh092rcd13ifvqd30","pricing_plan_id":"cebpf4jnsgd1na2vs0mg"},{"bike_id":"3f0403de-11b1-4772-93f8-275cb8cd66bd","system_id":"levelo_inurba_marseille","lat":43.312609,"lon":5.401662,"is_reserved":false,"is_disabled":false,"rental_uris":{"android":"levelo://app?vid=3f0403de-11b1-4772-93f8-275cb8cd66bd","ios":"levelo://app?vid=3f0403de-11b1-4772-93f8-275cb8cd66bd"},"vehicle_type_id":"4","last_reported":1712329627,"current_range_meters":3600,"station_id":"ce4bh092rcd13ifvqd30","pricing_plan_id":"cebpf4jnsgd1na2vs0mg"},{"bike_id":"ac9b071d-f1b2-4d20-8d90-6832208517d9","system_id":"levelo_inurba_marseille","lat":43.309371,"lon":5.401449,"is_reserved":false,"is_disabled":false,"rental_uris":{"android":"levelo://app?vid=ac9b071d-f1b2-4d20-8d90-6832208517d9","ios":"levelo://app?vid=ac9b071d-f1b2-4d20-8d90-6832208517d9"},"vehicle_type_id":"4","last_reported":1712329627,"current_range_meters":3200,"station_id":"ce4bgvp2rcd13ifvqct0","pricing_plan_id":"cebpf4jnsgd1na2vs0mg"},{"bike_id":"ca35a358-1f52-49e4-b0c7-3cb17ba58a22","system_id":"levelo_inurba_marseille","lat":43.30642,"lon":5.401031,"is_reserved":false,"is_disabled":false,"rental_uris":{"android":"levelo://app?vid=ca35a358-1f52-49e4-b0c7-3cb17ba58a22","ios":"levelo://app?vid=ca35a358-1f52-49e4-b0c7-3cb17ba58a22"},"vehicle_type_id":"4","last_reported":1712329627,"current_range_meters":15600,"station_id":"ce4bh112rcd13ifvqda0","pricing_plan_id":"cebpf4jnsgd1na2vs0mg"},{"bike_id":"b2b337b1-0d1d-4ac0-beda-775dbdd63c01","system_id":"levelo_inurba_marseille","lat":43.30134,"lon":5.39865,"is_reserved":false,"is_disabled":false,"rental_uris":{"android":"levelo://app?vid=b2b337b1-0d1d-4ac0-beda-775dbdd63c01","ios":"levelo://app?vid=b2b337b1-0d1d-4ac0-beda-775dbdd63c01"},"vehicle_type_id":"4","last_reported":1712329627,"current_range_meters":0,"station_id":"ce4bh0h2rcd13ifvqd40","pricing_plan_id":"cebpf4jnsgd1na2vs0mg"},{"bike_id":"94ae3649-a4fa-4352-93bb-3e0d42bf6ee2","system_id":"levelo_inurba_marseille","lat":43.301117,"lon":5.398795,"is_reserved":false,"is_disabled":false,"rental_uris":{"android":"levelo://app?vid=94ae3649-a4fa-4352-93bb-3e0d42bf6ee2","ios":"levelo://app?vid=94ae3649-a4fa-4352-93bb-3e0d42bf6ee2"},"vehicle_type_id":"4","last_reported":1712329627,"current_range_meters":11200,"station_id":"ce4bh0h2rcd13ifvqd40","pricing_plan_id":"cebpf4jnsgd1na2vs0mg"},{"bike_id":"49a17e6e-d125-4d74-92f7-012bbb390636","system_id":"levelo_inurba_marseille","lat":43.28727,"lon":5.36078,"is_reserved":false,"is_disabled":false,"rental_uris":{"android":"levelo://app?vid=49a17e6e-d125-4d74-92f7-012bbb390636","ios":"levelo://app?vid=49a17e6e-d125-4d74-92f7-012bbb390636"},"vehicle_type_id":"4","last_reported":1712329627,"current_range_meters":14400,"station_id":"cki0cbj6b192h4jlfktg","pricing_plan_id":"cebpf4jnsgd1na2vs0mg"},{"bike_id":"49fd8401-45ba-4333-93c6-c8d325dfaff6","system_id":"levelo_inurba_marseille","lat":43.28727,"lon":5.36078,"is_reserved":false,"is_disabled":false,"rental_uris":{"android":"levelo://app?vid=49fd8401-45ba-4333-93c6-c8d325dfaff6","ios":"levelo://app?vid=49fd8401-45ba-4333-93c6-c8d325dfaff6"},"vehicle_type_id":"4","last_reported":1712329627,"current_range_meters":13600,"station_id":"cki0cbj6b192h4jlfktg","pricing_plan_id":"cebpf4jnsgd1na2vs0mg"},{"bike_id":"375d72d1-7d96-4b75-ad93-f66c2a635f0c","system_id":"levelo_inurba_marseille","lat":43.287184,"lon":5.37937,"is_reserved":false,"is_disabled":false,"rental_uris":{"android":"levelo://app?vid=375d72d1-7d96-4b75-ad93-f66c2a635f0c","ios":"levelo://app?vid=375d72d1-7d96-4b75-ad93-f66c2a635f0c"},"vehicle_type_id":"4","last_reported":1712329627,"current_range_meters":8400,"station_id":"ce4bh9p2rcd13ifvqec0","pricing_plan_id":"cebpf4jnsgd1na2vs0mg"},{"bike_id":"d0b2e16b-a781-44bb-b471-d9a4cfc01273","system_id":"levelo_inurba_marseille","lat":43.286593,"lon":5.363346,"is_reserved":false,"is_disabled":false,"rental_uris":{"android":"levelo://app?vid=d0b2e16b-a781-44bb-b471-d9a4cfc01273","ios":"levelo://app?vid=d0b2e16b-a781-44bb-b471-d9a4cfc01273"},"vehicle_type_id":"4","last_reported":1712329627,"current_range_meters":0,"station_id":"ce4bhah2rcd13ifvqej0","pricing_plan_id":"cebpf4jnsgd1na2vs0mg"},{"bike_id":"47ba22a8-1f38-4f4d-a326-40239b08541e","system_id":"levelo_inurba_marseille","lat":43.298681,"lon":5.397225,"is_reserved":false,"is_disabled":false,"rental_uris":{"android":"levelo://app?vid=47ba22a8-1f38-4f4d-a326-40239b08541e","ios":"levelo://app?vid=47ba22a8-1f38-4f4d-a326-40239b08541e"},"vehicle_type_id":"4","last_reported":1712329627,"current_range_meters":18400,"station_id":"ce4bh0h2rcd13ifvqd50","pricing_plan_id":"cebpf4jnsgd1na2vs0mg"},{"bike_id":"43ed3803-c8d8-446f-abfd-857dea59a400","system_id":"levelo_inurba_marseille","lat":43.286961,"lon":5.373785,"is_reserved":false,"is_disabled":false,"rental_uris":{"android":"levelo://app?vid=43ed3803-c8d8-446f-abfd-857dea59a400","ios":"levelo://app?vid=43ed3803-c8d8-446f-abfd-857dea59a400"},"vehicle_type_id":"4","last_reported":1712329627,"current_range_meters":18400,"station_id":"ce4bh3p2rcd13ifvqdq0","pricing_plan_id":"cebpf4jnsgd1na2vs0mg"},{"bike_id":"f7860e60-64ab-4651-8f55-64dfe11f90a6","system_id":"levelo_inurba_marseille","lat":43.286961,"lon":5.373785,"is_reserved":false,"is_disabled":false,"rental_uris":{"android":"levelo://app?vid=f7860e60-64ab-4651-8f55-64dfe11f90a6","ios":"levelo://app?vid=f7860e60-64ab-4651-8f55-64dfe11f90a6"},"vehicle_type_id":"4","last_reported":1712329627,"current_range_meters":0,"station_id":"ce4bh3p2rcd13ifvqdq0","pricing_plan_id":"cebpf4jnsgd1na2vs0mg"},{"bike_id":"bcaa02f7-b841-4a69-99b5-cc2d4e09cb9d","system_id":"levelo_inurba_marseille","lat":43.295194,"lon":5.39397,"is_reserved":false,"is_disabled":false,"rental_uris":{"android":"levelo://app?vid=bcaa02f7-b841-4a69-99b5-cc2d4e09cb9d","ios":"levelo://app?vid=bcaa02f7-b841-4a69-99b5-cc2d4e09cb9d"},"vehicle_type_id":"4","last_reported":1712329627,"current_range_meters":17200,"station_id":"ce4bh292rcd13ifvqdf0","pricing_plan_id":"cebpf4jnsgd1na2vs0mg"},{"bike_id":"5f7ef84a-fd3f-4365-b1b9-616def071886","system_id":"levelo_inurba_marseille","lat":43.295196,"lon":5.39397,"is_reserved":false,"is_disabled":false,"rental_uris":{"android":"levelo://app?vid=5f7ef84a-fd3f-4365-b1b9-616def071886","ios":"levelo://app?vid=5f7ef84a-fd3f-4365-b1b9-616def071886"},"vehicle_type_id":"4","last_reported":1712329627,"current_range_meters":400,"station_id":"ce4bh292rcd13ifvqdf0","pricing_plan_id":"cebpf4jnsgd1na2vs0mg"},{"bike_id":"1380d500-5851-4ff7-af89-490a2403842a","system_id":"levelo_inurba_marseille","lat":43.312239,"lon":5.368562,"is_reserved":false,"is_disabled":false,"rental_uris":{"android":"levelo://app?vid=1380d500-5851-4ff7-af89-490a2403842a","ios":"levelo://app?vid=1380d500-5851-4ff7-af89-490a2403842a"},