{"last_updated":1704989354,"ttl":30,"version":"2.2","data":{"bikes":[{"bike_id":"b223b63a-c9c8-4215-8027-1c7386e2a2f3","system_id":"levelo_inurba_marseille","lat":43.31341,"lon":5.367098,"is_reserved":false,"is_disabled":false,"rental_uris":{"android":"levelo://app?vid=b223b63a-c9c8-4215-8027-1c7386e2a2f3","ios":"levelo://app?vid=b223b63a-c9c8-4215-8027-1c7386e2a2f3"},"vehicle_type_id":"4","last_reported":1704989354,"current_range_meters":30800,"station_id":"ce4bgr92rcd13ifvqc6g","pricing_plan_id":"free"},{"bike_id":"a4582dc0-d8ee-4d1b-a4ba-f9d2a95e8afa","system_id":"levelo_inurba_marseille","lat":43.31341,"lon":5.367098,"is_reserved":false,"is_disabled":false,"rental_uris":{"android":"levelo://app?vid=a4582dc0-d8ee-4d1b-a4ba-f9d2a95e8afa","ios":"levelo://app?vid=a4582dc0-d8ee-4d1b-a4ba-f9d2a95e8afa"},"vehicle_type_id":"4","last_reported":1704989354,"current_range_meters":31200,"station_id":"ce4bgr92rcd13ifvqc6g","pricing_plan_id":"free"},{"bike_id":"be0a8f26-6b54-4ea0-bd92-f87016f02d32","system_id":"levelo_inurba_marseille","lat":43.31341,"lon":5.367098,"is_reserved":false,"is_disabled":false,"rental_uris":{"android":"levelo://app?vid=be0a8f26-6b54-4ea0-bd92-f87016f02d32","ios":"levelo://app?vid=be0a8f26-6b54-4ea0-bd92-f87016f02d32"},"vehicle_type_id":"4","last_reported":1704989354,"current_range_meters":26000,"station_id":"ce4bgr92rcd13ifvqc6g","pricing_plan_id":"free"},{"bike_id":"8321b409-3bdb-447f-83b1-4d5187783fc4","system_id":"levelo_inurba_marseille","lat":43.31341,"lon":5.367098,"is_reserved":false,"is_disabled":false,"rental_uris":{"android":"levelo://app?vid=8321b409-3bdb-447f-83b1-4d5187783fc4","ios":"levelo://app?vid=8321b409-3bdb-447f-83b1-4d5187783fc4"},"vehicle_type_id":"4","last_reported":1704989354,"current_range_meters":15600,"station_id":"ce4bgr92rcd13ifvqc6g","pricing_plan_id":"free"},{"bike_id":"2b0a700f-35b7-4a30-9474-c1e17ee3bcfe","system_id":"levelo_inurba_marseille","lat":43.31341,"lon":5.367098,"is_reserved":false,"is_disabled":false,"rental_uris":{"android":"levelo://app?vid=2b0a700f-35b7-4a30-9474-c1e17ee3bcfe","ios":"levelo://app?vid=2b0a700f-35b7-4a30-9474-c1e17ee3bcfe"},"vehicle_type_id":"4","last_reported":1704989354,"current_range_meters":31200,"station_id":"ce4bgr92rcd13ifvqc6g","pricing_plan_id":"free"},{"bike_id":"7554fd6e-16ec-4521-88c4-b73368054538","system_id":"levelo_inurba_marseille","lat":43.31341,"lon":5.367098,"is_reserved":false,"is_disabled":false,"rental_uris":{"android":"levelo://app?vid=7554fd6e-16ec-4521-88c4-b73368054538","ios":"levelo://app?vid=7554fd6e-16ec-4521-88c4-b73368054538"},"vehicle_type_id":"4","last_reported":1704989354,"current_range_meters":7200,"station_id":"ce4bgr92rcd13ifvqc6g","pricing_plan_id":"free"},{"bike_id":"2f7f7806-2042-4e6f-b6bb-3ac62ee9e25e","system_id":"levelo_inurba_marseille","lat":43.312239,"lon":5.368562,"is_reserved":false,"is_disabled":false,"rental_uris":{"android":"levelo://app?vid=2f7f7806-2042-4e6f-b6bb-3ac62ee9e25e","ios":"levelo://app?vid=2f7f7806-2042-4e6f-b6bb-3ac62ee9e25e"},"vehicle_type_id":"4","last_reported":1704989354,"current_range_meters":28000,"station_id":"ce4bgl92rcd13ifvqbq0","pricing_plan_id":"free"},{"bike_id":"2fbfb6af-b080-4b57-945a-86d8598124ba","system_id":"levelo_inurba_marseille","lat":43.312239,"lon":5.368562,"is_reserved":false,"is_disabled":false,"rental_uris":{"android":"levelo://app?vid=2fbfb6af-b080-4b57-945a-86d8598124ba","ios":"levelo://app?vid=2fbfb6af-b080-4b57-945a-86d8598124ba"},"vehicle_type_id":"4","last_reported":1704989354,"current_range_meters":22400,"station_id":"ce4bgl92rcd13ifvqbq0","pricing_plan_id":"free"},{"bike_id":"818ef645-81fe-45ea-8e3e-85cf209b9898","system_id":"levelo_inurba_marseille","lat":43.309076,"lon":5.368465,"is_reserved":false,"is_disabled":false,"rental_uris":{"android":"levelo://app?vid=818ef645-81fe-45ea-8e3e-85cf209b9898","ios":"levelo://app?vid=818ef645-81fe-45ea-8e3e-85cf209b9898"},"vehicle_type_id":"4","last_reported":1704989354,"current_range_meters":21600,"station_id":"ce4bgn92rcd13ifvqbvg","pricing_plan_id":"free"},{"bike_id":"af06dc01-d1d7-40e2-9181-bede4e6c7cef","system_id":"levelo_inurba_marseille","lat":43.309076,"lon":5.368465,"is_reserved":false,"is_disabled":false,"rental_uris":{"android":"levelo://app?vid=af06dc01-d1d7-40e2-9181-bede4e6c7cef","ios":"levelo://app?vid=af06dc01-d1d7-40e2-9181-bede4e6c7cef"},"vehicle_type_id":"4","last_reported":1704989354,"current_range_meters":27200,"station_id":"ce4bgn92rcd13ifvqbvg","pricing_plan_id":"free"},{"bike_id":"7b3b699f-3f99-4e35-89af-d56ef1f73cc7","system_id":"levelo_inurba_marseille","lat":43.31503,"lon":5.37288,"is_reserved":false,"is_disabled":false,"rental_uris":{"android":"levelo://app?vid=7b3b699f-3f99-4e35-89af-d56ef1f73cc7","ios":"levelo://app?vid=7b3b699f-3f99-4e35-89af-d56ef1f73cc7"},"vehicle_type_id":"4","last_reported":1704989354,"current_range_meters":20000,"station_id":"ce4bgt12rcd13ifvqcd0","pricing_plan_id":"free"},{"bike_id":"35237119-e23c-40e7-b051-ed055c93e41a","system_id":"levelo_inurba_marseille","lat":43.314811,"lon":5.373103,"is_reserved":false,"is_disabled":false,"rental_uris":{"android":"levelo://app?vid=35237119-e23c-40e7-b051-ed055c93e41a","ios":"levelo://app?vid=35237119-e23c-40e7-b051-ed055c93e41a"},"vehicle_type_id":"4","last_reported":1704989354,"current_range_meters":21200,"station_id":"ce4bgt12rcd13ifvqcd0","pricing_plan_id":"free"},{"bike_id":"9e686055-6e31-4c04-9f87-b384bf0148f5","system_id":"levelo_inurba_marseille","lat":43.314811,"lon":5.373103,"is_reserved":false,"is_disabled":false,"rental_uris":{"android":"levelo://app?vid=9e686055-6e31-4c04-9f87-b384bf0148f5","ios":"levelo://app?vid=9e686055-6e31-4c04-9f87-b384bf0148f5"},"vehicle_type_id":"4","last_reported":1704989354,"current_range_meters":29200,"station_id":"ce4bgt12rcd13ifvqcd0","pricing_plan_id":"free"},{"bike_id":"436c442e-ff76-4474-8f52-9a44458c32d0","system_id":"levelo_inurba_marseille","lat":43.314811,"lon":5.373103,"is_reserved":false,"is_disabled":false,"rental_uris":{"android":"levelo://app?vid=436c442e-ff76-4474-8f52-9a44458c32d0","ios":"levelo://app?vid=436c442e-ff76-4474-8f52-9a44458c32d0"},"vehicle_type_id":"4","last_reported":1704989354,"current_range_meters":31200,"station_id":"ce4bgt12rcd13ifvqcd0","pricing_plan_id":"free"},{"bike_id":"27181424-0862-4d8a-ac90-b8ab2b380983","system_id":"levelo_inurba_marseille","lat":43.314811,"lon":5.373103,"is_reserved":false,"is_disabled":false,"rental_uris":{"android":"levelo://app?vid=27181424-0862-4d8a-ac90-b8ab2b380983","ios":"levelo://app?vid=27181424-0862-4d8a-ac90-b8ab2b380983"},"vehicle_type_id":"4","last_reported":1704989354,"current_range_meters":31200,"station_id":"ce4bgt12rcd13ifvqcd0","pricing_plan_id":"free"},{"bike_id":"53c6a9a1-76e0-4964-8feb-685f030c6c64","system_id":"levelo_inurba_marseille","lat":43.314811,"lon":5.373103,"is_reserved":false,"is_disabled":false,"rental_uris":{"android":"levelo://app?vid=53c6a9a1-76e0-4964-8feb-685f030c6c64","ios":"levelo://app?vid=53c6a9a1-76e0-4964-8feb-685f030c6c64"},"vehicle_type_id":"4","last_reported":1704989354,"current_range_meters":21200,"station_id":"ce4bgt12rcd13ifvqcd0","pricing_plan_id":"free"},{"bike_id":"c95dc28e-5086-475c-b07e-8f5a2cfb01f3","system_id":"levelo_inurba_marseille","lat":43.314811,"lon":5.373104,"is_reserved":false,"is_disabled":false,"rental_uris":{"android":"levelo://app?vid=c95dc28e-5086-475c-b07e-8f5a2cfb01f3","ios":"levelo://app?vid=c95dc28e-5086-475c-b07e-8f5a2cfb01f3"},"vehicle_type_id":"4","last_reported":1704989354,"current_range_meters":30800,"station_id":"ce4bgt12rcd13ifvqcd0","pricing_plan_id":"free"},{"bike_id":"4ee3535d-451d-4e97-a771-2b6d90823c8d","system_id":"levelo_inurba_marseille","lat":43.308793,"lon":5.372002,"is_reserved":false,"is_disabled":false,"rental_uris":{"android":"levelo://app?vid=4ee3535d-451d-4e97-a771-2b6d90823c8d","ios":"levelo://app?vid=4ee3535d-451d-4e97-a771-2b6d90823c8d"},"vehicle_type_id":"4","last_reported":1704989354,"current_range_meters":18400,"station_id":"ce4bguh2rcd13ifvqckg","pricing_plan_id":"free"},{"bike_id":"f824c5ee-dde8-4c6f-98da-4c5d5807e062","system_id":"levelo_inurba_marseille","lat":43.305712,"lon":5.365641,"is_reserved":false,"is_disabled":false,"rental_uris":{"android":"levelo://app?vid=f824c5ee-dde8-4c6f-98da-4c5d5807e062","ios":"levelo://app?vid=f824c5ee-dde8-4c6f-98da-4c5d5807e062"},"vehicle_type_id":"4","last_reported":1704989354,"current_range_meters":20400,"station_id":"ce4bgs12rcd13ifvqcag","pricing_plan_id":"free"},{"bike_id":"483e156a-132f-4719-941c-452fb687585e","system_id":"levelo_inurba_marseille","lat":43.305712,"lon":5.365641,"is_reserved":false,"is_disabled":false,"rental_uris":{"android":"levelo://app?vid=483e156a-132f-4719-941c-452fb687585e","ios":"levelo://app?vid=483e156a-132f-4719-941c-452fb687585e"},"vehicle_type_id":"4","last_reported":1704989354,"current_range_meters":26000,"station_id":"ce4bgs12rcd13ifvqcag","pricing_plan_id":"free"},{"bike_id":"738da699-8437-40bb-8031-d414df2d3b1e","system_id":"levelo_inurba_marseille","lat":43.305712,"lon":5.365641,"is_reserved":false,"is_disabled":false,"rental_uris":{"android":"levelo://app?vid=738da699-8437-40bb-8031-d414df2d3b1e","ios":"levelo://app?vid=738da699-8437-40bb-8031-d414df2d3b1e"},"vehicle_type_id":"4","last_reported":1704989354,"current_range_meters":28400,"station_id":"ce4bgs12rcd13ifvqcag","pricing_plan_id":"free"},{"bike_id":"037d2e5a-b65b-4a27-ba92-b0d808c0399f","system_id":"levelo_inurba_marseille","lat":43.305714,"lon":5.365633,"is_reserved":false,"is_disabled":false,"rental_uris":{"android":"levelo://app?vid=037d2e5a-b65b-4a27-ba92-b0d808c0399f","ios":"levelo://app?vid=037d2e5a-b65b-4a27-ba92-b0d808c0399f"},"vehicle_type_id":"4","last_reported":1704989354,"current_range_meters":18000,"station_id":"ce4bgs12rcd13ifvqcag","pricing_plan_id":"free"},{"bike_id":"0899f9b8-a4ff-4822-9641-2ef0d02f8f7d","system_id":"levelo_inurba_marseille","lat":43.305383,"lon":5.365551,"is_reserved":false,"is_disabled":false,"rental_uris":{"android":"levelo://app?vid=0899f9b8-a4ff-4822-9641-2ef0d02f8f7d","ios":"levelo://app?vid=0899f9b8-a4ff-4822-9641-2ef0d02f8f7d"},"vehicle_type_id":"4","last_reported":1704989354,"current_range_meters":24800,"station_id":"ce4bgs12rcd13ifvqcag","pricing_plan_id":"free"},{"bike_id":"c7be06e3-5125-4bd3-b6a6-cc535d34ba95","system_id":"levelo_inurba_marseille","lat":43.30531,"lon":5.36536,"is_reserved":false,"is_disabled":false,"rental_uris":{"android":"levelo://app?vid=c7be06e3-5125-4bd3-b6a6-cc535d34ba95","ios":"levelo://app?vid=c7be06e3-5125-4bd3-b6a6-cc535d34ba95"},"vehicle_type_id":"4","last_reported":1704989354,"current_range_meters":26400,"station_id":"ce4bgs12rcd13ifvqcag","pricing_plan_id":"free"},{"bike_id":"10519b12-2e79-4c72-94d6-0e582932887e","system_id":"levelo_inurba_marseille","lat":43.30529,"lon":5.36536,"is_reserved":false,"is_disabled":false,"rental_uris":{"android":"levelo://app?vid=10519b12-2e79-4c72-94d6-0e582932887e","ios":"levelo://app?vid=10519b12-2e79-4c72-94d6-0e582932887e"},"vehicle_type_id":"4","last_reported":1704989354,"current_range_meters":27600,"station_id":"ce4bgs12rcd13ifvqcag","pricing_plan_id":"free"},{"bike_id":"93812adc-2e9b-4c26-afc3-652c32ca6fd7","system_id":"levelo_inurba_marseille","lat":43.30529,"lon":5.36531,"is_reserved":false,"is_disabled":false,"rental_uris":{"android":"levelo://app?vid=93812adc-2e9b-4c26-afc3-652c32ca6fd7","ios":"levelo://app?vid=93812adc-2e9b-4c26-afc3-652c32ca6fd7"},"vehicle_type_id":"4","last_reported":1704989354,"current_range_meters":23600,"station_id":"ce4bgs12rcd13ifvqcag","pricing_plan_id":"free"},{"bike_id":"eed8c79d-14f0-4974-97b2-52699b5cd58b","system_id":"levelo_inurba_marseille","lat":43.30528,"lon":5.36536,"is_reserved":false,"is_disabled":false,"rental_uris":{"android":"levelo://app?vid=eed8c79d-14f0-4974-97b2-52699b5cd58b","ios":"levelo://app?vid=eed8c79d-14f0-4974-97b2-52699b5cd58b"},"vehicle_type_id":"4","last_reported":1704989354,"current_range_meters":31200,"station_id":"ce4bgs12rcd13ifvqcag","pricing_plan_id":"free"},{"bike_id":"1b1239c3-7b11-4916-9b71-c720da4f30bb","system_id":"levelo_inurba_marseille","lat":43.311131,"lon":5.377651,"is_reserved":false,"is_disabled":false,"rental_uris":{"android":"levelo://app?vid=1b1239c3-7b11-4916-9b71-c720da4f30bb","ios":"levelo://app?vid=1b1239c3-7b11-4916-9b71-c720da4f30bb"},"vehicle_type_id":"4","last_reported":1704989354,"current_range_meters":28000,"station_id":"ce4bgt92rcd13ifvqcg0","pricing_plan_id":"free"},{"bike_id":"b2b58420-147e-4e09-911d-405524aab1f7","system_id":"levelo_inurba_marseille","lat":43.311131,"lon":5.377651,"is_reserved":false,"is_disabled":false,"rental_uris":{"android":"levelo://app?vid=b2b58420-147e-4e09-911d-405524aab1f7","ios":"levelo://app?vid=b2b58420-147e-4e09-911d-405524aab1f7"},"vehicle_type_id":"4","last_reported":1704989354,"current_range_meters":26800,"station_id":"ce4bgt92rcd13ifvqcg0","pricing_plan_id":"free"},{"bike_id":"4d461b85-1a0e-4623-8399-e9448b273b12","system_id":"levelo_inurba_marseille","lat":43.317075,"lon":5.377367,"is_reserved":false,"is_disabled":false,"rental_uris":{"android":"levelo://app?vid=4d461b85-1a0e-4623-8399-e9448b273b12","ios":"levelo://app?vid=4d461b85-1a0e-4623-8399-e9448b273b12"},"vehicle_type_id":"4","last_reported":1704989354,"current_range_meters":31200,"station_id":"ce4bgth2rcd13ifvqch0","pricing_plan_id":"free"},{"bike_id":"6037dcd5-149c-4903-b2fd-d261e491b3b8","system_id":"levelo_inurba_marseille","lat":43.317075,"lon":5.377367,"is_reserved":false,"is_disabled":false,"rental_uris":{"android":"levelo://app?vid=6037dcd5-149c-4903-b2fd-d261e491b3b8","ios":"levelo://app?vid=6037dcd5-149c-4903-b2fd-d261e491b3b8"},"vehicle_type_id":"4","last_reported":1704989354,"current_range_meters":11600,"station_id":"ce4bgth2rcd13ifvqch0","pricing_plan_id":"free"},{"bike_id":"1c5ff360-7eb4-4dc3-ae5a-4c1f95661c89","system_id":"levelo_inurba_marseille","lat":43.317075,"lon":5.377367,"is_reserved":false,"is_disabled":false,"rental_uris":{"android":"levelo://app?vid=1c5ff360-7eb4-4dc3-ae5a-4c1f95661c89","ios":"levelo://app?vid=1c5ff360-7eb4-4dc3-ae5a-4c1f95661c89"},"vehicle_type_id":"4","last_reported":1704989354,"current_range_meters":20000,"station_id":"ce4bgth2rcd13ifvqch0","pricing_plan_id":"free"},{"bike_id":"4703778a-a799-41e5-b078-4160f07f1fec","system_id":"levelo_inurba_marseille","lat":43.317075,"lon":5.377367,"is_reserved":false,"is_disabled":false,"rental_uris":{"android":"levelo://app?vid=4703778a-a799-41e5-b078-4160f07f1fec","ios":"levelo://app?vid=4703778a-a799-41e5-b078-4160f07f1fec"},"vehicle_type_id":"4","last_reported":1704989354,"current_range_meters":23600,"station_id":"ce4bgth2rcd13ifvqch0","pricing_plan_id":"free"},{"bike_id":"4fb6c33f-6a2d-4cb9-b5f5-71a4f8b0b1b3","system_id":"levelo_inurba_marseille","lat":43.317075,"lon":5.377367,"is_reserved":false,"is_disabled":false,"rental_uris":{"android":"levelo://app?vid=4fb6c33f-6a2d-4cb9-b5f5-71a4f8b0b1b3","ios":"levelo://app?vid=4fb6c33f-6a2d-4cb9-b5f5-71a4f8b0b1b3"},"vehicle_type_id":"4","last_reported":1704989354,"current_range_meters":24800,"station_id":"ce4bgth2rcd13ifvqch0","pricing_plan_id":"free"},{"bike_id":"ceb17f2f-2c5d-4c75-bfd8-f687224a5934","system_id":"levelo_inurba_marseille","lat":43.303046,"lon":5.368981,"is_reserved":false,"is_disabled":false,"rental_uris":{"android":"levelo://app?vid=ceb17f2f-2c5d-4c75-bfd8-f687224a5934","ios":"levelo://app?vid=ceb17f2f-2c5d-4c75-bfd8-f687224a5934"},"vehicle_type_id":"4","last_reported":1704989354,"current_range_meters":25600,"station_id":"ce4bgqh2rcd13ifvqc5g","pricing_plan_id":"free"},{"bike_id":"c9867c3a-c66e-4440-ac7a-aa19328a7e8d","system_id":"levelo_inurba_marseille","lat":43.303046,"lon":5.368981,"is_reserved":false,"is_disabled":false,"rental_uris":{"android":"levelo://app?vid=c9867c3a-c66e-4440-ac7a-aa19328a7e8d","ios":"levelo://app?vid=c9867c3a-c66e-4440-ac7a-aa19328a7e8d"},"vehicle_type_id":"4","last_reported":1704989354,"current_range_meters":28400,"station_id":"ce4bgqh2rcd13ifvqc5g","pricing_plan_id":"free"},{"bike_id":"c0adc87d-1ce8-4057-b45c-a68df8d309fa","system_id":"levelo_inurba_marseille","lat":43.303046,"lon":5.368981,"is_reserved":false,"is_disabled":false,"rental_uris":{"android":"levelo://app?vid=c0adc87d-1ce8-4057-b45c-a68df8d309fa","ios":"levelo://app?vid=c0adc87d-1ce8-4057-b45c-a68df8d309fa"},"vehicle_type_id":"4","last_reported":1704989354,"current_range_meters":10800,"station_id":"ce4bgqh2rcd13ifvqc5g","pricing_plan_id":"free"},{"bike_id":"fc209209-5a6c-4876-b0df-4a9ed3d716c4","system_id":"levelo_inurba_marseille","lat":43.303046,"lon":5.368981,"is_reserved":false,"is_disabled":false,"rental_uris":{"android":"levelo://app?vid=fc209209-5a6c-4876-b0df-4a9ed3d716c4","ios":"levelo://app?vid=fc209209-5a6c-4876-b0df-4a9ed3d716c4"},"vehicle_type_id":"4","last_reported":1704989354,"current_range_meters":31200,"station_id":"ce4bgqh2rcd13ifvqc5g","pricing_plan_id":"free"},{"bike_id":"444849f0-e3eb-421a-ba61-87cd848eda7b","system_id":"levelo_inurba_marseille","lat":43.315333,"lon":5.38028,"is_reserved":false,"is_disabled":false,"rental_uris":{"android":"levelo://app?vid=444849f0-e3eb-421a-ba61-87cd848eda7b","ios":"levelo://app?vid=444849f0-e3eb-421a-ba61-87cd848eda7b"},"vehicle_type_id":"4","last_reported":1704989354,"current_range_meters":24000,"station_id":"ce4bhsp2rcd13ifvqi50","pricing_plan_id":"free"},{"bike_id":"f54302a4-dbfa-41af-bd7e-6227809daae3","system_id":"levelo_inurba_marseille","lat":43.31018,"lon":5.3817,"is_reserved":false,"is_disabled":false,"rental_uris":{"android":"levelo://app?vid=f54302a4-dbfa-41af-bd7e-6227809daae3","ios":"levelo://app?vid=f54302a4-dbfa-41af-bd7e-6227809daae3"},"vehicle_type_id":"4","last_reported":1704989354,"current_range_meters":29200,"station_id":"","pricing_plan_id":"free"},{"bike_id":"352d3ffc-4140-4a27-9d6c-9fd227339729","system_id":"levelo_inurba_marseille","lat":43.308012,"lon":5.381511,"is_reserved":false,"is_disabled":false,"rental_uris":{"android":"levelo://app?vid=352d3ffc-4140-4a27-9d6c-9fd227339729","ios":"levelo://app?vid=352d3ffc-4140-4a27-9d6c-9fd227339729"},"vehicle_type_id":"4","last_reported":1704989354,"current_range_meters":2800,"station_id":"ce4bgt12rcd13ifvqce0","pricing_plan_id":"free"},{"bike_id":"1f870116-b2d4-4ef6-91b7-023cb8587099","system_id":"levelo_inurba_marseille","lat":43.300827,"lon":5.365856,"is_reserved":false,"is_disabled":false,"rental_uris":{"android":"levelo://app?vid=1f870116-b2d4-4ef6-91b7-023cb8587099","ios":"levelo://app?vid=1f870116-b2d4-4ef6-91b7-023cb8587099"},"vehicle_type_id":"4","last_reported":1704989354,"current_range_meters":8400,"station_id":"","pricing_plan_id":"free"},{"bike_id":"d056c20a-0849-42c6-aca2-3cb4daa98f89","system_id":"levelo_inurba_marseille","lat":43.304606,"lon":5.379026,"is_reserved":false,"is_disabled":false,"rental_uris":{"android":"levelo://app?vid=d056c20a-0849-42c6-aca2-3cb4daa98f89","ios":"levelo://app?vid=d056c20a-0849-42c6-aca2-3cb4daa98f89"},"vehicle_type_id":"4","last_reported":1704989354,"current_range_meters":1200,"station_id":"ce4bgup2rcd13ifvqcn0","pricing_plan_id":"free"},{"bike_id":"d67a9692-4209-4ab8-894a-e96cd1211d97","system_id":"levelo_inurba_marseille","lat":43.32478,"lon":5.36564,"is_reserved":false,"is_disabled":false,"rental_uris":{"android":"levelo://app?vid=d67a9692-4209-4ab8-894a-e96cd1211d97","ios":"levelo://app?vid=d67a9692-4209-4ab8-894a-e96cd1211d97"},"vehicle_type_id":"4","last_reported":1704989354,"current_range_meters":26000,"station_id":"ce4bhs12rcd13ifvqhvg","pricing_plan_id":"free"},{"bike_id":"5e2c9d6a-6f8a-49b5-bc98-a2690a4ce8d4","system_id":"levelo_inurba_marseille","lat":43.30306,"lon":5.37694,"is_reserved":false,"is_disabled":false,"rental_uris":{"android":"levelo://app?vid=5e2c9d6a-6f8a-49b5-bc98-a2690a4ce8d4","ios":"levelo://app?vid=5e2c9d6a-6f8a-49b5-bc98-a2690a4ce8d4"},"vehicle_type_id":"4","last_reported":1704989354,"current_range_meters":30800,"station_id":"","pricing_plan_id":"free"},{"bike_id":"00e3bdca-d528-41a5-a675-0e304c1e98df","system_id":"levelo_inurba_marseille","lat":43.30282,"lon":5.377,"is_reserved":false,"is_disabled":false,"rental_uris":{"android":"levelo://app?vid=00e3bdca-d528-41a5-a675-0e304c1e98df","ios":"levelo://app?vid=00e3bdca-d528-41a5-a675-0e304c1e98df"},"vehicle_type_id":"4","last_reported":1704989354,"current_range_meters":18000,"station_id":"","pricing_plan_id":"free"},{"bike_id":"040e40f2-f735-4a25-91b0-af849beb2247","system_id":"levelo_inurba_marseille","lat":43.30149,"lon":5.37413,"is_reserved":false,"is_disabled":false,"rental_uris":{"android":"levelo://app?vid=040e40f2-f735-4a25-91b0-af849beb2247","ios":"levelo://app?vid=040e40f2-f735-4a25-91b0-af849beb2247"},"vehicle_type_id":"4","last_reported":1704989354,"current_range_meters":18800,"station_id":"ce4bgs92rcd13ifvqcc0","pricing_plan_id":"free"},{"bike_id":"0e120b6a-4e49-47f1-a2f9-d23738d981f2","system_id":"levelo_inurba_marseille","lat":43.30143,"lon":5.37413,"is_reserved":false,"is_disabled":false,"rental_uris":{"android":"levelo://app?vid=0e120b6a-4e49-47f1-a2f9-d23738d981f2","ios":"levelo://app?vid=0e120b6a-4e49-47f1-a2f9-d23738d981f2"},"vehicle_type_id":"4","last_reported":1704989354,"current_range_meters":31200,"station_id":"ce4bgs92rcd13ifvqcc0","pricing_plan_id":"free"},{"bike_id":"dbb23607-5523-4f3d-bfc4-54ab513f673d","system_id":"levelo_inurba_marseille","lat":43.301429,"lon":5.37413,"is_reserved":false,"is_disabled":false,"rental_uris":{"android":"levelo://app?vid=dbb23607-5523-4f3d-bfc4-54ab513f673d","ios":"levelo://app?vid=dbb23607-5523-4f3d-bfc4-54ab513f673d"},"vehicle_type_id":"4","last_reported":1704989354,"current_range_meters":31200,"station_id":"ce4bgs92rcd13ifvqcc0","pricing_plan_id":"free"},{"bike_id":"9c33977d-5347-40f4-99de-d76782e12f27","system_id":"levelo_inurba_marseille","lat":43.30139,"lon":5.37414,"is_reserved":false,"is_disabled":false,"rental_uris":{"android":"levelo://app?vid=9c33977d-5347-40f4-99de-d76782e12f27","ios":"levelo://app?vid=9c33977d-5347-40f4-99de-d76782e12f27"},"vehicle_type_id":"4","last_reported":1704989354,"current_range_meters":7200,"station_id":"ce4bgs92rcd13ifvqcc0","pricing_plan_id":"free"},{"bike_id":"f8610476-36bf-463a-848b-e94b63a4af72","system_id":"levelo_inurba_marseille","lat":43.319935,"lon":5.381699,"is_reserved":false,"is_disabled":false,"rental_uris":{"android":"levelo://app?vid=f8610476-36bf-463a-848b-e94b63a4af72","ios":"levelo://app?vid=f8610476-36bf-463a-848b-e94b63a4af72"},"vehicle_type_id":"4","last_reported":1704989354,"current_range_meters":16000,"station_id":"ce4bhr12rcd13ifvqhpg","pricing_plan_id":"free"},{"bike_id":"e09ee224-aad0-4f35-a408-cc34a402f77d","system_id":"levelo_inurba_marseille","lat":43.319935,"lon":5.381699,"is_reserved":false,"is_disabled":false,"rental_uris":{"android":"levelo://app?vid=e09ee224-aad0-4f35-a408-cc34a402f77d","ios":"levelo://app?vid=e09ee224-aad0-4f35-a408-cc34a402f77d"},"vehicle_type_id":"4","last_reported":1704989354,"current_range_meters":7600,"station_id":"ce4bhr12rcd13ifvqhpg","pricing_plan_id":"free"},{"bike_id":"a2dfc6fc-d839-4179-a00e-a3294e9099fb","system_id":"levelo_inurba_marseille","lat":43.313571,"lon":5.384829,"is_reserved":false,"is_disabled":false,"rental_uris":{"android":"levelo://app?vid=a2dfc6fc-d839-4179-a00e-a3294e9099fb","ios":"levelo://app?vid=a2dfc6fc-d839-4179-a00e-a3294e9099fb"},"vehicle_type_id":"4","last_reported":1704989354,"current_range_meters":26800,"station_id":"ce4bgt92rcd13ifvqcf0","pricing_plan_id":"free"},{"bike_id":"a274ec9b-8155-46cc-b080-f7af4179862b","system_id":"levelo_inurba_marseille","lat":43.299724,"lon":5.371829,"is_reserved":false,"is_disabled":false,"rental_uris":{"android":"levelo://app?vid=a274ec9b-8155-46cc-b080-f7af4179862b","ios":"levelo://app?vid=a274ec9b-8155-46cc-b080-f7af4179862b"},"vehicle_type_id":"4","last_reported":1704989354,"current_range_meters":11200,"station_id":"ce4bgr92rcd13ifvqc7g","pricing_plan_id":"free"},{"bike_id":"ce69bfaa-d49b-4308-a891-4e2bb9076ab8","system_id":"levelo_inurba_marseille","lat":43.299724,"lon":5.371829,"is_reserved":false,"is_disabled":false,"rental_uris":{"android":"levelo://app?vid=ce69bfaa-d49b-4308-a891-4e2bb9076ab8","ios":"levelo://app?vid=ce69bfaa-d49b-4308-a891-4e2bb9076ab8"},"vehicle_type_id":"4","last_reported":1704989354,"current_range_meters":30000,"station_id":"ce4bgr92rcd13ifvqc7g","pricing_plan_id":"free"},{"bike_id":"e455938c-487a-41eb-926d-8d306bd7f29d","system_id":"levelo_inurba_marseille","lat":43.299724,"lon":5.371829,"is_reserved":false,"is_disabled":false,"rental_uris":{"android":"levelo://app?vid=e455938c-487a-41eb-926d-8d306bd7f29d","ios":"levelo://app?vid=e455938c-487a-41eb-926d-8d306bd7f29d"},"vehicle_type_id":"4","last_reported":1704989354,"current_range_meters":28000,"station_id":"ce4bgr92rcd13ifvqc7g","pricing_plan_id":"free"},{"bike_id":"698eb56a-d2fb-4b5f-9b5c-a79200744e1e","system_id":"levelo_inurba_marseille","lat":43.299222,"lon":5.365554,"is_reserved":false,"is_disabled":false,"rental_uris":{"android":"levelo://app?vid=698eb56a-d2fb-4b5f-9b5c-a79200744e1e","ios":"levelo://app?vid=698eb56a-d2fb-4b5f-9b5c-a79200744e1e"},"vehicle_type_id":"4","last_reported":1704989354,"current_range_meters":28000,"station_id":"ce4bgm92rcd13ifvqbr0","pricing_plan_id":"free"},{"bike_id":"5e7b87d1-6219-432c-8b80-576fa59e5c43","system_id":"levelo_inurba_marseille","lat":43.299222,"lon":5.365554,"is_reserved":false,"is_disabled":false,"rental_uris":{"android":"levelo://app?vid=5e7b87d1-6219-432c-8b80-576fa59e5c43","ios":"levelo://app?vid=5e7b87d1-6219-432c-8b80-576fa59e5c43"},"vehicle_type_id":"4","last_reported":1704989354,"current_range_meters":19600,"station_id":"ce4bgm92rcd13ifvqbr0","pricing_plan_id":"free"},{"bike_id":"555f5498-f90f-4cc5-b76e-a2dbb2e0c5af","system_id":"levelo_inurba_marseille","lat":43.299724,"lon":5.371829,"is_reserved":false,"is_disabled":false,"rental_uris":{"android":"levelo://app?vid=555f5498-f90f-4cc5-b76e-a2dbb2e0c5af","ios":"levelo://app?vid=555f5498-f90f-4cc5-b76e-a2dbb2e0c5af"},"vehicle_type_id":"4","last_reported":1704989354,"current_range_meters":25600,"station_id":"ce4bgr92rcd13ifvqc7g","pricing_plan_id":"free"},{"bike_id":"5e3ae350-92fc-4f1a-91e5-fca6c6157e9c","system_id":"levelo_inurba_marseille","lat":43.314305,"lon":5.385497,"is_reserved":false,"is_disabled":false,"rental_uris":{"android":"levelo://app?vid=5e3ae350-92fc-4f1a-91e5-fca6c6157e9c","ios":"levelo://app?vid=5e3ae350-92fc-4f1a-91e5-fca6c6157e9c"},"vehicle_type_id":"4","last_reported":1704989354,"current_range_meters":4400,"station_id":"","pricing_plan_id":"free"},{"bike_id":"5454ea3d-c065-4e7d-a9d3-8f6dfc8bf17c","system_id":"levelo_inurba_marseille","lat":43.305364,"lon":5.384119,"is_reserved":false,"is_disabled":false,"rental_uris":{"android":"levelo://app?vid=5454ea3d-c065-4e7d-a9d3-8f6dfc8bf17c","ios":"levelo://app?vid=5454ea3d-c065-4e7d-a9d3-8f6dfc8bf17c"},"vehicle_type_id":"4","last_reported":1704989354,"current_range_meters":3600,"station_id":"ce4bgg92rcd13ifvqb30","pricing_plan_id":"free"},{"bike_id":"51a163b7-0f11-42ce-a608-fed9856b8cb9","system_id":"levelo_inurba_marseille","lat":43.29845,"lon":5.36283,"is_reserved":false,"is_disabled":false,"rental_uris":{"android":"levelo://app?vid=51a163b7-0f11-42ce-a608-fed9856b8cb9","ios":"levelo://app?vid=51a163b7-0f11-42ce-a608-fed9856b8cb9"},"vehicle_type_id":"4","last_reported":1704989354,"current_range_meters":29600,"station_id":"ce4bgpp2rcd13ifvqc3g","pricing_plan_id":"free"},{"bike_id":"2d75fc77-7216-47af-8687-dcbdc3215ec6","system_id":"levelo_inurba_marseille","lat":43.298433,"lon":5.362774,"is_reserved":false,"is_disabled":false,"rental_uris":{"android":"levelo://app?vid=2d75fc77-7216-47af-8687-dcbdc3215ec6","ios":"levelo://app?vid=2d75fc77-7216-47af-8687-dcbdc3215ec6"},"vehicle_type_id":"4","last_reported":1704989354,"current_range_meters":27600,"station_id":"ce4bgpp2rcd13ifvqc3g","pricing_plan_id":"free"},{"bike_id":"85576727-0b95-4003-83c8-311edd0535e8","system_id":"levelo_inurba_marseille","lat":43.29844,"lon":5.36262,"is_reserved":false,"is_disabled":false,"rental_uris":{"android":"levelo://app?vid=85576727-0b95-4003-83c8-311edd0535e8","ios":"levelo://app?vid=85576727-0b95-4003-83c8-311edd0535e8"},"vehicle_type_id":"4","last_reported":1704989354,"current_range_meters":28400,"station_id":"ce4bgpp2rcd13ifvqc3g","pricing_plan_id":"free"},{"bike_id":"f089f5de-ff41-46d2-9e93-03521256527a","system_id":"levelo_inurba_marseille","lat":43.299243,"lon":5.37481,"is_reserved":false,"is_disabled":false,"rental_uris":{"android":"levelo://app?vid=f089f5de-ff41-46d2-9e93-03521256527a","ios":"levelo://app?vid=f089f5de-ff41-46d2-9e93-03521256527a"},"vehicle_type_id":"4","last_reported":1704989354,"current_range_meters":18800,"station_id":"ce4bgjh2rcd13ifvqbg0","pricing_plan_id":"free"},{"bike_id":"377361e6-8f0e-4d3c-9f1a-de47c7dac79c","system_id":"levelo_inurba_marseille","lat":43.299243,"lon":5.374807,"is_reserved":false,"is_disabled":false,"rental_uris":{"android":"levelo://app?vid=377361e6-8f0e-4d3c-9f1a-de47c7dac79c","ios":"levelo://app?vid=377361e6-8f0e-4d3c-9f1a-de47c7dac79c"},"vehicle_type_id":"4","last_reported":1704989354,"current_range_meters":25600,"station_id":"ce4bgjh2rcd13ifvqbg0","pricing_plan_id":"free"},{"bike_id":"c583bfe7-1955-446f-991c-661d36415db2","system_id":"levelo_inurba_marseille","lat":43.311722,"lon":5.387247,"is_reserved":false,"is_disabled":false,"rental_uris":{"android":"levelo://app?vid=c583bfe7-1955-446f-991c-661d36415db2","ios":"levelo://app?vid=c583bfe7-1955-446f-991c-661d36415db2"},"vehicle_type_id":"4","last_reported":1704989354,"current_range_meters":30400,"station_id":"ce4bgv12rcd13ifvqcp0","pricing_plan_id":"free"},{"bike_id":"c351dfc9-6350-4464-acaa-ef6f8d7e5bbf","system_id":"levelo_inurba_marseille","lat":43.31191,"lon":5.38719,"is_reserved":false,"is_disabled":false,"rental_uris":{"android":"levelo://app?vid=c351dfc9-6350-4464-acaa-ef6f8d7e5bbf","ios":"levelo://app?vid=c351dfc9-6350-4464-acaa-ef6f8d7e5bbf"},"vehicle_type_id":"4","last_reported":1704989354,"current_range_meters":11200,"station_id":"ce4bgv12rcd13ifvqcp0","pricing_plan_id":"free"},{"bike_id":"a58bb1a5-cedc-410a-bbd3-4e79988ab739","system_id":"levelo_inurba_marseille","lat":43.311703,"lon":5.387188,"is_reserved":false,"is_disabled":false,"rental_uris":{"android":"levelo://app?vid=a58bb1a5-cedc-410a-bbd3-4e79988ab739","ios":"levelo://app?vid=a58bb1a5-cedc-410a-bbd3-4e79988ab739"},"vehicle_type_id":"4","last_reported":1704989354,"current_range_meters":18800,"station_id":"","pricing_plan_id":"free"},{"bike_id":"127d1e8a-faa0-445c-9e2f-02201a0b0b5b","system_id":"levelo_inurba_marseille","lat":43.299243,"lon":5.37481,"is_reserved":false,"is_disabled":false,"rental_uris":{"android":"levelo://app?vid=127d1e8a-faa0-445c-9e2f-02201a0b0b5b","ios":"levelo://app?vid=127d1e8a-faa0-445c-9e2f-02201a0b0b5b"},"vehicle_type_id":"4","last_reported":1704989354,"current_range_meters":15600,"station_id":"ce4bgjh2rcd13ifvqbg0","pricing_plan_id":"free"},{"bike_id":"c0c847ea-83f0-4e06-9678-e7646050a3c7","system_id":"levelo_inurba_marseille","lat":43.322872,"lon":5.382756,"is_reserved":false,"is_disabled":false,"rental_uris":{"android":"levelo://app?vid=c0c847ea-83f0-4e06-9678-e7646050a3c7","ios":"levelo://app?vid=c0c847ea-83f0-4e06-9678-e7646050a3c7"},"vehicle_type_id":"4","last_reported":1704989354,"current_range_meters":29200,"station_id":"ce4bhr12rcd13ifvqhqg","pricing_plan_id":"free"},{"bike_id":"6c440a1a-92be-4db8-8abd-523bf6d28139","system_id":"levelo_inurba_marseille","lat":43.301875,"lon":5.381828,"is_reserved":false,"is_disabled":false,"rental_uris":{"android":"levelo://app?vid=6c440a1a-92be-4db8-8abd-523bf6d28139","ios":"levelo://app?vid=6c440a1a-92be-4db8-8abd-523bf6d28139"},"vehicle_type_id":"4","last_reported":1704989354,"current_range_meters":31200,"station_id":"","pricing_plan_id":"free"},{"bike_id":"3f3f31e2-e233-487e-9612-a517b56f0180","system_id":"levelo_inurba_marseille","lat":43.297774,"lon":5.370875,"is_reserved":false,"is_disabled":false,"rental_uris":{"android":"levelo://app?vid=3f3f31e2-e233-487e-9612-a517b56f0180","ios":"levelo://app?vid=3f3f31e2-e233-487e-9612-a517b56f0180"},"vehicle_type_id":"4","last_reported":1704989354,"current_range_meters":25600,"station_id":"ce4bgop2rcd13ifvqc1g","pricing_plan_id":"free"},{"bike_id":"023b7195-bcfa-445e-9cbf-5c958831af50","system_id":"levelo_inurba_marseille","lat":43.303046,"lon":5.368981,"is_reserved":false,"is_disabled":false,"rental_uris":{"android":"levelo://app?vid=023b7195-bcfa-445e-9cbf-5c958831af50","ios":"levelo://app?vid=023b7195-bcfa-445e-9cbf-5c958831af50"},"vehicle_type_id":"4","last_reported":1704989354,"current_range_meters":15600,"station_id":"ce4bgqh2rcd13ifvqc5g","pricing_plan_id":"free"},{"bike_id":"fb45f142-a2e6-4b54-b6fd-5660ca2c1fe5","system_id":"levelo_inurba_marseille","lat":43.328233,"lon":5.366775,"is_reserved":false,"is_disabled":false,"rental_uris":{"android":"levelo://app?vid=fb45f142-a2e6-4b54-b6fd-5660ca2c1fe5","ios":"levelo://app?vid=fb45f142-a2e6-4b54-b6fd-5660ca2c1fe5"},"vehicle_type_id":"4","last_reported":1704989354,"current_range_meters":18000,"station_id":"ce4bhs92rcd13ifvqi0g","pricing_plan_id":"free"},{"bike_id":"d68ce626-ef98-4d52-b3b3-f34d703a806b","system_id":"levelo_inurba_marseille","lat":43.32826,"lon":5.36697,"is_reserved":false,"is_disabled":false,"rental_uris":{"android":"levelo://app?vid=d68ce626-ef98-4d52-b3b3-f34d703a806b","ios":"levelo://app?vid=d68ce626-ef98-4d52-b3b3-f34d703a806b"},"vehicle_type_id":"4","last_reported":1704989354,"current_range_meters":20800,"station_id":"ce4bhs92rcd13ifvqi0g","pricing_plan_id":"free"},{"bike_id":"e1e3a1c2-ded9-4b32-80b4-852bd4467a76","system_id":"levelo_inurba_marseille","lat":43.328267,"lon":5.366765,"is_reserved":false,"is_disabled":false,"rental_uris":{"android":"levelo://app?vid=e1e3a1c2-ded9-4b32-80b4-852bd4467a76","ios":"levelo://app?vid=e1e3a1c2-ded9-4b32-80b4-852bd4467a76"},"vehicle_type_id":"4","last_reported":1704989354,"current_range_meters":16800,"station_id":"ce4bhs92rcd13ifvqi0g","pricing_plan_id":"free"},{"bike_id":"a70069dc-f773-452d-9d3a-320d0014d11e","system_id":"levelo_inurba_marseille","lat":43.328281,"lon":5.366787,"is_reserved":false,"is_disabled":false,"rental_uris":{"android":"levelo://app?vid=a70069dc-f773-452d-9d3a-320d0014d11e","ios":"levelo://app?vid=a70069dc-f773-452d-9d3a-320d0014d11e"},"vehicle_type_id":"4","last_reported":1704989354,"current_range_meters":13200,"station_id":"ce4bhs92rcd13ifvqi0g","pricing_plan_id":"free"},{"bike_id":"331410e4-8362-40e5-8b58-6a53f46a25bd","system_id":"levelo_inurba_marseille","lat":43.328284,"lon":5.366751,"is_reserved":false,"is_disabled":false,"rental_uris":{"android":"levelo://app?vid=331410e4-8362-40e5-8b58-6a53f46a25bd","ios":"levelo://app?vid=331410e4-8362-40e5-8b58-6a53f46a25bd"},"vehicle_type_id":"4","last_reported":1704989354,"current_range_meters":27200,"station_id":"ce4bhs92rcd13ifvqi0g","pricing_plan_id":"free"},{"bike_id":"b417e045-2acd-45ab-8543-5d87cc32d878","system_id":"levelo_inurba_marseille","lat":43.328298,"lon":5.366712,"is_reserved":false,"is_disabled":false,"rental_uris":{"android":"levelo://app?vid=b417e045-2acd-45ab-8543-5d87cc32d878","ios":"levelo://app?vid=b417e045-2acd-45ab-8543-5d87cc32d878"},"vehicle_type_id":"4","last_reported":1704989354,"current_range_meters":24800,"station_id":"ce4bhs92rcd13ifvqi0g","pricing_plan_id":"free"},{"bike_id":"ccd4cbbf-533a-4d50-9a51-99cfbf2d9d93","system_id":"levelo_inurba_marseille","lat":43.3283,"lon":5.36684,"is_reserved":false,"is_disabled":false,"rental_uris":{"android":"levelo://app?vid=ccd4cbbf-533a-4d50-9a51-99cfbf2d9d93","ios":"levelo://app?vid=ccd4cbbf-533a-4d50-9a51-99cfbf2d9d93"},"vehicle_type_id":"4","last_reported":1704989354,"current_range_meters":15600,"station_id":"ce4bhs92rcd13ifvqi0g","pricing_plan_id":"free"},{"bike_id":"1f1a5220-6426-49f4-89de-c9c79ed6428d","system_id":"levelo_inurba_marseille","lat":43.3283,"lon":5.36678,"is_reserved":false,"is_disabled":false,"rental_uris":{"android":"levelo://app?vid=1f1a5220-6426-49f4-89de-c9c79ed6428d","ios":"levelo://app?vid=1f1a5220-6426-49f4-89de-c9c79ed6428d"},"vehicle_type_id":"4","last_reported":1704989354,"current_range_meters":26400,"station_id":"ce4bhs92rcd13ifvqi0g","pricing_plan_id":"free"},{"bike_id":"7b9958fe-cb69-4b86-8077-c6eefd22d5f1","system_id":"levelo_inurba_marseille","lat":43.3283,"lon":5.36676,"is_reserved":false,"is_disabled":false,"rental_uris":{"android":"levelo://app?vid=7b9958fe-cb69-4b86-8077-c6eefd22d5f1","ios":"levelo://app?vid=7b9958fe-cb69-4b86-8077-c6eefd22d5f1"},"vehicle_type_id":"4","last_reported":1704989354,"current_range_meters":25600,"station_id":"ce4bhs92rcd13ifvqi0g","pricing_plan_id":"free"},{"bike_id":"30f8693f-6be0-48b2-9028-bcba9d6c72a0","system_id":"levelo_inurba_marseille","lat":43.328304,"lon":5.366754,"is_reserved":false,"is_disabled":false,"rental_uris":{"android":"levelo://app?vid=30f8693f-6be0-48b2-9028-bcba9d6c72a0","ios":"levelo://app?vid=30f8693f-6be0-48b2-9028-bcba9d6c72a0"},"vehicle_type_id":"4","last_reported":1704989354,"current_range_meters":30000,"station_id":"ce4bhs92rcd13ifvqi0g","pricing_plan_id":"free"},{"bike_id":"b3f576e8-893a-45f4-89a4-d688ba2d7cdc","system_id":"levelo_inurba_marseille","lat":43.297163,"lon":5.365866,"is_reserved":false,"is_disabled":false,"rental_uris":{"android":"levelo://app?vid=b3f576e8-893a-45f4-89a4-d688ba2d7cdc","ios":"levelo://app?vid=b3f576e8-893a-45f4-89a4-d688ba2d7cdc"},"vehicle_type_id":"4","last_reported":1704989354,"current_range_meters":29200,"station_id":"ce4bgn12rcd13ifvqbt0","pricing_plan_id":"free"},{"bike_id":"468fb52e-8015-4911-9ee7-fb97a172526a","system_id":"levelo_inurba_marseille","lat":43.32833,"lon":5.3668,"is_reserved":false,"is_disabled":false,"rental_uris":{"android":"levelo://app?vid=468fb52e-8015-4911-9ee7-fb97a172526a","ios":"levelo://app?vid=468fb52e-8015-4911-9ee7-fb97a172526a"},"vehicle_type_id":"4","last_reported":1704989354,"current_range_meters":31200,"station_id":"ce4bhs92rcd13ifvqi0g","pricing_plan_id":"free"},{"bike_id":"5e9999f5-707d-4fbe-9723-75d4ccaf0cb7","system_id":"levelo_inurba_marseille","lat":43.297163,"lon":5.365866,"is_reserved":false,"is_disabled":false,"rental_uris":{"android":"levelo://app?vid=5e9999f5-707d-4fbe-9723-75d4ccaf0cb7","ios":"levelo://app?vid=5e9999f5-707d-4fbe-9723-75d4ccaf0cb7"},"vehicle_type_id":"4","last_reported":1704989354,"current_range_meters":18400,"station_id":"ce4bgn12rcd13ifvqbt0","pricing_plan_id":"free"},{"bike_id":"43f26dce-1a5d-4f78-a98a-957e7c3a7e3c","system_id":"levelo_inurba_marseille","lat":43.297163,"lon":5.365866,"is_reserved":false,"is_disabled":false,"rental_uris":{"android":"levelo://app?vid=43f26dce-1a5d-4f78-a98a-957e7c3a7e3c","ios":"levelo://app?vid=43f26dce-1a5d-4f78-a98a-957e7c3a7e3c"},"vehicle_type_id":"4","last_reported":1704989354,"current_range_meters":30400,"station_id":"ce4bgn12rcd13ifvqbt0","pricing_plan_id":"free"},{"bike_id":"b946e88e-858d-43c2-86ca-c15b3f2fd84b","system_id":"levelo_inurba_marseille","lat":43.297163,"lon":5.365866,"is_reserved":false,"is_disabled":false,"rental_uris":{"android":"levelo://app?vid=b946e88e-858d-43c2-86ca-c15b3f2fd84b","ios":"levelo://app?vid=b946e88e-858d-43c2-86ca-c15b3f2fd84b"},"vehicle_type_id":"4","last_reported":1704989354,"current_range_meters":12800,"station_id":"ce4bgn12rcd13ifvqbt0","pricing_plan_id":"free"},{"bike_id":"9051e57c-6fa5-4ca0-b770-167b99757d01","system_id":"levelo_inurba_marseille","lat":43.296847,"lon":5.372958,"is_reserved":false,"is_disabled":false,"rental_uris":{"android":"levelo://app?vid=9051e57c-6fa5-4ca0-b770-167b99757d01","ios":"levelo://app?vid=9051e57c-6fa5-4ca0-b770-167b99757d01"},"vehicle_type_id":"4","last_reported":1704989354,"current_range_meters":23600,"station_id":"ce4bgk12rcd13ifvqbj0","pricing_plan_id":"free"},{"bike_id":"0e21c0e1-cd91-41f5-a668-23429ce9066e","system_id":"levelo_inurba_marseille","lat":43.296801,"lon":5.372822,"is_reserved":false,"is_disabled":false,"rental_uris":{"android":"levelo://app?vid=0e21c0e1-cd91-41f5-a668-23429ce9066e","ios":"levelo://app?vid=0e21c0e1-cd91-41f5-a668-23429ce9066e"},"vehicle_type_id":"4","last_reported":1704989354,"current_range_meters":7200,"station_id":"","pricing_plan_id":"free"},{"bike_id":"f778071e-347d-46d0-8dd7-f33a2c8c6c63","system_id":"levelo_inurba_marseille","lat":43.297946,"lon":5.404063,"is_reserved":false,"is_disabled":false,"rental_uris":{"android":"levelo://app?vid=f778071e-347d-46d0-8dd7-f33a2c8c6c63","ios":"levelo://app?vid=f778071e-347d-46d0-8dd7-f33a2c8c6c63"},"vehicle_type_id":"4","last_reported":1704989354,"current_range_meters":20400,"station_id":"ce4bh112rcd13ifvqd90","pricing_plan_id":"free"},{"bike_id":"45eee4bd-6800-43d9-acf2-6485fca420f1","system_id":"levelo_inurba_marseille","lat":43.29601,"lon":5.367877,"is_reserved":false,"is_disabled":false,"rental_uris":{"android":"levelo://app?vid=45eee4bd-6800-43d9-acf2-6485fca420f1","ios":"levelo://app?vid=45eee4bd-6800-43d9-acf2-6485fca420f1"},"vehicle_type_id":"4","last_reported":1704989354,"current_range_meters":17200,"station_id":"","pricing_plan_id":"free"},{"bike_id":"4d0b89df-2027-42e6-9322-8a987f194ae8","system_id":"levelo_inurba_marseille","lat":43.29573,"lon":5.367355,"is_reserved":false,"is_disabled":false,"rental_uris":{"android":"levelo://app?vid=4d0b89df-2027-42e6-9322-8a987f194ae8","ios":"levelo://app?vid=4d0b89df-2027-42e6-9322-8a987f194ae8"},"vehicle_type_id":"4","last_reported":1704989354,"current_range_meters":26000,"station_id":"ce4bgph2rcd13ifvqc2g","pricing_plan_id":"free"},{"bike_id":"30cd1bde-2afc-4903-8366-c0917b5beca4","system_id":"levelo_inurba_marseille","lat":43.29573,"lon":5.367355,"is_reserved":false,"is_disabled":false,"rental_uris":{"android":"levelo://app?vid=30cd1bde-2afc-4903-8366-c0917b5beca4","ios":"levelo://app?vid=30cd1bde-2afc-4903-8366-c0917b5beca4"},"vehicle_type_id":"4","last_reported":1704989354,"current_range_meters":8000,"station_id":"ce4bgph2rcd13ifvqc2g","pricing_plan_id":"free"},{"bike_id":"0e836ab1-7b18-42cb-b153-270d5d183b58","system_id":"levelo_inurba_marseille","lat":43.29573,"lon":5.367355,"is_reserved":false,"is_disabled":false,"rental_uris":{"android":"levelo://app?vid=0e836ab1-7b18-42cb-b153-270d5d183b58","ios":"levelo://app?vid=0e836ab1-7b18-42cb-b153-270d5d183b58"},"vehicle_type_id":"4","last_reported":1704989354,"current_range_meters":22400,"station_id":"ce4bgph2rcd13ifvqc2g","pricing_plan_id":"free"},{"bike_id":"f4b7b3a8-7e21-4a35-88cf-5cf3dd35801f","system_id":"levelo_inurba_marseille","lat":43.296921,"lon":5.376579,"is_reserved":false,"is_disabled":false,"rental_uris":{"android":"levelo://app?vid=f4b7b3a8-7e21-4a35-88cf-5cf3dd35801f","ios":"levelo://app?vid=f4b7b3a8-7e21-4a35-88cf-5cf3dd35801f"},"vehicle_type_id":"4","last_reported":1704989354,"current_range_meters":19600,"station_id":"ce4bgkh2rcd13ifvqbl0","pricing_plan_id":"free"},{"bike_id":"74d6a20f-bace-46a8-b9bb-abf9e718ab16","system_id":"levelo_inurba_marseille","lat":43.299028,"lon":5.381509,"is_reserved":false,"is_disabled":false,"rental_uris":{"android":"levelo://app?vid=74d6a20f-bace-46a8-b9bb-abf9e718ab16","ios":"levelo://app?vid=74d6a20f-bace-46a8-b9bb-abf9e718ab16"},"vehicle_type_id":"4","last_reported":1704989354,"current_range_meters":22400,"station_id":"ce4bgj12rcd13ifvqbc0","pricing_plan_id":"free"},{"bike_id":"b9470094-4555-4f89-9bb3-8b648ab442a3","system_id":"levelo_inurba_marseille","lat":43.299202,"lon":5.381513,"is_reserved":false,"is_disabled":false,"rental_uris":{"android":"levelo://app?vid=b9470094-4555-4f89-9bb3-8b648ab442a3","ios":"levelo://app?vid=b9470094-4555-4f89-9bb3-8b648ab442a3"},"vehicle_type_id":"4","last_reported":1704989354,"current_range_meters":9600,"station_id":"","pricing_plan_id":"free"},{"bike_id":"3adda4c1-9677-4f9b-b952-bfbfba2efff7","system_id":"levelo_inurba_marseille","lat":43.29713,"lon":5.37694,"is_reserved":false,"is_disabled":false,"rental_uris":{"android":"levelo://app?vid=3adda4c1-9677-4f9b-b952-bfbfba2efff7","ios":"levelo://app?vid=3adda4c1-9677-4f9b-b952-bfbfba2efff7"},"vehicle_type_id":"4","last_reported":1704989354,"current_range_meters":19600,"station_id":"ce4bgkh2rcd13ifvqbl0","pricing_plan_id":"free"},{"bike_id":"1e7ee59d-6823-4004-a153-fe86d8e6731e","system_id":"levelo_inurba_marseille","lat":43.296921,"lon":5.376579,"is_reserved":false,"is_disabled":false,"rental_uris":{"android":"levelo://app?vid=1e7ee59d-6823-4004-a153-fe86d8e6731e","ios":"levelo://app?vid=1e7ee59d-6823-4004-a153-fe86d8e6731e"},"vehicle_type_id":"4","last_reported":1704989354,"current_range_meters":5600,"station_id":"ce4bgkh2rcd13ifvqbl0","pricing_plan_id":"free"},{"bike_id":"6429c4dc-f471-492f-ac67-72bf68fd7ef9","system_id":"levelo_inurba_marseille","lat":43.296921,"lon":5.376579,"is_reserved":false,"is_disabled":false,"rental_uris":{"android":"levelo://app?vid=6429c4dc-f471-492f-ac67-72bf68fd7ef9","ios":"levelo://app?vid=6429c4dc-f471-492f-ac67-72bf68fd7ef9"},"vehicle_type_id":"4","last_reported":1704989354,"current_range_meters":21600,"station_id":"ce4bgkh2rcd13ifvqbl0","pricing_plan_id":"free"},{"bike_id":"54c4cc99-a0ba-4971-be99-c8a85200aae1","system_id":"levelo_inurba_marseille","lat":43.29708,"lon":5.37696,"is_reserved":false,"is_disabled":false,"rental_uris":{"android":"levelo://app?vid=54c4cc99-a0ba-4971-be99-c8a85200aae1","ios":"levelo://app?vid=54c4cc99-a0ba-4971-be99-c8a85200aae1"},"vehicle_type_id":"4","last_reported":1704989354,"current_range_meters":18800,"station_id":"ce4bgkh2rcd13ifvqbl0","pricing_plan_id":"free"},{"bike_id":"4eefea73-8938-4e18-ac23-a996076b30ff","system_id":"levelo_inurba_marseille","lat":43.299028,"lon":5.381509,"is_reserved":false,"is_disabled":false,"rental_uris":{"android":"levelo://app?vid=4eefea73-8938-4e18-ac23-a996076b30ff","ios":"levelo://app?vid=4eefea73-8938-4e18-ac23-a996076b30ff"},"vehicle_type_id":"4","last_reported":1704989354,"current_range_meters":26000,"station_id":"ce4bgj12rcd13ifvqbc0","pricing_plan_id":"free"},{"bike_id":"28415176-8d43-4a80-afff-081ce6f91c45","system_id":"levelo_inurba_marseille","lat":43.297049,"lon":5.376957,"is_reserved":false,"is_disabled":false,"rental_uris":{"android":"levelo://app?vid=28415176-8d43-4a80-afff-081ce6f91c45","ios":"levelo://app?vid=28415176-8d43-4a80-afff-081ce6f91c45"},"vehicle_type_id":"4","last_reported":1704989354,"current_range_meters":26400,"station_id":"ce4bgkh2rcd13ifvqbl0","pricing_plan_id":"free"},{"bike_id":"3352b028-57aa-48a3-ad0f-c314a39e4e8b","system_id":"levelo_inurba_marseille","lat":43.299028,"lon":5.381509,"is_reserved":false,"is_disabled":false,"rental_uris":{"android":"levelo://app?vid=3352b028-57aa-48a3-ad0f-c314a39e4e8b","ios":"levelo://app?vid=3352b028-57aa-48a3-ad0f-c314a39e4e8b"},"vehicle_type_id":"4","last_reported":1704989354,"current_range_meters":22000,"station_id":"ce4bgj12rcd13ifvqbc0","pricing_plan_id":"free"},{"bike_id":"1f93f78f-c1af-4e7d-bf8b-7cb2bff68cee","system_id":"levelo_inurba_marseille","lat":43.298037,"lon":5.381066,"is_reserved":false,"is_disabled":false,"rental_uris":{"android":"levelo://app?vid=1f93f78f-c1af-4e7d-bf8b-7cb2bff68cee","ios":"levelo://app?vid=1f93f78f-c1af-4e7d-bf8b-7cb2bff68cee"},"vehicle_type_id":"4","last_reported":1704989354,"current_range_meters":26000,"station_id":"ce4bgip2rcd13ifvqbb0","pricing_plan_id":"free"},{"bike_id":"76e9903b-b52b-473a-9f1d-142734df3d79","system_id":"levelo_inurba_marseille","lat":43.2979,"lon":5.38074,"is_reserved":false,"is_disabled":false,"rental_uris":{"android":"levelo://app?vid=76e9903b-b52b-473a-9f1d-142734df3d79","ios":"levelo://app?vid=76e9903b-b52b-473a-9f1d-142734df3d79"},"vehicle_type_id":"4","last_reported":1704989354,"current_range_meters":0,"station_id":"ce4bgip2rcd13ifvqbb0","pricing_plan_id":"free"},{"bike_id":"7dd5dbdb-78b3-4b39-b5a6-c3fadfc1d2c1","system_id":"levelo_inurba_marseille","lat":43.296277,"lon":5.377108,"is_reserved":false,"is_disabled":false,"rental_uris":{"android":"levelo://app?vid=7dd5dbdb-78b3-4b39-b5a6-c3fadfc1d2c1","ios":"levelo://app?vid=7dd5dbdb-78b3-4b39-b5a6-c3fadfc1d2c1"},"vehicle_type_id":"4","last_reported":1704989354,"current_range_meters":8800,"station_id":"ce4bgi92rcd13ifvqb90","pricing_plan_id":"free"},{"bike_id":"a3d90ade-549e-44cd-a9d5-064e18ee18a5","system_id":"levelo_inurba_marseille","lat":43.30434,"lon":5.38887,"is_reserved":false,"is_disabled":false,"rental_uris":{"android":"levelo://app?vid=a3d90ade-549e-44cd-a9d5-064e18ee18a5","ios":"levelo://app?vid=a3d90ade-549e-44cd-a9d5-064e18ee18a5"},"vehicle_type_id":"4","last_reported":1704989354,"current_range_meters":24000,"station_id":"ce4bgk12rcd13ifvqbi0","pricing_plan_id":"free"},{"bike_id":"0b7933e6-c2b6-4f92-b6c6-5036d63ae8a7","system_id":"levelo_inurba_marseille","lat":43.298037,"lon":5.381066,"is_reserved":false,"is_disabled":false,"rental_uris":{"android":"levelo://app?vid=0b7933e6-c2b6-4f92-b6c6-5036d63ae8a7","ios":"levelo://app?vid=0b7933e6-c2b6-4f92-b6c6-5036d63ae8a7"},"vehicle_type_id":"4","last_reported":1704989354,"current_range_meters":30000,"station_id":"ce4bgip2rcd13ifvqbb0","pricing_plan_id":"free"},{"bike_id":"4345be9a-a4fb-4802-b708-56bab0a74556","system_id":"levelo_inurba_marseille","lat":43.295748,"lon":5.37522,"is_reserved":false,"is_disabled":false,"rental_uris":{"android":"levelo://app?vid=4345be9a-a4fb-4802-b708-56bab0a74556","ios":"levelo://app?vid=4345be9a-a4fb-4802-b708-56bab0a74556"},"vehicle_type_id":"4","last_reported":1704989354,"current_range_meters":22400,"station_id":"ce4bgh92rcd13ifvqb50","pricing_plan_id":"free"},{"bike_id":"471def92-3955-4bd3-aa5a-91f166503445","system_id":"levelo_inurba_marseille","lat":43.304274,"lon":5.388873,"is_reserved":false,"is_disabled":false,"rental_uris":{"android":"levelo://app?vid=471def92-3955-4bd3-aa5a-91f166503445","ios":"levelo://app?vid=471def92-3955-4bd3-aa5a-91f166503445"},"vehicle_type_id":"4","last_reported":1704989354,"current_range_meters":21600,"station_id":"ce4bgk12rcd13ifvqbi0","pricing_plan_id":"free"},{"bike_id":"df95ed73-fd0e-4164-b70c-a61bbec47c1f","system_id":"levelo_inurba_marseille","lat":43.298037,"lon":5.381066,"is_reserved":false,"is_disabled":false,"rental_uris":{"android":"levelo://app?vid=df95ed73-fd0e-4164-b70c-a61bbec47c1f","ios":"levelo://app?vid=df95ed73-fd0e-4164-b70c-a61bbec47c1f"},"vehicle_type_id":"4","last_reported":1704989354,"current_range_meters":25600,"station_id":"ce4bgip2rcd13ifvqbb0","pricing_plan_id":"free"},{"bike_id":"52095008-95cd-4cc7-a11b-99e6a68500fc","system_id":"levelo_inurba_marseille","lat":43.296263,"lon":5.377094,"is_reserved":false,"is_disabled":false,"rental_uris":{"android":"levelo://app?vid=52095008-95cd-4cc7-a11b-99e6a68500fc","ios":"levelo://app?vid=52095008-95cd-4cc7-a11b-99e6a68500fc"},"vehicle_type_id":"4","last_reported":1704989354,"current_range_meters":26000,"station_id":"ce4bgi92rcd13ifvqb90","pricing_plan_id":"free"},{"bike_id":"e48e4715-2769-4b21-ae3b-0d78dded91ff","system_id":"levelo_inurba_marseille","lat":43.2956,"lon":5.37492,"is_reserved":false,"is_disabled":false,"rental_uris":{"android":"levelo://app?vid=e48e4715-2769-4b21-ae3b-0d78dded91ff","ios":"levelo://app?vid=e48e4715-2769-4b21-ae3b-0d78dded91ff"},"vehicle_type_id":"4","last_reported":1704989354,"current_range_meters":28000,"station_id":"ce4bgh92rcd13ifvqb50","pricing_plan_id":"free"},{"bike_id":"06885991-a65c-4b40-b487-abf9911dbb0f","system_id":"levelo_inurba_marseille","lat":43.296277,"lon":5.377108,"is_reserved":false,"is_disabled":false,"rental_uris":{"android":"levelo://app?vid=06885991-a65c-4b40-b487-abf9911dbb0f","ios":"levelo://app?vid=06885991-a65c-4b40-b487-abf9911dbb0f"},"vehicle_type_id":"4","last_reported":1704989354,"current_range_meters":23600,"station_id":"ce4bgi92rcd13ifvqb90","pricing_plan_id":"free"},{"bike_id":"a95831fa-6c06-4594-bedf-f29fe69648c7","system_id":"levelo_inurba_marseille","lat":43.296263,"lon":5.377094,"is_reserved":false,"is_disabled":false,"rental_uris":{"android":"levelo://app?vid=a95831fa-6c06-4594-bedf-f29fe69648c7","ios":"levelo://app?vid=a95831fa-6c06-4594-bedf-f29fe69648c7"},"vehicle_type_id":"4","last_reported":1704989354,"current_range_meters":16800,"station_id":"ce4bgi92rcd13ifvqb90","pricing_plan_id":"free"},{"bike_id":"80fa0198-90ac-4fec-b52e-9d2a0a85925c","system_id":"levelo_inurba_marseille","lat":43.296263,"lon":5.377094,"is_reserved":false,"is_disabled":false,"rental_uris":{"android":"levelo://app?vid=80fa0198-90ac-4fec-b52e-9d2a0a85925c","ios":"levelo://app?vid=80fa0198-90ac-4fec-b52e-9d2a0a85925c"},"vehicle_type_id":"4","last_reported":1704989354,"current_range_meters":28400,"station_id":"ce4bgi92rcd13ifvqb90","pricing_plan_id":"free"},{"bike_id":"0be32fb7-3983-4c88-84bb-abd8692a415a","system_id":"levelo_inurba_marseille","lat":43.296263,"lon":5.377094,"is_reserved":false,"is_disabled":false,"rental_uris":{"android":"levelo://app?vid=0be32fb7-3983-4c88-84bb-abd8692a415a","ios":"levelo://app?vid=0be32fb7-3983-4c88-84bb-abd8692a415a"},"vehicle_type_id":"4","last_reported":1704989354,"current_range_meters":28400,"station_id":"ce4bgi92rcd13ifvqb90","pricing_plan_id":"free"},{"bike_id":"5abf02f5-8a9a-4d79-97f3-feaad6d2f1d2","system_id":"levelo_inurba_marseille","lat":43.296263,"lon":5.377094,"is_reserved":false,"is_disabled":false,"rental_uris":{"android":"levelo://app?vid=5abf02f5-8a9a-4d79-97f3-feaad6d2f1d2","ios":"levelo://app?vid=5abf02f5-8a9a-4d79-97f3-feaad6d2f1d2"},"vehicle_type_id":"4","last_reported":1704989354,"current_range_meters":10000,"station_id":"ce4bgi92rcd13ifvqb90","pricing_plan_id":"free"},{"bike_id":"94957452-654f-4979-a5e0-912aad4c9324","system_id":"levelo_inurba_marseille","lat":43.295279,"lon":5.375048,"is_reserved":false,"is_disabled":false,"rental_uris":{"android":"levelo://app?vid=94957452-654f-4979-a5e0-912aad4c9324","ios":"levelo://app?vid=94957452-654f-4979-a5e0-912aad4c9324"},"vehicle_type_id":"4","last_reported":1704989354,"current_range_meters":26000,"station_id":"ce4bgkp2rcd13ifvqbmg","pricing_plan_id":"free"},{"bike_id":"5ca911e9-9160-430c-ab83-20e8d1265853","system_id":"levelo_inurba_marseille","lat":43.295279,"lon":5.375048,"is_reserved":false,"is_disabled":false,"rental_uris":{"android":"levelo://app?vid=5ca911e9-9160-430c-ab83-20e8d1265853","ios":"levelo://app?vid=5ca911e9-9160-430c-ab83-20e8d1265853"},"vehicle_type_id":"4","last_reported":1704989354,"current_range_meters":28400,"station_id":"ce4bgkp2rcd13ifvqbmg","pricing_plan_id":"free"},{"bike_id":"1d053d6d-faef-462a-adb0-2f09f8ed483c","system_id":"levelo_inurba_marseille","lat":43.299717,"lon":5.384845,"is_reserved":false,"is_disabled":false,"rental_uris":{"android":"levelo://app?vid=1d053d6d-faef-462a-adb0-2f09f8ed483c","ios":"levelo://app?vid=1d053d6d-faef-462a-adb0-2f09f8ed483c"},"vehicle_type_id":"4","last_reported":1704989354,"current_range_meters":15600,"station_id":"ce4bgj92rcd13ifvqbd0","pricing_plan_id":"free"},{"bike_id":"489696a2-008f-4192-b77f-b8e44d13c94b","system_id":"levelo_inurba_marseille","lat":43.295279,"lon":5.375048,"is_reserved":false,"is_disabled":false,"rental_uris":{"android":"levelo://app?vid=489696a2-008f-4192-b77f-b8e44d13c94b","ios":"levelo://app?vid=489696a2-008f-4192-b77f-b8e44d13c94b"},"vehicle_type_id":"4","last_reported":1704989354,"current_range_meters":29200,"station_id":"ce4bgkp2rcd13ifvqbmg","pricing_plan_id":"free"},{"bike_id":"38fb15e2-97fd-4f68-ae2d-4c0fe510a864","system_id":"levelo_inurba_marseille","lat":43.323666,"lon":5.388739,"is_reserved":false,"is_disabled":false,"rental_uris":{"android":"levelo://app?vid=38fb15e2-97fd-4f68-ae2d-4c0fe510a864","ios":"levelo://app?vid=38fb15e2-97fd-4f68-ae2d-4c0fe510a864"},"vehicle_type_id":"4","last_reported":1704989354,"current_range_meters":21600,"station_id":"ce4bhqp2rcd13ifvqhog","pricing_plan_id":"free"},{"bike_id":"c7855a59-39c1-4341-9257-1f0a6e40a20a","system_id":"levelo_inurba_marseille","lat":43.32367,"lon":5.388836,"is_reserved":false,"is_disabled":false,"rental_uris":{"android":"levelo://app?vid=c7855a59-39c1-4341-9257-1f0a6e40a20a","ios":"levelo://app?vid=c7855a59-39c1-4341-9257-1f0a6e40a20a"},"vehicle_type_id":"4","last_reported":1704989354,"current_range_meters":11600,"station_id":"ce4bhqp2rcd13ifvqhog","pricing_plan_id":"free"},{"bike_id":"53bcccdd-f8f4-4713-a7f0-5bfceffa3b71","system_id":"levelo_inurba_marseille","lat":43.32367,"lon":5.388836,"is_reserved":false,"is_disabled":false,"rental_uris":{"android":"levelo://app?vid=53bcccdd-f8f4-4713-a7f0-5bfceffa3b71","ios":"levelo://app?vid=53bcccdd-f8f4-4713-a7f0-5bfceffa3b71"},"vehicle_type_id":"4","last_reported":1704989354,"current_range_meters":26000,"station_id":"ce4bhqp2rcd13ifvqhog","pricing_plan_id":"free"},{"bike_id":"0ab7a87b-f568-4965-a7d5-d547f8364640","system_id":"levelo_inurba_marseille","lat":43.323637,"lon":5.388837,"is_reserved":false,"is_disabled":false,"rental_uris":{"android":"levelo://app?vid=0ab7a87b-f568-4965-a7d5-d547f8364640","ios":"levelo://app?vid=0ab7a87b-f568-4965-a7d5-d547f8364640"},"vehicle_type_id":"4","last_reported":1704989354,"current_range_meters":8800,"station_id":"ce4bhqp2rcd13ifvqhog","pricing_plan_id":"free"},{"bike_id":"a543be44-eb65-4189-aa5a-bf347333dea9","system_id":"levelo_inurba_marseille","lat":43.32367,"lon":5.38884,"is_reserved":false,"is_disabled":false,"rental_uris":{"android":"levelo://app?vid=a543be44-eb65-4189-aa5a-bf347333dea9","ios":"levelo://app?vid=a543be44-eb65-4189-aa5a-bf347333dea9"},"vehicle_type_id":"4","last_reported":1704989354,"current_range_meters":28800,"station_id":"ce4bhqp2rcd13ifvqhog","pricing_plan_id":"free"},{"bike_id":"be57e941-5db8-46ca-b957-29f201eb1fcc","system_id":"levelo_inurba_marseille","lat":43.29601,"lon":5.381084,"is_reserved":false,"is_disabled":false,"rental_uris":{"android":"levelo://app?vid=be57e941-5db8-46ca-b957-29f201eb1fcc","ios":"levelo://app?vid=be57e941-5db8-46ca-b957-29f201eb1fcc"},"vehicle_type_id":"4","last_reported":1704989354,"current_range_meters":20800,"station_id":"ce4bgl12rcd13ifvqbo0","pricing_plan_id":"free"},{"bike_id":"fe076d03-1303-4ea1-bfdb-02a7055ae12c","system_id":"levelo_inurba_marseille","lat":43.29602,"lon":5.381084,"is_reserved":false,"is_disabled":false,"rental_uris":{"android":"levelo://app?vid=fe076d03-1303-4ea1-bfdb-02a7055ae12c","ios":"levelo://app?vid=fe076d03-1303-4ea1-bfdb-02a7055ae12c"},"vehicle_type_id":"4","last_reported":1704989354,"current_range_meters":25200,"station_id":"ce4bgl12rcd13ifvqbo0","pricing_plan_id":"free"},{"bike_id":"041d056b-7d97-49a4-ac82-4a5cf7f0017e","system_id":"levelo_inurba_marseille","lat":43.29275,"lon":5.368397,"is_reserved":false,"is_disabled":false,"rental_uris":{"android":"levelo://app?vid=041d056b-7d97-49a4-ac82-4a5cf7f0017e","ios":"levelo://app?vid=041d056b-7d97-49a4-ac82-4a5cf7f0017e"},"vehicle_type_id":"4","last_reported":1704989354,"current_range_meters":10800,"station_id":"ce4bhbp2rcd13ifvqesg","pricing_plan_id":"free"},{"bike_id":"7abe08fe-113c-4738-83f6-fadb1ecff569","system_id":"levelo_inurba_marseille","lat":43.293259,"lon":5.371586,"is_reserved":false,"is_disabled":false,"rental_uris":{"android":"levelo://app?vid=7abe08fe-113c-4738-83f6-fadb1ecff569","ios":"levelo://app?vid=7abe08fe-113c-4738-83f6-fadb1ecff569"},"vehicle_type_id":"4","last_reported":1704989354,"current_range_meters":26000,"station_id":"ce4bgh92rcd13ifvqb40","pricing_plan_id":"free"},{"bike_id":"e8dca2c4-3c52-40a6-a131-a15e5a380f0e","system_id":"levelo_inurba_marseille","lat":43.293009,"lon":5.374584,"is_reserved":false,"is_disabled":false,"rental_uris":{"android":"levelo://app?vid=e8dca2c4-3c52-40a6-a131-a15e5a380f0e","ios":"levelo://app?vid=e8dca2c4-3c52-40a6-a131-a15e5a380f0e"},"vehicle_type_id":"4","last_reported":1704989354,"current_range_meters":5600,"station_id":"ce4bgi12rcd13ifvqb70","pricing_plan_id":"free"},{"bike_id":"fc54762e-b1ea-40d9-b71f-e33c7b02668e","system_id":"levelo_inurba_marseille","lat":43.30606,"lon":5.39358,"is_reserved":false,"is_disabled":false,"rental_uris":{"android":"levelo://app?vid=fc54762e-b1ea-40d9-b71f-e33c7b02668e","ios":"levelo://app?vid=fc54762e-b1ea-40d9-b71f-e33c7b02668e"},"vehicle_type_id":"4","last_reported":1704989354,"current_range_meters":19200,"station_id":"ce4bh0p2rcd13ifvqd80","pricing_plan_id":"free"},{"bike_id":"2f19dc67-3b98-4354-bbe2-e8b3ac56ad91","system_id":"levelo_inurba_marseille","lat":43.293009,"lon":5.374584,"is_reserved":false,"is_disabled":false,"rental_uris":{"android":"levelo://app?vid=2f19dc67-3b98-4354-bbe2-e8b3ac56ad91","ios":"levelo://app?vid=2f19dc67-3b98-4354-bbe2-e8b3ac56ad91"},"vehicle_type_id":"4","last_reported":1704989354,"current_range_meters":28400,"station_id":"ce4bgi12rcd13ifvqb70","pricing_plan_id":"free"},{"bike_id":"0dcc3580-80fd-44de-a414-f3ea857cf662","system_id":"levelo_inurba_marseille","lat":43.292311,"lon":5.360731,"is_reserved":false,"is_disabled":false,"rental_uris":{"android":"levelo://app?vid=0dcc3580-80fd-44de-a414-f3ea857cf662","ios":"levelo://app?vid=0dcc3580-80fd-44de-a414-f3ea857cf662"},"vehicle_type_id":"4","last_reported":1704989354,"current_range_meters":1200,"station_id":"ce4bhbh2rcd13ifvqeqg","pricing_plan_id":"free"},{"bike_id":"712de6af-03fe-4592-ba76-00242e716d41","system_id":"levelo_inurba_marseille","lat":43.300852,"lon":5.390859,"is_reserved":false,"is_disabled":false,"rental_uris":{"android":"levelo://app?vid=712de6af-03fe-4592-ba76-00242e716d41","ios":"levelo://app?vid=712de6af-03fe-4592-ba76-00242e716d41"},"vehicle_type_id":"4","last_reported":1704989354,"current_range_meters":19200,"station_id":"ce4bh192rcd13ifvqdb0","pricing_plan_id":"free"},{"bike_id":"55ec213f-939b-415b-9fab-4e7b4540cfe2","system_id":"levelo_inurba_marseille","lat":43.292207,"lon":5.360679,"is_reserved":false,"is_disabled":false,"rental_uris":{"android":"levelo://app?vid=55ec213f-939b-415b-9fab-4e7b4540cfe2","ios":"levelo://app?vid=55ec213f-939b-415b-9fab-4e7b4540cfe2"},"vehicle_type_id":"4","last_reported":1704989354,"current_range_meters":6400,"station_id":"ce4bhbh2rcd13ifvqeqg","pricing_plan_id":"free"},{"bike_id":"5749c653-1a51-4b76-9966-90c293657a67","system_id":"levelo_inurba_marseille","lat":43.300852,"lon":5.390859,"is_reserved":false,"is_disabled":false,"rental_uris":{"android":"levelo://app?vid=5749c653-1a51-4b76-9966-90c293657a67","ios":"levelo://app?vid=5749c653-1a51-4b76-9966-90c293657a67"},"vehicle_type_id":"4","last_reported":1704989354,"current_range_meters":24400,"station_id":"ce4bh192rcd13ifvqdb0","pricing_plan_id":"free"},{"bike_id":"15b789e9-8a81-49db-95d8-3b345b0f9f73","system_id":"levelo_inurba_marseille","lat":43.291671,"lon":5.371575,"is_reserved":false,"is_disabled":false,"rental_uris":{"android":"levelo://app?vid=15b789e9-8a81-49db-95d8-3b345b0f9f73","ios":"levelo://app?vid=15b789e9-8a81-49db-95d8-3b345b0f9f73"},"vehicle_type_id":"4","last_reported":1704989354,"current_range_meters":20000,"station_id":"ce4bha92rcd13ifvqeh0","pricing_plan_id":"free"},{"bike_id":"ccc6dd55-ffe9-4bba-9c08-67c99f5db8c1","system_id":"levelo_inurba_marseille","lat":43.291675,"lon":5.371583,"is_reserved":false,"is_disabled":false,"rental_uris":{"android":"levelo://app?vid=ccc6dd55-ffe9-4bba-9c08-67c99f5db8c1","ios":"levelo://app?vid=ccc6dd55-ffe9-4bba-9c08-67c99f5db8c1"},"vehicle_type_id":"4","last_reported":1704989354,"current_range_meters":15200,"station_id":"ce4bha92rcd13ifvqeh0","pricing_plan_id":"free"},{"bike_id":"cdcfc8cd-054e-4c45-8f11-ac26e092d690","system_id":"levelo_inurba_marseille","lat":43.291671,"lon":5.371575,"is_reserved":false,"is_disabled":false,"rental_uris":{"android":"levelo://app?vid=cdcfc8cd-054e-4c45-8f11-ac26e092d690","ios":"levelo://app?vid=cdcfc8cd-054e-4c45-8f11-ac26e092d690"},"vehicle_type_id":"4","last_reported":1704989354,"current_range_meters":31200,"station_id":"ce4bha92rcd13ifvqeh0","pricing_plan_id":"free"},{"bike_id":"fa90f463-1b70-495e-8fb4-456a5738a650","system_id":"levelo_inurba_marseille","lat":43.309038,"lon":5.396546,"is_reserved":false,"is_disabled":false,"rental_uris":{"android":"levelo://app?vid=fa90f463-1b70-495e-8fb4-456a5738a650","ios":"levelo://app?vid=fa90f463-1b70-495e-8fb4-456a5738a650"},"vehicle_type_id":"4","last_reported":1704989354,"current_range_meters":31600,"station_id":"ce4bh012rcd13ifvqcv0","pricing_plan_id":"free"},{"bike_id":"9c39963c-4d59-44a3-8c52-88a6ad12e53c","system_id":"levelo_inurba_marseille","lat":43.291994,"lon":5.357886,"is_reserved":false,"is_disabled":false,"rental_uris":{"android":"levelo://app?vid=9c39963c-4d59-44a3-8c52-88a6ad12e53c","ios":"levelo://app?vid=9c39963c-4d59-44a3-8c52-88a6ad12e53c"},"vehicle_type_id":"4","last_reported":1704989354,"current_range_meters":22800,"station_id":"ce4bhb12rcd13ifvqel0","pricing_plan_id":"free"},{"bike_id":"3b2240ae-d714-4fcc-92cf-fa03d6ce0c2e","system_id":"levelo_inurba_marseille","lat":43.291994,"lon":5.357886,"is_reserved":false,"is_disabled":false,"rental_uris":{"android":"levelo://app?vid=3b2240ae-d714-4fcc-92cf-fa03d6ce0c2e","ios":"levelo://app?vid=3b2240ae-d714-4fcc-92cf-fa03d6ce0c2e"},"vehicle_type_id":"4","last_reported":1704989354,"current_range_meters":15200,"station_id":"ce4bhb12rcd13ifvqel0","pricing_plan_id":"free"},{"bike_id":"ed9e40e3-bf16-4ca0-aa68-21bc35fe57f1","system_id":"levelo_inurba_marseille","lat":43.309047,"lon":5.396551,"is_reserved":false,"is_disabled":false,"rental_uris":{"android":"levelo://app?vid=ed9e40e3-bf16-4ca0-aa68-21bc35fe57f1","ios":"levelo://app?vid=ed9e40e3-bf16-4ca0-aa68-21bc35fe57f1"},"vehicle_type_id":"4","last_reported":1704989354,"current_range_meters":28800,"station_id":"ce4bh012rcd13ifvqcv0","pricing_plan_id":"free"},{"bike_id":"efaa0343-1899-4ef3-a98d-678dbf4253c1","system_id":"levelo_inurba_marseille","lat":43.309038,"lon":5.396546,"is_reserved":false,"is_disabled":false,"rental_uris":{"android":"levelo://app?vid=efaa0343-1899-4ef3-a98d-678dbf4253c1","ios":"levelo://app?vid=efaa0343-1899-4ef3-a98d-678dbf4253c1"},"vehicle_type_id":"4","last_reported":1704989354,"current_range_meters":12400,"station_id":"ce4bh012rcd13ifvqcv0","pricing_plan_id":"free"},{"bike_id":"3945c867-4c23-483d-9b90-fbb78eb575c0","system_id":"levelo_inurba_marseille","lat":43.313291,"lon":5.396838,"is_reserved":false,"is_disabled":false,"rental_uris":{"android":"levelo://app?vid=3945c867-4c23-483d-9b90-fbb78eb575c0","ios":"levelo://app?vid=3945c867-4c23-483d-9b90-fbb78eb575c0"},"vehicle_type_id":"4","last_reported":1704989354,"current_range_meters":18800,"station_id":"ce4bgvp2rcd13ifvqcu0","pricing_plan_id":"free"},{"bike_id":"43e3c829-2deb-43ef-8b69-a848c378c386","system_id":"levelo_inurba_marseille","lat":43.313291,"lon":5.396838,"is_reserved":false,"is_disabled":false,"rental_uris":{"android":"levelo://app?vid=43e3c829-2deb-43ef-8b69-a848c378c386","ios":"levelo://app?vid=43e3c829-2deb-43ef-8b69-a848c378c386"},"vehicle_type_id":"4","last_reported":1704989354,"current_range_meters":23600,"station_id":"ce4bgvp2rcd13ifvqcu0","pricing_plan_id":"free"},{"bike_id":"25e73d19-1a29-4693-80c2-5157b3beecfe","system_id":"levelo_inurba_marseille","lat":43.309038,"lon":5.396546,"is_reserved":false,"is_disabled":false,"rental_uris":{"android":"levelo://app?vid=25e73d19-1a29-4693-80c2-5157b3beecfe","ios":"levelo://app?vid=25e73d19-1a29-4693-80c2-5157b3beecfe"},"vehicle_type_id":"4","last_reported":1704989354,"current_range_meters":31600,"station_id":"ce4bh012rcd13ifvqcv0","pricing_plan_id":"free"},{"bike_id":"a46ac0a0-15f6-49ab-90cb-31e315446361","system_id":"levelo_inurba_marseille","lat":43.31332,"lon":5.396888,"is_reserved":false,"is_disabled":false,"rental_uris":{"android":"levelo://app?vid=a46ac0a0-15f6-49ab-90cb-31e315446361","ios":"levelo://app?vid=a46ac0a0-15f6-49ab-90cb-31e315446361"},"vehicle_type_id":"4","last_reported":1704989354,"current_range_meters":0,"station_id":"ce4bgvp2rcd13ifvqcu0","pricing_plan_id":"free"},{"bike_id":"7e774733-9be3-463c-8b8a-18427807ec58","system_id":"levelo_inurba_marseille","lat":43.313291,"lon":5.396838,"is_reserved":false,"is_disabled":false,"rental_uris":{"android":"levelo://app?vid=7e774733-9be3-463c-8b8a-18427807ec58","ios":"levelo://app?vid=7e774733-9be3-463c-8b8a-18427807ec58"},"vehicle_type_id":"4","last_reported":1704989354,"current_range_meters":20400,"station_id":"ce4bgvp2rcd13ifvqcu0","pricing_plan_id":"free"},{"bike_id":"5c40448f-0039-48fd-955e-f179384bc97e","system_id":"levelo_inurba_marseille","lat":43.309038,"lon":5.396546,"is_reserved":false,"is_disabled":false,"rental_uris":{"android":"levelo://app?vid=5c40448f-0039-48fd-955e-f179384bc97e","ios":"levelo://app?vid=5c40448f-0039-48fd-955e-f179384bc97e"},"vehicle_type_id":"4","last_reported":1704989354,"current_range_meters":11600,"station_id":"ce4bh012rcd13ifvqcv0","pricing_plan_id":"free"},{"bike_id":"32ae0266-102c-43ee-abed-40edd902c95f","system_id":"levelo_inurba_marseille","lat":43.309038,"lon":5.396546,"is_reserved":false,"is_disabled":false,"rental_uris":{"android":"levelo://app?vid=32ae0266-102c-43ee-abed-40edd902c95f","ios":"levelo://app?vid=32ae0266-102c-43ee-abed-40edd902c95f"},"vehicle_type_id":"4","last_reported":1704989354,"current_range_meters":23600,"station_id":"ce4bh012rcd13ifvqcv0","pricing_plan_id":"free"},{"bike_id":"df06ddd8-7f64-49f9-a54a-ba6261bd9a39","system_id":"levelo_inurba_marseille","lat":43.309038,"lon":5.396546,"is_reserved":false,"is_disabled":false,"rental_uris":{"android":"levelo://app?vid=df06ddd8-7f64-49f9-a54a-ba6261bd9a39","ios":"levelo://app?vid=df06ddd8-7f64-49f9-a54a-ba6261bd9a39"},"vehicle_type_id":"4","last_reported":1704989354,"current_range_meters":21200,"station_id":"ce4bh012rcd13ifvqcv0","pricing_plan_id":"free"},{"bike_id":"da2930b5-2047-442e-b897-38d3c6e7a756","system_id":"levelo_inurba_marseille","lat":43.309038,"lon":5.396546,"is_reserved":false,"is_disabled":false,"rental_uris":{"android":"levelo://app?vid=da2930b5-2047-442e-b897-38d3c6e7a756","ios":"levelo://app?vid=da2930b5-2047-442e-b897-38d3c6e7a756"},"vehicle_type_id":"4","last_reported":1704989354,"current_range_meters":28000,"station_id":"ce4bh012rcd13ifvqcv0","pricing_plan_id":"free"},{"bike_id":"e48e95a5-7d5f-4d96-81d6-23d69accf361","system_id":"levelo_inurba_marseille","lat":43.29529,"lon":5.385581,"is_reserved":false,"is_disabled":false,"rental_uris":{"android":"levelo://app?vid=e48e95a5-7d5f-4d96-81d6-23d69accf361","ios":"levelo://app?vid=e48e95a5-7d5f-4d96-81d6-23d69accf361"},"vehicle_type_id":"4","last_reported":1704989354,"current_range_meters":29200,"station_id":"ce4bgih2rcd13ifvqba0","pricing_plan_id":"free"},{"bike_id":"8574dcde-a21b-444b-b105-5521570f4eb7","system_id":"levelo_inurba_marseille","lat":43.29529,"lon":5.385581,"is_reserved":false,"is_disabled":false,"rental_uris":{"android":"levelo://app?vid=8574dcde-a21b-444b-b105-5521570f4eb7","ios":"levelo://app?vid=8574dcde-a21b-444b-b105-5521570f4eb7"},"vehicle_type_id":"4","last_reported":1704989354,"current_range_meters":15600,"station_id":"ce4bgih2rcd13ifvqba0","pricing_plan_id":"free"},{"bike_id":"91588c73-9909-49ca-9a8c-1f12a33d6370","system_id":"levelo_inurba_marseille","lat":43.29529,"lon":5.385581,"is_reserved":false,"is_disabled":false,"rental_uris":{"android":"levelo://app?vid=91588c73-9909-49ca-9a8c-1f12a33d6370","ios":"levelo://app?vid=91588c73-9909-49ca-9a8c-1f12a33d6370"},"vehicle_type_id":"4","last_reported":1704989354,"current_range_meters":29600,"station_id":"ce4bgih2rcd13ifvqba0","pricing_plan_id":"free"},{"bike_id":"4e231430-208a-4d28-b2ab-3b9bf58c2257","system_id":"levelo_inurba_marseille","lat":43.29529,"lon":5.385581,"is_reserved":false,"is_disabled":false,"rental_uris":{"android":"levelo://app?vid=4e231430-208a-4d28-b2ab-3b9bf58c2257","ios":"levelo://app?vid=4e231430-208a-4d28-b2ab-3b9bf58c2257"},"vehicle_type_id":"4","last_reported":1704989354,"current_range_meters":18000,"station_id":"ce4bgih2rcd13ifvqba0","pricing_plan_id":"free"},{"bike_id":"4f7c21dc-32a2-4c2f-8215-c13b44dff7b5","system_id":"levelo_inurba_marseille","lat":43.29532,"lon":5.38549,"is_reserved":false,"is_disabled":false,"rental_uris":{"android":"levelo://app?vid=4f7c21dc-32a2-4c2f-8215-c13b44dff7b5","ios":"levelo://app?vid=4f7c21dc-32a2-4c2f-8215-c13b44dff7b5"},"vehicle_type_id":"4","last_reported":1704989354,"current_range_meters":28800,"station_id":"ce4bgih2rcd13ifvqba0","pricing_plan_id":"free"},{"bike_id":"c85744a1-825d-4383-91a6-804fc28f85bc","system_id":"levelo_inurba_marseille","lat":43.302008,"lon":5.394694,"is_reserved":false,"is_disabled":false,"rental_uris":{"android":"levelo://app?vid=c85744a1-825d-4383-91a6-804fc28f85bc","ios":"levelo://app?vid=c85744a1-825d-4383-91a6-804fc28f85bc"},"vehicle_type_id":"4","last_reported":1704989354,"current_range_meters":28400,"station_id":"ce4bh0p2rcd13ifvqd70","pricing_plan_id":"free"},{"bike_id":"624c72da-dbdd-4335-8cdb-c0830d341c78","system_id":"levelo_inurba_marseille","lat":43.290995,"lon":5.381361,"is_reserved":false,"is_disabled":false,"rental_uris":{"android":"levelo://app?vid=624c72da-dbdd-4335-8cdb-c0830d341c78","ios":"levelo://app?vid=624c72da-dbdd-4335-8cdb-c0830d341c78"},"vehicle_type_id":"4","last_reported":1704989354,"current_range_meters":28800,"station_id":"ce4bh512rcd13ifvqe2g","pricing_plan_id":"free"},{"bike_id":"cef8676a-efd5-42fb-b299-a9986467b58a","system_id":"levelo_inurba_marseille","lat":43.290631,"lon":5.359244,"is_reserved":false,"is_disabled":false,"rental_uris":{"android":"levelo://app?vid=cef8676a-efd5-42fb-b299-a9986467b58a","ios":"levelo://app?vid=cef8676a-efd5-42fb-b299-a9986467b58a"},"vehicle_type_id":"4","last_reported":1704989354,"current_range_meters":23600,"station_id":"ce4bha92rcd13ifvqeg0","pricing_plan_id":"free"},{"bike_id":"21b0a5dd-db0f-415b-82e7-b626a12dd804","system_id":"levelo_inurba_marseille","lat":43.290624,"lon":5.359245,"is_reserved":false,"is_disabled":false,"rental_uris":{"android":"levelo://app?vid=21b0a5dd-db0f-415b-82e7-b626a12dd804","ios":"levelo://app?vid=21b0a5dd-db0f-415b-82e7-b626a12dd804"},"vehicle_type_id":"4","last_reported":1704989354,"current_range_meters":10400,"station_id":"ce4bha92rcd13ifvqeg0","pricing_plan_id":"free"},{"bike_id":"2f745d6d-4eaa-4912-94f5-e6de582a310f","system_id":"levelo_inurba_marseille","lat":43.294153,"lon":5.386305,"is_reserved":false,"is_disabled":false,"rental_uris":{"android":"levelo://app?vid=2f745d6d-4eaa-4912-94f5-e6de582a310f","ios":"levelo://app?vid=2f745d6d-4eaa-4912-94f5-e6de582a310f"},"vehicle_type_id":"4","last_reported":1704989354,"current_range_meters":21200,"station_id":"ce4bh2h2rcd13ifvqdh0","pricing_plan_id":"free"},{"bike_id":"20dc82a2-5ed9-4db9-9b6e-03a4a51c092a","system_id":"levelo_inurba_marseille","lat":43.294162,"lon":5.386292,"is_reserved":false,"is_disabled":false,"rental_uris":{"android":"levelo://app?vid=20dc82a2-5ed9-4db9-9b6e-03a4a51c092a","ios":"levelo://app?vid=20dc82a2-5ed9-4db9-9b6e-03a4a51c092a"},"vehicle_type_id":"4","last_reported":1704989354,"current_range_meters":23200,"station_id":"ce4bh2h2rcd13ifvqdh0","pricing_plan_id":"free"},{"bike_id":"ff4bc2db-3efb-46ea-bcdd-e02e3aa9a2a7","system_id":"levelo_inurba_marseille","lat":43.292642,"lon":5.384254,"is_reserved":false,"is_disabled":false,"rental_uris":{"android":"levelo://app?vid=ff4bc2db-3efb-46ea-bcdd-e02e3aa9a2a7","ios":"levelo://app?vid=ff4bc2db-3efb-46ea-bcdd-e02e3aa9a2a7"},"vehicle_type_id":"4","last_reported":1704989354,"current_range_meters":25200,"station_id":"ce4bh692rcd13ifvqea0","pricing_plan_id":"free"},{"bike_id":"1e4861dd-1c02-47d5-8215-173517a685f9","system_id":"levelo_inurba_marseille","lat":43.292642,"lon":5.384254,"is_reserved":false,"is_disabled":false,"rental_uris":{"android":"levelo://app?vid=1e4861dd-1c02-47d5-8215-173517a685f9","ios":"levelo://app?vid=1e4861dd-1c02-47d5-8215-173517a685f9"},"vehicle_type_id":"4","last_reported":1704989354,"current_range_meters":26800,"station_id":"ce4bh692rcd13ifvqea0","pricing_plan_id":"free"},{"bike_id":"ecc697c4-08ff-4a8b-9e76-de25692f88df","system_id":"levelo_inurba_marseille","lat":43.292642,"lon":5.384254,"is_reserved":false,"is_disabled":false,"rental_uris":{"android":"levelo://app?vid=ecc697c4-08ff-4a8b-9e76-de25692f88df","ios":"levelo://app?vid=ecc697c4-08ff-4a8b-9e76-de25692f88df"},"vehicle_type_id":"4","last_reported":1704989354,"current_range_meters":800,"station_id":"ce4bh692rcd13ifvqea0","pricing_plan_id":"free"},{"bike_id":"e749144c-d9f1-4b6e-9ae6-e99f0669f826","system_id":"levelo_inurba_marseille","lat":43.304296,"lon":5.397513,"is_reserved":false,"is_disabled":false,"rental_uris":{"android":"levelo://app?vid=e749144c-d9f1-4b6e-9ae6-e99f0669f826","ios":"levelo://app?vid=e749144c-d9f1-4b6e-9ae6-e99f0669f826"},"vehicle_type_id":"4","last_reported":1704989354,"current_range_meters":1200,"station_id":"ce4bh092rcd13ifvqd20","pricing_plan_id":"free"},{"bike_id":"6f57faef-3f24-4f5a-9175-74a04147fa5a","system_id":"levelo_inurba_marseille","lat":43.290104,"lon":5.356111,"is_reserved":false,"is_disabled":false,"rental_uris":{"android":"levelo://app?vid=6f57faef-3f24-4f5a-9175-74a04147fa5a","ios":"levelo://app?vid=6f57faef-3f24-4f5a-9175-74a04147fa5a"},"vehicle_type_id":"4","last_reported":1704989354,"current_range_meters":13600,"station_id":"ce4bhb92rcd13ifvqen0","pricing_plan_id":"free"},{"bike_id":"3dbae9b2-7e4f-4b61-a50a-6270494bd0a3","system_id":"levelo_inurba_marseille","lat":43.290104,"lon":5.356111,"is_reserved":false,"is_disabled":false,"rental_uris":{"android":"levelo://app?vid=3dbae9b2-7e4f-4b61-a50a-6270494bd0a3","ios":"levelo://app?vid=3dbae9b2-7e4f-4b61-a50a-6270494bd0a3"},"vehicle_type_id":"4","last_reported":1704989354,"current_range_meters":28400,"station_id":"ce4bhb92rcd13ifvqen0","pricing_plan_id":"free"},{"bike_id":"c729888d-860b-4209-bb28-50287a09debc","system_id":"levelo_inurba_marseille","lat":43.290104,"lon":5.356111,"is_reserved":false,"is_disabled":false,"rental_uris":{"android":"levelo://app?vid=c729888d-860b-4209-bb28-50287a09debc","ios":"levelo://app?vid=c729888d-860b-4209-bb28-50287a09debc"},"vehicle_type_id":"4","last_reported":1704989354,"current_range_meters":24400,"station_id":"ce4bhb92rcd13ifvqen0","pricing_plan_id":"free"},{"bike_id":"7e3e30f0-1765-4550-923a-16ae1e677e47","system_id":"levelo_inurba_marseille","lat":43.290103,"lon":5.356114,"is_reserved":false,"is_disabled":false,"rental_uris":{"android":"levelo://app?vid=7e3e30f0-1765-4550-923a-16ae1e677e47","ios":"levelo://app?vid=7e3e30f0-1765-4550-923a-16ae1e677e47"},"vehicle_type_id":"4","last_reported":1704989354,"current_range_meters":28800,"station_id":"ce4bhb92rcd13ifvqen0","pricing_plan_id":"free"},{"bike_id":"25702906-a58f-4c81-82f1-e6d6f2a31f77","system_id":"levelo_inurba_marseille","lat":43.330224,"lon":5.390352,"is_reserved":false,"is_disabled":false,"rental_uris":{"android":"levelo://app?vid=25702906-a58f-4c81-82f1-e6d6f2a31f77","ios":"levelo://app?vid=25702906-a58f-4c81-82f1-e6d6f2a31f77"},"vehicle_type_id":"4","last_reported":1704989354,"current_range_meters":16800,"station_id":"","pricing_plan_id":"free"},{"bike_id":"29877edf-f914-4818-a395-be7aee9e9d72","system_id":"levelo_inurba_marseille","lat":43.33022,"lon":5.39036,"is_reserved":false,"is_disabled":false,"rental_uris":{"android":"levelo://app?vid=29877edf-f914-4818-a395-be7aee9e9d72","ios":"levelo://app?vid=29877edf-f914-4818-a395-be7aee9e9d72"},"vehicle_type_id":"4","last_reported":1704989354,"current_range_meters":20400,"station_id":"","pricing_plan_id":"free"},{"bike_id":"0904bcbe-6b2e-4fb4-84b3-9666a350d09e","system_id":"levelo_inurba_marseille","lat":43.33021,"lon":5.39039,"is_reserved":false,"is_disabled":false,"rental_uris":{"android":"levelo://app?vid=0904bcbe-6b2e-4fb4-84b3-9666a350d09e","ios":"levelo://app?vid=0904bcbe-6b2e-4fb4-84b3-9666a350d09e"},"vehicle_type_id":"4","last_reported":1704989354,"current_range_meters":11600,"station_id":"","pricing_plan_id":"free"},{"bike_id":"c8dfd4e1-b8a2-4a47-81f8-65e2d2497f1d","system_id":"levelo_inurba_marseille","lat":43.33017,"lon":5.39046,"is_reserved":false,"is_disabled":false,"rental_uris":{"android":"levelo://app?vid=c8dfd4e1-b8a2-4a47-81f8-65e2d2497f1d","ios":"levelo://app?vid=c8dfd4e1-b8a2-4a47-81f8-65e2d2497f1d"},"vehicle_type_id":"4","last_reported":1704989354,"current_range_meters":30400,"station_id":"","pricing_plan_id":"free"},{"bike_id":"e7dcaaa9-cc06-45af-bfbd-9ecd35e01aae","system_id":"levelo_inurba_marseille","lat":43.3302,"lon":5.39047,"is_reserved":false,"is_disabled":false,"rental_uris":{"android":"levelo://app?vid=e7dcaaa9-cc06-45af-bfbd-9ecd35e01aae","ios":"levelo://app?vid=e7dcaaa9-cc06-45af-bfbd-9ecd35e01aae"},"vehicle_type_id":"4","last_reported":1704989354,"current_range_meters":18000,"station_id":"","pricing_plan_id":"free"},{"bike_id":"8fe359a3-7109-4a83-a4f9-b0904a0a2302","system_id":"levelo_inurba_marseille","lat":43.33026,"lon":5.39039,"is_reserved":false,"is_disabled":false,"rental_uris":{"android":"levelo://app?vid=8fe359a3-7109-4a83-a4f9-b0904a0a2302","ios":"levelo://app?vid=8fe359a3-7109-4a83-a4f9-b0904a0a2302"},"vehicle_type_id":"4","last_reported":1704989354,"current_range_meters":19200,"station_id":"","pricing_plan_id":"free"},{"bike_id":"6880fe4b-0999-472a-b4b5-918e960c8e1b","system_id":"levelo_inurba_marseille","lat":43.295169,"lon":5.390426,"is_reserved":false,"is_disabled":false,"rental_uris":{"android":"levelo://app?vid=6880fe4b-0999-472a-b4b5-918e960c8e1b","ios":"levelo://app?vid=6880fe4b-0999-472a-b4b5-918e960c8e1b"},"vehicle_type_id":"4","last_reported":1704989354,"current_range_meters":29200,"station_id":"ce4bh3p2rcd13ifvqdp0","pricing_plan_id":"free"},{"bike_id":"e0fc462b-d274-4653-b05d-8e799e350e05","system_id":"levelo_inurba_marseille","lat":43.295169,"lon":5.390426,"is_reserved":false,"is_disabled":false,"rental_uris":{"android":"levelo://app?vid=e0fc462b-d274-4653-b05d-8e799e350e05","ios":"levelo://app?vid=e0fc462b-d274-4653-b05d-8e799e350e05"},"vehicle_type_id":"4","last_reported":1704989354,"current_range_meters":16000,"station_id":"ce4bh3p2rcd13ifvqdp0","pricing_plan_id":"free"},{"bike_id":"226a325f-315a-43db-9b15-96fdb683c4d6","system_id":"levelo_inurba_marseille","lat":43.28856,"lon":5.358371,"is_reserved":false,"is_disabled":false,"rental_uris":{"android":"levelo://app?vid=226a325f-315a-43db-9b15-96fdb683c4d6","ios":"levelo://app?vid=226a325f-315a-43db-9b15-96fdb683c4d6"},"vehicle_type_id":"4","last_reported":1704989354,"current_range_meters":25600,"station_id":"ce4bhb12rcd13ifvqem0","pricing_plan_id":"free"},{"bike_id":"9d418d29-254f-4faa-9412-cc45ca0ba2d7","system_id":"levelo_inurba_marseille","lat":43.31289,"lon":5.40164,"is_reserved":false,"is_disabled":false,"rental_uris":{"android":"levelo://app?vid=9d418d29-254f-4faa-9412-cc45ca0ba2d7","ios":"levelo://app?vid=9d418d29-254f-4faa-9412-cc45ca0ba2d7"},"vehicle_type_id":"4","last_reported":1704989354,"current_range_meters":27200,"station_id":"ce4bh092rcd13ifvqd30","pricing_plan_id":"free"},{"bike_id":"dd401ffe-c0da-4f7a-8d65-b8fce458540e","system_id":"levelo_inurba_marseille","lat":43.3374,"lon":5.37448,"is_reserved":false,"is_disabled":false,"rental_uris":{"android":"levelo://app?vid=dd401ffe-c0da-4f7a-8d65-b8fce458540e","ios":"levelo://app?vid=dd401ffe-c0da-4f7a-8d65-b8fce458540e"},"vehicle_type_id":"4","last_reported":1704989354,"current_range_meters":22800,"station_id":"","pricing_plan_id":"free"},{"bike_id":"3b293500-0b95-4d16-a6d5-3b4d827f0b5d","system_id":"levelo_inurba_marseille","lat":43.312758,"lon":5.401651,"is_reserved":false,"is_disabled":false,"rental_uris":{"android":"levelo://app?vid=3b293500-0b95-4d16-a6d5-3b4d827f0b5d","ios":"levelo://app?vid=3b293500-0b95-4d16-a6d5-3b4d827f0b5d"},"vehicle_type_id":"4","last_reported":1704989354,"current_range_meters":6400,"station_id":"ce4bh092rcd13ifvqd30","pricing_plan_id":"free"},{"bike_id":"5044b568-d936-4113-ba33-70f704d45924","system_id":"levelo_inurba_marseille","lat":43.3128,"lon":5.40167,"is_reserved":false,"is_disabled":false,"rental_uris":{"android":"levelo://app?vid=5044b568-d936-4113-ba33-70f704d45924","ios":"levelo://app?vid=5044b568-d936-4113-ba33-70f704d45924"},"vehicle_type_id":"4","last_reported":1704989354,"current_range_meters":20000,"station_id":"ce4bh092rcd13ifvqd30","pricing_plan_id":"free"},{"bike_id":"640217e1-caa8-48b6-b30c-7f2a7a56db15","system_id":"levelo_inurba_marseille","lat":43.30937,"lon":5.40136,"is_reserved":false,"is_disabled":false,"rental_uris":{"android":"levelo://app?vid=640217e1-caa8-48b6-b30c-7f2a7a56db15","ios":"levelo://app?vid=640217e1-caa8-48b6-b30c-7f2a7a56db15"},"vehicle_type_id":"4","last_reported":1704989354,"current_range_meters":26800,"station_id":"ce4bgvp2rcd13ifvqct0","pricing_plan_id":"free"},{"bike_id":"eb357dc7-087c-4ef9-b5a6-a2451153d0b4","system_id":"levelo_inurba_marseille","lat":43.309371,"lon":5.401449,"is_reserved":false,"is_disabled":false,"rental_uris":{"android":"levelo://app?vid=eb357dc7-087c-4ef9-b5a6-a2451153d0b4","ios":"levelo://app?vid=eb357dc7-087c-4ef9-b5a6-a2451153d0b4"},"vehicle_type_id":"4","last_reported":1704989354,"current_range_meters":23600,"station_id":"ce4bgvp2rcd13ifvqct0","pricing_plan_id":"free"},{"bike_id":"7dbbd0d0-0fe0-4a7e-bce3-6765ff51695c","system_id":"levelo_inurba_marseille","lat":43.312736,"lon":5.401729,"is_reserved":false,"is_disabled":false,"rental_uris":{"android":"levelo://app?vid=7dbbd0d0-0fe0-4a7e-bce3-6765ff51695c","ios":"levelo://app?vid=7dbbd0d0-0fe0-4a7e-bce3-6765ff51695c"},"vehicle_type_id":"4","last_reported":1704989354,"current_range_meters":30000,"station_id":"ce4bh092rcd13ifvqd30","pricing_plan_id":"free"},{"bike_id":"d4632afc-35e3-4069-86f7-ff142e5cadb3","system_id":"levelo_inurba_marseille","lat":43.312691,"lon":5.401729,"is_reserved":false,"is_disabled":false,"rental_uris":{"android":"levelo://app?vid=d4632afc-35e3-4069-86f7-ff142e5cadb3","ios":"levelo://app?vid=d4632afc-35e3-4069-86f7-ff142e5cadb3"},"vehicle_type_id":"4","last_reported":1704989354,"current_range_meters":13600,"station_id":"ce4bh092rcd13ifvqd30","pricing_plan_id":"free"},{"bike_id":"6001a371-e354-4f5d-93fa-d628e054d48e","system_id":"levelo_inurba_marseille","lat":43.309371,"lon":5.401449,"is_reserved":false,"is_disabled":false,"rental_uris":{"android":"levelo://app?vid=6001a371-e354-4f5d-93fa-d628e054d48e","ios":"levelo://app?vid=6001a371-e354-4f5d-93fa-d628e054d48e"},"vehicle_type_id":"4","last_reported":1704989354,"current_range_meters":29200,"station_id":"ce4bgvp2rcd13ifvqct0","pricing_plan_id":"free"},{"bike_id":"15ea7858-b2ed-4d73-b95a-779a48b45d34","system_id":"levelo_inurba_marseille","lat":43.31259,"lon":5.40175,"is_reserved":false,"is_disabled":false,"rental_uris":{"android":"levelo://app?vid=15ea7858-b2ed-4d73-b95a-779a48b45d34","ios":"levelo://app?vid=15ea7858-b2ed-4d73-b95a-779a48b45d34"},"vehicle_type_id":"4","last_reported":1704989354,"current_range_meters":17600,"station_id":"ce4bh092rcd13ifvqd30","pricing_plan_id":"free"},{"bike_id":"d977fa02-4383-45bb-b005-e18c525e392a","system_id":"levelo_inurba_marseille","lat":43.337463,"lon":5.3746,"is_reserved":false,"is_disabled":false,"rental_uris":{"android":"levelo://app?vid=d977fa02-4383-45bb-b005-e18c525e392a","ios":"levelo://app?vid=d977fa02-4383-45bb-b005-e18c525e392a"},"vehicle_type_id":"4","last_reported":1704989354,"current_range_meters":21600,"station_id":"","pricing_plan_id":"free"},{"bike_id":"15c01c23-3c22-46c9-bb23-24928aec6336","system_id":"levelo_inurba_marseille","lat":43.30929,"lon":5.40148,"is_reserved":false,"is_disabled":false,"rental_uris":{"android":"levelo://app?vid=15c01c23-3c22-46c9-bb23-24928aec6336","ios":"levelo://app?vid=15c01c23-3c22-46c9-bb23-24928aec6336"},"vehicle_type_id":"4","last_reported":1704989354,"current_range_meters":26000,"station_id":"ce4bgvp2rcd13ifvqct0","pricing_plan_id":"free"},{"bike_id":"f481ef2c-f442-421b-be8c-fb1c4d039a61","system_id":"levelo_inurba_marseille","lat":43.309371,"lon":5.401449,"is_reserved":false,"is_disabled":false,"rental_uris":{"android":"levelo://app?vid=f481ef2c-f442-421b-be8c-fb1c4d039a61","ios":"levelo://app?vid=f481ef2c-f442-421b-be8c-fb1c4d039a61"},"vehicle_type_id":"4","last_reported":1704989354,"current_range_meters":18400,"station_id":"ce4bgvp2rcd13ifvqct0","pricing_plan_id":"free"},{"bike_id":"e6b414c9-54ac-4a4b-905d-e8b009155f7d","system_id":"levelo_inurba_marseille","lat":43.337513,"lon":5.374549,"is_reserved":false,"is_disabled":false,"rental_uris":{"android":"levelo://app?vid=e6b414c9-54ac-4a4b-905d-e8b009155f7d","ios":"levelo://app?vid=e6b414c9-54ac-4a4b-905d-e8b009155f7d"},"vehicle_type_id":"4","last_reported":1704989354,"current_range_meters":26400,"station_id":"","pricing_plan_id":"free"},{"bike_id":"2d31d90c-18cc-493a-ad93-91a966057af0","system_id":"levelo_inurba_marseille","lat":43.337523,"lon":5.374533,"is_reserved":false,"is_disabled":false,"rental_uris":{"android":"levelo://app?vid=2d31d90c-18cc-493a-ad93-91a966057af0","ios":"levelo://app?vid=2d31d90c-18cc-493a-ad93-91a966057af0"},"vehicle_type_id":"4","last_reported":1704989354,"current_range_meters":28000,"station_id":"","pricing_plan_id":"free"},{"bike_id":"27d43ea9-fc6e-4aff-bca5-883f14746cc7","system_id":"levelo_inurba_marseille","lat":43.337544,"lon":5.374569,"is_reserved":false,"is_disabled":false,"rental_uris":{"android":"levelo://app?vid=27d43ea9-fc6e-4aff-bca5-883f14746cc7","ios":"levelo://app?vid=27d43ea9-fc6e-4aff-bca5-883f14746cc7"},"vehicle_type_id":"4","last_reported":1704989354,"current_range_meters":26400,"station_id":"","pricing_plan_id":"free"},{"bike_id":"1dacac17-d2bc-497f-99d5-e12744329d09","system_id":"levelo_inurba_marseille","lat":43.306412,"lon":5.401035,"is_reserved":false,"is_disabled":false,"rental_uris":{"android":"levelo://app?vid=1dacac17-d2bc-497f-99d5-e12744329d09","ios":"levelo://app?vid=1dacac17-d2bc-497f-99d5-e12744329d09"},"vehicle_type_id":"4","last_reported":1704989354,"current_range_meters":23200,"station_id":"ce4bh112rcd13ifvqda0","pricing_plan_id":"free"},{"bike_id":"184da59f-86b5-4dc7-b1a7-da73a0c571c7","system_id":"levelo_inurba_marseille","lat":43.30642,"lon":5.401031,"is_reserved":false,"is_disabled":false,"rental_uris":{"android":"levelo://app?vid=184da59f-86b5-4dc7-b1a7-da73a0c571c7","ios":"levelo://app?vid=184da59f-86b5-4dc7-b1a7-da73a0c571c7"},"vehicle_type_id":"4","last_reported":1704989354,"current_range_meters":21200,"station_id":"ce4bh112rcd13ifvqda0","pricing_plan_id":"free"},{"bike_id":"6718ae72-1779-4ab1-ac0c-5ef6ea2843b3","system_id":"levelo_inurba_marseille","lat":43.33762,"lon":5.37444,"is_reserved":false,"is_disabled":false,"rental_uris":{"android":"levelo://app?vid=6718ae72-1779-4ab1-ac0c-5ef6ea2843b3","ios":"levelo://app?vid=6718ae72-1779-4ab1-ac0c-5ef6ea2843b3"},"vehicle_type_id":"4","last_reported":1704989354,"current_range_meters":30400,"station_id":"","pricing_plan_id":"free"},{"bike_id":"cb019ca3-9e8d-480b-9ad5-8ee476f75c25","system_id":"levelo_inurba_marseille","lat":43.306412,"lon":5.401035,"is_reserved":false,"is_disabled":false,"rental_uris":{"android":"levelo://app?vid=cb019ca3-9e8d-480b-9ad5-8ee476f75c25","ios":"levelo://app?vid=cb019ca3-9e8d-480b-9ad5-8ee476f75c25"},"vehicle_type_id":"4","last_reported":1704989354,"current_range_meters":23600,"station_id":"ce4bh112rcd13ifvqda0","pricing_plan_id":"free"},{"bike_id":"a9824bca-b0dd-47e1-823f-a61b3552cfdc","system_id":"levelo_inurba_marseille","lat":43.306412,"lon":5.401035,"is_reserved":false,"is_disabled":false,"rental_uris":{"android":"levelo://app?vid=a9824bca-b0dd-47e1-823f-a61b3552cfdc","ios":"levelo://app?vid=a9824bca-b0dd-47e1-823f-a61b3552cfdc"},"vehicle_type_id":"4","last_reported":1704989354,"current_range_meters":22800,"station_id":"ce4bh112rcd13ifvqda0","pricing_plan_id":"free"},{"bike_id":"47875864-a4c3-4320-bad5-0edbcd13c256","system_id":"levelo_inurba_marseille","lat":43.30642,"lon":5.401031,"is_reserved":false,"is_disabled":false,"rental_uris":{"android":"levelo://app?vid=47875864-a4c3-4320-bad5-0edbcd13c256","ios":"levelo://app?vid=47875864-a4c3-4320-bad5-0edbcd13c256"},"vehicle_type_id":"4","last_reported":1704989354,"current_range_meters":17200,"station_id":"ce4bh112rcd13ifvqda0","pricing_plan_id":"free"},{"bike_id":"c5c48f76-9372-4c4c-8a8a-3549f1214b17","system_id":"levelo_inurba_marseille","lat":43.28747,"lon":5.36071,"is_reserved":false,"is_disabled":false,"rental_uris":{"android":"levelo://app?vid=c5c48f76-9372-4c4c-8a8a-3549f1214b17","ios":"levelo://app?vid=c5c48f76-9372-4c4c-8a8a-3549f1214b17"},"vehicle_type_id":"4","last_reported":1704989354,"current_range_meters":24400,"station_id":"cki0cbj6b192h4jlfktg","pricing_plan_id":"free"},{"bike_id":"629c6ee9-2431-445e-988e-5bacdd844f46","system_id":"levelo_inurba_marseille","lat":43.301117,"lon":5.398795,"is_reserved":false,"is_disabled":false,"rental_uris":{"android":"levelo://app?vid=629c6ee9-2431-445e-988e-5bacdd844f46","ios":"levelo://app?vid=629c6ee9-2431-445e-988e-5bacdd844f46"},"vehicle_type_id":"4","last_reported":1704989354,"current_range_meters":28000,"station_id":"ce4bh0h2rcd13ifvqd40","pricing_plan_id":"free"},{"bike_id":"9b818136-c300-4475-be0a-88af88c54768","system_id":"levelo_inurba_marseille","lat":43.301117,"lon":5.398795,"is_reserved":false,"is_disabled":false,"rental_uris":{"android":"levelo://app?vid=9b818136-c300-4475-be0a-88af88c54768","ios":"levelo://app?vid=9b818136-c300-4475-be0a-88af88c54768"},"vehicle_type_id":"4","last_reported":1704989354,"current_range_meters":28000,"station_id":"ce4bh0h2rcd13ifvqd40","pricing_plan_id":"free"},{"bike_id":"f816511f-4333-47e0-96cd-49d5ae266af3","system_id":"levelo_inurba_marseille","lat":43.28727,"lon":5.36078,"is_reserved":false,"is_disabled":false,"rental_uris":{"android":"levelo://app?vid=f816511f-4333-47e0-96cd-49d5ae266af3","ios":"levelo://app?vid=f816511f-4333-47e0-96cd-49d5ae266af3"},"vehicle_type_id":"4","last_reported":1704989354,"current_range_meters":20800,"station_id":"cki0cbj6b192h4jlfktg","pricing_plan_id":"free"},{"bike_id":"f3682688-b079-4f02-8c11-8db7ac98b34e","system_id":"levelo_inurba_marseille","lat":43.287257,"lon":5.360797,"is_reserved":false,"is_disabled":false,"rental_uris":{"android":"levelo://app?vid=f3682688-b079-4f02-8c11-8db7ac98b34e","ios":"levelo://app?vid=f3682688-b079-4f02-8c11-8db7ac98b34e"},"vehicle_type_id":"4","last_reported":1704989354,"current_range_meters":24000,"station_id":"cki0cbj6b192h4jlfktg","pricing_plan_id":"free"},{"bike_id":"d03fd423-b528-4874-bd17-2743e13ea5c2","system_id":"levelo_inurba_marseille","lat":43.2989,"lon":5.397377,"is_reserved":false,"is_disabled":false,"rental_uris":{"android":"levelo://app?vid=d03fd423-b528-4874-bd17-2743e13ea5c2","ios":"levelo://app?vid=d03fd423-b528-4874-bd17-2743e13ea5c2"},"vehicle_type_id":"4","last_reported":1704989354,"current_range_meters":31200,"station_id":"ce4bh0h2rcd13ifvqd50","pricing_plan_id":"free"},{"bike_id":"0118acb3-e891-404f-a3a6-153471e39e33","system_id":"levelo_inurba_marseille","lat":43.286591,"lon":5.363346,"is_reserved":false,"is_disabled":false,"rental_uris":{"android":"levelo://app?vid=0118acb3-e891-404f-a3a6-153471e39e33","ios":"levelo://app?vid=0118acb3-e891-404f-a3a6-153471e39e33"},"vehicle_type_id":"4","last_reported":1704989354,"current_range_meters":29600,"station_id":"ce4bhah2rcd13ifvqej0","pricing_plan_id":"free"},{"bike_id":"e8c540a9-867f-4fb6-a7a5-7c652e12a679","system_id":"levelo_inurba_marseille","lat":43.2987,"lon":5.397295,"is_reserved":false,"is_disabled":false,"rental_uris":{"android":"levelo://app?vid=e8c540a9-867f-4fb6-a7a5-7c652e12a679","ios":"levelo://app?vid=e8c540a9-867f-4fb6-a7a5-7c652e12a679"},"vehicle_type_id":"4","last_reported":1704989354,"current_range_meters":22800,"station_id":"ce4bh0h2rcd13ifvqd50","pricing_plan_id":"free"},{"bike_id":"606500e3-79f2-4dee-b746-9fd5ab3c5d28","system_id":"levelo_inurba_marseille","lat":43.286591,"lon":5.363346,"is_reserved":false,"is_disabled":false,"rental_uris":{"android":"levelo://app?vid=606500e3-79f2-4dee-b746-9fd5ab3c5d28","ios":"levelo://app?vid=606500e3-79f2-4dee-b746-9fd5ab3c5d28"},"vehicle_type_id":"4","last_reported":1704989354,"current_range_meters":19600,"station_id":"ce4bhah2rcd13ifvqej0","pricing_plan_id":"free"},{"bike_id":"465d91b3-0329-4be7-9f96-6e715d6d6376","system_id":"levelo_inurba_marseille","lat":43.29868,"lon":5.39729,"is_reserved":false,"is_disabled":false,"rental_uris":{"android":"levelo://app?vid=465d91b3-0329-4be7-9f96-6e715d6d6376","ios":"levelo://app?vid=465d91b3-0329-4be7-9f96-6e715d6d6376"},"vehicle_type_id":"4","last_reported":1704989354,"current_range_meters":5600,"station_id":"ce4bh0h2rcd13ifvqd50","pricing_plan_id":"free"},{"bike_id":"5faa7b76-0d0d-4a8c-b5fd-cf0ed3a6f650","system_id":"levelo_inurba_marseille","lat":43.286591,"lon":5.363346,"is_reserved":false,"is_disabled":false,"rental_uris":{"android":"levelo://app?vid=5faa7b76-0d0d-4a8c-b5fd-cf0ed3a6f650","ios":"levelo://app?vid=5faa7b76-0d0d-4a8c-b5fd-cf0ed3a6f650"},"vehicle_type_id":"4","last_reported":1704989354,"current_range_meters":30000,"station_id":"ce4bhah2rcd13ifvqej0","pricing_plan_id":"free"},{"bike_id":"bb703dea-890c-4207-b8f8-6111f59e1730","system_id":"levelo_inurba_marseille","lat":43.286591,"lon":5.363346,"is_reserved":false,"is_disabled":false,"rental_uris":{"android":"levelo://app?vid=bb703dea-890c-4207-b8f8-6111f59e1730","ios":"levelo://app?vid=bb703dea-890c-4207-b8f8-6111f59e1730"},"vehicle_type_id":"4","last_reported":1704989354,"current_range_meters":27600,"station_id":"ce4bhah2rcd13ifvqej0","pricing_plan_id":"free"},{"bike_id":"a2cb911a-a8b5-4f83-bca6-f6cdaf30a0a8","system_id":"levelo_inurba_marseille","lat":43.295196,"lon":5.39397,"is_reserved":false,"is_disabled":false,"rental_uris":{"android":"levelo://app?vid=a2cb911a-a8b5-4f83-bca6-f6cdaf30a0a8","ios":"levelo://app?vid=a2cb911a-a8b5-4f83-bca6-f6cdaf30a0a8"},"vehicle_type_id":"4","last_reported":1704989354,"current_range_meters":28800,"station_id":"ce4bh292rcd13ifvqdf0","pricing_plan_id":"free"},{"bike_id":"8be0983e-7b39-4825-a9d2-ba444e039d39","system_id":"levelo_inurba_marseille","lat":43.290336,"lon":5.386425,"is_reserved":false,"is_disabled":false,"rental_uris":{"android":"levelo://app?vid=8be0983e-7b39-4825-a9d2-ba444e039d39","ios":"levelo://app?vid=8be0983e-7b39-4825-a9d2-ba444e039d39"},"vehicle_type_id":"4","last_reported":1704989354,"current_range_meters":26400,"station_id":"ce4bh4p2rcd13ifvqe0g","pricing_plan_id":"free"},{"bike_id":"2796a74d-53a8-452a-a3a6-79043c36da56","system_id":"levelo_inurba_marseille","lat":43.302759,"lon":5.400793,"is_reserved":false,"is_disabled":false,"rental_uris":{"android":"levelo://app?vid=2796a74d-53a8-452a-a3a6-79043c36da56","ios":"levelo://app?vid=2796a74d-53a8-452a-a3a6-79043c36da56"},"vehicle_type_id":"4","last_reported":1704989354,"current_range_meters":3200,"station_id":"ce4bgvh2rcd13ifvqcs0","pricing_plan_id":"free"},{"bike_id":"dee2b2f0-6f65-4b6c-90fc-87a1e4e78545","system_id":"levelo_inurba_marseille","lat":43.289307,"lon":5.38406,"is_reserved":false,"is_disabled":false,"rental_uris":{"android":"levelo://app?vid=dee2b2f0-6f65-4b6c-90fc-87a1e4e78545","ios":"levelo://app?vid=dee2b2f0-6f65-4b6c-90fc-87a1e4e78545"},"vehicle_type_id":"4","last_reported":1704989354,"current_range_meters":15600,"station_id":"ce4bh612rcd13ifvqe6g","pricing_plan_id":"free"},{"bike_id":"4284a1dc-6d48-41e8-956f-f8ed2bd5eba3","system_id":"levelo_inurba_marseille","lat":43.286039,"lon":5.370679,"is_reserved":false,"is_disabled":false,"rental_uris":{"android":"levelo://app?vid=4284a1dc-6d48-41e8-956f-f8ed2bd5eba3","ios":"levelo://app?vid=4284a1dc-6d48-41e8-956f-f8ed2bd5eba3"},"vehicle_type_id":"4","last_reported":1704989354,"current_range_meters":30400,"station_id":"ce4bht12rcd13ifvqi60","pricing_plan_id":"free"},{"bike_id":"a7000ef2-8b9e-4743-a943-7e89bc92cfb8","system_id":"levelo_inurba_marseille","lat":43.286039,"lon":5.370679,"is_reserved":false,"is_disabled":false,"rental_uris":{"android":"levelo://app?vid=a7000ef2-8b9e-4743-a943-7e89bc92cfb8","ios":"levelo://app?vid=a7000ef2-8b9e-4743-a943-7e89bc92cfb8"},"vehicle_type_id":"4","last_reported":1704989354,"current_range_meters":18800,"station_id":"ce4bht12rcd13ifvqi60","pricing_plan_id":"free"},{"bike_id":"ac7bdc38-9e4a-4f3d-abb9-897076ecfbb2","system_id":"levelo_inurba_marseille","lat":43.287185,"lon":5.379373,"is_reserved":false,"is_disabled":false,"rental_uris":{"android":"levelo://app?vid=ac7bdc38-9e4a-4f3d-abb9-897076ecfbb2","ios":"levelo://app?vid=ac7bdc38-9e4a-4f3d-abb9-897076ecfbb2"},