{"last_updated":1741609131,"ttl":60,"version":"2.2","data":{"bikes":[{"bike_id":"cad489f3-636e-474c-a625-7234e614d57d","system_id":"levelo_inurba_marseille","lat":43.29199,"lon":5.39323,"is_reserved":false,"is_disabled":false,"rental_uris":{"android":"levelo://app?vid=cad489f3-636e-474c-a625-7234e614d57d","ios":"levelo://app?vid=cad489f3-636e-474c-a625-7234e614d57d"},"vehicle_type_id":"4","last_reported":1741609132,"current_range_meters":2800,"station_id":"ce4bh192rcd13ifvqdd0","pricing_plan_id":"cebpf4jnsgd1na2vs0mg"},{"bike_id":"bb6112d2-cb75-4006-8dc0-0d4a940d59d3","system_id":"levelo_inurba_marseille","lat":43.312195,"lon":5.368445,"is_reserved":false,"is_disabled":false,"rental_uris":{"android":"levelo://app?vid=bb6112d2-cb75-4006-8dc0-0d4a940d59d3","ios":"levelo://app?vid=bb6112d2-cb75-4006-8dc0-0d4a940d59d3"},"vehicle_type_id":"4","last_reported":1741609132,"current_range_meters":2800,"station_id":"ce4bgl92rcd13ifvqbq0","pricing_plan_id":"cebpf4jnsgd1na2vs0mg"},{"bike_id":"803f2b82-4bc0-4ae7-b369-d8002e96387a","system_id":"levelo_inurba_marseille","lat":43.32476,"lon":5.36567,"is_reserved":false,"is_disabled":false,"rental_uris":{"android":"levelo://app?vid=803f2b82-4bc0-4ae7-b369-d8002e96387a","ios":"levelo://app?vid=803f2b82-4bc0-4ae7-b369-d8002e96387a"},"vehicle_type_id":"4","last_reported":1741609132,"current_range_meters":2800,"station_id":"ce4bhs12rcd13ifvqhvg","pricing_plan_id":"cebpf4jnsgd1na2vs0mg"},{"bike_id":"b98cadb9-2ea4-48e0-af6a-01946b262825","system_id":"levelo_inurba_marseille","lat":43.293,"lon":5.37176,"is_reserved":false,"is_disabled":false,"rental_uris":{"android":"levelo://app?vid=b98cadb9-2ea4-48e0-af6a-01946b262825","ios":"levelo://app?vid=b98cadb9-2ea4-48e0-af6a-01946b262825"},"vehicle_type_id":"4","last_reported":1741609132,"current_range_meters":3200,"station_id":"ce4bgh92rcd13ifvqb40","pricing_plan_id":"cebpf4jnsgd1na2vs0mg"},{"bike_id":"66af443d-0319-4f3e-9993-a607d955d37d","system_id":"levelo_inurba_marseille","lat":43.28434,"lon":5.39198,"is_reserved":false,"is_disabled":false,"rental_uris":{"android":"levelo://app?vid=66af443d-0319-4f3e-9993-a607d955d37d","ios":"levelo://app?vid=66af443d-0319-4f3e-9993-a607d955d37d"},"vehicle_type_id":"4","last_reported":1741609132,"current_range_meters":3200,"station_id":"ce4bhoh2rcd13ifvqh5g","pricing_plan_id":"cebpf4jnsgd1na2vs0mg"},{"bike_id":"9c4fb306-eab7-45ad-aca8-0d657b4f1a75","system_id":"levelo_inurba_marseille","lat":43.29934,"lon":5.36538,"is_reserved":false,"is_disabled":false,"rental_uris":{"android":"levelo://app?vid=9c4fb306-eab7-45ad-aca8-0d657b4f1a75","ios":"levelo://app?vid=9c4fb306-eab7-45ad-aca8-0d657b4f1a75"},"vehicle_type_id":"4","last_reported":1741609132,"current_range_meters":3600,"station_id":"ce4bgm92rcd13ifvqbr0","pricing_plan_id":"cebpf4jnsgd1na2vs0mg"},{"bike_id":"76705a23-1633-43d3-91dc-4fcb2ffc83a4","system_id":"levelo_inurba_marseille","lat":43.26221,"lon":5.40436,"is_reserved":false,"is_disabled":false,"rental_uris":{"android":"levelo://app?vid=76705a23-1633-43d3-91dc-4fcb2ffc83a4","ios":"levelo://app?vid=76705a23-1633-43d3-91dc-4fcb2ffc83a4"},"vehicle_type_id":"4","last_reported":1741609132,"current_range_meters":3600,"station_id":"ce4bhmh2rcd13ifvqgmg","pricing_plan_id":"cebpf4jnsgd1na2vs0mg"},{"bike_id":"a4b61123-b49a-4a75-a440-d8c5b0081b36","system_id":"levelo_inurba_marseille","lat":43.23151,"lon":5.437,"is_reserved":false,"is_disabled":false,"rental_uris":{"android":"levelo://app?vid=a4b61123-b49a-4a75-a440-d8c5b0081b36","ios":"levelo://app?vid=a4b61123-b49a-4a75-a440-d8c5b0081b36"},"vehicle_type_id":"4","last_reported":1741609132,"current_range_meters":3600,"station_id":"ce4bhmp2rcd13ifvqgog","pricing_plan_id":"cebpf4jnsgd1na2vs0mg"},{"bike_id":"e7712f3f-f4e4-4f18-a076-50ce2ab80efa","system_id":"levelo_inurba_marseille","lat":43.26223,"lon":5.40454,"is_reserved":false,"is_disabled":false,"rental_uris":{"android":"levelo://app?vid=e7712f3f-f4e4-4f18-a076-50ce2ab80efa","ios":"levelo://app?vid=e7712f3f-f4e4-4f18-a076-50ce2ab80efa"},"vehicle_type_id":"4","last_reported":1741609132,"current_range_meters":4000,"station_id":"ce4bhmh2rcd13ifvqgmg","pricing_plan_id":"cebpf4jnsgd1na2vs0mg"},{"bike_id":"122c0e86-fc5a-4040-8246-b776c2f485ec","system_id":"levelo_inurba_marseille","lat":43.29024,"lon":5.38122,"is_reserved":false,"is_disabled":false,"rental_uris":{"android":"levelo://app?vid=122c0e86-fc5a-4040-8246-b776c2f485ec","ios":"levelo://app?vid=122c0e86-fc5a-4040-8246-b776c2f485ec"},"vehicle_type_id":"4","last_reported":1741609132,"current_range_meters":4000,"station_id":"ce4bh4p2rcd13ifvqe1g","pricing_plan_id":"cebpf4jnsgd1na2vs0mg"},{"bike_id":"bd4380d9-c4b3-4c34-9443-d93ab5baecf0","system_id":"levelo_inurba_marseille","lat":43.27946,"lon":5.41011,"is_reserved":false,"is_disabled":false,"rental_uris":{"android":"levelo://app?vid=bd4380d9-c4b3-4c34-9443-d93ab5baecf0","ios":"levelo://app?vid=bd4380d9-c4b3-4c34-9443-d93ab5baecf0"},"vehicle_type_id":"4","last_reported":1741609132,"current_range_meters":4400,"station_id":"ce4bhnp2rcd13ifvqh0g","pricing_plan_id":"cebpf4jnsgd1na2vs0mg"},{"bike_id":"8810679a-e7c9-4297-97b3-dd7d0bfc4864","system_id":"levelo_inurba_marseille","lat":43.2501,"lon":5.38913,"is_reserved":false,"is_disabled":false,"rental_uris":{"android":"levelo://app?vid=8810679a-e7c9-4297-97b3-dd7d0bfc4864","ios":"levelo://app?vid=8810679a-e7c9-4297-97b3-dd7d0bfc4864"},"vehicle_type_id":"4","last_reported":1741609132,"current_range_meters":4400,"station_id":"ce4bhgp2rcd13ifvqfd0","pricing_plan_id":"cebpf4jnsgd1na2vs0mg"},{"bike_id":"3f9e1242-99e1-49ac-a600-0dea17c18e07","system_id":"levelo_inurba_marseille","lat":43.29894,"lon":5.43676,"is_reserved":false,"is_disabled":false,"rental_uris":{"android":"levelo://app?vid=3f9e1242-99e1-49ac-a600-0dea17c18e07","ios":"levelo://app?vid=3f9e1242-99e1-49ac-a600-0dea17c18e07"},"vehicle_type_id":"4","last_reported":1741609132,"current_range_meters":4800,"station_id":"ce4bhpp2rcd13ifvqhfg","pricing_plan_id":"cebpf4jnsgd1na2vs0mg"},{"bike_id":"96afa76d-1aa4-4e4c-b378-75ffb71058dc","system_id":"levelo_inurba_marseille","lat":43.24172,"lon":5.39721,"is_reserved":false,"is_disabled":false,"rental_uris":{"android":"levelo://app?vid=96afa76d-1aa4-4e4c-b378-75ffb71058dc","ios":"levelo://app?vid=96afa76d-1aa4-4e4c-b378-75ffb71058dc"},"vehicle_type_id":"4","last_reported":1741609132,"current_range_meters":4800,"station_id":"ce4bhn12rcd13ifvqgpg","pricing_plan_id":"cebpf4jnsgd1na2vs0mg"},{"bike_id":"1c427250-17e1-4518-bc21-dadd7d9ed0b9","system_id":"levelo_inurba_marseille","lat":43.23956,"lon":5.36634,"is_reserved":false,"is_disabled":false,"rental_uris":{"android":"levelo://app?vid=1c427250-17e1-4518-bc21-dadd7d9ed0b9","ios":"levelo://app?vid=1c427250-17e1-4518-bc21-dadd7d9ed0b9"},"vehicle_type_id":"4","last_reported":1741609132,"current_range_meters":4800,"station_id":"ce4bhi12rcd13ifvqfp0","pricing_plan_id":"cebpf4jnsgd1na2vs0mg"},{"bike_id":"24fccb6f-b985-4a78-86dc-50f1ef4e8397","system_id":"levelo_inurba_marseille","lat":43.3025,"lon":5.40071,"is_reserved":false,"is_disabled":false,"rental_uris":{"android":"levelo://app?vid=24fccb6f-b985-4a78-86dc-50f1ef4e8397","ios":"levelo://app?vid=24fccb6f-b985-4a78-86dc-50f1ef4e8397"},"vehicle_type_id":"4","last_reported":1741609132,"current_range_meters":4800,"station_id":"ce4bgvh2rcd13ifvqcs0","pricing_plan_id":"cebpf4jnsgd1na2vs0mg"},{"bike_id":"93b65028-e8a4-4c8f-876a-ae246ea8ac90","system_id":"levelo_inurba_marseille","lat":43.31352,"lon":5.38482,"is_reserved":false,"is_disabled":true,"rental_uris":{"android":"levelo://app?vid=93b65028-e8a4-4c8f-876a-ae246ea8ac90","ios":"levelo://app?vid=93b65028-e8a4-4c8f-876a-ae246ea8ac90"},"vehicle_type_id":"4","last_reported":1741609132,"current_range_meters":5600,"station_id":"ce4bgt92rcd13ifvqcf0","pricing_plan_id":"cebpf4jnsgd1na2vs0mg"},{"bike_id":"4f4a352e-9340-4de2-838c-2ce894fbea93","system_id":"levelo_inurba_marseille","lat":43.33009,"lon":5.43856,"is_reserved":false,"is_disabled":true,"rental_uris":{"android":"levelo://app?vid=4f4a352e-9340-4de2-838c-2ce894fbea93","ios":"levelo://app?vid=4f4a352e-9340-4de2-838c-2ce894fbea93"},"vehicle_type_id":"4","last_reported":1741609132,"current_range_meters":5600,"station_id":"","pricing_plan_id":"cebpf4jnsgd1na2vs0mg"},{"bike_id":"30ca0a12-56c0-4feb-9059-10680035a6ae","system_id":"levelo_inurba_marseille","lat":43.28709,"lon":5.37379,"is_reserved":false,"is_disabled":true,"rental_uris":{"android":"levelo://app?vid=30ca0a12-56c0-4feb-9059-10680035a6ae","ios":"levelo://app?vid=30ca0a12-56c0-4feb-9059-10680035a6ae"},"vehicle_type_id":"4","last_reported":1741609132,"current_range_meters":5600,"station_id":"ce4bh3p2rcd13ifvqdq0","pricing_plan_id":"cebpf4jnsgd1na2vs0mg"},{"bike_id":"19bbe8da-d7df-496e-a677-cbaab925cf5e","system_id":"levelo_inurba_marseille","lat":43.24885,"lon":5.42507,"is_reserved":false,"is_disabled":false,"rental_uris":{"android":"levelo://app?vid=19bbe8da-d7df-496e-a677-cbaab925cf5e","ios":"levelo://app?vid=19bbe8da-d7df-496e-a677-cbaab925cf5e"},"vehicle_type_id":"4","last_reported":1741609132,"current_range_meters":5600,"station_id":"","pricing_plan_id":"cebpf4jnsgd1na2vs0mg"},{"bike_id":"34760404-c125-4bac-8837-90fdbd3ad04f","system_id":"levelo_inurba_marseille","lat":43.3176,"lon":5.39007,"is_reserved":false,"is_disabled":false,"rental_uris":{"android":"levelo://app?vid=34760404-c125-4bac-8837-90fdbd3ad04f","ios":"levelo://app?vid=34760404-c125-4bac-8837-90fdbd3ad04f"},"vehicle_type_id":"4","last_reported":1741609132,"current_range_meters":4800,"station_id":"ce4bhqp2rcd13ifvqhng","pricing_plan_id":"cebpf4jnsgd1na2vs0mg"},{"bike_id":"0fb818e1-b0b3-4883-8925-5246737d8a77","system_id":"levelo_inurba_marseille","lat":43.33606,"lon":5.41028,"is_reserved":false,"is_disabled":false,"rental_uris":{"android":"levelo://app?vid=0fb818e1-b0b3-4883-8925-5246737d8a77","ios":"levelo://app?vid=0fb818e1-b0b3-4883-8925-5246737d8a77"},"vehicle_type_id":"4","last_reported":1741609132,"current_range_meters":5600,"station_id":"ce4bhqh2rcd13ifvqhmg","pricing_plan_id":"cebpf4jnsgd1na2vs0mg"},{"bike_id":"7390ebbf-3d0c-487b-a5cc-ed1df7c7f0dc","system_id":"levelo_inurba_marseille","lat":43.241773,"lon":5.397232,"is_reserved":false,"is_disabled":false,"rental_uris":{"android":"levelo://app?vid=7390ebbf-3d0c-487b-a5cc-ed1df7c7f0dc","ios":"levelo://app?vid=7390ebbf-3d0c-487b-a5cc-ed1df7c7f0dc"},"vehicle_type_id":"4","last_reported":1741609132,"current_range_meters":5600,"station_id":"ce4bhn12rcd13ifvqgpg","pricing_plan_id":"cebpf4jnsgd1na2vs0mg"},{"bike_id":"61f98514-f2d4-4967-8974-9a87419de726","system_id":"levelo_inurba_marseille","lat":43.24658,"lon":5.38158,"is_reserved":false,"is_disabled":false,"rental_uris":{"android":"levelo://app?vid=61f98514-f2d4-4967-8974-9a87419de726","ios":"levelo://app?vid=61f98514-f2d4-4967-8974-9a87419de726"},"vehicle_type_id":"4","last_reported":1741609132,"current_range_meters":6000,"station_id":"ce4bhih2rcd13ifvqfr0","pricing_plan_id":"cebpf4jnsgd1na2vs0mg"},{"bike_id":"ce090f12-c0e8-4601-8e24-88472425a3e5","system_id":"levelo_inurba_marseille","lat":43.251,"lon":5.40317,"is_reserved":false,"is_disabled":false,"rental_uris":{"android":"levelo://app?vid=ce090f12-c0e8-4601-8e24-88472425a3e5","ios":"levelo://app?vid=ce090f12-c0e8-4601-8e24-88472425a3e5"},"vehicle_type_id":"4","last_reported":1741609132,"current_range_meters":6000,"station_id":"ce4bhlh2rcd13ifvqgig","pricing_plan_id":"cebpf4jnsgd1na2vs0mg"},{"bike_id":"27c7acb0-b8c6-4e18-a710-79cad7856bf0","system_id":"levelo_inurba_marseille","lat":43.26226,"lon":5.4045,"is_reserved":false,"is_disabled":false,"rental_uris":{"android":"levelo://app?vid=27c7acb0-b8c6-4e18-a710-79cad7856bf0","ios":"levelo://app?vid=27c7acb0-b8c6-4e18-a710-79cad7856bf0"},"vehicle_type_id":"4","last_reported":1741609132,"current_range_meters":6000,"station_id":"ce4bhmh2rcd13ifvqgmg","pricing_plan_id":"cebpf4jnsgd1na2vs0mg"},{"bike_id":"23d1911b-c775-4261-b4ed-92fb793bb3dc","system_id":"levelo_inurba_marseille","lat":43.27947,"lon":5.41038,"is_reserved":false,"is_disabled":true,"rental_uris":{"android":"levelo://app?vid=23d1911b-c775-4261-b4ed-92fb793bb3dc","ios":"levelo://app?vid=23d1911b-c775-4261-b4ed-92fb793bb3dc"},"vehicle_type_id":"4","last_reported":1741609132,"current_range_meters":6000,"station_id":"ce4bhnp2rcd13ifvqh0g","pricing_plan_id":"cebpf4jnsgd1na2vs0mg"},{"bike_id":"85e9b7c1-f143-4f6b-9884-daa60a945aa2","system_id":"levelo_inurba_marseille","lat":43.26782,"lon":5.39416,"is_reserved":false,"is_disabled":false,"rental_uris":{"android":"levelo://app?vid=85e9b7c1-f143-4f6b-9884-daa60a945aa2","ios":"levelo://app?vid=85e9b7c1-f143-4f6b-9884-daa60a945aa2"},"vehicle_type_id":"4","last_reported":1741609132,"current_range_meters":6400,"station_id":"ce4bhh12rcd13ifvqfg0","pricing_plan_id":"cebpf4jnsgd1na2vs0mg"},{"bike_id":"50530689-b3a7-45ef-b5a5-30326b2d0b5c","system_id":"levelo_inurba_marseille","lat":43.25086,"lon":5.39517,"is_reserved":false,"is_disabled":false,"rental_uris":{"android":"levelo://app?vid=50530689-b3a7-45ef-b5a5-30326b2d0b5c","ios":"levelo://app?vid=50530689-b3a7-45ef-b5a5-30326b2d0b5c"},"vehicle_type_id":"4","last_reported":1741609132,"current_range_meters":6400,"station_id":"ce4bhm12rcd13ifvqgkg","pricing_plan_id":"cebpf4jnsgd1na2vs0mg"},{"bike_id":"ac2efbb8-87f5-4e67-91b6-6982ed970754","system_id":"levelo_inurba_marseille","lat":43.25104,"lon":5.40319,"is_reserved":false,"is_disabled":false,"rental_uris":{"android":"levelo://app?vid=ac2efbb8-87f5-4e67-91b6-6982ed970754","ios":"levelo://app?vid=ac2efbb8-87f5-4e67-91b6-6982ed970754"},"vehicle_type_id":"4","last_reported":1741609132,"current_range_meters":6400,"station_id":"ce4bhlh2rcd13ifvqgig","pricing_plan_id":"cebpf4jnsgd1na2vs0mg"},{"bike_id":"29b82548-d416-4900-9874-14422b78b248","system_id":"levelo_inurba_marseille","lat":43.33605,"lon":5.41023,"is_reserved":false,"is_disabled":false,"rental_uris":{"android":"levelo://app?vid=29b82548-d416-4900-9874-14422b78b248","ios":"levelo://app?vid=29b82548-d416-4900-9874-14422b78b248"},"vehicle_type_id":"4","last_reported":1741609132,"current_range_meters":6800,"station_id":"ce4bhqh2rcd13ifvqhmg","pricing_plan_id":"cebpf4jnsgd1na2vs0mg"},{"bike_id":"59a175fc-e64a-437b-a3ca-6c8559c18cbb","system_id":"levelo_inurba_marseille","lat":43.29567,"lon":5.3996,"is_reserved":false,"is_disabled":false,"rental_uris":{"android":"levelo://app?vid=59a175fc-e64a-437b-a3ca-6c8559c18cbb","ios":"levelo://app?vid=59a175fc-e64a-437b-a3ca-6c8559c18cbb"},"vehicle_type_id":"4","last_reported":1741609132,"current_range_meters":6800,"station_id":"ce4bh312rcd13ifvqdj0","pricing_plan_id":"cebpf4jnsgd1na2vs0mg"},{"bike_id":"af2bddca-48ce-444f-8066-f0b22160d6d0","system_id":"levelo_inurba_marseille","lat":43.24068,"lon":5.37759,"is_reserved":false,"is_disabled":false,"rental_uris":{"android":"levelo://app?vid=af2bddca-48ce-444f-8066-f0b22160d6d0","ios":"levelo://app?vid=af2bddca-48ce-444f-8066-f0b22160d6d0"},"vehicle_type_id":"4","last_reported":1741609132,"current_range_meters":6800,"station_id":"ce4bhnp2rcd13ifvqgvg","pricing_plan_id":"cebpf4jnsgd1na2vs0mg"},{"bike_id":"4711a0d3-184b-4ba2-86aa-fea8964a4a5c","system_id":"levelo_inurba_marseille","lat":43.310825,"lon":5.424317,"is_reserved":false,"is_disabled":false,"rental_uris":{"android":"levelo://app?vid=4711a0d3-184b-4ba2-86aa-fea8964a4a5c","ios":"levelo://app?vid=4711a0d3-184b-4ba2-86aa-fea8964a4a5c"},"vehicle_type_id":"4","last_reported":1741609132,"current_range_meters":6800,"station_id":"ce4bhp92rcd13ifvqhag","pricing_plan_id":"cebpf4jnsgd1na2vs0mg"},{"bike_id":"57ec7e96-dfc6-4ab9-b63d-eca0f741892b","system_id":"levelo_inurba_marseille","lat":43.25,"lon":5.38922,"is_reserved":false,"is_disabled":false,"rental_uris":{"android":"levelo://app?vid=57ec7e96-dfc6-4ab9-b63d-eca0f741892b","ios":"levelo://app?vid=57ec7e96-dfc6-4ab9-b63d-eca0f741892b"},"vehicle_type_id":"4","last_reported":1741609132,"current_range_meters":6800,"station_id":"ce4bhgp2rcd13ifvqfd0","pricing_plan_id":"cebpf4jnsgd1na2vs0mg"},{"bike_id":"2807e015-88f7-449d-bf81-c0a567edf90e","system_id":"levelo_inurba_marseille","lat":43.29215,"lon":5.36912,"is_reserved":false,"is_disabled":false,"rental_uris":{"android":"levelo://app?vid=2807e015-88f7-449d-bf81-c0a567edf90e","ios":"levelo://app?vid=2807e015-88f7-449d-bf81-c0a567edf90e"},"vehicle_type_id":"4","last_reported":1741609132,"current_range_meters":7200,"station_id":"ce4bhc92rcd13ifvqetg","pricing_plan_id":"cebpf4jnsgd1na2vs0mg"},{"bike_id":"9a394220-a60a-489b-871e-8f8c543271ea","system_id":"levelo_inurba_marseille","lat":43.30541,"lon":5.3653,"is_reserved":false,"is_disabled":false,"rental_uris":{"android":"levelo://app?vid=9a394220-a60a-489b-871e-8f8c543271ea","ios":"levelo://app?vid=9a394220-a60a-489b-871e-8f8c543271ea"},"vehicle_type_id":"4","last_reported":1741609132,"current_range_meters":7200,"station_id":"ce4bgs12rcd13ifvqcag","pricing_plan_id":"cebpf4jnsgd1na2vs0mg"},{"bike_id":"05a471dd-7e4d-44a6-9116-709bf72ec62b","system_id":"levelo_inurba_marseille","lat":43.33222,"lon":5.39901,"is_reserved":false,"is_disabled":false,"rental_uris":{"android":"levelo://app?vid=05a471dd-7e4d-44a6-9116-709bf72ec62b","ios":"levelo://app?vid=05a471dd-7e4d-44a6-9116-709bf72ec62b"},"vehicle_type_id":"4","last_reported":1741609132,"current_range_meters":7200,"station_id":"","pricing_plan_id":"cebpf4jnsgd1na2vs0mg"},{"bike_id":"60877180-dcf8-480c-b5ba-715273ec82fd","system_id":"levelo_inurba_marseille","lat":43.30128,"lon":5.38788,"is_reserved":false,"is_disabled":false,"rental_uris":{"android":"levelo://app?vid=60877180-dcf8-480c-b5ba-715273ec82fd","ios":"levelo://app?vid=60877180-dcf8-480c-b5ba-715273ec82fd"},"vehicle_type_id":"4","last_reported":1741609132,"current_range_meters":7200,"station_id":"ce4bghh2rcd13ifvqb60","pricing_plan_id":"cebpf4jnsgd1na2vs0mg"},{"bike_id":"67fc845a-4e54-4c1c-8b59-aae9c41867a4","system_id":"levelo_inurba_marseille","lat":43.27066,"lon":5.42278,"is_reserved":false,"is_disabled":false,"rental_uris":{"android":"levelo://app?vid=67fc845a-4e54-4c1c-8b59-aae9c41867a4","ios":"levelo://app?vid=67fc845a-4e54-4c1c-8b59-aae9c41867a4"},"vehicle_type_id":"4","last_reported":1741609132,"current_range_meters":8000,"station_id":"ce4bhk92rcd13ifvqgb0","pricing_plan_id":"cebpf4jnsgd1na2vs0mg"},{"bike_id":"a2b82ed5-d286-490a-afb3-f8799a1e77dd","system_id":"levelo_inurba_marseille","lat":43.29005,"lon":5.35609,"is_reserved":false,"is_disabled":false,"rental_uris":{"android":"levelo://app?vid=a2b82ed5-d286-490a-afb3-f8799a1e77dd","ios":"levelo://app?vid=a2b82ed5-d286-490a-afb3-f8799a1e77dd"},"vehicle_type_id":"4","last_reported":1741609132,"current_range_meters":8000,"station_id":"ce4bhb92rcd13ifvqen0","pricing_plan_id":"cebpf4jnsgd1na2vs0mg"},{"bike_id":"6c118db3-edd7-476d-8a0c-48c89e8cc106","system_id":"levelo_inurba_marseille","lat":43.34138,"lon":5.40901,"is_reserved":false,"is_disabled":false,"rental_uris":{"android":"levelo://app?vid=6c118db3-edd7-476d-8a0c-48c89e8cc106","ios":"levelo://app?vid=6c118db3-edd7-476d-8a0c-48c89e8cc106"},"vehicle_type_id":"4","last_reported":1741609132,"current_range_meters":8000,"station_id":"ce4bhqh2rcd13ifvqhlg","pricing_plan_id":"cebpf4jnsgd1na2vs0mg"},{"bike_id":"6d30fa00-fa73-4a2d-aac6-368b08cd61f0","system_id":"levelo_inurba_marseille","lat":43.31191,"lon":5.3791,"is_reserved":false,"is_disabled":false,"rental_uris":{"android":"levelo://app?vid=6d30fa00-fa73-4a2d-aac6-368b08cd61f0","ios":"levelo://app?vid=6d30fa00-fa73-4a2d-aac6-368b08cd61f0"},"vehicle_type_id":"4","last_reported":1741609132,"current_range_meters":8000,"station_id":"","pricing_plan_id":"cebpf4jnsgd1na2vs0mg"},{"bike_id":"f5d27d01-effc-4a0c-b4ac-2b42b750aca5","system_id":"levelo_inurba_marseille","lat":43.24545,"lon":5.39526,"is_reserved":false,"is_disabled":false,"rental_uris":{"android":"levelo://app?vid=f5d27d01-effc-4a0c-b4ac-2b42b750aca5","ios":"levelo://app?vid=f5d27d01-effc-4a0c-b4ac-2b42b750aca5"},"vehicle_type_id":"4","last_reported":1741609132,"current_range_meters":8000,"station_id":"ce4bhlp2rcd13ifvqgjg","pricing_plan_id":"cebpf4jnsgd1na2vs0mg"},{"bike_id":"d8242a21-87d1-4458-bd7f-1063310110cb","system_id":"levelo_inurba_marseille","lat":43.29979,"lon":5.37183,"is_reserved":false,"is_disabled":false,"rental_uris":{"android":"levelo://app?vid=d8242a21-87d1-4458-bd7f-1063310110cb","ios":"levelo://app?vid=d8242a21-87d1-4458-bd7f-1063310110cb"},"vehicle_type_id":"4","last_reported":1741609132,"current_range_meters":8000,"station_id":"ce4bgr92rcd13ifvqc7g","pricing_plan_id":"cebpf4jnsgd1na2vs0mg"},{"bike_id":"04b2500a-4882-4fae-8908-dff012340e2d","system_id":"levelo_inurba_marseille","lat":43.26909,"lon":5.38927,"is_reserved":false,"is_disabled":false,"rental_uris":{"android":"levelo://app?vid=04b2500a-4882-4fae-8908-dff012340e2d","ios":"levelo://app?vid=04b2500a-4882-4fae-8908-dff012340e2d"},"vehicle_type_id":"4","last_reported":1741609132,"current_range_meters":8400,"station_id":"ce4bhhh2rcd13ifvqfl0","pricing_plan_id":"cebpf4jnsgd1na2vs0mg"},{"bike_id":"f1a05ab2-52c8-4825-a008-d8509f279ade","system_id":"levelo_inurba_marseille","lat":43.241032,"lon":5.368357,"is_reserved":false,"is_disabled":false,"rental_uris":{"android":"levelo://app?vid=f1a05ab2-52c8-4825-a008-d8509f279ade","ios":"levelo://app?vid=f1a05ab2-52c8-4825-a008-d8509f279ade"},"vehicle_type_id":"4","last_reported":1741609132,"current_range_meters":8400,"station_id":"ce4bhi12rcd13ifvqfp0","pricing_plan_id":"cebpf4jnsgd1na2vs0mg"},{"bike_id":"a33ff287-61ba-4c62-8253-cbd9b33a13c6","system_id":"levelo_inurba_marseille","lat":43.24089,"lon":5.37724,"is_reserved":false,"is_disabled":true,"rental_uris":{"android":"levelo://app?vid=a33ff287-61ba-4c62-8253-cbd9b33a13c6","ios":"levelo://app?vid=a33ff287-61ba-4c62-8253-cbd9b33a13c6"},"vehicle_type_id":"4","last_reported":1741609132,"current_range_meters":8400,"station_id":"ce4bhnp2rcd13ifvqgvg","pricing_plan_id":"cebpf4jnsgd1na2vs0mg"},{"bike_id":"148b018e-501e-4349-8388-533c41012d06","system_id":"levelo_inurba_marseille","lat":43.25828,"lon":5.39429,"is_reserved":false,"is_disabled":false,"rental_uris":{"android":"levelo://app?vid=148b018e-501e-4349-8388-533c41012d06","ios":"levelo://app?vid=148b018e-501e-4349-8388-533c41012d06"},"vehicle_type_id":"4","last_reported":1741609132,"current_range_meters":8000,"station_id":"ce4bhip2rcd13ifvqft0","pricing_plan_id":"cebpf4jnsgd1na2vs0mg"},{"bike_id":"527aa410-ea26-42cd-a1e2-d495bc4b19d0","system_id":"levelo_inurba_marseille","lat":43.31355,"lon":5.36717,"is_reserved":false,"is_disabled":true,"rental_uris":{"android":"levelo://app?vid=527aa410-ea26-42cd-a1e2-d495bc4b19d0","ios":"levelo://app?vid=527aa410-ea26-42cd-a1e2-d495bc4b19d0"},"vehicle_type_id":"4","last_reported":1741609132,"current_range_meters":8400,"station_id":"","pricing_plan_id":"cebpf4jnsgd1na2vs0mg"},{"bike_id":"fdf2c30b-eb63-48a8-a3bf-60abc6109f1a","system_id":"levelo_inurba_marseille","lat":43.25718,"lon":5.41115,"is_reserved":false,"is_disabled":true,"rental_uris":{"android":"levelo://app?vid=fdf2c30b-eb63-48a8-a3bf-60abc6109f1a","ios":"levelo://app?vid=fdf2c30b-eb63-48a8-a3bf-60abc6109f1a"},"vehicle_type_id":"4","last_reported":1741609132,"current_range_meters":8400,"station_id":"ce4bhkp2rcd13ifvqgd0","pricing_plan_id":"cebpf4jnsgd1na2vs0mg"},{"bike_id":"ebb2d58b-982f-41cd-b65c-668035c69ec1","system_id":"levelo_inurba_marseille","lat":43.30487,"lon":5.37158,"is_reserved":false,"is_disabled":false,"rental_uris":{"android":"levelo://app?vid=ebb2d58b-982f-41cd-b65c-668035c69ec1","ios":"levelo://app?vid=ebb2d58b-982f-41cd-b65c-668035c69ec1"},"vehicle_type_id":"4","last_reported":1741609132,"current_range_meters":8400,"station_id":"","pricing_plan_id":"cebpf4jnsgd1na2vs0mg"},{"bike_id":"dff46c56-4d93-41bc-8468-a48e8097d9cb","system_id":"levelo_inurba_marseille","lat":43.24163,"lon":5.39739,"is_reserved":false,"is_disabled":false,"rental_uris":{"android":"levelo://app?vid=dff46c56-4d93-41bc-8468-a48e8097d9cb","ios":"levelo://app?vid=dff46c56-4d93-41bc-8468-a48e8097d9cb"},"vehicle_type_id":"4","last_reported":1741609132,"current_range_meters":8400,"station_id":"ce4bhn12rcd13ifvqgpg","pricing_plan_id":"cebpf4jnsgd1na2vs0mg"},{"bike_id":"61193e8a-8e60-4220-8577-846bbeba5e58","system_id":"levelo_inurba_marseille","lat":43.31475,"lon":5.3839,"is_reserved":false,"is_disabled":false,"rental_uris":{"android":"levelo://app?vid=61193e8a-8e60-4220-8577-846bbeba5e58","ios":"levelo://app?vid=61193e8a-8e60-4220-8577-846bbeba5e58"},"vehicle_type_id":"4","last_reported":1741609132,"current_range_meters":8400,"station_id":"","pricing_plan_id":"cebpf4jnsgd1na2vs0mg"},{"bike_id":"11f35fc8-bf5a-42db-8ee3-67d16f82ad59","system_id":"levelo_inurba_marseille","lat":43.24075,"lon":5.3775,"is_reserved":false,"is_disabled":false,"rental_uris":{"android":"levelo://app?vid=11f35fc8-bf5a-42db-8ee3-67d16f82ad59","ios":"levelo://app?vid=11f35fc8-bf5a-42db-8ee3-67d16f82ad59"},"vehicle_type_id":"4","last_reported":1741609132,"current_range_meters":8800,"station_id":"ce4bhnp2rcd13ifvqgvg","pricing_plan_id":"cebpf4jnsgd1na2vs0mg"},{"bike_id":"7f08542c-3622-4bee-8852-d0974c0ec085","system_id":"levelo_inurba_marseille","lat":43.24151,"lon":5.36357,"is_reserved":false,"is_disabled":false,"rental_uris":{"android":"levelo://app?vid=7f08542c-3622-4bee-8852-d0974c0ec085","ios":"levelo://app?vid=7f08542c-3622-4bee-8852-d0974c0ec085"},"vehicle_type_id":"4","last_reported":1741609132,"current_range_meters":8800,"station_id":"cpo36qri1sfpv3e86is0","pricing_plan_id":"cebpf4jnsgd1na2vs0mg"},{"bike_id":"73406f19-f27f-4045-8a5f-f5d9c2141a99","system_id":"levelo_inurba_marseille","lat":43.284973,"lon":5.38568,"is_reserved":false,"is_disabled":false,"rental_uris":{"android":"levelo://app?vid=73406f19-f27f-4045-8a5f-f5d9c2141a99","ios":"levelo://app?vid=73406f19-f27f-4045-8a5f-f5d9c2141a99"},"vehicle_type_id":"4","last_reported":1741609132,"current_range_meters":8800,"station_id":"ce4bhmp2rcd13ifvqgog","pricing_plan_id":"cebpf4jnsgd1na2vs0mg"},{"bike_id":"60f4da96-da64-488c-98f7-c9a61709620a","system_id":"levelo_inurba_marseille","lat":43.25593,"lon":5.38223,"is_reserved":false,"is_disabled":false,"rental_uris":{"android":"levelo://app?vid=60f4da96-da64-488c-98f7-c9a61709620a","ios":"levelo://app?vid=60f4da96-da64-488c-98f7-c9a61709620a"},"vehicle_type_id":"4","last_reported":1741609132,"current_range_meters":8800,"station_id":"ce4bhih2rcd13ifvqfs0","pricing_plan_id":"cebpf4jnsgd1na2vs0mg"},{"bike_id":"87c40d47-5266-4f6a-9a89-01987f8bf62c","system_id":"levelo_inurba_marseille","lat":43.26231,"lon":5.40454,"is_reserved":false,"is_disabled":false,"rental_uris":{"android":"levelo://app?vid=87c40d47-5266-4f6a-9a89-01987f8bf62c","ios":"levelo://app?vid=87c40d47-5266-4f6a-9a89-01987f8bf62c"},"vehicle_type_id":"4","last_reported":1741609132,"current_range_meters":8800,"station_id":"ce4bhmh2rcd13ifvqgmg","pricing_plan_id":"cebpf4jnsgd1na2vs0mg"},{"bike_id":"d6ea2314-79a3-4ed6-a07e-ca91358fd319","system_id":"levelo_inurba_marseille","lat":43.24646,"lon":5.38887,"is_reserved":false,"is_disabled":false,"rental_uris":{"android":"levelo://app?vid=d6ea2314-79a3-4ed6-a07e-ca91358fd319","ios":"levelo://app?vid=d6ea2314-79a3-4ed6-a07e-ca91358fd319"},"vehicle_type_id":"4","last_reported":1741609132,"current_range_meters":8800,"station_id":"ce4bhg12rcd13ifvqf60","pricing_plan_id":"cebpf4jnsgd1na2vs0mg"},{"bike_id":"c37dae6d-47ac-4035-b596-194e9f00c41d","system_id":"levelo_inurba_marseille","lat":43.2694,"lon":5.3891,"is_reserved":false,"is_disabled":false,"rental_uris":{"android":"levelo://app?vid=c37dae6d-47ac-4035-b596-194e9f00c41d","ios":"levelo://app?vid=c37dae6d-47ac-4035-b596-194e9f00c41d"},"vehicle_type_id":"4","last_reported":1741609132,"current_range_meters":8800,"station_id":"ce4bhhh2rcd13ifvqfl0","pricing_plan_id":"cebpf4jnsgd1na2vs0mg"},{"bike_id":"c528ac76-1f15-4207-8438-1a21104a978d","system_id":"levelo_inurba_marseille","lat":43.25005,"lon":5.38949,"is_reserved":false,"is_disabled":false,"rental_uris":{"android":"levelo://app?vid=c528ac76-1f15-4207-8438-1a21104a978d","ios":"levelo://app?vid=c528ac76-1f15-4207-8438-1a21104a978d"},"vehicle_type_id":"4","last_reported":1741609132,"current_range_meters":8800,"station_id":"ce4bhgp2rcd13ifvqfd0","pricing_plan_id":"cebpf4jnsgd1na2vs0mg"},{"bike_id":"ecf84c6e-6287-4b08-a761-79e81dbe27f6","system_id":"levelo_inurba_marseille","lat":43.30257,"lon":5.40062,"is_reserved":false,"is_disabled":false,"rental_uris":{"android":"levelo://app?vid=ecf84c6e-6287-4b08-a761-79e81dbe27f6","ios":"levelo://app?vid=ecf84c6e-6287-4b08-a761-79e81dbe27f6"},"vehicle_type_id":"4","last_reported":1741609132,"current_range_meters":8800,"station_id":"ce4bgvh2rcd13ifvqcs0","pricing_plan_id":"cebpf4jnsgd1na2vs0mg"},{"bike_id":"44da9063-01ec-4529-9b9d-1b701077ef2e","system_id":"levelo_inurba_marseille","lat":43.29033,"lon":5.39961,"is_reserved":false,"is_disabled":false,"rental_uris":{"android":"levelo://app?vid=44da9063-01ec-4529-9b9d-1b701077ef2e","ios":"levelo://app?vid=44da9063-01ec-4529-9b9d-1b701077ef2e"},"vehicle_type_id":"4","last_reported":1741609132,"current_range_meters":8800,"station_id":"ce4bh392rcd13ifvqdm0","pricing_plan_id":"cebpf4jnsgd1na2vs0mg"},{"bike_id":"fe53471c-e9d4-4de8-bd3c-35d1f8b5e7d1","system_id":"levelo_inurba_marseille","lat":43.26782,"lon":5.39416,"is_reserved":false,"is_disabled":false,"rental_uris":{"android":"levelo://app?vid=fe53471c-e9d4-4de8-bd3c-35d1f8b5e7d1","ios":"levelo://app?vid=fe53471c-e9d4-4de8-bd3c-35d1f8b5e7d1"},"vehicle_type_id":"4","last_reported":1741609132,"current_range_meters":9200,"station_id":"ce4bhh12rcd13ifvqfg0","pricing_plan_id":"cebpf4jnsgd1na2vs0mg"},{"bike_id":"e10fdf04-0df9-4d6b-82cf-7317c9395270","system_id":"levelo_inurba_marseille","lat":43.29799,"lon":5.40401,"is_reserved":false,"is_disabled":false,"rental_uris":{"android":"levelo://app?vid=e10fdf04-0df9-4d6b-82cf-7317c9395270","ios":"levelo://app?vid=e10fdf04-0df9-4d6b-82cf-7317c9395270"},"vehicle_type_id":"4","last_reported":1741609132,"current_range_meters":9200,"station_id":"ce4bh112rcd13ifvqd90","pricing_plan_id":"cebpf4jnsgd1na2vs0mg"},{"bike_id":"089fa96c-06f0-4a31-aa59-e3a83d994d6c","system_id":"levelo_inurba_marseille","lat":43.28158,"lon":5.42651,"is_reserved":false,"is_disabled":true,"rental_uris":{"android":"levelo://app?vid=089fa96c-06f0-4a31-aa59-e3a83d994d6c","ios":"levelo://app?vid=089fa96c-06f0-4a31-aa59-e3a83d994d6c"},"vehicle_type_id":"4","last_reported":1741609132,"current_range_meters":9200,"station_id":"ce4bhnh2rcd13ifvqgug","pricing_plan_id":"cebpf4jnsgd1na2vs0mg"},{"bike_id":"d9078051-1ec6-4907-92bb-9d501442c344","system_id":"levelo_inurba_marseille","lat":43.29844,"lon":5.36277,"is_reserved":false,"is_disabled":false,"rental_uris":{"android":"levelo://app?vid=d9078051-1ec6-4907-92bb-9d501442c344","ios":"levelo://app?vid=d9078051-1ec6-4907-92bb-9d501442c344"},"vehicle_type_id":"4","last_reported":1741609132,"current_range_meters":9200,"station_id":"ce4bgpp2rcd13ifvqc3g","pricing_plan_id":"cebpf4jnsgd1na2vs0mg"},{"bike_id":"1f72adc6-3d1a-4fad-a905-cb9dcd596e26","system_id":"levelo_inurba_marseille","lat":43.23844,"lon":5.43569,"is_reserved":false,"is_disabled":false,"rental_uris":{"android":"levelo://app?vid=1f72adc6-3d1a-4fad-a905-cb9dcd596e26","ios":"levelo://app?vid=1f72adc6-3d1a-4fad-a905-cb9dcd596e26"},"vehicle_type_id":"4","last_reported":1741609132,"current_range_meters":9200,"station_id":"","pricing_plan_id":"cebpf4jnsgd1na2vs0mg"},{"bike_id":"627eaf99-dd7c-4079-8ee3-f5b9180c4c21","system_id":"levelo_inurba_marseille","lat":43.29258,"lon":5.37608,"is_reserved":false,"is_disabled":false,"rental_uris":{"android":"levelo://app?vid=627eaf99-dd7c-4079-8ee3-f5b9180c4c21","ios":"levelo://app?vid=627eaf99-dd7c-4079-8ee3-f5b9180c4c21"},"vehicle_type_id":"4","last_reported":1741609132,"current_range_meters":9600,"station_id":"ce4bgi12rcd13ifvqb80","pricing_plan_id":"cebpf4jnsgd1na2vs0mg"},{"bike_id":"ef6303de-f84a-4b1f-9060-2a8d28e015bb","system_id":"levelo_inurba_marseille","lat":43.24068,"lon":5.37752,"is_reserved":false,"is_disabled":false,"rental_uris":{"android":"levelo://app?vid=ef6303de-f84a-4b1f-9060-2a8d28e015bb","ios":"levelo://app?vid=ef6303de-f84a-4b1f-9060-2a8d28e015bb"},"vehicle_type_id":"4","last_reported":1741609132,"current_range_meters":9600,"station_id":"ce4bhnp2rcd13ifvqgvg","pricing_plan_id":"cebpf4jnsgd1na2vs0mg"},{"bike_id":"b0d7953b-0778-40fa-b0b7-b20a9d173ee7","system_id":"levelo_inurba_marseille","lat":43.30543,"lon":5.36531,"is_reserved":false,"is_disabled":false,"rental_uris":{"android":"levelo://app?vid=b0d7953b-0778-40fa-b0b7-b20a9d173ee7","ios":"levelo://app?vid=b0d7953b-0778-40fa-b0b7-b20a9d173ee7"},"vehicle_type_id":"4","last_reported":1741609132,"current_range_meters":9600,"station_id":"ce4bgs12rcd13ifvqcag","pricing_plan_id":"cebpf4jnsgd1na2vs0mg"},{"bike_id":"437de0ca-4a8e-4b8f-8bc2-4082d585388f","system_id":"levelo_inurba_marseille","lat":43.31684,"lon":5.40471,"is_reserved":false,"is_disabled":false,"rental_uris":{"android":"levelo://app?vid=437de0ca-4a8e-4b8f-8bc2-4082d585388f","ios":"levelo://app?vid=437de0ca-4a8e-4b8f-8bc2-4082d585388f"},"vehicle_type_id":"4","last_reported":1741609132,"current_range_meters":9600,"station_id":"ce4bh012rcd13ifvqd00","pricing_plan_id":"cebpf4jnsgd1na2vs0mg"},{"bike_id":"38098bdb-4e5d-4784-a7f5-cb533339c85c","system_id":"levelo_inurba_marseille","lat":43.29592,"lon":5.38089,"is_reserved":false,"is_disabled":true,"rental_uris":{"android":"levelo://app?vid=38098bdb-4e5d-4784-a7f5-cb533339c85c","ios":"levelo://app?vid=38098bdb-4e5d-4784-a7f5-cb533339c85c"},"vehicle_type_id":"4","last_reported":1741609132,"current_range_meters":9600,"station_id":"ce4bgl12rcd13ifvqbo0","pricing_plan_id":"cebpf4jnsgd1na2vs0mg"},{"bike_id":"2c033344-915b-4685-bef8-16bd6d60cc05","system_id":"levelo_inurba_marseille","lat":43.29581,"lon":5.3752,"is_reserved":false,"is_disabled":false,"rental_uris":{"android":"levelo://app?vid=2c033344-915b-4685-bef8-16bd6d60cc05","ios":"levelo://app?vid=2c033344-915b-4685-bef8-16bd6d60cc05"},"vehicle_type_id":"4","last_reported":1741609132,"current_range_meters":9600,"station_id":"ce4bgh92rcd13ifvqb50","pricing_plan_id":"cebpf4jnsgd1na2vs0mg"},{"bike_id":"565245af-1098-4207-83d1-fdf36ab786b5","system_id":"levelo_inurba_marseille","lat":43.28084,"lon":5.44172,"is_reserved":false,"is_disabled":false,"rental_uris":{"android":"levelo://app?vid=565245af-1098-4207-83d1-fdf36ab786b5","ios":"levelo://app?vid=565245af-1098-4207-83d1-fdf36ab786b5"},"vehicle_type_id":"4","last_reported":1741609132,"current_range_meters":9600,"station_id":"","pricing_plan_id":"cebpf4jnsgd1na2vs0mg"},{"bike_id":"3ed0c8ba-c7f7-40d8-9403-a3f96d6af6b9","system_id":"levelo_inurba_marseille","lat":43.3236,"lon":5.36749,"is_reserved":false,"is_disabled":false,"rental_uris":{"android":"levelo://app?vid=3ed0c8ba-c7f7-40d8-9403-a3f96d6af6b9","ios":"levelo://app?vid=3ed0c8ba-c7f7-40d8-9403-a3f96d6af6b9"},"vehicle_type_id":"4","last_reported":1741609132,"current_range_meters":9600,"station_id":"ce4bhsh2rcd13ifvqi2g","pricing_plan_id":"cebpf4jnsgd1na2vs0mg"},{"bike_id":"98de571b-b137-41e1-a957-f1f43c068d6a","system_id":"levelo_inurba_marseille","lat":43.32469,"lon":5.36587,"is_reserved":false,"is_disabled":false,"rental_uris":{"android":"levelo://app?vid=98de571b-b137-41e1-a957-f1f43c068d6a","ios":"levelo://app?vid=98de571b-b137-41e1-a957-f1f43c068d6a"},"vehicle_type_id":"4","last_reported":1741609132,"current_range_meters":10000,"station_id":"ce4bhs12rcd13ifvqhvg","pricing_plan_id":"cebpf4jnsgd1na2vs0mg"},{"bike_id":"b441f2f5-5116-4b57-bc3a-d59c2982efb4","system_id":"levelo_inurba_marseille","lat":43.3135,"lon":5.3672,"is_reserved":false,"is_disabled":false,"rental_uris":{"android":"levelo://app?vid=b441f2f5-5116-4b57-bc3a-d59c2982efb4","ios":"levelo://app?vid=b441f2f5-5116-4b57-bc3a-d59c2982efb4"},"vehicle_type_id":"4","last_reported":1741609132,"current_range_meters":10000,"station_id":"ce4bgr92rcd13ifvqc6g","pricing_plan_id":"cebpf4jnsgd1na2vs0mg"},{"bike_id":"199cb7b2-857a-4db4-b08b-30cc2dc0c4f3","system_id":"levelo_inurba_marseille","lat":43.31708,"lon":5.4371,"is_reserved":false,"is_disabled":false,"rental_uris":{"android":"levelo://app?vid=199cb7b2-857a-4db4-b08b-30cc2dc0c4f3","ios":"levelo://app?vid=199cb7b2-857a-4db4-b08b-30cc2dc0c4f3"},"vehicle_type_id":"4","last_reported":1741609132,"current_range_meters":10000,"station_id":"ce4bhp92rcd13ifvqhcg","pricing_plan_id":"cebpf4jnsgd1na2vs0mg"},{"bike_id":"81bc8ec7-203d-452b-a4e8-595b7bbc2677","system_id":"levelo_inurba_marseille","lat":43.29007,"lon":5.35626,"is_reserved":false,"is_disabled":true,"rental_uris":{"android":"levelo://app?vid=81bc8ec7-203d-452b-a4e8-595b7bbc2677","ios":"levelo://app?vid=81bc8ec7-203d-452b-a4e8-595b7bbc2677"},"vehicle_type_id":"4","last_reported":1741609132,"current_range_meters":10000,"station_id":"ce4bhb92rcd13ifvqen0","pricing_plan_id":"cebpf4jnsgd1na2vs0mg"},{"bike_id":"5eddd265-6bf4-4d75-afd2-672a5e21f235","system_id":"levelo_inurba_marseille","lat":43.28703,"lon":5.39989,"is_reserved":false,"is_disabled":false,"rental_uris":{"android":"levelo://app?vid=5eddd265-6bf4-4d75-afd2-672a5e21f235","ios":"levelo://app?vid=5eddd265-6bf4-4d75-afd2-672a5e21f235"},"vehicle_type_id":"4","last_reported":1741609132,"current_range_meters":10000,"station_id":"ce4bho92rcd13ifvqh3g","pricing_plan_id":"cebpf4jnsgd1na2vs0mg"},{"bike_id":"9e71c5d6-019b-44ce-a688-a96e716473ec","system_id":"levelo_inurba_marseille","lat":43.32107,"lon":5.36728,"is_reserved":false,"is_disabled":false,"rental_uris":{"android":"levelo://app?vid=9e71c5d6-019b-44ce-a688-a96e716473ec","ios":"levelo://app?vid=9e71c5d6-019b-44ce-a688-a96e716473ec"},"vehicle_type_id":"4","last_reported":1741609132,"current_range_meters":10000,"station_id":"ce4bhrh2rcd13ifvqhug","pricing_plan_id":"cebpf4jnsgd1na2vs0mg"},{"bike_id":"a37d42aa-085d-4a56-8e08-eaf93bfe5e2b","system_id":"levelo_inurba_marseille","lat":43.31177,"lon":5.387088,"is_reserved":false,"is_disabled":true,"rental_uris":{"android":"levelo://app?vid=a37d42aa-085d-4a56-8e08-eaf93bfe5e2b","ios":"levelo://app?vid=a37d42aa-085d-4a56-8e08-eaf93bfe5e2b"},"vehicle_type_id":"4","last_reported":1741609132,"current_range_meters":10000,"station_id":"ce4bgv12rcd13ifvqcp0","pricing_plan_id":"cebpf4jnsgd1na2vs0mg"},{"bike_id":"d723d96e-6d61-47b3-af69-3008291d1459","system_id":"levelo_inurba_marseille","lat":43.26679,"lon":5.38256,"is_reserved":false,"is_disabled":false,"rental_uris":{"android":"levelo://app?vid=d723d96e-6d61-47b3-af69-3008291d1459","ios":"levelo://app?vid=d723d96e-6d61-47b3-af69-3008291d1459"},"vehicle_type_id":"4","last_reported":1741609132,"current_range_meters":10000,"station_id":"ce4bhg92rcd13ifvqf90","pricing_plan_id":"cebpf4jnsgd1na2vs0mg"},{"bike_id":"1657d829-5ea7-459b-b248-b75e8478fdd2","system_id":"levelo_inurba_marseille","lat":43.29532,"lon":5.39394,"is_reserved":false,"is_disabled":false,"rental_uris":{"android":"levelo://app?vid=1657d829-5ea7-459b-b248-b75e8478fdd2","ios":"levelo://app?vid=1657d829-5ea7-459b-b248-b75e8478fdd2"},"vehicle_type_id":"4","last_reported":1741609132,"current_range_meters":10800,"station_id":"ce4bh292rcd13ifvqdf0","pricing_plan_id":"cebpf4jnsgd1na2vs0mg"},{"bike_id":"63b9485b-d872-488c-a82e-bf622939e400","system_id":"levelo_inurba_marseille","lat":43.30137,"lon":5.37421,"is_reserved":false,"is_disabled":false,"rental_uris":{"android":"levelo://app?vid=63b9485b-d872-488c-a82e-bf622939e400","ios":"levelo://app?vid=63b9485b-d872-488c-a82e-bf622939e400"},"vehicle_type_id":"4","last_reported":1741609132,"current_range_meters":10800,"station_id":"ce4bgs92rcd13ifvqcc0","pricing_plan_id":"cebpf4jnsgd1na2vs0mg"},{"bike_id":"2c1dd830-c33d-4a47-80b1-c6d4f7195f85","system_id":"levelo_inurba_marseille","lat":43.2925,"lon":5.36055,"is_reserved":false,"is_disabled":false,"rental_uris":{"android":"levelo://app?vid=2c1dd830-c33d-4a47-80b1-c6d4f7195f85","ios":"levelo://app?vid=2c1dd830-c33d-4a47-80b1-c6d4f7195f85"},"vehicle_type_id":"4","last_reported":1741609132,"current_range_meters":10800,"station_id":"ce4bhbh2rcd13ifvqeqg","pricing_plan_id":"cebpf4jnsgd1na2vs0mg"},{"bike_id":"547f89bc-338b-412e-a1d6-3c5020e3f414","system_id":"levelo_inurba_marseille","lat":43.27324,"lon":5.3907,"is_reserved":false,"is_disabled":false,"rental_uris":{"android":"levelo://app?vid=547f89bc-338b-412e-a1d6-3c5020e3f414","ios":"levelo://app?vid=547f89bc-338b-412e-a1d6-3c5020e3f414"},"vehicle_type_id":"4","last_reported":1741609132,"current_range_meters":10800,"station_id":"ce4bhgp2rcd13ifvqfe0","pricing_plan_id":"cebpf4jnsgd1na2vs0mg"},{"bike_id":"86692eb3-200b-4f04-9669-c976671a4e56","system_id":"levelo_inurba_marseille","lat":43.28421,"lon":5.3497,"is_reserved":false,"is_disabled":true,"rental_uris":{"android":"levelo://app?vid=86692eb3-200b-4f04-9669-c976671a4e56","ios":"levelo://app?vid=86692eb3-200b-4f04-9669-c976671a4e56"},"vehicle_type_id":"4","last_reported":1741609132,"current_range_meters":10800,"station_id":"ce4bhbh2rcd13ifvqepg","pricing_plan_id":"cebpf4jnsgd1na2vs0mg"},{"bike_id":"5bf1fd3d-106c-4b23-b455-ae5552f33fa7","system_id":"levelo_inurba_marseille","lat":43.25085,"lon":5.39511,"is_reserved":false,"is_disabled":false,"rental_uris":{"android":"levelo://app?vid=5bf1fd3d-106c-4b23-b455-ae5552f33fa7","ios":"levelo://app?vid=5bf1fd3d-106c-4b23-b455-ae5552f33fa7"},"vehicle_type_id":"4","last_reported":1741609132,"current_range_meters":10800,"station_id":"ce4bhm12rcd13ifvqgkg","pricing_plan_id":"cebpf4jnsgd1na2vs0mg"},{"bike_id":"6035a7ad-a753-4bf3-af2b-cf9ab6e02715","system_id":"levelo_inurba_marseille","lat":43.24807,"lon":5.37456,"is_reserved":false,"is_disabled":false,"rental_uris":{"android":"levelo://app?vid=6035a7ad-a753-4bf3-af2b-cf9ab6e02715","ios":"levelo://app?vid=6035a7ad-a753-4bf3-af2b-cf9ab6e02715"},"vehicle_type_id":"4","last_reported":1741609132,"current_range_meters":10800,"station_id":"ce4bhgh2rcd13ifvqfb0","pricing_plan_id":"cebpf4jnsgd1na2vs0mg"},{"bike_id":"65ebf940-f6f1-4ba2-8b75-2b2127dd3199","system_id":"levelo_inurba_marseille","lat":43.24991,"lon":5.3892,"is_reserved":false,"is_disabled":false,"rental_uris":{"android":"levelo://app?vid=65ebf940-f6f1-4ba2-8b75-2b2127dd3199","ios":"levelo://app?vid=65ebf940-f6f1-4ba2-8b75-2b2127dd3199"},"vehicle_type_id":"4","last_reported":1741609132,"current_range_meters":10800,"station_id":"ce4bhgp2rcd13ifvqfd0","pricing_plan_id":"cebpf4jnsgd1na2vs0mg"},{"bike_id":"ad88c9cc-44b2-481b-8fe8-503280b722a2","system_id":"levelo_inurba_marseille","lat":43.28718,"lon":5.37939,"is_reserved":false,"is_disabled":false,"rental_uris":{"android":"levelo://app?vid=ad88c9cc-44b2-481b-8fe8-503280b722a2","ios":"levelo://app?vid=ad88c9cc-44b2-481b-8fe8-503280b722a2"},"vehicle_type_id":"4","last_reported":1741609132,"current_range_meters":11200,"station_id":"ce4bh9p2rcd13ifvqec0","pricing_plan_id":"cebpf4jnsgd1na2vs0mg"},{"bike_id":"075be894-d272-4532-a157-af4f02ee78bd","system_id":"levelo_inurba_marseille","lat":43.24078,"lon":5.37747,"is_reserved":false,"is_disabled":false,"rental_uris":{"android":"levelo://app?vid=075be894-d272-4532-a157-af4f02ee78bd","ios":"levelo://app?vid=075be894-d272-4532-a157-af4f02ee78bd"},"vehicle_type_id":"4","last_reported":1741609132,"current_range_meters":11600,"station_id":"ce4bhnp2rcd13ifvqgvg","pricing_plan_id":"cebpf4jnsgd1na2vs0mg"},{"bike_id":"9f924323-5878-434d-90ab-1ce7dacff86e","system_id":"levelo_inurba_marseille","lat":43.30274,"lon":5.37708,"is_reserved":false,"is_disabled":false,"rental_uris":{"android":"levelo://app?vid=9f924323-5878-434d-90ab-1ce7dacff86e","ios":"levelo://app?vid=9f924323-5878-434d-90ab-1ce7dacff86e"},"vehicle_type_id":"4","last_reported":1741609132,"current_range_meters":11200,"station_id":"ce4bguh2rcd13ifvqcj0","pricing_plan_id":"cebpf4jnsgd1na2vs0mg"},{"bike_id":"25fbd8c5-5594-498c-8388-3ea1f19f2591","system_id":"levelo_inurba_marseille","lat":43.301421,"lon":5.387733,"is_reserved":false,"is_disabled":false,"rental_uris":{"android":"levelo://app?vid=25fbd8c5-5594-498c-8388-3ea1f19f2591","ios":"levelo://app?vid=25fbd8c5-5594-498c-8388-3ea1f19f2591"},"vehicle_type_id":"4","last_reported":1741609132,"current_range_meters":10800,"station_id":"ce4bh492rcd13ifvqdvg","pricing_plan_id":"cebpf4jnsgd1na2vs0mg"},{"bike_id":"4ec5d479-c92c-4224-8409-3cb864eeca2a","system_id":"levelo_inurba_marseille","lat":43.28173,"lon":5.40458,"is_reserved":false,"is_disabled":false,"rental_uris":{"android":"levelo://app?vid=4ec5d479-c92c-4224-8409-3cb864eeca2a","ios":"levelo://app?vid=4ec5d479-c92c-4224-8409-3cb864eeca2a"},"vehicle_type_id":"4","last_reported":1741609132,"current_range_meters":11200,"station_id":"","pricing_plan_id":"cebpf4jnsgd1na2vs0mg"},{"bike_id":"ae4913d3-c7b3-4e3b-8b0e-9eedefc8bcf1","system_id":"levelo_inurba_marseille","lat":43.31317,"lon":5.38835,"is_reserved":false,"is_disabled":false,"rental_uris":{"android":"levelo://app?vid=ae4913d3-c7b3-4e3b-8b0e-9eedefc8bcf1","ios":"levelo://app?vid=ae4913d3-c7b3-4e3b-8b0e-9eedefc8bcf1"},"vehicle_type_id":"4","last_reported":1741609132,"current_range_meters":11600,"station_id":"","pricing_plan_id":"cebpf4jnsgd1na2vs0mg"},{"bike_id":"3ed1c8b0-ef18-4fe9-8893-70a2a4536b43","system_id":"levelo_inurba_marseille","lat":43.27209,"lon":5.39178,"is_reserved":false,"is_disabled":false,"rental_uris":{"android":"levelo://app?vid=3ed1c8b0-ef18-4fe9-8893-70a2a4536b43","ios":"levelo://app?vid=3ed1c8b0-ef18-4fe9-8893-70a2a4536b43"},"vehicle_type_id":"4","last_reported":1741609132,"current_range_meters":11600,"station_id":"ce4bhhp2rcd13ifvqfm0","pricing_plan_id":"cebpf4jnsgd1na2vs0mg"},{"bike_id":"3363253a-c9bf-41d1-9ba5-9a8bc555e049","system_id":"levelo_inurba_marseille","lat":43.30555,"lon":5.36536,"is_reserved":false,"is_disabled":false,"rental_uris":{"android":"levelo://app?vid=3363253a-c9bf-41d1-9ba5-9a8bc555e049","ios":"levelo://app?vid=3363253a-c9bf-41d1-9ba5-9a8bc555e049"},"vehicle_type_id":"4","last_reported":1741609132,"current_range_meters":12000,"station_id":"ce4bgs12rcd13ifvqcag","pricing_plan_id":"cebpf4jnsgd1na2vs0mg"},{"bike_id":"f69b7152-3937-413e-a7e7-a1fcd79986be","system_id":"levelo_inurba_marseille","lat":43.321018,"lon":5.367775,"is_reserved":false,"is_disabled":false,"rental_uris":{"android":"levelo://app?vid=f69b7152-3937-413e-a7e7-a1fcd79986be","ios":"levelo://app?vid=f69b7152-3937-413e-a7e7-a1fcd79986be"},"vehicle_type_id":"4","last_reported":1741609132,"current_range_meters":12000,"station_id":"ce4bhrh2rcd13ifvqhug","pricing_plan_id":"cebpf4jnsgd1na2vs0mg"},{"bike_id":"22c7c0df-2c7b-4f24-b11d-161b2b67a83f","system_id":"levelo_inurba_marseille","lat":43.24997,"lon":5.38925,"is_reserved":false,"is_disabled":false,"rental_uris":{"android":"levelo://app?vid=22c7c0df-2c7b-4f24-b11d-161b2b67a83f","ios":"levelo://app?vid=22c7c0df-2c7b-4f24-b11d-161b2b67a83f"},"vehicle_type_id":"4","last_reported":1741609132,"current_range_meters":12400,"station_id":"ce4bhgp2rcd13ifvqfd0","pricing_plan_id":"cebpf4jnsgd1na2vs0mg"},{"bike_id":"5168a913-5224-4ddf-8293-e2c5484c5bf7","system_id":"levelo_inurba_marseille","lat":43.25588,"lon":5.38224,"is_reserved":false,"is_disabled":false,"rental_uris":{"android":"levelo://app?vid=5168a913-5224-4ddf-8293-e2c5484c5bf7","ios":"levelo://app?vid=5168a913-5224-4ddf-8293-e2c5484c5bf7"},"vehicle_type_id":"4","last_reported":1741609132,"current_range_meters":12000,"station_id":"ce4bhih2rcd13ifvqfs0","pricing_plan_id":"cebpf4jnsgd1na2vs0mg"},{"bike_id":"5698e0d2-f454-4a4a-b63e-d168e01b0d47","system_id":"levelo_inurba_marseille","lat":43.24686,"lon":5.38147,"is_reserved":false,"is_disabled":false,"rental_uris":{"android":"levelo://app?vid=5698e0d2-f454-4a4a-b63e-d168e01b0d47","ios":"levelo://app?vid=5698e0d2-f454-4a4a-b63e-d168e01b0d47"},"vehicle_type_id":"4","last_reported":1741609132,"current_range_meters":12000,"station_id":"ce4bhih2rcd13ifvqfr0","pricing_plan_id":"cebpf4jnsgd1na2vs0mg"},{"bike_id":"4491a1e2-eb06-49d1-bf0c-ffab94d6b1ae","system_id":"levelo_inurba_marseille","lat":43.24171,"lon":5.39725,"is_reserved":false,"is_disabled":true,"rental_uris":{"android":"levelo://app?vid=4491a1e2-eb06-49d1-bf0c-ffab94d6b1ae","ios":"levelo://app?vid=4491a1e2-eb06-49d1-bf0c-ffab94d6b1ae"},"vehicle_type_id":"4","last_reported":1741609132,"current_range_meters":12400,"station_id":"ce4bhn12rcd13ifvqgpg","pricing_plan_id":"cebpf4jnsgd1na2vs0mg"},{"bike_id":"863fe8dd-e693-4f8e-84ce-2fd09c5d38bc","system_id":"levelo_inurba_marseille","lat":43.24996,"lon":5.38928,"is_reserved":false,"is_disabled":false,"rental_uris":{"android":"levelo://app?vid=863fe8dd-e693-4f8e-84ce-2fd09c5d38bc","ios":"levelo://app?vid=863fe8dd-e693-4f8e-84ce-2fd09c5d38bc"},"vehicle_type_id":"4","last_reported":1741609132,"current_range_meters":12400,"station_id":"ce4bhgp2rcd13ifvqfd0","pricing_plan_id":"cebpf4jnsgd1na2vs0mg"},{"bike_id":"787941c7-68e4-4a9e-b1f1-d3bf469258e1","system_id":"levelo_inurba_marseille","lat":43.24176,"lon":5.39731,"is_reserved":false,"is_disabled":false,"rental_uris":{"android":"levelo://app?vid=787941c7-68e4-4a9e-b1f1-d3bf469258e1","ios":"levelo://app?vid=787941c7-68e4-4a9e-b1f1-d3bf469258e1"},"vehicle_type_id":"4","last_reported":1741609132,"current_range_meters":12400,"station_id":"ce4bhn12rcd13ifvqgpg","pricing_plan_id":"cebpf4jnsgd1na2vs0mg"},{"bike_id":"eb47db7d-a126-4436-9aad-27bc82558fc2","system_id":"levelo_inurba_marseille","lat":43.24076,"lon":5.3775,"is_reserved":false,"is_disabled":false,"rental_uris":{"android":"levelo://app?vid=eb47db7d-a126-4436-9aad-27bc82558fc2","ios":"levelo://app?vid=eb47db7d-a126-4436-9aad-27bc82558fc2"},"vehicle_type_id":"4","last_reported":1741609132,"current_range_meters":12400,"station_id":"ce4bhnp2rcd13ifvqgvg","pricing_plan_id":"cebpf4jnsgd1na2vs0mg"},{"bike_id":"546628a2-a28e-4907-83a1-71e9aa739480","system_id":"levelo_inurba_marseille","lat":43.30776,"lon":5.37668,"is_reserved":false,"is_disabled":true,"rental_uris":{"android":"levelo://app?vid=546628a2-a28e-4907-83a1-71e9aa739480","ios":"levelo://app?vid=546628a2-a28e-4907-83a1-71e9aa739480"},"vehicle_type_id":"4","last_reported":1741609132,"current_range_meters":12400,"station_id":"ce4bgv92rcd13ifvqcq0","pricing_plan_id":"cebpf4jnsgd1na2vs0mg"},{"bike_id":"c41e3247-520d-4edc-8030-5306b79badd5","system_id":"levelo_inurba_marseille","lat":43.24647,"lon":5.38883,"is_reserved":false,"is_disabled":false,"rental_uris":{"android":"levelo://app?vid=c41e3247-520d-4edc-8030-5306b79badd5","ios":"levelo://app?vid=c41e3247-520d-4edc-8030-5306b79badd5"},"vehicle_type_id":"4","last_reported":1741609132,"current_range_meters":12800,"station_id":"ce4bhg12rcd13ifvqf60","pricing_plan_id":"cebpf4jnsgd1na2vs0mg"},{"bike_id":"748fe106-bbdb-4fb7-95fc-556f33b036d7","system_id":"levelo_inurba_marseille","lat":43.25002,"lon":5.38937,"is_reserved":false,"is_disabled":false,"rental_uris":{"android":"levelo://app?vid=748fe106-bbdb-4fb7-95fc-556f33b036d7","ios":"levelo://app?vid=748fe106-bbdb-4fb7-95fc-556f33b036d7"},"vehicle_type_id":"4","last_reported":1741609132,"current_range_meters":12800,"station_id":"ce4bhgp2rcd13ifvqfd0","pricing_plan_id":"cebpf4jnsgd1na2vs0mg"},{"bike_id":"8dc2c2dc-de0f-4fd2-b739-faf253fff5e5","system_id":"levelo_inurba_marseille","lat":43.23132,"lon":5.43701,"is_reserved":false,"is_disabled":false,"rental_uris":{"android":"levelo://app?vid=8dc2c2dc-de0f-4fd2-b739-faf253fff5e5","ios":"levelo://app?vid=8dc2c2dc-de0f-4fd2-b739-faf253fff5e5"},"vehicle_type_id":"4","last_reported":1741609132,"current_range_meters":12800,"station_id":"ce4bhmp2rcd13ifvqgog","pricing_plan_id":"cebpf4jnsgd1na2vs0mg"},{"bike_id":"244e24ec-5230-4970-a424-40a2cfa035f7","system_id":"levelo_inurba_marseille","lat":43.24086,"lon":5.37743,"is_reserved":false,"is_disabled":true,"rental_uris":{"android":"levelo://app?vid=244e24ec-5230-4970-a424-40a2cfa035f7","ios":"levelo://app?vid=244e24ec-5230-4970-a424-40a2cfa035f7"},"vehicle_type_id":"4","last_reported":1741609132,"current_range_meters":12800,"station_id":"ce4bhnp2rcd13ifvqgvg","pricing_plan_id":"cebpf4jnsgd1na2vs0mg"},{"bike_id":"ac118e0e-33e0-470c-969a-57b2ab25be5e","system_id":"levelo_inurba_marseille","lat":43.32337,"lon":5.40605,"is_reserved":false,"is_disabled":false,"rental_uris":{"android":"levelo://app?vid=ac118e0e-33e0-470c-969a-57b2ab25be5e","ios":"levelo://app?vid=ac118e0e-33e0-470c-969a-57b2ab25be5e"},"vehicle_type_id":"4","last_reported":1741609132,"current_range_meters":12800,"station_id":"ce4bhq92rcd13ifvqhjg","pricing_plan_id":"cebpf4jnsgd1na2vs0mg"},{"bike_id":"26efa438-47f1-437c-a262-70d3b8dce7fa","system_id":"levelo_inurba_marseille","lat":43.28425,"lon":5.34976,"is_reserved":false,"is_disabled":true,"rental_uris":{"android":"levelo://app?vid=26efa438-47f1-437c-a262-70d3b8dce7fa","ios":"levelo://app?vid=26efa438-47f1-437c-a262-70d3b8dce7fa"},"vehicle_type_id":"4","last_reported":1741609132,"current_range_meters":12800,"station_id":"ce4bhbh2rcd13ifvqepg","pricing_plan_id":"cebpf4jnsgd1na2vs0mg"},{"bike_id":"c426bc72-6764-4b6c-af01-e2dc0850e0cf","system_id":"levelo_inurba_marseille","lat":43.269653,"lon":5.386093,"is_reserved":false,"is_disabled":false,"rental_uris":{"android":"levelo://app?vid=c426bc72-6764-4b6c-af01-e2dc0850e0cf","ios":"levelo://app?vid=c426bc72-6764-4b6c-af01-e2dc0850e0cf"},"vehicle_type_id":"4","last_reported":1741609132,"current_range_meters":12800,"station_id":"ce4bhh92rcd13ifvqfh0","pricing_plan_id":"cebpf4jnsgd1na2vs0mg"},{"bike_id":"74318806-a5d5-41fe-a93e-aa876dbc51f3","system_id":"levelo_inurba_marseille","lat":43.29276,"lon":5.40117,"is_reserved":false,"is_disabled":false,"rental_uris":{"android":"levelo://app?vid=74318806-a5d5-41fe-a93e-aa876dbc51f3","ios":"levelo://app?vid=74318806-a5d5-41fe-a93e-aa876dbc51f3"},"vehicle_type_id":"4","last_reported":1741609132,"current_range_meters":12800,"station_id":"ce4bh312rcd13ifvqdk0","pricing_plan_id":"cebpf4jnsgd1na2vs0mg"},{"bike_id":"09bbb690-af86-458c-bbad-70d10e2033ee","system_id":"levelo_inurba_marseille","lat":43.23058,"lon":5.35485,"is_reserved":false,"is_disabled":false,"rental_uris":{"android":"levelo://app?vid=09bbb690-af86-458c-bbad-70d10e2033ee","ios":"levelo://app?vid=09bbb690-af86-458c-bbad-70d10e2033ee"},"vehicle_type_id":"4","last_reported":1741609132,"current_range_meters":12800,"station_id":"cpo3342slgdg3j2ifvpg","pricing_plan_id":"cebpf4jnsgd1na2vs0mg"},{"bike_id":"80771939-f406-42f7-81c5-33180fd8a338","system_id":"levelo_inurba_marseille","lat":43.23194,"lon":5.3555,"is_reserved":false,"is_disabled":false,"rental_uris":{"android":"levelo://app?vid=80771939-f406-42f7-81c5-33180fd8a338","ios":"levelo://app?vid=80771939-f406-42f7-81c5-33180fd8a338"},"vehicle_type_id":"4","last_reported":1741609132,"current_range_meters":12800,"station_id":"ce4bhu92rcd13ifvqi70","pricing_plan_id":"cebpf4jnsgd1na2vs0mg"},{"bike_id":"39a544a4-9cda-43e2-be22-212a764912e7","system_id":"levelo_inurba_marseille","lat":43.24081,"lon":5.37746,"is_reserved":false,"is_disabled":false,"rental_uris":{"android":"levelo://app?vid=39a544a4-9cda-43e2-be22-212a764912e7","ios":"levelo://app?vid=39a544a4-9cda-43e2-be22-212a764912e7"},"vehicle_type_id":"4","last_reported":1741609132,"current_range_meters":12800,"station_id":"ce4bhnp2rcd13ifvqgvg","pricing_plan_id":"cebpf4jnsgd1na2vs0mg"},{"bike_id":"51772d6c-c0b3-48d9-81cb-ae5466e6f822","system_id":"levelo_inurba_marseille","lat":43.23152,"lon":5.43754,"is_reserved":false,"is_disabled":false,"rental_uris":{"android":"levelo://app?vid=51772d6c-c0b3-48d9-81cb-ae5466e6f822","ios":"levelo://app?vid=51772d6c-c0b3-48d9-81cb-ae5466e6f822"},"vehicle_type_id":"4","last_reported":1741609132,"current_range_meters":12800,"station_id":"ce4bhmp2rcd13ifvqgog","pricing_plan_id":"cebpf4jnsgd1na2vs0mg"},{"bike_id":"caeb1ed2-b70b-481f-b341-ccaa84ec7ae8","system_id":"levelo_inurba_marseille","lat":43.24661,"lon":5.38184,"is_reserved":false,"is_disabled":false,"rental_uris":{"android":"levelo://app?vid=caeb1ed2-b70b-481f-b341-ccaa84ec7ae8","ios":"levelo://app?vid=caeb1ed2-b70b-481f-b341-ccaa84ec7ae8"},"vehicle_type_id":"4","last_reported":1741609132,"current_range_meters":12800,"station_id":"ce4bhih2rcd13ifvqfr0","pricing_plan_id":"cebpf4jnsgd1na2vs0mg"},{"bike_id":"ad4403aa-9122-4c46-b577-9d401e35aa35","system_id":"levelo_inurba_marseille","lat":43.23961,"lon":5.36647,"is_reserved":false,"is_disabled":false,"rental_uris":{"android":"levelo://app?vid=ad4403aa-9122-4c46-b577-9d401e35aa35","ios":"levelo://app?vid=ad4403aa-9122-4c46-b577-9d401e35aa35"},"vehicle_type_id":"4","last_reported":1741609132,"current_range_meters":13600,"station_id":"ce4bhi12rcd13ifvqfp0","pricing_plan_id":"cebpf4jnsgd1na2vs0mg"},{"bike_id":"5a1234d6-107f-4d8d-b498-7c4e24b66e35","system_id":"levelo_inurba_marseille","lat":43.31388,"lon":5.37442,"is_reserved":false,"is_disabled":false,"rental_uris":{"android":"levelo://app?vid=5a1234d6-107f-4d8d-b498-7c4e24b66e35","ios":"levelo://app?vid=5a1234d6-107f-4d8d-b498-7c4e24b66e35"},"vehicle_type_id":"4","last_reported":1741609132,"current_range_meters":13600,"station_id":"","pricing_plan_id":"cebpf4jnsgd1na2vs0mg"},{"bike_id":"52e42ce7-3da0-4589-a8c5-8e253446e66b","system_id":"levelo_inurba_marseille","lat":43.25147,"lon":5.39068,"is_reserved":false,"is_disabled":false,"rental_uris":{"android":"levelo://app?vid=52e42ce7-3da0-4589-a8c5-8e253446e66b","ios":"levelo://app?vid=52e42ce7-3da0-4589-a8c5-8e253446e66b"},"vehicle_type_id":"4","last_reported":1741609132,"current_range_meters":13600,"station_id":"ce4bhh92rcd13ifvqfj0","pricing_plan_id":"cebpf4jnsgd1na2vs0mg"},{"bike_id":"ab1290ca-4845-4db2-bbd9-efc1122b0762","system_id":"levelo_inurba_marseille","lat":43.28701,"lon":5.39942,"is_reserved":false,"is_disabled":false,"rental_uris":{"android":"levelo://app?vid=ab1290ca-4845-4db2-bbd9-efc1122b0762","ios":"levelo://app?vid=ab1290ca-4845-4db2-bbd9-efc1122b0762"},"vehicle_type_id":"4","last_reported":1741609132,"current_range_meters":13600,"station_id":"ce4bho92rcd13ifvqh3g","pricing_plan_id":"cebpf4jnsgd1na2vs0mg"},{"bike_id":"a0ad8365-3c52-4bbc-ba67-7068b1dc7232","system_id":"levelo_inurba_marseille","lat":43.32064,"lon":5.41524,"is_reserved":false,"is_disabled":false,"rental_uris":{"android":"levelo://app?vid=a0ad8365-3c52-4bbc-ba67-7068b1dc7232","ios":"levelo://app?vid=a0ad8365-3c52-4bbc-ba67-7068b1dc7232"},"vehicle_type_id":"4","last_reported":1741609132,"current_range_meters":13600,"station_id":"ce4bhq92rcd13ifvqhkg","pricing_plan_id":"cebpf4jnsgd1na2vs0mg"},{"bike_id":"7d9586c0-5f52-4cae-905e-6c6a8a07973d","system_id":"levelo_inurba_marseille","lat":43.28971,"lon":5.37836,"is_reserved":false,"is_disabled":false,"rental_uris":{"android":"levelo://app?vid=7d9586c0-5f52-4cae-905e-6c6a8a07973d","ios":"levelo://app?vid=7d9586c0-5f52-4cae-905e-6c6a8a07973d"},"vehicle_type_id":"4","last_reported":1741609132,"current_range_meters":14000,"station_id":"ce4bh9p2rcd13ifvqed0","pricing_plan_id":"cebpf4jnsgd1na2vs0mg"},{"bike_id":"85199a05-8552-4fc5-9254-d2a2276e5176","system_id":"levelo_inurba_marseille","lat":43.26961,"lon":5.38623,"is_reserved":false,"is_disabled":false,"rental_uris":{"android":"levelo://app?vid=85199a05-8552-4fc5-9254-d2a2276e5176","ios":"levelo://app?vid=85199a05-8552-4fc5-9254-d2a2276e5176"},"vehicle_type_id":"4","last_reported":1741609132,"current_range_meters":14000,"station_id":"ce4bhh92rcd13ifvqfh0","pricing_plan_id":"cebpf4jnsgd1na2vs0mg"},{"bike_id":"2338626f-0565-48b6-9fa4-dab8eb33618f","system_id":"levelo_inurba_marseille","lat":43.25727,"lon":5.41102,"is_reserved":false,"is_disabled":false,"rental_uris":{"android":"levelo://app?vid=2338626f-0565-48b6-9fa4-dab8eb33618f","ios":"levelo://app?vid=2338626f-0565-48b6-9fa4-dab8eb33618f"},"vehicle_type_id":"4","last_reported":1741609132,"current_range_meters":14000,"station_id":"ce4bhkp2rcd13ifvqgd0","pricing_plan_id":"cebpf4jnsgd1na2vs0mg"},{"bike_id":"f06275ce-702d-4ef8-8c10-e99be0e98b36","system_id":"levelo_inurba_marseille","lat":43.30418,"lon":5.41292,"is_reserved":false,"is_disabled":false,"rental_uris":{"android":"levelo://app?vid=f06275ce-702d-4ef8-8c10-e99be0e98b36","ios":"levelo://app?vid=f06275ce-702d-4ef8-8c10-e99be0e98b36"},"vehicle_type_id":"4","last_reported":1741609132,"current_range_meters":14000,"station_id":"ce4bhop2rcd13ifvqh8g","pricing_plan_id":"cebpf4jnsgd1na2vs0mg"},{"bike_id":"50ff1ab3-8001-4c74-81e6-1365fba69178","system_id":"levelo_inurba_marseille","lat":43.2594,"lon":5.40903,"is_reserved":false,"is_disabled":false,"rental_uris":{"android":"levelo://app?vid=50ff1ab3-8001-4c74-81e6-1365fba69178","ios":"levelo://app?vid=50ff1ab3-8001-4c74-81e6-1365fba69178"},"vehicle_type_id":"4","last_reported":1741609132,"current_range_meters":14000,"station_id":"ce4bhm92rcd13ifvqglg","pricing_plan_id":"cebpf4jnsgd1na2vs0mg"},{"bike_id":"290eaa6e-d9ed-4119-bcc7-14631e0c9e8a","system_id":"levelo_inurba_marseille","lat":43.29798,"lon":5.38118,"is_reserved":false,"is_disabled":false,"rental_uris":{"android":"levelo://app?vid=290eaa6e-d9ed-4119-bcc7-14631e0c9e8a","ios":"levelo://app?vid=290eaa6e-d9ed-4119-bcc7-14631e0c9e8a"},"vehicle_type_id":"4","last_reported":1741609132,"current_range_meters":14000,"station_id":"ce4bgip2rcd13ifvqbb0","pricing_plan_id":"cebpf4jnsgd1na2vs0mg"},{"bike_id":"acc1658b-7ea3-44a5-a65b-40f1faa0438d","system_id":"levelo_inurba_marseille","lat":43.32554,"lon":5.4146,"is_reserved":false,"is_disabled":false,"rental_uris":{"android":"levelo://app?vid=acc1658b-7ea3-44a5-a65b-40f1faa0438d","ios":"levelo://app?vid=acc1658b-7ea3-44a5-a65b-40f1faa0438d"},"vehicle_type_id":"4","last_reported":1741609132,"current_range_meters":14400,"station_id":"ce4bhq12rcd13ifvqhhg","pricing_plan_id":"cebpf4jnsgd1na2vs0mg"},{"bike_id":"1072a1fe-3294-486d-b63a-771e2c51f7ef","system_id":"levelo_inurba_marseille","lat":43.28936,"lon":5.36395,"is_reserved":false,"is_disabled":false,"rental_uris":{"android":"levelo://app?vid=1072a1fe-3294-486d-b63a-771e2c51f7ef","ios":"levelo://app?vid=1072a1fe-3294-486d-b63a-771e2c51f7ef"},"vehicle_type_id":"4","last_reported":1741609132,"current_range_meters":14400,"station_id":"ce4bhc92rcd13ifvqetg","pricing_plan_id":"cebpf4jnsgd1na2vs0mg"},{"bike_id":"5c3f2f73-e991-4164-91b8-d457cf3e91e8","system_id":"levelo_inurba_marseille","lat":43.24079,"lon":5.37755,"is_reserved":false,"is_disabled":false,"rental_uris":{"android":"levelo://app?vid=5c3f2f73-e991-4164-91b8-d457cf3e91e8","ios":"levelo://app?vid=5c3f2f73-e991-4164-91b8-d457cf3e91e8"},"vehicle_type_id":"4","last_reported":1741609132,"current_range_meters":14400,"station_id":"ce4bhnp2rcd13ifvqgvg","pricing_plan_id":"cebpf4jnsgd1na2vs0mg"},{"bike_id":"6c925a33-922a-4f5d-a19e-2ae09dadacc9","system_id":"levelo_inurba_marseille","lat":43.31358,"lon":5.38474,"is_reserved":false,"is_disabled":false,"rental_uris":{"android":"levelo://app?vid=6c925a33-922a-4f5d-a19e-2ae09dadacc9","ios":"levelo://app?vid=6c925a33-922a-4f5d-a19e-2ae09dadacc9"},"vehicle_type_id":"4","last_reported":1741609132,"current_range_meters":14400,"station_id":"ce4bgt92rcd13ifvqcf0","pricing_plan_id":"cebpf4jnsgd1na2vs0mg"},{"bike_id":"9ec52ed9-9c0e-4e61-a378-5327e3711632","system_id":"levelo_inurba_marseille","lat":43.24727,"lon":5.41153,"is_reserved":false,"is_disabled":false,"rental_uris":{"android":"levelo://app?vid=9ec52ed9-9c0e-4e61-a378-5327e3711632","ios":"levelo://app?vid=9ec52ed9-9c0e-4e61-a378-5327e3711632"},"vehicle_type_id":"4","last_reported":1741609132,"current_range_meters":14400,"station_id":"","pricing_plan_id":"cebpf4jnsgd1na2vs0mg"},{"bike_id":"1e61f1c2-f1b8-4841-8ffd-ffd9ba5d4378","system_id":"levelo_inurba_marseille","lat":43.30546,"lon":5.36548,"is_reserved":false,"is_disabled":false,"rental_uris":{"android":"levelo://app?vid=1e61f1c2-f1b8-4841-8ffd-ffd9ba5d4378","ios":"levelo://app?vid=1e61f1c2-f1b8-4841-8ffd-ffd9ba5d4378"},"vehicle_type_id":"4","last_reported":1741609132,"current_range_meters":14800,"station_id":"ce4bgs12rcd13ifvqcag","pricing_plan_id":"cebpf4jnsgd1na2vs0mg"},{"bike_id":"18e5f804-fd06-47ae-9730-65ae80ae2a2a","system_id":"levelo_inurba_marseille","lat":43.29842,"lon":5.36262,"is_reserved":false,"is_disabled":false,"rental_uris":{"android":"levelo://app?vid=18e5f804-fd06-47ae-9730-65ae80ae2a2a","ios":"levelo://app?vid=18e5f804-fd06-47ae-9730-65ae80ae2a2a"},"vehicle_type_id":"4","last_reported":1741609132,"current_range_meters":14800,"station_id":"ce4bgpp2rcd13ifvqc3g","pricing_plan_id":"cebpf4jnsgd1na2vs0mg"},{"bike_id":"a44b4ad2-e639-4c9a-8fb7-52bbbdc7ff12","system_id":"levelo_inurba_marseille","lat":43.24991,"lon":5.38933,"is_reserved":false,"is_disabled":false,"rental_uris":{"android":"levelo://app?vid=a44b4ad2-e639-4c9a-8fb7-52bbbdc7ff12","ios":"levelo://app?vid=a44b4ad2-e639-4c9a-8fb7-52bbbdc7ff12"},"vehicle_type_id":"4","last_reported":1741609132,"current_range_meters":14800,"station_id":"ce4bhgp2rcd13ifvqfd0","pricing_plan_id":"cebpf4jnsgd1na2vs0mg"},{"bike_id":"ccbf617d-c92c-4154-ad70-fcdbe832004f","system_id":"levelo_inurba_marseille","lat":43.28138,"lon":5.42647,"is_reserved":false,"is_disabled":false,"rental_uris":{"android":"levelo://app?vid=ccbf617d-c92c-4154-ad70-fcdbe832004f","ios":"levelo://app?vid=ccbf617d-c92c-4154-ad70-fcdbe832004f"},"vehicle_type_id":"4","last_reported":1741609132,"current_range_meters":14800,"station_id":"ce4bhnh2rcd13ifvqgug","pricing_plan_id":"cebpf4jnsgd1na2vs0mg"},{"bike_id":"b56cf960-9c27-45f8-af0a-7c584f0dc22e","system_id":"levelo_inurba_marseille","lat":43.279963,"lon":5.41662,"is_reserved":false,"is_disabled":false,"rental_uris":{"android":"levelo://app?vid=b56cf960-9c27-45f8-af0a-7c584f0dc22e","ios":"levelo://app?vid=b56cf960-9c27-45f8-af0a-7c584f0dc22e"},"vehicle_type_id":"4","last_reported":1741609132,"current_range_meters":14800,"station_id":"ce4bho12rcd13ifvqh1g","pricing_plan_id":"cebpf4jnsgd1na2vs0mg"},{"bike_id":"27459785-4edf-4f27-b842-1984a62c6dde","system_id":"levelo_inurba_marseille","lat":43.25086,"lon":5.39517,"is_reserved":false,"is_disabled":false,"rental_uris":{"android":"levelo://app?vid=27459785-4edf-4f27-b842-1984a62c6dde","ios":"levelo://app?vid=27459785-4edf-4f27-b842-1984a62c6dde"},"vehicle_type_id":"4","last_reported":1741609132,"current_range_meters":14800,"station_id":"ce4bhm12rcd13ifvqgkg","pricing_plan_id":"cebpf4jnsgd1na2vs0mg"},{"bike_id":"5e8a1b56-cdc9-4f0f-b8db-4ba2e146f915","system_id":"levelo_inurba_marseille","lat":43.26804,"lon":5.40268,"is_reserved":false,"is_disabled":false,"rental_uris":{"android":"levelo://app?vid=5e8a1b56-cdc9-4f0f-b8db-4ba2e146f915","ios":"levelo://app?vid=5e8a1b56-cdc9-4f0f-b8db-4ba2e146f915"},"vehicle_type_id":"4","last_reported":1741609132,"current_range_meters":14800,"station_id":"ce501612rcd8frsf0b60","pricing_plan_id":"cebpf4jnsgd1na2vs0mg"},{"bike_id":"86338cf5-ac59-4f7d-8f67-e3492c08ca34","system_id":"levelo_inurba_marseille","lat":43.25088,"lon":5.39512,"is_reserved":false,"is_disabled":false,"rental_uris":{"android":"levelo://app?vid=86338cf5-ac59-4f7d-8f67-e3492c08ca34","ios":"levelo://app?vid=86338cf5-ac59-4f7d-8f67-e3492c08ca34"},"vehicle_type_id":"4","last_reported":1741609132,"current_range_meters":14800,"station_id":"ce4bhm12rcd13ifvqgkg","pricing_plan_id":"cebpf4jnsgd1na2vs0mg"},{"bike_id":"f381c9bd-14fa-41ab-b589-3ecebd6dfe48","system_id":"levelo_inurba_marseille","lat":43.32349,"lon":5.36748,"is_reserved":false,"is_disabled":false,"rental_uris":{"android":"levelo://app?vid=f381c9bd-14fa-41ab-b589-3ecebd6dfe48","ios":"levelo://app?vid=f381c9bd-14fa-41ab-b589-3ecebd6dfe48"},"vehicle_type_id":"4","last_reported":1741609132,"current_range_meters":14800,"station_id":"ce4bhsh2rcd13ifvqi2g","pricing_plan_id":"cebpf4jnsgd1na2vs0mg"},{"bike_id":"2f52c9a5-c9fb-4364-a7d7-2d1ff51061d5","system_id":"levelo_inurba_marseille","lat":43.28485,"lon":5.38412,"is_reserved":false,"is_disabled":false,"rental_uris":{"android":"levelo://app?vid=2f52c9a5-c9fb-4364-a7d7-2d1ff51061d5","ios":"levelo://app?vid=2f52c9a5-c9fb-4364-a7d7-2d1ff51061d5"},"vehicle_type_id":"4","last_reported":1741609132,"current_range_meters":15200,"station_id":"ce4bh512rcd13ifvqe3g","pricing_plan_id":"cebpf4jnsgd1na2vs0mg"},{"bike_id":"58d1b5b3-d322-4418-97d0-3066ec3d9afc","system_id":"levelo_inurba_marseille","lat":43.23197,"lon":5.35537,"is_reserved":false,"is_disabled":false,"rental_uris":{"android":"levelo://app?vid=58d1b5b3-d322-4418-97d0-3066ec3d9afc","ios":"levelo://app?vid=58d1b5b3-d322-4418-97d0-3066ec3d9afc"},"vehicle_type_id":"4","last_reported":1741609132,"current_range_meters":15200,"station_id":"ce4bhu92rcd13ifvqi70","pricing_plan_id":"cebpf4jnsgd1na2vs0mg"},{"bike_id":"e37ce02e-67cc-446a-8e8d-68511d60eabc","system_id":"levelo_inurba_marseille","lat":43.30533,"lon":5.36716,"is_reserved":false,"is_disabled":false,"rental_uris":{"android":"levelo://app?vid=e37ce02e-67cc-446a-8e8d-68511d60eabc","ios":"levelo://app?vid=e37ce02e-67cc-446a-8e8d-68511d60eabc"},"vehicle_type_id":"4","last_reported":1741609132,"current_range_meters":16000,"station_id":"ce4bgrp2rcd13ifvqc9g","pricing_plan_id":"cebpf4jnsgd1na2vs0mg"},{"bike_id":"14a64e50-67e4-4ccc-8dd3-b69f798262a6","system_id":"levelo_inurba_marseille","lat":43.25116,"lon":5.40315,"is_reserved":false,"is_disabled":false,"rental_uris":{"android":"levelo://app?vid=14a64e50-67e4-4ccc-8dd3-b69f798262a6","ios":"levelo://app?vid=14a64e50-67e4-4ccc-8dd3-b69f798262a6"},"vehicle_type_id":"4","last_reported":1741609132,"current_range_meters":16000,"station_id":"ce4bhlh2rcd13ifvqgig","pricing_plan_id":"cebpf4jnsgd1na2vs0mg"},{"bike_id":"1fb7e1b0-d6a4-4512-b968-8a63df2c73ef","system_id":"levelo_inurba_marseille","lat":43.26929,"lon":5.38911,"is_reserved":false,"is_disabled":false,"rental_uris":{"android":"levelo://app?vid=1fb7e1b0-d6a4-4512-b968-8a63df2c73ef","ios":"levelo://app?vid=1fb7e1b0-d6a4-4512-b968-8a63df2c73ef"},"vehicle_type_id":"4","last_reported":1741609132,"current_range_meters":16000,"station_id":"ce4bhhh2rcd13ifvqfl0","pricing_plan_id":"cebpf4jnsgd1na2vs0mg"},{"bike_id":"d2eca1b5-4c48-4d5b-86a6-587277d39988","system_id":"levelo_inurba_marseille","lat":43.29618,"lon":5.37148,"is_reserved":false,"is_disabled":false,"rental_uris":{"android":"levelo://app?vid=d2eca1b5-4c48-4d5b-86a6-587277d39988","ios":"levelo://app?vid=d2eca1b5-4c48-4d5b-86a6-587277d39988"},"vehicle_type_id":"4","last_reported":1741609132,"current_range_meters":16000,"station_id":"ce4bgnh2rcd13ifvqc0g","pricing_plan_id":"cebpf4jnsgd1na2vs0mg"},{"bike_id":"da414a0e-e712-483a-8613-4c160112fac7","system_id":"levelo_inurba_marseille","lat":43.28723,"lon":5.35218,"is_reserved":false,"is_disabled":false,"rental_uris":{"android":"levelo://app?vid=da414a0e-e712-483a-8613-4c160112fac7","ios":"levelo://app?vid=da414a0e-e712-483a-8613-4c160112fac7"},"vehicle_type_id":"4","last_reported":1741609132,"current_range_meters":16000,"station_id":"","pricing_plan_id":"cebpf4jnsgd1na2vs0mg"},{"bike_id":"844894c7-065d-427a-9941-8626b05204ed","system_id":"levelo_inurba_marseille","lat":43.325399,"lon":5.41443,"is_reserved":false,"is_disabled":false,"rental_uris":{"android":"levelo://app?vid=844894c7-065d-427a-9941-8626b05204ed","ios":"levelo://app?vid=844894c7-065d-427a-9941-8626b05204ed"},"vehicle_type_id":"4","last_reported":1741609132,"current_range_meters":16000,"station_id":"ce4bhq12rcd13ifvqhhg","pricing_plan_id":"cebpf4jnsgd1na2vs0mg"},{"bike_id":"4c38e97d-acd1-4166-a556-a68392de6ace","system_id":"levelo_inurba_marseille","lat":43.28971,"lon":5.37837,"is_reserved":false,"is_disabled":false,"rental_uris":{"android":"levelo://app?vid=4c38e97d-acd1-4166-a556-a68392de6ace","ios":"levelo://app?vid=4c38e97d-acd1-4166-a556-a68392de6ace"},"vehicle_type_id":"4","last_reported":1741609132,"current_range_meters":16000,"station_id":"ce4bh9p2rcd13ifvqed0","pricing_plan_id":"cebpf4jnsgd1na2vs0mg"},{"bike_id":"67dd6593-a8f3-47b7-b81d-690c4caaffec","system_id":"levelo_inurba_marseille","lat":43.3133,"lon":5.39693,"is_reserved":false,"is_disabled":false,"rental_uris":{"android":"levelo://app?vid=67dd6593-a8f3-47b7-b81d-690c4caaffec","ios":"levelo://app?vid=67dd6593-a8f3-47b7-b81d-690c4caaffec"},"vehicle_type_id":"4","last_reported":1741609132,"current_range_meters":16000,"station_id":"ce4bgvp2rcd13ifvqcu0","pricing_plan_id":"cebpf4jnsgd1na2vs0mg"},{"bike_id":"693684aa-0e1e-4cf2-924d-827095cd61dc","system_id":"levelo_inurba_marseille","lat":43.2582,"lon":5.39434,"is_reserved":false,"is_disabled":false,"rental_uris":{"android":"levelo://app?vid=693684aa-0e1e-4cf2-924d-827095cd61dc","ios":"levelo://app?vid=693684aa-0e1e-4cf2-924d-827095cd61dc"},"vehicle_type_id":"4","last_reported":1741609132,"current_range_meters":16000,"station_id":"ce4bhip2rcd13ifvqft0","pricing_plan_id":"cebpf4jnsgd1na2vs0mg"},{"bike_id":"24ea9c03-0afd-4100-ad62-62865e3edce9","system_id":"levelo_inurba_marseille","lat":43.23146,"lon":5.43724,"is_reserved":false,"is_disabled":false,"rental_uris":{"android":"levelo://app?vid=24ea9c03-0afd-4100-ad62-62865e3edce9","ios":"levelo://app?vid=24ea9c03-0afd-4100-ad62-62865e3edce9"},"vehicle_type_id":"4","last_reported":1741609132,"current_range_meters":16000,"station_id":"ce4bhmp2rcd13ifvqgog","pricing_plan_id":"cebpf4jnsgd1na2vs0mg"},{"bike_id":"714996a6-64f6-41af-a68f-e639f119975d","system_id":"levelo_inurba_marseille","lat":43.2509,"lon":5.39521,"is_reserved":false,"is_disabled":true,"rental_uris":{"android":"levelo://app?vid=714996a6-64f6-41af-a68f-e639f119975d","ios":"levelo://app?vid=714996a6-64f6-41af-a68f-e639f119975d"},"vehicle_type_id":"4","last_reported":1741609132,"current_range_meters":16400,"station_id":"ce4bhm12rcd13ifvqgkg","pricing_plan_id":"cebpf4jnsgd1na2vs0mg"},{"bike_id":"0f520d00-ebca-4721-9b5a-856107a487e4","system_id":"levelo_inurba_marseille","lat":43.31236,"lon":5.3687,"is_reserved":false,"is_disabled":false,"rental_uris":{"android":"levelo://app?vid=0f520d00-ebca-4721-9b5a-856107a487e4","ios":"levelo://app?vid=0f520d00-ebca-4721-9b5a-856107a487e4"},"vehicle_type_id":"4","last_reported":1741609132,"current_range_meters":16400,"station_id":"ce4bgl92rcd13ifvqbq0","pricing_plan_id":"cebpf4jnsgd1na2vs0mg"},{"bike_id":"07187ccf-3486-4591-bfa0-8f92f125c67e","system_id":"levelo_inurba_marseille","lat":43.32104,"lon":5.36768,"is_reserved":false,"is_disabled":false,"rental_uris":{"android":"levelo://app?vid=07187ccf-3486-4591-bfa0-8f92f125c67e","ios":"levelo://app?vid=07187ccf-3486-4591-bfa0-8f92f125c67e"},"vehicle_type_id":"4","last_reported":1741609132,"current_range_meters":16400,"station_id":"ce4bhrh2rcd13ifvqhug","pricing_plan_id":"cebpf4jnsgd1na2vs0mg"},{"bike_id":"caed4545-182d-42df-8230-6bdcdcfdf765","system_id":"levelo_inurba_marseille","lat":43.3122,"lon":5.36879,"is_reserved":false,"is_disabled":false,"rental_uris":{"android":"levelo://app?vid=caed4545-182d-42df-8230-6bdcdcfdf765","ios":"levelo://app?vid=caed4545-182d-42df-8230-6bdcdcfdf765"},"vehicle_type_id":"4","last_reported":1741609132,"current_range_meters":16400,"station_id":"ce4bgl92rcd13ifvqbq0","pricing_plan_id":"cebpf4jnsgd1na2vs0mg"},{"bike_id":"d933eb55-7a33-405f-af5b-86119fb8cb17","system_id":"levelo_inurba_marseille","lat":43.23173,"lon":5.39988,"is_reserved":false,"is_disabled":false,"rental_uris":{"android":"levelo://app?vid=d933eb55-7a33-405f-af5b-86119fb8cb17","ios":"levelo://app?vid=d933eb55-7a33-405f-af5b-86119fb8cb17"},"vehicle_type_id":"4","last_reported":1741609132,"current_range_meters":16000,"station_id":"ce4bhn12rcd13ifvqgqg","pricing_plan_id":"cebpf4jnsgd1na2vs0mg"},{"bike_id":"bf49a0fd-bfe2-4bbb-8d6a-0540c7d91d25","system_id":"levelo_inurba_marseille","lat":43.32363,"lon":5.3676,"is_reserved":false,"is_disabled":false,"rental_uris":{"android":"levelo://app?vid=bf49a0fd-bfe2-4bbb-8d6a-0540c7d91d25","ios":"levelo://app?vid=bf49a0fd-bfe2-4bbb-8d6a-0540c7d91d25"},"vehicle_type_id":"4","last_reported":1741609132,"current_range_meters":16400,"station_id":"ce4bhsh2rcd13ifvqi2g","pricing_plan_id":"cebpf4jnsgd1na2vs0mg"},{"bike_id":"f4137cac-8190-4b4a-aafc-f3f684a97edb","system_id":"levelo_inurba_marseille","lat":43.29265,"lon":5.38438,"is_reserved":false,"is_disabled":false,"rental_uris":{"android":"levelo://app?vid=f4137cac-8190-4b4a-aafc-f3f684a97edb","ios":"levelo://app?vid=f4137cac-8190-4b4a-aafc-f3f684a97edb"},"vehicle_type_id":"4","last_reported":1741609132,"current_range_meters":16400,"station_id":"ce4bh692rcd13ifvqea0","pricing_plan_id":"cebpf4jnsgd1na2vs0mg"},{"bike_id":"a0f44008-2ff3-4c97-972b-e1cbd0ab80a5","system_id":"levelo_inurba_marseille","lat":43.3015,"lon":5.38086,"is_reserved":false,"is_disabled":false,"rental_uris":{"android":"levelo://app?vid=a0f44008-2ff3-4c97-972b-e1cbd0ab80a5","ios":"levelo://app?vid=a0f44008-2ff3-4c97-972b-e1cbd0ab80a5"},"vehicle_type_id":"4","last_reported":1741609132,"current_range_meters":16400,"station_id":"ce4bgjp2rcd13ifvqbh0","pricing_plan_id":"cebpf4jnsgd1na2vs0mg"},{"bike_id":"4333d477-da3f-4e97-bed1-a0b96932fe53","system_id":"levelo_inurba_marseille","lat":43.23158,"lon":5.43705,"is_reserved":false,"is_disabled":false,"rental_uris":{"android":"levelo://app?vid=4333d477-da3f-4e97-bed1-a0b96932fe53","ios":"levelo://app?vid=4333d477-da3f-4e97-bed1-a0b96932fe53"},"vehicle_type_id":"4","last_reported":1741609132,"current_range_meters":12800,"station_id":"ce4bhmp2rcd13ifvqgog","pricing_plan_id":"cebpf4jnsgd1na2vs0mg"},{"bike_id":"5c4469da-4264-472b-a0c7-d28eb24db0a2","system_id":"levelo_inurba_marseille","lat":43.30901,"lon":5.37192,"is_reserved":false,"is_disabled":false,"rental_uris":{"android":"levelo://app?vid=5c4469da-4264-472b-a0c7-d28eb24db0a2","ios":"levelo://app?vid=5c4469da-4264-472b-a0c7-d28eb24db0a2"},"vehicle_type_id":"4","last_reported":1741609132,"current_range_meters":16800,"station_id":"ce4bguh2rcd13ifvqckg","pricing_plan_id":"cebpf4jnsgd1na2vs0mg"},{"bike_id":"3e19dab8-46fe-40ac-bdf3-26b4f9e3cbe2","system_id":"levelo_inurba_marseille","lat":43.30546,"lon":5.36704,"is_reserved":false,"is_disabled":false,"rental_uris":{"android":"levelo://app?vid=3e19dab8-46fe-40ac-bdf3-26b4f9e3cbe2","ios":"levelo://app?vid=3e19dab8-46fe-40ac-bdf3-26b4f9e3cbe2"},"vehicle_type_id":"4","last_reported":1741609132,"current_range_meters":16800,"station_id":"ce4bgrp2rcd13ifvqc9g","pricing_plan_id":"cebpf4jnsgd1na2vs0mg"},{"bike_id":"63829e98-5491-4aaf-8868-cfa8c984e570","system_id":"levelo_inurba_marseille","lat":43.29837,"lon":5.36259,"is_reserved":false,"is_disabled":false,"rental_uris":{"android":"levelo://app?vid=63829e98-5491-4aaf-8868-cfa8c984e570","ios":"levelo://app?vid=63829e98-5491-4aaf-8868-cfa8c984e570"},"vehicle_type_id":"4","last_reported":1741609132,"current_range_meters":16800,"station_id":"ce4bgpp2rcd13ifvqc3g","pricing_plan_id":"cebpf4jnsgd1na2vs0mg"},{"bike_id":"259dde30-071d-4e72-9e93-2afe0e28cbba","system_id":"levelo_inurba_marseille","lat":43.3064,"lon":5.37308,"is_reserved":false,"is_disabled":false,"rental_uris":{"android":"levelo://app?vid=259dde30-071d-4e72-9e93-2afe0e28cbba","ios":"levelo://app?vid=259dde30-071d-4e72-9e93-2afe0e28cbba"},"vehicle_type_id":"4","last_reported":1741609132,"current_range_meters":16800,"station_id":"","pricing_plan_id":"cebpf4jnsgd1na2vs0mg"},{"bike_id":"7b66e0d2-60fc-4baa-b134-64c6a900f5e4","system_id":"levelo_inurba_marseille","lat":43.24176,"lon":5.39722,"is_reserved":false,"is_disabled":false,"rental_uris":{"android":"levelo://app?vid=7b66e0d2-60fc-4baa-b134-64c6a900f5e4","ios":"levelo://app?vid=7b66e0d2-60fc-4baa-b134-64c6a900f5e4"},"vehicle_type_id":"4","last_reported":1741609132,"current_range_meters":16800,"station_id":"ce4bhn12rcd13ifvqgpg","pricing_plan_id":"cebpf4jnsgd1na2vs0mg"},{"bike_id":"93001d9f-28f9-4448-9534-87e9d48a32a3","system_id":"levelo_inurba_marseille","lat":43.30139,"lon":5.37422,"is_reserved":false,"is_disabled":false,"rental_uris":{"android":"levelo://app?vid=93001d9f-28f9-4448-9534-87e9d48a32a3","ios":"levelo://app?vid=93001d9f-28f9-4448-9534-87e9d48a32a3"},"vehicle_type_id":"4","last_reported":1741609132,"current_range_meters":16800,"station_id":"ce4bgs92rcd13ifvqcc0","pricing_plan_id":"cebpf4jnsgd1na2vs0mg"},{"bike_id":"508f7b04-a3b0-43f9-b8ef-0ea9b0010aab","system_id":"levelo_inurba_marseille","lat":43.29278,"lon":5.40108,"is_reserved":false,"is_disabled":false,"rental_uris":{"android":"levelo://app?vid=508f7b04-a3b0-43f9-b8ef-0ea9b0010aab","ios":"levelo://app?vid=508f7b04-a3b0-43f9-b8ef-0ea9b0010aab"},"vehicle_type_id":"4","last_reported":1741609132,"current_range_meters":16400,"station_id":"ce4bgvh2rcd13ifvqcs0","pricing_plan_id":"cebpf4jnsgd1na2vs0mg"},{"bike_id":"4ac46dc3-8a8c-4dfb-85b1-751044e9d5b7","system_id":"levelo_inurba_marseille","lat":43.25728,"lon":5.41101,"is_reserved":false,"is_disabled":false,"rental_uris":{"android":"levelo://app?vid=4ac46dc3-8a8c-4dfb-85b1-751044e9d5b7","ios":"levelo://app?vid=4ac46dc3-8a8c-4dfb-85b1-751044e9d5b7"},"vehicle_type_id":"4","last_reported":1741609132,"current_range_meters":16800,"station_id":"ce4bhkp2rcd13ifvqgd0","pricing_plan_id":"cebpf4jnsgd1na2vs0mg"},{"bike_id":"f0ee3b8e-8ee8-4163-a6e9-c106684a6803","system_id":"levelo_inurba_marseille","lat":43.30254,"lon":5.40067,"is_reserved":false,"is_disabled":false,"rental_uris":{"android":"levelo://app?vid=f0ee3b8e-8ee8-4163-a6e9-c106684a6803","ios":"levelo://app?vid=f0ee3b8e-8ee8-4163-a6e9-c106684a6803"},"vehicle_type_id":"4","last_reported":1741609132,"current_range_meters":16400,"station_id":"ce4bgvh2rcd13ifvqcs0","pricing_plan_id":"cebpf4jnsgd1na2vs0mg"},{"bike_id":"5eb013d6-71a0-40c2-81ea-538226936e0d","system_id":"levelo_inurba_marseille","lat":43.23153,"lon":5.43725,"is_reserved":false,"is_disabled":false,"rental_uris":{"android":"levelo://app?vid=5eb013d6-71a0-40c2-81ea-538226936e0d","ios":"levelo://app?vid=5eb013d6-71a0-40c2-81ea-538226936e0d"},"vehicle_type_id":"4","last_reported":1741609132,"current_range_meters":16800,"station_id":"ce4bhmp2rcd13ifvqgog","pricing_plan_id":"cebpf4jnsgd1na2vs0mg"},{"bike_id":"e4f61b86-04a4-4652-a877-15de8ddf1997","system_id":"levelo_inurba_marseille","lat":43.31227,"lon":5.36872,"is_reserved":false,"is_disabled":false,"rental_uris":{"android":"levelo://app?vid=e4f61b86-04a4-4652-a877-15de8ddf1997","ios":"levelo://app?vid=e4f61b86-04a4-4652-a877-15de8ddf1997"},"vehicle_type_id":"4","last_reported":1741609132,"current_range_meters":16800,"station_id":"ce4bgl92rcd13ifvqbq0","pricing_plan_id":"cebpf4jnsgd1na2vs0mg"},{"bike_id":"a601c052-3ef8-4094-a8ca-1b110223b150","system_id":"levelo_inurba_marseille","lat":43.28482,"lon":5.38554,"is_reserved":false,"is_disabled":false,"rental_uris":{"android":"levelo://app?vid=a601c052-3ef8-4094-a8ca-1b110223b150","ios":"levelo://app?vid=a601c052-3ef8-4094-a8ca-1b110223b150"},"vehicle_type_id":"4","last_reported":1741609132,"current_range_meters":16400,"station_id":"ce4bh8p2rcd13ifvqeb0","pricing_plan_id":"cebpf4jnsgd1na2vs0mg"},{"bike_id":"660d9bc6-01e0-497a-b4a7-8401c20436f1","system_id":"levelo_inurba_marseille","lat":43.262225,"lon":5.40454,"is_reserved":false,"is_disabled":false,"rental_uris":{"android":"levelo://app?vid=660d9bc6-01e0-497a-b4a7-8401c20436f1","ios":"levelo://app?vid=660d9bc6-01e0-497a-b4a7-8401c20436f1"},"vehicle_type_id":"4","last_reported":1741609132,"current_range_meters":16800,"station_id":"ce4bhmh2rcd13ifvqgmg","pricing_plan_id":"cebpf4jnsgd1na2vs0mg"},{"bike_id":"415e7a31-245d-4ead-9f33-dad092a04302","system_id":"levelo_inurba_marseille","lat":43.230587,"lon":5.354971,"is_reserved":false,"is_disabled":false,"rental_uris":{"android":"levelo://app?vid=415e7a31-245d-4ead-9f33-dad092a04302","ios":"levelo://app?vid=415e7a31-245d-4ead-9f33-dad092a04302"},"vehicle_type_id":"4","last_reported":1741609132,"current_range_meters":17200,"station_id":"cpo3342slgdg3j2ifvpg","pricing_plan_id":"cebpf4jnsgd1na2vs0mg"},{"bike_id":"6f23c894-bf00-4862-9e4a-234af9e68219","system_id":"levelo_inurba_marseille","lat":43.31699,"lon":5.37738,"is_reserved":false,"is_disabled":false,"rental_uris":{"android":"levelo://app?vid=6f23c894-bf00-4862-9e4a-234af9e68219","ios":"levelo://app?vid=6f23c894-bf00-4862-9e4a-234af9e68219"},"vehicle_type_id":"4","last_reported":1741609132,"current_range_meters":17200,"station_id":"ce4bgth2rcd13ifvqch0","pricing_plan_id":"cebpf4jnsgd1na2vs0mg"},{"bike_id":"27b16d00-6702-4b0a-ada2-0f18d1d4b651","system_id":"levelo_inurba_marseille","lat":43.29016,"lon":5.38135,"is_reserved":false,"is_disabled":false,"rental_uris":{"android":"levelo://app?vid=27b16d00-6702-4b0a-ada2-0f18d1d4b651","ios":"levelo://app?vid=27b16d00-6702-4b0a-ada2-0f18d1d4b651"},"vehicle_type_id":"4","last_reported":1741609132,"current_range_meters":16800,"station_id":"ce4bh4p2rcd13ifvqe1g","pricing_plan_id":"cebpf4jnsgd1na2vs0mg"},{"bike_id":"11d8e867-88f8-4e72-81aa-2b0f7e036b0c","system_id":"levelo_inurba_marseille","lat":43.30484,"lon":5.37252,"is_reserved":false,"is_disabled":false,"rental_uris":{"android":"levelo://app?vid=11d8e867-88f8-4e72-81aa-2b0f7e036b0c","ios":"levelo://app?vid=11d8e867-88f8-4e72-81aa-2b0f7e036b0c"},"vehicle_type_id":"4","last_reported":1741609132,"current_range_meters":17200,"station_id":"","pricing_plan_id":"cebpf4jnsgd1na2vs0mg"},{"bike_id":"02ccda15-ca98-4f66-a5ee-609c485d624e","system_id":"levelo_inurba_marseille","lat":43.23957,"lon":5.36628,"is_reserved":false,"is_disabled":false,"rental_uris":{"android":"levelo://app?vid=02ccda15-ca98-4f66-a5ee-609c485d624e","ios":"levelo://app?vid=02ccda15-ca98-4f66-a5ee-609c485d624e"},"vehicle_type_id":"4","last_reported":1741609132,"current_range_meters":17200,"station_id":"ce4bhi12rcd13ifvqfp0","pricing_plan_id":"cebpf4jnsgd1na2vs0mg"},{"bike_id":"c1291b4b-6672-4972-b58c-10f7efec26ef","system_id":"levelo_inurba_marseille","lat":43.291,"lon":5.38128,"is_reserved":false,"is_disabled":false,"rental_uris":{"android":"levelo://app?vid=c1291b4b-6672-4972-b58c-10f7efec26ef","ios":"levelo://app?vid=c1291b4b-6672-4972-b58c-10f7efec26ef"},"vehicle_type_id":"4","last_reported":1741609132,"current_range_meters":17200,"station_id":"ce4bh512rcd13ifvqe2g","pricing_plan_id":"cebpf4jnsgd1na2vs0mg"},{"bike_id":"ac8e6b48-e483-4aef-bede-c5576834d55a","system_id":"levelo_inurba_marseille","lat":43.298385,"lon":5.362786,"is_reserved":false,"is_disabled":false,"rental_uris":{"android":"levelo://app?vid=ac8e6b48-e483-4aef-bede-c5576834d55a","ios":"levelo://app?vid=ac8e6b48-e483-4aef-bede-c5576834d55a"},"vehicle_type_id":"4","last_reported":1741609132,"current_range_meters":17200,"station_id":"ce4bgpp2rcd13ifvqc3g","pricing_plan_id":"cebpf4jnsgd1na2vs0mg"},{"bike_id":"1a26001d-d49a-47a3-a711-f7ff22c1c811","system_id":"levelo_inurba_marseille","lat":43.28879,"lon":5.37138,"is_reserved":false,"is_disabled":false,"rental_uris":{"android":"levelo://app?vid=1a26001d-d49a-47a3-a711-f7ff22c1c811","ios":"levelo://app?vid=1a26001d-d49a-47a3-a711-f7ff22c1c811"},"vehicle_type_id":"4","last_reported":1741609132,"current_range_meters":17200,"station_id":"","pricing_plan_id":"cebpf4jnsgd1na2vs0mg"},{"bike_id":"a3c93df5-51f8-495d-bc93-2a17dc2286a6","system_id":"levelo_inurba_marseille","lat":43.28821,"lon":5.38263,"is_reserved":false,"is_disabled":false,"rental_uris":{"android":"levelo://app?vid=a3c93df5-51f8-495d-bc93-2a17dc2286a6","ios":"levelo://app?vid=a3c93df5-51f8-495d-bc93-2a17dc2286a6"},"vehicle_type_id":"4","last_reported":1741609132,"current_range_meters":17200,"station_id":"ce4bh0h2rcd13ifvqd40","pricing_plan_id":"cebpf4jnsgd1na2vs0mg"},{"bike_id":"a1af23de-eb8d-4bbf-ade2-db5475d07d47","system_id":"levelo_inurba_marseille","lat":43.29233,"lon":5.36064,"is_reserved":false,"is_disabled":false,"rental_uris":{"android":"levelo://app?vid=a1af23de-eb8d-4bbf-ade2-db5475d07d47","ios":"levelo://app?vid=a1af23de-eb8d-4bbf-ade2-db5475d07d47"},"vehicle_type_id":"4","last_reported":1741609132,"current_range_meters":17200,"station_id":"ce4bhbh2rcd13ifvqeqg","pricing_plan_id":"cebpf4jnsgd1na2vs0mg"},{"bike_id":"7d34c987-73ce-4ca4-a4f8-fc2f3288cfda","system_id":"levelo_inurba_marseille","lat":43.24175,"lon":5.39728,"is_reserved":false,"is_disabled":false,"rental_uris":{"android":"levelo://app?vid=7d34c987-73ce-4ca4-a4f8-fc2f3288cfda","ios":"levelo://app?vid=7d34c987-73ce-4ca4-a4f8-fc2f3288cfda"},"vehicle_type_id":"4","last_reported":1741609132,"current_range_meters":17200,"station_id":"ce4bhn12rcd13ifvqgpg","pricing_plan_id":"cebpf4jnsgd1na2vs0mg"},{"bike_id":"c72ef83e-d8c3-4531-a65b-454010096a44","system_id":"levelo_inurba_marseille","lat":43.26786,"lon":5.39428,"is_reserved":false,"is_disabled":false,"rental_uris":{"android":"levelo://app?vid=c72ef83e-d8c3-4531-a65b-454010096a44","ios":"levelo://app?vid=c72ef83e-d8c3-4531-a65b-454010096a44"},"vehicle_type_id":"4","last_reported":1741609132,"current_range_meters":17200,"station_id":"ce4bhh12rcd13ifvqfg0","pricing_plan_id":"cebpf4jnsgd1na2vs0mg"},{"bike_id":"4e9530fd-8241-4454-9629-25770c9f4b16","system_id":"levelo_inurba_marseille","lat":43.30496,"lon":5.38219,"is_reserved":false,"is_disabled":false,"rental_uris":{"android":"levelo://app?vid=4e9530fd-8241-4454-9629-25770c9f4b16","ios":"levelo://app?vid=4e9530fd-8241-4454-9629-25770c9f4b16"},"vehicle_type_id":"4","last_reported":1741609132,"current_range_meters":17600,"station_id":"","pricing_plan_id":"cebpf4jnsgd1na2vs0mg"},{"bike_id":"42556de5-7fac-475f-9de9-63339d51f6c3","system_id":"levelo_inurba_marseille","lat":43.30556,"lon":5.36528,"is_reserved":false,"is_disabled":false,"rental_uris":{"android":"levelo://app?vid=42556de5-7fac-475f-9de9-63339d51f6c3","ios":"levelo://app?vid=42556de5-7fac-475f-9de9-63339d51f6c3"},"vehicle_type_id":"4","last_reported":1741609132,"current_range_meters":17600,"station_id":"ce4bgs12rcd13ifvqcag","pricing_plan_id":"cebpf4jnsgd1na2vs0mg"},{"bike_id":"8fc30053-1235-46be-8235-a107960d576e","system_id":"levelo_inurba_marseille","lat":43.30148,"lon":5.38075,"is_reserved":false,"is_disabled":false,"rental_uris":{"android":"levelo://app?vid=8fc30053-1235-46be-8235-a107960d576e","ios":"levelo://app?vid=8fc30053-1235-46be-8235-a107960d576e"},"vehicle_type_id":"4","last_reported":1741609132,"current_range_meters":17600,"station_id":"ce4bgjp2rcd13ifvqbh0","pricing_plan_id":"cebpf4jnsgd1na2vs0mg"},{"bike_id":"3e37f03c-e5a4-4e97-951f-7786bb1c3928","system_id":"levelo_inurba_marseille","lat":43.23166,"lon":5.43707,"is_reserved":false,"is_disabled":false,"rental_uris":{"android":"levelo://app?vid=3e37f03c-e5a4-4e97-951f-7786bb1c3928","ios":"levelo://app?vid=3e37f03c-e5a4-4e97-951f-7786bb1c3928"},"vehicle_type_id":"4","last_reported":1741609132,"current_range_meters":17600,"station_id":"ce4bhmp2rcd13ifvqgog","pricing_plan_id":"cebpf4jnsgd1na2vs0mg"},{"bike_id":"de348c8c-24cd-4be0-b36b-69200ac1ce72","system_id":"levelo_inurba_marseille","lat":43.30465,"lon":5.37912,"is_reserved":false,"is_disabled":false,"rental_uris":{"android":"levelo://app?vid=de348c8c-24cd-4be0-b36b-69200ac1ce72","ios":"levelo://app?vid=de348c8c-24cd-4be0-b36b-69200ac1ce72"},"vehicle_type_id":"4","last_reported":1741609132,"current_range_meters":18000,"station_id":"ce4bgup2rcd13ifvqcn0","pricing_plan_id":"cebpf4jnsgd1na2vs0mg"},{"bike_id":"c521758c-ad49-48e8-8b05-74949926ff45","system_id":"levelo_inurba_marseille","lat":43.26783,"lon":5.39416,"is_reserved":false,"is_disabled":false,"rental_uris":{"android":"levelo://app?vid=c521758c-ad49-48e8-8b05-74949926ff45","ios":"levelo://app?vid=c521758c-ad49-48e8-8b05-74949926ff45"},"vehicle_type_id":"4","last_reported":1741609132,"current_range_meters":18000,"station_id":"ce4bhh12rcd13ifvqfg0","pricing_plan_id":"cebpf4jnsgd1na2vs0mg"},{"bike_id":"2868fdf0-36eb-4ae8-b7e6-9962f65ef8f5","system_id":"levelo_inurba_marseille","lat":43.29439,"lon":5.39762,"is_reserved":false,"is_disabled":false,"rental_uris":{"android":"levelo://app?vid=2868fdf0-36eb-4ae8-b7e6-9962f65ef8f5","ios":"levelo://app?vid=2868fdf0-36eb-4ae8-b7e6-9962f65ef8f5"},"vehicle_type_id":"4","last_reported":1741609132,"current_range_meters":17600,"station_id":"ce4bh3h2rcd13ifvqdo0","pricing_plan_id":"cebpf4jnsgd1na2vs0mg"},{"bike_id":"efe75954-2355-4a4b-a227-071b105120f7","system_id":"levelo_inurba_marseille","lat":43.23957,"lon":5.36661,"is_reserved":false,"is_disabled":false,"rental_uris":{"android":"levelo://app?vid=efe75954-2355-4a4b-a227-071b105120f7","ios":"levelo://app?vid=efe75954-2355-4a4b-a227-071b105120f7"},"vehicle_type_id":"4","last_reported":1741609132,"current_range_meters":18000,"station_id":"ce4bhi12rcd13ifvqfp0","pricing_plan_id":"cebpf4jnsgd1na2vs0mg"},{"bike_id":"2cdec81d-2593-4153-a426-2f527f1b29e2","system_id":"levelo_inurba_marseille","lat":43.23595,"lon":5.391,"is_reserved":false,"is_disabled":false,"rental_uris":{"android":"levelo://app?vid=2cdec81d-2593-4153-a426-2f527f1b29e2","ios":"levelo://app?vid=2cdec81d-2593-4153-a426-2f527f1b29e2"},"vehicle_type_id":"4","last_reported":1741609132,"current_range_meters":18000,"station_id":"","pricing_plan_id":"cebpf4jnsgd1na2vs0mg"},{"bike_id":"ff002119-77db-4661-bc70-6fdcd3d202f7","system_id":"levelo_inurba_marseille","lat":43.30556,"lon":5.36561,"is_reserved":false,"is_disabled":false,"rental_uris":{"android":"levelo://app?vid=ff002119-77db-4661-bc70-6fdcd3d202f7","ios":"levelo://app?vid=ff002119-77db-4661-bc70-6fdcd3d202f7"},"vehicle_type_id":"4","last_reported":1741609132,"current_range_meters":18000,"station_id":"ce4bgs12rcd13ifvqcag","pricing_plan_id":"cebpf4jnsgd1na2vs0mg"},{"bike_id":"f6dc7e9d-be33-4c3d-b28e-234510ea7980","system_id":"levelo_inurba_marseille","lat":43.29064,"lon":5.3809,"is_reserved":false,"is_disabled":false,"rental_uris":{"android":"levelo://app?vid=f6dc7e9d-be33-4c3d-b28e-234510ea7980","ios":"levelo://app?vid=f6dc7e9d-be33-4c3d-b28e-234510ea7980"},"vehicle_type_id":"4","last_reported":1741609132,"current_range_meters":18000,"station_id":"","pricing_plan_id":"cebpf4jnsgd1na2vs0mg"},{"bike_id":"1617cee3-cdfd-4818-b8d5-0b6b5b838d97","system_id":"levelo_inurba_marseille","lat":43.24074,"lon":5.37754,"is_reserved":false,"is_disabled":false,"rental_uris":{"android":"levelo://app?vid=1617cee3-cdfd-4818-b8d5-0b6b5b838d97","ios":"levelo://app?vid=1617cee3-cdfd-4818-b8d5-0b6b5b838d97"},"vehicle_type_id":"4","last_reported":1741609132,"current_range_meters":18000,"station_id":"ce4bhnp2rcd13ifvqgvg","pricing_plan_id":"cebpf4jnsgd1na2vs0mg"},{"bike_id":"7394a886-cc0b-4476-9283-ea68d1731284","system_id":"levelo_inurba_marseille","lat":43.28417,"lon":5.37514,"is_reserved":false,"is_disabled":false,"rental_uris":{"android":"levelo://app?vid=7394a886-cc0b-4476-9283-ea68d1731284","ios":"levelo://app?vid=7394a886-cc0b-4476-9283-ea68d1731284"},"vehicle_type_id":"4","last_reported":1741609132,"current_range_meters":18000,"station_id":"ce4bh412rcd13ifvqds0","pricing_plan_id":"cebpf4jnsgd1na2vs0mg"},{"bike_id":"303473d0-c71d-4532-867e-1af4d571971a","system_id":"levelo_inurba_marseille","lat":43.31076,"lon":5.42436,"is_reserved":false,"is_disabled":false,"rental_uris":{"android":"levelo://app?vid=303473d0-c71d-4532-867e-1af4d571971a","ios":"levelo://app?vid=303473d0-c71d-4532-867e-1af4d571971a"},"vehicle_type_id":"4","last_reported":1741609132,"current_range_meters":18000,"station_id":"ce4bhp92rcd13ifvqhag","pricing_plan_id":"cebpf4jnsgd1na2vs0mg"},{"bike_id":"57c1efd9-c841-4cb7-b04a-f8307bfa4c18","system_id":"levelo_inurba_marseille","lat":43.29872,"lon":5.39725,"is_reserved":false,"is_disabled":false,"rental_uris":{"android":"levelo://app?vid=57c1efd9-c841-4cb7-b04a-f8307bfa4c18","ios":"levelo://app?vid=57c1efd9-c841-4cb7-b04a-f8307bfa4c18"},"vehicle_type_id":"4","last_reported":1741609132,"current_range_meters":18000,"station_id":"ce4bh0h2rcd13ifvqd50","pricing_plan_id":"cebpf4jnsgd1na2vs0mg"},{"bike_id":"5a86cf8d-68d1-45dd-8ef4-19f3766a28ac","system_id":"levelo_inurba_marseille","lat":43.27592,"lon":5.38406,"is_reserved":false,"is_disabled":true,"rental_uris":{"android":"levelo://app?vid=5a86cf8d-68d1-45dd-8ef4-19f3766a28ac","ios":"levelo://app?vid=5a86cf8d-68d1-45dd-8ef4-19f3766a28ac"},"vehicle_type_id":"4","last_reported":1741609132,"current_range_meters":18000,"station_id":"ce4bhh92rcd13ifvqfi0","pricing_plan_id":"cebpf4jnsgd1na2vs0mg"},{"bike_id":"9bd33ccf-8d8c-49dc-bd0f-278c419b30da","system_id":"levelo_inurba_marseille","lat":43.28439,"lon":5.39206,"is_reserved":false,"is_disabled":false,"rental_uris":{"android":"levelo://app?vid=9bd33ccf-8d8c-49dc-bd0f-278c419b30da","ios":"levelo://app?vid=9bd33ccf-8d8c-49dc-bd0f-278c419b30da"},"vehicle_type_id":"4","last_reported":1741609132,"current_range_meters":18000,"station_id":"ce4bhoh2rcd13ifvqh5g","pricing_plan_id":"cebpf4jnsgd1na2vs0mg"},{"bike_id":"ed20ff12-74dd-4ae9-bd48-c0a8bb94c649","system_id":"levelo_inurba_marseille","lat":43.29006,"lon":5.35609,"is_reserved":false,"is_disabled":false,"rental_uris":{"android":"levelo://app?vid=ed20ff12-74dd-4ae9-bd48-c0a8bb94c649","ios":"levelo://app?vid=ed20ff12-74dd-4ae9-bd48-c0a8bb94c649"},"vehicle_type_id":"4","last_reported":1741609132,"current_range_meters":18000,"station_id":"ce4bhb92rcd13ifvqen0","pricing_plan_id":"cebpf4jnsgd1na2vs0mg"},{"bike_id":"90caae76-b7aa-464b-b47b-01a73dc2c988","system_id":"levelo_inurba_marseille","lat":43.29588,"lon":5.36743,"is_reserved":false,"is_disabled":false,"rental_uris":{"android":"levelo://app?vid=90caae76-b7aa-464b-b47b-01a73dc2c988","ios":"levelo://app?vid=90caae76-b7aa-464b-b47b-01a73dc2c988"},"vehicle_type_id":"4","last_reported":1741609132,"current_range_meters":18000,"station_id":"ce4bgph2rcd13ifvqc2g","pricing_plan_id":"cebpf4jnsgd1na2vs0mg"},{"bike_id":"5540180e-55d0-4c4d-8e95-598bebdc1ae2","system_id":"levelo_inurba_marseille","lat":43.32503,"lon":5.36546,"is_reserved":false,"is_disabled":false,"rental_uris":{"android":"levelo://app?vid=5540180e-55d0-4c4d-8e95-598bebdc1ae2","ios":"levelo://app?vid=5540180e-55d0-4c4d-8e95-598bebdc1ae2"},"vehicle_type_id":"4","last_reported":1741609132,"current_range_meters":18800,"station_id":"ce4bhs12rcd13ifvqhvg","pricing_plan_id":"cebpf4jnsgd1na2vs0mg"},{"bike_id":"e9f0ddf6-c638-4a12-8ca0-d2f9784b891b","system_id":"levelo_inurba_marseille","lat":43.27807,"lon":5.40722,"is_reserved":false,"is_disabled":false,"rental_uris":{"android":"levelo://app?vid=e9f0ddf6-c638-4a12-8ca0-d2f9784b891b","ios":"levelo://app?vid=e9f0ddf6-c638-4a12-8ca0-d2f9784b891b"},"vehicle_type_id":"4","last_reported":1741609132,"current_range_meters":18800,"station_id":"ce4bhnh2rcd13ifvqgtg","pricing_plan_id":"cebpf4jnsgd1na2vs0mg"},{"bike_id":"da5de818-c414-435c-8624-d7ff6a8a3d3d","system_id":"levelo_inurba_marseille","lat":43.28728,"lon":5.37939,"is_reserved":false,"is_disabled":false,"rental_uris":{"android":"levelo://app?vid=da5de818-c414-435c-8624-d7ff6a8a3d3d","ios":"levelo://app?vid=da5de818-c414-435c-8624-d7ff6a8a3d3d"},"vehicle_type_id":"4","last_reported":1741609132,"current_range_meters":18800,"station_id":"ce4bh9p2rcd13ifvqec0","pricing_plan_id":"cebpf4jnsgd1na2vs0mg"},{"bike_id":"f0b5f6b7-161e-4c72-8f30-8d8e8d5c374f","system_id":"levelo_inurba_marseille","lat":43.24566,"lon":5.40497,"is_reserved":false,"is_disabled":false,"rental_uris":{"android":"levelo://app?vid=f0b5f6b7-161e-4c72-8f30-8d8e8d5c374f","ios":"levelo://app?vid=f0b5f6b7-161e-4c72-8f30-8d8e8d5c374f"},"vehicle_type_id":"4","last_reported":1741609132,"current_range_meters":18800,"station_id":"","pricing_plan_id":"cebpf4jnsgd1na2vs0mg"},{"bike_id":"06a138af-c592-4bc0-8dee-74a8041f32ef","system_id":"levelo_inurba_marseille","lat":43.3093,"lon":5.4015,"is_reserved":false,"is_disabled":false,"rental_uris":{"android":"levelo://app?vid=06a138af-c592-4bc0-8dee-74a8041f32ef","ios":"levelo://app?vid=06a138af-c592-4bc0-8dee-74a8041f32ef"},"vehicle_type_id":"4","last_reported":1741609132,"current_range_meters":18000,"station_id":"ce4bgvp2rcd13ifvqct0","pricing_plan_id":"cebpf4jnsgd1na2vs0mg"},{"bike_id":"565febc3-3424-4d4c-95ca-5705a262f891","system_id":"levelo_inurba_marseille","lat":43.281548,"lon":5.426602,"is_reserved":false,"is_disabled":false,"rental_uris":{"android":"levelo://app?vid=565febc3-3424-4d4c-95ca-5705a262f891","ios":"levelo://app?vid=565febc3-3424-4d4c-95ca-5705a262f891"},"vehicle_type_id":"4","last_reported":1741609132,"current_range_meters":18800,"station_id":"ce4bhnh2rcd13ifvqgug","pricing_plan_id":"cebpf4jnsgd1na2vs0mg"},{"bike_id":"0c377b3d-9420-49ea-8e7a-f8945a93ca15","system_id":"levelo_inurba_marseille","lat":43.27996,"lon":5.40005,"is_reserved":false,"is_disabled":false,"rental_uris":{"android":"levelo://app?vid=0c377b3d-9420-49ea-8e7a-f8945a93ca15","ios":"levelo://app?vid=0c377b3d-9420-49ea-8e7a-f8945a93ca15"},