{"last_updated":1706920416,"ttl":30,"version":"2.2","data":{"bikes":[{"bike_id":"dfb90a0b-684d-44eb-aed8-26abca3ae3af","system_id":"levelo_inurba_marseille","lat":43.31341,"lon":5.367098,"is_reserved":false,"is_disabled":false,"rental_uris":{"android":"levelo://app?vid=dfb90a0b-684d-44eb-aed8-26abca3ae3af","ios":"levelo://app?vid=dfb90a0b-684d-44eb-aed8-26abca3ae3af"},"vehicle_type_id":"4","last_reported":1706920416,"current_range_meters":16400,"station_id":"ce4bgr92rcd13ifvqc6g","pricing_plan_id":"free"},{"bike_id":"95a3529f-231a-4268-bcd8-f3921c552d11","system_id":"levelo_inurba_marseille","lat":43.312239,"lon":5.368562,"is_reserved":false,"is_disabled":false,"rental_uris":{"android":"levelo://app?vid=95a3529f-231a-4268-bcd8-f3921c552d11","ios":"levelo://app?vid=95a3529f-231a-4268-bcd8-f3921c552d11"},"vehicle_type_id":"4","last_reported":1706920416,"current_range_meters":17200,"station_id":"ce4bgl92rcd13ifvqbq0","pricing_plan_id":"free"},{"bike_id":"c3c4a564-d8db-4d36-8555-428ae026e230","system_id":"levelo_inurba_marseille","lat":43.309076,"lon":5.368465,"is_reserved":false,"is_disabled":false,"rental_uris":{"android":"levelo://app?vid=c3c4a564-d8db-4d36-8555-428ae026e230","ios":"levelo://app?vid=c3c4a564-d8db-4d36-8555-428ae026e230"},"vehicle_type_id":"4","last_reported":1706920416,"current_range_meters":22400,"station_id":"ce4bgn92rcd13ifvqbvg","pricing_plan_id":"free"},{"bike_id":"8edc4fcf-7ea0-406e-b324-a559d0e25301","system_id":"levelo_inurba_marseille","lat":43.309076,"lon":5.368465,"is_reserved":false,"is_disabled":false,"rental_uris":{"android":"levelo://app?vid=8edc4fcf-7ea0-406e-b324-a559d0e25301","ios":"levelo://app?vid=8edc4fcf-7ea0-406e-b324-a559d0e25301"},"vehicle_type_id":"4","last_reported":1706920416,"current_range_meters":7200,"station_id":"ce4bgn92rcd13ifvqbvg","pricing_plan_id":"free"},{"bike_id":"8075556e-9c83-4ece-b92f-e5e90a5fd8a2","system_id":"levelo_inurba_marseille","lat":43.31306,"lon":5.37258,"is_reserved":false,"is_disabled":false,"rental_uris":{"android":"levelo://app?vid=8075556e-9c83-4ece-b92f-e5e90a5fd8a2","ios":"levelo://app?vid=8075556e-9c83-4ece-b92f-e5e90a5fd8a2"},"vehicle_type_id":"4","last_reported":1706920416,"current_range_meters":6000,"station_id":"","pricing_plan_id":"free"},{"bike_id":"5a39e319-e3b3-4088-8eb8-368da2144e4a","system_id":"levelo_inurba_marseille","lat":43.314811,"lon":5.373103,"is_reserved":false,"is_disabled":false,"rental_uris":{"android":"levelo://app?vid=5a39e319-e3b3-4088-8eb8-368da2144e4a","ios":"levelo://app?vid=5a39e319-e3b3-4088-8eb8-368da2144e4a"},"vehicle_type_id":"4","last_reported":1706920416,"current_range_meters":30400,"station_id":"ce4bgt12rcd13ifvqcd0","pricing_plan_id":"free"},{"bike_id":"b6a3da8a-7c3b-49cd-b624-888131775f2d","system_id":"levelo_inurba_marseille","lat":43.314811,"lon":5.373103,"is_reserved":false,"is_disabled":false,"rental_uris":{"android":"levelo://app?vid=b6a3da8a-7c3b-49cd-b624-888131775f2d","ios":"levelo://app?vid=b6a3da8a-7c3b-49cd-b624-888131775f2d"},"vehicle_type_id":"4","last_reported":1706920416,"current_range_meters":5600,"station_id":"ce4bgt12rcd13ifvqcd0","pricing_plan_id":"free"},{"bike_id":"9a1e9921-786c-4773-a8b9-a61182e60c33","system_id":"levelo_inurba_marseille","lat":43.314811,"lon":5.373103,"is_reserved":false,"is_disabled":false,"rental_uris":{"android":"levelo://app?vid=9a1e9921-786c-4773-a8b9-a61182e60c33","ios":"levelo://app?vid=9a1e9921-786c-4773-a8b9-a61182e60c33"},"vehicle_type_id":"4","last_reported":1706920416,"current_range_meters":1600,"station_id":"ce4bgt12rcd13ifvqcd0","pricing_plan_id":"free"},{"bike_id":"1801fe58-7e9f-46bc-ba43-f7f06ff237c7","system_id":"levelo_inurba_marseille","lat":43.314811,"lon":5.373104,"is_reserved":false,"is_disabled":false,"rental_uris":{"android":"levelo://app?vid=1801fe58-7e9f-46bc-ba43-f7f06ff237c7","ios":"levelo://app?vid=1801fe58-7e9f-46bc-ba43-f7f06ff237c7"},"vehicle_type_id":"4","last_reported":1706920416,"current_range_meters":25600,"station_id":"ce4bgt12rcd13ifvqcd0","pricing_plan_id":"free"},{"bike_id":"9f726ba6-780a-4fb7-89d5-d5e0aac01f16","system_id":"levelo_inurba_marseille","lat":43.309039,"lon":5.371797,"is_reserved":false,"is_disabled":false,"rental_uris":{"android":"levelo://app?vid=9f726ba6-780a-4fb7-89d5-d5e0aac01f16","ios":"levelo://app?vid=9f726ba6-780a-4fb7-89d5-d5e0aac01f16"},"vehicle_type_id":"4","last_reported":1706920416,"current_range_meters":31600,"station_id":"ce4bguh2rcd13ifvqckg","pricing_plan_id":"free"},{"bike_id":"66f8ef1d-5023-461c-b82b-ac7c899f3455","system_id":"levelo_inurba_marseille","lat":43.309039,"lon":5.371797,"is_reserved":false,"is_disabled":false,"rental_uris":{"android":"levelo://app?vid=66f8ef1d-5023-461c-b82b-ac7c899f3455","ios":"levelo://app?vid=66f8ef1d-5023-461c-b82b-ac7c899f3455"},"vehicle_type_id":"4","last_reported":1706920416,"current_range_meters":9600,"station_id":"ce4bguh2rcd13ifvqckg","pricing_plan_id":"free"},{"bike_id":"4935c2bb-fa9e-412b-9ac1-51d8f5e7ba5e","system_id":"levelo_inurba_marseille","lat":43.30863,"lon":5.37155,"is_reserved":false,"is_disabled":false,"rental_uris":{"android":"levelo://app?vid=4935c2bb-fa9e-412b-9ac1-51d8f5e7ba5e","ios":"levelo://app?vid=4935c2bb-fa9e-412b-9ac1-51d8f5e7ba5e"},"vehicle_type_id":"4","last_reported":1706920416,"current_range_meters":0,"station_id":"","pricing_plan_id":"free"},{"bike_id":"8f7e47d6-e0b9-44b9-99c6-d1d8aa109cd9","system_id":"levelo_inurba_marseille","lat":43.305368,"lon":5.367343,"is_reserved":false,"is_disabled":false,"rental_uris":{"android":"levelo://app?vid=8f7e47d6-e0b9-44b9-99c6-d1d8aa109cd9","ios":"levelo://app?vid=8f7e47d6-e0b9-44b9-99c6-d1d8aa109cd9"},"vehicle_type_id":"4","last_reported":1706920416,"current_range_meters":28400,"station_id":"ce4bgrp2rcd13ifvqc9g","pricing_plan_id":"free"},{"bike_id":"10640890-11c6-4d30-a3c4-8c8dc7b90886","system_id":"levelo_inurba_marseille","lat":43.305989,"lon":5.37225,"is_reserved":false,"is_disabled":false,"rental_uris":{"android":"levelo://app?vid=10640890-11c6-4d30-a3c4-8c8dc7b90886","ios":"levelo://app?vid=10640890-11c6-4d30-a3c4-8c8dc7b90886"},"vehicle_type_id":"4","last_reported":1706920416,"current_range_meters":22400,"station_id":"ce4bgqh2rcd13ifvqc4g","pricing_plan_id":"free"},{"bike_id":"8ad27c0b-5640-4fcd-b27a-bbb69ebc1a48","system_id":"levelo_inurba_marseille","lat":43.31125,"lon":5.37758,"is_reserved":false,"is_disabled":false,"rental_uris":{"android":"levelo://app?vid=8ad27c0b-5640-4fcd-b27a-bbb69ebc1a48","ios":"levelo://app?vid=8ad27c0b-5640-4fcd-b27a-bbb69ebc1a48"},"vehicle_type_id":"4","last_reported":1706920416,"current_range_meters":14000,"station_id":"ce4bgt92rcd13ifvqcg0","pricing_plan_id":"free"},{"bike_id":"afb76f03-2128-4c2f-b0a7-d93ad931ec6c","system_id":"levelo_inurba_marseille","lat":43.305989,"lon":5.37225,"is_reserved":false,"is_disabled":false,"rental_uris":{"android":"levelo://app?vid=afb76f03-2128-4c2f-b0a7-d93ad931ec6c","ios":"levelo://app?vid=afb76f03-2128-4c2f-b0a7-d93ad931ec6c"},"vehicle_type_id":"4","last_reported":1706920416,"current_range_meters":0,"station_id":"ce4bgqh2rcd13ifvqc4g","pricing_plan_id":"free"},{"bike_id":"a3b5ffbb-6c42-43f8-8082-ed8023617dff","system_id":"levelo_inurba_marseille","lat":43.31122,"lon":5.37764,"is_reserved":false,"is_disabled":false,"rental_uris":{"android":"levelo://app?vid=a3b5ffbb-6c42-43f8-8082-ed8023617dff","ios":"levelo://app?vid=a3b5ffbb-6c42-43f8-8082-ed8023617dff"},"vehicle_type_id":"4","last_reported":1706920416,"current_range_meters":2800,"station_id":"ce4bgt92rcd13ifvqcg0","pricing_plan_id":"free"},{"bike_id":"a74510d2-0350-432a-8285-505ec5babbf9","system_id":"levelo_inurba_marseille","lat":43.31117,"lon":5.37763,"is_reserved":false,"is_disabled":false,"rental_uris":{"android":"levelo://app?vid=a74510d2-0350-432a-8285-505ec5babbf9","ios":"levelo://app?vid=a74510d2-0350-432a-8285-505ec5babbf9"},"vehicle_type_id":"4","last_reported":1706920416,"current_range_meters":1600,"station_id":"ce4bgt92rcd13ifvqcg0","pricing_plan_id":"free"},{"bike_id":"f66762dc-a538-490c-acd2-343d34d450fb","system_id":"levelo_inurba_marseille","lat":43.311125,"lon":5.377624,"is_reserved":false,"is_disabled":false,"rental_uris":{"android":"levelo://app?vid=f66762dc-a538-490c-acd2-343d34d450fb","ios":"levelo://app?vid=f66762dc-a538-490c-acd2-343d34d450fb"},"vehicle_type_id":"4","last_reported":1706920416,"current_range_meters":22800,"station_id":"ce4bgt92rcd13ifvqcg0","pricing_plan_id":"free"},{"bike_id":"07164bce-8ea4-4406-b12d-ff410e13e1d1","system_id":"levelo_inurba_marseille","lat":43.31116,"lon":5.37764,"is_reserved":false,"is_disabled":false,"rental_uris":{"android":"levelo://app?vid=07164bce-8ea4-4406-b12d-ff410e13e1d1","ios":"levelo://app?vid=07164bce-8ea4-4406-b12d-ff410e13e1d1"},"vehicle_type_id":"4","last_reported":1706920416,"current_range_meters":400,"station_id":"ce4bgt92rcd13ifvqcg0","pricing_plan_id":"free"},{"bike_id":"3adfefd7-2e3e-4f0a-a6b8-a0613d1259d7","system_id":"levelo_inurba_marseille","lat":43.311176,"lon":5.377763,"is_reserved":false,"is_disabled":false,"rental_uris":{"android":"levelo://app?vid=3adfefd7-2e3e-4f0a-a6b8-a0613d1259d7","ios":"levelo://app?vid=3adfefd7-2e3e-4f0a-a6b8-a0613d1259d7"},"vehicle_type_id":"4","last_reported":1706920416,"current_range_meters":18800,"station_id":"ce4bgt92rcd13ifvqcg0","pricing_plan_id":"free"},{"bike_id":"c91671d6-de7c-4415-8bcb-22246a9e4d8b","system_id":"levelo_inurba_marseille","lat":43.307945,"lon":5.376487,"is_reserved":false,"is_disabled":false,"rental_uris":{"android":"levelo://app?vid=c91671d6-de7c-4415-8bcb-22246a9e4d8b","ios":"levelo://app?vid=c91671d6-de7c-4415-8bcb-22246a9e4d8b"},"vehicle_type_id":"4","last_reported":1706920416,"current_range_meters":27200,"station_id":"ce4bgv92rcd13ifvqcq0","pricing_plan_id":"free"},{"bike_id":"793a6182-bb41-4a42-9317-17c9919f3baa","system_id":"levelo_inurba_marseille","lat":43.307945,"lon":5.376487,"is_reserved":false,"is_disabled":false,"rental_uris":{"android":"levelo://app?vid=793a6182-bb41-4a42-9317-17c9919f3baa","ios":"levelo://app?vid=793a6182-bb41-4a42-9317-17c9919f3baa"},"vehicle_type_id":"4","last_reported":1706920416,"current_range_meters":1600,"station_id":"ce4bgv92rcd13ifvqcq0","pricing_plan_id":"free"},{"bike_id":"b440bc5a-deb0-4990-96d5-027ba951d614","system_id":"levelo_inurba_marseille","lat":43.307945,"lon":5.376487,"is_reserved":false,"is_disabled":false,"rental_uris":{"android":"levelo://app?vid=b440bc5a-deb0-4990-96d5-027ba951d614","ios":"levelo://app?vid=b440bc5a-deb0-4990-96d5-027ba951d614"},"vehicle_type_id":"4","last_reported":1706920416,"current_range_meters":7200,"station_id":"ce4bgv92rcd13ifvqcq0","pricing_plan_id":"free"},{"bike_id":"2295bdf0-b945-48a1-b7b3-5cd2c65aa77b","system_id":"levelo_inurba_marseille","lat":43.30789,"lon":5.37649,"is_reserved":false,"is_disabled":false,"rental_uris":{"android":"levelo://app?vid=2295bdf0-b945-48a1-b7b3-5cd2c65aa77b","ios":"levelo://app?vid=2295bdf0-b945-48a1-b7b3-5cd2c65aa77b"},"vehicle_type_id":"4","last_reported":1706920416,"current_range_meters":27600,"station_id":"","pricing_plan_id":"free"},{"bike_id":"7ac2494b-5e40-4fb1-bff3-6b24340e9579","system_id":"levelo_inurba_marseille","lat":43.307945,"lon":5.376487,"is_reserved":false,"is_disabled":false,"rental_uris":{"android":"levelo://app?vid=7ac2494b-5e40-4fb1-bff3-6b24340e9579","ios":"levelo://app?vid=7ac2494b-5e40-4fb1-bff3-6b24340e9579"},"vehicle_type_id":"4","last_reported":1706920416,"current_range_meters":8800,"station_id":"ce4bgv92rcd13ifvqcq0","pricing_plan_id":"free"},{"bike_id":"ab3286eb-dbac-4366-b110-90ffe0d4f697","system_id":"levelo_inurba_marseille","lat":43.307945,"lon":5.376487,"is_reserved":false,"is_disabled":false,"rental_uris":{"android":"levelo://app?vid=ab3286eb-dbac-4366-b110-90ffe0d4f697","ios":"levelo://app?vid=ab3286eb-dbac-4366-b110-90ffe0d4f697"},"vehicle_type_id":"4","last_reported":1706920416,"current_range_meters":12800,"station_id":"ce4bgv92rcd13ifvqcq0","pricing_plan_id":"free"},{"bike_id":"7fa83cad-99b9-4aa6-ab92-7ae36f834b06","system_id":"levelo_inurba_marseille","lat":43.307945,"lon":5.376487,"is_reserved":false,"is_disabled":false,"rental_uris":{"android":"levelo://app?vid=7fa83cad-99b9-4aa6-ab92-7ae36f834b06","ios":"levelo://app?vid=7fa83cad-99b9-4aa6-ab92-7ae36f834b06"},"vehicle_type_id":"4","last_reported":1706920416,"current_range_meters":22000,"station_id":"ce4bgv92rcd13ifvqcq0","pricing_plan_id":"free"},{"bike_id":"6132a412-ad44-4070-82af-5684b840e2f3","system_id":"levelo_inurba_marseille","lat":43.307945,"lon":5.376487,"is_reserved":false,"is_disabled":false,"rental_uris":{"android":"levelo://app?vid=6132a412-ad44-4070-82af-5684b840e2f3","ios":"levelo://app?vid=6132a412-ad44-4070-82af-5684b840e2f3"},"vehicle_type_id":"4","last_reported":1706920416,"current_range_meters":27600,"station_id":"ce4bgv92rcd13ifvqcq0","pricing_plan_id":"free"},{"bike_id":"600e6c56-502c-498c-9b74-2ede5b850d18","system_id":"levelo_inurba_marseille","lat":43.307945,"lon":5.376487,"is_reserved":false,"is_disabled":false,"rental_uris":{"android":"levelo://app?vid=600e6c56-502c-498c-9b74-2ede5b850d18","ios":"levelo://app?vid=600e6c56-502c-498c-9b74-2ede5b850d18"},"vehicle_type_id":"4","last_reported":1706920416,"current_range_meters":26800,"station_id":"ce4bgv92rcd13ifvqcq0","pricing_plan_id":"free"},{"bike_id":"e12f6b42-073c-4a91-baaf-d56cab7fbf43","system_id":"levelo_inurba_marseille","lat":43.307945,"lon":5.376487,"is_reserved":false,"is_disabled":false,"rental_uris":{"android":"levelo://app?vid=e12f6b42-073c-4a91-baaf-d56cab7fbf43","ios":"levelo://app?vid=e12f6b42-073c-4a91-baaf-d56cab7fbf43"},"vehicle_type_id":"4","last_reported":1706920416,"current_range_meters":26400,"station_id":"ce4bgv92rcd13ifvqcq0","pricing_plan_id":"free"},{"bike_id":"a0678281-8496-42cc-adcf-2ad65eff5b13","system_id":"levelo_inurba_marseille","lat":43.307945,"lon":5.376487,"is_reserved":false,"is_disabled":false,"rental_uris":{"android":"levelo://app?vid=a0678281-8496-42cc-adcf-2ad65eff5b13","ios":"levelo://app?vid=a0678281-8496-42cc-adcf-2ad65eff5b13"},"vehicle_type_id":"4","last_reported":1706920416,"current_range_meters":18000,"station_id":"ce4bgv92rcd13ifvqcq0","pricing_plan_id":"free"},{"bike_id":"3fd6b355-cd17-4e44-a4ed-1c6a0b48a8ac","system_id":"levelo_inurba_marseille","lat":43.307945,"lon":5.376487,"is_reserved":false,"is_disabled":false,"rental_uris":{"android":"levelo://app?vid=3fd6b355-cd17-4e44-a4ed-1c6a0b48a8ac","ios":"levelo://app?vid=3fd6b355-cd17-4e44-a4ed-1c6a0b48a8ac"},"vehicle_type_id":"4","last_reported":1706920416,"current_range_meters":17600,"station_id":"ce4bgv92rcd13ifvqcq0","pricing_plan_id":"free"},{"bike_id":"956baefa-276e-4952-83b1-dd8a9f77b0d2","system_id":"levelo_inurba_marseille","lat":43.307945,"lon":5.376487,"is_reserved":false,"is_disabled":false,"rental_uris":{"android":"levelo://app?vid=956baefa-276e-4952-83b1-dd8a9f77b0d2","ios":"levelo://app?vid=956baefa-276e-4952-83b1-dd8a9f77b0d2"},"vehicle_type_id":"4","last_reported":1706920416,"current_range_meters":5200,"station_id":"ce4bgv92rcd13ifvqcq0","pricing_plan_id":"free"},{"bike_id":"6c88268f-a2a7-465d-8a0f-f73b9031ffd3","system_id":"levelo_inurba_marseille","lat":43.317075,"lon":5.377367,"is_reserved":false,"is_disabled":false,"rental_uris":{"android":"levelo://app?vid=6c88268f-a2a7-465d-8a0f-f73b9031ffd3","ios":"levelo://app?vid=6c88268f-a2a7-465d-8a0f-f73b9031ffd3"},"vehicle_type_id":"4","last_reported":1706920416,"current_range_meters":0,"station_id":"ce4bgth2rcd13ifvqch0","pricing_plan_id":"free"},{"bike_id":"9c6a3b25-93af-4894-9cf1-28d03c8f8fdc","system_id":"levelo_inurba_marseille","lat":43.317075,"lon":5.377367,"is_reserved":false,"is_disabled":false,"rental_uris":{"android":"levelo://app?vid=9c6a3b25-93af-4894-9cf1-28d03c8f8fdc","ios":"levelo://app?vid=9c6a3b25-93af-4894-9cf1-28d03c8f8fdc"},"vehicle_type_id":"4","last_reported":1706920416,"current_range_meters":19200,"station_id":"ce4bgth2rcd13ifvqch0","pricing_plan_id":"free"},{"bike_id":"999edf58-e3e3-4653-8556-d4cfa02487c2","system_id":"levelo_inurba_marseille","lat":43.317075,"lon":5.377367,"is_reserved":false,"is_disabled":false,"rental_uris":{"android":"levelo://app?vid=999edf58-e3e3-4653-8556-d4cfa02487c2","ios":"levelo://app?vid=999edf58-e3e3-4653-8556-d4cfa02487c2"},"vehicle_type_id":"4","last_reported":1706920416,"current_range_meters":9600,"station_id":"ce4bgth2rcd13ifvqch0","pricing_plan_id":"free"},{"bike_id":"0f833ad1-607f-417a-a09f-4998cd54a18f","system_id":"levelo_inurba_marseille","lat":43.317075,"lon":5.377367,"is_reserved":false,"is_disabled":false,"rental_uris":{"android":"levelo://app?vid=0f833ad1-607f-417a-a09f-4998cd54a18f","ios":"levelo://app?vid=0f833ad1-607f-417a-a09f-4998cd54a18f"},"vehicle_type_id":"4","last_reported":1706920416,"current_range_meters":1600,"station_id":"ce4bgth2rcd13ifvqch0","pricing_plan_id":"free"},{"bike_id":"34fdb250-0572-40fa-92d4-f8127eae1d28","system_id":"levelo_inurba_marseille","lat":43.303047,"lon":5.368882,"is_reserved":false,"is_disabled":false,"rental_uris":{"android":"levelo://app?vid=34fdb250-0572-40fa-92d4-f8127eae1d28","ios":"levelo://app?vid=34fdb250-0572-40fa-92d4-f8127eae1d28"},"vehicle_type_id":"4","last_reported":1706920416,"current_range_meters":28000,"station_id":"ce4bgqh2rcd13ifvqc5g","pricing_plan_id":"free"},{"bike_id":"9c31ac45-5537-416c-93c2-1eba6092fe1b","system_id":"levelo_inurba_marseille","lat":43.30303,"lon":5.36898,"is_reserved":false,"is_disabled":false,"rental_uris":{"android":"levelo://app?vid=9c31ac45-5537-416c-93c2-1eba6092fe1b","ios":"levelo://app?vid=9c31ac45-5537-416c-93c2-1eba6092fe1b"},"vehicle_type_id":"4","last_reported":1706920416,"current_range_meters":15600,"station_id":"ce4bgqh2rcd13ifvqc5g","pricing_plan_id":"free"},{"bike_id":"1a602077-a2da-4c0c-a77b-f923a08d5789","system_id":"levelo_inurba_marseille","lat":43.315293,"lon":5.380349,"is_reserved":false,"is_disabled":false,"rental_uris":{"android":"levelo://app?vid=1a602077-a2da-4c0c-a77b-f923a08d5789","ios":"levelo://app?vid=1a602077-a2da-4c0c-a77b-f923a08d5789"},"vehicle_type_id":"4","last_reported":1706920416,"current_range_meters":29600,"station_id":"ce4bhsp2rcd13ifvqi50","pricing_plan_id":"free"},{"bike_id":"5136f8e6-96ff-4637-a162-6371d2f47280","system_id":"levelo_inurba_marseille","lat":43.301939,"lon":5.366286,"is_reserved":false,"is_disabled":false,"rental_uris":{"android":"levelo://app?vid=5136f8e6-96ff-4637-a162-6371d2f47280","ios":"levelo://app?vid=5136f8e6-96ff-4637-a162-6371d2f47280"},"vehicle_type_id":"4","last_reported":1706920416,"current_range_meters":18400,"station_id":"ce4bgrh2rcd13ifvqc8g","pricing_plan_id":"free"},{"bike_id":"dee0cb43-a459-4229-897e-bbf014a90d4b","system_id":"levelo_inurba_marseille","lat":43.308012,"lon":5.381511,"is_reserved":false,"is_disabled":false,"rental_uris":{"android":"levelo://app?vid=dee0cb43-a459-4229-897e-bbf014a90d4b","ios":"levelo://app?vid=dee0cb43-a459-4229-897e-bbf014a90d4b"},"vehicle_type_id":"4","last_reported":1706920416,"current_range_meters":30000,"station_id":"ce4bgt12rcd13ifvqce0","pricing_plan_id":"free"},{"bike_id":"51529f4e-a52c-49ae-9fa7-2d1a0a08ea65","system_id":"levelo_inurba_marseille","lat":43.308012,"lon":5.381511,"is_reserved":false,"is_disabled":false,"rental_uris":{"android":"levelo://app?vid=51529f4e-a52c-49ae-9fa7-2d1a0a08ea65","ios":"levelo://app?vid=51529f4e-a52c-49ae-9fa7-2d1a0a08ea65"},"vehicle_type_id":"4","last_reported":1706920416,"current_range_meters":2400,"station_id":"ce4bgt12rcd13ifvqce0","pricing_plan_id":"free"},{"bike_id":"3bd9d227-5f2f-463e-a750-cd6e40a9aab7","system_id":"levelo_inurba_marseille","lat":43.308012,"lon":5.381511,"is_reserved":false,"is_disabled":false,"rental_uris":{"android":"levelo://app?vid=3bd9d227-5f2f-463e-a750-cd6e40a9aab7","ios":"levelo://app?vid=3bd9d227-5f2f-463e-a750-cd6e40a9aab7"},"vehicle_type_id":"4","last_reported":1706920416,"current_range_meters":0,"station_id":"ce4bgt12rcd13ifvqce0","pricing_plan_id":"free"},{"bike_id":"d4b22706-fefc-4985-82d5-d8c957a26110","system_id":"levelo_inurba_marseille","lat":43.308012,"lon":5.381511,"is_reserved":false,"is_disabled":false,"rental_uris":{"android":"levelo://app?vid=d4b22706-fefc-4985-82d5-d8c957a26110","ios":"levelo://app?vid=d4b22706-fefc-4985-82d5-d8c957a26110"},"vehicle_type_id":"4","last_reported":1706920416,"current_range_meters":20800,"station_id":"ce4bgt12rcd13ifvqce0","pricing_plan_id":"free"},{"bike_id":"e8d1aec6-bab8-49b7-a80d-b9317baa73d0","system_id":"levelo_inurba_marseille","lat":43.308012,"lon":5.381511,"is_reserved":false,"is_disabled":false,"rental_uris":{"android":"levelo://app?vid=e8d1aec6-bab8-49b7-a80d-b9317baa73d0","ios":"levelo://app?vid=e8d1aec6-bab8-49b7-a80d-b9317baa73d0"},"vehicle_type_id":"4","last_reported":1706920416,"current_range_meters":17200,"station_id":"ce4bgt12rcd13ifvqce0","pricing_plan_id":"free"},{"bike_id":"c88d259f-5732-4b6f-9603-035e462cc0f1","system_id":"levelo_inurba_marseille","lat":43.308012,"lon":5.381511,"is_reserved":false,"is_disabled":false,"rental_uris":{"android":"levelo://app?vid=c88d259f-5732-4b6f-9603-035e462cc0f1","ios":"levelo://app?vid=c88d259f-5732-4b6f-9603-035e462cc0f1"},"vehicle_type_id":"4","last_reported":1706920416,"current_range_meters":28000,"station_id":"ce4bgt12rcd13ifvqce0","pricing_plan_id":"free"},{"bike_id":"497a1534-0350-4b98-bf06-dfbe6111115a","system_id":"levelo_inurba_marseille","lat":43.308012,"lon":5.381511,"is_reserved":false,"is_disabled":false,"rental_uris":{"android":"levelo://app?vid=497a1534-0350-4b98-bf06-dfbe6111115a","ios":"levelo://app?vid=497a1534-0350-4b98-bf06-dfbe6111115a"},"vehicle_type_id":"4","last_reported":1706920416,"current_range_meters":2800,"station_id":"ce4bgt12rcd13ifvqce0","pricing_plan_id":"free"},{"bike_id":"a06538d1-0663-4b35-be4e-a251587d30b5","system_id":"levelo_inurba_marseille","lat":43.308012,"lon":5.381511,"is_reserved":false,"is_disabled":false,"rental_uris":{"android":"levelo://app?vid=a06538d1-0663-4b35-be4e-a251587d30b5","ios":"levelo://app?vid=a06538d1-0663-4b35-be4e-a251587d30b5"},"vehicle_type_id":"4","last_reported":1706920416,"current_range_meters":22000,"station_id":"ce4bgt12rcd13ifvqce0","pricing_plan_id":"free"},{"bike_id":"f0eec09f-aeaf-4940-97c6-acdecdafe6be","system_id":"levelo_inurba_marseille","lat":43.30815,"lon":5.3817,"is_reserved":false,"is_disabled":false,"rental_uris":{"android":"levelo://app?vid=f0eec09f-aeaf-4940-97c6-acdecdafe6be","ios":"levelo://app?vid=f0eec09f-aeaf-4940-97c6-acdecdafe6be"},"vehicle_type_id":"4","last_reported":1706920416,"current_range_meters":11200,"station_id":"ce4bgt12rcd13ifvqce0","pricing_plan_id":"free"},{"bike_id":"431102b2-088e-472f-885e-fa9133b7fe5f","system_id":"levelo_inurba_marseille","lat":43.308012,"lon":5.381511,"is_reserved":false,"is_disabled":false,"rental_uris":{"android":"levelo://app?vid=431102b2-088e-472f-885e-fa9133b7fe5f","ios":"levelo://app?vid=431102b2-088e-472f-885e-fa9133b7fe5f"},"vehicle_type_id":"4","last_reported":1706920416,"current_range_meters":28800,"station_id":"ce4bgt12rcd13ifvqce0","pricing_plan_id":"free"},{"bike_id":"344c94a1-bcea-4c36-96de-a648abdae8ac","system_id":"levelo_inurba_marseille","lat":43.308012,"lon":5.381511,"is_reserved":false,"is_disabled":false,"rental_uris":{"android":"levelo://app?vid=344c94a1-bcea-4c36-96de-a648abdae8ac","ios":"levelo://app?vid=344c94a1-bcea-4c36-96de-a648abdae8ac"},"vehicle_type_id":"4","last_reported":1706920416,"current_range_meters":800,"station_id":"ce4bgt12rcd13ifvqce0","pricing_plan_id":"free"},{"bike_id":"4bd06715-5a93-4da6-b6b5-3ea74de364c3","system_id":"levelo_inurba_marseille","lat":43.308012,"lon":5.381511,"is_reserved":false,"is_disabled":false,"rental_uris":{"android":"levelo://app?vid=4bd06715-5a93-4da6-b6b5-3ea74de364c3","ios":"levelo://app?vid=4bd06715-5a93-4da6-b6b5-3ea74de364c3"},"vehicle_type_id":"4","last_reported":1706920416,"current_range_meters":8400,"station_id":"ce4bgt12rcd13ifvqce0","pricing_plan_id":"free"},{"bike_id":"57fb252d-d3c5-4ef9-a40b-3bc32c5c4345","system_id":"levelo_inurba_marseille","lat":43.304606,"lon":5.379026,"is_reserved":false,"is_disabled":false,"rental_uris":{"android":"levelo://app?vid=57fb252d-d3c5-4ef9-a40b-3bc32c5c4345","ios":"levelo://app?vid=57fb252d-d3c5-4ef9-a40b-3bc32c5c4345"},"vehicle_type_id":"4","last_reported":1706920416,"current_range_meters":0,"station_id":"ce4bgup2rcd13ifvqcn0","pricing_plan_id":"free"},{"bike_id":"9034466f-ff63-4d31-bbf1-3b859850f9a5","system_id":"levelo_inurba_marseille","lat":43.304606,"lon":5.379026,"is_reserved":false,"is_disabled":false,"rental_uris":{"android":"levelo://app?vid=9034466f-ff63-4d31-bbf1-3b859850f9a5","ios":"levelo://app?vid=9034466f-ff63-4d31-bbf1-3b859850f9a5"},"vehicle_type_id":"4","last_reported":1706920416,"current_range_meters":4000,"station_id":"ce4bgup2rcd13ifvqcn0","pricing_plan_id":"free"},{"bike_id":"c829652e-e086-4603-a8a6-0278668b9e64","system_id":"levelo_inurba_marseille","lat":43.310804,"lon":5.38359,"is_reserved":false,"is_disabled":false,"rental_uris":{"android":"levelo://app?vid=c829652e-e086-4603-a8a6-0278668b9e64","ios":"levelo://app?vid=c829652e-e086-4603-a8a6-0278668b9e64"},"vehicle_type_id":"4","last_reported":1706920416,"current_range_meters":15600,"station_id":"ce4bgv92rcd13ifvqcr0","pricing_plan_id":"free"},{"bike_id":"dbf1a8f0-edf9-4392-a6a8-024912b1d2f2","system_id":"levelo_inurba_marseille","lat":43.324771,"lon":5.36557,"is_reserved":false,"is_disabled":false,"rental_uris":{"android":"levelo://app?vid=dbf1a8f0-edf9-4392-a6a8-024912b1d2f2","ios":"levelo://app?vid=dbf1a8f0-edf9-4392-a6a8-024912b1d2f2"},"vehicle_type_id":"4","last_reported":1706920416,"current_range_meters":800,"station_id":"ce4bhs12rcd13ifvqhvg","pricing_plan_id":"free"},{"bike_id":"0c64c26b-90bf-4ea1-97f6-f33cdbcddea9","system_id":"levelo_inurba_marseille","lat":43.302784,"lon":5.377158,"is_reserved":false,"is_disabled":false,"rental_uris":{"android":"levelo://app?vid=0c64c26b-90bf-4ea1-97f6-f33cdbcddea9","ios":"levelo://app?vid=0c64c26b-90bf-4ea1-97f6-f33cdbcddea9"},"vehicle_type_id":"4","last_reported":1706920416,"current_range_meters":0,"station_id":"ce4bguh2rcd13ifvqcj0","pricing_plan_id":"free"},{"bike_id":"3d61fbe9-f0a7-41a6-b416-f31fedf6750d","system_id":"levelo_inurba_marseille","lat":43.302784,"lon":5.377158,"is_reserved":false,"is_disabled":false,"rental_uris":{"android":"levelo://app?vid=3d61fbe9-f0a7-41a6-b416-f31fedf6750d","ios":"levelo://app?vid=3d61fbe9-f0a7-41a6-b416-f31fedf6750d"},"vehicle_type_id":"4","last_reported":1706920416,"current_range_meters":0,"station_id":"ce4bguh2rcd13ifvqcj0","pricing_plan_id":"free"},{"bike_id":"a52e201f-d6ef-49e1-962b-9691dd660968","system_id":"levelo_inurba_marseille","lat":43.302784,"lon":5.377158,"is_reserved":false,"is_disabled":false,"rental_uris":{"android":"levelo://app?vid=a52e201f-d6ef-49e1-962b-9691dd660968","ios":"levelo://app?vid=a52e201f-d6ef-49e1-962b-9691dd660968"},"vehicle_type_id":"4","last_reported":1706920416,"current_range_meters":29600,"station_id":"ce4bguh2rcd13ifvqcj0","pricing_plan_id":"free"},{"bike_id":"b84a0076-24f6-4d7a-83b6-da086d02eec9","system_id":"levelo_inurba_marseille","lat":43.302668,"lon":5.376881,"is_reserved":false,"is_disabled":false,"rental_uris":{"android":"levelo://app?vid=b84a0076-24f6-4d7a-83b6-da086d02eec9","ios":"levelo://app?vid=b84a0076-24f6-4d7a-83b6-da086d02eec9"},"vehicle_type_id":"4","last_reported":1706920416,"current_range_meters":19600,"station_id":"","pricing_plan_id":"free"},{"bike_id":"106a407c-36e6-462b-9265-604bd28d927b","system_id":"levelo_inurba_marseille","lat":43.319935,"lon":5.381699,"is_reserved":false,"is_disabled":false,"rental_uris":{"android":"levelo://app?vid=106a407c-36e6-462b-9265-604bd28d927b","ios":"levelo://app?vid=106a407c-36e6-462b-9265-604bd28d927b"},"vehicle_type_id":"4","last_reported":1706920416,"current_range_meters":13600,"station_id":"ce4bhr12rcd13ifvqhpg","pricing_plan_id":"free"},{"bike_id":"d6c6117f-570d-4943-9f4e-85244eb92b89","system_id":"levelo_inurba_marseille","lat":43.319926,"lon":5.381559,"is_reserved":false,"is_disabled":false,"rental_uris":{"android":"levelo://app?vid=d6c6117f-570d-4943-9f4e-85244eb92b89","ios":"levelo://app?vid=d6c6117f-570d-4943-9f4e-85244eb92b89"},"vehicle_type_id":"4","last_reported":1706920416,"current_range_meters":11200,"station_id":"ce4bhr12rcd13ifvqhpg","pricing_plan_id":"free"},{"bike_id":"c7f9b382-b4d0-4af3-946c-5ac4c8a7fec3","system_id":"levelo_inurba_marseille","lat":43.313571,"lon":5.384829,"is_reserved":false,"is_disabled":false,"rental_uris":{"android":"levelo://app?vid=c7f9b382-b4d0-4af3-946c-5ac4c8a7fec3","ios":"levelo://app?vid=c7f9b382-b4d0-4af3-946c-5ac4c8a7fec3"},"vehicle_type_id":"4","last_reported":1706920416,"current_range_meters":3600,"station_id":"ce4bgt92rcd13ifvqcf0","pricing_plan_id":"free"},{"bike_id":"fc02dd47-3f6c-4370-9ff3-ea2aea38ef40","system_id":"levelo_inurba_marseille","lat":43.313571,"lon":5.384829,"is_reserved":false,"is_disabled":false,"rental_uris":{"android":"levelo://app?vid=fc02dd47-3f6c-4370-9ff3-ea2aea38ef40","ios":"levelo://app?vid=fc02dd47-3f6c-4370-9ff3-ea2aea38ef40"},"vehicle_type_id":"4","last_reported":1706920416,"current_range_meters":22000,"station_id":"ce4bgt92rcd13ifvqcf0","pricing_plan_id":"free"},{"bike_id":"4423e192-b3e7-44d9-ac8b-124416752f38","system_id":"levelo_inurba_marseille","lat":43.313571,"lon":5.384829,"is_reserved":false,"is_disabled":false,"rental_uris":{"android":"levelo://app?vid=4423e192-b3e7-44d9-ac8b-124416752f38","ios":"levelo://app?vid=4423e192-b3e7-44d9-ac8b-124416752f38"},"vehicle_type_id":"4","last_reported":1706920416,"current_range_meters":8400,"station_id":"ce4bgt92rcd13ifvqcf0","pricing_plan_id":"free"},{"bike_id":"dc7eb389-de1d-44d8-91e8-3334ec5a7aa2","system_id":"levelo_inurba_marseille","lat":43.313571,"lon":5.384829,"is_reserved":false,"is_disabled":false,"rental_uris":{"android":"levelo://app?vid=dc7eb389-de1d-44d8-91e8-3334ec5a7aa2","ios":"levelo://app?vid=dc7eb389-de1d-44d8-91e8-3334ec5a7aa2"},"vehicle_type_id":"4","last_reported":1706920416,"current_range_meters":13200,"station_id":"ce4bgt92rcd13ifvqcf0","pricing_plan_id":"free"},{"bike_id":"5134c7a4-0fe6-4671-8ff1-65e0ad508bf7","system_id":"levelo_inurba_marseille","lat":43.313571,"lon":5.384829,"is_reserved":false,"is_disabled":false,"rental_uris":{"android":"levelo://app?vid=5134c7a4-0fe6-4671-8ff1-65e0ad508bf7","ios":"levelo://app?vid=5134c7a4-0fe6-4671-8ff1-65e0ad508bf7"},"vehicle_type_id":"4","last_reported":1706920416,"current_range_meters":14000,"station_id":"ce4bgt92rcd13ifvqcf0","pricing_plan_id":"free"},{"bike_id":"f547c3ed-5f60-4df5-aaa1-417623a366dc","system_id":"levelo_inurba_marseille","lat":43.299724,"lon":5.371829,"is_reserved":false,"is_disabled":false,"rental_uris":{"android":"levelo://app?vid=f547c3ed-5f60-4df5-aaa1-417623a366dc","ios":"levelo://app?vid=f547c3ed-5f60-4df5-aaa1-417623a366dc"},"vehicle_type_id":"4","last_reported":1706920416,"current_range_meters":22000,"station_id":"ce4bgr92rcd13ifvqc7g","pricing_plan_id":"free"},{"bike_id":"d1d44b8d-3b22-4026-a821-9f58f5267b00","system_id":"levelo_inurba_marseille","lat":43.305364,"lon":5.384119,"is_reserved":false,"is_disabled":false,"rental_uris":{"android":"levelo://app?vid=d1d44b8d-3b22-4026-a821-9f58f5267b00","ios":"levelo://app?vid=d1d44b8d-3b22-4026-a821-9f58f5267b00"},"vehicle_type_id":"4","last_reported":1706920416,"current_range_meters":9200,"station_id":"ce4bgg92rcd13ifvqb30","pricing_plan_id":"free"},{"bike_id":"da05af30-572b-45fd-b67e-86362edbf5cc","system_id":"levelo_inurba_marseille","lat":43.30542,"lon":5.38431,"is_reserved":false,"is_disabled":false,"rental_uris":{"android":"levelo://app?vid=da05af30-572b-45fd-b67e-86362edbf5cc","ios":"levelo://app?vid=da05af30-572b-45fd-b67e-86362edbf5cc"},"vehicle_type_id":"4","last_reported":1706920416,"current_range_meters":20400,"station_id":"ce4bgg92rcd13ifvqb30","pricing_plan_id":"free"},{"bike_id":"a28fc4bb-c110-41f8-8e1d-8313bb7a61c6","system_id":"levelo_inurba_marseille","lat":43.311722,"lon":5.387247,"is_reserved":false,"is_disabled":false,"rental_uris":{"android":"levelo://app?vid=a28fc4bb-c110-41f8-8e1d-8313bb7a61c6","ios":"levelo://app?vid=a28fc4bb-c110-41f8-8e1d-8313bb7a61c6"},"vehicle_type_id":"4","last_reported":1706920416,"current_range_meters":17600,"station_id":"ce4bgv12rcd13ifvqcp0","pricing_plan_id":"free"},{"bike_id":"3d4f3d84-51f3-4229-83fe-3be49c001beb","system_id":"levelo_inurba_marseille","lat":43.311707,"lon":5.387095,"is_reserved":false,"is_disabled":false,"rental_uris":{"android":"levelo://app?vid=3d4f3d84-51f3-4229-83fe-3be49c001beb","ios":"levelo://app?vid=3d4f3d84-51f3-4229-83fe-3be49c001beb"},"vehicle_type_id":"4","last_reported":1706920416,"current_range_meters":0,"station_id":"ce4bgv12rcd13ifvqcp0","pricing_plan_id":"free"},{"bike_id":"8081cb9b-9817-4414-8802-7e71f4991282","system_id":"levelo_inurba_marseille","lat":43.311787,"lon":5.387163,"is_reserved":false,"is_disabled":false,"rental_uris":{"android":"levelo://app?vid=8081cb9b-9817-4414-8802-7e71f4991282","ios":"levelo://app?vid=8081cb9b-9817-4414-8802-7e71f4991282"},"vehicle_type_id":"4","last_reported":1706920416,"current_range_meters":0,"station_id":"ce4bgv12rcd13ifvqcp0","pricing_plan_id":"free"},{"bike_id":"9a0a8e5a-77cb-4676-a266-63626aa12076","system_id":"levelo_inurba_marseille","lat":43.31183,"lon":5.38718,"is_reserved":false,"is_disabled":false,"rental_uris":{"android":"levelo://app?vid=9a0a8e5a-77cb-4676-a266-63626aa12076","ios":"levelo://app?vid=9a0a8e5a-77cb-4676-a266-63626aa12076"},"vehicle_type_id":"4","last_reported":1706920416,"current_range_meters":400,"station_id":"ce4bgv12rcd13ifvqcp0","pricing_plan_id":"free"},{"bike_id":"c461a1dc-3ef9-46a5-85af-4bd0180635d4","system_id":"levelo_inurba_marseille","lat":43.311722,"lon":5.387247,"is_reserved":false,"is_disabled":false,"rental_uris":{"android":"levelo://app?vid=c461a1dc-3ef9-46a5-85af-4bd0180635d4","ios":"levelo://app?vid=c461a1dc-3ef9-46a5-85af-4bd0180635d4"},"vehicle_type_id":"4","last_reported":1706920416,"current_range_meters":15600,"station_id":"ce4bgv12rcd13ifvqcp0","pricing_plan_id":"free"},{"bike_id":"b5f59f6e-5f1d-42e5-9589-88a7e8354f6e","system_id":"levelo_inurba_marseille","lat":43.311722,"lon":5.387247,"is_reserved":false,"is_disabled":false,"rental_uris":{"android":"levelo://app?vid=b5f59f6e-5f1d-42e5-9589-88a7e8354f6e","ios":"levelo://app?vid=b5f59f6e-5f1d-42e5-9589-88a7e8354f6e"},"vehicle_type_id":"4","last_reported":1706920416,"current_range_meters":24400,"station_id":"ce4bgv12rcd13ifvqcp0","pricing_plan_id":"free"},{"bike_id":"817fdec0-cdad-4773-97cc-a30c8b8749b0","system_id":"levelo_inurba_marseille","lat":43.311733,"lon":5.387178,"is_reserved":false,"is_disabled":false,"rental_uris":{"android":"levelo://app?vid=817fdec0-cdad-4773-97cc-a30c8b8749b0","ios":"levelo://app?vid=817fdec0-cdad-4773-97cc-a30c8b8749b0"},"vehicle_type_id":"4","last_reported":1706920416,"current_range_meters":17600,"station_id":"ce4bgv12rcd13ifvqcp0","pricing_plan_id":"free"},{"bike_id":"e544a8cb-9126-4c85-a57a-b40c62ba6606","system_id":"levelo_inurba_marseille","lat":43.311722,"lon":5.387247,"is_reserved":false,"is_disabled":false,"rental_uris":{"android":"levelo://app?vid=e544a8cb-9126-4c85-a57a-b40c62ba6606","ios":"levelo://app?vid=e544a8cb-9126-4c85-a57a-b40c62ba6606"},"vehicle_type_id":"4","last_reported":1706920416,"current_range_meters":32000,"station_id":"ce4bgv12rcd13ifvqcp0","pricing_plan_id":"free"},{"bike_id":"fa932f8f-fcac-420c-8595-9eaed6f9528b","system_id":"levelo_inurba_marseille","lat":43.311722,"lon":5.387247,"is_reserved":false,"is_disabled":false,"rental_uris":{"android":"levelo://app?vid=fa932f8f-fcac-420c-8595-9eaed6f9528b","ios":"levelo://app?vid=fa932f8f-fcac-420c-8595-9eaed6f9528b"},"vehicle_type_id":"4","last_reported":1706920416,"current_range_meters":31200,"station_id":"ce4bgv12rcd13ifvqcp0","pricing_plan_id":"free"},{"bike_id":"d630b0ce-2d2a-403f-8c1c-78991c7033e2","system_id":"levelo_inurba_marseille","lat":43.311722,"lon":5.387247,"is_reserved":false,"is_disabled":false,"rental_uris":{"android":"levelo://app?vid=d630b0ce-2d2a-403f-8c1c-78991c7033e2","ios":"levelo://app?vid=d630b0ce-2d2a-403f-8c1c-78991c7033e2"},"vehicle_type_id":"4","last_reported":1706920416,"current_range_meters":26000,"station_id":"ce4bgv12rcd13ifvqcp0","pricing_plan_id":"free"},{"bike_id":"a949a12d-7dee-406d-b3c0-51cbee7cf722","system_id":"levelo_inurba_marseille","lat":43.322872,"lon":5.382756,"is_reserved":false,"is_disabled":false,"rental_uris":{"android":"levelo://app?vid=a949a12d-7dee-406d-b3c0-51cbee7cf722","ios":"levelo://app?vid=a949a12d-7dee-406d-b3c0-51cbee7cf722"},"vehicle_type_id":"4","last_reported":1706920416,"current_range_meters":31200,"station_id":"ce4bhr12rcd13ifvqhqg","pricing_plan_id":"free"},{"bike_id":"c1c821b1-46e9-4095-ab28-696a5cc48552","system_id":"levelo_inurba_marseille","lat":43.322872,"lon":5.382756,"is_reserved":false,"is_disabled":false,"rental_uris":{"android":"levelo://app?vid=c1c821b1-46e9-4095-ab28-696a5cc48552","ios":"levelo://app?vid=c1c821b1-46e9-4095-ab28-696a5cc48552"},"vehicle_type_id":"4","last_reported":1706920416,"current_range_meters":24400,"station_id":"ce4bhr12rcd13ifvqhqg","pricing_plan_id":"free"},{"bike_id":"02e37b27-5863-4c78-9d44-465544029690","system_id":"levelo_inurba_marseille","lat":43.322872,"lon":5.382756,"is_reserved":false,"is_disabled":false,"rental_uris":{"android":"levelo://app?vid=02e37b27-5863-4c78-9d44-465544029690","ios":"levelo://app?vid=02e37b27-5863-4c78-9d44-465544029690"},"vehicle_type_id":"4","last_reported":1706920416,"current_range_meters":31200,"station_id":"ce4bhr12rcd13ifvqhqg","pricing_plan_id":"free"},{"bike_id":"65cdfc14-d57a-452e-8dc5-c02b0bdb56dd","system_id":"levelo_inurba_marseille","lat":43.322872,"lon":5.382756,"is_reserved":false,"is_disabled":false,"rental_uris":{"android":"levelo://app?vid=65cdfc14-d57a-452e-8dc5-c02b0bdb56dd","ios":"levelo://app?vid=65cdfc14-d57a-452e-8dc5-c02b0bdb56dd"},"vehicle_type_id":"4","last_reported":1706920416,"current_range_meters":30400,"station_id":"ce4bhr12rcd13ifvqhqg","pricing_plan_id":"free"},{"bike_id":"b5d7b2cb-266e-4133-b32f-f491e5a88e3f","system_id":"levelo_inurba_marseille","lat":43.322872,"lon":5.382756,"is_reserved":false,"is_disabled":false,"rental_uris":{"android":"levelo://app?vid=b5d7b2cb-266e-4133-b32f-f491e5a88e3f","ios":"levelo://app?vid=b5d7b2cb-266e-4133-b32f-f491e5a88e3f"},"vehicle_type_id":"4","last_reported":1706920416,"current_range_meters":29200,"station_id":"ce4bhr12rcd13ifvqhqg","pricing_plan_id":"free"},{"bike_id":"1900e2ea-9239-49b1-933e-57903fa99707","system_id":"levelo_inurba_marseille","lat":43.32826,"lon":5.36695,"is_reserved":false,"is_disabled":false,"rental_uris":{"android":"levelo://app?vid=1900e2ea-9239-49b1-933e-57903fa99707","ios":"levelo://app?vid=1900e2ea-9239-49b1-933e-57903fa99707"},"vehicle_type_id":"4","last_reported":1706920416,"current_range_meters":16800,"station_id":"ce4bhs92rcd13ifvqi0g","pricing_plan_id":"free"},{"bike_id":"ab22a9f9-4426-4a48-9339-d0847e65fb60","system_id":"levelo_inurba_marseille","lat":43.328371,"lon":5.366909,"is_reserved":false,"is_disabled":false,"rental_uris":{"android":"levelo://app?vid=ab22a9f9-4426-4a48-9339-d0847e65fb60","ios":"levelo://app?vid=ab22a9f9-4426-4a48-9339-d0847e65fb60"},"vehicle_type_id":"4","last_reported":1706920416,"current_range_meters":7200,"station_id":"ce4bhs92rcd13ifvqi0g","pricing_plan_id":"free"},{"bike_id":"a39962a4-199a-40d6-bfce-29ddb7be8e38","system_id":"levelo_inurba_marseille","lat":43.297163,"lon":5.365866,"is_reserved":false,"is_disabled":false,"rental_uris":{"android":"levelo://app?vid=a39962a4-199a-40d6-bfce-29ddb7be8e38","ios":"levelo://app?vid=a39962a4-199a-40d6-bfce-29ddb7be8e38"},"vehicle_type_id":"4","last_reported":1706920416,"current_range_meters":0,"station_id":"ce4bgn12rcd13ifvqbt0","pricing_plan_id":"free"},{"bike_id":"0e3edc85-08a8-40a5-bbe5-93bef71cb7df","system_id":"levelo_inurba_marseille","lat":43.297163,"lon":5.365866,"is_reserved":false,"is_disabled":false,"rental_uris":{"android":"levelo://app?vid=0e3edc85-08a8-40a5-bbe5-93bef71cb7df","ios":"levelo://app?vid=0e3edc85-08a8-40a5-bbe5-93bef71cb7df"},"vehicle_type_id":"4","last_reported":1706920416,"current_range_meters":13600,"station_id":"ce4bgn12rcd13ifvqbt0","pricing_plan_id":"free"},{"bike_id":"f2e6445f-12aa-4c6f-a439-5762371c5951","system_id":"levelo_inurba_marseille","lat":43.2968,"lon":5.37291,"is_reserved":false,"is_disabled":false,"rental_uris":{"android":"levelo://app?vid=f2e6445f-12aa-4c6f-a439-5762371c5951","ios":"levelo://app?vid=f2e6445f-12aa-4c6f-a439-5762371c5951"},"vehicle_type_id":"4","last_reported":1706920416,"current_range_meters":7600,"station_id":"ce4bgk12rcd13ifvqbj0","pricing_plan_id":"free"},{"bike_id":"52c70866-f591-4d0a-8835-0ab4871df964","system_id":"levelo_inurba_marseille","lat":43.2973,"lon":5.37683,"is_reserved":false,"is_disabled":false,"rental_uris":{"android":"levelo://app?vid=52c70866-f591-4d0a-8835-0ab4871df964","ios":"levelo://app?vid=52c70866-f591-4d0a-8835-0ab4871df964"},"vehicle_type_id":"4","last_reported":1706920416,"current_range_meters":0,"station_id":"ce4bgkh2rcd13ifvqbl0","pricing_plan_id":"free"},{"bike_id":"a4fe5056-6774-499a-be3a-0a59e021e33e","system_id":"levelo_inurba_marseille","lat":43.30957,"lon":5.39025,"is_reserved":false,"is_disabled":false,"rental_uris":{"android":"levelo://app?vid=a4fe5056-6774-499a-be3a-0a59e021e33e","ios":"levelo://app?vid=a4fe5056-6774-499a-be3a-0a59e021e33e"},"vehicle_type_id":"4","last_reported":1706920416,"current_range_meters":0,"station_id":"ce4bgup2rcd13ifvqco0","pricing_plan_id":"free"},{"bike_id":"8245f470-223f-4c9e-84c1-8e6833195773","system_id":"levelo_inurba_marseille","lat":43.29916,"lon":5.38158,"is_reserved":false,"is_disabled":false,"rental_uris":{"android":"levelo://app?vid=8245f470-223f-4c9e-84c1-8e6833195773","ios":"levelo://app?vid=8245f470-223f-4c9e-84c1-8e6833195773"},"vehicle_type_id":"4","last_reported":1706920416,"current_range_meters":3600,"station_id":"ce4bgj12rcd13ifvqbc0","pricing_plan_id":"free"},{"bike_id":"6717cb07-a2bf-46d1-ba83-09e9386dc5e6","system_id":"levelo_inurba_marseille","lat":43.317557,"lon":5.390173,"is_reserved":false,"is_disabled":false,"rental_uris":{"android":"levelo://app?vid=6717cb07-a2bf-46d1-ba83-09e9386dc5e6","ios":"levelo://app?vid=6717cb07-a2bf-46d1-ba83-09e9386dc5e6"},"vehicle_type_id":"4","last_reported":1706920416,"current_range_meters":22800,"station_id":"ce4bhqp2rcd13ifvqhng","pricing_plan_id":"free"},{"bike_id":"a58d93ca-bdc9-4969-ad76-287ea92adedb","system_id":"levelo_inurba_marseille","lat":43.317557,"lon":5.390173,"is_reserved":false,"is_disabled":false,"rental_uris":{"android":"levelo://app?vid=a58d93ca-bdc9-4969-ad76-287ea92adedb","ios":"levelo://app?vid=a58d93ca-bdc9-4969-ad76-287ea92adedb"},"vehicle_type_id":"4","last_reported":1706920416,"current_range_meters":31200,"station_id":"ce4bhqp2rcd13ifvqhng","pricing_plan_id":"free"},{"bike_id":"cdd0a5e1-97e9-4609-aa8c-b9db9e70b7f9","system_id":"levelo_inurba_marseille","lat":43.317557,"lon":5.390173,"is_reserved":false,"is_disabled":false,"rental_uris":{"android":"levelo://app?vid=cdd0a5e1-97e9-4609-aa8c-b9db9e70b7f9","ios":"levelo://app?vid=cdd0a5e1-97e9-4609-aa8c-b9db9e70b7f9"},"vehicle_type_id":"4","last_reported":1706920416,"current_range_meters":16800,"station_id":"ce4bhqp2rcd13ifvqhng","pricing_plan_id":"free"},{"bike_id":"106fe314-0813-4817-8722-724f217949ab","system_id":"levelo_inurba_marseille","lat":43.317557,"lon":5.390173,"is_reserved":false,"is_disabled":false,"rental_uris":{"android":"levelo://app?vid=106fe314-0813-4817-8722-724f217949ab","ios":"levelo://app?vid=106fe314-0813-4817-8722-724f217949ab"},"vehicle_type_id":"4","last_reported":1706920416,"current_range_meters":26400,"station_id":"ce4bhqp2rcd13ifvqhng","pricing_plan_id":"free"},{"bike_id":"aaee9df6-2bd3-419f-9a0a-fb04ee96325a","system_id":"levelo_inurba_marseille","lat":43.317557,"lon":5.390173,"is_reserved":false,"is_disabled":false,"rental_uris":{"android":"levelo://app?vid=aaee9df6-2bd3-419f-9a0a-fb04ee96325a","ios":"levelo://app?vid=aaee9df6-2bd3-419f-9a0a-fb04ee96325a"},"vehicle_type_id":"4","last_reported":1706920416,"current_range_meters":31600,"station_id":"ce4bhqp2rcd13ifvqhng","pricing_plan_id":"free"},{"bike_id":"86eba5ee-3f3e-465e-879d-a26eca611b6f","system_id":"levelo_inurba_marseille","lat":43.319148,"lon":5.38987,"is_reserved":false,"is_disabled":false,"rental_uris":{"android":"levelo://app?vid=86eba5ee-3f3e-465e-879d-a26eca611b6f","ios":"levelo://app?vid=86eba5ee-3f3e-465e-879d-a26eca611b6f"},"vehicle_type_id":"4","last_reported":1706920416,"current_range_meters":24000,"station_id":"","pricing_plan_id":"free"},{"bike_id":"01238596-68b2-47e8-97f0-38db546f1109","system_id":"levelo_inurba_marseille","lat":43.295279,"lon":5.375048,"is_reserved":false,"is_disabled":false,"rental_uris":{"android":"levelo://app?vid=01238596-68b2-47e8-97f0-38db546f1109","ios":"levelo://app?vid=01238596-68b2-47e8-97f0-38db546f1109"},"vehicle_type_id":"4","last_reported":1706920416,"current_range_meters":16000,"station_id":"ce4bgkp2rcd13ifvqbmg","pricing_plan_id":"free"},{"bike_id":"bd7baa57-26d7-4c18-b549-ec7ad71dded2","system_id":"levelo_inurba_marseille","lat":43.311036,"lon":5.393274,"is_reserved":false,"is_disabled":false,"rental_uris":{"android":"levelo://app?vid=bd7baa57-26d7-4c18-b549-ec7ad71dded2","ios":"levelo://app?vid=bd7baa57-26d7-4c18-b549-ec7ad71dded2"},"vehicle_type_id":"4","last_reported":1706920416,"current_range_meters":2000,"station_id":"","pricing_plan_id":"free"},{"bike_id":"2f639903-b097-46b0-8494-0017af56b0e6","system_id":"levelo_inurba_marseille","lat":43.323659,"lon":5.388754,"is_reserved":false,"is_disabled":false,"rental_uris":{"android":"levelo://app?vid=2f639903-b097-46b0-8494-0017af56b0e6","ios":"levelo://app?vid=2f639903-b097-46b0-8494-0017af56b0e6"},"vehicle_type_id":"4","last_reported":1706920416,"current_range_meters":20000,"station_id":"ce4bhqp2rcd13ifvqhog","pricing_plan_id":"free"},{"bike_id":"11d92546-2528-492a-a49e-9a0a5d945886","system_id":"levelo_inurba_marseille","lat":43.32365,"lon":5.38878,"is_reserved":false,"is_disabled":false,"rental_uris":{"android":"levelo://app?vid=11d92546-2528-492a-a49e-9a0a5d945886","ios":"levelo://app?vid=11d92546-2528-492a-a49e-9a0a5d945886"},"vehicle_type_id":"4","last_reported":1706920416,"current_range_meters":7600,"station_id":"ce4bhqp2rcd13ifvqhog","pricing_plan_id":"free"},{"bike_id":"81b0db2a-d7d3-47f0-a95d-ba7da6ca0e0e","system_id":"levelo_inurba_marseille","lat":43.32365,"lon":5.38882,"is_reserved":false,"is_disabled":false,"rental_uris":{"android":"levelo://app?vid=81b0db2a-d7d3-47f0-a95d-ba7da6ca0e0e","ios":"levelo://app?vid=81b0db2a-d7d3-47f0-a95d-ba7da6ca0e0e"},"vehicle_type_id":"4","last_reported":1706920416,"current_range_meters":0,"station_id":"ce4bhqp2rcd13ifvqhog","pricing_plan_id":"free"},{"bike_id":"2867005b-b9b0-4312-8b91-edb88d7a8842","system_id":"levelo_inurba_marseille","lat":43.32362,"lon":5.38886,"is_reserved":false,"is_disabled":false,"rental_uris":{"android":"levelo://app?vid=2867005b-b9b0-4312-8b91-edb88d7a8842","ios":"levelo://app?vid=2867005b-b9b0-4312-8b91-edb88d7a8842"},"vehicle_type_id":"4","last_reported":1706920416,"current_range_meters":0,"station_id":"ce4bhqp2rcd13ifvqhog","pricing_plan_id":"free"},{"bike_id":"522745f2-6505-4a93-9a55-5c66eaece61d","system_id":"levelo_inurba_marseille","lat":43.32366,"lon":5.38884,"is_reserved":false,"is_disabled":false,"rental_uris":{"android":"levelo://app?vid=522745f2-6505-4a93-9a55-5c66eaece61d","ios":"levelo://app?vid=522745f2-6505-4a93-9a55-5c66eaece61d"},"vehicle_type_id":"4","last_reported":1706920416,"current_range_meters":4800,"station_id":"ce4bhqp2rcd13ifvqhog","pricing_plan_id":"free"},{"bike_id":"e3ee28ba-cab5-40e7-ba5c-728151521cef","system_id":"levelo_inurba_marseille","lat":43.32366,"lon":5.38884,"is_reserved":false,"is_disabled":false,"rental_uris":{"android":"levelo://app?vid=e3ee28ba-cab5-40e7-ba5c-728151521cef","ios":"levelo://app?vid=e3ee28ba-cab5-40e7-ba5c-728151521cef"},"vehicle_type_id":"4","last_reported":1706920416,"current_range_meters":9600,"station_id":"ce4bhqp2rcd13ifvqhog","pricing_plan_id":"free"},{"bike_id":"80aebc65-9276-4106-9147-2143e4c2833e","system_id":"levelo_inurba_marseille","lat":43.32363,"lon":5.38888,"is_reserved":false,"is_disabled":false,"rental_uris":{"android":"levelo://app?vid=80aebc65-9276-4106-9147-2143e4c2833e","ios":"levelo://app?vid=80aebc65-9276-4106-9147-2143e4c2833e"},"vehicle_type_id":"4","last_reported":1706920416,"current_range_meters":9600,"station_id":"ce4bhqp2rcd13ifvqhog","pricing_plan_id":"free"},{"bike_id":"1aca591f-66c1-4cab-8b35-fdb227e8bbbc","system_id":"levelo_inurba_marseille","lat":43.32367,"lon":5.388836,"is_reserved":false,"is_disabled":false,"rental_uris":{"android":"levelo://app?vid=1aca591f-66c1-4cab-8b35-fdb227e8bbbc","ios":"levelo://app?vid=1aca591f-66c1-4cab-8b35-fdb227e8bbbc"},"vehicle_type_id":"4","last_reported":1706920416,"current_range_meters":0,"station_id":"ce4bhqp2rcd13ifvqhog","pricing_plan_id":"free"},{"bike_id":"e9bd7903-759a-4bfd-8309-cca8a10e6211","system_id":"levelo_inurba_marseille","lat":43.32369,"lon":5.38883,"is_reserved":false,"is_disabled":false,"rental_uris":{"android":"levelo://app?vid=e9bd7903-759a-4bfd-8309-cca8a10e6211","ios":"levelo://app?vid=e9bd7903-759a-4bfd-8309-cca8a10e6211"},"vehicle_type_id":"4","last_reported":1706920416,"current_range_meters":12000,"station_id":"ce4bhqp2rcd13ifvqhog","pricing_plan_id":"free"},{"bike_id":"e512050a-6529-4225-a927-b67d6c06029f","system_id":"levelo_inurba_marseille","lat":43.32369,"lon":5.388835,"is_reserved":false,"is_disabled":false,"rental_uris":{"android":"levelo://app?vid=e512050a-6529-4225-a927-b67d6c06029f","ios":"levelo://app?vid=e512050a-6529-4225-a927-b67d6c06029f"},"vehicle_type_id":"4","last_reported":1706920416,"current_range_meters":0,"station_id":"ce4bhqp2rcd13ifvqhog","pricing_plan_id":"free"},{"bike_id":"a763ba73-be1b-47fe-b1b9-a14bd81f3a01","system_id":"levelo_inurba_marseille","lat":43.32367,"lon":5.388836,"is_reserved":false,"is_disabled":false,"rental_uris":{"android":"levelo://app?vid=a763ba73-be1b-47fe-b1b9-a14bd81f3a01","ios":"levelo://app?vid=a763ba73-be1b-47fe-b1b9-a14bd81f3a01"},"vehicle_type_id":"4","last_reported":1706920416,"current_range_meters":22400,"station_id":"ce4bhqp2rcd13ifvqhog","pricing_plan_id":"free"},{"bike_id":"cabe25cb-ec0b-4dc3-8feb-44741e6dd484","system_id":"levelo_inurba_marseille","lat":43.323687,"lon":5.388876,"is_reserved":false,"is_disabled":false,"rental_uris":{"android":"levelo://app?vid=cabe25cb-ec0b-4dc3-8feb-44741e6dd484","ios":"levelo://app?vid=cabe25cb-ec0b-4dc3-8feb-44741e6dd484"},"vehicle_type_id":"4","last_reported":1706920416,"current_range_meters":5600,"station_id":"ce4bhqp2rcd13ifvqhog","pricing_plan_id":"free"},{"bike_id":"44412611-1df1-41d1-a1a2-71e4de692709","system_id":"levelo_inurba_marseille","lat":43.3237,"lon":5.388868,"is_reserved":false,"is_disabled":false,"rental_uris":{"android":"levelo://app?vid=44412611-1df1-41d1-a1a2-71e4de692709","ios":"levelo://app?vid=44412611-1df1-41d1-a1a2-71e4de692709"},"vehicle_type_id":"4","last_reported":1706920416,"current_range_meters":22800,"station_id":"ce4bhqp2rcd13ifvqhog","pricing_plan_id":"free"},{"bike_id":"13b9c551-9d4a-4e3d-8b94-3ec930896106","system_id":"levelo_inurba_marseille","lat":43.323662,"lon":5.388918,"is_reserved":false,"is_disabled":false,"rental_uris":{"android":"levelo://app?vid=13b9c551-9d4a-4e3d-8b94-3ec930896106","ios":"levelo://app?vid=13b9c551-9d4a-4e3d-8b94-3ec930896106"},"vehicle_type_id":"4","last_reported":1706920416,"current_range_meters":1600,"station_id":"ce4bhqp2rcd13ifvqhog","pricing_plan_id":"free"},{"bike_id":"9ffa8d96-0e7f-4588-b025-6311387f91b4","system_id":"levelo_inurba_marseille","lat":43.292724,"lon":5.368365,"is_reserved":false,"is_disabled":false,"rental_uris":{"android":"levelo://app?vid=9ffa8d96-0e7f-4588-b025-6311387f91b4","ios":"levelo://app?vid=9ffa8d96-0e7f-4588-b025-6311387f91b4"},"vehicle_type_id":"4","last_reported":1706920416,"current_range_meters":0,"station_id":"ce4bhbp2rcd13ifvqesg","pricing_plan_id":"free"},{"bike_id":"7e6db439-387c-4e86-aab4-02e8c05b2712","system_id":"levelo_inurba_marseille","lat":43.29301,"lon":5.37448,"is_reserved":false,"is_disabled":false,"rental_uris":{"android":"levelo://app?vid=7e6db439-387c-4e86-aab4-02e8c05b2712","ios":"levelo://app?vid=7e6db439-387c-4e86-aab4-02e8c05b2712"},"vehicle_type_id":"4","last_reported":1706920416,"current_range_meters":0,"station_id":"ce4bgi12rcd13ifvqb70","pricing_plan_id":"free"},{"bike_id":"bcab7625-d36c-4095-83f1-59795927cc64","system_id":"levelo_inurba_marseille","lat":43.292886,"lon":5.374588,"is_reserved":false,"is_disabled":false,"rental_uris":{"android":"levelo://app?vid=bcab7625-d36c-4095-83f1-59795927cc64","ios":"levelo://app?vid=bcab7625-d36c-4095-83f1-59795927cc64"},"vehicle_type_id":"4","last_reported":1706920416,"current_range_meters":0,"station_id":"ce4bgi12rcd13ifvqb70","pricing_plan_id":"free"},{"bike_id":"1697a2a8-14d1-4af6-ab37-19fa143c3b82","system_id":"levelo_inurba_marseille","lat":43.292103,"lon":5.36886,"is_reserved":false,"is_disabled":false,"rental_uris":{"android":"levelo://app?vid=1697a2a8-14d1-4af6-ab37-19fa143c3b82","ios":"levelo://app?vid=1697a2a8-14d1-4af6-ab37-19fa143c3b82"},"vehicle_type_id":"4","last_reported":1706920416,"current_range_meters":0,"station_id":"","pricing_plan_id":"free"},{"bike_id":"f2e88520-b681-4264-9f90-fe5ed71c08d7","system_id":"levelo_inurba_marseille","lat":43.300852,"lon":5.390859,"is_reserved":false,"is_disabled":false,"rental_uris":{"android":"levelo://app?vid=f2e88520-b681-4264-9f90-fe5ed71c08d7","ios":"levelo://app?vid=f2e88520-b681-4264-9f90-fe5ed71c08d7"},"vehicle_type_id":"4","last_reported":1706920416,"current_range_meters":22000,"station_id":"ce4bh192rcd13ifvqdb0","pricing_plan_id":"free"},{"bike_id":"a554000c-f8c3-42d1-938a-5cc1a886fb28","system_id":"levelo_inurba_marseille","lat":43.291738,"lon":5.371637,"is_reserved":false,"is_disabled":false,"rental_uris":{"android":"levelo://app?vid=a554000c-f8c3-42d1-938a-5cc1a886fb28","ios":"levelo://app?vid=a554000c-f8c3-42d1-938a-5cc1a886fb28"},"vehicle_type_id":"4","last_reported":1706920416,"current_range_meters":0,"station_id":"ce4bha92rcd13ifvqeh0","pricing_plan_id":"free"},{"bike_id":"0f6c4419-7854-4df8-b95a-411ef15b5051","system_id":"levelo_inurba_marseille","lat":43.308853,"lon":5.396313,"is_reserved":false,"is_disabled":false,"rental_uris":{"android":"levelo://app?vid=0f6c4419-7854-4df8-b95a-411ef15b5051","ios":"levelo://app?vid=0f6c4419-7854-4df8-b95a-411ef15b5051"},"vehicle_type_id":"4","last_reported":1706920416,"current_range_meters":0,"station_id":"ce4bh012rcd13ifvqcv0","pricing_plan_id":"free"},{"bike_id":"ef246586-2568-4424-80eb-794800e614d7","system_id":"levelo_inurba_marseille","lat":43.291994,"lon":5.357886,"is_reserved":false,"is_disabled":false,"rental_uris":{"android":"levelo://app?vid=ef246586-2568-4424-80eb-794800e614d7","ios":"levelo://app?vid=ef246586-2568-4424-80eb-794800e614d7"},"vehicle_type_id":"4","last_reported":1706920416,"current_range_meters":0,"station_id":"ce4bhb12rcd13ifvqel0","pricing_plan_id":"free"},{"bike_id":"a4547af4-8ec7-47ea-a3d3-5a57d51a742f","system_id":"levelo_inurba_marseille","lat":43.308943,"lon":5.396364,"is_reserved":false,"is_disabled":false,"rental_uris":{"android":"levelo://app?vid=a4547af4-8ec7-47ea-a3d3-5a57d51a742f","ios":"levelo://app?vid=a4547af4-8ec7-47ea-a3d3-5a57d51a742f"},"vehicle_type_id":"4","last_reported":1706920416,"current_range_meters":22400,"station_id":"ce4bh012rcd13ifvqcv0","pricing_plan_id":"free"},{"bike_id":"4fa92898-a8db-48e5-8063-ffcbd73e576f","system_id":"levelo_inurba_marseille","lat":43.308943,"lon":5.396367,"is_reserved":false,"is_disabled":false,"rental_uris":{"android":"levelo://app?vid=4fa92898-a8db-48e5-8063-ffcbd73e576f","ios":"levelo://app?vid=4fa92898-a8db-48e5-8063-ffcbd73e576f"},"vehicle_type_id":"4","last_reported":1706920416,"current_range_meters":4000,"station_id":"ce4bh012rcd13ifvqcv0","pricing_plan_id":"free"},{"bike_id":"c621328d-fe6f-496a-ba67-af6e2ccae257","system_id":"levelo_inurba_marseille","lat":43.308873,"lon":5.39636,"is_reserved":false,"is_disabled":false,"rental_uris":{"android":"levelo://app?vid=c621328d-fe6f-496a-ba67-af6e2ccae257","ios":"levelo://app?vid=c621328d-fe6f-496a-ba67-af6e2ccae257"},"vehicle_type_id":"4","last_reported":1706920416,"current_range_meters":15600,"station_id":"ce4bh012rcd13ifvqcv0","pricing_plan_id":"free"},{"bike_id":"d3dccefa-b8bd-4418-8224-c50ac69270cb","system_id":"levelo_inurba_marseille","lat":43.3089,"lon":5.39637,"is_reserved":false,"is_disabled":false,"rental_uris":{"android":"levelo://app?vid=d3dccefa-b8bd-4418-8224-c50ac69270cb","ios":"levelo://app?vid=d3dccefa-b8bd-4418-8224-c50ac69270cb"},"vehicle_type_id":"4","last_reported":1706920416,"current_range_meters":3200,"station_id":"ce4bh012rcd13ifvqcv0","pricing_plan_id":"free"},{"bike_id":"d2d2d962-d13f-47c6-bca5-e63cb852a68f","system_id":"levelo_inurba_marseille","lat":43.30888,"lon":5.396378,"is_reserved":false,"is_disabled":false,"rental_uris":{"android":"levelo://app?vid=d2d2d962-d13f-47c6-bca5-e63cb852a68f","ios":"levelo://app?vid=d2d2d962-d13f-47c6-bca5-e63cb852a68f"},"vehicle_type_id":"4","last_reported":1706920416,"current_range_meters":13200,"station_id":"ce4bh012rcd13ifvqcv0","pricing_plan_id":"free"},{"bike_id":"cf225569-58ad-4df6-970e-ada45ec3143e","system_id":"levelo_inurba_marseille","lat":43.308873,"lon":5.396377,"is_reserved":false,"is_disabled":false,"rental_uris":{"android":"levelo://app?vid=cf225569-58ad-4df6-970e-ada45ec3143e","ios":"levelo://app?vid=cf225569-58ad-4df6-970e-ada45ec3143e"},"vehicle_type_id":"4","last_reported":1706920416,"current_range_meters":25200,"station_id":"ce4bh012rcd13ifvqcv0","pricing_plan_id":"free"},{"bike_id":"4a2ef070-db7f-4c4b-bc9c-0dbaf1163ad8","system_id":"levelo_inurba_marseille","lat":43.309038,"lon":5.396546,"is_reserved":false,"is_disabled":false,"rental_uris":{"android":"levelo://app?vid=4a2ef070-db7f-4c4b-bc9c-0dbaf1163ad8","ios":"levelo://app?vid=4a2ef070-db7f-4c4b-bc9c-0dbaf1163ad8"},"vehicle_type_id":"4","last_reported":1706920416,"current_range_meters":19600,"station_id":"ce4bh012rcd13ifvqcv0","pricing_plan_id":"free"},{"bike_id":"3ba2872f-a95a-445f-91a3-131e0bab4433","system_id":"levelo_inurba_marseille","lat":43.30895,"lon":5.39642,"is_reserved":false,"is_disabled":false,"rental_uris":{"android":"levelo://app?vid=3ba2872f-a95a-445f-91a3-131e0bab4433","ios":"levelo://app?vid=3ba2872f-a95a-445f-91a3-131e0bab4433"},"vehicle_type_id":"4","last_reported":1706920416,"current_range_meters":6400,"station_id":"ce4bh012rcd13ifvqcv0","pricing_plan_id":"free"},{"bike_id":"ef0296ce-d328-42dc-b3c9-b712a9adeb80","system_id":"levelo_inurba_marseille","lat":43.30892,"lon":5.39642,"is_reserved":false,"is_disabled":false,"rental_uris":{"android":"levelo://app?vid=ef0296ce-d328-42dc-b3c9-b712a9adeb80","ios":"levelo://app?vid=ef0296ce-d328-42dc-b3c9-b712a9adeb80"},"vehicle_type_id":"4","last_reported":1706920416,"current_range_meters":14800,"station_id":"ce4bh012rcd13ifvqcv0","pricing_plan_id":"free"},{"bike_id":"8f6d25c4-5720-49e2-901c-58b7ad6d9c8f","system_id":"levelo_inurba_marseille","lat":43.308867,"lon":5.396413,"is_reserved":false,"is_disabled":false,"rental_uris":{"android":"levelo://app?vid=8f6d25c4-5720-49e2-901c-58b7ad6d9c8f","ios":"levelo://app?vid=8f6d25c4-5720-49e2-901c-58b7ad6d9c8f"},"vehicle_type_id":"4","last_reported":1706920416,"current_range_meters":20800,"station_id":"ce4bh012rcd13ifvqcv0","pricing_plan_id":"free"},{"bike_id":"3988e5bf-8ff9-428c-9c02-1ae20e73638b","system_id":"levelo_inurba_marseille","lat":43.313291,"lon":5.396838,"is_reserved":false,"is_disabled":false,"rental_uris":{"android":"levelo://app?vid=3988e5bf-8ff9-428c-9c02-1ae20e73638b","ios":"levelo://app?vid=3988e5bf-8ff9-428c-9c02-1ae20e73638b"},"vehicle_type_id":"4","last_reported":1706920416,"current_range_meters":22800,"station_id":"ce4bgvp2rcd13ifvqcu0","pricing_plan_id":"free"},{"bike_id":"94549a1c-392b-4389-9513-b7fd6987b023","system_id":"levelo_inurba_marseille","lat":43.313291,"lon":5.396838,"is_reserved":false,"is_disabled":false,"rental_uris":{"android":"levelo://app?vid=94549a1c-392b-4389-9513-b7fd6987b023","ios":"levelo://app?vid=94549a1c-392b-4389-9513-b7fd6987b023"},"vehicle_type_id":"4","last_reported":1706920416,"current_range_meters":22800,"station_id":"ce4bgvp2rcd13ifvqcu0","pricing_plan_id":"free"},{"bike_id":"f4ba1029-0104-436a-be6e-bd8a157def75","system_id":"levelo_inurba_marseille","lat":43.308877,"lon":5.396429,"is_reserved":false,"is_disabled":false,"rental_uris":{"android":"levelo://app?vid=f4ba1029-0104-436a-be6e-bd8a157def75","ios":"levelo://app?vid=f4ba1029-0104-436a-be6e-bd8a157def75"},"vehicle_type_id":"4","last_reported":1706920416,"current_range_meters":2000,"station_id":"ce4bh012rcd13ifvqcv0","pricing_plan_id":"free"},{"bike_id":"b3ed5382-089e-453a-931e-cc89cc782f04","system_id":"levelo_inurba_marseille","lat":43.313291,"lon":5.396838,"is_reserved":false,"is_disabled":false,"rental_uris":{"android":"levelo://app?vid=b3ed5382-089e-453a-931e-cc89cc782f04","ios":"levelo://app?vid=b3ed5382-089e-453a-931e-cc89cc782f04"},"vehicle_type_id":"4","last_reported":1706920416,"current_range_meters":20400,"station_id":"ce4bgvp2rcd13ifvqcu0","pricing_plan_id":"free"},{"bike_id":"684472ef-5a4a-42fe-9e4a-0df2b26abec7","system_id":"levelo_inurba_marseille","lat":43.30893,"lon":5.39645,"is_reserved":false,"is_disabled":false,"rental_uris":{"android":"levelo://app?vid=684472ef-5a4a-42fe-9e4a-0df2b26abec7","ios":"levelo://app?vid=684472ef-5a4a-42fe-9e4a-0df2b26abec7"},"vehicle_type_id":"4","last_reported":1706920416,"current_range_meters":6000,"station_id":"ce4bh012rcd13ifvqcv0","pricing_plan_id":"free"},{"bike_id":"153d62be-1970-4dee-860b-1f5d32ec0ccf","system_id":"levelo_inurba_marseille","lat":43.308983,"lon":5.396483,"is_reserved":false,"is_disabled":false,"rental_uris":{"android":"levelo://app?vid=153d62be-1970-4dee-860b-1f5d32ec0ccf","ios":"levelo://app?vid=153d62be-1970-4dee-860b-1f5d32ec0ccf"},"vehicle_type_id":"4","last_reported":1706920416,"current_range_meters":23600,"station_id":"ce4bh012rcd13ifvqcv0","pricing_plan_id":"free"},{"bike_id":"503eabd9-d11d-447d-82e1-1dd32d594b2c","system_id":"levelo_inurba_marseille","lat":43.313291,"lon":5.396838,"is_reserved":false,"is_disabled":false,"rental_uris":{"android":"levelo://app?vid=503eabd9-d11d-447d-82e1-1dd32d594b2c","ios":"levelo://app?vid=503eabd9-d11d-447d-82e1-1dd32d594b2c"},"vehicle_type_id":"4","last_reported":1706920416,"current_range_meters":30400,"station_id":"ce4bgvp2rcd13ifvqcu0","pricing_plan_id":"free"},{"bike_id":"949bfd27-a71b-4a84-a6c4-303ca5447557","system_id":"levelo_inurba_marseille","lat":43.308934,"lon":5.396488,"is_reserved":false,"is_disabled":false,"rental_uris":{"android":"levelo://app?vid=949bfd27-a71b-4a84-a6c4-303ca5447557","ios":"levelo://app?vid=949bfd27-a71b-4a84-a6c4-303ca5447557"},"vehicle_type_id":"4","last_reported":1706920416,"current_range_meters":17600,"station_id":"ce4bh012rcd13ifvqcv0","pricing_plan_id":"free"},{"bike_id":"7ef67463-6302-4e52-8abd-98184a442b92","system_id":"levelo_inurba_marseille","lat":43.30894,"lon":5.39649,"is_reserved":false,"is_disabled":false,"rental_uris":{"android":"levelo://app?vid=7ef67463-6302-4e52-8abd-98184a442b92","ios":"levelo://app?vid=7ef67463-6302-4e52-8abd-98184a442b92"},"vehicle_type_id":"4","last_reported":1706920416,"current_range_meters":4400,"station_id":"ce4bh012rcd13ifvqcv0","pricing_plan_id":"free"},{"bike_id":"2a2e6507-acec-4233-b32d-38cfc6a35f67","system_id":"levelo_inurba_marseille","lat":43.313291,"lon":5.396838,"is_reserved":false,"is_disabled":false,"rental_uris":{"android":"levelo://app?vid=2a2e6507-acec-4233-b32d-38cfc6a35f67","ios":"levelo://app?vid=2a2e6507-acec-4233-b32d-38cfc6a35f67"},"vehicle_type_id":"4","last_reported":1706920416,"current_range_meters":7600,"station_id":"ce4bgvp2rcd13ifvqcu0","pricing_plan_id":"free"},{"bike_id":"3792550a-6d0e-4337-93b2-cb2fdc4136bf","system_id":"levelo_inurba_marseille","lat":43.313291,"lon":5.396838,"is_reserved":false,"is_disabled":false,"rental_uris":{"android":"levelo://app?vid=3792550a-6d0e-4337-93b2-cb2fdc4136bf","ios":"levelo://app?vid=3792550a-6d0e-4337-93b2-cb2fdc4136bf"},"vehicle_type_id":"4","last_reported":1706920416,"current_range_meters":4800,"station_id":"ce4bgvp2rcd13ifvqcu0","pricing_plan_id":"free"},{"bike_id":"aceb6d8b-63c6-4723-888f-e7774e512ec4","system_id":"levelo_inurba_marseille","lat":43.308806,"lon":5.39647,"is_reserved":false,"is_disabled":false,"rental_uris":{"android":"levelo://app?vid=aceb6d8b-63c6-4723-888f-e7774e512ec4","ios":"levelo://app?vid=aceb6d8b-63c6-4723-888f-e7774e512ec4"},"vehicle_type_id":"4","last_reported":1706920416,"current_range_meters":9200,"station_id":"ce4bh012rcd13ifvqcv0","pricing_plan_id":"free"},{"bike_id":"455b2690-7d94-446a-ab51-272bdbe00548","system_id":"levelo_inurba_marseille","lat":43.3089,"lon":5.39652,"is_reserved":false,"is_disabled":false,"rental_uris":{"android":"levelo://app?vid=455b2690-7d94-446a-ab51-272bdbe00548","ios":"levelo://app?vid=455b2690-7d94-446a-ab51-272bdbe00548"},"vehicle_type_id":"4","last_reported":1706920416,"current_range_meters":7600,"station_id":"ce4bh012rcd13ifvqcv0","pricing_plan_id":"free"},{"bike_id":"f61e86c3-399f-401b-89ee-b3a93e9ff044","system_id":"levelo_inurba_marseille","lat":43.313291,"lon":5.396838,"is_reserved":false,"is_disabled":false,"rental_uris":{"android":"levelo://app?vid=f61e86c3-399f-401b-89ee-b3a93e9ff044","ios":"levelo://app?vid=f61e86c3-399f-401b-89ee-b3a93e9ff044"},"vehicle_type_id":"4","last_reported":1706920416,"current_range_meters":9200,"station_id":"ce4bgvp2rcd13ifvqcu0","pricing_plan_id":"free"},{"bike_id":"100ce5bf-e70c-4bab-8256-0d8c083dc513","system_id":"levelo_inurba_marseille","lat":43.29529,"lon":5.385581,"is_reserved":false,"is_disabled":false,"rental_uris":{"android":"levelo://app?vid=100ce5bf-e70c-4bab-8256-0d8c083dc513","ios":"levelo://app?vid=100ce5bf-e70c-4bab-8256-0d8c083dc513"},"vehicle_type_id":"4","last_reported":1706920416,"current_range_meters":1200,"station_id":"ce4bgih2rcd13ifvqba0","pricing_plan_id":"free"},{"bike_id":"1e9ea0b5-85d6-41f9-a868-746e35e3f7d9","system_id":"levelo_inurba_marseille","lat":43.29529,"lon":5.385581,"is_reserved":false,"is_disabled":false,"rental_uris":{"android":"levelo://app?vid=1e9ea0b5-85d6-41f9-a868-746e35e3f7d9","ios":"levelo://app?vid=1e9ea0b5-85d6-41f9-a868-746e35e3f7d9"},"vehicle_type_id":"4","last_reported":1706920416,"current_range_meters":2400,"station_id":"ce4bgih2rcd13ifvqba0","pricing_plan_id":"free"},{"bike_id":"7431b7cf-2d51-418d-bff3-393d656a6a75","system_id":"levelo_inurba_marseille","lat":43.29041,"lon":5.399634,"is_reserved":false,"is_disabled":false,"rental_uris":{"android":"levelo://app?vid=7431b7cf-2d51-418d-bff3-393d656a6a75","ios":"levelo://app?vid=7431b7cf-2d51-418d-bff3-393d656a6a75"},"vehicle_type_id":"4","last_reported":1706920416,"current_range_meters":12000,"station_id":"ce4bh392rcd13ifvqdm0","pricing_plan_id":"free"},{"bike_id":"d8b4ce45-2497-4ddc-bcc9-70cf2a4ee16c","system_id":"levelo_inurba_marseille","lat":43.302759,"lon":5.400793,"is_reserved":false,"is_disabled":false,"rental_uris":{"android":"levelo://app?vid=d8b4ce45-2497-4ddc-bcc9-70cf2a4ee16c","ios":"levelo://app?vid=d8b4ce45-2497-4ddc-bcc9-70cf2a4ee16c"},"vehicle_type_id":"4","last_reported":1706920416,"current_range_meters":2800,"station_id":"ce4bgvh2rcd13ifvqcs0","pricing_plan_id":"free"},{"bike_id":"c45b5750-73d6-4834-b834-33b2d0638e74","system_id":"levelo_inurba_marseille","lat":43.290631,"lon":5.359244,"is_reserved":false,"is_disabled":false,"rental_uris":{"android":"levelo://app?vid=c45b5750-73d6-4834-b834-33b2d0638e74","ios":"levelo://app?vid=c45b5750-73d6-4834-b834-33b2d0638e74"},"vehicle_type_id":"4","last_reported":1706920416,"current_range_meters":15600,"station_id":"ce4bha92rcd13ifvqeg0","pricing_plan_id":"free"},{"bike_id":"7c755874-04f4-49a7-881c-3dccfea2f0df","system_id":"levelo_inurba_marseille","lat":43.290441,"lon":5.359123,"is_reserved":false,"is_disabled":false,"rental_uris":{"android":"levelo://app?vid=7c755874-04f4-49a7-881c-3dccfea2f0df","ios":"levelo://app?vid=7c755874-04f4-49a7-881c-3dccfea2f0df"},"vehicle_type_id":"4","last_reported":1706920416,"current_range_meters":4400,"station_id":"","pricing_plan_id":"free"},{"bike_id":"337adb1a-b65b-4ca6-ad18-a34418045a4e","system_id":"levelo_inurba_marseille","lat":43.290631,"lon":5.359244,"is_reserved":false,"is_disabled":false,"rental_uris":{"android":"levelo://app?vid=337adb1a-b65b-4ca6-ad18-a34418045a4e","ios":"levelo://app?vid=337adb1a-b65b-4ca6-ad18-a34418045a4e"},"vehicle_type_id":"4","last_reported":1706920416,"current_range_meters":18800,"station_id":"ce4bha92rcd13ifvqeg0","pricing_plan_id":"free"},{"bike_id":"6ce4b9d8-a121-42a2-a06f-37cd167d7b82","system_id":"levelo_inurba_marseille","lat":43.29418,"lon":5.38622,"is_reserved":false,"is_disabled":false,"rental_uris":{"android":"levelo://app?vid=6ce4b9d8-a121-42a2-a06f-37cd167d7b82","ios":"levelo://app?vid=6ce4b9d8-a121-42a2-a06f-37cd167d7b82"},"vehicle_type_id":"4","last_reported":1706920416,"current_range_meters":0,"station_id":"ce4bh2h2rcd13ifvqdh0","pricing_plan_id":"free"},{"bike_id":"03b305d9-1d27-4ce7-b26e-8940f5e967a6","system_id":"levelo_inurba_marseille","lat":43.289468,"lon":5.363719,"is_reserved":false,"is_disabled":false,"rental_uris":{"android":"levelo://app?vid=03b305d9-1d27-4ce7-b26e-8940f5e967a6","ios":"levelo://app?vid=03b305d9-1d27-4ce7-b26e-8940f5e967a6"},"vehicle_type_id":"4","last_reported":1706920416,"current_range_meters":30400,"station_id":"ce4bhc92rcd13ifvqetg","pricing_plan_id":"free"},{"bike_id":"292e1f96-abcc-4a0d-8f39-4c39c9093290","system_id":"levelo_inurba_marseille","lat":43.289468,"lon":5.363719,"is_reserved":false,"is_disabled":false,"rental_uris":{"android":"levelo://app?vid=292e1f96-abcc-4a0d-8f39-4c39c9093290","ios":"levelo://app?vid=292e1f96-abcc-4a0d-8f39-4c39c9093290"},"vehicle_type_id":"4","last_reported":1706920416,"current_range_meters":10000,"station_id":"ce4bhc92rcd13ifvqetg","pricing_plan_id":"free"},{"bike_id":"9728eb2e-5141-4ef8-8749-89cebc473292","system_id":"levelo_inurba_marseille","lat":43.292644,"lon":5.384257,"is_reserved":false,"is_disabled":false,"rental_uris":{"android":"levelo://app?vid=9728eb2e-5141-4ef8-8749-89cebc473292","ios":"levelo://app?vid=9728eb2e-5141-4ef8-8749-89cebc473292"},"vehicle_type_id":"4","last_reported":1706920416,"current_range_meters":0,"station_id":"ce4bh692rcd13ifvqea0","pricing_plan_id":"free"},{"bike_id":"a726dbb2-b3de-444c-b963-cf9d56ec4c79","system_id":"levelo_inurba_marseille","lat":43.29267,"lon":5.38444,"is_reserved":false,"is_disabled":false,"rental_uris":{"android":"levelo://app?vid=a726dbb2-b3de-444c-b963-cf9d56ec4c79","ios":"levelo://app?vid=a726dbb2-b3de-444c-b963-cf9d56ec4c79"},"vehicle_type_id":"4","last_reported":1706920416,"current_range_meters":0,"station_id":"ce4bh692rcd13ifvqea0","pricing_plan_id":"free"},{"bike_id":"f4c2fc83-82fb-49d1-a773-3dcfae606f25","system_id":"levelo_inurba_marseille","lat":43.292642,"lon":5.384254,"is_reserved":false,"is_disabled":false,"rental_uris":{"android":"levelo://app?vid=f4c2fc83-82fb-49d1-a773-3dcfae606f25","ios":"levelo://app?vid=f4c2fc83-82fb-49d1-a773-3dcfae606f25"},"vehicle_type_id":"4","last_reported":1706920416,"current_range_meters":5600,"station_id":"ce4bh692rcd13ifvqea0","pricing_plan_id":"free"},{"bike_id":"1776c9da-b39b-4217-8807-d1b568e18b19","system_id":"levelo_inurba_marseille","lat":43.292642,"lon":5.384254,"is_reserved":false,"is_disabled":false,"rental_uris":{"android":"levelo://app?vid=1776c9da-b39b-4217-8807-d1b568e18b19","ios":"levelo://app?vid=1776c9da-b39b-4217-8807-d1b568e18b19"},"vehicle_type_id":"4","last_reported":1706920416,"current_range_meters":20800,"station_id":"ce4bh692rcd13ifvqea0","pricing_plan_id":"free"},{"bike_id":"f4aadf14-f69c-49f1-9d96-38eb83a6125b","system_id":"levelo_inurba_marseille","lat":43.292311,"lon":5.360731,"is_reserved":false,"is_disabled":false,"rental_uris":{"android":"levelo://app?vid=f4aadf14-f69c-49f1-9d96-38eb83a6125b","ios":"levelo://app?vid=f4aadf14-f69c-49f1-9d96-38eb83a6125b"},"vehicle_type_id":"4","last_reported":1706920416,"current_range_meters":6000,"station_id":"ce4bhbh2rcd13ifvqeqg","pricing_plan_id":"free"},{"bike_id":"add140c1-3dd3-46ec-aa0b-f74e6a0bf9ef","system_id":"levelo_inurba_marseille","lat":43.290103,"lon":5.356114,"is_reserved":false,"is_disabled":false,"rental_uris":{"android":"levelo://app?vid=add140c1-3dd3-46ec-aa0b-f74e6a0bf9ef","ios":"levelo://app?vid=add140c1-3dd3-46ec-aa0b-f74e6a0bf9ef"},"vehicle_type_id":"4","last_reported":1706920416,"current_range_meters":26400,"station_id":"ce4bhb92rcd13ifvqen0","pricing_plan_id":"free"},{"bike_id":"f9d5d05c-03c7-490f-94f5-7f3e107031f5","system_id":"levelo_inurba_marseille","lat":43.317557,"lon":5.390173,"is_reserved":false,"is_disabled":false,"rental_uris":{"android":"levelo://app?vid=f9d5d05c-03c7-490f-94f5-7f3e107031f5","ios":"levelo://app?vid=f9d5d05c-03c7-490f-94f5-7f3e107031f5"},"vehicle_type_id":"4","last_reported":1706920416,"current_range_meters":4000,"station_id":"ce4bhqp2rcd13ifvqhng","pricing_plan_id":"free"},{"bike_id":"8f658ab6-8fed-4977-8e88-a981133a25a8","system_id":"levelo_inurba_marseille","lat":43.33021,"lon":5.39042,"is_reserved":false,"is_disabled":false,"rental_uris":{"android":"levelo://app?vid=8f658ab6-8fed-4977-8e88-a981133a25a8","ios":"levelo://app?vid=8f658ab6-8fed-4977-8e88-a981133a25a8"},"vehicle_type_id":"4","last_reported":1706920416,"current_range_meters":5600,"station_id":"ce4bhr92rcd13ifvqhrg","pricing_plan_id":"free"},{"bike_id":"a569bc82-2799-4d58-8f5c-19e0f6fce87d","system_id":"levelo_inurba_marseille","lat":43.330442,"lon":5.389148,"is_reserved":false,"is_disabled":false,"rental_uris":{"android":"levelo://app?vid=a569bc82-2799-4d58-8f5c-19e0f6fce87d","ios":"levelo://app?vid=a569bc82-2799-4d58-8f5c-19e0f6fce87d"},"vehicle_type_id":"4","last_reported":1706920416,"current_range_meters":4800,"station_id":"ce4bhr92rcd13ifvqhrg","pricing_plan_id":"free"},{"bike_id":"4186a1f1-4481-4512-a6f2-253aff1e6dc4","system_id":"levelo_inurba_marseille","lat":43.330442,"lon":5.389148,"is_reserved":false,"is_disabled":false,"rental_uris":{"android":"levelo://app?vid=4186a1f1-4481-4512-a6f2-253aff1e6dc4","ios":"levelo://app?vid=4186a1f1-4481-4512-a6f2-253aff1e6dc4"},"vehicle_type_id":"4","last_reported":1706920416,"current_range_meters":3600,"station_id":"ce4bhr92rcd13ifvqhrg","pricing_plan_id":"free"},{"bike_id":"29fa78cb-ddcd-473b-afaa-62a18b90e67f","system_id":"levelo_inurba_marseille","lat":43.330442,"lon":5.389148,"is_reserved":false,"is_disabled":false,"rental_uris":{"android":"levelo://app?vid=29fa78cb-ddcd-473b-afaa-62a18b90e67f","ios":"levelo://app?vid=29fa78cb-ddcd-473b-afaa-62a18b90e67f"},"vehicle_type_id":"4","last_reported":1706920416,"current_range_meters":15200,"station_id":"ce4bhr92rcd13ifvqhrg","pricing_plan_id":"free"},{"bike_id":"930044cf-b81c-4690-853e-2930b365dc8e","system_id":"levelo_inurba_marseille","lat":43.28856,"lon":5.358371,"is_reserved":false,"is_disabled":false,"rental_uris":{"android":"levelo://app?vid=930044cf-b81c-4690-853e-2930b365dc8e","ios":"levelo://app?vid=930044cf-b81c-4690-853e-2930b365dc8e"},"vehicle_type_id":"4","last_reported":1706920416,"current_range_meters":5600,"station_id":"ce4bhb12rcd13ifvqem0","pricing_plan_id":"free"},{"bike_id":"81f95038-7ad7-47e5-8f5b-35215afb62b1","system_id":"levelo_inurba_marseille","lat":43.28856,"lon":5.358371,"is_reserved":false,"is_disabled":false,"rental_uris":{"android":"levelo://app?vid=81f95038-7ad7-47e5-8f5b-35215afb62b1","ios":"levelo://app?vid=81f95038-7ad7-47e5-8f5b-35215afb62b1"},"vehicle_type_id":"4","last_reported":1706920416,"current_range_meters":0,"station_id":"ce4bhb12rcd13ifvqem0","pricing_plan_id":"free"},{"bike_id":"f5bc8d1e-edd8-4632-9772-008de1569481","system_id":"levelo_inurba_marseille","lat":43.28856,"lon":5.358371,"is_reserved":false,"is_disabled":false,"rental_uris":{"android":"levelo://app?vid=f5bc8d1e-edd8-4632-9772-008de1569481","ios":"levelo://app?vid=f5bc8d1e-edd8-4632-9772-008de1569481"},"vehicle_type_id":"4","last_reported":1706920416,"current_range_meters":0,"station_id":"ce4bhb12rcd13ifvqem0","pricing_plan_id":"free"},{"bike_id":"584e8d5b-9829-4968-96c3-7e2780765fd3","system_id":"levelo_inurba_marseille","lat":43.28856,"lon":5.358371,"is_reserved":false,"is_disabled":false,"rental_uris":{"android":"levelo://app?vid=584e8d5b-9829-4968-96c3-7e2780765fd3","ios":"levelo://app?vid=584e8d5b-9829-4968-96c3-7e2780765fd3"},"vehicle_type_id":"4","last_reported":1706920416,"current_range_meters":2800,"station_id":"ce4bhb12rcd13ifvqem0","pricing_plan_id":"free"},{"bike_id":"d4bb85e6-84c5-48fc-8c35-0be0888f1efb","system_id":"levelo_inurba_marseille","lat":43.28856,"lon":5.358371,"is_reserved":false,"is_disabled":false,"rental_uris":{"android":"levelo://app?vid=d4bb85e6-84c5-48fc-8c35-0be0888f1efb","ios":"levelo://app?vid=d4bb85e6-84c5-48fc-8c35-0be0888f1efb"},"vehicle_type_id":"4","last_reported":1706920416,"current_range_meters":27600,"station_id":"ce4bhb12rcd13ifvqem0","pricing_plan_id":"free"},{"bike_id":"9d30b061-f031-4b9c-9335-cab5af7cb311","system_id":"levelo_inurba_marseille","lat":43.28841,"lon":5.35854,"is_reserved":false,"is_disabled":false,"rental_uris":{"android":"levelo://app?vid=9d30b061-f031-4b9c-9335-cab5af7cb311","ios":"levelo://app?vid=9d30b061-f031-4b9c-9335-cab5af7cb311"},"vehicle_type_id":"4","last_reported":1706920416,"current_range_meters":8000,"station_id":"ce4bhb12rcd13ifvqem0","pricing_plan_id":"free"},{"bike_id":"2dfa196c-6c5c-4e7d-8a85-f7be22241efa","system_id":"levelo_inurba_marseille","lat":43.312609,"lon":5.401662,"is_reserved":false,"is_disabled":false,"rental_uris":{"android":"levelo://app?vid=2dfa196c-6c5c-4e7d-8a85-f7be22241efa","ios":"levelo://app?vid=2dfa196c-6c5c-4e7d-8a85-f7be22241efa"},"vehicle_type_id":"4","last_reported":1706920416,"current_range_meters":0,"station_id":"ce4bh092rcd13ifvqd30","pricing_plan_id":"free"},{"bike_id":"40d07f8a-19af-4233-a382-da6dcc05d73f","system_id":"levelo_inurba_marseille","lat":43.312609,"lon":5.401662,"is_reserved":false,"is_disabled":false,"rental_uris":{"android":"levelo://app?vid=40d07f8a-19af-4233-a382-da6dcc05d73f","ios":"levelo://app?vid=40d07f8a-19af-4233-a382-da6dcc05d73f"},"vehicle_type_id":"4","last_reported":1706920416,"current_range_meters":11600,"station_id":"ce4bh092rcd13ifvqd30","pricing_plan_id":"free"},{"bike_id":"a404b958-a0d8-4bf6-96c0-5bac4a6d2684","system_id":"levelo_inurba_marseille","lat":43.312609,"lon":5.401662,"is_reserved":false,"is_disabled":false,"rental_uris":{"android":"levelo://app?vid=a404b958-a0d8-4bf6-96c0-5bac4a6d2684","ios":"levelo://app?vid=a404b958-a0d8-4bf6-96c0-5bac4a6d2684"},"vehicle_type_id":"4","last_reported":1706920416,"current_range_meters":3600,"station_id":"ce4bh092rcd13ifvqd30","pricing_plan_id":"free"},{"bike_id":"253e1e33-5a27-4a9c-9770-625b8bb3dcfd","system_id":"levelo_inurba_marseille","lat":43.312609,"lon":5.401662,"is_reserved":false,"is_disabled":false,"rental_uris":{"android":"levelo://app?vid=253e1e33-5a27-4a9c-9770-625b8bb3dcfd","ios":"levelo://app?vid=253e1e33-5a27-4a9c-9770-625b8bb3dcfd"},"vehicle_type_id":"4","last_reported":1706920416,"current_range_meters":0,"station_id":"ce4bh092rcd13ifvqd30","pricing_plan_id":"free"},{"bike_id":"8d1d4690-5d11-4f8a-a797-6d10a4ac8e92","system_id":"levelo_inurba_marseille","lat":43.309371,"lon":5.401449,"is_reserved":false,"is_disabled":false,"rental_uris":{"android":"levelo://app?vid=8d1d4690-5d11-4f8a-a797-6d10a4ac8e92","ios":"levelo://app?vid=8d1d4690-5d11-4f8a-a797-6d10a4ac8e92"},"vehicle_type_id":"4","last_reported":1706920416,"current_range_meters":15200,"station_id":"ce4bgvp2rcd13ifvqct0","pricing_plan_id":"free"},{"bike_id":"a693be26-d51d-4635-bbd8-1f98ddaeba30","system_id":"levelo_inurba_marseille","lat":43.33748,"lon":5.374484,"is_reserved":false,"is_disabled":false,"rental_uris":{"android":"levelo://app?vid=a693be26-d51d-4635-bbd8-1f98ddaeba30","ios":"levelo://app?vid=a693be26-d51d-4635-bbd8-1f98ddaeba30"},"vehicle_type_id":"4","last_reported":1706920416,"current_range_meters":28000,"station_id":"","pricing_plan_id":"free"},{"bike_id":"8bb262aa-a828-4328-a751-72000e38b5fa","system_id":"levelo_inurba_marseille","lat":43.309371,"lon":5.401449,"is_reserved":false,"is_disabled":false,"rental_uris":{"android":"levelo://app?vid=8bb262aa-a828-4328-a751-72000e38b5fa","ios":"levelo://app?vid=8bb262aa-a828-4328-a751-72000e38b5fa"},"vehicle_type_id":"4","last_reported":1706920416,"current_range_meters":5200,"station_id":"ce4bgvp2rcd13ifvqct0","pricing_plan_id":"free"},{"bike_id":"66bd3461-0691-40ae-b47a-4aa7890e1bf1","system_id":"levelo_inurba_marseille","lat":43.309371,"lon":5.401449,"is_reserved":false,"is_disabled":false,"rental_uris":{"android":"levelo://app?vid=66bd3461-0691-40ae-b47a-4aa7890e1bf1","ios":"levelo://app?vid=66bd3461-0691-40ae-b47a-4aa7890e1bf1"},"vehicle_type_id":"4","last_reported":1706920416,"current_range_meters":28000,"station_id":"ce4bgvp2rcd13ifvqct0","pricing_plan_id":"free"},{"bike_id":"bd740a52-b1ec-4c40-8bda-e9c4da3213c8","system_id":"levelo_inurba_marseille","lat":43.309371,"lon":5.401449,"is_reserved":false,"is_disabled":false,"rental_uris":{"android":"levelo://app?vid=bd740a52-b1ec-4c40-8bda-e9c4da3213c8","ios":"levelo://app?vid=bd740a52-b1ec-4c40-8bda-e9c4da3213c8"},"vehicle_type_id":"4","last_reported":1706920416,"current_range_meters":10000,"station_id":"ce4bgvp2rcd13ifvqct0","pricing_plan_id":"free"},{"bike_id":"2feada40-09cf-41e1-8c7f-90000efbe655","system_id":"levelo_inurba_marseille","lat":43.309371,"lon":5.401449,"is_reserved":false,"is_disabled":false,"rental_uris":{"android":"levelo://app?vid=2feada40-09cf-41e1-8c7f-90000efbe655","ios":"levelo://app?vid=2feada40-09cf-41e1-8c7f-90000efbe655"},"vehicle_type_id":"4","last_reported":1706920416,"current_range_meters":19600,"station_id":"ce4bgvp2rcd13ifvqct0","pricing_plan_id":"free"},{"bike_id":"7c2e5fe5-16e0-4357-86d7-db3612155c2b","system_id":"levelo_inurba_marseille","lat":43.30642,"lon":5.401031,"is_reserved":false,"is_disabled":false,"rental_uris":{"android":"levelo://app?vid=7c2e5fe5-16e0-4357-86d7-db3612155c2b","ios":"levelo://app?vid=7c2e5fe5-16e0-4357-86d7-db3612155c2b"},"vehicle_type_id":"4","last_reported":1706920416,"current_range_meters":4400,"station_id":"ce4bh112rcd13ifvqda0","pricing_plan_id":"free"},{"bike_id":"513347cb-f706-49bb-874e-0168082690f2","system_id":"levelo_inurba_marseille","lat":43.306497,"lon":5.4008,"is_reserved":false,"is_disabled":false,"rental_uris":{"android":"levelo://app?vid=513347cb-f706-49bb-874e-0168082690f2","ios":"levelo://app?vid=513347cb-f706-49bb-874e-0168082690f2"},"vehicle_type_id":"4","last_reported":1706920416,"current_range_meters":0,"station_id":"ce4bh112rcd13ifvqda0","pricing_plan_id":"free"},{"bike_id":"c76e661a-8046-4e71-b684-4d17284bfb58","system_id":"levelo_inurba_marseille","lat":43.306411,"lon":5.400778,"is_reserved":false,"is_disabled":false,"rental_uris":{"android":"levelo://app?vid=c76e661a-8046-4e71-b684-4d17284bfb58","ios":"levelo://app?vid=c76e661a-8046-4e71-b684-4d17284bfb58"},"vehicle_type_id":"4","last_reported":1706920416,"current_range_meters":31200,"station_id":"ce4bh112rcd13ifvqda0","pricing_plan_id":"free"},{"bike_id":"fbd79014-8443-4fa8-a575-118d08a47cbc","system_id":"levelo_inurba_marseille","lat":43.33762,"lon":5.37432,"is_reserved":false,"is_disabled":false,"rental_uris":{"android":"levelo://app?vid=fbd79014-8443-4fa8-a575-118d08a47cbc","ios":"levelo://app?vid=fbd79014-8443-4fa8-a575-118d08a47cbc"},"vehicle_type_id":"4","last_reported":1706920416,"current_range_meters":24800,"station_id":"","pricing_plan_id":"free"},{"bike_id":"076e2a1c-0cf6-486c-a662-3ffded36caf0","system_id":"levelo_inurba_marseille","lat":43.306412,"lon":5.401035,"is_reserved":false,"is_disabled":false,"rental_uris":{"android":"levelo://app?vid=076e2a1c-0cf6-486c-a662-3ffded36caf0","ios":"levelo://app?vid=076e2a1c-0cf6-486c-a662-3ffded36caf0"},"vehicle_type_id":"4","last_reported":1706920416,"current_range_meters":31200,"station_id":"ce4bh112rcd13ifvqda0","pricing_plan_id":"free"},{"bike_id":"c0d52db0-3989-4ba8-9430-7506cdc3a535","system_id":"levelo_inurba_marseille","lat":43.306412,"lon":5.401035,"is_reserved":false,"is_disabled":false,"rental_uris":{"android":"levelo://app?vid=c0d52db0-3989-4ba8-9430-7506cdc3a535","ios":"levelo://app?vid=c0d52db0-3989-4ba8-9430-7506cdc3a535"},"vehicle_type_id":"4","last_reported":1706920416,"current_range_meters":22400,"station_id":"ce4bh112rcd13ifvqda0","pricing_plan_id":"free"},{"bike_id":"4b48671f-9e80-4814-a8b5-62b79d2aa42c","system_id":"levelo_inurba_marseille","lat":43.309371,"lon":5.401449,"is_reserved":false,"is_disabled":false,"rental_uris":{"android":"levelo://app?vid=4b48671f-9e80-4814-a8b5-62b79d2aa42c","ios":"levelo://app?vid=4b48671f-9e80-4814-a8b5-62b79d2aa42c"},"vehicle_type_id":"4","last_reported":1706920416,"current_range_meters":8400,"station_id":"ce4bgvp2rcd13ifvqct0","pricing_plan_id":"free"},{"bike_id":"e2d4d079-cc66-4f38-adc8-060273bea7e7","system_id":"levelo_inurba_marseille","lat":43.337669,"lon":5.374431,"is_reserved":false,"is_disabled":false,"rental_uris":{"android":"levelo://app?vid=e2d4d079-cc66-4f38-adc8-060273bea7e7","ios":"levelo://app?vid=e2d4d079-cc66-4f38-adc8-060273bea7e7"},"vehicle_type_id":"4","last_reported":1706920416,"current_range_meters":800,"station_id":"","pricing_plan_id":"free"},{"bike_id":"0aca2214-6738-4ad0-ba13-439e119f904d","system_id":"levelo_inurba_marseille","lat":43.337664,"lon":5.374486,"is_reserved":false,"is_disabled":false,"rental_uris":{"android":"levelo://app?vid=0aca2214-6738-4ad0-ba13-439e119f904d","ios":"levelo://app?vid=0aca2214-6738-4ad0-ba13-439e119f904d"},"vehicle_type_id":"4","last_reported":1706920416,"current_range_meters":25600,"station_id":"","pricing_plan_id":"free"},{"bike_id":"9ee2c54e-751d-488d-8097-265292a4d360","system_id":"levelo_inurba_marseille","lat":43.30639,"lon":5.40096,"is_reserved":false,"is_disabled":false,"rental_uris":{"android":"levelo://app?vid=9ee2c54e-751d-488d-8097-265292a4d360","ios":"levelo://app?vid=9ee2c54e-751d-488d-8097-265292a4d360"},"vehicle_type_id":"4","last_reported":1706920416,"current_range_meters":8000,"station_id":"ce4bh112rcd13ifvqda0","pricing_plan_id":"free"},{"bike_id":"0467a7bf-6482-404b-9fbb-f3493a5b7f8c","system_id":"levelo_inurba_marseille","lat":43.30642,"lon":5.401031,"is_reserved":false,"is_disabled":false,"rental_uris":{"android":"levelo://app?vid=0467a7bf-6482-404b-9fbb-f3493a5b7f8c","ios":"levelo://app?vid=0467a7bf-6482-404b-9fbb-f3493a5b7f8c"},"vehicle_type_id":"4","last_reported":1706920416,"current_range_meters":6800,"station_id":"ce4bh112rcd13ifvqda0","pricing_plan_id":"free"},{"bike_id":"7817d368-40f9-4d22-b761-93c1feb87b78","system_id":"levelo_inurba_marseille","lat":43.306412,"lon":5.401035,"is_reserved":false,"is_disabled":false,"rental_uris":{"android":"levelo://app?vid=7817d368-40f9-4d22-b761-93c1feb87b78","ios":"levelo://app?vid=7817d368-40f9-4d22-b761-93c1feb87b78"},"vehicle_type_id":"4","last_reported":1706920416,"current_range_meters":22400,"station_id":"ce4bh112rcd13ifvqda0","pricing_plan_id":"free"},{"bike_id":"7e3146b4-e24c-4d5e-b94b-191ff0d58bae","system_id":"levelo_inurba_marseille","lat":43.306412,"lon":5.401035,"is_reserved":false,"is_disabled":false,"rental_uris":{"android":"levelo://app?vid=7e3146b4-e24c-4d5e-b94b-191ff0d58bae","ios":"levelo://app?vid=7e3146b4-e24c-4d5e-b94b-191ff0d58bae"},"vehicle_type_id":"4","last_reported":1706920416,"current_range_meters":20800,"station_id":"ce4bh112rcd13ifvqda0","pricing_plan_id":"free"},{"bike_id":"36900c9a-7d8b-4a2f-998f-51013456acd1","system_id":"levelo_inurba_marseille","lat":43.301117,"lon":5.398795,"is_reserved":false,"is_disabled":false,"rental_uris":{"android":"levelo://app?vid=36900c9a-7d8b-4a2f-998f-51013456acd1","ios":"levelo://app?vid=36900c9a-7d8b-4a2f-998f-51013456acd1"},"vehicle_type_id":"4","last_reported":1706920416,"current_range_meters":0,"station_id":"ce4bh0h2rcd13ifvqd40","pricing_plan_id":"free"},{"bike_id":"426147a3-5c01-4a2e-8ad7-555333246514","system_id":"levelo_inurba_marseille","lat":43.28807,"lon":5.37679,"is_reserved":false,"is_disabled":false,"rental_uris":{"android":"levelo://app?vid=426147a3-5c01-4a2e-8ad7-555333246514","ios":"levelo://app?vid=426147a3-5c01-4a2e-8ad7-555333246514"},"vehicle_type_id":"4","last_reported":1706920416,"current_range_meters":23600,"station_id":"","pricing_plan_id":"free"},{"bike_id":"7b7c10ea-7b5f-4162-8774-474e1fd91ee9","system_id":"levelo_inurba_marseille","lat":43.301117,"lon":5.398795,"is_reserved":false,"is_disabled":false,"rental_uris":{"android":"levelo://app?vid=7b7c10ea-7b5f-4162-8774-474e1fd91ee9","ios":"levelo://app?vid=7b7c10ea-7b5f-4162-8774-474e1fd91ee9"},"vehicle_type_id":"4","last_reported":1706920416,"current_range_meters":19200,"station_id":"ce4bh0h2rcd13ifvqd40","pricing_plan_id":"free"},{"bike_id":"28bc864d-7c69-4b7f-83e4-ae0c99064d0d","system_id":"levelo_inurba_marseille","lat":43.301117,"lon":5.398795,"is_reserved":false,"is_disabled":false,"rental_uris":{"android":"levelo://app?vid=28bc864d-7c69-4b7f-83e4-ae0c99064d0d","ios":"levelo://app?vid=28bc864d-7c69-4b7f-83e4-ae0c99064d0d"},"vehicle_type_id":"4","last_reported":1706920416,"current_range_meters":18400,"station_id":"ce4bh0h2rcd13ifvqd40","pricing_plan_id":"free"},{"bike_id":"ac5cac9a-e2b8-48b6-9bf6-cb631e9e1d39","system_id":"levelo_inurba_marseille","lat":43.30151,"lon":5.39878,"is_reserved":false,"is_disabled":false,"rental_uris":{"android":"levelo://app?vid=ac5cac9a-e2b8-48b6-9bf6-cb631e9e1d39","ios":"levelo://app?vid=ac5cac9a-e2b8-48b6-9bf6-cb631e9e1d39"},"vehicle_type_id":"4","last_reported":1706920416,"current_range_meters":16000,"station_id":"ce4bh0h2rcd13ifvqd40","pricing_plan_id":"free"},{"bike_id":"1cbf275f-c77e-456f-9704-4c993dd301c2","system_id":"levelo_inurba_marseille","lat":43.30139,"lon":5.39874,"is_reserved":false,"is_disabled":false,"rental_uris":{"android":"levelo://app?vid=1cbf275f-c77e-456f-9704-4c993dd301c2","ios":"levelo://app?vid=1cbf275f-c77e-456f-9704-4c993dd301c2"},"vehicle_type_id":"4","last_reported":1706920416,"current_range_meters":9200,"station_id":"ce4bh0h2rcd13ifvqd40","pricing_plan_id":"free"},{"bike_id":"9f5e1423-5f32-4cdd-b6cc-ffc6c1393dfe","system_id":"levelo_inurba_marseille","lat":43.30146,"lon":5.39886,"is_reserved":false,"is_disabled":false,"rental_uris":{"android":"levelo://app?vid=9f5e1423-5f32-4cdd-b6cc-ffc6c1393dfe","ios":"levelo://app?vid=9f5e1423-5f32-4cdd-b6cc-ffc6c1393dfe"},"vehicle_type_id":"4","last_reported":1706920416,"current_range_meters":400,"station_id":"ce4bh0h2rcd13ifvqd40","pricing_plan_id":"free"},{"bike_id":"dc1b6163-ea78-4570-9b82-c8acff422233","system_id":"levelo_inurba_marseille","lat":43.28727,"lon":5.36078,"is_reserved":false,"is_disabled":false,"rental_uris":{"android":"levelo://app?vid=dc1b6163-ea78-4570-9b82-c8acff422233","ios":"levelo://app?vid=dc1b6163-ea78-4570-9b82-c8acff422233"},"vehicle_type_id":"4","last_reported":1706920416,"current_range_meters":26800,"station_id":"cki0cbj6b192h4jlfktg","pricing_plan_id":"free"},{"bike_id":"eeeac839-7d4f-43fa-8add-0d4dbbdf6835","system_id":"levelo_inurba_marseille","lat":43.28727,"lon":5.36078,"is_reserved":false,"is_disabled":false,"rental_uris":{"android":"levelo://app?vid=eeeac839-7d4f-43fa-8add-0d4dbbdf6835","ios":"levelo://app?vid=eeeac839-7d4f-43fa-8add-0d4dbbdf6835"},"vehicle_type_id":"4","last_reported":1706920416,"current_range_meters":8800,"station_id":"cki0cbj6b192h4jlfktg","pricing_plan_id":"free"},{"bike_id":"e6cc739c-2f0b-4eb6-8e96-63c78bedcdd3","system_id":"levelo_inurba_marseille","lat":43.286591,"lon":5.363346,"is_reserved":false,"is_disabled":false,"rental_uris":{"android":"levelo://app?vid=e6cc739c-2f0b-4eb6-8e96-63c78bedcdd3","ios":"levelo://app?vid=e6cc739c-2f0b-4eb6-8e96-63c78bedcdd3"},"vehicle_type_id":"4","last_reported":1706920416,"current_range_meters":15200,"station_id":"ce4bhah2rcd13ifvqej0","pricing_plan_id":"free"},{"bike_id":"a04c9d26-d28c-4650-a41f-0d601b02f195","system_id":"levelo_inurba_marseille","lat":43.286591,"lon":5.363346,"is_reserved":false,"is_disabled":false,"rental_uris":{"android":"levelo://app?vid=a04c9d26-d28c-4650-a41f-0d601b02f195","ios":"levelo://app?vid=a04c9d26-d28c-4650-a41f-0d601b02f195"},"vehicle_type_id":"4","last_reported":1706920416,"current_range_meters":9200,"station_id":"ce4bhah2rcd13ifvqej0","pricing_plan_id":"free"},{"bike_id":"72f7e516-5bcb-4d56-8434-b67bf90e6033","system_id":"levelo_inurba_marseille","lat":43.298681,"lon":5.397225,"is_reserved":false,"is_disabled":false,"rental_uris":{"android":"levelo://app?vid=72f7e516-5bcb-4d56-8434-b67bf90e6033","ios":"levelo://app?vid=72f7e516-5bcb-4d56-8434-b67bf90e6033"},"vehicle_type_id":"4","last_reported":1706920416,"current_range_meters":22400,"station_id":"ce4bh0h2rcd13ifvqd50","pricing_plan_id":"free"},{"bike_id":"f5954d0a-1f3b-407f-806f-c3358f422674","system_id":"levelo_inurba_marseille","lat":43.286591,"lon":5.363346,"is_reserved":false,"is_disabled":false,"rental_uris":{"android":"levelo://app?vid=f5954d0a-1f3b-407f-806f-c3358f422674","ios":"levelo://app?vid=f5954d0a-1f3b-407f-806f-c3358f422674"},"vehicle_type_id":"4","last_reported":1706920416,"current_range_meters":13600,"station_id":"ce4bhah2rcd13ifvqej0","pricing_plan_id":"free"},{"bike_id":"b0f3ea7c-a3ae-4207-93a1-4ed65fa6874a","system_id":"levelo_inurba_marseille","lat":43.286591,"lon":5.363346,"is_reserved":false,"is_disabled":false,"rental_uris":{"android":"levelo://app?vid=b0f3ea7c-a3ae-4207-93a1-4ed65fa6874a","ios":"levelo://app?vid=b0f3ea7c-a3ae-4207-93a1-4ed65fa6874a"},"vehicle_type_id":"4","last_reported":1706920416,"current_range_meters":4000,"station_id":"ce4bhah2rcd13ifvqej0","pricing_plan_id":"free"},{"bike_id":"69823a06-dda0-4ab5-b690-ffa8f1812eea","system_id":"levelo_inurba_marseille","lat":43.298681,"lon":5.397225,"is_reserved":false,"is_disabled":false,"rental_uris":{"android":"levelo://app?vid=69823a06-dda0-4ab5-b690-ffa8f1812eea","ios":"levelo://app?vid=69823a06-dda0-4ab5-b690-ffa8f1812eea"},"vehicle_type_id":"4","last_reported":1706920416,"current_range_meters":13200,"station_id":"ce4bh0h2rcd13ifvqd50","pricing_plan_id":"free"},{"bike_id":"a511b62c-42bc-460c-be67-09803ac5828d","system_id":"levelo_inurba_marseille","lat":43.286591,"lon":5.363346,"is_reserved":false,"is_disabled":false,"rental_uris":{"android":"levelo://app?vid=a511b62c-42bc-460c-be67-09803ac5828d","ios":"levelo://app?vid=a511b62c-42bc-460c-be67-09803ac5828d"},"vehicle_type_id":"4","last_reported":1706920416,"current_range_meters":2400,"station_id":"ce4bhah2rcd13ifvqej0","pricing_plan_id":"free"},{"bike_id":"382795d1-ea51-4d2a-a5c9-2c02f1b0b6ba","system_id":"levelo_inurba_marseille","lat":43.298681,"lon":5.397225,"is_reserved":false,"is_disabled":false,"rental_uris":{"android":"levelo://app?vid=382795d1-ea51-4d2a-a5c9-2c02f1b0b6ba","ios":"levelo://app?vid=382795d1-ea51-4d2a-a5c9-2c02f1b0b6ba"},"vehicle_type_id":"4","last_reported":1706920416,"current_range_meters":26400,"station_id":"ce4bh0h2rcd13ifvqd50","pricing_plan_id":"free"},{"bike_id":"8c360b2e-009b-4ffb-b357-1f00562773b9","system_id":"levelo_inurba_marseille","lat":43.287048,"lon":5.373881,"is_reserved":false,"is_disabled":false,"rental_uris":{"android":"levelo://app?vid=8c360b2e-009b-4ffb-b357-1f00562773b9","ios":"levelo://app?vid=8c360b2e-009b-4ffb-b357-1f00562773b9"},"vehicle_type_id":"4","last_reported":1706920416,"current_range_meters":26800,"station_id":"ce4bh3p2rcd13ifvqdq0","pricing_plan_id":"free"},{"bike_id":"2af7b858-7f90-426f-85d5-192f7e31c2bb","system_id":"levelo_inurba_marseille","lat":43.28667,"lon":5.36348,"is_reserved":false,"is_disabled":false,"rental_uris":{"android":"levelo://app?vid=2af7b858-7f90-426f-85d5-192f7e31c2bb","ios":"levelo://app?vid=2af7b858-7f90-426f-85d5-192f7e31c2bb"},"vehicle_type_id":"4","last_reported":1706920416,"current_range_meters":28800,"station_id":"ce4bhah2rcd13ifvqej0","pricing_plan_id":"free"},{"bike_id":"6a9b3661-645f-41d4-aedf-d0aa9c636f86","system_id":"levelo_inurba_marseille","lat":43.286995,"lon":5.373824,"is_reserved":false,"is_disabled":false,"rental_uris":{"android":"levelo://app?vid=6a9b3661-645f-41d4-aedf-d0aa9c636f86","ios":"levelo://app?vid=6a9b3661-645f-41d4-aedf-d0aa9c636f86"},"vehicle_type_id":"4","last_reported":1706920416,"current_range_meters":26000,"station_id":"ce4bh3p2rcd13ifvqdq0","pricing_plan_id":"free"},{"bike_id":"6985d04a-5734-4a32-9090-1bb308a3d8fc","system_id":"levelo_inurba_marseille","lat":43.28663,"lon":5.36345,"is_reserved":false,"is_disabled":false,"rental_uris":{"android":"levelo://app?vid=6985d04a-5734-4a32-9090-1bb308a3d8fc","ios":"levelo://app?vid=6985d04a-5734-4a32-9090-1bb308a3d8fc"},"vehicle_type_id":"4","last_reported":1706920416,"current_range_meters":16800,"station_id":"ce4bhah2rcd13ifvqej0","pricing_plan_id":"free"},{"bike_id":"a9d2a9cd-122f-4ae8-b9da-7632d9f7c994","system_id":"levelo_inurba_marseille","lat":43.287,"lon":5.37396,"is_reserved":false,"is_disabled":false,"rental_uris":{"android":"levelo://app?vid=a9d2a9cd-122f-4ae8-b9da-7632d9f7c994","ios":"levelo://app?vid=a9d2a9cd-122f-4ae8-b9da-7632d9f7c994"},"vehicle_type_id":"4","last_reported":1706920416,"current_range_meters":4400,"station_id":"ce4bh3p2rcd13ifvqdq0","pricing_plan_id":"free"},{"bike_id":"8557e8c8-b9cc-4dd9-b5f9-bab67bce5d34","system_id":"levelo_inurba_marseille","lat":43.286982,"lon":5.373883,"is_reserved":false,"is_disabled":false,"rental_uris":{"android":"levelo://app?vid=8557e8c8-b9cc-4dd9-b5f9-bab67bce5d34","ios":"levelo://app?vid=8557e8c8-b9cc-4dd9-b5f9-bab67bce5d34"},"vehicle_type_id":"4","last_reported":1706920416,"current_range_meters":3600,"station_id":"ce4bh3p2rcd13ifvqdq0","pricing_plan_id":"free"},{"bike_id":"e63cb3ab-5998-4389-82c3-30c1927e9ea7","system_id":"levelo_inurba_marseille","lat":43.298681,"lon":5.397225,"is_reserved":false,"is_disabled":false,"rental_uris":{"android":"levelo://app?vid=e63cb3ab-5998-4389-82c3-30c1927e9ea7","ios":"levelo://app?vid=e63cb3ab-5998-4389-82c3-30c1927e9ea7"},"vehicle_type_id":"4","last_reported":1706920416,"current_range_meters":6400,"station_id":"ce4bh0h2rcd13ifvqd50","pricing_plan_id":"free"},{"bike_id":"82dca378-c7da-4141-8cfe-26d1ef779885","system_id":"levelo_inurba_marseille","lat":43.286593,"lon":5.363346,"is_reserved":false,"is_disabled":false,"rental_uris":{"android":"levelo://app?vid=82dca378-c7da-4141-8cfe-26d1ef779885","ios":"levelo://app?vid=82dca378-c7da-4141-8cfe-26d1ef779885"},"vehicle_type_id":"4","last_reported":1706920416,"current_range_meters":2800,"station_id":"ce4bhah2rcd13ifvqej0","pricing_plan_id":"free"},{"bike_id":"408f4170-2dcc-4702-bb94-c495a5fbacac","system_id":"levelo_inurba_marseille","lat":43.286961,"lon":5.373785,"is_reserved":false,"is_disabled":false,"rental_uris":{"android":"levelo://app?vid=408f4170-2dcc-4702-bb94-c495a5fbacac","ios":"levelo://app?vid=408f4170-2dcc-4702-bb94-c495a5fbacac"},"vehicle_type_id":"4","last_reported":1706920416,"current_range_meters":9200,"station_id":"ce4bh3p2rcd13ifvqdq0","pricing_plan_id":"free"},{"bike_id":"a390102e-fccb-43b0-979a-fa8b9bb5334f","system_id":"levelo_inurba_marseille","lat":43.286593,"lon":5.363346,"is_reserved":false,"is_disabled":false,"rental_uris":{"android":"levelo://app?vid=a390102e-fccb-43b0-979a-fa8b9bb5334f","ios":"levelo://app?vid=a390102e-fccb-43b0-979a-fa8b9bb5334f"},"vehicle_type_id":"4","last_reported":1706920416,"current_range_meters":25600,"station_id":"ce4bhah2rcd13ifvqej0","pricing_plan_id":"free"},{"bike_id":"75bd9e63-0d93-4aa0-900c-b00116f82f33","system_id":"levelo_inurba_marseille","lat":43.295194,"lon":5.39397,"is_reserved":false,"is_disabled":false,"rental_uris":{"android":"levelo://app?vid=75bd9e63-0d93-4aa0-900c-b00116f82f33","ios":"levelo://app?vid=75bd9e63-0d93-4aa0-900c-b00116f82f33"},