{"last_updated":1744419061,"ttl":60,"version":"2.2","data":{"bikes":[{"bike_id":"2ecbe8ab-2a9c-4993-b3a7-dd5d137a50ff","system_id":"levelo_inurba_marseille","lat":43.28038,"lon":5.36931,"is_reserved":false,"is_disabled":false,"rental_uris":{"android":"levelo://app?vid=2ecbe8ab-2a9c-4993-b3a7-dd5d137a50ff","ios":"levelo://app?vid=2ecbe8ab-2a9c-4993-b3a7-dd5d137a50ff"},"vehicle_type_id":"4","last_reported":1744419061,"current_range_meters":2800,"station_id":"ce4bha12rcd13ifvqef0","pricing_plan_id":"cebpf4jnsgd1na2vs0mg"},{"bike_id":"651398ac-c70b-4ad0-95aa-14f7c75e7554","system_id":"levelo_inurba_marseille","lat":43.27997,"lon":5.41644,"is_reserved":false,"is_disabled":true,"rental_uris":{"android":"levelo://app?vid=651398ac-c70b-4ad0-95aa-14f7c75e7554","ios":"levelo://app?vid=651398ac-c70b-4ad0-95aa-14f7c75e7554"},"vehicle_type_id":"4","last_reported":1744419061,"current_range_meters":2800,"station_id":"ce4bho12rcd13ifvqh1g","pricing_plan_id":"cebpf4jnsgd1na2vs0mg"},{"bike_id":"d15a550b-ef49-4a95-9324-49a84969b834","system_id":"levelo_inurba_marseille","lat":43.29494,"lon":5.39408,"is_reserved":false,"is_disabled":false,"rental_uris":{"android":"levelo://app?vid=d15a550b-ef49-4a95-9324-49a84969b834","ios":"levelo://app?vid=d15a550b-ef49-4a95-9324-49a84969b834"},"vehicle_type_id":"4","last_reported":1744419061,"current_range_meters":2800,"station_id":"ce4bh292rcd13ifvqdf0","pricing_plan_id":"cebpf4jnsgd1na2vs0mg"},{"bike_id":"f7861707-f4a1-4181-b8bb-bb530b9d38f2","system_id":"levelo_inurba_marseille","lat":43.298,"lon":5.40409,"is_reserved":false,"is_disabled":false,"rental_uris":{"android":"levelo://app?vid=f7861707-f4a1-4181-b8bb-bb530b9d38f2","ios":"levelo://app?vid=f7861707-f4a1-4181-b8bb-bb530b9d38f2"},"vehicle_type_id":"4","last_reported":1744419061,"current_range_meters":3200,"station_id":"ce4bh112rcd13ifvqd90","pricing_plan_id":"cebpf4jnsgd1na2vs0mg"},{"bike_id":"b32ba673-4af2-42d5-8f32-bffa32308853","system_id":"levelo_inurba_marseille","lat":43.3091,"lon":5.39652,"is_reserved":false,"is_disabled":false,"rental_uris":{"android":"levelo://app?vid=b32ba673-4af2-42d5-8f32-bffa32308853","ios":"levelo://app?vid=b32ba673-4af2-42d5-8f32-bffa32308853"},"vehicle_type_id":"4","last_reported":1744419061,"current_range_meters":3200,"station_id":"ce4bh012rcd13ifvqcv0","pricing_plan_id":"cebpf4jnsgd1na2vs0mg"},{"bike_id":"a7fcc643-0031-44e3-b518-30ba55e6ee12","system_id":"levelo_inurba_marseille","lat":43.27379,"lon":5.36254,"is_reserved":false,"is_disabled":false,"rental_uris":{"android":"levelo://app?vid=a7fcc643-0031-44e3-b518-30ba55e6ee12","ios":"levelo://app?vid=a7fcc643-0031-44e3-b518-30ba55e6ee12"},"vehicle_type_id":"4","last_reported":1744419061,"current_range_meters":3200,"station_id":"ce4bhbh2rcd13ifvqeo0","pricing_plan_id":"cebpf4jnsgd1na2vs0mg"},{"bike_id":"a40a17db-36d6-4079-8b6e-ab2d27a4d1d8","system_id":"levelo_inurba_marseille","lat":43.257235,"lon":5.411155,"is_reserved":false,"is_disabled":false,"rental_uris":{"android":"levelo://app?vid=a40a17db-36d6-4079-8b6e-ab2d27a4d1d8","ios":"levelo://app?vid=a40a17db-36d6-4079-8b6e-ab2d27a4d1d8"},"vehicle_type_id":"4","last_reported":1744419061,"current_range_meters":3200,"station_id":"ce4bhkp2rcd13ifvqgd0","pricing_plan_id":"cebpf4jnsgd1na2vs0mg"},{"bike_id":"f9f2708a-aea0-4b14-b139-517d73d7bcaa","system_id":"levelo_inurba_marseille","lat":43.29269,"lon":5.36833,"is_reserved":false,"is_disabled":false,"rental_uris":{"android":"levelo://app?vid=f9f2708a-aea0-4b14-b139-517d73d7bcaa","ios":"levelo://app?vid=f9f2708a-aea0-4b14-b139-517d73d7bcaa"},"vehicle_type_id":"4","last_reported":1744419061,"current_range_meters":3600,"station_id":"ce4bhbp2rcd13ifvqesg","pricing_plan_id":"cebpf4jnsgd1na2vs0mg"},{"bike_id":"d9f03e2f-e300-4ff1-8edd-a1d25e99979a","system_id":"levelo_inurba_marseille","lat":43.31359,"lon":5.38527,"is_reserved":false,"is_disabled":true,"rental_uris":{"android":"levelo://app?vid=d9f03e2f-e300-4ff1-8edd-a1d25e99979a","ios":"levelo://app?vid=d9f03e2f-e300-4ff1-8edd-a1d25e99979a"},"vehicle_type_id":"4","last_reported":1744419061,"current_range_meters":3600,"station_id":"ce4bgt92rcd13ifvqcf0","pricing_plan_id":"cebpf4jnsgd1na2vs0mg"},{"bike_id":"3125eb05-cd4c-49a6-8fd5-04f9c651db02","system_id":"levelo_inurba_marseille","lat":43.29415,"lon":5.44257,"is_reserved":false,"is_disabled":false,"rental_uris":{"android":"levelo://app?vid=3125eb05-cd4c-49a6-8fd5-04f9c651db02","ios":"levelo://app?vid=3125eb05-cd4c-49a6-8fd5-04f9c651db02"},"vehicle_type_id":"4","last_reported":1744419061,"current_range_meters":3600,"station_id":"","pricing_plan_id":"cebpf4jnsgd1na2vs0mg"},{"bike_id":"59500660-8529-4266-bbfa-d5f7a7a7a6b0","system_id":"levelo_inurba_marseille","lat":43.29189,"lon":5.39328,"is_reserved":false,"is_disabled":false,"rental_uris":{"android":"levelo://app?vid=59500660-8529-4266-bbfa-d5f7a7a7a6b0","ios":"levelo://app?vid=59500660-8529-4266-bbfa-d5f7a7a7a6b0"},"vehicle_type_id":"4","last_reported":1744419061,"current_range_meters":3600,"station_id":"ce4bh192rcd13ifvqdd0","pricing_plan_id":"cebpf4jnsgd1na2vs0mg"},{"bike_id":"02b7d167-579c-49ee-b5ab-7afb9bc2f0ef","system_id":"levelo_inurba_marseille","lat":43.28462,"lon":5.35882,"is_reserved":false,"is_disabled":false,"rental_uris":{"android":"levelo://app?vid=02b7d167-579c-49ee-b5ab-7afb9bc2f0ef","ios":"levelo://app?vid=02b7d167-579c-49ee-b5ab-7afb9bc2f0ef"},"vehicle_type_id":"4","last_reported":1744419061,"current_range_meters":4000,"station_id":"ce4bhah2rcd13ifvqei0","pricing_plan_id":"cebpf4jnsgd1na2vs0mg"},{"bike_id":"22e3ea47-c492-486f-921f-462694d81728","system_id":"levelo_inurba_marseille","lat":43.2928,"lon":5.36851,"is_reserved":false,"is_disabled":false,"rental_uris":{"android":"levelo://app?vid=22e3ea47-c492-486f-921f-462694d81728","ios":"levelo://app?vid=22e3ea47-c492-486f-921f-462694d81728"},"vehicle_type_id":"4","last_reported":1744419061,"current_range_meters":4000,"station_id":"ce4bhbp2rcd13ifvqesg","pricing_plan_id":"cebpf4jnsgd1na2vs0mg"},{"bike_id":"1ed79cf6-7f5f-4b99-8967-0b54126a0fe0","system_id":"levelo_inurba_marseille","lat":43.293164,"lon":5.370153,"is_reserved":false,"is_disabled":false,"rental_uris":{"android":"levelo://app?vid=1ed79cf6-7f5f-4b99-8967-0b54126a0fe0","ios":"levelo://app?vid=1ed79cf6-7f5f-4b99-8967-0b54126a0fe0"},"vehicle_type_id":"4","last_reported":1744419061,"current_range_meters":4000,"station_id":"ce4bgt92rcd13ifvqcf0","pricing_plan_id":"cebpf4jnsgd1na2vs0mg"},{"bike_id":"f1d79617-14c3-478a-85a7-a7ce3e31c092","system_id":"levelo_inurba_marseille","lat":43.31714,"lon":5.4044,"is_reserved":false,"is_disabled":false,"rental_uris":{"android":"levelo://app?vid=f1d79617-14c3-478a-85a7-a7ce3e31c092","ios":"levelo://app?vid=f1d79617-14c3-478a-85a7-a7ce3e31c092"},"vehicle_type_id":"4","last_reported":1744419061,"current_range_meters":4400,"station_id":"ce4bh012rcd13ifvqd00","pricing_plan_id":"cebpf4jnsgd1na2vs0mg"},{"bike_id":"eedc529e-73f3-4296-93e1-e8c324ec4e29","system_id":"levelo_inurba_marseille","lat":43.28445,"lon":5.39182,"is_reserved":false,"is_disabled":false,"rental_uris":{"android":"levelo://app?vid=eedc529e-73f3-4296-93e1-e8c324ec4e29","ios":"levelo://app?vid=eedc529e-73f3-4296-93e1-e8c324ec4e29"},"vehicle_type_id":"4","last_reported":1744419061,"current_range_meters":4400,"station_id":"ce4bhoh2rcd13ifvqh5g","pricing_plan_id":"cebpf4jnsgd1na2vs0mg"},{"bike_id":"1f1931dc-ca45-43df-bb99-8ca2d278bd56","system_id":"levelo_inurba_marseille","lat":43.24173,"lon":5.36409,"is_reserved":false,"is_disabled":false,"rental_uris":{"android":"levelo://app?vid=1f1931dc-ca45-43df-bb99-8ca2d278bd56","ios":"levelo://app?vid=1f1931dc-ca45-43df-bb99-8ca2d278bd56"},"vehicle_type_id":"4","last_reported":1744419061,"current_range_meters":4800,"station_id":"cpo36qri1sfpv3e86is0","pricing_plan_id":"cebpf4jnsgd1na2vs0mg"},{"bike_id":"aaf0bea2-a073-4f6c-a7b6-3956f84fd9d6","system_id":"levelo_inurba_marseille","lat":43.30154,"lon":5.36768,"is_reserved":false,"is_disabled":false,"rental_uris":{"android":"levelo://app?vid=aaf0bea2-a073-4f6c-a7b6-3956f84fd9d6","ios":"levelo://app?vid=aaf0bea2-a073-4f6c-a7b6-3956f84fd9d6"},"vehicle_type_id":"4","last_reported":1744419061,"current_range_meters":4800,"station_id":"","pricing_plan_id":"cebpf4jnsgd1na2vs0mg"},{"bike_id":"568c7a29-b45c-4df1-949d-3c375a5b300e","system_id":"levelo_inurba_marseille","lat":43.3092,"lon":5.4014,"is_reserved":false,"is_disabled":false,"rental_uris":{"android":"levelo://app?vid=568c7a29-b45c-4df1-949d-3c375a5b300e","ios":"levelo://app?vid=568c7a29-b45c-4df1-949d-3c375a5b300e"},"vehicle_type_id":"4","last_reported":1744419061,"current_range_meters":5600,"station_id":"ce4bgvp2rcd13ifvqct0","pricing_plan_id":"cebpf4jnsgd1na2vs0mg"},{"bike_id":"4ff1679e-bc8e-4761-91df-0343ca65d83d","system_id":"levelo_inurba_marseille","lat":43.248127,"lon":5.37456,"is_reserved":false,"is_disabled":false,"rental_uris":{"android":"levelo://app?vid=4ff1679e-bc8e-4761-91df-0343ca65d83d","ios":"levelo://app?vid=4ff1679e-bc8e-4761-91df-0343ca65d83d"},"vehicle_type_id":"4","last_reported":1744419061,"current_range_meters":5600,"station_id":"ce4bhgh2rcd13ifvqfb0","pricing_plan_id":"cebpf4jnsgd1na2vs0mg"},{"bike_id":"9b124832-5aac-48fc-ab26-489a32057271","system_id":"levelo_inurba_marseille","lat":43.254944,"lon":5.376443,"is_reserved":false,"is_disabled":true,"rental_uris":{"android":"levelo://app?vid=9b124832-5aac-48fc-ab26-489a32057271","ios":"levelo://app?vid=9b124832-5aac-48fc-ab26-489a32057271"},"vehicle_type_id":"4","last_reported":1744419061,"current_range_meters":5600,"station_id":"ce4bhh12rcd13ifvqff0","pricing_plan_id":"cebpf4jnsgd1na2vs0mg"},{"bike_id":"e99f5290-1466-47b7-987b-c1ba64057cd2","system_id":"levelo_inurba_marseille","lat":43.24708,"lon":5.41209,"is_reserved":false,"is_disabled":false,"rental_uris":{"android":"levelo://app?vid=e99f5290-1466-47b7-987b-c1ba64057cd2","ios":"levelo://app?vid=e99f5290-1466-47b7-987b-c1ba64057cd2"},"vehicle_type_id":"4","last_reported":1744419061,"current_range_meters":5600,"station_id":"","pricing_plan_id":"cebpf4jnsgd1na2vs0mg"},{"bike_id":"460b2ebc-000e-4ea6-86da-9cfcf42a52fd","system_id":"levelo_inurba_marseille","lat":43.24667,"lon":5.38139,"is_reserved":false,"is_disabled":false,"rental_uris":{"android":"levelo://app?vid=460b2ebc-000e-4ea6-86da-9cfcf42a52fd","ios":"levelo://app?vid=460b2ebc-000e-4ea6-86da-9cfcf42a52fd"},"vehicle_type_id":"4","last_reported":1744419061,"current_range_meters":5600,"station_id":"ce4bhih2rcd13ifvqfr0","pricing_plan_id":"cebpf4jnsgd1na2vs0mg"},{"bike_id":"746882f3-3ca4-4d59-b993-6b1f5c3920bf","system_id":"levelo_inurba_marseille","lat":43.29256,"lon":5.40914,"is_reserved":false,"is_disabled":true,"rental_uris":{"android":"levelo://app?vid=746882f3-3ca4-4d59-b993-6b1f5c3920bf","ios":"levelo://app?vid=746882f3-3ca4-4d59-b993-6b1f5c3920bf"},"vehicle_type_id":"4","last_reported":1744419061,"current_range_meters":5600,"station_id":"ce4bh192rcd13ifvqdc0","pricing_plan_id":"cebpf4jnsgd1na2vs0mg"},{"bike_id":"d747244a-44b0-4e15-8153-27ce7831917f","system_id":"levelo_inurba_marseille","lat":43.28462,"lon":5.35894,"is_reserved":false,"is_disabled":false,"rental_uris":{"android":"levelo://app?vid=d747244a-44b0-4e15-8153-27ce7831917f","ios":"levelo://app?vid=d747244a-44b0-4e15-8153-27ce7831917f"},"vehicle_type_id":"4","last_reported":1744419061,"current_range_meters":6000,"station_id":"ce4bhah2rcd13ifvqei0","pricing_plan_id":"cebpf4jnsgd1na2vs0mg"},{"bike_id":"98c1cc8d-7484-4d27-b4cd-5dce5dd5d9db","system_id":"levelo_inurba_marseille","lat":43.28831,"lon":5.39323,"is_reserved":false,"is_disabled":false,"rental_uris":{"android":"levelo://app?vid=98c1cc8d-7484-4d27-b4cd-5dce5dd5d9db","ios":"levelo://app?vid=98c1cc8d-7484-4d27-b4cd-5dce5dd5d9db"},"vehicle_type_id":"4","last_reported":1744419061,"current_range_meters":6000,"station_id":"ce4bh2p2rcd13ifvqdi0","pricing_plan_id":"cebpf4jnsgd1na2vs0mg"},{"bike_id":"2ceea313-94a6-4e29-8788-9736addbb856","system_id":"levelo_inurba_marseille","lat":43.28105,"lon":5.3784,"is_reserved":false,"is_disabled":false,"rental_uris":{"android":"levelo://app?vid=2ceea313-94a6-4e29-8788-9736addbb856","ios":"levelo://app?vid=2ceea313-94a6-4e29-8788-9736addbb856"},"vehicle_type_id":"4","last_reported":1744419061,"current_range_meters":6000,"station_id":"ce4bha12rcd13ifvqee0","pricing_plan_id":"cebpf4jnsgd1na2vs0mg"},{"bike_id":"a7b22e2e-0c80-4693-ad23-d6caf4917341","system_id":"levelo_inurba_marseille","lat":43.309,"lon":5.37318,"is_reserved":false,"is_disabled":false,"rental_uris":{"android":"levelo://app?vid=a7b22e2e-0c80-4693-ad23-d6caf4917341","ios":"levelo://app?vid=a7b22e2e-0c80-4693-ad23-d6caf4917341"},"vehicle_type_id":"4","last_reported":1744419061,"current_range_meters":6000,"station_id":"","pricing_plan_id":"cebpf4jnsgd1na2vs0mg"},{"bike_id":"b04f1536-b3a6-4ea1-8de9-10a4a27b0d36","system_id":"levelo_inurba_marseille","lat":43.3064,"lon":5.40076,"is_reserved":false,"is_disabled":false,"rental_uris":{"android":"levelo://app?vid=b04f1536-b3a6-4ea1-8de9-10a4a27b0d36","ios":"levelo://app?vid=b04f1536-b3a6-4ea1-8de9-10a4a27b0d36"},"vehicle_type_id":"4","last_reported":1744419061,"current_range_meters":6000,"station_id":"ce4bh112rcd13ifvqda0","pricing_plan_id":"cebpf4jnsgd1na2vs0mg"},{"bike_id":"0bf2e17b-de76-43af-a911-86674f1ad492","system_id":"levelo_inurba_marseille","lat":43.297935,"lon":5.39347,"is_reserved":false,"is_disabled":false,"rental_uris":{"android":"levelo://app?vid=0bf2e17b-de76-43af-a911-86674f1ad492","ios":"levelo://app?vid=0bf2e17b-de76-43af-a911-86674f1ad492"},"vehicle_type_id":"4","last_reported":1744419061,"current_range_meters":6400,"station_id":"chh1huq6cuj3fo74tm60","pricing_plan_id":"cebpf4jnsgd1na2vs0mg"},{"bike_id":"32726013-757e-4d24-9225-04536f20d299","system_id":"levelo_inurba_marseille","lat":43.261904,"lon":5.374534,"is_reserved":false,"is_disabled":true,"rental_uris":{"android":"levelo://app?vid=32726013-757e-4d24-9225-04536f20d299","ios":"levelo://app?vid=32726013-757e-4d24-9225-04536f20d299"},"vehicle_type_id":"4","last_reported":1744419061,"current_range_meters":6400,"station_id":"ce4bhgp2rcd13ifvqfc0","pricing_plan_id":"cebpf4jnsgd1na2vs0mg"},{"bike_id":"fec4ce55-a98a-408d-955a-7216ba9e0363","system_id":"levelo_inurba_marseille","lat":43.24672,"lon":5.381673,"is_reserved":false,"is_disabled":false,"rental_uris":{"android":"levelo://app?vid=fec4ce55-a98a-408d-955a-7216ba9e0363","ios":"levelo://app?vid=fec4ce55-a98a-408d-955a-7216ba9e0363"},"vehicle_type_id":"4","last_reported":1744419061,"current_range_meters":6400,"station_id":"ce4bhih2rcd13ifvqfr0","pricing_plan_id":"cebpf4jnsgd1na2vs0mg"},{"bike_id":"62c1f836-7b45-44f7-9721-a260943a8081","system_id":"levelo_inurba_marseille","lat":43.275147,"lon":5.424563,"is_reserved":false,"is_disabled":false,"rental_uris":{"android":"levelo://app?vid=62c1f836-7b45-44f7-9721-a260943a8081","ios":"levelo://app?vid=62c1f836-7b45-44f7-9721-a260943a8081"},"vehicle_type_id":"4","last_reported":1744419061,"current_range_meters":6400,"station_id":"ce4bhn92rcd13ifvqgrg","pricing_plan_id":"cebpf4jnsgd1na2vs0mg"},{"bike_id":"a8827283-5cb2-4c69-8f92-cabeabffb47c","system_id":"levelo_inurba_marseille","lat":43.24162,"lon":5.36397,"is_reserved":false,"is_disabled":false,"rental_uris":{"android":"levelo://app?vid=a8827283-5cb2-4c69-8f92-cabeabffb47c","ios":"levelo://app?vid=a8827283-5cb2-4c69-8f92-cabeabffb47c"},"vehicle_type_id":"4","last_reported":1744419061,"current_range_meters":6400,"station_id":"cpo36qri1sfpv3e86is0","pricing_plan_id":"cebpf4jnsgd1na2vs0mg"},{"bike_id":"38682804-f3e9-4669-b2ec-4efeb899e65b","system_id":"levelo_inurba_marseille","lat":43.27389,"lon":5.36263,"is_reserved":false,"is_disabled":false,"rental_uris":{"android":"levelo://app?vid=38682804-f3e9-4669-b2ec-4efeb899e65b","ios":"levelo://app?vid=38682804-f3e9-4669-b2ec-4efeb899e65b"},"vehicle_type_id":"4","last_reported":1744419061,"current_range_meters":6800,"station_id":"ce4bhbh2rcd13ifvqeo0","pricing_plan_id":"cebpf4jnsgd1na2vs0mg"},{"bike_id":"852cb3ef-f89e-49b9-98bc-69fc110588a1","system_id":"levelo_inurba_marseille","lat":43.31932,"lon":5.42908,"is_reserved":false,"is_disabled":false,"rental_uris":{"android":"levelo://app?vid=852cb3ef-f89e-49b9-98bc-69fc110588a1","ios":"levelo://app?vid=852cb3ef-f89e-49b9-98bc-69fc110588a1"},"vehicle_type_id":"4","last_reported":1744419061,"current_range_meters":6800,"station_id":"","pricing_plan_id":"cebpf4jnsgd1na2vs0mg"},{"bike_id":"804f72ac-4cfe-462d-905f-df4a9050d535","system_id":"levelo_inurba_marseille","lat":43.267428,"lon":5.420187,"is_reserved":false,"is_disabled":false,"rental_uris":{"android":"levelo://app?vid=804f72ac-4cfe-462d-905f-df4a9050d535","ios":"levelo://app?vid=804f72ac-4cfe-462d-905f-df4a9050d535"},"vehicle_type_id":"4","last_reported":1744419061,"current_range_meters":6800,"station_id":"ce4bhk92rcd13ifvqgb0","pricing_plan_id":"cebpf4jnsgd1na2vs0mg"},{"bike_id":"65f13d94-cc0c-4685-adf9-43f544b93ed8","system_id":"levelo_inurba_marseille","lat":43.30636,"lon":5.40071,"is_reserved":false,"is_disabled":false,"rental_uris":{"android":"levelo://app?vid=65f13d94-cc0c-4685-adf9-43f544b93ed8","ios":"levelo://app?vid=65f13d94-cc0c-4685-adf9-43f544b93ed8"},"vehicle_type_id":"4","last_reported":1744419061,"current_range_meters":6800,"station_id":"ce4bh112rcd13ifvqda0","pricing_plan_id":"cebpf4jnsgd1na2vs0mg"},{"bike_id":"984bb2aa-d82a-4281-90f1-1529bbc61000","system_id":"levelo_inurba_marseille","lat":43.299245,"lon":5.393265,"is_reserved":false,"is_disabled":false,"rental_uris":{"android":"levelo://app?vid=984bb2aa-d82a-4281-90f1-1529bbc61000","ios":"levelo://app?vid=984bb2aa-d82a-4281-90f1-1529bbc61000"},"vehicle_type_id":"4","last_reported":1744419061,"current_range_meters":6800,"station_id":"","pricing_plan_id":"cebpf4jnsgd1na2vs0mg"},{"bike_id":"457be3cf-e1e1-4d11-8d7c-377dc0cb03e9","system_id":"levelo_inurba_marseille","lat":43.30916,"lon":5.36888,"is_reserved":false,"is_disabled":false,"rental_uris":{"android":"levelo://app?vid=457be3cf-e1e1-4d11-8d7c-377dc0cb03e9","ios":"levelo://app?vid=457be3cf-e1e1-4d11-8d7c-377dc0cb03e9"},"vehicle_type_id":"4","last_reported":1744419061,"current_range_meters":6800,"station_id":"ce4bgn92rcd13ifvqbvg","pricing_plan_id":"cebpf4jnsgd1na2vs0mg"},{"bike_id":"a9f344a9-b5c4-4c6f-adc4-6177f6c8159a","system_id":"levelo_inurba_marseille","lat":43.32824,"lon":5.39745,"is_reserved":false,"is_disabled":false,"rental_uris":{"android":"levelo://app?vid=a9f344a9-b5c4-4c6f-adc4-6177f6c8159a","ios":"levelo://app?vid=a9f344a9-b5c4-4c6f-adc4-6177f6c8159a"},"vehicle_type_id":"4","last_reported":1744419061,"current_range_meters":6800,"station_id":"","pricing_plan_id":"cebpf4jnsgd1na2vs0mg"},{"bike_id":"5fdd3298-d376-47aa-b5b3-d838ecbf8db4","system_id":"levelo_inurba_marseille","lat":43.27993,"lon":5.40029,"is_reserved":false,"is_disabled":false,"rental_uris":{"android":"levelo://app?vid=5fdd3298-d376-47aa-b5b3-d838ecbf8db4","ios":"levelo://app?vid=5fdd3298-d376-47aa-b5b3-d838ecbf8db4"},"vehicle_type_id":"4","last_reported":1744419061,"current_range_meters":7200,"station_id":"ce4bho92rcd13ifvqh4g","pricing_plan_id":"cebpf4jnsgd1na2vs0mg"},{"bike_id":"87a24e9d-7861-4f40-9465-51ec61c9e47e","system_id":"levelo_inurba_marseille","lat":43.27824,"lon":5.4071,"is_reserved":false,"is_disabled":false,"rental_uris":{"android":"levelo://app?vid=87a24e9d-7861-4f40-9465-51ec61c9e47e","ios":"levelo://app?vid=87a24e9d-7861-4f40-9465-51ec61c9e47e"},"vehicle_type_id":"4","last_reported":1744419061,"current_range_meters":7200,"station_id":"ce4bhnh2rcd13ifvqgtg","pricing_plan_id":"cebpf4jnsgd1na2vs0mg"},{"bike_id":"7a6ccf65-2a8c-44ea-9b00-69370d6c9c96","system_id":"levelo_inurba_marseille","lat":43.31495,"lon":5.37287,"is_reserved":false,"is_disabled":false,"rental_uris":{"android":"levelo://app?vid=7a6ccf65-2a8c-44ea-9b00-69370d6c9c96","ios":"levelo://app?vid=7a6ccf65-2a8c-44ea-9b00-69370d6c9c96"},"vehicle_type_id":"4","last_reported":1744419061,"current_range_meters":7200,"station_id":"ce4bgt12rcd13ifvqcd0","pricing_plan_id":"cebpf4jnsgd1na2vs0mg"},{"bike_id":"48ce90a6-ad06-48b8-8a50-53394a4d9dc1","system_id":"levelo_inurba_marseille","lat":43.31485,"lon":5.37295,"is_reserved":false,"is_disabled":false,"rental_uris":{"android":"levelo://app?vid=48ce90a6-ad06-48b8-8a50-53394a4d9dc1","ios":"levelo://app?vid=48ce90a6-ad06-48b8-8a50-53394a4d9dc1"},"vehicle_type_id":"4","last_reported":1744419061,"current_range_meters":7200,"station_id":"ce4bgt12rcd13ifvqcd0","pricing_plan_id":"cebpf4jnsgd1na2vs0mg"},{"bike_id":"26623fb2-7216-4b3a-8662-22d09d94084a","system_id":"levelo_inurba_marseille","lat":43.24667,"lon":5.38151,"is_reserved":false,"is_disabled":false,"rental_uris":{"android":"levelo://app?vid=26623fb2-7216-4b3a-8662-22d09d94084a","ios":"levelo://app?vid=26623fb2-7216-4b3a-8662-22d09d94084a"},"vehicle_type_id":"4","last_reported":1744419061,"current_range_meters":7200,"station_id":"ce4bhih2rcd13ifvqfr0","pricing_plan_id":"cebpf4jnsgd1na2vs0mg"},{"bike_id":"1c1ee69d-9d8f-49cd-9eab-2bf05ef7973b","system_id":"levelo_inurba_marseille","lat":43.30535,"lon":5.36695,"is_reserved":false,"is_disabled":false,"rental_uris":{"android":"levelo://app?vid=1c1ee69d-9d8f-49cd-9eab-2bf05ef7973b","ios":"levelo://app?vid=1c1ee69d-9d8f-49cd-9eab-2bf05ef7973b"},"vehicle_type_id":"4","last_reported":1744419061,"current_range_meters":7200,"station_id":"ce4bgrp2rcd13ifvqc9g","pricing_plan_id":"cebpf4jnsgd1na2vs0mg"},{"bike_id":"ce1b1142-9327-4d65-9036-d543a43b1fdc","system_id":"levelo_inurba_marseille","lat":43.29809,"lon":5.40391,"is_reserved":false,"is_disabled":false,"rental_uris":{"android":"levelo://app?vid=ce1b1142-9327-4d65-9036-d543a43b1fdc","ios":"levelo://app?vid=ce1b1142-9327-4d65-9036-d543a43b1fdc"},"vehicle_type_id":"4","last_reported":1744419061,"current_range_meters":7200,"station_id":"ce4bh112rcd13ifvqd90","pricing_plan_id":"cebpf4jnsgd1na2vs0mg"},{"bike_id":"3c79d7e0-9630-42ba-86c1-c8b7b373d6de","system_id":"levelo_inurba_marseille","lat":43.304198,"lon":5.412756,"is_reserved":false,"is_disabled":false,"rental_uris":{"android":"levelo://app?vid=3c79d7e0-9630-42ba-86c1-c8b7b373d6de","ios":"levelo://app?vid=3c79d7e0-9630-42ba-86c1-c8b7b373d6de"},"vehicle_type_id":"4","last_reported":1744419061,"current_range_meters":7200,"station_id":"","pricing_plan_id":"cebpf4jnsgd1na2vs0mg"},{"bike_id":"926fb0a7-820c-4f62-bd23-584e294815aa","system_id":"levelo_inurba_marseille","lat":43.241803,"lon":5.397275,"is_reserved":false,"is_disabled":false,"rental_uris":{"android":"levelo://app?vid=926fb0a7-820c-4f62-bd23-584e294815aa","ios":"levelo://app?vid=926fb0a7-820c-4f62-bd23-584e294815aa"},"vehicle_type_id":"4","last_reported":1744419061,"current_range_meters":7200,"station_id":"ce4bhn12rcd13ifvqgpg","pricing_plan_id":"cebpf4jnsgd1na2vs0mg"},{"bike_id":"744d9e13-4644-4443-baa0-d58aa61dc002","system_id":"levelo_inurba_marseille","lat":43.248106,"lon":5.37461,"is_reserved":false,"is_disabled":false,"rental_uris":{"android":"levelo://app?vid=744d9e13-4644-4443-baa0-d58aa61dc002","ios":"levelo://app?vid=744d9e13-4644-4443-baa0-d58aa61dc002"},"vehicle_type_id":"4","last_reported":1744419061,"current_range_meters":8000,"station_id":"ce4bhgh2rcd13ifvqfb0","pricing_plan_id":"cebpf4jnsgd1na2vs0mg"},{"bike_id":"f973a48a-93d7-4351-ac20-4f62d6298af7","system_id":"levelo_inurba_marseille","lat":43.2572,"lon":5.41113,"is_reserved":false,"is_disabled":false,"rental_uris":{"android":"levelo://app?vid=f973a48a-93d7-4351-ac20-4f62d6298af7","ios":"levelo://app?vid=f973a48a-93d7-4351-ac20-4f62d6298af7"},"vehicle_type_id":"4","last_reported":1744419061,"current_range_meters":8000,"station_id":"ce4bhkp2rcd13ifvqgd0","pricing_plan_id":"cebpf4jnsgd1na2vs0mg"},{"bike_id":"4ea0d65b-b03b-4e5f-9678-939d2cf9fa7b","system_id":"levelo_inurba_marseille","lat":43.29031,"lon":5.38654,"is_reserved":false,"is_disabled":false,"rental_uris":{"android":"levelo://app?vid=4ea0d65b-b03b-4e5f-9678-939d2cf9fa7b","ios":"levelo://app?vid=4ea0d65b-b03b-4e5f-9678-939d2cf9fa7b"},"vehicle_type_id":"4","last_reported":1744419061,"current_range_meters":8000,"station_id":"ce4bh4p2rcd13ifvqe0g","pricing_plan_id":"cebpf4jnsgd1na2vs0mg"},{"bike_id":"91d776a8-7b89-43f2-a2fa-d15df04d9747","system_id":"levelo_inurba_marseille","lat":43.27612,"lon":5.42604,"is_reserved":false,"is_disabled":false,"rental_uris":{"android":"levelo://app?vid=91d776a8-7b89-43f2-a2fa-d15df04d9747","ios":"levelo://app?vid=91d776a8-7b89-43f2-a2fa-d15df04d9747"},"vehicle_type_id":"4","last_reported":1744419061,"current_range_meters":8000,"station_id":"","pricing_plan_id":"cebpf4jnsgd1na2vs0mg"},{"bike_id":"a6dcfa75-306a-4b90-a8ff-900c590ff9ac","system_id":"levelo_inurba_marseille","lat":43.29559,"lon":5.39977,"is_reserved":false,"is_disabled":false,"rental_uris":{"android":"levelo://app?vid=a6dcfa75-306a-4b90-a8ff-900c590ff9ac","ios":"levelo://app?vid=a6dcfa75-306a-4b90-a8ff-900c590ff9ac"},"vehicle_type_id":"4","last_reported":1744419061,"current_range_meters":8000,"station_id":"ce4bh312rcd13ifvqdj0","pricing_plan_id":"cebpf4jnsgd1na2vs0mg"},{"bike_id":"1f5d743d-2bf1-45aa-9f52-7b86530413ea","system_id":"levelo_inurba_marseille","lat":43.3112,"lon":5.37762,"is_reserved":false,"is_disabled":false,"rental_uris":{"android":"levelo://app?vid=1f5d743d-2bf1-45aa-9f52-7b86530413ea","ios":"levelo://app?vid=1f5d743d-2bf1-45aa-9f52-7b86530413ea"},"vehicle_type_id":"4","last_reported":1744419061,"current_range_meters":8000,"station_id":"ce4bgt92rcd13ifvqcg0","pricing_plan_id":"cebpf4jnsgd1na2vs0mg"},{"bike_id":"eab6cbfa-cb8e-47d7-b0d6-226ab7facec7","system_id":"levelo_inurba_marseille","lat":43.31717,"lon":5.42418,"is_reserved":false,"is_disabled":true,"rental_uris":{"android":"levelo://app?vid=eab6cbfa-cb8e-47d7-b0d6-226ab7facec7","ios":"levelo://app?vid=eab6cbfa-cb8e-47d7-b0d6-226ab7facec7"},"vehicle_type_id":"4","last_reported":1744419061,"current_range_meters":8000,"station_id":"ce4bhp92rcd13ifvqhbg","pricing_plan_id":"cebpf4jnsgd1na2vs0mg"},{"bike_id":"820eae00-4001-4b93-98cd-bfbd5fc6ebfe","system_id":"levelo_inurba_marseille","lat":43.26805,"lon":5.4026,"is_reserved":false,"is_disabled":false,"rental_uris":{"android":"levelo://app?vid=820eae00-4001-4b93-98cd-bfbd5fc6ebfe","ios":"levelo://app?vid=820eae00-4001-4b93-98cd-bfbd5fc6ebfe"},"vehicle_type_id":"4","last_reported":1744419061,"current_range_meters":8000,"station_id":"ce501612rcd8frsf0b60","pricing_plan_id":"cebpf4jnsgd1na2vs0mg"},{"bike_id":"5a745208-2db7-4b93-b18e-ee599d2192b6","system_id":"levelo_inurba_marseille","lat":43.25719,"lon":5.41121,"is_reserved":false,"is_disabled":false,"rental_uris":{"android":"levelo://app?vid=5a745208-2db7-4b93-b18e-ee599d2192b6","ios":"levelo://app?vid=5a745208-2db7-4b93-b18e-ee599d2192b6"},"vehicle_type_id":"4","last_reported":1744419061,"current_range_meters":8000,"station_id":"ce4bhkp2rcd13ifvqgd0","pricing_plan_id":"cebpf4jnsgd1na2vs0mg"},{"bike_id":"dee958f8-d40c-446d-a76e-03c7e8652123","system_id":"levelo_inurba_marseille","lat":43.253349,"lon":5.380594,"is_reserved":false,"is_disabled":false,"rental_uris":{"android":"levelo://app?vid=dee958f8-d40c-446d-a76e-03c7e8652123","ios":"levelo://app?vid=dee958f8-d40c-446d-a76e-03c7e8652123"},"vehicle_type_id":"4","last_reported":1744419061,"current_range_meters":8400,"station_id":"ce4bhbp2rcd13ifvqerg","pricing_plan_id":"cebpf4jnsgd1na2vs0mg"},{"bike_id":"1ea57ed5-c453-4030-800f-f7ccf97d8658","system_id":"levelo_inurba_marseille","lat":43.25726,"lon":5.41105,"is_reserved":false,"is_disabled":false,"rental_uris":{"android":"levelo://app?vid=1ea57ed5-c453-4030-800f-f7ccf97d8658","ios":"levelo://app?vid=1ea57ed5-c453-4030-800f-f7ccf97d8658"},"vehicle_type_id":"4","last_reported":1744419061,"current_range_meters":8400,"station_id":"ce4bhkp2rcd13ifvqgd0","pricing_plan_id":"cebpf4jnsgd1na2vs0mg"},{"bike_id":"d334824f-7d21-463a-98af-4ab8281df10e","system_id":"levelo_inurba_marseille","lat":43.241653,"lon":5.363861,"is_reserved":false,"is_disabled":false,"rental_uris":{"android":"levelo://app?vid=d334824f-7d21-463a-98af-4ab8281df10e","ios":"levelo://app?vid=d334824f-7d21-463a-98af-4ab8281df10e"},"vehicle_type_id":"4","last_reported":1744419061,"current_range_meters":8400,"station_id":"cpo36qri1sfpv3e86is0","pricing_plan_id":"cebpf4jnsgd1na2vs0mg"},{"bike_id":"f76d12dc-ebdf-46e3-89d0-897a377cfadf","system_id":"levelo_inurba_marseille","lat":43.29256,"lon":5.38442,"is_reserved":false,"is_disabled":true,"rental_uris":{"android":"levelo://app?vid=f76d12dc-ebdf-46e3-89d0-897a377cfadf","ios":"levelo://app?vid=f76d12dc-ebdf-46e3-89d0-897a377cfadf"},"vehicle_type_id":"4","last_reported":1744419061,"current_range_meters":8400,"station_id":"ce4bh692rcd13ifvqea0","pricing_plan_id":"cebpf4jnsgd1na2vs0mg"},{"bike_id":"44563f05-de49-4b99-a909-a65b67b37d36","system_id":"levelo_inurba_marseille","lat":43.27047,"lon":5.40262,"is_reserved":false,"is_disabled":false,"rental_uris":{"android":"levelo://app?vid=44563f05-de49-4b99-a909-a65b67b37d36","ios":"levelo://app?vid=44563f05-de49-4b99-a909-a65b67b37d36"},"vehicle_type_id":"4","last_reported":1744419061,"current_range_meters":8400,"station_id":"ce4bhk92rcd13ifvqgc0","pricing_plan_id":"cebpf4jnsgd1na2vs0mg"},{"bike_id":"e91ebdae-a6fc-4100-9a9d-1e8263645ef3","system_id":"levelo_inurba_marseille","lat":43.32657,"lon":5.40994,"is_reserved":false,"is_disabled":false,"rental_uris":{"android":"levelo://app?vid=e91ebdae-a6fc-4100-9a9d-1e8263645ef3","ios":"levelo://app?vid=e91ebdae-a6fc-4100-9a9d-1e8263645ef3"},"vehicle_type_id":"4","last_reported":1744419061,"current_range_meters":8400,"station_id":"ce4bhpp2rcd13ifvqhgg","pricing_plan_id":"cebpf4jnsgd1na2vs0mg"},{"bike_id":"731d3b2c-5dcf-4e0f-8ace-f77c2823dabd","system_id":"levelo_inurba_marseille","lat":43.30303,"lon":5.39201,"is_reserved":false,"is_disabled":false,"rental_uris":{"android":"levelo://app?vid=731d3b2c-5dcf-4e0f-8ace-f77c2823dabd","ios":"levelo://app?vid=731d3b2c-5dcf-4e0f-8ace-f77c2823dabd"},"vehicle_type_id":"4","last_reported":1744419061,"current_range_meters":8400,"station_id":"ce4bgkh2rcd13ifvqbk0","pricing_plan_id":"cebpf4jnsgd1na2vs0mg"},{"bike_id":"3bbb74ad-d656-406a-b153-f2f275de884d","system_id":"levelo_inurba_marseille","lat":43.27574,"lon":5.38411,"is_reserved":false,"is_disabled":false,"rental_uris":{"android":"levelo://app?vid=3bbb74ad-d656-406a-b153-f2f275de884d","ios":"levelo://app?vid=3bbb74ad-d656-406a-b153-f2f275de884d"},"vehicle_type_id":"4","last_reported":1744419061,"current_range_meters":8800,"station_id":"ce4bhh92rcd13ifvqfi0","pricing_plan_id":"cebpf4jnsgd1na2vs0mg"},{"bike_id":"10d7317a-220c-4500-9539-bba6e5c8946b","system_id":"levelo_inurba_marseille","lat":43.304666,"lon":5.379106,"is_reserved":false,"is_disabled":false,"rental_uris":{"android":"levelo://app?vid=10d7317a-220c-4500-9539-bba6e5c8946b","ios":"levelo://app?vid=10d7317a-220c-4500-9539-bba6e5c8946b"},"vehicle_type_id":"4","last_reported":1744419061,"current_range_meters":8800,"station_id":"ce4bgup2rcd13ifvqcn0","pricing_plan_id":"cebpf4jnsgd1na2vs0mg"},{"bike_id":"eb113507-1b5d-4d7a-b91c-d596662895e6","system_id":"levelo_inurba_marseille","lat":43.29558,"lon":5.39356,"is_reserved":false,"is_disabled":false,"rental_uris":{"android":"levelo://app?vid=eb113507-1b5d-4d7a-b91c-d596662895e6","ios":"levelo://app?vid=eb113507-1b5d-4d7a-b91c-d596662895e6"},"vehicle_type_id":"4","last_reported":1744419061,"current_range_meters":8800,"station_id":"","pricing_plan_id":"cebpf4jnsgd1na2vs0mg"},{"bike_id":"8b4c8d12-5212-410c-bdd4-63122234f668","system_id":"levelo_inurba_marseille","lat":43.22935,"lon":5.35377,"is_reserved":false,"is_disabled":false,"rental_uris":{"android":"levelo://app?vid=8b4c8d12-5212-410c-bdd4-63122234f668","ios":"levelo://app?vid=8b4c8d12-5212-410c-bdd4-63122234f668"},"vehicle_type_id":"4","last_reported":1744419061,"current_range_meters":8800,"station_id":"cpo3532slgdg3j2ikp40","pricing_plan_id":"cebpf4jnsgd1na2vs0mg"},{"bike_id":"83559f3c-7c75-49fb-ab96-692538053b38","system_id":"levelo_inurba_marseille","lat":43.26555,"lon":5.37277,"is_reserved":false,"is_disabled":false,"rental_uris":{"android":"levelo://app?vid=83559f3c-7c75-49fb-ab96-692538053b38","ios":"levelo://app?vid=83559f3c-7c75-49fb-ab96-692538053b38"},"vehicle_type_id":"4","last_reported":1744419061,"current_range_meters":8800,"station_id":"ce4bhg12rcd13ifvqf70","pricing_plan_id":"cebpf4jnsgd1na2vs0mg"},{"bike_id":"d163dd79-23a0-4b90-aa1d-74471b5669df","system_id":"levelo_inurba_marseille","lat":43.24677,"lon":5.38125,"is_reserved":false,"is_disabled":false,"rental_uris":{"android":"levelo://app?vid=d163dd79-23a0-4b90-aa1d-74471b5669df","ios":"levelo://app?vid=d163dd79-23a0-4b90-aa1d-74471b5669df"},"vehicle_type_id":"4","last_reported":1744419061,"current_range_meters":8800,"station_id":"ce4bhih2rcd13ifvqfr0","pricing_plan_id":"cebpf4jnsgd1na2vs0mg"},{"bike_id":"984b5f46-10b3-44ca-bd47-c00d55ff9d5d","system_id":"levelo_inurba_marseille","lat":43.30814,"lon":5.38156,"is_reserved":false,"is_disabled":false,"rental_uris":{"android":"levelo://app?vid=984b5f46-10b3-44ca-bd47-c00d55ff9d5d","ios":"levelo://app?vid=984b5f46-10b3-44ca-bd47-c00d55ff9d5d"},"vehicle_type_id":"4","last_reported":1744419061,"current_range_meters":8800,"station_id":"ce4bgt12rcd13ifvqce0","pricing_plan_id":"cebpf4jnsgd1na2vs0mg"},{"bike_id":"7e287c76-4f19-4b6c-bb36-ea54c2b11237","system_id":"levelo_inurba_marseille","lat":43.32335,"lon":5.40619,"is_reserved":false,"is_disabled":false,"rental_uris":{"android":"levelo://app?vid=7e287c76-4f19-4b6c-bb36-ea54c2b11237","ios":"levelo://app?vid=7e287c76-4f19-4b6c-bb36-ea54c2b11237"},"vehicle_type_id":"4","last_reported":1744419061,"current_range_meters":9200,"station_id":"ce4bhq92rcd13ifvqhjg","pricing_plan_id":"cebpf4jnsgd1na2vs0mg"},{"bike_id":"6d239a60-5c37-4036-b60e-d60628d139cf","system_id":"levelo_inurba_marseille","lat":43.287086,"lon":5.373847,"is_reserved":false,"is_disabled":false,"rental_uris":{"android":"levelo://app?vid=6d239a60-5c37-4036-b60e-d60628d139cf","ios":"levelo://app?vid=6d239a60-5c37-4036-b60e-d60628d139cf"},"vehicle_type_id":"4","last_reported":1744419061,"current_range_meters":9200,"station_id":"ce4bh3p2rcd13ifvqdq0","pricing_plan_id":"cebpf4jnsgd1na2vs0mg"},{"bike_id":"7e0ffe9d-35a0-4d50-b784-ab4fc938da33","system_id":"levelo_inurba_marseille","lat":43.30301,"lon":5.39211,"is_reserved":false,"is_disabled":false,"rental_uris":{"android":"levelo://app?vid=7e0ffe9d-35a0-4d50-b784-ab4fc938da33","ios":"levelo://app?vid=7e0ffe9d-35a0-4d50-b784-ab4fc938da33"},"vehicle_type_id":"4","last_reported":1744419061,"current_range_meters":9200,"station_id":"ce4bgkh2rcd13ifvqbk0","pricing_plan_id":"cebpf4jnsgd1na2vs0mg"},{"bike_id":"d98a81af-91d3-4f9b-aeb7-539ba68dcd85","system_id":"levelo_inurba_marseille","lat":43.29926,"lon":5.37462,"is_reserved":false,"is_disabled":false,"rental_uris":{"android":"levelo://app?vid=d98a81af-91d3-4f9b-aeb7-539ba68dcd85","ios":"levelo://app?vid=d98a81af-91d3-4f9b-aeb7-539ba68dcd85"},"vehicle_type_id":"4","last_reported":1744419061,"current_range_meters":9200,"station_id":"ce4bgjh2rcd13ifvqbg0","pricing_plan_id":"cebpf4jnsgd1na2vs0mg"},{"bike_id":"20eb53d5-dc7b-4fbe-a6da-7e0a348438c0","system_id":"levelo_inurba_marseille","lat":43.279147,"lon":5.39595,"is_reserved":false,"is_disabled":true,"rental_uris":{"android":"levelo://app?vid=20eb53d5-dc7b-4fbe-a6da-7e0a348438c0","ios":"levelo://app?vid=20eb53d5-dc7b-4fbe-a6da-7e0a348438c0"},"vehicle_type_id":"4","last_reported":1744419061,"current_range_meters":9200,"station_id":"ce4bhf92rcd13ifvqf40","pricing_plan_id":"cebpf4jnsgd1na2vs0mg"},{"bike_id":"94455896-0f19-4fae-bd72-9879f01fcd6e","system_id":"levelo_inurba_marseille","lat":43.29532,"lon":5.42267,"is_reserved":false,"is_disabled":true,"rental_uris":{"android":"levelo://app?vid=94455896-0f19-4fae-bd72-9879f01fcd6e","ios":"levelo://app?vid=94455896-0f19-4fae-bd72-9879f01fcd6e"},"vehicle_type_id":"4","last_reported":1744419061,"current_range_meters":9200,"station_id":"ce4bhph2rcd13ifvqhdg","pricing_plan_id":"cebpf4jnsgd1na2vs0mg"},{"bike_id":"3d061742-9cd2-45b6-a9ce-670ed400127a","system_id":"levelo_inurba_marseille","lat":43.28472,"lon":5.38417,"is_reserved":false,"is_disabled":false,"rental_uris":{"android":"levelo://app?vid=3d061742-9cd2-45b6-a9ce-670ed400127a","ios":"levelo://app?vid=3d061742-9cd2-45b6-a9ce-670ed400127a"},"vehicle_type_id":"4","last_reported":1744419061,"current_range_meters":9200,"station_id":"ce4bh512rcd13ifvqe3g","pricing_plan_id":"cebpf4jnsgd1na2vs0mg"},{"bike_id":"e0487cbb-6aa7-4fe8-9aa7-7b771d7aec2a","system_id":"levelo_inurba_marseille","lat":43.26189,"lon":5.40401,"is_reserved":false,"is_disabled":false,"rental_uris":{"android":"levelo://app?vid=e0487cbb-6aa7-4fe8-9aa7-7b771d7aec2a","ios":"levelo://app?vid=e0487cbb-6aa7-4fe8-9aa7-7b771d7aec2a"},"vehicle_type_id":"4","last_reported":1744419061,"current_range_meters":9200,"station_id":"ce4bhmh2rcd13ifvqgmg","pricing_plan_id":"cebpf4jnsgd1na2vs0mg"},{"bike_id":"1ac19b6a-4c6f-4d4d-901c-dd1716ba1b48","system_id":"levelo_inurba_marseille","lat":43.30959,"lon":5.40467,"is_reserved":false,"is_disabled":false,"rental_uris":{"android":"levelo://app?vid=1ac19b6a-4c6f-4d4d-901c-dd1716ba1b48","ios":"levelo://app?vid=1ac19b6a-4c6f-4d4d-901c-dd1716ba1b48"},"vehicle_type_id":"4","last_reported":1744419061,"current_range_meters":9600,"station_id":"","pricing_plan_id":"cebpf4jnsgd1na2vs0mg"},{"bike_id":"289f5b70-3dad-4039-97f5-db024c720161","system_id":"levelo_inurba_marseille","lat":43.27172,"lon":5.40871,"is_reserved":false,"is_disabled":false,"rental_uris":{"android":"levelo://app?vid=289f5b70-3dad-4039-97f5-db024c720161","ios":"levelo://app?vid=289f5b70-3dad-4039-97f5-db024c720161"},"vehicle_type_id":"4","last_reported":1744419061,"current_range_meters":9600,"station_id":"","pricing_plan_id":"cebpf4jnsgd1na2vs0mg"},{"bike_id":"cc83a7aa-57a1-4769-9137-8531613b4691","system_id":"levelo_inurba_marseille","lat":43.312441,"lon":5.373048,"is_reserved":false,"is_disabled":false,"rental_uris":{"android":"levelo://app?vid=cc83a7aa-57a1-4769-9137-8531613b4691","ios":"levelo://app?vid=cc83a7aa-57a1-4769-9137-8531613b4691"},"vehicle_type_id":"4","last_reported":1744419061,"current_range_meters":9600,"station_id":"","pricing_plan_id":"cebpf4jnsgd1na2vs0mg"},{"bike_id":"81750a59-05a2-4cd9-a1de-291caa7eca04","system_id":"levelo_inurba_marseille","lat":43.30277,"lon":5.37709,"is_reserved":false,"is_disabled":false,"rental_uris":{"android":"levelo://app?vid=81750a59-05a2-4cd9-a1de-291caa7eca04","ios":"levelo://app?vid=81750a59-05a2-4cd9-a1de-291caa7eca04"},"vehicle_type_id":"4","last_reported":1744419061,"current_range_meters":9600,"station_id":"ce4bguh2rcd13ifvqcj0","pricing_plan_id":"cebpf4jnsgd1na2vs0mg"},{"bike_id":"173bc9a4-de98-43a8-b692-4fbb90439da0","system_id":"levelo_inurba_marseille","lat":43.319936,"lon":5.381604,"is_reserved":false,"is_disabled":false,"rental_uris":{"android":"levelo://app?vid=173bc9a4-de98-43a8-b692-4fbb90439da0","ios":"levelo://app?vid=173bc9a4-de98-43a8-b692-4fbb90439da0"},"vehicle_type_id":"4","last_reported":1744419061,"current_range_meters":9600,"station_id":"ce4bhr12rcd13ifvqhpg","pricing_plan_id":"cebpf4jnsgd1na2vs0mg"},{"bike_id":"5cd11f78-30e5-4350-a00c-3f350eaebc07","system_id":"levelo_inurba_marseille","lat":43.305337,"lon":5.384255,"is_reserved":false,"is_disabled":false,"rental_uris":{"android":"levelo://app?vid=5cd11f78-30e5-4350-a00c-3f350eaebc07","ios":"levelo://app?vid=5cd11f78-30e5-4350-a00c-3f350eaebc07"},"vehicle_type_id":"4","last_reported":1744419061,"current_range_meters":9600,"station_id":"ce4bgg92rcd13ifvqb30","pricing_plan_id":"cebpf4jnsgd1na2vs0mg"},{"bike_id":"01094058-5f6e-4806-8468-5742bf0d03b2","system_id":"levelo_inurba_marseille","lat":43.305914,"lon":5.393433,"is_reserved":false,"is_disabled":false,"rental_uris":{"android":"levelo://app?vid=01094058-5f6e-4806-8468-5742bf0d03b2","ios":"levelo://app?vid=01094058-5f6e-4806-8468-5742bf0d03b2"},"vehicle_type_id":"4","last_reported":1744419061,"current_range_meters":9600,"station_id":"ce4bh0p2rcd13ifvqd80","pricing_plan_id":"cebpf4jnsgd1na2vs0mg"},{"bike_id":"1336e396-42d3-4793-9e88-7fddbf32b9c1","system_id":"levelo_inurba_marseille","lat":43.30463,"lon":5.37896,"is_reserved":false,"is_disabled":false,"rental_uris":{"android":"levelo://app?vid=1336e396-42d3-4793-9e88-7fddbf32b9c1","ios":"levelo://app?vid=1336e396-42d3-4793-9e88-7fddbf32b9c1"},"vehicle_type_id":"4","last_reported":1744419061,"current_range_meters":9600,"station_id":"ce4bgup2rcd13ifvqcn0","pricing_plan_id":"cebpf4jnsgd1na2vs0mg"},{"bike_id":"67b6e210-fc1d-4f60-bfed-dd88e8dba9f1","system_id":"levelo_inurba_marseille","lat":43.25828,"lon":5.3943,"is_reserved":false,"is_disabled":false,"rental_uris":{"android":"levelo://app?vid=67b6e210-fc1d-4f60-bfed-dd88e8dba9f1","ios":"levelo://app?vid=67b6e210-fc1d-4f60-bfed-dd88e8dba9f1"},"vehicle_type_id":"4","last_reported":1744419061,"current_range_meters":9600,"station_id":"ce4bhip2rcd13ifvqft0","pricing_plan_id":"cebpf4jnsgd1na2vs0mg"},{"bike_id":"c0478c87-f1e0-4868-83cb-84ec281be2b8","system_id":"levelo_inurba_marseille","lat":43.336054,"lon":5.410289,"is_reserved":false,"is_disabled":false,"rental_uris":{"android":"levelo://app?vid=c0478c87-f1e0-4868-83cb-84ec281be2b8","ios":"levelo://app?vid=c0478c87-f1e0-4868-83cb-84ec281be2b8"},"vehicle_type_id":"4","last_reported":1744419061,"current_range_meters":9600,"station_id":"ce4bhqh2rcd13ifvqhmg","pricing_plan_id":"cebpf4jnsgd1na2vs0mg"},{"bike_id":"6672fdf2-e040-406a-b108-56e2262a1091","system_id":"levelo_inurba_marseille","lat":43.29718,"lon":5.36609,"is_reserved":false,"is_disabled":false,"rental_uris":{"android":"levelo://app?vid=6672fdf2-e040-406a-b108-56e2262a1091","ios":"levelo://app?vid=6672fdf2-e040-406a-b108-56e2262a1091"},"vehicle_type_id":"4","last_reported":1744419061,"current_range_meters":9600,"station_id":"ce4bgn12rcd13ifvqbt0","pricing_plan_id":"cebpf4jnsgd1na2vs0mg"},{"bike_id":"9221d150-2b7c-49b1-921d-0cd476018673","system_id":"levelo_inurba_marseille","lat":43.30113,"lon":5.37071,"is_reserved":false,"is_disabled":false,"rental_uris":{"android":"levelo://app?vid=9221d150-2b7c-49b1-921d-0cd476018673","ios":"levelo://app?vid=9221d150-2b7c-49b1-921d-0cd476018673"},"vehicle_type_id":"4","last_reported":1744419061,"current_range_meters":9600,"station_id":"","pricing_plan_id":"cebpf4jnsgd1na2vs0mg"},{"bike_id":"4614ddd5-5aac-42b1-b3d4-905343369df1","system_id":"levelo_inurba_marseille","lat":43.27948,"lon":5.41049,"is_reserved":false,"is_disabled":false,"rental_uris":{"android":"levelo://app?vid=4614ddd5-5aac-42b1-b3d4-905343369df1","ios":"levelo://app?vid=4614ddd5-5aac-42b1-b3d4-905343369df1"},"vehicle_type_id":"4","last_reported":1744419061,"current_range_meters":9600,"station_id":"ce4bhnp2rcd13ifvqh0g","pricing_plan_id":"cebpf4jnsgd1na2vs0mg"},{"bike_id":"a91984a3-a6ce-4421-8b70-93389255e88f","system_id":"levelo_inurba_marseille","lat":43.32998,"lon":5.4386,"is_reserved":false,"is_disabled":false,"rental_uris":{"android":"levelo://app?vid=a91984a3-a6ce-4421-8b70-93389255e88f","ios":"levelo://app?vid=a91984a3-a6ce-4421-8b70-93389255e88f"},"vehicle_type_id":"4","last_reported":1744419061,"current_range_meters":10000,"station_id":"","pricing_plan_id":"cebpf4jnsgd1na2vs0mg"},{"bike_id":"d6c423ad-693a-42e8-bcad-89087df9e68f","system_id":"levelo_inurba_marseille","lat":43.24185,"lon":5.39716,"is_reserved":false,"is_disabled":false,"rental_uris":{"android":"levelo://app?vid=d6c423ad-693a-42e8-bcad-89087df9e68f","ios":"levelo://app?vid=d6c423ad-693a-42e8-bcad-89087df9e68f"},"vehicle_type_id":"4","last_reported":1744419061,"current_range_meters":10000,"station_id":"ce4bhn12rcd13ifvqgpg","pricing_plan_id":"cebpf4jnsgd1na2vs0mg"},{"bike_id":"463b41fd-37bb-48c0-a6e4-12f737a3d7cf","system_id":"levelo_inurba_marseille","lat":43.26982,"lon":5.40341,"is_reserved":false,"is_disabled":true,"rental_uris":{"android":"levelo://app?vid=463b41fd-37bb-48c0-a6e4-12f737a3d7cf","ios":"levelo://app?vid=463b41fd-37bb-48c0-a6e4-12f737a3d7cf"},"vehicle_type_id":"4","last_reported":1744419061,"current_range_meters":10000,"station_id":"cjm6bp8fraef2m0cb0m0","pricing_plan_id":"cebpf4jnsgd1na2vs0mg"},{"bike_id":"9e128e8c-c526-4301-bc99-6fdaa04a15c9","system_id":"levelo_inurba_marseille","lat":43.27562,"lon":5.38409,"is_reserved":false,"is_disabled":false,"rental_uris":{"android":"levelo://app?vid=9e128e8c-c526-4301-bc99-6fdaa04a15c9","ios":"levelo://app?vid=9e128e8c-c526-4301-bc99-6fdaa04a15c9"},"vehicle_type_id":"4","last_reported":1744419061,"current_range_meters":10000,"station_id":"ce4bhh92rcd13ifvqfi0","pricing_plan_id":"cebpf4jnsgd1na2vs0mg"},{"bike_id":"6dc2c6d1-9c29-46f1-831f-679aa012aec9","system_id":"levelo_inurba_marseille","lat":43.30888,"lon":5.37188,"is_reserved":false,"is_disabled":false,"rental_uris":{"android":"levelo://app?vid=6dc2c6d1-9c29-46f1-831f-679aa012aec9","ios":"levelo://app?vid=6dc2c6d1-9c29-46f1-831f-679aa012aec9"},"vehicle_type_id":"4","last_reported":1744419061,"current_range_meters":10000,"station_id":"ce4bguh2rcd13ifvqckg","pricing_plan_id":"cebpf4jnsgd1na2vs0mg"},{"bike_id":"b105010c-b749-48b7-8743-e65c5024e2fe","system_id":"levelo_inurba_marseille","lat":43.25091,"lon":5.40331,"is_reserved":false,"is_disabled":false,"rental_uris":{"android":"levelo://app?vid=b105010c-b749-48b7-8743-e65c5024e2fe","ios":"levelo://app?vid=b105010c-b749-48b7-8743-e65c5024e2fe"},"vehicle_type_id":"4","last_reported":1744419061,"current_range_meters":10000,"station_id":"ce4bhlh2rcd13ifvqgig","pricing_plan_id":"cebpf4jnsgd1na2vs0mg"},{"bike_id":"72adaa87-94dc-4774-aca0-5147bc57bd16","system_id":"levelo_inurba_marseille","lat":43.260244,"lon":5.417434,"is_reserved":false,"is_disabled":false,"rental_uris":{"android":"levelo://app?vid=72adaa87-94dc-4774-aca0-5147bc57bd16","ios":"levelo://app?vid=72adaa87-94dc-4774-aca0-5147bc57bd16"},"vehicle_type_id":"4","last_reported":1744419061,"current_range_meters":10000,"station_id":"","pricing_plan_id":"cebpf4jnsgd1na2vs0mg"},{"bike_id":"3f08cc69-711e-4264-b923-68891203ffa4","system_id":"levelo_inurba_marseille","lat":43.32285,"lon":5.38243,"is_reserved":false,"is_disabled":false,"rental_uris":{"android":"levelo://app?vid=3f08cc69-711e-4264-b923-68891203ffa4","ios":"levelo://app?vid=3f08cc69-711e-4264-b923-68891203ffa4"},"vehicle_type_id":"4","last_reported":1744419061,"current_range_meters":10000,"station_id":"ce4bhr12rcd13ifvqhqg","pricing_plan_id":"cebpf4jnsgd1na2vs0mg"},{"bike_id":"61d05422-38c9-4401-a1fc-453cfa3ee1f7","system_id":"levelo_inurba_marseille","lat":43.2481,"lon":5.37451,"is_reserved":false,"is_disabled":false,"rental_uris":{"android":"levelo://app?vid=61d05422-38c9-4401-a1fc-453cfa3ee1f7","ios":"levelo://app?vid=61d05422-38c9-4401-a1fc-453cfa3ee1f7"},"vehicle_type_id":"4","last_reported":1744419061,"current_range_meters":10000,"station_id":"ce4bhgh2rcd13ifvqfb0","pricing_plan_id":"cebpf4jnsgd1na2vs0mg"},{"bike_id":"9b0093a9-79e0-4880-82c2-96b353b4de72","system_id":"levelo_inurba_marseille","lat":43.30315,"lon":5.40438,"is_reserved":false,"is_disabled":true,"rental_uris":{"android":"levelo://app?vid=9b0093a9-79e0-4880-82c2-96b353b4de72","ios":"levelo://app?vid=9b0093a9-79e0-4880-82c2-96b353b4de72"},"vehicle_type_id":"4","last_reported":1744419061,"current_range_meters":10000,"station_id":"ce4bh012rcd13ifvqd10","pricing_plan_id":"cebpf4jnsgd1na2vs0mg"},{"bike_id":"c659e7c3-9ff1-45a2-a39e-9154274620b0","system_id":"levelo_inurba_marseille","lat":43.30937,"lon":5.4015,"is_reserved":false,"is_disabled":false,"rental_uris":{"android":"levelo://app?vid=c659e7c3-9ff1-45a2-a39e-9154274620b0","ios":"levelo://app?vid=c659e7c3-9ff1-45a2-a39e-9154274620b0"},"vehicle_type_id":"4","last_reported":1744419061,"current_range_meters":10800,"station_id":"ce4bgvp2rcd13ifvqct0","pricing_plan_id":"cebpf4jnsgd1na2vs0mg"},{"bike_id":"1a55349a-2edf-41be-ba26-76f2aaccd8f0","system_id":"levelo_inurba_marseille","lat":43.30641,"lon":5.40067,"is_reserved":false,"is_disabled":false,"rental_uris":{"android":"levelo://app?vid=1a55349a-2edf-41be-ba26-76f2aaccd8f0","ios":"levelo://app?vid=1a55349a-2edf-41be-ba26-76f2aaccd8f0"},"vehicle_type_id":"4","last_reported":1744419061,"current_range_meters":10800,"station_id":"ce4bh112rcd13ifvqda0","pricing_plan_id":"cebpf4jnsgd1na2vs0mg"},{"bike_id":"beb91320-a0db-44de-9b8a-20a46790e92e","system_id":"levelo_inurba_marseille","lat":43.321106,"lon":5.367724,"is_reserved":false,"is_disabled":false,"rental_uris":{"android":"levelo://app?vid=beb91320-a0db-44de-9b8a-20a46790e92e","ios":"levelo://app?vid=beb91320-a0db-44de-9b8a-20a46790e92e"},"vehicle_type_id":"4","last_reported":1744419061,"current_range_meters":10800,"station_id":"ce4bhrh2rcd13ifvqhug","pricing_plan_id":"cebpf4jnsgd1na2vs0mg"},{"bike_id":"80f5992c-b183-460d-8d1b-4c42a2b4d72f","system_id":"levelo_inurba_marseille","lat":43.24159,"lon":5.39758,"is_reserved":false,"is_disabled":false,"rental_uris":{"android":"levelo://app?vid=80f5992c-b183-460d-8d1b-4c42a2b4d72f","ios":"levelo://app?vid=80f5992c-b183-460d-8d1b-4c42a2b4d72f"},"vehicle_type_id":"4","last_reported":1744419061,"current_range_meters":10800,"station_id":"ce4bhn12rcd13ifvqgpg","pricing_plan_id":"cebpf4jnsgd1na2vs0mg"},{"bike_id":"1edba01e-c930-4b1b-82f7-d93b6a404535","system_id":"levelo_inurba_marseille","lat":43.304383,"lon":5.397396,"is_reserved":false,"is_disabled":false,"rental_uris":{"android":"levelo://app?vid=1edba01e-c930-4b1b-82f7-d93b6a404535","ios":"levelo://app?vid=1edba01e-c930-4b1b-82f7-d93b6a404535"},"vehicle_type_id":"4","last_reported":1744419061,"current_range_meters":10800,"station_id":"","pricing_plan_id":"cebpf4jnsgd1na2vs0mg"},{"bike_id":"37864421-51e4-4d5e-801c-7ac32e01e722","system_id":"levelo_inurba_marseille","lat":43.31281,"lon":5.37755,"is_reserved":false,"is_disabled":false,"rental_uris":{"android":"levelo://app?vid=37864421-51e4-4d5e-801c-7ac32e01e722","ios":"levelo://app?vid=37864421-51e4-4d5e-801c-7ac32e01e722"},"vehicle_type_id":"4","last_reported":1744419061,"current_range_meters":10800,"station_id":"","pricing_plan_id":"cebpf4jnsgd1na2vs0mg"},{"bike_id":"d80fda2c-66a9-4b8f-8340-f461224c99f1","system_id":"levelo_inurba_marseille","lat":43.31367,"lon":5.38507,"is_reserved":false,"is_disabled":false,"rental_uris":{"android":"levelo://app?vid=d80fda2c-66a9-4b8f-8340-f461224c99f1","ios":"levelo://app?vid=d80fda2c-66a9-4b8f-8340-f461224c99f1"},"vehicle_type_id":"4","last_reported":1744419061,"current_range_meters":10800,"station_id":"ce4bgt92rcd13ifvqcf0","pricing_plan_id":"cebpf4jnsgd1na2vs0mg"},{"bike_id":"2eaef294-b983-42a2-866a-25a148776b83","system_id":"levelo_inurba_marseille","lat":43.30924,"lon":5.40162,"is_reserved":false,"is_disabled":false,"rental_uris":{"android":"levelo://app?vid=2eaef294-b983-42a2-866a-25a148776b83","ios":"levelo://app?vid=2eaef294-b983-42a2-866a-25a148776b83"},"vehicle_type_id":"4","last_reported":1744419061,"current_range_meters":10800,"station_id":"ce4bgvp2rcd13ifvqct0","pricing_plan_id":"cebpf4jnsgd1na2vs0mg"},{"bike_id":"9a048efe-3f5b-45ef-bee6-80524b1147f3","system_id":"levelo_inurba_marseille","lat":43.330777,"lon":5.408253,"is_reserved":false,"is_disabled":false,"rental_uris":{"android":"levelo://app?vid=9a048efe-3f5b-45ef-bee6-80524b1147f3","ios":"levelo://app?vid=9a048efe-3f5b-45ef-bee6-80524b1147f3"},"vehicle_type_id":"4","last_reported":1744419061,"current_range_meters":11200,"station_id":"","pricing_plan_id":"cebpf4jnsgd1na2vs0mg"},{"bike_id":"13a78693-e4d9-42bc-812e-c30da6e44f41","system_id":"levelo_inurba_marseille","lat":43.31896,"lon":5.40731,"is_reserved":false,"is_disabled":false,"rental_uris":{"android":"levelo://app?vid=13a78693-e4d9-42bc-812e-c30da6e44f41","ios":"levelo://app?vid=13a78693-e4d9-42bc-812e-c30da6e44f41"},"vehicle_type_id":"4","last_reported":1744419061,"current_range_meters":11200,"station_id":"ce4bhq12rcd13ifvqhig","pricing_plan_id":"cebpf4jnsgd1na2vs0mg"},{"bike_id":"3ac73e63-1619-4c1b-a7d0-7311424e94ef","system_id":"levelo_inurba_marseille","lat":43.28985,"lon":5.37624,"is_reserved":false,"is_disabled":false,"rental_uris":{"android":"levelo://app?vid=3ac73e63-1619-4c1b-a7d0-7311424e94ef","ios":"levelo://app?vid=3ac73e63-1619-4c1b-a7d0-7311424e94ef"},"vehicle_type_id":"4","last_reported":1744419061,"current_range_meters":11200,"station_id":"","pricing_plan_id":"cebpf4jnsgd1na2vs0mg"},{"bike_id":"4bcdcc82-d58d-4172-b626-a8c82408681c","system_id":"levelo_inurba_marseille","lat":43.31236,"lon":5.36881,"is_reserved":false,"is_disabled":true,"rental_uris":{"android":"levelo://app?vid=4bcdcc82-d58d-4172-b626-a8c82408681c","ios":"levelo://app?vid=4bcdcc82-d58d-4172-b626-a8c82408681c"},"vehicle_type_id":"4","last_reported":1744419061,"current_range_meters":11200,"station_id":"ce4bgl92rcd13ifvqbq0","pricing_plan_id":"cebpf4jnsgd1na2vs0mg"},{"bike_id":"844c6942-35f0-45eb-967c-88cc8ed35da1","system_id":"levelo_inurba_marseille","lat":43.28842,"lon":5.39299,"is_reserved":false,"is_disabled":false,"rental_uris":{"android":"levelo://app?vid=844c6942-35f0-45eb-967c-88cc8ed35da1","ios":"levelo://app?vid=844c6942-35f0-45eb-967c-88cc8ed35da1"},"vehicle_type_id":"4","last_reported":1744419061,"current_range_meters":11200,"station_id":"ce4bh2p2rcd13ifvqdi0","pricing_plan_id":"cebpf4jnsgd1na2vs0mg"},{"bike_id":"411f282c-b696-41a4-888f-752e1134c529","system_id":"levelo_inurba_marseille","lat":43.26222,"lon":5.37483,"is_reserved":false,"is_disabled":true,"rental_uris":{"android":"levelo://app?vid=411f282c-b696-41a4-888f-752e1134c529","ios":"levelo://app?vid=411f282c-b696-41a4-888f-752e1134c529"},"vehicle_type_id":"4","last_reported":1744419061,"current_range_meters":11200,"station_id":"","pricing_plan_id":"cebpf4jnsgd1na2vs0mg"},{"bike_id":"0c00ca95-3429-45f6-a550-7818d229058c","system_id":"levelo_inurba_marseille","lat":43.2467,"lon":5.38158,"is_reserved":false,"is_disabled":false,"rental_uris":{"android":"levelo://app?vid=0c00ca95-3429-45f6-a550-7818d229058c","ios":"levelo://app?vid=0c00ca95-3429-45f6-a550-7818d229058c"},"vehicle_type_id":"4","last_reported":1744419061,"current_range_meters":11200,"station_id":"ce4bhih2rcd13ifvqfr0","pricing_plan_id":"cebpf4jnsgd1na2vs0mg"},{"bike_id":"0f5a23bd-d371-4aef-ad11-e2b417dbaec4","system_id":"levelo_inurba_marseille","lat":43.29257,"lon":5.40899,"is_reserved":false,"is_disabled":false,"rental_uris":{"android":"levelo://app?vid=0f5a23bd-d371-4aef-ad11-e2b417dbaec4","ios":"levelo://app?vid=0f5a23bd-d371-4aef-ad11-e2b417dbaec4"},"vehicle_type_id":"4","last_reported":1744419061,"current_range_meters":11200,"station_id":"ce4bh192rcd13ifvqdc0","pricing_plan_id":"cebpf4jnsgd1na2vs0mg"},{"bike_id":"4526f96d-098a-4353-bcda-363f1f8f1080","system_id":"levelo_inurba_marseille","lat":43.31356,"lon":5.38496,"is_reserved":false,"is_disabled":false,"rental_uris":{"android":"levelo://app?vid=4526f96d-098a-4353-bcda-363f1f8f1080","ios":"levelo://app?vid=4526f96d-098a-4353-bcda-363f1f8f1080"},"vehicle_type_id":"4","last_reported":1744419061,"current_range_meters":11200,"station_id":"ce4bgt92rcd13ifvqcf0","pricing_plan_id":"cebpf4jnsgd1na2vs0mg"},{"bike_id":"b06dc55a-245e-4087-bd78-24ad0e876443","system_id":"levelo_inurba_marseille","lat":43.27367,"lon":5.36255,"is_reserved":false,"is_disabled":false,"rental_uris":{"android":"levelo://app?vid=b06dc55a-245e-4087-bd78-24ad0e876443","ios":"levelo://app?vid=b06dc55a-245e-4087-bd78-24ad0e876443"},"vehicle_type_id":"4","last_reported":1744419061,"current_range_meters":11200,"station_id":"ce4bhbh2rcd13ifvqeo0","pricing_plan_id":"cebpf4jnsgd1na2vs0mg"},{"bike_id":"f8998113-3b34-437f-95cc-99ab3250e933","system_id":"levelo_inurba_marseille","lat":43.28438,"lon":5.39277,"is_reserved":false,"is_disabled":false,"rental_uris":{"android":"levelo://app?vid=f8998113-3b34-437f-95cc-99ab3250e933","ios":"levelo://app?vid=f8998113-3b34-437f-95cc-99ab3250e933"},"vehicle_type_id":"4","last_reported":1744419061,"current_range_meters":11600,"station_id":"","pricing_plan_id":"cebpf4jnsgd1na2vs0mg"},{"bike_id":"f21cce43-7e86-42c4-8a4d-3c922080ab5c","system_id":"levelo_inurba_marseille","lat":43.28943,"lon":5.36642,"is_reserved":false,"is_disabled":true,"rental_uris":{"android":"levelo://app?vid=f21cce43-7e86-42c4-8a4d-3c922080ab5c","ios":"levelo://app?vid=f21cce43-7e86-42c4-8a4d-3c922080ab5c"},"vehicle_type_id":"4","last_reported":1744419061,"current_range_meters":11600,"station_id":"ce4bhap2rcd13ifvqek0","pricing_plan_id":"cebpf4jnsgd1na2vs0mg"},{"bike_id":"410850f2-1428-4146-a9ea-774d4a6e4e85","system_id":"levelo_inurba_marseille","lat":43.32366,"lon":5.38879,"is_reserved":false,"is_disabled":false,"rental_uris":{"android":"levelo://app?vid=410850f2-1428-4146-a9ea-774d4a6e4e85","ios":"levelo://app?vid=410850f2-1428-4146-a9ea-774d4a6e4e85"},"vehicle_type_id":"4","last_reported":1744419061,"current_range_meters":11600,"station_id":"ce4bhqp2rcd13ifvqhog","pricing_plan_id":"cebpf4jnsgd1na2vs0mg"},{"bike_id":"8c58f2fa-99e1-41f8-bf90-9c1648b679b1","system_id":"levelo_inurba_marseille","lat":43.27312,"lon":5.41436,"is_reserved":false,"is_disabled":false,"rental_uris":{"android":"levelo://app?vid=8c58f2fa-99e1-41f8-bf90-9c1648b679b1","ios":"levelo://app?vid=8c58f2fa-99e1-41f8-bf90-9c1648b679b1"},"vehicle_type_id":"4","last_reported":1744419061,"current_range_meters":11600,"station_id":"","pricing_plan_id":"cebpf4jnsgd1na2vs0mg"},{"bike_id":"1589aadc-3b40-4824-86e1-3be145fc039d","system_id":"levelo_inurba_marseille","lat":43.26792,"lon":5.39412,"is_reserved":false,"is_disabled":false,"rental_uris":{"android":"levelo://app?vid=1589aadc-3b40-4824-86e1-3be145fc039d","ios":"levelo://app?vid=1589aadc-3b40-4824-86e1-3be145fc039d"},"vehicle_type_id":"4","last_reported":1744419061,"current_range_meters":11600,"station_id":"ce4bhh12rcd13ifvqfg0","pricing_plan_id":"cebpf4jnsgd1na2vs0mg"},{"bike_id":"23259ef2-badd-48f2-a7c8-5bd7ac1c2fc8","system_id":"levelo_inurba_marseille","lat":43.30248,"lon":5.40044,"is_reserved":false,"is_disabled":false,"rental_uris":{"android":"levelo://app?vid=23259ef2-badd-48f2-a7c8-5bd7ac1c2fc8","ios":"levelo://app?vid=23259ef2-badd-48f2-a7c8-5bd7ac1c2fc8"},"vehicle_type_id":"4","last_reported":1744419061,"current_range_meters":12000,"station_id":"ce4bgvh2rcd13ifvqcs0","pricing_plan_id":"cebpf4jnsgd1na2vs0mg"},{"bike_id":"bdf54cfd-d693-43ba-9c59-5da3eae2632f","system_id":"levelo_inurba_marseille","lat":43.23962,"lon":5.36629,"is_reserved":false,"is_disabled":false,"rental_uris":{"android":"levelo://app?vid=bdf54cfd-d693-43ba-9c59-5da3eae2632f","ios":"levelo://app?vid=bdf54cfd-d693-43ba-9c59-5da3eae2632f"},"vehicle_type_id":"4","last_reported":1744419061,"current_range_meters":10000,"station_id":"ce4bhi12rcd13ifvqfp0","pricing_plan_id":"cebpf4jnsgd1na2vs0mg"},{"bike_id":"4c893399-b4ed-40ed-a49f-713da320f269","system_id":"levelo_inurba_marseille","lat":43.29861,"lon":5.37841,"is_reserved":false,"is_disabled":false,"rental_uris":{"android":"levelo://app?vid=4c893399-b4ed-40ed-a49f-713da320f269","ios":"levelo://app?vid=4c893399-b4ed-40ed-a49f-713da320f269"},"vehicle_type_id":"4","last_reported":1744419061,"current_range_meters":12000,"station_id":"","pricing_plan_id":"cebpf4jnsgd1na2vs0mg"},{"bike_id":"4a0973b0-92a0-41e8-9b0d-a99e944bafe0","system_id":"levelo_inurba_marseille","lat":43.344834,"lon":5.412784,"is_reserved":false,"is_disabled":false,"rental_uris":{"android":"levelo://app?vid=4a0973b0-92a0-41e8-9b0d-a99e944bafe0","ios":"levelo://app?vid=4a0973b0-92a0-41e8-9b0d-a99e944bafe0"},"vehicle_type_id":"4","last_reported":1744419061,"current_range_meters":12000,"station_id":"","pricing_plan_id":"cebpf4jnsgd1na2vs0mg"},{"bike_id":"82f66a14-1879-4394-b110-3c88a627b5fb","system_id":"levelo_inurba_marseille","lat":43.28676,"lon":5.38674,"is_reserved":false,"is_disabled":false,"rental_uris":{"android":"levelo://app?vid=82f66a14-1879-4394-b110-3c88a627b5fb","ios":"levelo://app?vid=82f66a14-1879-4394-b110-3c88a627b5fb"},"vehicle_type_id":"4","last_reported":1744419061,"current_range_meters":12000,"station_id":"ce4bh492rcd13ifvqdug","pricing_plan_id":"cebpf4jnsgd1na2vs0mg"},{"bike_id":"99ab5d11-2305-4301-9cae-ed10382bd4f4","system_id":"levelo_inurba_marseille","lat":43.30936,"lon":5.39054,"is_reserved":false,"is_disabled":false,"rental_uris":{"android":"levelo://app?vid=99ab5d11-2305-4301-9cae-ed10382bd4f4","ios":"levelo://app?vid=99ab5d11-2305-4301-9cae-ed10382bd4f4"},"vehicle_type_id":"4","last_reported":1744419061,"current_range_meters":12000,"station_id":"ce4bgup2rcd13ifvqco0","pricing_plan_id":"cebpf4jnsgd1na2vs0mg"},{"bike_id":"c90a2010-f5fb-47d3-a1bd-ce2f60fa33c3","system_id":"levelo_inurba_marseille","lat":43.28838,"lon":5.35848,"is_reserved":false,"is_disabled":false,"rental_uris":{"android":"levelo://app?vid=c90a2010-f5fb-47d3-a1bd-ce2f60fa33c3","ios":"levelo://app?vid=c90a2010-f5fb-47d3-a1bd-ce2f60fa33c3"},"vehicle_type_id":"4","last_reported":1744419061,"current_range_meters":12000,"station_id":"ce4bhb12rcd13ifvqem0","pricing_plan_id":"cebpf4jnsgd1na2vs0mg"},{"bike_id":"8eb71173-f801-466e-886e-2d5971761543","system_id":"levelo_inurba_marseille","lat":43.27837,"lon":5.391973,"is_reserved":false,"is_disabled":false,"rental_uris":{"android":"levelo://app?vid=8eb71173-f801-466e-886e-2d5971761543","ios":"levelo://app?vid=8eb71173-f801-466e-886e-2d5971761543"},"vehicle_type_id":"4","last_reported":1744419061,"current_range_meters":12400,"station_id":"ce4bhjp2rcd13ifvqga0","pricing_plan_id":"cebpf4jnsgd1na2vs0mg"},{"bike_id":"cec65770-a28a-483a-9f89-0b34654f8037","system_id":"levelo_inurba_marseille","lat":43.25715,"lon":5.4111,"is_reserved":false,"is_disabled":false,"rental_uris":{"android":"levelo://app?vid=cec65770-a28a-483a-9f89-0b34654f8037","ios":"levelo://app?vid=cec65770-a28a-483a-9f89-0b34654f8037"},"vehicle_type_id":"4","last_reported":1744419061,"current_range_meters":12400,"station_id":"ce4bhkp2rcd13ifvqgd0","pricing_plan_id":"cebpf4jnsgd1na2vs0mg"},{"bike_id":"1cb849f5-4018-4c76-a075-268f516482d1","system_id":"levelo_inurba_marseille","lat":43.29281,"lon":5.40113,"is_reserved":false,"is_disabled":false,"rental_uris":{"android":"levelo://app?vid=1cb849f5-4018-4c76-a075-268f516482d1","ios":"levelo://app?vid=1cb849f5-4018-4c76-a075-268f516482d1"},"vehicle_type_id":"4","last_reported":1744419061,"current_range_meters":12400,"station_id":"ce4bh312rcd13ifvqdk0","pricing_plan_id":"cebpf4jnsgd1na2vs0mg"},{"bike_id":"c514ba15-983b-4a4f-8fca-12d0f738471e","system_id":"levelo_inurba_marseille","lat":43.30947,"lon":5.39041,"is_reserved":false,"is_disabled":false,"rental_uris":{"android":"levelo://app?vid=c514ba15-983b-4a4f-8fca-12d0f738471e","ios":"levelo://app?vid=c514ba15-983b-4a4f-8fca-12d0f738471e"},"vehicle_type_id":"4","last_reported":1744419061,"current_range_meters":12400,"station_id":"ce4bgup2rcd13ifvqco0","pricing_plan_id":"cebpf4jnsgd1na2vs0mg"},{"bike_id":"4651fc10-fe57-460e-89c6-9ba891098581","system_id":"levelo_inurba_marseille","lat":43.24164,"lon":5.36394,"is_reserved":false,"is_disabled":false,"rental_uris":{"android":"levelo://app?vid=4651fc10-fe57-460e-89c6-9ba891098581","ios":"levelo://app?vid=4651fc10-fe57-460e-89c6-9ba891098581"},"vehicle_type_id":"4","last_reported":1744419061,"current_range_meters":12400,"station_id":"cpo36qri1sfpv3e86is0","pricing_plan_id":"cebpf4jnsgd1na2vs0mg"},{"bike_id":"18606129-1f46-4387-94fd-b9b77f87f6a9","system_id":"levelo_inurba_marseille","lat":43.23183,"lon":5.39968,"is_reserved":false,"is_disabled":false,"rental_uris":{"android":"levelo://app?vid=18606129-1f46-4387-94fd-b9b77f87f6a9","ios":"levelo://app?vid=18606129-1f46-4387-94fd-b9b77f87f6a9"},"vehicle_type_id":"4","last_reported":1744419061,"current_range_meters":12400,"station_id":"ce4bhn12rcd13ifvqgqg","pricing_plan_id":"cebpf4jnsgd1na2vs0mg"},{"bike_id":"16fd30b1-cad6-4fc5-9de5-c7170be035f0","system_id":"levelo_inurba_marseille","lat":43.25728,"lon":5.41114,"is_reserved":false,"is_disabled":false,"rental_uris":{"android":"levelo://app?vid=16fd30b1-cad6-4fc5-9de5-c7170be035f0","ios":"levelo://app?vid=16fd30b1-cad6-4fc5-9de5-c7170be035f0"},"vehicle_type_id":"4","last_reported":1744419061,"current_range_meters":12400,"station_id":"ce4bhkp2rcd13ifvqgd0","pricing_plan_id":"cebpf4jnsgd1na2vs0mg"},{"bike_id":"b787a13f-7452-4e43-8aaa-d73fdb97c798","system_id":"levelo_inurba_marseille","lat":43.32103,"lon":5.36792,"is_reserved":false,"is_disabled":false,"rental_uris":{"android":"levelo://app?vid=b787a13f-7452-4e43-8aaa-d73fdb97c798","ios":"levelo://app?vid=b787a13f-7452-4e43-8aaa-d73fdb97c798"},"vehicle_type_id":"4","last_reported":1744419061,"current_range_meters":12800,"station_id":"ce4bhrh2rcd13ifvqhug","pricing_plan_id":"cebpf4jnsgd1na2vs0mg"},{"bike_id":"047e2d26-c924-4ec8-ab9b-033cb13956a5","system_id":"levelo_inurba_marseille","lat":43.30603,"lon":5.37225,"is_reserved":false,"is_disabled":false,"rental_uris":{"android":"levelo://app?vid=047e2d26-c924-4ec8-ab9b-033cb13956a5","ios":"levelo://app?vid=047e2d26-c924-4ec8-ab9b-033cb13956a5"},"vehicle_type_id":"4","last_reported":1744419061,"current_range_meters":12800,"station_id":"ce4bgqh2rcd13ifvqc4g","pricing_plan_id":"cebpf4jnsgd1na2vs0mg"},{"bike_id":"2e845506-0ec9-43b5-9c91-deaab92936dd","system_id":"levelo_inurba_marseille","lat":43.25703,"lon":5.41122,"is_reserved":false,"is_disabled":false,"rental_uris":{"android":"levelo://app?vid=2e845506-0ec9-43b5-9c91-deaab92936dd","ios":"levelo://app?vid=2e845506-0ec9-43b5-9c91-deaab92936dd"},"vehicle_type_id":"4","last_reported":1744419061,"current_range_meters":12800,"station_id":"ce4bhkp2rcd13ifvqgd0","pricing_plan_id":"cebpf4jnsgd1na2vs0mg"},{"bike_id":"e854defc-8e33-40ed-a4f3-45bab2707a87","system_id":"levelo_inurba_marseille","lat":43.30949,"lon":5.40164,"is_reserved":false,"is_disabled":false,"rental_uris":{"android":"levelo://app?vid=e854defc-8e33-40ed-a4f3-45bab2707a87","ios":"levelo://app?vid=e854defc-8e33-40ed-a4f3-45bab2707a87"},"vehicle_type_id":"4","last_reported":1744419061,"current_range_meters":12800,"station_id":"ce4bgvp2rcd13ifvqct0","pricing_plan_id":"cebpf4jnsgd1na2vs0mg"},{"bike_id":"239cd42d-c71b-476e-b191-9537348c4160","system_id":"levelo_inurba_marseille","lat":43.27381,"lon":5.36258,"is_reserved":false,"is_disabled":false,"rental_uris":{"android":"levelo://app?vid=239cd42d-c71b-476e-b191-9537348c4160","ios":"levelo://app?vid=239cd42d-c71b-476e-b191-9537348c4160"},"vehicle_type_id":"4","last_reported":1744419061,"current_range_meters":13600,"station_id":"ce4bhbh2rcd13ifvqeo0","pricing_plan_id":"cebpf4jnsgd1na2vs0mg"},{"bike_id":"c013d600-5e08-48f0-830e-8c965978436b","system_id":"levelo_inurba_marseille","lat":43.30452,"lon":5.38886,"is_reserved":false,"is_disabled":false,"rental_uris":{"android":"levelo://app?vid=c013d600-5e08-48f0-830e-8c965978436b","ios":"levelo://app?vid=c013d600-5e08-48f0-830e-8c965978436b"},"vehicle_type_id":"4","last_reported":1744419061,"current_range_meters":13600,"station_id":"ce4bgk12rcd13ifvqbi0","pricing_plan_id":"cebpf4jnsgd1na2vs0mg"},{"bike_id":"ef291804-1477-432e-b153-82ea15725418","system_id":"levelo_inurba_marseille","lat":43.33742,"lon":5.37454,"is_reserved":false,"is_disabled":false,"rental_uris":{"android":"levelo://app?vid=ef291804-1477-432e-b153-82ea15725418","ios":"levelo://app?vid=ef291804-1477-432e-b153-82ea15725418"},"vehicle_type_id":"4","last_reported":1744419061,"current_range_meters":13600,"station_id":"","pricing_plan_id":"cebpf4jnsgd1na2vs0mg"},{"bike_id":"fddfd75b-4075-4e80-9efd-8b126dedafa3","system_id":"levelo_inurba_marseille","lat":43.286592,"lon":5.363532,"is_reserved":false,"is_disabled":false,"rental_uris":{"android":"levelo://app?vid=fddfd75b-4075-4e80-9efd-8b126dedafa3","ios":"levelo://app?vid=fddfd75b-4075-4e80-9efd-8b126dedafa3"},"vehicle_type_id":"4","last_reported":1744419061,"current_range_meters":13600,"station_id":"ce4bhah2rcd13ifvqej0","pricing_plan_id":"cebpf4jnsgd1na2vs0mg"},{"bike_id":"d38e0e5e-1441-423a-9774-3196b1a1cb17","system_id":"levelo_inurba_marseille","lat":43.30043,"lon":5.40004,"is_reserved":false,"is_disabled":false,"rental_uris":{"android":"levelo://app?vid=d38e0e5e-1441-423a-9774-3196b1a1cb17","ios":"levelo://app?vid=d38e0e5e-1441-423a-9774-3196b1a1cb17"},"vehicle_type_id":"4","last_reported":1744419061,"current_range_meters":13600,"station_id":"","pricing_plan_id":"cebpf4jnsgd1na2vs0mg"},{"bike_id":"3e7e9d34-d749-4fbc-882e-51be4516ee3a","system_id":"levelo_inurba_marseille","lat":43.298731,"lon":5.397338,"is_reserved":false,"is_disabled":false,"rental_uris":{"android":"levelo://app?vid=3e7e9d34-d749-4fbc-882e-51be4516ee3a","ios":"levelo://app?vid=3e7e9d34-d749-4fbc-882e-51be4516ee3a"},"vehicle_type_id":"4","last_reported":1744419061,"current_range_meters":13600,"station_id":"ce4bh0h2rcd13ifvqd50","pricing_plan_id":"cebpf4jnsgd1na2vs0mg"},{"bike_id":"fada94ee-4770-424e-ae84-99e0a30f0067","system_id":"levelo_inurba_marseille","lat":43.248136,"lon":5.374606,"is_reserved":false,"is_disabled":false,"rental_uris":{"android":"levelo://app?vid=fada94ee-4770-424e-ae84-99e0a30f0067","ios":"levelo://app?vid=fada94ee-4770-424e-ae84-99e0a30f0067"},"vehicle_type_id":"4","last_reported":1744419061,"current_range_meters":13600,"station_id":"ce4bhgh2rcd13ifvqfb0","pricing_plan_id":"cebpf4jnsgd1na2vs0mg"},{"bike_id":"43c8bc8e-178f-4215-aeb0-8665bcef7021","system_id":"levelo_inurba_marseille","lat":43.29889,"lon":5.39731,"is_reserved":false,"is_disabled":false,"rental_uris":{"android":"levelo://app?vid=43c8bc8e-178f-4215-aeb0-8665bcef7021","ios":"levelo://app?vid=43c8bc8e-178f-4215-aeb0-8665bcef7021"},"vehicle_type_id":"4","last_reported":1744419061,"current_range_meters":13600,"station_id":"ce4bh0h2rcd13ifvqd50","pricing_plan_id":"cebpf4jnsgd1na2vs0mg"},{"bike_id":"9e32783e-659b-4a4c-a27c-7f80468968c5","system_id":"levelo_inurba_marseille","lat":43.30305,"lon":5.36891,"is_reserved":false,"is_disabled":false,"rental_uris":{"android":"levelo://app?vid=9e32783e-659b-4a4c-a27c-7f80468968c5","ios":"levelo://app?vid=9e32783e-659b-4a4c-a27c-7f80468968c5"},"vehicle_type_id":"4","last_reported":1744419061,"current_range_meters":14000,"station_id":"ce4bgqh2rcd13ifvqc5g","pricing_plan_id":"cebpf4jnsgd1na2vs0mg"},{"bike_id":"ca0a7cb4-3f41-4e66-958e-9d73d87ab4dd","system_id":"levelo_inurba_marseille","lat":43.25104,"lon":5.40322,"is_reserved":false,"is_disabled":false,"rental_uris":{"android":"levelo://app?vid=ca0a7cb4-3f41-4e66-958e-9d73d87ab4dd","ios":"levelo://app?vid=ca0a7cb4-3f41-4e66-958e-9d73d87ab4dd"},"vehicle_type_id":"4","last_reported":1744419061,"current_range_meters":14000,"station_id":"ce4bhlh2rcd13ifvqgig","pricing_plan_id":"cebpf4jnsgd1na2vs0mg"},{"bike_id":"f271ba98-4ee8-4261-802a-627fd7da5e2e","system_id":"levelo_inurba_marseille","lat":43.29796,"lon":5.38095,"is_reserved":false,"is_disabled":false,"rental_uris":{"android":"levelo://app?vid=f271ba98-4ee8-4261-802a-627fd7da5e2e","ios":"levelo://app?vid=f271ba98-4ee8-4261-802a-627fd7da5e2e"},"vehicle_type_id":"4","last_reported":1744419061,"current_range_meters":14000,"station_id":"ce4bgip2rcd13ifvqbb0","pricing_plan_id":"cebpf4jnsgd1na2vs0mg"},{"bike_id":"8a32be91-cac0-4318-a91c-157d49db9553","system_id":"levelo_inurba_marseille","lat":43.29443,"lon":5.3973,"is_reserved":false,"is_disabled":false,"rental_uris":{"android":"levelo://app?vid=8a32be91-cac0-4318-a91c-157d49db9553","ios":"levelo://app?vid=8a32be91-cac0-4318-a91c-157d49db9553"},"vehicle_type_id":"4","last_reported":1744419061,"current_range_meters":14000,"station_id":"ce4bh3h2rcd13ifvqdo0","pricing_plan_id":"cebpf4jnsgd1na2vs0mg"},{"bike_id":"dd64c0e7-64e0-4f92-a620-7a2c964a0050","system_id":"levelo_inurba_marseille","lat":43.32118,"lon":5.36769,"is_reserved":false,"is_disabled":false,"rental_uris":{"android":"levelo://app?vid=dd64c0e7-64e0-4f92-a620-7a2c964a0050","ios":"levelo://app?vid=dd64c0e7-64e0-4f92-a620-7a2c964a0050"},"vehicle_type_id":"4","last_reported":1744419061,"current_range_meters":14000,"station_id":"ce4bhrh2rcd13ifvqhug","pricing_plan_id":"cebpf4jnsgd1na2vs0mg"},{"bike_id":"cfa05593-02c0-4361-b7cb-d147d92b27a4","system_id":"levelo_inurba_marseille","lat":43.24153,"lon":5.36393,"is_reserved":false,"is_disabled":false,"rental_uris":{"android":"levelo://app?vid=cfa05593-02c0-4361-b7cb-d147d92b27a4","ios":"levelo://app?vid=cfa05593-02c0-4361-b7cb-d147d92b27a4"},"vehicle_type_id":"4","last_reported":1744419061,"current_range_meters":14400,"station_id":"cpo36qri1sfpv3e86is0","pricing_plan_id":"cebpf4jnsgd1na2vs0mg"},{"bike_id":"c9aa49b6-dfff-45a5-aada-a9b66a79c5ac","system_id":"levelo_inurba_marseille","lat":43.24672,"lon":5.38171,"is_reserved":false,"is_disabled":false,"rental_uris":{"android":"levelo://app?vid=c9aa49b6-dfff-45a5-aada-a9b66a79c5ac","ios":"levelo://app?vid=c9aa49b6-dfff-45a5-aada-a9b66a79c5ac"},"vehicle_type_id":"4","last_reported":1744419061,"current_range_meters":14400,"station_id":"ce4bhih2rcd13ifvqfr0","pricing_plan_id":"cebpf4jnsgd1na2vs0mg"},{"bike_id":"dab4f8ad-5de1-46f7-adb1-9df3fd570bb6","system_id":"levelo_inurba_marseille","lat":43.29969,"lon":5.38496,"is_reserved":false,"is_disabled":false,"rental_uris":{"android":"levelo://app?vid=dab4f8ad-5de1-46f7-adb1-9df3fd570bb6","ios":"levelo://app?vid=dab4f8ad-5de1-46f7-adb1-9df3fd570bb6"},"vehicle_type_id":"4","last_reported":1744419061,"current_range_meters":14400,"station_id":"ce4bgj92rcd13ifvqbd0","pricing_plan_id":"cebpf4jnsgd1na2vs0mg"},{"bike_id":"b6a7860c-cd83-4936-b893-20491b289fe7","system_id":"levelo_inurba_marseille","lat":43.2989,"lon":5.4367,"is_reserved":false,"is_disabled":false,"rental_uris":{"android":"levelo://app?vid=b6a7860c-cd83-4936-b893-20491b289fe7","ios":"levelo://app?vid=b6a7860c-cd83-4936-b893-20491b289fe7"},"vehicle_type_id":"4","last_reported":1744419061,"current_range_meters":14400,"station_id":"ce4bhpp2rcd13ifvqhfg","pricing_plan_id":"cebpf4jnsgd1na2vs0mg"},{"bike_id":"dab18b13-325e-4529-a2df-5c6e52f9b93f","system_id":"levelo_inurba_marseille","lat":43.280646,"lon":5.387944,"is_reserved":false,"is_disabled":false,"rental_uris":{"android":"levelo://app?vid=dab18b13-325e-4529-a2df-5c6e52f9b93f","ios":"levelo://app?vid=dab18b13-325e-4529-a2df-5c6e52f9b93f"},"vehicle_type_id":"4","last_reported":1744419061,"current_range_meters":14400,"station_id":"ce4bha12rcd13ifvqef0","pricing_plan_id":"cebpf4jnsgd1na2vs0mg"},{"bike_id":"b1e7f30f-0e98-4045-ab31-a659ab637c18","system_id":"levelo_inurba_marseille","lat":43.32369,"lon":5.36775,"is_reserved":false,"is_disabled":false,"rental_uris":{"android":"levelo://app?vid=b1e7f30f-0e98-4045-ab31-a659ab637c18","ios":"levelo://app?vid=b1e7f30f-0e98-4045-ab31-a659ab637c18"},"vehicle_type_id":"4","last_reported":1744419061,"current_range_meters":14400,"station_id":"ce4bhsh2rcd13ifvqi2g","pricing_plan_id":"cebpf4jnsgd1na2vs0mg"},{"bike_id":"fdf0c959-920f-454c-a18e-376100b9d38b","system_id":"levelo_inurba_marseille","lat":43.27831,"lon":5.39206,"is_reserved":false,"is_disabled":false,"rental_uris":{"android":"levelo://app?vid=fdf0c959-920f-454c-a18e-376100b9d38b","ios":"levelo://app?vid=fdf0c959-920f-454c-a18e-376100b9d38b"},"vehicle_type_id":"4","last_reported":1744419061,"current_range_meters":14400,"station_id":"ce4bhjp2rcd13ifvqga0","pricing_plan_id":"cebpf4jnsgd1na2vs0mg"},{"bike_id":"777b227c-7abb-4d62-9994-ac7b6072751a","system_id":"levelo_inurba_marseille","lat":43.311154,"lon":5.377717,"is_reserved":false,"is_disabled":false,"rental_uris":{"android":"levelo://app?vid=777b227c-7abb-4d62-9994-ac7b6072751a","ios":"levelo://app?vid=777b227c-7abb-4d62-9994-ac7b6072751a"},"vehicle_type_id":"4","last_reported":1744419061,"current_range_meters":14400,"station_id":"ce4bgt92rcd13ifvqcg0","pricing_plan_id":"cebpf4jnsgd1na2vs0mg"},{"bike_id":"5b77a833-8185-45c2-9fe3-07eb40df54ca","system_id":"levelo_inurba_marseille","lat":43.33995,"lon":5.38057,"is_reserved":false,"is_disabled":false,"rental_uris":{"android":"levelo://app?vid=5b77a833-8185-45c2-9fe3-07eb40df54ca","ios":"levelo://app?vid=5b77a833-8185-45c2-9fe3-07eb40df54ca"},"vehicle_type_id":"4","last_reported":1744419061,"current_range_meters":14400,"station_id":"","pricing_plan_id":"cebpf4jnsgd1na2vs0mg"},{"bike_id":"f7d1eee0-1715-419d-beac-1b98ec9e62ed","system_id":"levelo_inurba_marseille","lat":43.30929,"lon":5.39016,"is_reserved":false,"is_disabled":true,"rental_uris":{"android":"levelo://app?vid=f7d1eee0-1715-419d-beac-1b98ec9e62ed","ios":"levelo://app?vid=f7d1eee0-1715-419d-beac-1b98ec9e62ed"},"vehicle_type_id":"4","last_reported":1744419061,"current_range_meters":14800,"station_id":"ce4bgup2rcd13ifvqco0","pricing_plan_id":"cebpf4jnsgd1na2vs0mg"},{"bike_id":"032da143-bce7-471f-a66c-894b88a59d6c","system_id":"levelo_inurba_marseille","lat":43.29255,"lon":5.40907,"is_reserved":false,"is_disabled":false,"rental_uris":{"android":"levelo://app?vid=032da143-bce7-471f-a66c-894b88a59d6c","ios":"levelo://app?vid=032da143-bce7-471f-a66c-894b88a59d6c"},"vehicle_type_id":"4","last_reported":1744419061,"current_range_meters":14800,"station_id":"ce4bh192rcd13ifvqdc0","pricing_plan_id":"cebpf4jnsgd1na2vs0mg"},{"bike_id":"503203d3-1e0d-41e7-9876-10c94ae677ff","system_id":"levelo_inurba_marseille","lat":43.32063,"lon":5.36727,"is_reserved":false,"is_disabled":false,"rental_uris":{"android":"levelo://app?vid=503203d3-1e0d-41e7-9876-10c94ae677ff","ios":"levelo://app?vid=503203d3-1e0d-41e7-9876-10c94ae677ff"},"vehicle_type_id":"4","last_reported":1744419061,"current_range_meters":14800,"station_id":"ce4bhrh2rcd13ifvqhug","pricing_plan_id":"cebpf4jnsgd1na2vs0mg"},{"bike_id":"ff66026a-95c7-4911-ae8a-4658b6feadb1","system_id":"levelo_inurba_marseille","lat":43.31166,"lon":5.38701,"is_reserved":false,"is_disabled":false,"rental_uris":{"android":"levelo://app?vid=ff66026a-95c7-4911-ae8a-4658b6feadb1","ios":"levelo://app?vid=ff66026a-95c7-4911-ae8a-4658b6feadb1"},"vehicle_type_id":"4","last_reported":1744419061,"current_range_meters":14800,"station_id":"ce4bgv12rcd13ifvqcp0","pricing_plan_id":"cebpf4jnsgd1na2vs0mg"},{"bike_id":"ce903267-ff06-4d20-abf5-9e43e1359807","system_id":"levelo_inurba_marseille","lat":43.26571,"lon":5.39,"is_reserved":false,"is_disabled":false,"rental_uris":{"android":"levelo://app?vid=ce903267-ff06-4d20-abf5-9e43e1359807","ios":"levelo://app?vid=ce903267-ff06-4d20-abf5-9e43e1359807"},"vehicle_type_id":"4","last_reported":1744419061,"current_range_meters":14800,"station_id":"ce4bhe12rcd13ifvqf30","pricing_plan_id":"cebpf4jnsgd1na2vs0mg"},{"bike_id":"0e7bf4ae-5aed-4055-a1f8-96debbb9847e","system_id":"levelo_inurba_marseille","lat":43.24171,"lon":5.36398,"is_reserved":false,"is_disabled":false,"rental_uris":{"android":"levelo://app?vid=0e7bf4ae-5aed-4055-a1f8-96debbb9847e","ios":"levelo://app?vid=0e7bf4ae-5aed-4055-a1f8-96debbb9847e"},"vehicle_type_id":"4","last_reported":1744419061,"current_range_meters":14800,"station_id":"cpo36qri1sfpv3e86is0","pricing_plan_id":"cebpf4jnsgd1na2vs0mg"},{"bike_id":"9145946e-59e1-420d-9f32-4fce0d813211","system_id":"levelo_inurba_marseille","lat":43.25724,"lon":5.41108,"is_reserved":false,"is_disabled":false,"rental_uris":{"android":"levelo://app?vid=9145946e-59e1-420d-9f32-4fce0d813211","ios":"levelo://app?vid=9145946e-59e1-420d-9f32-4fce0d813211"},"vehicle_type_id":"4","last_reported":1744419061,"current_range_meters":15200,"station_id":"ce4bhkp2rcd13ifvqgd0","pricing_plan_id":"cebpf4jnsgd1na2vs0mg"},{"bike_id":"49523a38-f3f2-41c1-a8e6-67805fef5b57","system_id":"levelo_inurba_marseille","lat":43.29918,"lon":5.3746,"is_reserved":false,"is_disabled":false,"rental_uris":{"android":"levelo://app?vid=49523a38-f3f2-41c1-a8e6-67805fef5b57","ios":"levelo://app?vid=49523a38-f3f2-41c1-a8e6-67805fef5b57"},"vehicle_type_id":"4","last_reported":1744419061,"current_range_meters":15200,"station_id":"ce4bgjh2rcd13ifvqbg0","pricing_plan_id":"cebpf4jnsgd1na2vs0mg"},{"bike_id":"8b2782bb-d0c9-4ea4-a075-841213e692f9","system_id":"levelo_inurba_marseille","lat":43.248,"lon":5.3746,"is_reserved":false,"is_disabled":false,"rental_uris":{"android":"levelo://app?vid=8b2782bb-d0c9-4ea4-a075-841213e692f9","ios":"levelo://app?vid=8b2782bb-d0c9-4ea4-a075-841213e692f9"},"vehicle_type_id":"4","last_reported":1744419061,"current_range_meters":15200,"station_id":"ce4bhgh2rcd13ifvqfb0","pricing_plan_id":"cebpf4jnsgd1na2vs0mg"},{"bike_id":"d8f603cd-3b83-4148-bab8-3a185ad2a59f","system_id":"levelo_inurba_marseille","lat":43.32357,"lon":5.389,"is_reserved":false,"is_disabled":false,"rental_uris":{"android":"levelo://app?vid=d8f603cd-3b83-4148-bab8-3a185ad2a59f","ios":"levelo://app?vid=d8f603cd-3b83-4148-bab8-3a185ad2a59f"},"vehicle_type_id":"4","last_reported":1744419061,"current_range_meters":16000,"station_id":"ce4bhqp2rcd13ifvqhog","pricing_plan_id":"cebpf4jnsgd1na2vs0mg"},{"bike_id":"ef9bb6af-9bb3-4888-be76-604647627aba","system_id":"levelo_inurba_marseille","lat":43.29888,"lon":5.39685,"is_reserved":false,"is_disabled":false,"rental_uris":{"android":"levelo://app?vid=ef9bb6af-9bb3-4888-be76-604647627aba","ios":"levelo://app?vid=ef9bb6af-9bb3-4888-be76-604647627aba"},"vehicle_type_id":"4","last_reported":1744419061,"current_range_meters":16000,"station_id":"ce4bh0h2rcd13ifvqd50","pricing_plan_id":"cebpf4jnsgd1na2vs0mg"},{"bike_id":"1aee9583-5366-44f3-b676-d22249623869","system_id":"levelo_inurba_marseille","lat":43.30936,"lon":5.39053,"is_reserved":false,"is_disabled":false,"rental_uris":{"android":"levelo://app?vid=1aee9583-5366-44f3-b676-d22249623869","ios":"levelo://app?vid=1aee9583-5366-44f3-b676-d22249623869"},"vehicle_type_id":"4","last_reported":1744419061,"current_range_meters":16000,"station_id":"ce4bgup2rcd13ifvqco0","pricing_plan_id":"cebpf4jnsgd1na2vs0mg"},{"bike_id":"faa47fa3-4737-426d-a021-4b787008aea9","system_id":"levelo_inurba_marseille","lat":43.31283,"lon":5.40168,"is_reserved":false,"is_disabled":false,"rental_uris":{"android":"levelo://app?vid=faa47fa3-4737-426d-a021-4b787008aea9","ios":"levelo://app?vid=faa47fa3-4737-426d-a021-4b787008aea9"},"vehicle_type_id":"4","last_reported":1744419061,"current_range_meters":16000,"station_id":"ce4bh092rcd13ifvqd30","pricing_plan_id":"cebpf4jnsgd1na2vs0mg"},{"bike_id":"c09876cd-28e6-462c-99fd-41d0b43e1f46","system_id":"levelo_inurba_marseille","lat":43.31347,"lon":5.38476,"is_reserved":false,"is_disabled":false,"rental_uris":{"android":"levelo://app?vid=c09876cd-28e6-462c-99fd-41d0b43e1f46","ios":"levelo://app?vid=c09876cd-28e6-462c-99fd-41d0b43e1f46"},"vehicle_type_id":"4","last_reported":1744419061,"current_range_meters":16000,"station_id":"ce4bgt92rcd13ifvqcf0","pricing_plan_id":"cebpf4jnsgd1na2vs0mg"},{"bike_id":"3383469d-bf04-4b83-befe-8d91b97ef6f7","system_id":"levelo_inurba_marseille","lat":43.32141,"lon":5.37979,"is_reserved":false,"is_disabled":false,"rental_uris":{"android":"levelo://app?vid=3383469d-bf04-4b83-befe-8d91b97ef6f7","ios":"levelo://app?vid=3383469d-bf04-4b83-befe-8d91b97ef6f7"},"vehicle_type_id":"4","last_reported":1744419061,"current_range_meters":16000,"station_id":"","pricing_plan_id":"cebpf4jnsgd1na2vs0mg"},{"bike_id":"c8c5f05d-e654-4c6f-a2bb-a63089f71a26","system_id":"levelo_inurba_marseille","lat":43.280775,"lon":5.396484,"is_reserved":false,"is_disabled":false,"rental_uris":{"android":"levelo://app?vid=c8c5f05d-e654-4c6f-a2bb-a63089f71a26","ios":"levelo://app?vid=c8c5f05d-e654-4c6f-a2bb-a63089f71a26"},"vehicle_type_id":"4","last_reported":1744419061,"current_range_meters":16000,"station_id":"ce4bho12rcd13ifvqh2g","pricing_plan_id":"cebpf4jnsgd1na2vs0mg"},{"bike_id":"a8d99482-a057-469f-bd2e-b289d8ded2a5","system_id":"levelo_inurba_marseille","lat":43.29809,"lon":5.40402,"is_reserved":false,"is_disabled":false,"rental_uris":{"android":"levelo://app?vid=a8d99482-a057-469f-bd2e-b289d8ded2a5","ios":"levelo://app?vid=a8d99482-a057-469f-bd2e-b289d8ded2a5"},"vehicle_type_id":"4","last_reported":1744419061,"current_range_meters":16000,"station_id":"ce4bh112rcd13ifvqd90","pricing_plan_id":"cebpf4jnsgd1na2vs0mg"},{"bike_id":"61bc6256-8380-4638-bd27-1e2c56ecc87d","system_id":"levelo_inurba_marseille","lat":43.29701,"lon":5.37685,"is_reserved":false,"is_disabled":false,"rental_uris":{"android":"levelo://app?vid=61bc6256-8380-4638-bd27-1e2c56ecc87d","ios":"levelo://app?vid=61bc6256-8380-4638-bd27-1e2c56ecc87d"},"vehicle_type_id":"4","last_reported":1744419061,"current_range_meters":16000,"station_id":"ce4bgkh2rcd13ifvqbl0","pricing_plan_id":"cebpf4jnsgd1na2vs0mg"},{"bike_id":"90cddebc-2506-42ee-9df1-36a6154dff75","system_id":"levelo_inurba_marseille","lat":43.2416,"lon":5.36385,"is_reserved":false,"is_disabled":false,"rental_uris":{"android":"levelo://app?vid=90cddebc-2506-42ee-9df1-36a6154dff75","ios":"levelo://app?vid=90cddebc-2506-42ee-9df1-36a6154dff75"},"vehicle_type_id":"4","last_reported":1744419061,"current_range_meters":16000,"station_id":"cpo36qri1sfpv3e86is0","pricing_plan_id":"cebpf4jnsgd1na2vs0mg"},{"bike_id":"985c38d1-9598-400d-b8be-a0ffc6d1f295","system_id":"levelo_inurba_marseille","lat":43.32658,"lon":5.4099,"is_reserved":false,"is_disabled":false,"rental_uris":{"android":"levelo://app?vid=985c38d1-9598-400d-b8be-a0ffc6d1f295","ios":"levelo://app?vid=985c38d1-9598-400d-b8be-a0ffc6d1f295"},"vehicle_type_id":"4","last_reported":1744419061,"current_range_meters":16000,"station_id":"ce4bhpp2rcd13ifvqhgg","pricing_plan_id":"cebpf4jnsgd1na2vs0mg"},{"bike_id":"0929d61e-ea4c-44e2-bffa-7baf9701e463","system_id":"levelo_inurba_marseille","lat":43.2868,"lon":5.3633,"is_reserved":false,"is_disabled":false,"rental_uris":{"android":"levelo://app?vid=0929d61e-ea4c-44e2-bffa-7baf9701e463","ios":"levelo://app?vid=0929d61e-ea4c-44e2-bffa-7baf9701e463"},"vehicle_type_id":"4","last_reported":1744419061,"current_range_meters":16400,"station_id":"ce4bhah2rcd13ifvqej0","pricing_plan_id":"cebpf4jnsgd1na2vs0mg"},{"bike_id":"ec60b769-c06b-4e12-b095-823ea8034735","system_id":"levelo_inurba_marseille","lat":43.303174,"lon":5.402841,"is_reserved":false,"is_disabled":false,"rental_uris":{"android":"levelo://app?vid=ec60b769-c06b-4e12-b095-823ea8034735","ios":"levelo://app?vid=ec60b769-c06b-4e12-b095-823ea8034735"},"vehicle_type_id":"4","last_reported":1744419061,"current_range_meters":16400,"station_id":"ce4bgup2rcd13ifvqco0","pricing_plan_id":"cebpf4jnsgd1na2vs0mg"},{"bike_id":"2f5bc015-0a98-4a0d-a50f-f7181e1d6abe","system_id":"levelo_inurba_marseille","lat":43.233925,"lon":5.412382,"is_reserved":false,"is_disabled":false,"rental_uris":{"android":"levelo://app?vid=2f5bc015-0a98-4a0d-a50f-f7181e1d6abe","ios":"levelo://app?vid=2f5bc015-0a98-4a0d-a50f-f7181e1d6abe"},"vehicle_type_id":"4","last_reported":1744419061,"current_range_meters":16400,"station_id":"","pricing_plan_id":"cebpf4jnsgd1na2vs0mg"},{"bike_id":"fa2c78af-7442-435a-b59d-ecb3191bfe19","system_id":"levelo_inurba_marseille","lat":43.26552,"lon":5.3731,"is_reserved":false,"is_disabled":false,"rental_uris":{"android":"levelo://app?vid=fa2c78af-7442-435a-b59d-ecb3191bfe19","ios":"levelo://app?vid=fa2c78af-7442-435a-b59d-ecb3191bfe19"},"vehicle_type_id":"4","last_reported":1744419061,"current_range_meters":16400,"station_id":"ce4bhg12rcd13ifvqf70","pricing_plan_id":"cebpf4jnsgd1na2vs0mg"},{"bike_id":"5e6d420e-dd2e-4517-9de6-30074fe25c17","system_id":"levelo_inurba_marseille","lat":43.29427,"lon":5.38638,"is_reserved":false,"is_disabled":false,"rental_uris":{"android":"levelo://app?vid=5e6d420e-dd2e-4517-9de6-30074fe25c17","ios":"levelo://app?vid=5e6d420e-dd2e-4517-9de6-30074fe25c17"},"vehicle_type_id":"4","last_reported":1744419061,"current_range_meters":16400,"station_id":"ce4bh2h2rcd13ifvqdh0","pricing_plan_id":"cebpf4jnsgd1na2vs0mg"},{"bike_id":"15802d6e-3065-4785-ab83-b64a8bbd3d2c","system_id":"levelo_inurba_marseille","lat":43.27373,"lon":5.36261,"is_reserved":false,"is_disabled":false,"rental_uris":{"android":"levelo://app?vid=15802d6e-3065-4785-ab83-b64a8bbd3d2c","ios":"levelo://app?vid=15802d6e-3065-4785-ab83-b64a8bbd3d2c"},"vehicle_type_id":"4","last_reported":1744419061,"current_range_meters":16800,"station_id":"ce4bhbh2rcd13ifvqeo0","pricing_plan_id":"cebpf4jnsgd1na2vs0mg"},{"bike_id":"13422442-ef39-496d-a289-cb4c3a76811c","system_id":"levelo_inurba_marseille","lat":43.27842,"lon":5.39201,"is_reserved":false,"is_disabled":false,"rental_uris":{"android":"levelo://app?vid=13422442-ef39-496d-a289-cb4c3a76811c","ios":"levelo://app?vid=13422442-ef39-496d-a289-cb4c3a76811c"},"vehicle_type_id":"4","last_reported":1744419061,"current_range_meters":16400,"station_id":"ce4bhjp2rcd13ifvqga0","pricing_plan_id":"cebpf4jnsgd1na2vs0mg"},{"bike_id":"a43a47e0-ea2e-45d3-909a-7843b1a7d26c","system_id":"levelo_inurba_marseille","lat":43.31214,"lon":5.36851,"is_reserved":false,"is_disabled":false,"rental_uris":{"android":"levelo://app?vid=a43a47e0-ea2e-45d3-909a-7843b1a7d26c","ios":"levelo://app?vid=a43a47e0-ea2e-45d3-909a-7843b1a7d26c"},"vehicle_type_id":"4","last_reported":1744419061,"current_range_meters":16400,"station_id":"ce4bgl92rcd13ifvqbq0","pricing_plan_id":"cebpf4jnsgd1na2vs0mg"},{"bike_id":"a5ef902d-c8ee-418f-976b-ad30eed26e1c","system_id":"levelo_inurba_marseille","lat":43.281,"lon":5.37837,"is_reserved":false,"is_disabled":false,"rental_uris":{"android":"levelo://app?vid=a5ef902d-c8ee-418f-976b-ad30eed26e1c","ios":"levelo://app?vid=a5ef902d-c8ee-418f-976b-ad30eed26e1c"},"vehicle_type_id":"4","last_reported":1744419061,"current_range_meters":16800,"station_id":"ce4bha12rcd13ifvqee0","pricing_plan_id":"cebpf4jnsgd1na2vs0mg"},{"bike_id":"2bcceb94-5f08-489f-95b9-b2d9247e0087","system_id":"levelo_inurba_marseille","lat":43.29973,"lon":5.38494,"is_reserved":false,"is_disabled":false,"rental_uris":{"android":"levelo://app?vid=2bcceb94-5f08-489f-95b9-b2d9247e0087","ios":"levelo://app?vid=2bcceb94-5f08-489f-95b9-b2d9247e0087"},"vehicle_type_id":"4","last_reported":1744419061,"current_range_meters":16800,"station_id":"ce4bgj92rcd13ifvqbd0","pricing_plan_id":"cebpf4jnsgd1na2vs0mg"},{"bike_id":"493cde9e-7859-4c26-a2e6-f744ee5d8553","system_id":"levelo_inurba_marseille","lat":43.31788,"lon":5.36818,"is_reserved":false,"is_disabled":false,"rental_uris":{"android":"levelo://app?vid=493cde9e-7859-4c26-a2e6-f744ee5d8553","ios":"levelo://app?vid=493cde9e-7859-4c26-a2e6-f744ee5d8553"},"vehicle_type_id":"4","last_reported":1744419061,"current_range_meters":16800,"station_id":"","pricing_plan_id":"cebpf4jnsgd1na2vs0mg"},{"bike_id":"04697f1c-f402-4cec-ad92-d8e40094fc77","system_id":"levelo_inurba_marseille","lat":43.31273,"lon":5.40165,"is_reserved":false,"is_disabled":false,"rental_uris":{"android":"levelo://app?vid=04697f1c-f402-4cec-ad92-d8e40094fc77","ios":"levelo://app?vid=04697f1c-f402-4cec-ad92-d8e40094fc77"},"vehicle_type_id":"4","last_reported":1744419061,"current_range_meters":16800,"station_id":"ce4bh092rcd13ifvqd30","pricing_plan_id":"cebpf4jnsgd1na2vs0mg"},{"bike_id":"3e64ba0d-bb65-4d6e-9f9c-8236f65520bd","system_id":"levelo_inurba_marseille","lat":43.3035,"lon":5.38587,"is_reserved":false,"is_disabled":false,"rental_uris":{"android":"levelo://app?vid=3e64ba0d-bb65-4d6e-9f9c-8236f65520bd","ios":"levelo://app?vid=3e64ba0d-bb65-4d6e-9f9c-8236f65520bd"},"vehicle_type_id":"4","last_reported":1744419061,"current_range_meters":16800,"station_id":"","pricing_plan_id":"cebpf4jnsgd1na2vs0mg"},{"bike_id":"2a768501-9320-4bc9-a417-15b58706b922","system_id":"levelo_inurba_marseille","lat":43.275598,"lon":5.384142,"is_reserved":false,"is_disabled":false,"rental_uris":{"android":"levelo://app?vid=2a768501-9320-4bc9-a417-15b58706b922","ios":"levelo://app?vid=2a768501-9320-4bc9-a417-15b58706b922"},"vehicle_type_id":"4","last_reported":1744419061,"current_range_meters":16800,"station_id":"ce4bhh92rcd13ifvqfi0","pricing_plan_id":"cebpf4jnsgd1na2vs0mg"},{"bike_id":"92204ede-3c9b-4105-948c-ac728c68357e","system_id":"levelo_inurba_marseille","lat":43.3087,"lon":5.39618,"is_reserved":false,"is_disabled":false,"rental_uris":{"android":"levelo://app?vid=92204ede-3c9b-4105-948c-ac728c68357e","ios":"levelo://app?vid=92204ede-3c9b-4105-948c-ac728c68357e"},"vehicle_type_id":"4","last_reported":1744419061,"current_range_meters":17200,"station_id":"ce4bh012rcd13ifvqcv0","pricing_plan_id":"cebpf4jnsgd1na2vs0mg"},{"bike_id":"96b23522-000c-40e6-adc6-3eb838a0a125","system_id":"levelo_inurba_marseille","lat":43.24076,"lon":5.37757,"is_reserved":false,"is_disabled":false,"rental_uris":{"android":"levelo://app?vid=96b23522-000c-40e6-adc6-3eb838a0a125","ios":"levelo://app?vid=96b23522-000c-40e6-adc6-3eb838a0a125"},"vehicle_type_id":"4","last_reported":1744419061,"current_range_meters":17200,"station_id":"ce4bhnp2rcd13ifvqgvg","pricing_plan_id":"cebpf4jnsgd1na2vs0mg"},{"bike_id":"9c2e56bd-2b20-4e10-bdad-a43b3a4c4d78","system_id":"levelo_inurba_marseille","lat":43.27957,"lon":5.41027,"is_reserved":false,"is_disabled":false,"rental_uris":{"android":"levelo://app?vid=9c2e56bd-2b20-4e10-bdad-a43b3a4c4d78","ios":"levelo://app?vid=9c2e56bd-2b20-4e10-bdad-a43b3a4c4d78"},"vehicle_type_id":"4","last_reported":1744419061,"current_range_meters":17200,"station_id":"ce4bhnp2rcd13ifvqh0g","pricing_plan_id":"cebpf4jnsgd1na2vs0mg"},{"bike_id":"57c394ba-3493-4b2a-b82b-58598e74a237","system_id":"levelo_inurba_marseille","lat":43.300433,"lon":5.386382,"is_reserved":false,"is_disabled":false,"rental_uris":{"android":"levelo://app?vid=57c394ba-3493-4b2a-b82b-58598e74a237","ios":"levelo://app?vid=57c394ba-3493-4b2a-b82b-58598e74a237"},"vehicle_type_id":"4","last_reported":1744419061,"current_range_meters":17200,"station_id":"ce4bgj92rcd13ifvqbd0","pricing_plan_id":"cebpf4jnsgd1na2vs0mg"},{"bike_id":"d9e14330-0af3-4d1f-96d7-6e27c2df8799","system_id":"levelo_inurba_marseille","lat":43.30518,"lon":5.38471,"is_reserved":false,"is_disabled":false,"rental_uris":{"android":"levelo://app?vid=d9e14330-0af3-4d1f-96d7-6e27c2df8799","ios":"levelo://app?vid=d9e14330-0af3-4d1f-96d7-6e27c2df8799"},"vehicle_type_id":"4","last_reported":1744419061,"current_range_meters":17200,"station_id":"","pricing_plan_id":"cebpf4jnsgd1na2vs0mg"},{"bike_id":"f1a81939-e24e-4b4d-bb9f-d960ee871735","system_id":"levelo_inurba_marseille","lat":43.24183,"lon":5.39704,"is_reserved":false,"is_disabled":true,"rental_uris":{"android":"levelo://app?vid=f1a81939-e24e-4b4d-bb9f-d960ee871735","ios":"levelo://app?vid=f1a81939-e24e-4b4d-bb9f-d960ee871735"},"vehicle_type_id":"4","last_reported":1744419061,"current_range_meters":17200,"station_id":"ce4bhn12rcd13ifvqgpg","pricing_plan_id":"cebpf4jnsgd1na2vs0mg"},{"bike_id":"9c705812-db1f-4a36-bf92-d2c945b0edd1","system_id":"levelo_inurba_marseille","lat":43.31356,"lon":5.38494,"is_reserved":false,"is_disabled":false,"rental_uris":{"android":"levelo://app?vid=9c705812-db1f-4a36-bf92-d2c945b0edd1","ios":"levelo://app?vid=9c705812-db1f-4a36-bf92-d2c945b0edd1"},"vehicle_type_id":"4","last_reported":1744419061,"current_range_meters":17200,"station_id":"ce4bgt92rcd13ifvqcf0","pricing_plan_id":"cebpf4jnsgd1na2vs0mg"},{"bike_id":"7a158ba0-3247-4869-8550-eefb990c046b","system_id":"levelo_inurba_marseille","lat":43.27949,"lon":5.41048,"is_reserved":false,"is_disabled":false,"rental_uris":{"android":"levelo://app?vid=7a158ba0-3247-4869-8550-eefb990c046b","ios":"levelo://app?vid=7a158ba0-3247-4869-8550-eefb990c046b"},"vehicle_type_id":"4","last_reported":1744419061,"current_range_meters":17200,"station_id":"ce4bhnp2rcd13ifvqh0g","pricing_plan_id":"cebpf4jnsgd1na2vs0mg"},{"bike_id":"e88a1fc3-a242-4ef5-90d9-2e9abc8d2acd","system_id":"levelo_inurba_marseille","lat":43.30935,"lon":5.40169,"is_reserved":false,"is_disabled":false,"rental_uris":{"android":"levelo://app?vid=e88a1fc3-a242-4ef5-90d9-2e9abc8d2acd","ios":"levelo://app?vid=e88a1fc3-a242-4ef5-90d9-2e9abc8d2acd"},"vehicle_type_id":"4","last_reported":1744419061,"current_range_meters":17600,"station_id":"ce4bgvp2rcd13ifvqct0","pricing_plan_id":"cebpf4jnsgd1na2vs0mg"},{"bike_id":"2124d2eb-d705-4e73-9fa7-48065810242a","system_id":"levelo_inurba_marseille","lat":43.29201,"lon":5.39307,"is_reserved":false,"is_disabled":false,"rental_uris":{"android":"levelo://app?vid=2124d2eb-d705-4e73-9fa7-48065810242a","ios":"levelo://app?vid=2124d2eb-d705-4e73-9fa7-48065810242a"},"vehicle_type_id":"4","last_reported":1744419061,"current_range_meters":17600,"station_id":"ce4bh192rcd13ifvqdd0","pricing_plan_id":"cebpf4jnsgd1na2vs0mg"},{"bike_id":"9525c3ab-968c-4727-84cd-7360011d8609","system_id":"levelo_inurba_marseille","lat":43.31171,"lon":5.38711,"is_reserved":false,"is_disabled":false,"rental_uris":{"android":"levelo://app?vid=9525c3ab-968c-4727-84cd-7360011d8609","ios":"levelo://app?vid=9525c3ab-968c-4727-84cd-7360011d8609"},"vehicle_type_id":"4","last_reported":1744419061,"current_range_meters":17600,"station_id":"ce4bgv12rcd13ifvqcp0","pricing_plan_id":"cebpf4jnsgd1na2vs0mg"},{"bike_id":"4012a78d-eb1b-44d8-8c36-17909b4ca04e","system_id":"levelo_inurba_marseille","lat":43.31285,"lon":5.40168,"is_reserved":false,"is_disabled":false,"rental_uris":{"android":"levelo://app?vid=4012a78d-eb1b-44d8-8c36-17909b4ca04e","ios":"levelo://app?vid=4012a78d-eb1b-44d8-8c36-17909b4ca04e"},"vehicle_type_id":"4","last_reported":1744419061,"current_range_meters":17600,"station_id":"ce4bh092rcd13ifvqd30","pricing_plan_id":"cebpf4jnsgd1na2vs0mg"},{"bike_id":"c1ac09c9-4e1f-4b4e-87b4-c0a6f4a550ce","system_id":"levelo_inurba_marseille","lat":43.297884,"lon":5.393177,"is_reserved":false,"is_disabled":false,"rental_uris":{"android":"levelo://app?vid=c1ac09c9-4e1f-4b4e-87b4-c0a6f4a550ce","ios":"levelo://app?vid=c1ac09c9-4e1f-4b4e-87b4-c0a6f4a550ce"},"vehicle_type_id":"4","last_reported":1744419061,"current_range_meters":17600,"station_id":"chh1huq6cuj3fo74tm60","pricing_plan_id":"cebpf4jnsgd1na2vs0mg"},{"bike_id":"61f746e5-4129-4675-8183-02fd35314a4e","system_id":"levelo_inurba_marseille","lat":43.30933,"lon":5.4016,"is_reserved":false,"is_disabled":false,"rental_uris":{"android":"levelo://app?vid=61f746e5-4129-4675-8183-02fd35314a4e","ios":"levelo://app?vid=61f746e5-4129-4675-8183-02fd35314a4e"},"vehicle_type_id":"4","last_reported":1744419061,"current_range_meters":17600,"station_id":"ce4bgvp2rcd13ifvqct0","pricing_plan_id":"cebpf4jnsgd1na2vs0mg"},{"bike_id":"a945cbf3-38e6-4aa3-9aa1-d414d6c834b5","system_id":"levelo_inurba_marseille","lat":43.31894,"lon":5.40731,"is_reserved":false,"is_disabled":true,"rental_uris":{"android":"levelo://app?vid=a945cbf3-38e6-4aa3-9aa1-d414d6c834b5","ios":"levelo://app?vid=a945cbf3-38e6-4aa3-9aa1-d414d6c834b5"},"vehicle_type_id":"4","last_reported":1744419061,"current_range_meters":17600,"station_id":"ce4bhq12rcd13ifvqhig","pricing_plan_id":"cebpf4jnsgd1na2vs0mg"},{"bike_id":"314429f1-c809-42c0-9c65-97f12ea53ea4","system_id":"levelo_inurba_marseille","lat":43.3087,"lon":5.37328,"is_reserved":false,"is_disabled":false,"rental_uris":{"android":"levelo://app?vid=314429f1-c809-42c0-9c65-97f12ea53ea4","ios":"levelo://app?vid=314429f1-c809-42c0-9c65-97f12ea53ea4"},"vehicle_type_id":"4","last_reported":1744419061,"current_range_meters":17600,"station_id":"","pricing_plan_id":"cebpf4jnsgd1na2vs0mg"},{"bike_id":"f197e162-f6ee-4ddf-ae87-a20f3644d927","system_id":"levelo_inurba_marseille","lat":43.23201,"lon":5.39978,"is_reserved":false,"is_disabled":false,"rental_uris":{"android":"levelo://app?vid=f197e162-f6ee-4ddf-ae87-a20f3644d927","ios":"levelo://app?vid=f197e162-f6ee-4ddf-ae87-a20f3644d927"},"vehicle_type_id":"4","last_reported":1744419061,"current_range_meters":17600,"station_id":"ce4bhn12rcd13ifvqgqg","pricing_plan_id":"cebpf4jnsgd1na2vs0mg"},{"bike_id":"b3dda8bf-2899-4bd5-8d7e-b862b5348b72","system_id":"levelo_inurba_marseille","lat":43.31891,"lon":5.40744,"is_reserved":false,"is_disabled":false,"rental_uris":{"android":"levelo://app?vid=b3dda8bf-2899-4bd5-8d7e-b862b5348b72","ios":"levelo://app?vid=b3dda8bf-2899-4bd5-8d7e-b862b5348b72"},"vehicle_type_id":"4","last_reported":1744419061,"current_range_meters":17600,"station_id":"ce4bhq12rcd13ifvqhig","pricing_plan_id":"cebpf4jnsgd1na2vs0mg"},{"bike_id":"9ec83034-1f6f-44b9-9fc5-c54efb6768a8","system_id":"levelo_inurba_marseille","lat":43.26248,"lon":5.375825,"is_reserved":false,"is_disabled":true,"rental_uris":{"android":"levelo://app?vid=9ec83034-1f6f-44b9-9fc5-c54efb6768a8","ios":"levelo://app?vid=9ec83034-1f6f-44b9-9fc5-c54efb6768a8"},"vehicle_type_id":"4","last_reported":1744419061,"current_range_meters":17600,"station_id":"","pricing_plan_id":"cebpf4jnsgd1na2vs0mg"},