{"last_updated":1713034984,"ttl":30,"version":"2.2","data":{"bikes":[{"bike_id":"d7dac225-5d68-4298-aaa0-4611d2ba8ed7","system_id":"levelo_inurba_marseille","lat":43.313391,"lon":5.36706,"is_reserved":false,"is_disabled":false,"rental_uris":{"android":"levelo://app?vid=d7dac225-5d68-4298-aaa0-4611d2ba8ed7","ios":"levelo://app?vid=d7dac225-5d68-4298-aaa0-4611d2ba8ed7"},"vehicle_type_id":"4","last_reported":1713034984,"current_range_meters":9600,"station_id":"ce4bgr92rcd13ifvqc6g","pricing_plan_id":"cebpf4jnsgd1na2vs0mg"},{"bike_id":"a474461a-0709-420b-8fd1-2831a1f4bc7b","system_id":"levelo_inurba_marseille","lat":43.312239,"lon":5.368562,"is_reserved":false,"is_disabled":false,"rental_uris":{"android":"levelo://app?vid=a474461a-0709-420b-8fd1-2831a1f4bc7b","ios":"levelo://app?vid=a474461a-0709-420b-8fd1-2831a1f4bc7b"},"vehicle_type_id":"4","last_reported":1713034984,"current_range_meters":2800,"station_id":"ce4bgl92rcd13ifvqbq0","pricing_plan_id":"cebpf4jnsgd1na2vs0mg"},{"bike_id":"a0e26c88-eb56-403d-9df0-daafbbc323e9","system_id":"levelo_inurba_marseille","lat":43.312239,"lon":5.368562,"is_reserved":false,"is_disabled":false,"rental_uris":{"android":"levelo://app?vid=a0e26c88-eb56-403d-9df0-daafbbc323e9","ios":"levelo://app?vid=a0e26c88-eb56-403d-9df0-daafbbc323e9"},"vehicle_type_id":"4","last_reported":1713034984,"current_range_meters":12400,"station_id":"ce4bgl92rcd13ifvqbq0","pricing_plan_id":"cebpf4jnsgd1na2vs0mg"},{"bike_id":"f2907da0-5dbc-4424-a63a-f1cd757035e6","system_id":"levelo_inurba_marseille","lat":43.312239,"lon":5.368562,"is_reserved":false,"is_disabled":false,"rental_uris":{"android":"levelo://app?vid=f2907da0-5dbc-4424-a63a-f1cd757035e6","ios":"levelo://app?vid=f2907da0-5dbc-4424-a63a-f1cd757035e6"},"vehicle_type_id":"4","last_reported":1713034984,"current_range_meters":30400,"station_id":"ce4bgl92rcd13ifvqbq0","pricing_plan_id":"cebpf4jnsgd1na2vs0mg"},{"bike_id":"ac478ff8-a872-4ce5-85cf-674e6be1a35c","system_id":"levelo_inurba_marseille","lat":43.312239,"lon":5.368562,"is_reserved":false,"is_disabled":false,"rental_uris":{"android":"levelo://app?vid=ac478ff8-a872-4ce5-85cf-674e6be1a35c","ios":"levelo://app?vid=ac478ff8-a872-4ce5-85cf-674e6be1a35c"},"vehicle_type_id":"4","last_reported":1713034984,"current_range_meters":0,"station_id":"ce4bgl92rcd13ifvqbq0","pricing_plan_id":"cebpf4jnsgd1na2vs0mg"},{"bike_id":"fc4fdf98-f95e-4599-b1ce-b0e126d69951","system_id":"levelo_inurba_marseille","lat":43.31213,"lon":5.36856,"is_reserved":false,"is_disabled":false,"rental_uris":{"android":"levelo://app?vid=fc4fdf98-f95e-4599-b1ce-b0e126d69951","ios":"levelo://app?vid=fc4fdf98-f95e-4599-b1ce-b0e126d69951"},"vehicle_type_id":"4","last_reported":1713034984,"current_range_meters":0,"station_id":"ce4bgl92rcd13ifvqbq0","pricing_plan_id":"cebpf4jnsgd1na2vs0mg"},{"bike_id":"0740062b-184b-4985-b8b0-224980da8d11","system_id":"levelo_inurba_marseille","lat":43.314898,"lon":5.373031,"is_reserved":false,"is_disabled":false,"rental_uris":{"android":"levelo://app?vid=0740062b-184b-4985-b8b0-224980da8d11","ios":"levelo://app?vid=0740062b-184b-4985-b8b0-224980da8d11"},"vehicle_type_id":"4","last_reported":1713034984,"current_range_meters":0,"station_id":"ce4bgt12rcd13ifvqcd0","pricing_plan_id":"cebpf4jnsgd1na2vs0mg"},{"bike_id":"f6da021e-aa07-4cc3-b9e9-e954ddbdb4a5","system_id":"levelo_inurba_marseille","lat":43.314811,"lon":5.373104,"is_reserved":false,"is_disabled":false,"rental_uris":{"android":"levelo://app?vid=f6da021e-aa07-4cc3-b9e9-e954ddbdb4a5","ios":"levelo://app?vid=f6da021e-aa07-4cc3-b9e9-e954ddbdb4a5"},"vehicle_type_id":"4","last_reported":1713034984,"current_range_meters":20400,"station_id":"ce4bgt12rcd13ifvqcd0","pricing_plan_id":"cebpf4jnsgd1na2vs0mg"},{"bike_id":"bf75b2eb-2bab-4c90-84c2-89b6a267eb41","system_id":"levelo_inurba_marseille","lat":43.308051,"lon":5.372238,"is_reserved":false,"is_disabled":false,"rental_uris":{"android":"levelo://app?vid=bf75b2eb-2bab-4c90-84c2-89b6a267eb41","ios":"levelo://app?vid=bf75b2eb-2bab-4c90-84c2-89b6a267eb41"},"vehicle_type_id":"4","last_reported":1713034984,"current_range_meters":4000,"station_id":"","pricing_plan_id":"cebpf4jnsgd1na2vs0mg"},{"bike_id":"8f761400-94cb-4233-af31-d8555e900616","system_id":"levelo_inurba_marseille","lat":43.30547,"lon":5.3653,"is_reserved":false,"is_disabled":false,"rental_uris":{"android":"levelo://app?vid=8f761400-94cb-4233-af31-d8555e900616","ios":"levelo://app?vid=8f761400-94cb-4233-af31-d8555e900616"},"vehicle_type_id":"4","last_reported":1713034984,"current_range_meters":14400,"station_id":"ce4bgs12rcd13ifvqcag","pricing_plan_id":"cebpf4jnsgd1na2vs0mg"},{"bike_id":"1765d094-dfb0-4912-a696-c6e36b6d5599","system_id":"levelo_inurba_marseille","lat":43.30543,"lon":5.36543,"is_reserved":false,"is_disabled":false,"rental_uris":{"android":"levelo://app?vid=1765d094-dfb0-4912-a696-c6e36b6d5599","ios":"levelo://app?vid=1765d094-dfb0-4912-a696-c6e36b6d5599"},"vehicle_type_id":"4","last_reported":1713034984,"current_range_meters":0,"station_id":"ce4bgs12rcd13ifvqcag","pricing_plan_id":"cebpf4jnsgd1na2vs0mg"},{"bike_id":"65c9d116-03bb-4feb-b152-8bf4a6d2819d","system_id":"levelo_inurba_marseille","lat":43.30528,"lon":5.36554,"is_reserved":false,"is_disabled":false,"rental_uris":{"android":"levelo://app?vid=65c9d116-03bb-4feb-b152-8bf4a6d2819d","ios":"levelo://app?vid=65c9d116-03bb-4feb-b152-8bf4a6d2819d"},"vehicle_type_id":"4","last_reported":1713034984,"current_range_meters":29200,"station_id":"ce4bgs12rcd13ifvqcag","pricing_plan_id":"cebpf4jnsgd1na2vs0mg"},{"bike_id":"813bcf17-71d6-4473-9fd6-ebfec4de214d","system_id":"levelo_inurba_marseille","lat":43.305989,"lon":5.37225,"is_reserved":false,"is_disabled":false,"rental_uris":{"android":"levelo://app?vid=813bcf17-71d6-4473-9fd6-ebfec4de214d","ios":"levelo://app?vid=813bcf17-71d6-4473-9fd6-ebfec4de214d"},"vehicle_type_id":"4","last_reported":1713034984,"current_range_meters":12000,"station_id":"ce4bgqh2rcd13ifvqc4g","pricing_plan_id":"cebpf4jnsgd1na2vs0mg"},{"bike_id":"c1dac32b-1114-487c-83d0-a868a6ab0cc5","system_id":"levelo_inurba_marseille","lat":43.311125,"lon":5.377624,"is_reserved":false,"is_disabled":false,"rental_uris":{"android":"levelo://app?vid=c1dac32b-1114-487c-83d0-a868a6ab0cc5","ios":"levelo://app?vid=c1dac32b-1114-487c-83d0-a868a6ab0cc5"},"vehicle_type_id":"4","last_reported":1713034984,"current_range_meters":800,"station_id":"ce4bgt92rcd13ifvqcg0","pricing_plan_id":"cebpf4jnsgd1na2vs0mg"},{"bike_id":"bc6104f6-ba6d-40ec-8c97-a377712b212f","system_id":"levelo_inurba_marseille","lat":43.305989,"lon":5.37225,"is_reserved":false,"is_disabled":false,"rental_uris":{"android":"levelo://app?vid=bc6104f6-ba6d-40ec-8c97-a377712b212f","ios":"levelo://app?vid=bc6104f6-ba6d-40ec-8c97-a377712b212f"},"vehicle_type_id":"4","last_reported":1713034984,"current_range_meters":23600,"station_id":"ce4bgqh2rcd13ifvqc4g","pricing_plan_id":"cebpf4jnsgd1na2vs0mg"},{"bike_id":"f0310614-b031-43e7-a58b-2587e9ba1f6c","system_id":"levelo_inurba_marseille","lat":43.312239,"lon":5.368562,"is_reserved":false,"is_disabled":false,"rental_uris":{"android":"levelo://app?vid=f0310614-b031-43e7-a58b-2587e9ba1f6c","ios":"levelo://app?vid=f0310614-b031-43e7-a58b-2587e9ba1f6c"},"vehicle_type_id":"4","last_reported":1713034984,"current_range_meters":7600,"station_id":"ce4bgl92rcd13ifvqbq0","pricing_plan_id":"cebpf4jnsgd1na2vs0mg"},{"bike_id":"475e7c83-09f8-4292-9c13-e41a4c636aa2","system_id":"levelo_inurba_marseille","lat":43.303046,"lon":5.368981,"is_reserved":false,"is_disabled":false,"rental_uris":{"android":"levelo://app?vid=475e7c83-09f8-4292-9c13-e41a4c636aa2","ios":"levelo://app?vid=475e7c83-09f8-4292-9c13-e41a4c636aa2"},"vehicle_type_id":"4","last_reported":1713034984,"current_range_meters":6000,"station_id":"ce4bgqh2rcd13ifvqc5g","pricing_plan_id":"cebpf4jnsgd1na2vs0mg"},{"bike_id":"b9c283b5-e495-4dd1-8ff1-15d12256a684","system_id":"levelo_inurba_marseille","lat":43.299222,"lon":5.365554,"is_reserved":false,"is_disabled":false,"rental_uris":{"android":"levelo://app?vid=b9c283b5-e495-4dd1-8ff1-15d12256a684","ios":"levelo://app?vid=b9c283b5-e495-4dd1-8ff1-15d12256a684"},"vehicle_type_id":"4","last_reported":1713034984,"current_range_meters":30000,"station_id":"ce4bgm92rcd13ifvqbr0","pricing_plan_id":"cebpf4jnsgd1na2vs0mg"},{"bike_id":"41bb2bfd-5693-4d14-a9fb-ed7f23aad875","system_id":"levelo_inurba_marseille","lat":43.315289,"lon":5.380349,"is_reserved":false,"is_disabled":false,"rental_uris":{"android":"levelo://app?vid=41bb2bfd-5693-4d14-a9fb-ed7f23aad875","ios":"levelo://app?vid=41bb2bfd-5693-4d14-a9fb-ed7f23aad875"},"vehicle_type_id":"4","last_reported":1713034984,"current_range_meters":18800,"station_id":"ce4bhsp2rcd13ifvqi50","pricing_plan_id":"cebpf4jnsgd1na2vs0mg"},{"bike_id":"c973c696-6cf3-4ef6-9922-20142626237f","system_id":"levelo_inurba_marseille","lat":43.30282,"lon":5.37259,"is_reserved":false,"is_disabled":false,"rental_uris":{"android":"levelo://app?vid=c973c696-6cf3-4ef6-9922-20142626237f","ios":"levelo://app?vid=c973c696-6cf3-4ef6-9922-20142626237f"},"vehicle_type_id":"4","last_reported":1713034984,"current_range_meters":14000,"station_id":"","pricing_plan_id":"cebpf4jnsgd1na2vs0mg"},{"bike_id":"09e6da58-e2b7-4d51-9760-4485b57de587","system_id":"levelo_inurba_marseille","lat":43.301939,"lon":5.366286,"is_reserved":false,"is_disabled":false,"rental_uris":{"android":"levelo://app?vid=09e6da58-e2b7-4d51-9760-4485b57de587","ios":"levelo://app?vid=09e6da58-e2b7-4d51-9760-4485b57de587"},"vehicle_type_id":"4","last_reported":1713034984,"current_range_meters":25600,"station_id":"ce4bgrh2rcd13ifvqc8g","pricing_plan_id":"cebpf4jnsgd1na2vs0mg"},{"bike_id":"f5a3f466-5519-44bf-977c-e286a7d55481","system_id":"levelo_inurba_marseille","lat":43.308012,"lon":5.381511,"is_reserved":false,"is_disabled":false,"rental_uris":{"android":"levelo://app?vid=f5a3f466-5519-44bf-977c-e286a7d55481","ios":"levelo://app?vid=f5a3f466-5519-44bf-977c-e286a7d55481"},"vehicle_type_id":"4","last_reported":1713034984,"current_range_meters":0,"station_id":"ce4bgt12rcd13ifvqce0","pricing_plan_id":"cebpf4jnsgd1na2vs0mg"},{"bike_id":"3d8d977e-dabf-4e0f-84b9-25af31a93565","system_id":"levelo_inurba_marseille","lat":43.30805,"lon":5.3816,"is_reserved":false,"is_disabled":false,"rental_uris":{"android":"levelo://app?vid=3d8d977e-dabf-4e0f-84b9-25af31a93565","ios":"levelo://app?vid=3d8d977e-dabf-4e0f-84b9-25af31a93565"},"vehicle_type_id":"4","last_reported":1713034984,"current_range_meters":0,"station_id":"ce4bgt12rcd13ifvqce0","pricing_plan_id":"cebpf4jnsgd1na2vs0mg"},{"bike_id":"f770173a-c53c-489f-96b7-d2e8704b6d2e","system_id":"levelo_inurba_marseille","lat":43.309589,"lon":5.390258,"is_reserved":false,"is_disabled":false,"rental_uris":{"android":"levelo://app?vid=f770173a-c53c-489f-96b7-d2e8704b6d2e","ios":"levelo://app?vid=f770173a-c53c-489f-96b7-d2e8704b6d2e"},"vehicle_type_id":"4","last_reported":1713034984,"current_range_meters":11200,"station_id":"ce4bgup2rcd13ifvqco0","pricing_plan_id":"cebpf4jnsgd1na2vs0mg"},{"bike_id":"0c7b15c2-9f9c-40e9-9a82-1417a79ab938","system_id":"levelo_inurba_marseille","lat":43.305364,"lon":5.384119,"is_reserved":false,"is_disabled":false,"rental_uris":{"android":"levelo://app?vid=0c7b15c2-9f9c-40e9-9a82-1417a79ab938","ios":"levelo://app?vid=0c7b15c2-9f9c-40e9-9a82-1417a79ab938"},"vehicle_type_id":"4","last_reported":1713034984,"current_range_meters":0,"station_id":"ce4bgg92rcd13ifvqb30","pricing_plan_id":"cebpf4jnsgd1na2vs0mg"},{"bike_id":"32e22b54-e6ff-4b9d-97b2-2af4955bad10","system_id":"levelo_inurba_marseille","lat":43.324771,"lon":5.36557,"is_reserved":false,"is_disabled":false,"rental_uris":{"android":"levelo://app?vid=32e22b54-e6ff-4b9d-97b2-2af4955bad10","ios":"levelo://app?vid=32e22b54-e6ff-4b9d-97b2-2af4955bad10"},"vehicle_type_id":"4","last_reported":1713034984,"current_range_meters":11600,"station_id":"ce4bhs12rcd13ifvqhvg","pricing_plan_id":"cebpf4jnsgd1na2vs0mg"},{"bike_id":"731ac6c5-fcc0-4b86-a53e-7adc129e3fb4","system_id":"levelo_inurba_marseille","lat":43.324771,"lon":5.36557,"is_reserved":false,"is_disabled":false,"rental_uris":{"android":"levelo://app?vid=731ac6c5-fcc0-4b86-a53e-7adc129e3fb4","ios":"levelo://app?vid=731ac6c5-fcc0-4b86-a53e-7adc129e3fb4"},"vehicle_type_id":"4","last_reported":1713034984,"current_range_meters":6000,"station_id":"ce4bhs12rcd13ifvqhvg","pricing_plan_id":"cebpf4jnsgd1na2vs0mg"},{"bike_id":"5e1144de-6f5b-43e3-80ec-980822fb5f96","system_id":"levelo_inurba_marseille","lat":43.307614,"lon":5.382039,"is_reserved":false,"is_disabled":false,"rental_uris":{"android":"levelo://app?vid=5e1144de-6f5b-43e3-80ec-980822fb5f96","ios":"levelo://app?vid=5e1144de-6f5b-43e3-80ec-980822fb5f96"},"vehicle_type_id":"4","last_reported":1713034984,"current_range_meters":9600,"station_id":"ce4bgg92rcd13ifvqb30","pricing_plan_id":"cebpf4jnsgd1na2vs0mg"},{"bike_id":"c1a4e4fc-91e6-4d8c-b1ff-5893e3499cf7","system_id":"levelo_inurba_marseille","lat":43.324771,"lon":5.36557,"is_reserved":false,"is_disabled":false,"rental_uris":{"android":"levelo://app?vid=c1a4e4fc-91e6-4d8c-b1ff-5893e3499cf7","ios":"levelo://app?vid=c1a4e4fc-91e6-4d8c-b1ff-5893e3499cf7"},"vehicle_type_id":"4","last_reported":1713034984,"current_range_meters":4800,"station_id":"ce4bhs12rcd13ifvqhvg","pricing_plan_id":"cebpf4jnsgd1na2vs0mg"},{"bike_id":"ec80479e-a50f-4a1e-bbac-246d8597be6c","system_id":"levelo_inurba_marseille","lat":43.310658,"lon":5.383538,"is_reserved":false,"is_disabled":false,"rental_uris":{"android":"levelo://app?vid=ec80479e-a50f-4a1e-bbac-246d8597be6c","ios":"levelo://app?vid=ec80479e-a50f-4a1e-bbac-246d8597be6c"},"vehicle_type_id":"4","last_reported":1713034984,"current_range_meters":0,"station_id":"ce4bgv92rcd13ifvqcr0","pricing_plan_id":"cebpf4jnsgd1na2vs0mg"},{"bike_id":"ed182c8e-1c82-49fe-a27a-182e78e5ce6d","system_id":"levelo_inurba_marseille","lat":43.31065,"lon":5.38354,"is_reserved":false,"is_disabled":false,"rental_uris":{"android":"levelo://app?vid=ed182c8e-1c82-49fe-a27a-182e78e5ce6d","ios":"levelo://app?vid=ed182c8e-1c82-49fe-a27a-182e78e5ce6d"},"vehicle_type_id":"4","last_reported":1713034984,"current_range_meters":9200,"station_id":"ce4bgv92rcd13ifvqcr0","pricing_plan_id":"cebpf4jnsgd1na2vs0mg"},{"bike_id":"2463f202-5662-4a78-9ecf-0061ec8d1f5b","system_id":"levelo_inurba_marseille","lat":43.301429,"lon":5.37413,"is_reserved":false,"is_disabled":false,"rental_uris":{"android":"levelo://app?vid=2463f202-5662-4a78-9ecf-0061ec8d1f5b","ios":"levelo://app?vid=2463f202-5662-4a78-9ecf-0061ec8d1f5b"},"vehicle_type_id":"4","last_reported":1713034984,"current_range_meters":10400,"station_id":"ce4bgs92rcd13ifvqcc0","pricing_plan_id":"cebpf4jnsgd1na2vs0mg"},{"bike_id":"f20c6e9b-dcc7-4cfd-87f9-44495aae8f00","system_id":"levelo_inurba_marseille","lat":43.319935,"lon":5.381699,"is_reserved":false,"is_disabled":false,"rental_uris":{"android":"levelo://app?vid=f20c6e9b-dcc7-4cfd-87f9-44495aae8f00","ios":"levelo://app?vid=f20c6e9b-dcc7-4cfd-87f9-44495aae8f00"},"vehicle_type_id":"4","last_reported":1713034984,"current_range_meters":9600,"station_id":"ce4bhr12rcd13ifvqhpg","pricing_plan_id":"cebpf4jnsgd1na2vs0mg"},{"bike_id":"f2319324-c16a-4667-a311-1e426cf73adf","system_id":"levelo_inurba_marseille","lat":43.320017,"lon":5.381493,"is_reserved":false,"is_disabled":false,"rental_uris":{"android":"levelo://app?vid=f2319324-c16a-4667-a311-1e426cf73adf","ios":"levelo://app?vid=f2319324-c16a-4667-a311-1e426cf73adf"},"vehicle_type_id":"4","last_reported":1713034984,"current_range_meters":0,"station_id":"ce4bhr12rcd13ifvqhpg","pricing_plan_id":"cebpf4jnsgd1na2vs0mg"},{"bike_id":"ecf8347f-ca0e-4a6a-9644-6c9a741893bf","system_id":"levelo_inurba_marseille","lat":43.319935,"lon":5.381699,"is_reserved":false,"is_disabled":false,"rental_uris":{"android":"levelo://app?vid=ecf8347f-ca0e-4a6a-9644-6c9a741893bf","ios":"levelo://app?vid=ecf8347f-ca0e-4a6a-9644-6c9a741893bf"},"vehicle_type_id":"4","last_reported":1713034984,"current_range_meters":0,"station_id":"ce4bhr12rcd13ifvqhpg","pricing_plan_id":"cebpf4jnsgd1na2vs0mg"},{"bike_id":"6a994277-26ff-4f06-89c2-40b21f841ccc","system_id":"levelo_inurba_marseille","lat":43.302784,"lon":5.377158,"is_reserved":false,"is_disabled":false,"rental_uris":{"android":"levelo://app?vid=6a994277-26ff-4f06-89c2-40b21f841ccc","ios":"levelo://app?vid=6a994277-26ff-4f06-89c2-40b21f841ccc"},"vehicle_type_id":"4","last_reported":1713034984,"current_range_meters":22000,"station_id":"ce4bguh2rcd13ifvqcj0","pricing_plan_id":"cebpf4jnsgd1na2vs0mg"},{"bike_id":"e9e7ca34-de36-4a3b-bc65-0895d4d38c89","system_id":"levelo_inurba_marseille","lat":43.299222,"lon":5.365554,"is_reserved":false,"is_disabled":false,"rental_uris":{"android":"levelo://app?vid=e9e7ca34-de36-4a3b-bc65-0895d4d38c89","ios":"levelo://app?vid=e9e7ca34-de36-4a3b-bc65-0895d4d38c89"},"vehicle_type_id":"4","last_reported":1713034984,"current_range_meters":1600,"station_id":"ce4bgm92rcd13ifvqbr0","pricing_plan_id":"cebpf4jnsgd1na2vs0mg"},{"bike_id":"71f61946-8c73-409f-8260-456a739996d0","system_id":"levelo_inurba_marseille","lat":43.313291,"lon":5.396838,"is_reserved":false,"is_disabled":false,"rental_uris":{"android":"levelo://app?vid=71f61946-8c73-409f-8260-456a739996d0","ios":"levelo://app?vid=71f61946-8c73-409f-8260-456a739996d0"},"vehicle_type_id":"4","last_reported":1713034984,"current_range_meters":23200,"station_id":"ce4bgvp2rcd13ifvqcu0","pricing_plan_id":"cebpf4jnsgd1na2vs0mg"},{"bike_id":"c8e768cf-0058-4203-bd6a-e45019cb9da8","system_id":"levelo_inurba_marseille","lat":43.309076,"lon":5.368465,"is_reserved":false,"is_disabled":false,"rental_uris":{"android":"levelo://app?vid=c8e768cf-0058-4203-bd6a-e45019cb9da8","ios":"levelo://app?vid=c8e768cf-0058-4203-bd6a-e45019cb9da8"},"vehicle_type_id":"4","last_reported":1713034984,"current_range_meters":4400,"station_id":"ce4bgn92rcd13ifvqbvg","pricing_plan_id":"cebpf4jnsgd1na2vs0mg"},{"bike_id":"18055054-b25d-48fb-93d3-14dce4e7ac31","system_id":"levelo_inurba_marseille","lat":43.298433,"lon":5.362774,"is_reserved":false,"is_disabled":false,"rental_uris":{"android":"levelo://app?vid=18055054-b25d-48fb-93d3-14dce4e7ac31","ios":"levelo://app?vid=18055054-b25d-48fb-93d3-14dce4e7ac31"},"vehicle_type_id":"4","last_reported":1713034984,"current_range_meters":4400,"station_id":"ce4bgpp2rcd13ifvqc3g","pricing_plan_id":"cebpf4jnsgd1na2vs0mg"},{"bike_id":"9a3e71c6-c618-4699-a8ac-073d38313d22","system_id":"levelo_inurba_marseille","lat":43.306412,"lon":5.401035,"is_reserved":false,"is_disabled":false,"rental_uris":{"android":"levelo://app?vid=9a3e71c6-c618-4699-a8ac-073d38313d22","ios":"levelo://app?vid=9a3e71c6-c618-4699-a8ac-073d38313d22"},"vehicle_type_id":"4","last_reported":1713034984,"current_range_meters":0,"station_id":"ce4bh112rcd13ifvqda0","pricing_plan_id":"cebpf4jnsgd1na2vs0mg"},{"bike_id":"854461f8-f355-437a-a5b5-286b8dce7d1d","system_id":"levelo_inurba_marseille","lat":43.322872,"lon":5.382756,"is_reserved":false,"is_disabled":false,"rental_uris":{"android":"levelo://app?vid=854461f8-f355-437a-a5b5-286b8dce7d1d","ios":"levelo://app?vid=854461f8-f355-437a-a5b5-286b8dce7d1d"},"vehicle_type_id":"4","last_reported":1713034984,"current_range_meters":1600,"station_id":"ce4bhr12rcd13ifvqhqg","pricing_plan_id":"cebpf4jnsgd1na2vs0mg"},{"bike_id":"7d07bd17-4e6d-44bf-9444-4ed40cb58fab","system_id":"levelo_inurba_marseille","lat":43.309589,"lon":5.390258,"is_reserved":false,"is_disabled":false,"rental_uris":{"android":"levelo://app?vid=7d07bd17-4e6d-44bf-9444-4ed40cb58fab","ios":"levelo://app?vid=7d07bd17-4e6d-44bf-9444-4ed40cb58fab"},"vehicle_type_id":"4","last_reported":1713034984,"current_range_meters":3600,"station_id":"ce4bgup2rcd13ifvqco0","pricing_plan_id":"cebpf4jnsgd1na2vs0mg"},{"bike_id":"4b062aad-25db-4843-872d-d388d0410ce7","system_id":"levelo_inurba_marseille","lat":43.322872,"lon":5.382756,"is_reserved":false,"is_disabled":false,"rental_uris":{"android":"levelo://app?vid=4b062aad-25db-4843-872d-d388d0410ce7","ios":"levelo://app?vid=4b062aad-25db-4843-872d-d388d0410ce7"},"vehicle_type_id":"4","last_reported":1713034984,"current_range_meters":29600,"station_id":"ce4bhr12rcd13ifvqhqg","pricing_plan_id":"cebpf4jnsgd1na2vs0mg"},{"bike_id":"750d6de0-9694-455d-a9d6-286f5fc62a80","system_id":"levelo_inurba_marseille","lat":43.322872,"lon":5.382756,"is_reserved":false,"is_disabled":false,"rental_uris":{"android":"levelo://app?vid=750d6de0-9694-455d-a9d6-286f5fc62a80","ios":"levelo://app?vid=750d6de0-9694-455d-a9d6-286f5fc62a80"},"vehicle_type_id":"4","last_reported":1713034984,"current_range_meters":4400,"station_id":"ce4bhr12rcd13ifvqhqg","pricing_plan_id":"cebpf4jnsgd1na2vs0mg"},{"bike_id":"17e5cf30-5b8d-41b4-a2d0-b5dfdec9dad8","system_id":"levelo_inurba_marseille","lat":43.297163,"lon":5.365866,"is_reserved":false,"is_disabled":false,"rental_uris":{"android":"levelo://app?vid=17e5cf30-5b8d-41b4-a2d0-b5dfdec9dad8","ios":"levelo://app?vid=17e5cf30-5b8d-41b4-a2d0-b5dfdec9dad8"},"vehicle_type_id":"4","last_reported":1713034984,"current_range_meters":12000,"station_id":"ce4bgn12rcd13ifvqbt0","pricing_plan_id":"cebpf4jnsgd1na2vs0mg"},{"bike_id":"30b51c54-eba6-4337-92bd-2c98675c816d","system_id":"levelo_inurba_marseille","lat":43.2968,"lon":5.37291,"is_reserved":false,"is_disabled":false,"rental_uris":{"android":"levelo://app?vid=30b51c54-eba6-4337-92bd-2c98675c816d","ios":"levelo://app?vid=30b51c54-eba6-4337-92bd-2c98675c816d"},"vehicle_type_id":"4","last_reported":1713034984,"current_range_meters":1600,"station_id":"ce4bgk12rcd13ifvqbj0","pricing_plan_id":"cebpf4jnsgd1na2vs0mg"},{"bike_id":"b6648b1d-7f9e-4d0a-baf9-55b3f3291a7b","system_id":"levelo_inurba_marseille","lat":43.296567,"lon":5.360581,"is_reserved":false,"is_disabled":false,"rental_uris":{"android":"levelo://app?vid=b6648b1d-7f9e-4d0a-baf9-55b3f3291a7b","ios":"levelo://app?vid=b6648b1d-7f9e-4d0a-baf9-55b3f3291a7b"},"vehicle_type_id":"4","last_reported":1713034984,"current_range_meters":2000,"station_id":"","pricing_plan_id":"cebpf4jnsgd1na2vs0mg"},{"bike_id":"020f0bc0-0776-4058-89a7-7bdd3bd8b20d","system_id":"levelo_inurba_marseille","lat":43.29573,"lon":5.367355,"is_reserved":false,"is_disabled":false,"rental_uris":{"android":"levelo://app?vid=020f0bc0-0776-4058-89a7-7bdd3bd8b20d","ios":"levelo://app?vid=020f0bc0-0776-4058-89a7-7bdd3bd8b20d"},"vehicle_type_id":"4","last_reported":1713034984,"current_range_meters":30000,"station_id":"ce4bgph2rcd13ifvqc2g","pricing_plan_id":"cebpf4jnsgd1na2vs0mg"},{"bike_id":"84254172-ee5d-4f61-96ee-720515d35dea","system_id":"levelo_inurba_marseille","lat":43.29573,"lon":5.367355,"is_reserved":false,"is_disabled":false,"rental_uris":{"android":"levelo://app?vid=84254172-ee5d-4f61-96ee-720515d35dea","ios":"levelo://app?vid=84254172-ee5d-4f61-96ee-720515d35dea"},"vehicle_type_id":"4","last_reported":1713034984,"current_range_meters":12000,"station_id":"ce4bgph2rcd13ifvqc2g","pricing_plan_id":"cebpf4jnsgd1na2vs0mg"},{"bike_id":"de36e438-f3a4-4f05-b0ef-93b2afa9a09f","system_id":"levelo_inurba_marseille","lat":43.289307,"lon":5.38406,"is_reserved":false,"is_disabled":false,"rental_uris":{"android":"levelo://app?vid=de36e438-f3a4-4f05-b0ef-93b2afa9a09f","ios":"levelo://app?vid=de36e438-f3a4-4f05-b0ef-93b2afa9a09f"},"vehicle_type_id":"4","last_reported":1713034984,"current_range_meters":26800,"station_id":"ce4bh612rcd13ifvqe6g","pricing_plan_id":"cebpf4jnsgd1na2vs0mg"},{"bike_id":"719d97ed-2218-4718-ad8e-7c016bf7dc78","system_id":"levelo_inurba_marseille","lat":43.29712,"lon":5.376895,"is_reserved":false,"is_disabled":false,"rental_uris":{"android":"levelo://app?vid=719d97ed-2218-4718-ad8e-7c016bf7dc78","ios":"levelo://app?vid=719d97ed-2218-4718-ad8e-7c016bf7dc78"},"vehicle_type_id":"4","last_reported":1713034984,"current_range_meters":0,"station_id":"ce4bgkh2rcd13ifvqbl0","pricing_plan_id":"cebpf4jnsgd1na2vs0mg"},{"bike_id":"145cb2b7-9f50-4da9-9ea1-e1a1763f3b75","system_id":"levelo_inurba_marseille","lat":43.29617,"lon":5.36032,"is_reserved":false,"is_disabled":false,"rental_uris":{"android":"levelo://app?vid=145cb2b7-9f50-4da9-9ea1-e1a1763f3b75","ios":"levelo://app?vid=145cb2b7-9f50-4da9-9ea1-e1a1763f3b75"},"vehicle_type_id":"4","last_reported":1713034984,"current_range_meters":14800,"station_id":"","pricing_plan_id":"cebpf4jnsgd1na2vs0mg"},{"bike_id":"65891c50-505c-4c2d-9c8a-22603c65f977","system_id":"levelo_inurba_marseille","lat":43.309589,"lon":5.390258,"is_reserved":false,"is_disabled":false,"rental_uris":{"android":"levelo://app?vid=65891c50-505c-4c2d-9c8a-22603c65f977","ios":"levelo://app?vid=65891c50-505c-4c2d-9c8a-22603c65f977"},"vehicle_type_id":"4","last_reported":1713034984,"current_range_meters":9600,"station_id":"ce4bgup2rcd13ifvqco0","pricing_plan_id":"cebpf4jnsgd1na2vs0mg"},{"bike_id":"22cfc8ff-0c0c-4700-ad60-7d53bf52daa3","system_id":"levelo_inurba_marseille","lat":43.299028,"lon":5.381509,"is_reserved":false,"is_disabled":false,"rental_uris":{"android":"levelo://app?vid=22cfc8ff-0c0c-4700-ad60-7d53bf52daa3","ios":"levelo://app?vid=22cfc8ff-0c0c-4700-ad60-7d53bf52daa3"},"vehicle_type_id":"4","last_reported":1713034984,"current_range_meters":0,"station_id":"ce4bgj12rcd13ifvqbc0","pricing_plan_id":"cebpf4jnsgd1na2vs0mg"},{"bike_id":"f76809f4-91f5-487e-b3d8-9151d5597498","system_id":"levelo_inurba_marseille","lat":43.309589,"lon":5.390258,"is_reserved":false,"is_disabled":false,"rental_uris":{"android":"levelo://app?vid=f76809f4-91f5-487e-b3d8-9151d5597498","ios":"levelo://app?vid=f76809f4-91f5-487e-b3d8-9151d5597498"},"vehicle_type_id":"4","last_reported":1713034984,"current_range_meters":10000,"station_id":"ce4bgup2rcd13ifvqco0","pricing_plan_id":"cebpf4jnsgd1na2vs0mg"},{"bike_id":"6cca20b1-e3bc-493a-9a85-4235f5b9da35","system_id":"levelo_inurba_marseille","lat":43.309647,"lon":5.390327,"is_reserved":false,"is_disabled":false,"rental_uris":{"android":"levelo://app?vid=6cca20b1-e3bc-493a-9a85-4235f5b9da35","ios":"levelo://app?vid=6cca20b1-e3bc-493a-9a85-4235f5b9da35"},"vehicle_type_id":"4","last_reported":1713034984,"current_range_meters":0,"station_id":"ce4bgup2rcd13ifvqco0","pricing_plan_id":"cebpf4jnsgd1na2vs0mg"},{"bike_id":"694b9e7d-53ad-4744-8845-c133f1cdd0eb","system_id":"levelo_inurba_marseille","lat":43.29898,"lon":5.38138,"is_reserved":false,"is_disabled":false,"rental_uris":{"android":"levelo://app?vid=694b9e7d-53ad-4744-8845-c133f1cdd0eb","ios":"levelo://app?vid=694b9e7d-53ad-4744-8845-c133f1cdd0eb"},"vehicle_type_id":"4","last_reported":1713034984,"current_range_meters":2400,"station_id":"ce4bh092rcd13ifvqd20","pricing_plan_id":"cebpf4jnsgd1na2vs0mg"},{"bike_id":"ece555d6-ed70-4472-bc83-149dce460e6a","system_id":"levelo_inurba_marseille","lat":43.299028,"lon":5.381509,"is_reserved":false,"is_disabled":false,"rental_uris":{"android":"levelo://app?vid=ece555d6-ed70-4472-bc83-149dce460e6a","ios":"levelo://app?vid=ece555d6-ed70-4472-bc83-149dce460e6a"},"vehicle_type_id":"4","last_reported":1713034984,"current_range_meters":2800,"station_id":"ce4bgj12rcd13ifvqbc0","pricing_plan_id":"cebpf4jnsgd1na2vs0mg"},{"bike_id":"a3d0eb47-c443-46d8-b401-67fa582133b2","system_id":"levelo_inurba_marseille","lat":43.309589,"lon":5.390258,"is_reserved":false,"is_disabled":false,"rental_uris":{"android":"levelo://app?vid=a3d0eb47-c443-46d8-b401-67fa582133b2","ios":"levelo://app?vid=a3d0eb47-c443-46d8-b401-67fa582133b2"},"vehicle_type_id":"4","last_reported":1713034984,"current_range_meters":25600,"station_id":"ce4bgup2rcd13ifvqco0","pricing_plan_id":"cebpf4jnsgd1na2vs0mg"},{"bike_id":"be40dff7-465b-474d-a112-bf558711d4d0","system_id":"levelo_inurba_marseille","lat":43.309589,"lon":5.390258,"is_reserved":false,"is_disabled":false,"rental_uris":{"android":"levelo://app?vid=be40dff7-465b-474d-a112-bf558711d4d0","ios":"levelo://app?vid=be40dff7-465b-474d-a112-bf558711d4d0"},"vehicle_type_id":"4","last_reported":1713034984,"current_range_meters":2800,"station_id":"ce4bgup2rcd13ifvqco0","pricing_plan_id":"cebpf4jnsgd1na2vs0mg"},{"bike_id":"04e27322-ddf3-40aa-b031-98195a8bbca8","system_id":"levelo_inurba_marseille","lat":43.309589,"lon":5.390258,"is_reserved":false,"is_disabled":false,"rental_uris":{"android":"levelo://app?vid=04e27322-ddf3-40aa-b031-98195a8bbca8","ios":"levelo://app?vid=04e27322-ddf3-40aa-b031-98195a8bbca8"},"vehicle_type_id":"4","last_reported":1713034984,"current_range_meters":8800,"station_id":"ce4bgup2rcd13ifvqco0","pricing_plan_id":"cebpf4jnsgd1na2vs0mg"},{"bike_id":"0b4799a5-be55-4194-95d0-2b05570f765c","system_id":"levelo_inurba_marseille","lat":43.317557,"lon":5.390173,"is_reserved":false,"is_disabled":false,"rental_uris":{"android":"levelo://app?vid=0b4799a5-be55-4194-95d0-2b05570f765c","ios":"levelo://app?vid=0b4799a5-be55-4194-95d0-2b05570f765c"},"vehicle_type_id":"4","last_reported":1713034984,"current_range_meters":28000,"station_id":"ce4bhqp2rcd13ifvqhng","pricing_plan_id":"cebpf4jnsgd1na2vs0mg"},{"bike_id":"19fe547a-0bdb-468f-a9d8-30c51b6d9678","system_id":"levelo_inurba_marseille","lat":43.31759,"lon":5.39019,"is_reserved":false,"is_disabled":false,"rental_uris":{"android":"levelo://app?vid=19fe547a-0bdb-468f-a9d8-30c51b6d9678","ios":"levelo://app?vid=19fe547a-0bdb-468f-a9d8-30c51b6d9678"},"vehicle_type_id":"4","last_reported":1713034984,"current_range_meters":4800,"station_id":"ce4bhqp2rcd13ifvqhng","pricing_plan_id":"cebpf4jnsgd1na2vs0mg"},{"bike_id":"b4c6b169-bc4e-45cd-904a-b517aa1ca188","system_id":"levelo_inurba_marseille","lat":43.298037,"lon":5.381066,"is_reserved":false,"is_disabled":false,"rental_uris":{"android":"levelo://app?vid=b4c6b169-bc4e-45cd-904a-b517aa1ca188","ios":"levelo://app?vid=b4c6b169-bc4e-45cd-904a-b517aa1ca188"},"vehicle_type_id":"4","last_reported":1713034984,"current_range_meters":8800,"station_id":"ce4bgip2rcd13ifvqbb0","pricing_plan_id":"cebpf4jnsgd1na2vs0mg"},{"bike_id":"872ccb31-1db7-4153-b7ef-5d695f42b2a4","system_id":"levelo_inurba_marseille","lat":43.298037,"lon":5.381066,"is_reserved":false,"is_disabled":false,"rental_uris":{"android":"levelo://app?vid=872ccb31-1db7-4153-b7ef-5d695f42b2a4","ios":"levelo://app?vid=872ccb31-1db7-4153-b7ef-5d695f42b2a4"},"vehicle_type_id":"4","last_reported":1713034984,"current_range_meters":4400,"station_id":"ce4bgip2rcd13ifvqbb0","pricing_plan_id":"cebpf4jnsgd1na2vs0mg"},{"bike_id":"92f75077-29f1-4664-8682-63ce26196366","system_id":"levelo_inurba_marseille","lat":43.297988,"lon":5.38099,"is_reserved":false,"is_disabled":false,"rental_uris":{"android":"levelo://app?vid=92f75077-29f1-4664-8682-63ce26196366","ios":"levelo://app?vid=92f75077-29f1-4664-8682-63ce26196366"},"vehicle_type_id":"4","last_reported":1713034984,"current_range_meters":0,"station_id":"ce4bgip2rcd13ifvqbb0","pricing_plan_id":"cebpf4jnsgd1na2vs0mg"},{"bike_id":"3ad96ebf-3315-4047-bb5e-0c76aaff59c7","system_id":"levelo_inurba_marseille","lat":43.298004,"lon":5.381034,"is_reserved":false,"is_disabled":false,"rental_uris":{"android":"levelo://app?vid=3ad96ebf-3315-4047-bb5e-0c76aaff59c7","ios":"levelo://app?vid=3ad96ebf-3315-4047-bb5e-0c76aaff59c7"},"vehicle_type_id":"4","last_reported":1713034984,"current_range_meters":0,"station_id":"ce4bgip2rcd13ifvqbb0","pricing_plan_id":"cebpf4jnsgd1na2vs0mg"},{"bike_id":"b8554ea0-23e7-4b44-a51b-bcb372326112","system_id":"levelo_inurba_marseille","lat":43.298037,"lon":5.381066,"is_reserved":false,"is_disabled":false,"rental_uris":{"android":"levelo://app?vid=b8554ea0-23e7-4b44-a51b-bcb372326112","ios":"levelo://app?vid=b8554ea0-23e7-4b44-a51b-bcb372326112"},"vehicle_type_id":"4","last_reported":1713034984,"current_range_meters":9600,"station_id":"ce4bgip2rcd13ifvqbb0","pricing_plan_id":"cebpf4jnsgd1na2vs0mg"},{"bike_id":"a2f34c47-7aa4-4f33-9acf-1084de07f96e","system_id":"levelo_inurba_marseille","lat":43.29577,"lon":5.37517,"is_reserved":false,"is_disabled":false,"rental_uris":{"android":"levelo://app?vid=a2f34c47-7aa4-4f33-9acf-1084de07f96e","ios":"levelo://app?vid=a2f34c47-7aa4-4f33-9acf-1084de07f96e"},"vehicle_type_id":"4","last_reported":1713034984,"current_range_meters":0,"station_id":"ce4bgh92rcd13ifvqb50","pricing_plan_id":"cebpf4jnsgd1na2vs0mg"},{"bike_id":"979c3746-e0c6-45eb-aa25-9aa2353a72da","system_id":"levelo_inurba_marseille","lat":43.29576,"lon":5.37518,"is_reserved":false,"is_disabled":false,"rental_uris":{"android":"levelo://app?vid=979c3746-e0c6-45eb-aa25-9aa2353a72da","ios":"levelo://app?vid=979c3746-e0c6-45eb-aa25-9aa2353a72da"},"vehicle_type_id":"4","last_reported":1713034984,"current_range_meters":0,"station_id":"ce4bgh92rcd13ifvqb50","pricing_plan_id":"cebpf4jnsgd1na2vs0mg"},{"bike_id":"6dfad225-c71c-42ac-a4b8-eb1629a96b4f","system_id":"levelo_inurba_marseille","lat":43.295748,"lon":5.37522,"is_reserved":false,"is_disabled":false,"rental_uris":{"android":"levelo://app?vid=6dfad225-c71c-42ac-a4b8-eb1629a96b4f","ios":"levelo://app?vid=6dfad225-c71c-42ac-a4b8-eb1629a96b4f"},"vehicle_type_id":"4","last_reported":1713034984,"current_range_meters":18000,"station_id":"ce4bgh92rcd13ifvqb50","pricing_plan_id":"cebpf4jnsgd1na2vs0mg"},{"bike_id":"b9bb49bc-0850-408c-88cf-84bbba86f6f4","system_id":"levelo_inurba_marseille","lat":43.29573,"lon":5.3752,"is_reserved":false,"is_disabled":false,"rental_uris":{"android":"levelo://app?vid=b9bb49bc-0850-408c-88cf-84bbba86f6f4","ios":"levelo://app?vid=b9bb49bc-0850-408c-88cf-84bbba86f6f4"},"vehicle_type_id":"4","last_reported":1713034984,"current_range_meters":0,"station_id":"ce4bgh92rcd13ifvqb50","pricing_plan_id":"cebpf4jnsgd1na2vs0mg"},{"bike_id":"dee9aa86-fbde-49af-ae93-3fbc4b335a19","system_id":"levelo_inurba_marseille","lat":43.304278,"lon":5.388868,"is_reserved":false,"is_disabled":false,"rental_uris":{"android":"levelo://app?vid=dee9aa86-fbde-49af-ae93-3fbc4b335a19","ios":"levelo://app?vid=dee9aa86-fbde-49af-ae93-3fbc4b335a19"},"vehicle_type_id":"4","last_reported":1713034984,"current_range_meters":31200,"station_id":"ce4bgk12rcd13ifvqbi0","pricing_plan_id":"cebpf4jnsgd1na2vs0mg"},{"bike_id":"8a15f071-04c1-4344-854c-4c30a4e36d81","system_id":"levelo_inurba_marseille","lat":43.29784,"lon":5.381008,"is_reserved":false,"is_disabled":false,"rental_uris":{"android":"levelo://app?vid=8a15f071-04c1-4344-854c-4c30a4e36d81","ios":"levelo://app?vid=8a15f071-04c1-4344-854c-4c30a4e36d81"},"vehicle_type_id":"4","last_reported":1713034984,"current_range_meters":0,"station_id":"ce4bgip2rcd13ifvqbb0","pricing_plan_id":"cebpf4jnsgd1na2vs0mg"},{"bike_id":"affc6411-1342-4c8f-b2b4-cb71f1f2865a","system_id":"levelo_inurba_marseille","lat":43.295748,"lon":5.37522,"is_reserved":false,"is_disabled":false,"rental_uris":{"android":"levelo://app?vid=affc6411-1342-4c8f-b2b4-cb71f1f2865a","ios":"levelo://app?vid=affc6411-1342-4c8f-b2b4-cb71f1f2865a"},"vehicle_type_id":"4","last_reported":1713034984,"current_range_meters":0,"station_id":"ce4bgh92rcd13ifvqb50","pricing_plan_id":"cebpf4jnsgd1na2vs0mg"},{"bike_id":"c7f569ac-f4f5-4a63-924d-1874c9e6992b","system_id":"levelo_inurba_marseille","lat":43.304278,"lon":5.388868,"is_reserved":false,"is_disabled":false,"rental_uris":{"android":"levelo://app?vid=c7f569ac-f4f5-4a63-924d-1874c9e6992b","ios":"levelo://app?vid=c7f569ac-f4f5-4a63-924d-1874c9e6992b"},"vehicle_type_id":"4","last_reported":1713034984,"current_range_meters":1600,"station_id":"ce4bgk12rcd13ifvqbi0","pricing_plan_id":"cebpf4jnsgd1na2vs0mg"},{"bike_id":"58c20880-10ba-441a-b8ad-e2a1ad535ff5","system_id":"levelo_inurba_marseille","lat":43.29612,"lon":5.376997,"is_reserved":false,"is_disabled":false,"rental_uris":{"android":"levelo://app?vid=58c20880-10ba-441a-b8ad-e2a1ad535ff5","ios":"levelo://app?vid=58c20880-10ba-441a-b8ad-e2a1ad535ff5"},"vehicle_type_id":"4","last_reported":1713034984,"current_range_meters":0,"station_id":"ce4bgi92rcd13ifvqb90","pricing_plan_id":"cebpf4jnsgd1na2vs0mg"},{"bike_id":"fa88525a-f816-4ecf-9ad5-b87478a4bcc4","system_id":"levelo_inurba_marseille","lat":43.2978,"lon":5.38113,"is_reserved":false,"is_disabled":false,"rental_uris":{"android":"levelo://app?vid=fa88525a-f816-4ecf-9ad5-b87478a4bcc4","ios":"levelo://app?vid=fa88525a-f816-4ecf-9ad5-b87478a4bcc4"},"vehicle_type_id":"4","last_reported":1713034984,"current_range_meters":0,"station_id":"ce4bgip2rcd13ifvqbb0","pricing_plan_id":"cebpf4jnsgd1na2vs0mg"},{"bike_id":"d6056fd0-5a78-4b53-99ff-08c7f4e01236","system_id":"levelo_inurba_marseille","lat":43.296106,"lon":5.376983,"is_reserved":false,"is_disabled":false,"rental_uris":{"android":"levelo://app?vid=d6056fd0-5a78-4b53-99ff-08c7f4e01236","ios":"levelo://app?vid=d6056fd0-5a78-4b53-99ff-08c7f4e01236"},"vehicle_type_id":"4","last_reported":1713034984,"current_range_meters":0,"station_id":"ce4bgi92rcd13ifvqb90","pricing_plan_id":"cebpf4jnsgd1na2vs0mg"},{"bike_id":"a525d210-2a7e-4cb7-aa93-b1b0051d33be","system_id":"levelo_inurba_marseille","lat":43.29558,"lon":5.37522,"is_reserved":false,"is_disabled":false,"rental_uris":{"android":"levelo://app?vid=a525d210-2a7e-4cb7-aa93-b1b0051d33be","ios":"levelo://app?vid=a525d210-2a7e-4cb7-aa93-b1b0051d33be"},"vehicle_type_id":"4","last_reported":1713034984,"current_range_meters":0,"station_id":"ce4bgh92rcd13ifvqb50","pricing_plan_id":"cebpf4jnsgd1na2vs0mg"},{"bike_id":"b16aadf5-abdf-472d-a46b-f651d592b48c","system_id":"levelo_inurba_marseille","lat":43.296163,"lon":5.377315,"is_reserved":false,"is_disabled":false,"rental_uris":{"android":"levelo://app?vid=b16aadf5-abdf-472d-a46b-f651d592b48c","ios":"levelo://app?vid=b16aadf5-abdf-472d-a46b-f651d592b48c"},"vehicle_type_id":"4","last_reported":1713034984,"current_range_meters":0,"station_id":"ce4bgi92rcd13ifvqb90","pricing_plan_id":"cebpf4jnsgd1na2vs0mg"},{"bike_id":"aa73cfe3-6384-4a7f-8ddd-ec28982c6211","system_id":"levelo_inurba_marseille","lat":43.29616,"lon":5.37731,"is_reserved":false,"is_disabled":false,"rental_uris":{"android":"levelo://app?vid=aa73cfe3-6384-4a7f-8ddd-ec28982c6211","ios":"levelo://app?vid=aa73cfe3-6384-4a7f-8ddd-ec28982c6211"},"vehicle_type_id":"4","last_reported":1713034984,"current_range_meters":0,"station_id":"ce4bgi92rcd13ifvqb90","pricing_plan_id":"cebpf4jnsgd1na2vs0mg"},{"bike_id":"1cb8db5c-1cee-4446-961b-0bbeb32c32e7","system_id":"levelo_inurba_marseille","lat":43.312239,"lon":5.368562,"is_reserved":false,"is_disabled":false,"rental_uris":{"android":"levelo://app?vid=1cb8db5c-1cee-4446-961b-0bbeb32c32e7","ios":"levelo://app?vid=1cb8db5c-1cee-4446-961b-0bbeb32c32e7"},"vehicle_type_id":"4","last_reported":1713034984,"current_range_meters":7200,"station_id":"ce4bgl92rcd13ifvqbq0","pricing_plan_id":"cebpf4jnsgd1na2vs0mg"},{"bike_id":"0129a5b6-0e2d-4ab1-bd49-07973b373117","system_id":"levelo_inurba_marseille","lat":43.299707,"lon":5.384859,"is_reserved":false,"is_disabled":false,"rental_uris":{"android":"levelo://app?vid=0129a5b6-0e2d-4ab1-bd49-07973b373117","ios":"levelo://app?vid=0129a5b6-0e2d-4ab1-bd49-07973b373117"},"vehicle_type_id":"4","last_reported":1713034984,"current_range_meters":18000,"station_id":"ce4bgj92rcd13ifvqbd0","pricing_plan_id":"cebpf4jnsgd1na2vs0mg"},{"bike_id":"69b1db01-92ba-41b9-95b9-d91a4be9978c","system_id":"levelo_inurba_marseille","lat":43.298037,"lon":5.381066,"is_reserved":false,"is_disabled":false,"rental_uris":{"android":"levelo://app?vid=69b1db01-92ba-41b9-95b9-d91a4be9978c","ios":"levelo://app?vid=69b1db01-92ba-41b9-95b9-d91a4be9978c"},"vehicle_type_id":"4","last_reported":1713034984,"current_range_meters":0,"station_id":"ce4bgip2rcd13ifvqbb0","pricing_plan_id":"cebpf4jnsgd1na2vs0mg"},{"bike_id":"618fa809-3c78-4a5c-80db-96f716bcbf55","system_id":"levelo_inurba_marseille","lat":43.299721,"lon":5.38501,"is_reserved":false,"is_disabled":false,"rental_uris":{"android":"levelo://app?vid=618fa809-3c78-4a5c-80db-96f716bcbf55","ios":"levelo://app?vid=618fa809-3c78-4a5c-80db-96f716bcbf55"},"vehicle_type_id":"4","last_reported":1713034984,"current_range_meters":19200,"station_id":"ce4bgj92rcd13ifvqbd0","pricing_plan_id":"cebpf4jnsgd1na2vs0mg"},{"bike_id":"9914028f-b6d9-4bdb-b465-edfbf2352454","system_id":"levelo_inurba_marseille","lat":43.299717,"lon":5.384845,"is_reserved":false,"is_disabled":false,"rental_uris":{"android":"levelo://app?vid=9914028f-b6d9-4bdb-b465-edfbf2352454","ios":"levelo://app?vid=9914028f-b6d9-4bdb-b465-edfbf2352454"},"vehicle_type_id":"4","last_reported":1713034984,"current_range_meters":12400,"station_id":"ce4bgj92rcd13ifvqbd0","pricing_plan_id":"cebpf4jnsgd1na2vs0mg"},{"bike_id":"839837e7-79a2-48b2-ac6b-3ff19f1b41bc","system_id":"levelo_inurba_marseille","lat":43.299617,"lon":5.384997,"is_reserved":false,"is_disabled":false,"rental_uris":{"android":"levelo://app?vid=839837e7-79a2-48b2-ac6b-3ff19f1b41bc","ios":"levelo://app?vid=839837e7-79a2-48b2-ac6b-3ff19f1b41bc"},"vehicle_type_id":"4","last_reported":1713034984,"current_range_meters":0,"station_id":"ce4bgj92rcd13ifvqbd0","pricing_plan_id":"cebpf4jnsgd1na2vs0mg"},{"bike_id":"d8baea62-988e-4625-9c8f-6e995c5cf346","system_id":"levelo_inurba_marseille","lat":43.30075,"lon":5.38658,"is_reserved":false,"is_disabled":false,"rental_uris":{"android":"levelo://app?vid=d8baea62-988e-4625-9c8f-6e995c5cf346","ios":"levelo://app?vid=d8baea62-988e-4625-9c8f-6e995c5cf346"},"vehicle_type_id":"4","last_reported":1713034984,"current_range_meters":0,"station_id":"","pricing_plan_id":"cebpf4jnsgd1na2vs0mg"},{"bike_id":"3a8155b8-6ccb-45ef-9c40-4a71e98184f6","system_id":"levelo_inurba_marseille","lat":43.29601,"lon":5.381084,"is_reserved":false,"is_disabled":false,"rental_uris":{"android":"levelo://app?vid=3a8155b8-6ccb-45ef-9c40-4a71e98184f6","ios":"levelo://app?vid=3a8155b8-6ccb-45ef-9c40-4a71e98184f6"},"vehicle_type_id":"4","last_reported":1713034984,"current_range_meters":10800,"station_id":"ce4bgl12rcd13ifvqbo0","pricing_plan_id":"cebpf4jnsgd1na2vs0mg"},{"bike_id":"1ad6c318-a8a1-45b4-846e-e5434a7e3903","system_id":"levelo_inurba_marseille","lat":43.32367,"lon":5.388836,"is_reserved":false,"is_disabled":false,"rental_uris":{"android":"levelo://app?vid=1ad6c318-a8a1-45b4-846e-e5434a7e3903","ios":"levelo://app?vid=1ad6c318-a8a1-45b4-846e-e5434a7e3903"},"vehicle_type_id":"4","last_reported":1713034984,"current_range_meters":12000,"station_id":"ce4bhqp2rcd13ifvqhog","pricing_plan_id":"cebpf4jnsgd1na2vs0mg"},{"bike_id":"5966a690-b678-4c04-95ed-5ce3b882a8bb","system_id":"levelo_inurba_marseille","lat":43.32367,"lon":5.388836,"is_reserved":false,"is_disabled":false,"rental_uris":{"android":"levelo://app?vid=5966a690-b678-4c04-95ed-5ce3b882a8bb","ios":"levelo://app?vid=5966a690-b678-4c04-95ed-5ce3b882a8bb"},"vehicle_type_id":"4","last_reported":1713034984,"current_range_meters":0,"station_id":"ce4bhqp2rcd13ifvqhog","pricing_plan_id":"cebpf4jnsgd1na2vs0mg"},{"bike_id":"8c409a66-94fe-468a-9d72-2966c5ee34f9","system_id":"levelo_inurba_marseille","lat":43.29601,"lon":5.381084,"is_reserved":false,"is_disabled":false,"rental_uris":{"android":"levelo://app?vid=8c409a66-94fe-468a-9d72-2966c5ee34f9","ios":"levelo://app?vid=8c409a66-94fe-468a-9d72-2966c5ee34f9"},"vehicle_type_id":"4","last_reported":1713034984,"current_range_meters":0,"station_id":"ce4bgl12rcd13ifvqbo0","pricing_plan_id":"cebpf4jnsgd1na2vs0mg"},{"bike_id":"6e7e2ea2-adae-4d92-af46-7ce407a6e481","system_id":"levelo_inurba_marseille","lat":43.29602,"lon":5.381084,"is_reserved":false,"is_disabled":false,"rental_uris":{"android":"levelo://app?vid=6e7e2ea2-adae-4d92-af46-7ce407a6e481","ios":"levelo://app?vid=6e7e2ea2-adae-4d92-af46-7ce407a6e481"},"vehicle_type_id":"4","last_reported":1713034984,"current_range_meters":2800,"station_id":"ce4bgl12rcd13ifvqbo0","pricing_plan_id":"cebpf4jnsgd1na2vs0mg"},{"bike_id":"f6f4a7a8-d214-4ffd-b38e-fead96a843f5","system_id":"levelo_inurba_marseille","lat":43.296002,"lon":5.381153,"is_reserved":false,"is_disabled":false,"rental_uris":{"android":"levelo://app?vid=f6f4a7a8-d214-4ffd-b38e-fead96a843f5","ios":"levelo://app?vid=f6f4a7a8-d214-4ffd-b38e-fead96a843f5"},"vehicle_type_id":"4","last_reported":1713034984,"current_range_meters":0,"station_id":"ce4bgl12rcd13ifvqbo0","pricing_plan_id":"cebpf4jnsgd1na2vs0mg"},{"bike_id":"76f4da31-39db-4e43-b95e-e0ea623d564e","system_id":"levelo_inurba_marseille","lat":43.279952,"lon":5.400085,"is_reserved":false,"is_disabled":false,"rental_uris":{"android":"levelo://app?vid=76f4da31-39db-4e43-b95e-e0ea623d564e","ios":"levelo://app?vid=76f4da31-39db-4e43-b95e-e0ea623d564e"},"vehicle_type_id":"4","last_reported":1713034984,"current_range_meters":14400,"station_id":"ce4bho92rcd13ifvqh4g","pricing_plan_id":"cebpf4jnsgd1na2vs0mg"},{"bike_id":"88a9988b-e496-4236-88a2-a2becbb25dce","system_id":"levelo_inurba_marseille","lat":43.292749,"lon":5.368402,"is_reserved":false,"is_disabled":false,"rental_uris":{"android":"levelo://app?vid=88a9988b-e496-4236-88a2-a2becbb25dce","ios":"levelo://app?vid=88a9988b-e496-4236-88a2-a2becbb25dce"},"vehicle_type_id":"4","last_reported":1713034984,"current_range_meters":28400,"station_id":"ce4bhbp2rcd13ifvqesg","pricing_plan_id":"cebpf4jnsgd1na2vs0mg"},{"bike_id":"7bd3051a-1a11-43f9-95e1-ca84474e0b0e","system_id":"levelo_inurba_marseille","lat":43.292749,"lon":5.368402,"is_reserved":false,"is_disabled":false,"rental_uris":{"android":"levelo://app?vid=7bd3051a-1a11-43f9-95e1-ca84474e0b0e","ios":"levelo://app?vid=7bd3051a-1a11-43f9-95e1-ca84474e0b0e"},"vehicle_type_id":"4","last_reported":1713034984,"current_range_meters":24800,"station_id":"ce4bhbp2rcd13ifvqesg","pricing_plan_id":"cebpf4jnsgd1na2vs0mg"},{"bike_id":"96b1a88a-aa28-4b8f-b002-77f92b9a5ec8","system_id":"levelo_inurba_marseille","lat":43.309371,"lon":5.401449,"is_reserved":false,"is_disabled":false,"rental_uris":{"android":"levelo://app?vid=96b1a88a-aa28-4b8f-b002-77f92b9a5ec8","ios":"levelo://app?vid=96b1a88a-aa28-4b8f-b002-77f92b9a5ec8"},"vehicle_type_id":"4","last_reported":1713034984,"current_range_meters":1200,"station_id":"ce4bgvp2rcd13ifvqct0","pricing_plan_id":"cebpf4jnsgd1na2vs0mg"},{"bike_id":"08915538-1dd2-4517-b1ff-92b559377809","system_id":"levelo_inurba_marseille","lat":43.293249,"lon":5.371578,"is_reserved":false,"is_disabled":false,"rental_uris":{"android":"levelo://app?vid=08915538-1dd2-4517-b1ff-92b559377809","ios":"levelo://app?vid=08915538-1dd2-4517-b1ff-92b559377809"},"vehicle_type_id":"4","last_reported":1713034984,"current_range_meters":0,"station_id":"ce4bgh92rcd13ifvqb40","pricing_plan_id":"cebpf4jnsgd1na2vs0mg"},{"bike_id":"bd48e0c0-ce7e-4d1d-affd-be886b3c925f","system_id":"levelo_inurba_marseille","lat":43.292749,"lon":5.368402,"is_reserved":false,"is_disabled":false,"rental_uris":{"android":"levelo://app?vid=bd48e0c0-ce7e-4d1d-affd-be886b3c925f","ios":"levelo://app?vid=bd48e0c0-ce7e-4d1d-affd-be886b3c925f"},"vehicle_type_id":"4","last_reported":1713034984,"current_range_meters":29600,"station_id":"ce4bhbp2rcd13ifvqesg","pricing_plan_id":"cebpf4jnsgd1na2vs0mg"},{"bike_id":"010e2800-8fd4-4fe6-b655-d3a80face4f7","system_id":"levelo_inurba_marseille","lat":43.292749,"lon":5.368402,"is_reserved":false,"is_disabled":false,"rental_uris":{"android":"levelo://app?vid=010e2800-8fd4-4fe6-b655-d3a80face4f7","ios":"levelo://app?vid=010e2800-8fd4-4fe6-b655-d3a80face4f7"},"vehicle_type_id":"4","last_reported":1713034984,"current_range_meters":22800,"station_id":"ce4bhbp2rcd13ifvqesg","pricing_plan_id":"cebpf4jnsgd1na2vs0mg"},{"bike_id":"8c7b8283-ed1e-44bc-8253-3a1ba960272a","system_id":"levelo_inurba_marseille","lat":43.292693,"lon":5.368423,"is_reserved":false,"is_disabled":false,"rental_uris":{"android":"levelo://app?vid=8c7b8283-ed1e-44bc-8253-3a1ba960272a","ios":"levelo://app?vid=8c7b8283-ed1e-44bc-8253-3a1ba960272a"},"vehicle_type_id":"4","last_reported":1713034984,"current_range_meters":28800,"station_id":"ce4bhbp2rcd13ifvqesg","pricing_plan_id":"cebpf4jnsgd1na2vs0mg"},{"bike_id":"fb75e36a-d0ec-4dd9-8eff-c143fa8d39a8","system_id":"levelo_inurba_marseille","lat":43.292749,"lon":5.368402,"is_reserved":false,"is_disabled":false,"rental_uris":{"android":"levelo://app?vid=fb75e36a-d0ec-4dd9-8eff-c143fa8d39a8","ios":"levelo://app?vid=fb75e36a-d0ec-4dd9-8eff-c143fa8d39a8"},"vehicle_type_id":"4","last_reported":1713034984,"current_range_meters":26800,"station_id":"ce4bhbp2rcd13ifvqesg","pricing_plan_id":"cebpf4jnsgd1na2vs0mg"},{"bike_id":"98689da5-aa51-49cf-87ac-02a60fb5dbc2","system_id":"levelo_inurba_marseille","lat":43.292749,"lon":5.368402,"is_reserved":false,"is_disabled":false,"rental_uris":{"android":"levelo://app?vid=98689da5-aa51-49cf-87ac-02a60fb5dbc2","ios":"levelo://app?vid=98689da5-aa51-49cf-87ac-02a60fb5dbc2"},"vehicle_type_id":"4","last_reported":1713034984,"current_range_meters":28000,"station_id":"ce4bhbp2rcd13ifvqesg","pricing_plan_id":"cebpf4jnsgd1na2vs0mg"},{"bike_id":"f0948e3c-f915-4468-ac15-5d24c3bca850","system_id":"levelo_inurba_marseille","lat":43.292749,"lon":5.368402,"is_reserved":false,"is_disabled":false,"rental_uris":{"android":"levelo://app?vid=f0948e3c-f915-4468-ac15-5d24c3bca850","ios":"levelo://app?vid=f0948e3c-f915-4468-ac15-5d24c3bca850"},"vehicle_type_id":"4","last_reported":1713034984,"current_range_meters":26800,"station_id":"ce4bhbp2rcd13ifvqesg","pricing_plan_id":"cebpf4jnsgd1na2vs0mg"},{"bike_id":"ddc5d586-6fc8-4609-82d8-8ba33a5813b0","system_id":"levelo_inurba_marseille","lat":43.292749,"lon":5.368402,"is_reserved":false,"is_disabled":false,"rental_uris":{"android":"levelo://app?vid=ddc5d586-6fc8-4609-82d8-8ba33a5813b0","ios":"levelo://app?vid=ddc5d586-6fc8-4609-82d8-8ba33a5813b0"},"vehicle_type_id":"4","last_reported":1713034984,"current_range_meters":26800,"station_id":"ce4bhbp2rcd13ifvqesg","pricing_plan_id":"cebpf4jnsgd1na2vs0mg"},{"bike_id":"d74cb137-f47e-47b3-b402-fd6fb4b4ccb5","system_id":"levelo_inurba_marseille","lat":43.292749,"lon":5.368402,"is_reserved":false,"is_disabled":false,"rental_uris":{"android":"levelo://app?vid=d74cb137-f47e-47b3-b402-fd6fb4b4ccb5","ios":"levelo://app?vid=d74cb137-f47e-47b3-b402-fd6fb4b4ccb5"},"vehicle_type_id":"4","last_reported":1713034984,"current_range_meters":25200,"station_id":"ce4bhbp2rcd13ifvqesg","pricing_plan_id":"cebpf4jnsgd1na2vs0mg"},{"bike_id":"c27241a8-5296-43c2-af55-2791daedbb08","system_id":"levelo_inurba_marseille","lat":43.292424,"lon":5.365866,"is_reserved":false,"is_disabled":false,"rental_uris":{"android":"levelo://app?vid=c27241a8-5296-43c2-af55-2791daedbb08","ios":"levelo://app?vid=c27241a8-5296-43c2-af55-2791daedbb08"},"vehicle_type_id":"4","last_reported":1713034984,"current_range_meters":0,"station_id":"","pricing_plan_id":"cebpf4jnsgd1na2vs0mg"},{"bike_id":"53636194-906e-4c44-81cf-ec6b54eaa298","system_id":"levelo_inurba_marseille","lat":43.293009,"lon":5.374584,"is_reserved":false,"is_disabled":false,"rental_uris":{"android":"levelo://app?vid=53636194-906e-4c44-81cf-ec6b54eaa298","ios":"levelo://app?vid=53636194-906e-4c44-81cf-ec6b54eaa298"},"vehicle_type_id":"4","last_reported":1713034984,"current_range_meters":21200,"station_id":"ce4bgi12rcd13ifvqb70","pricing_plan_id":"cebpf4jnsgd1na2vs0mg"},{"bike_id":"1b7f04be-b1b0-4afa-ab67-c09b603b9217","system_id":"levelo_inurba_marseille","lat":43.293032,"lon":5.37459,"is_reserved":false,"is_disabled":false,"rental_uris":{"android":"levelo://app?vid=1b7f04be-b1b0-4afa-ab67-c09b603b9217","ios":"levelo://app?vid=1b7f04be-b1b0-4afa-ab67-c09b603b9217"},"vehicle_type_id":"4","last_reported":1713034984,"current_range_meters":0,"station_id":"ce4bgi12rcd13ifvqb70","pricing_plan_id":"cebpf4jnsgd1na2vs0mg"},{"bike_id":"82e2b863-e90a-4bef-91c6-c74d177ef85b","system_id":"levelo_inurba_marseille","lat":43.29299,"lon":5.37453,"is_reserved":false,"is_disabled":false,"rental_uris":{"android":"levelo://app?vid=82e2b863-e90a-4bef-91c6-c74d177ef85b","ios":"levelo://app?vid=82e2b863-e90a-4bef-91c6-c74d177ef85b"},"vehicle_type_id":"4","last_reported":1713034984,"current_range_meters":0,"station_id":"ce4bgi12rcd13ifvqb70","pricing_plan_id":"cebpf4jnsgd1na2vs0mg"},{"bike_id":"2741842b-ed34-4c78-a8b9-1aa88e9584ad","system_id":"levelo_inurba_marseille","lat":43.284214,"lon":5.349706,"is_reserved":false,"is_disabled":false,"rental_uris":{"android":"levelo://app?vid=2741842b-ed34-4c78-a8b9-1aa88e9584ad","ios":"levelo://app?vid=2741842b-ed34-4c78-a8b9-1aa88e9584ad"},"vehicle_type_id":"4","last_reported":1713034984,"current_range_meters":16400,"station_id":"ce4bhbh2rcd13ifvqepg","pricing_plan_id":"cebpf4jnsgd1na2vs0mg"},{"bike_id":"189e82a1-c59c-4975-b94e-c149d794e6a7","system_id":"levelo_inurba_marseille","lat":43.29296,"lon":5.37447,"is_reserved":false,"is_disabled":false,"rental_uris":{"android":"levelo://app?vid=189e82a1-c59c-4975-b94e-c149d794e6a7","ios":"levelo://app?vid=189e82a1-c59c-4975-b94e-c149d794e6a7"},"vehicle_type_id":"4","last_reported":1713034984,"current_range_meters":0,"station_id":"ce4bgj92rcd13ifvqbd0","pricing_plan_id":"cebpf4jnsgd1na2vs0mg"},{"bike_id":"c0da6a73-f554-4b2f-bc57-07e6fbe111ff","system_id":"levelo_inurba_marseille","lat":43.293009,"lon":5.374584,"is_reserved":false,"is_disabled":false,"rental_uris":{"android":"levelo://app?vid=c0da6a73-f554-4b2f-bc57-07e6fbe111ff","ios":"levelo://app?vid=c0da6a73-f554-4b2f-bc57-07e6fbe111ff"},"vehicle_type_id":"4","last_reported":1713034984,"current_range_meters":22800,"station_id":"ce4bgi12rcd13ifvqb70","pricing_plan_id":"cebpf4jnsgd1na2vs0mg"},{"bike_id":"7da049cb-4add-464a-8502-7d9ed48566b6","system_id":"levelo_inurba_marseille","lat":43.292974,"lon":5.374571,"is_reserved":false,"is_disabled":false,"rental_uris":{"android":"levelo://app?vid=7da049cb-4add-464a-8502-7d9ed48566b6","ios":"levelo://app?vid=7da049cb-4add-464a-8502-7d9ed48566b6"},"vehicle_type_id":"4","last_reported":1713034984,"current_range_meters":10800,"station_id":"ce4bgi12rcd13ifvqb70","pricing_plan_id":"cebpf4jnsgd1na2vs0mg"},{"bike_id":"92ed0a17-71a3-47f8-99f8-825a192f5da1","system_id":"levelo_inurba_marseille","lat":43.322872,"lon":5.382756,"is_reserved":false,"is_disabled":false,"rental_uris":{"android":"levelo://app?vid=92ed0a17-71a3-47f8-99f8-825a192f5da1","ios":"levelo://app?vid=92ed0a17-71a3-47f8-99f8-825a192f5da1"},"vehicle_type_id":"4","last_reported":1713034984,"current_range_meters":400,"station_id":"ce4bhr12rcd13ifvqhqg","pricing_plan_id":"cebpf4jnsgd1na2vs0mg"},{"bike_id":"9a8f6927-f77b-4726-9bd3-21b7d87ce826","system_id":"levelo_inurba_marseille","lat":43.293906,"lon":5.378493,"is_reserved":false,"is_disabled":false,"rental_uris":{"android":"levelo://app?vid=9a8f6927-f77b-4726-9bd3-21b7d87ce826","ios":"levelo://app?vid=9a8f6927-f77b-4726-9bd3-21b7d87ce826"},"vehicle_type_id":"4","last_reported":1713034984,"current_range_meters":22400,"station_id":"ce4bgl12rcd13ifvqbo0","pricing_plan_id":"cebpf4jnsgd1na2vs0mg"},{"bike_id":"17c1a959-06c8-4be1-b609-3926fbfff173","system_id":"levelo_inurba_marseille","lat":43.309589,"lon":5.390258,"is_reserved":false,"is_disabled":false,"rental_uris":{"android":"levelo://app?vid=17c1a959-06c8-4be1-b609-3926fbfff173","ios":"levelo://app?vid=17c1a959-06c8-4be1-b609-3926fbfff173"},"vehicle_type_id":"4","last_reported":1713034984,"current_range_meters":20800,"station_id":"ce4bgup2rcd13ifvqco0","pricing_plan_id":"cebpf4jnsgd1na2vs0mg"},{"bike_id":"1bb3a2fb-a925-4761-b210-fbba0272b12b","system_id":"levelo_inurba_marseille","lat":43.302992,"lon":5.392136,"is_reserved":false,"is_disabled":false,"rental_uris":{"android":"levelo://app?vid=1bb3a2fb-a925-4761-b210-fbba0272b12b","ios":"levelo://app?vid=1bb3a2fb-a925-4761-b210-fbba0272b12b"},"vehicle_type_id":"4","last_reported":1713034984,"current_range_meters":31200,"station_id":"ce4bgkh2rcd13ifvqbk0","pricing_plan_id":"cebpf4jnsgd1na2vs0mg"},{"bike_id":"21045484-6a49-4ab4-b0c0-7f45279784f1","system_id":"levelo_inurba_marseille","lat":43.302992,"lon":5.392136,"is_reserved":false,"is_disabled":false,"rental_uris":{"android":"levelo://app?vid=21045484-6a49-4ab4-b0c0-7f45279784f1","ios":"levelo://app?vid=21045484-6a49-4ab4-b0c0-7f45279784f1"},"vehicle_type_id":"4","last_reported":1713034984,"current_range_meters":29200,"station_id":"ce4bgkh2rcd13ifvqbk0","pricing_plan_id":"cebpf4jnsgd1na2vs0mg"},{"bike_id":"d063ddee-12cc-41bc-abad-25c949e46e62","system_id":"levelo_inurba_marseille","lat":43.302992,"lon":5.392136,"is_reserved":false,"is_disabled":false,"rental_uris":{"android":"levelo://app?vid=d063ddee-12cc-41bc-abad-25c949e46e62","ios":"levelo://app?vid=d063ddee-12cc-41bc-abad-25c949e46e62"},"vehicle_type_id":"4","last_reported":1713034984,"current_range_meters":0,"station_id":"ce4bgkh2rcd13ifvqbk0","pricing_plan_id":"cebpf4jnsgd1na2vs0mg"},{"bike_id":"056b88b0-d1ca-4217-b3f3-14cbded191fa","system_id":"levelo_inurba_marseille","lat":43.302992,"lon":5.392136,"is_reserved":false,"is_disabled":false,"rental_uris":{"android":"levelo://app?vid=056b88b0-d1ca-4217-b3f3-14cbded191fa","ios":"levelo://app?vid=056b88b0-d1ca-4217-b3f3-14cbded191fa"},"vehicle_type_id":"4","last_reported":1713034984,"current_range_meters":0,"station_id":"ce4bgkh2rcd13ifvqbk0","pricing_plan_id":"cebpf4jnsgd1na2vs0mg"},{"bike_id":"b982ce07-fe74-4106-acc3-2f6168694101","system_id":"levelo_inurba_marseille","lat":43.292311,"lon":5.360731,"is_reserved":false,"is_disabled":false,"rental_uris":{"android":"levelo://app?vid=b982ce07-fe74-4106-acc3-2f6168694101","ios":"levelo://app?vid=b982ce07-fe74-4106-acc3-2f6168694101"},"vehicle_type_id":"4","last_reported":1713034984,"current_range_meters":0,"station_id":"ce4bhbh2rcd13ifvqeqg","pricing_plan_id":"cebpf4jnsgd1na2vs0mg"},{"bike_id":"3c8d9117-a3ab-4eef-bafe-c86079f1b75c","system_id":"levelo_inurba_marseille","lat":43.292266,"lon":5.360762,"is_reserved":false,"is_disabled":false,"rental_uris":{"android":"levelo://app?vid=3c8d9117-a3ab-4eef-bafe-c86079f1b75c","ios":"levelo://app?vid=3c8d9117-a3ab-4eef-bafe-c86079f1b75c"},"vehicle_type_id":"4","last_reported":1713034984,"current_range_meters":800,"station_id":"ce4bhbh2rcd13ifvqeqg","pricing_plan_id":"cebpf4jnsgd1na2vs0mg"},{"bike_id":"9bffa388-f5f5-44f1-8825-a1d84bb4f45a","system_id":"levelo_inurba_marseille","lat":43.30085,"lon":5.390856,"is_reserved":false,"is_disabled":false,"rental_uris":{"android":"levelo://app?vid=9bffa388-f5f5-44f1-8825-a1d84bb4f45a","ios":"levelo://app?vid=9bffa388-f5f5-44f1-8825-a1d84bb4f45a"},"vehicle_type_id":"4","last_reported":1713034984,"current_range_meters":12800,"station_id":"ce4bh192rcd13ifvqdb0","pricing_plan_id":"cebpf4jnsgd1na2vs0mg"},{"bike_id":"2a1ff6f8-77dd-4c6f-82aa-c15ce1affd98","system_id":"levelo_inurba_marseille","lat":43.298764,"lon":5.388973,"is_reserved":false,"is_disabled":false,"rental_uris":{"android":"levelo://app?vid=2a1ff6f8-77dd-4c6f-82aa-c15ce1affd98","ios":"levelo://app?vid=2a1ff6f8-77dd-4c6f-82aa-c15ce1affd98"},"vehicle_type_id":"4","last_reported":1713034984,"current_range_meters":22400,"station_id":"ce4bh392rcd13ifvqdl0","pricing_plan_id":"cebpf4jnsgd1na2vs0mg"},{"bike_id":"a6a49625-1569-47a9-b9b9-59780a0b060a","system_id":"levelo_inurba_marseille","lat":43.298764,"lon":5.388973,"is_reserved":false,"is_disabled":false,"rental_uris":{"android":"levelo://app?vid=a6a49625-1569-47a9-b9b9-59780a0b060a","ios":"levelo://app?vid=a6a49625-1569-47a9-b9b9-59780a0b060a"},"vehicle_type_id":"4","last_reported":1713034984,"current_range_meters":0,"station_id":"ce4bh392rcd13ifvqdl0","pricing_plan_id":"cebpf4jnsgd1na2vs0mg"},{"bike_id":"2fef81b0-4ccd-434a-a793-bfe1115f6de3","system_id":"levelo_inurba_marseille","lat":43.29529,"lon":5.385581,"is_reserved":false,"is_disabled":false,"rental_uris":{"android":"levelo://app?vid=2fef81b0-4ccd-434a-a793-bfe1115f6de3","ios":"levelo://app?vid=2fef81b0-4ccd-434a-a793-bfe1115f6de3"},"vehicle_type_id":"4","last_reported":1713034984,"current_range_meters":5600,"station_id":"ce4bgih2rcd13ifvqba0","pricing_plan_id":"cebpf4jnsgd1na2vs0mg"},{"bike_id":"b154e423-6fbf-4502-aeb6-51bfcc449acc","system_id":"levelo_inurba_marseille","lat":43.291671,"lon":5.371575,"is_reserved":false,"is_disabled":false,"rental_uris":{"android":"levelo://app?vid=b154e423-6fbf-4502-aeb6-51bfcc449acc","ios":"levelo://app?vid=b154e423-6fbf-4502-aeb6-51bfcc449acc"},"vehicle_type_id":"4","last_reported":1713034984,"current_range_meters":22400,"station_id":"ce4bha92rcd13ifvqeh0","pricing_plan_id":"cebpf4jnsgd1na2vs0mg"},{"bike_id":"a84f1e03-b35e-45c6-906c-11789df41eb3","system_id":"levelo_inurba_marseille","lat":43.298763,"lon":5.389103,"is_reserved":false,"is_disabled":false,"rental_uris":{"android":"levelo://app?vid=a84f1e03-b35e-45c6-906c-11789df41eb3","ios":"levelo://app?vid=a84f1e03-b35e-45c6-906c-11789df41eb3"},"vehicle_type_id":"4","last_reported":1713034984,"current_range_meters":0,"station_id":"ce4bh392rcd13ifvqdl0","pricing_plan_id":"cebpf4jnsgd1na2vs0mg"},{"bike_id":"faf8c463-b402-4417-85f0-5705f67183e6","system_id":"levelo_inurba_marseille","lat":43.29872,"lon":5.38907,"is_reserved":false,"is_disabled":false,"rental_uris":{"android":"levelo://app?vid=faf8c463-b402-4417-85f0-5705f67183e6","ios":"levelo://app?vid=faf8c463-b402-4417-85f0-5705f67183e6"},"vehicle_type_id":"4","last_reported":1713034984,"current_range_meters":0,"station_id":"ce4bh392rcd13ifvqdl0","pricing_plan_id":"cebpf4jnsgd1na2vs0mg"},{"bike_id":"573401a0-f4aa-4a42-a017-63614035f801","system_id":"levelo_inurba_marseille","lat":43.291981,"lon":5.358091,"is_reserved":false,"is_disabled":false,"rental_uris":{"android":"levelo://app?vid=573401a0-f4aa-4a42-a017-63614035f801","ios":"levelo://app?vid=573401a0-f4aa-4a42-a017-63614035f801"},"vehicle_type_id":"4","last_reported":1713034984,"current_range_meters":6400,"station_id":"","pricing_plan_id":"cebpf4jnsgd1na2vs0mg"},{"bike_id":"446f4dd8-f5fc-4773-8f78-0b25a4d98fab","system_id":"levelo_inurba_marseille","lat":43.291994,"lon":5.357886,"is_reserved":false,"is_disabled":false,"rental_uris":{"android":"levelo://app?vid=446f4dd8-f5fc-4773-8f78-0b25a4d98fab","ios":"levelo://app?vid=446f4dd8-f5fc-4773-8f78-0b25a4d98fab"},"vehicle_type_id":"4","last_reported":1713034984,"current_range_meters":30000,"station_id":"ce4bhb12rcd13ifvqel0","pricing_plan_id":"cebpf4jnsgd1na2vs0mg"},{"bike_id":"7e1cbe44-9b73-470a-bcee-7dbbf9d409b6","system_id":"levelo_inurba_marseille","lat":43.31331,"lon":5.39686,"is_reserved":false,"is_disabled":false,"rental_uris":{"android":"levelo://app?vid=7e1cbe44-9b73-470a-bcee-7dbbf9d409b6","ios":"levelo://app?vid=7e1cbe44-9b73-470a-bcee-7dbbf9d409b6"},"vehicle_type_id":"4","last_reported":1713034984,"current_range_meters":8000,"station_id":"ce4bgvp2rcd13ifvqcu0","pricing_plan_id":"cebpf4jnsgd1na2vs0mg"},{"bike_id":"78927425-4ab0-4899-8a0e-8b7e596f035c","system_id":"levelo_inurba_marseille","lat":43.313291,"lon":5.396838,"is_reserved":false,"is_disabled":false,"rental_uris":{"android":"levelo://app?vid=78927425-4ab0-4899-8a0e-8b7e596f035c","ios":"levelo://app?vid=78927425-4ab0-4899-8a0e-8b7e596f035c"},"vehicle_type_id":"4","last_reported":1713034984,"current_range_meters":23200,"station_id":"ce4bgvp2rcd13ifvqcu0","pricing_plan_id":"cebpf4jnsgd1na2vs0mg"},{"bike_id":"f2e991ad-15b0-495a-893a-52d838bc1eec","system_id":"levelo_inurba_marseille","lat":43.31331,"lon":5.39696,"is_reserved":false,"is_disabled":false,"rental_uris":{"android":"levelo://app?vid=f2e991ad-15b0-495a-893a-52d838bc1eec","ios":"levelo://app?vid=f2e991ad-15b0-495a-893a-52d838bc1eec"},"vehicle_type_id":"4","last_reported":1713034984,"current_range_meters":18800,"station_id":"ce4bgvp2rcd13ifvqcu0","pricing_plan_id":"cebpf4jnsgd1na2vs0mg"},{"bike_id":"ce9f5682-698b-4fa6-a2b0-f44435910b32","system_id":"levelo_inurba_marseille","lat":43.309038,"lon":5.396546,"is_reserved":false,"is_disabled":false,"rental_uris":{"android":"levelo://app?vid=ce9f5682-698b-4fa6-a2b0-f44435910b32","ios":"levelo://app?vid=ce9f5682-698b-4fa6-a2b0-f44435910b32"},"vehicle_type_id":"4","last_reported":1713034984,"current_range_meters":9200,"station_id":"ce4bh012rcd13ifvqcv0","pricing_plan_id":"cebpf4jnsgd1na2vs0mg"},{"bike_id":"1e1d9c92-844f-497e-8af8-ab6ceba77c5d","system_id":"levelo_inurba_marseille","lat":43.313291,"lon":5.396838,"is_reserved":false,"is_disabled":false,"rental_uris":{"android":"levelo://app?vid=1e1d9c92-844f-497e-8af8-ab6ceba77c5d","ios":"levelo://app?vid=1e1d9c92-844f-497e-8af8-ab6ceba77c5d"},"vehicle_type_id":"4","last_reported":1713034984,"current_range_meters":0,"station_id":"ce4bgvp2rcd13ifvqcu0","pricing_plan_id":"cebpf4jnsgd1na2vs0mg"},{"bike_id":"be0ae1d8-a096-4c79-934a-9a298a929b57","system_id":"levelo_inurba_marseille","lat":43.309047,"lon":5.396551,"is_reserved":false,"is_disabled":false,"rental_uris":{"android":"levelo://app?vid=be0ae1d8-a096-4c79-934a-9a298a929b57","ios":"levelo://app?vid=be0ae1d8-a096-4c79-934a-9a298a929b57"},"vehicle_type_id":"4","last_reported":1713034984,"current_range_meters":3200,"station_id":"ce4bh012rcd13ifvqcv0","pricing_plan_id":"cebpf4jnsgd1na2vs0mg"},{"bike_id":"bb2cd39f-fc06-46cd-bbd5-df08338f73a8","system_id":"levelo_inurba_marseille","lat":43.292005,"lon":5.357875,"is_reserved":false,"is_disabled":false,"rental_uris":{"android":"levelo://app?vid=bb2cd39f-fc06-46cd-bbd5-df08338f73a8","ios":"levelo://app?vid=bb2cd39f-fc06-46cd-bbd5-df08338f73a8"},"vehicle_type_id":"4","last_reported":1713034984,"current_range_meters":0,"station_id":"ce4bhb12rcd13ifvqel0","pricing_plan_id":"cebpf4jnsgd1na2vs0mg"},{"bike_id":"95426f53-d98c-40cf-bcda-0a832463bb11","system_id":"levelo_inurba_marseille","lat":43.29529,"lon":5.385581,"is_reserved":false,"is_disabled":false,"rental_uris":{"android":"levelo://app?vid=95426f53-d98c-40cf-bcda-0a832463bb11","ios":"levelo://app?vid=95426f53-d98c-40cf-bcda-0a832463bb11"},"vehicle_type_id":"4","last_reported":1713034984,"current_range_meters":1600,"station_id":"ce4bgih2rcd13ifvqba0","pricing_plan_id":"cebpf4jnsgd1na2vs0mg"},{"bike_id":"fbb8fc52-27fe-4c4f-bbeb-84ffef607141","system_id":"levelo_inurba_marseille","lat":43.298764,"lon":5.388973,"is_reserved":false,"is_disabled":false,"rental_uris":{"android":"levelo://app?vid=fbb8fc52-27fe-4c4f-bbeb-84ffef607141","ios":"levelo://app?vid=fbb8fc52-27fe-4c4f-bbeb-84ffef607141"},"vehicle_type_id":"4","last_reported":1713034984,"current_range_meters":5200,"station_id":"ce4bh392rcd13ifvqdl0","pricing_plan_id":"cebpf4jnsgd1na2vs0mg"},{"bike_id":"262189e8-114c-4c0f-a83c-c96f98ba2e32","system_id":"levelo_inurba_marseille","lat":43.29529,"lon":5.385581,"is_reserved":false,"is_disabled":false,"rental_uris":{"android":"levelo://app?vid=262189e8-114c-4c0f-a83c-c96f98ba2e32","ios":"levelo://app?vid=262189e8-114c-4c0f-a83c-c96f98ba2e32"},"vehicle_type_id":"4","last_reported":1713034984,"current_range_meters":4400,"station_id":"ce4bgih2rcd13ifvqba0","pricing_plan_id":"cebpf4jnsgd1na2vs0mg"},{"bike_id":"950fa94a-71ab-4029-b572-cd93a90e0d2a","system_id":"levelo_inurba_marseille","lat":43.29529,"lon":5.38548,"is_reserved":false,"is_disabled":false,"rental_uris":{"android":"levelo://app?vid=950fa94a-71ab-4029-b572-cd93a90e0d2a","ios":"levelo://app?vid=950fa94a-71ab-4029-b572-cd93a90e0d2a"},"vehicle_type_id":"4","last_reported":1713034984,"current_range_meters":20400,"station_id":"ce4bgih2rcd13ifvqba0","pricing_plan_id":"cebpf4jnsgd1na2vs0mg"},{"bike_id":"4ef59eb4-320d-443f-8e39-9abe073d31ab","system_id":"levelo_inurba_marseille","lat":43.29529,"lon":5.385581,"is_reserved":false,"is_disabled":false,"rental_uris":{"android":"levelo://app?vid=4ef59eb4-320d-443f-8e39-9abe073d31ab","ios":"levelo://app?vid=4ef59eb4-320d-443f-8e39-9abe073d31ab"},"vehicle_type_id":"4","last_reported":1713034984,"current_range_meters":26000,"station_id":"ce4bgih2rcd13ifvqba0","pricing_plan_id":"cebpf4jnsgd1na2vs0mg"},{"bike_id":"207d064a-4a26-42a5-aa6a-1a70031b1999","system_id":"levelo_inurba_marseille","lat":43.295301,"lon":5.385682,"is_reserved":false,"is_disabled":false,"rental_uris":{"android":"levelo://app?vid=207d064a-4a26-42a5-aa6a-1a70031b1999","ios":"levelo://app?vid=207d064a-4a26-42a5-aa6a-1a70031b1999"},"vehicle_type_id":"4","last_reported":1713034984,"current_range_meters":10000,"station_id":"ce4bgih2rcd13ifvqba0","pricing_plan_id":"cebpf4jnsgd1na2vs0mg"},{"bike_id":"15375392-9629-4fd8-8dcc-515b71efde1b","system_id":"levelo_inurba_marseille","lat":43.294314,"lon":5.397498,"is_reserved":false,"is_disabled":false,"rental_uris":{"android":"levelo://app?vid=15375392-9629-4fd8-8dcc-515b71efde1b","ios":"levelo://app?vid=15375392-9629-4fd8-8dcc-515b71efde1b"},"vehicle_type_id":"4","last_reported":1713034984,"current_range_meters":8400,"station_id":"ce4bh3h2rcd13ifvqdo0","pricing_plan_id":"cebpf4jnsgd1na2vs0mg"},{"bike_id":"8c77583f-e637-4f82-b5f9-78affc438da7","system_id":"levelo_inurba_marseille","lat":43.290779,"lon":5.371482,"is_reserved":false,"is_disabled":false,"rental_uris":{"android":"levelo://app?vid=8c77583f-e637-4f82-b5f9-78affc438da7","ios":"levelo://app?vid=8c77583f-e637-4f82-b5f9-78affc438da7"},"vehicle_type_id":"4","last_reported":1713034984,"current_range_meters":20000,"station_id":"ce4bh5p2rcd13ifvqe4g","pricing_plan_id":"cebpf4jnsgd1na2vs0mg"},{"bike_id":"80f2cf46-4419-4383-a15e-1d6de84e976e","system_id":"levelo_inurba_marseille","lat":43.290779,"lon":5.371482,"is_reserved":false,"is_disabled":false,"rental_uris":{"android":"levelo://app?vid=80f2cf46-4419-4383-a15e-1d6de84e976e","ios":"levelo://app?vid=80f2cf46-4419-4383-a15e-1d6de84e976e"},"vehicle_type_id":"4","last_reported":1713034984,"current_range_meters":25600,"station_id":"ce4bh5p2rcd13ifvqe4g","pricing_plan_id":"cebpf4jnsgd1na2vs0mg"},{"bike_id":"80ada18c-7ec7-4ec3-93e2-1d837a36e15f","system_id":"levelo_inurba_marseille","lat":43.30203,"lon":5.39444,"is_reserved":false,"is_disabled":false,"rental_uris":{"android":"levelo://app?vid=80ada18c-7ec7-4ec3-93e2-1d837a36e15f","ios":"levelo://app?vid=80ada18c-7ec7-4ec3-93e2-1d837a36e15f"},"vehicle_type_id":"4","last_reported":1713034984,"current_range_meters":0,"station_id":"ce4bh0p2rcd13ifvqd70","pricing_plan_id":"cebpf4jnsgd1na2vs0mg"},{"bike_id":"591332e0-5110-4176-a1ce-9038725410b4","system_id":"levelo_inurba_marseille","lat":43.312609,"lon":5.401662,"is_reserved":false,"is_disabled":false,"rental_uris":{"android":"levelo://app?vid=591332e0-5110-4176-a1ce-9038725410b4","ios":"levelo://app?vid=591332e0-5110-4176-a1ce-9038725410b4"},"vehicle_type_id":"4","last_reported":1713034984,"current_range_meters":1600,"station_id":"ce4bh092rcd13ifvqd30","pricing_plan_id":"cebpf4jnsgd1na2vs0mg"},{"bike_id":"f417be5b-106f-4a9a-8084-097404478558","system_id":"levelo_inurba_marseille","lat":43.294262,"lon":5.386144,"is_reserved":false,"is_disabled":false,"rental_uris":{"android":"levelo://app?vid=f417be5b-106f-4a9a-8084-097404478558","ios":"levelo://app?vid=f417be5b-106f-4a9a-8084-097404478558"},"vehicle_type_id":"4","last_reported":1713034984,"current_range_meters":18800,"station_id":"ce4bh2h2rcd13ifvqdh0","pricing_plan_id":"cebpf4jnsgd1na2vs0mg"},{"bike_id":"769e2843-602b-402c-ad65-93443ddf40de","system_id":"levelo_inurba_marseille","lat":43.294153,"lon":5.386305,"is_reserved":false,"is_disabled":false,"rental_uris":{"android":"levelo://app?vid=769e2843-602b-402c-ad65-93443ddf40de","ios":"levelo://app?vid=769e2843-602b-402c-ad65-93443ddf40de"},"vehicle_type_id":"4","last_reported":1713034984,"current_range_meters":4000,"station_id":"ce4bh2h2rcd13ifvqdh0","pricing_plan_id":"cebpf4jnsgd1na2vs0mg"},{"bike_id":"55c3a491-c4c8-4202-8ff7-0c26a6d0337f","system_id":"levelo_inurba_marseille","lat":43.294153,"lon":5.386305,"is_reserved":false,"is_disabled":false,"rental_uris":{"android":"levelo://app?vid=55c3a491-c4c8-4202-8ff7-0c26a6d0337f","ios":"levelo://app?vid=55c3a491-c4c8-4202-8ff7-0c26a6d0337f"},"vehicle_type_id":"4","last_reported":1713034984,"current_range_meters":12400,"station_id":"ce4bh2h2rcd13ifvqdh0","pricing_plan_id":"cebpf4jnsgd1na2vs0mg"},{"bike_id":"466e1602-327a-4cce-b4b2-d4053dfa0870","system_id":"levelo_inurba_marseille","lat":43.29422,"lon":5.3862,"is_reserved":false,"is_disabled":false,"rental_uris":{"android":"levelo://app?vid=466e1602-327a-4cce-b4b2-d4053dfa0870","ios":"levelo://app?vid=466e1602-327a-4cce-b4b2-d4053dfa0870"},"vehicle_type_id":"4","last_reported":1713034984,"current_range_meters":0,"station_id":"ce4bh2h2rcd13ifvqdh0","pricing_plan_id":"cebpf4jnsgd1na2vs0mg"},{"bike_id":"a185c0f4-9792-4fb2-ac71-7827fae1eb77","system_id":"levelo_inurba_marseille","lat":43.29037,"lon":5.37565,"is_reserved":false,"is_disabled":false,"rental_uris":{"android":"levelo://app?vid=a185c0f4-9792-4fb2-ac71-7827fae1eb77","ios":"levelo://app?vid=a185c0f4-9792-4fb2-ac71-7827fae1eb77"},"vehicle_type_id":"4","last_reported":1713034984,"current_range_meters":0,"station_id":"ce4bh692rcd13ifvqe90","pricing_plan_id":"cebpf4jnsgd1na2vs0mg"},{"bike_id":"40e382fc-0c86-4c84-bf2f-a547a5ede150","system_id":"levelo_inurba_marseille","lat":43.294153,"lon":5.386305,"is_reserved":false,"is_disabled":false,"rental_uris":{"android":"levelo://app?vid=40e382fc-0c86-4c84-bf2f-a547a5ede150","ios":"levelo://app?vid=40e382fc-0c86-4c84-bf2f-a547a5ede150"},"vehicle_type_id":"4","last_reported":1713034984,"current_range_meters":2000,"station_id":"ce4bh2h2rcd13ifvqdh0","pricing_plan_id":"cebpf4jnsgd1na2vs0mg"},{"bike_id":"f32ad56f-3211-4903-b661-a3e4cea62f2c","system_id":"levelo_inurba_marseille","lat":43.294218,"lon":5.386277,"is_reserved":false,"is_disabled":false,"rental_uris":{"android":"levelo://app?vid=f32ad56f-3211-4903-b661-a3e4cea62f2c","ios":"levelo://app?vid=f32ad56f-3211-4903-b661-a3e4cea62f2c"},"vehicle_type_id":"4","last_reported":1713034984,"current_range_meters":0,"station_id":"ce4bh2h2rcd13ifvqdh0","pricing_plan_id":"cebpf4jnsgd1na2vs0mg"},{"bike_id":"3788785c-7196-4074-a9ca-636a8cbd1b70","system_id":"levelo_inurba_marseille","lat":43.29415,"lon":5.38622,"is_reserved":false,"is_disabled":false,"rental_uris":{"android":"levelo://app?vid=3788785c-7196-4074-a9ca-636a8cbd1b70","ios":"levelo://app?vid=3788785c-7196-4074-a9ca-636a8cbd1b70"},"vehicle_type_id":"4","last_reported":1713034984,"current_range_meters":8000,"station_id":"ce4bh2h2rcd13ifvqdh0","pricing_plan_id":"cebpf4jnsgd1na2vs0mg"},{"bike_id":"ea0ed78a-6431-4be6-a418-846d4737a9ee","system_id":"levelo_inurba_marseille","lat":43.290319,"lon":5.375732,"is_reserved":false,"is_disabled":false,"rental_uris":{"android":"levelo://app?vid=ea0ed78a-6431-4be6-a418-846d4737a9ee","ios":"levelo://app?vid=ea0ed78a-6431-4be6-a418-846d4737a9ee"},"vehicle_type_id":"4","last_reported":1713034984,"current_range_meters":25200,"station_id":"ce4bh692rcd13ifvqe90","pricing_plan_id":"cebpf4jnsgd1na2vs0mg"},{"bike_id":"77e54ce3-63bc-425c-a9ae-9d2b3b47cba6","system_id":"levelo_inurba_marseille","lat":43.294149,"lon":5.38629,"is_reserved":false,"is_disabled":false,"rental_uris":{"android":"levelo://app?vid=77e54ce3-63bc-425c-a9ae-9d2b3b47cba6","ios":"levelo://app?vid=77e54ce3-63bc-425c-a9ae-9d2b3b47cba6"},"vehicle_type_id":"4","last_reported":1713034984,"current_range_meters":0,"station_id":"ce4bh2h2rcd13ifvqdh0","pricing_plan_id":"cebpf4jnsgd1na2vs0mg"},{"bike_id":"cb7ba4db-f4dd-4bac-8397-89c4d67a92a2","system_id":"levelo_inurba_marseille","lat":43.29414,"lon":5.38629,"is_reserved":false,"is_disabled":false,"rental_uris":{"android":"levelo://app?vid=cb7ba4db-f4dd-4bac-8397-89c4d67a92a2","ios":"levelo://app?vid=cb7ba4db-f4dd-4bac-8397-89c4d67a92a2"},"vehicle_type_id":"4","last_reported":1713034984,"current_range_meters":20400,"station_id":"ce4bh2h2rcd13ifvqdh0","pricing_plan_id":"cebpf4jnsgd1na2vs0mg"},{"bike_id":"981a185a-3714-4d9b-b895-0f65344bfdd7","system_id":"levelo_inurba_marseille","lat":43.289184,"lon":5.366408,"is_reserved":false,"is_disabled":false,"rental_uris":{"android":"levelo://app?vid=981a185a-3714-4d9b-b895-0f65344bfdd7","ios":"levelo://app?vid=981a185a-3714-4d9b-b895-0f65344bfdd7"},"vehicle_type_id":"4","last_reported":1713034984,"current_range_meters":400,"station_id":"ce4bhap2rcd13ifvqek0","pricing_plan_id":"cebpf4jnsgd1na2vs0mg"},{"bike_id":"abd5527b-b093-4d1c-8021-248fbad12fe4","system_id":"levelo_inurba_marseille","lat":43.28856,"lon":5.358371,"is_reserved":false,"is_disabled":false,"rental_uris":{"android":"levelo://app?vid=abd5527b-b093-4d1c-8021-248fbad12fe4","ios":"levelo://app?vid=abd5527b-b093-4d1c-8021-248fbad12fe4"},"vehicle_type_id":"4","last_reported":1713034984,"current_range_meters":11200,"station_id":"ce4bhb12rcd13ifvqem0","pricing_plan_id":"cebpf4jnsgd1na2vs0mg"},{"bike_id":"4ea8459e-004d-4704-8e20-8325c03fa404","system_id":"levelo_inurba_marseille","lat":43.294087,"lon":5.386337,"is_reserved":false,"is_disabled":false,"rental_uris":{"android":"levelo://app?vid=4ea8459e-004d-4704-8e20-8325c03fa404","ios":"levelo://app?vid=4ea8459e-004d-4704-8e20-8325c03fa404"},"vehicle_type_id":"4","last_reported":1713034984,"current_range_meters":0,"station_id":"ce4bh2h2rcd13ifvqdh0","pricing_plan_id":"cebpf4jnsgd1na2vs0mg"},{"bike_id":"41d4cf2b-ccc7-4fda-96be-b1a5353fe2d3","system_id":"levelo_inurba_marseille","lat":43.29251,"lon":5.38352,"is_reserved":false,"is_disabled":false,"rental_uris":{"android":"levelo://app?vid=41d4cf2b-ccc7-4fda-96be-b1a5353fe2d3","ios":"levelo://app?vid=41d4cf2b-ccc7-4fda-96be-b1a5353fe2d3"},"vehicle_type_id":"4","last_reported":1713034984,"current_range_meters":0,"station_id":"","pricing_plan_id":"cebpf4jnsgd1na2vs0mg"},{"bike_id":"557be6b6-d076-4b88-b48a-57679a99db05","system_id":"levelo_inurba_marseille","lat":43.304296,"lon":5.397513,"is_reserved":false,"is_disabled":false,"rental_uris":{"android":"levelo://app?vid=557be6b6-d076-4b88-b48a-57679a99db05","ios":"levelo://app?vid=557be6b6-d076-4b88-b48a-57679a99db05"},"vehicle_type_id":"4","last_reported":1713034984,"current_range_meters":9600,"station_id":"ce4bh092rcd13ifvqd20","pricing_plan_id":"cebpf4jnsgd1na2vs0mg"},{"bike_id":"7953ac83-09c4-424b-afdb-6a2826a8ba4b","system_id":"levelo_inurba_marseille","lat":43.292644,"lon":5.384257,"is_reserved":false,"is_disabled":false,"rental_uris":{"android":"levelo://app?vid=7953ac83-09c4-424b-afdb-6a2826a8ba4b","ios":"levelo://app?vid=7953ac83-09c4-424b-afdb-6a2826a8ba4b"},"vehicle_type_id":"4","last_reported":1713034984,"current_range_meters":0,"station_id":"ce4bh692rcd13ifvqea0","pricing_plan_id":"cebpf4jnsgd1na2vs0mg"},{"bike_id":"e5210dd1-4094-476c-8409-074ee773c828","system_id":"levelo_inurba_marseille","lat":43.292644,"lon":5.384257,"is_reserved":false,"is_disabled":false,"rental_uris":{"android":"levelo://app?vid=e5210dd1-4094-476c-8409-074ee773c828","ios":"levelo://app?vid=e5210dd1-4094-476c-8409-074ee773c828"},"vehicle_type_id":"4","last_reported":1713034984,"current_range_meters":0,"station_id":"ce4bh692rcd13ifvqea0","pricing_plan_id":"cebpf4jnsgd1na2vs0mg"},{"bike_id":"d5166107-21a4-4040-89e2-ad914de421ac","system_id":"levelo_inurba_marseille","lat":43.30422,"lon":5.39754,"is_reserved":false,"is_disabled":false,"rental_uris":{"android":"levelo://app?vid=d5166107-21a4-4040-89e2-ad914de421ac","ios":"levelo://app?vid=d5166107-21a4-4040-89e2-ad914de421ac"},"vehicle_type_id":"4","last_reported":1713034984,"current_range_meters":0,"station_id":"ce4bh092rcd13ifvqd20","pricing_plan_id":"cebpf4jnsgd1na2vs0mg"},{"bike_id":"d9f8d9cf-3b90-4357-b298-4285104e0f7e","system_id":"levelo_inurba_marseille","lat":43.292644,"lon":5.384257,"is_reserved":false,"is_disabled":false,"rental_uris":{"android":"levelo://app?vid=d9f8d9cf-3b90-4357-b298-4285104e0f7e","ios":"levelo://app?vid=d9f8d9cf-3b90-4357-b298-4285104e0f7e"},"vehicle_type_id":"4","last_reported":1713034984,"current_range_meters":0,"station_id":"ce4bh692rcd13ifvqea0","pricing_plan_id":"cebpf4jnsgd1na2vs0mg"},{"bike_id":"301edbcb-73c2-45fe-945e-357af24025fa","system_id":"levelo_inurba_marseille","lat":43.304296,"lon":5.397513,"is_reserved":false,"is_disabled":false,"rental_uris":{"android":"levelo://app?vid=301edbcb-73c2-45fe-945e-357af24025fa","ios":"levelo://app?vid=301edbcb-73c2-45fe-945e-357af24025fa"},"vehicle_type_id":"4","last_reported":1713034984,"current_range_meters":4000,"station_id":"ce4bh092rcd13ifvqd20","pricing_plan_id":"cebpf4jnsgd1na2vs0mg"},{"bike_id":"9d319d11-983a-4f32-9b87-f10d41d3ad4a","system_id":"levelo_inurba_marseille","lat":43.29256,"lon":5.38449,"is_reserved":false,"is_disabled":false,"rental_uris":{"android":"levelo://app?vid=9d319d11-983a-4f32-9b87-f10d41d3ad4a","ios":"levelo://app?vid=9d319d11-983a-4f32-9b87-f10d41d3ad4a"},"vehicle_type_id":"4","last_reported":1713034984,"current_range_meters":0,"station_id":"ce4bh692rcd13ifvqea0","pricing_plan_id":"cebpf4jnsgd1na2vs0mg"},{"bike_id":"67313dbb-618a-4d81-a65c-3b02f9f7206f","system_id":"levelo_inurba_marseille","lat":43.29008,"lon":5.35608,"is_reserved":false,"is_disabled":false,"rental_uris":{"android":"levelo://app?vid=67313dbb-618a-4d81-a65c-3b02f9f7206f","ios":"levelo://app?vid=67313dbb-618a-4d81-a65c-3b02f9f7206f"},"vehicle_type_id":"4","last_reported":1713034984,"current_range_meters":20000,"station_id":"ce4bh512rcd13ifvqe2g","pricing_plan_id":"cebpf4jnsgd1na2vs0mg"},{"bike_id":"9b74d798-b74d-48f6-bb25-b3fd778ceea6","system_id":"levelo_inurba_marseille","lat":43.290995,"lon":5.381361,"is_reserved":false,"is_disabled":false,"rental_uris":{"android":"levelo://app?vid=9b74d798-b74d-48f6-bb25-b3fd778ceea6","ios":"levelo://app?vid=9b74d798-b74d-48f6-bb25-b3fd778ceea6"},"vehicle_type_id":"4","last_reported":1713034984,"current_range_meters":22800,"station_id":"ce4bh512rcd13ifvqe2g","pricing_plan_id":"cebpf4jnsgd1na2vs0mg"},{"bike_id":"933df688-5eca-489b-abe8-3bcfce4e3763","system_id":"levelo_inurba_marseille","lat":43.29089,"lon":5.38134,"is_reserved":false,"is_disabled":false,"rental_uris":{"android":"levelo://app?vid=933df688-5eca-489b-abe8-3bcfce4e3763","ios":"levelo://app?vid=933df688-5eca-489b-abe8-3bcfce4e3763"},"vehicle_type_id":"4","last_reported":1713034984,"current_range_meters":26400,"station_id":"ce4bh512rcd13ifvqe2g","pricing_plan_id":"cebpf4jnsgd1na2vs0mg"},{"bike_id":"784b514e-aec4-47bf-a088-cc5ea8a325ec","system_id":"levelo_inurba_marseille","lat":43.290926,"lon":5.381466,"is_reserved":false,"is_disabled":false,"rental_uris":{"android":"levelo://app?vid=784b514e-aec4-47bf-a088-cc5ea8a325ec","ios":"levelo://app?vid=784b514e-aec4-47bf-a088-cc5ea8a325ec"},"vehicle_type_id":"4","last_reported":1713034984,"current_range_meters":0,"station_id":"ce4bh512rcd13ifvqe2g","pricing_plan_id":"cebpf4jnsgd1na2vs0mg"},{"bike_id":"11079ac8-6a87-417e-b27f-3cc319f23a39","system_id":"levelo_inurba_marseille","lat":43.290995,"lon":5.381361,"is_reserved":false,"is_disabled":false,"rental_uris":{"android":"levelo://app?vid=11079ac8-6a87-417e-b27f-3cc319f23a39","ios":"levelo://app?vid=11079ac8-6a87-417e-b27f-3cc319f23a39"},"vehicle_type_id":"4","last_reported":1713034984,"current_range_meters":2400,"station_id":"ce4bh512rcd13ifvqe2g","pricing_plan_id":"cebpf4jnsgd1na2vs0mg"},{"bike_id":"8abe8f07-1f46-44b0-8066-f7eadb21eae2","system_id":"levelo_inurba_marseille","lat":43.2909,"lon":5.38145,"is_reserved":false,"is_disabled":false,"rental_uris":{"android":"levelo://app?vid=8abe8f07-1f46-44b0-8066-f7eadb21eae2","ios":"levelo://app?vid=8abe8f07-1f46-44b0-8066-f7eadb21eae2"},"vehicle_type_id":"4","last_reported":1713034984,"current_range_meters":0,"station_id":"ce4bh512rcd13ifvqe2g","pricing_plan_id":"cebpf4jnsgd1na2vs0mg"},{"bike_id":"98ae5faa-1757-44f7-b7d3-76bf11b46167","system_id":"levelo_inurba_marseille","lat":43.29089,"lon":5.38145,"is_reserved":false,"is_disabled":false,"rental_uris":{"android":"levelo://app?vid=98ae5faa-1757-44f7-b7d3-76bf11b46167","ios":"levelo://app?vid=98ae5faa-1757-44f7-b7d3-76bf11b46167"},"vehicle_type_id":"4","last_reported":1713034984,"current_range_meters":0,"station_id":"ce4bh512rcd13ifvqe2g","pricing_plan_id":"cebpf4jnsgd1na2vs0mg"},{"bike_id":"ef60edac-549f-4a01-a6b2-702f11b4b9b6","system_id":"levelo_inurba_marseille","lat":43.29791,"lon":5.3934,"is_reserved":false,"is_disabled":false,"rental_uris":{"android":"levelo://app?vid=ef60edac-549f-4a01-a6b2-702f11b4b9b6","ios":"levelo://app?vid=ef60edac-549f-4a01-a6b2-702f11b4b9b6"},"vehicle_type_id":"4","last_reported":1713034984,"current_range_meters":11200,"station_id":"chh1huq6cuj3fo74tm60","pricing_plan_id":"cebpf4jnsgd1na2vs0mg"},{"bike_id":"56b8dad8-e7ec-4c83-ae73-93d5992ddfc4","system_id":"levelo_inurba_marseille","lat":43.330442,"lon":5.389148,"is_reserved":false,"is_disabled":false,"rental_uris":{"android":"levelo://app?vid=56b8dad8-e7ec-4c83-ae73-93d5992ddfc4","ios":"levelo://app?vid=56b8dad8-e7ec-4c83-ae73-93d5992ddfc4"},"vehicle_type_id":"4","last_reported":1713034984,"current_range_meters":30000,"station_id":"ce4bhr92rcd13ifvqhrg","pricing_plan_id":"cebpf4jnsgd1na2vs0mg"},{"bike_id":"cd9cdd86-a7e9-46bc-80be-0f6d0663c71c","system_id":"levelo_inurba_marseille","lat":43.330442,"lon":5.389148,"is_reserved":false,"is_disabled":false,"rental_uris":{"android":"levelo://app?vid=cd9cdd86-a7e9-46bc-80be-0f6d0663c71c","ios":"levelo://app?vid=cd9cdd86-a7e9-46bc-80be-0f6d0663c71c"},"vehicle_type_id":"4","last_reported":1713034984,"current_range_meters":4400,"station_id":"ce4bhr92rcd13ifvqhrg","pricing_plan_id":"cebpf4jnsgd1na2vs0mg"},{"bike_id":"40de11fe-c1f3-44ea-a3f6-4261335a1f87","system_id":"levelo_inurba_marseille","lat":43.330442,"lon":5.389148,"is_reserved":false,"is_disabled":false,"rental_uris":{"android":"levelo://app?vid=40de11fe-c1f3-44ea-a3f6-4261335a1f87","ios":"levelo://app?vid=40de11fe-c1f3-44ea-a3f6-4261335a1f87"},"vehicle_type_id":"4","last_reported":1713034984,"current_range_meters":8000,"station_id":"ce4bhr92rcd13ifvqhrg","pricing_plan_id":"cebpf4jnsgd1na2vs0mg"},{"bike_id":"d900a918-9aa4-427c-aa24-f7ee15938d99","system_id":"levelo_inurba_marseille","lat":43.330442,"lon":5.389148,"is_reserved":false,"is_disabled":false,"rental_uris":{"android":"levelo://app?vid=d900a918-9aa4-427c-aa24-f7ee15938d99","ios":"levelo://app?vid=d900a918-9aa4-427c-aa24-f7ee15938d99"},"vehicle_type_id":"4","last_reported":1713034984,"current_range_meters":25200,"station_id":"ce4bhr92rcd13ifvqhrg","pricing_plan_id":"cebpf4jnsgd1na2vs0mg"},{"bike_id":"5dbfc27b-723d-42c0-8f14-ab1ee2c2c5f4","system_id":"levelo_inurba_marseille","lat":43.2901,"lon":5.381269,"is_reserved":false,"is_disabled":false,"rental_uris":{"android":"levelo://app?vid=5dbfc27b-723d-42c0-8f14-ab1ee2c2c5f4","ios":"levelo://app?vid=5dbfc27b-723d-42c0-8f14-ab1ee2c2c5f4"},"vehicle_type_id":"4","last_reported":1713034984,"current_range_meters":0,"station_id":"ce4bh4p2rcd13ifvqe1g","pricing_plan_id":"cebpf4jnsgd1na2vs0mg"},{"bike_id":"a5ab7929-6ad3-49e4-b9e3-4a81661490a6","system_id":"levelo_inurba_marseille","lat":43.2901,"lon":5.381269,"is_reserved":false,"is_disabled":false,"rental_uris":{"android":"levelo://app?vid=a5ab7929-6ad3-49e4-b9e3-4a81661490a6","ios":"levelo://app?vid=a5ab7929-6ad3-49e4-b9e3-4a81661490a6"},"vehicle_type_id":"4","last_reported":1713034984,"current_range_meters":2000,"station_id":"ce4bh4p2rcd13ifvqe1g","pricing_plan_id":"cebpf4jnsgd1na2vs0mg"},{"bike_id":"d2b4f959-f55c-4ded-b527-0fe233f07543","system_id":"levelo_inurba_marseille","lat":43.306412,"lon":5.401035,"is_reserved":false,"is_disabled":false,"rental_uris":{"android":"levelo://app?vid=d2b4f959-f55c-4ded-b527-0fe233f07543","ios":"levelo://app?vid=d2b4f959-f55c-4ded-b527-0fe233f07543"},"vehicle_type_id":"4","last_reported":1713034984,"current_range_meters":15200,"station_id":"ce4bh112rcd13ifvqda0","pricing_plan_id":"cebpf4jnsgd1na2vs0mg"},{"bike_id":"7584a675-691e-4372-8285-141df4d486b0","system_id":"levelo_inurba_marseille","lat":43.312609,"lon":5.401662,"is_reserved":false,"is_disabled":false,"rental_uris":{"android":"levelo://app?vid=7584a675-691e-4372-8285-141df4d486b0","ios":"levelo://app?vid=7584a675-691e-4372-8285-141df4d486b0"},"vehicle_type_id":"4","last_reported":1713034984,"current_range_meters":17200,"station_id":"ce4bh092rcd13ifvqd30","pricing_plan_id":"cebpf4jnsgd1na2vs0mg"},{"bike_id":"c0ff7e7e-deaa-416a-8c35-126ddcde366a","system_id":"levelo_inurba_marseille","lat":43.312609,"lon":5.401662,"is_reserved":false,"is_disabled":false,"rental_uris":{"android":"levelo://app?vid=c0ff7e7e-deaa-416a-8c35-126ddcde366a","ios":"levelo://app?vid=c0ff7e7e-deaa-416a-8c35-126ddcde366a"},"vehicle_type_id":"4","last_reported":1713034984,"current_range_meters":11600,"station_id":"ce4bh092rcd13ifvqd30","pricing_plan_id":"cebpf4jnsgd1na2vs0mg"},{"bike_id":"bf13f228-6135-433f-b533-cb08eb5e578e","system_id":"levelo_inurba_marseille","lat":43.309371,"lon":5.401449,"is_reserved":false,"is_disabled":false,"rental_uris":{"android":"levelo://app?vid=bf13f228-6135-433f-b533-cb08eb5e578e","ios":"levelo://app?vid=bf13f228-6135-433f-b533-cb08eb5e578e"},"vehicle_type_id":"4","last_reported":1713034984,"current_range_meters":10000,"station_id":"ce4bgvp2rcd13ifvqct0","pricing_plan_id":"cebpf4jnsgd1na2vs0mg"},{"bike_id":"aec930d3-d95b-4685-93f4-24772cab6952","system_id":"levelo_inurba_marseille","lat":43.312609,"lon":5.401662,"is_reserved":false,"is_disabled":false,"rental_uris":{"android":"levelo://app?vid=aec930d3-d95b-4685-93f4-24772cab6952","ios":"levelo://app?vid=aec930d3-d95b-4685-93f4-24772cab6952"},"vehicle_type_id":"4","last_reported":1713034984,"current_range_meters":25600,"station_id":"ce4bh092rcd13ifvqd30","pricing_plan_id":"cebpf4jnsgd1na2vs0mg"},{"bike_id":"23c222d8-6f79-4746-97eb-e26706bf6014","system_id":"levelo_inurba_marseille","lat":43.312609,"lon":5.401662,"is_reserved":false,"is_disabled":false,"rental_uris":{"android":"levelo://app?vid=23c222d8-6f79-4746-97eb-e26706bf6014","ios":"levelo://app?vid=23c222d8-6f79-4746-97eb-e26706bf6014"},"vehicle_type_id":"4","last_reported":1713034984,"current_range_meters":20400,"station_id":"ce4bh092rcd13ifvqd30","pricing_plan_id":"cebpf4jnsgd1na2vs0mg"},{"bike_id":"e9bc6536-2254-4628-bbb5-ae6f00115e46","system_id":"levelo_inurba_marseille","lat":43.312609,"lon":5.401662,"is_reserved":false,"is_disabled":false,"rental_uris":{"android":"levelo://app?vid=e9bc6536-2254-4628-bbb5-ae6f00115e46","ios":"levelo://app?vid=e9bc6536-2254-4628-bbb5-ae6f00115e46"},"vehicle_type_id":"4","last_reported":1713034984,"current_range_meters":0,"station_id":"ce4bh092rcd13ifvqd30","pricing_plan_id":"cebpf4jnsgd1na2vs0mg"},{"bike_id":"b9e5042b-c0e5-4804-b47d-0068beefb601","system_id":"levelo_inurba_marseille","lat":43.31281,"lon":5.4018,"is_reserved":false,"is_disabled":false,"rental_uris":{"android":"levelo://app?vid=b9e5042b-c0e5-4804-b47d-0068beefb601","ios":"levelo://app?vid=b9e5042b-c0e5-4804-b47d-0068beefb601"},"vehicle_type_id":"4","last_reported":1713034984,"current_range_meters":16400,"station_id":"ce4bh092rcd13ifvqd30","pricing_plan_id":"cebpf4jnsgd1na2vs0mg"},{"bike_id":"71cc5d9a-d305-497b-9583-f2815c310563","system_id":"levelo_inurba_marseille","lat":43.30924,"lon":5.40154,"is_reserved":false,"is_disabled":false,"rental_uris":{"android":"levelo://app?vid=71cc5d9a-d305-497b-9583-f2815c310563","ios":"levelo://app?vid=71cc5d9a-d305-497b-9583-f2815c310563"},"vehicle_type_id":"4","last_reported":1713034984,"current_range_meters":400,"station_id":"ce4bgvp2rcd13ifvqct0","pricing_plan_id":"cebpf4jnsgd1na2vs0mg"},{"bike_id":"d3ea26f4-7d4d-45b7-8172-0133ecd9329b","system_id":"levelo_inurba_marseille","lat":43.337571,"lon":5.37457,"is_reserved":false,"is_disabled":false,"rental_uris":{"android":"levelo://app?vid=d3ea26f4-7d4d-45b7-8172-0133ecd9329b","ios":"levelo://app?vid=d3ea26f4-7d4d-45b7-8172-0133ecd9329b"},"vehicle_type_id":"4","last_reported":1713034984,"current_range_meters":24400,"station_id":"","pricing_plan_id":"cebpf4jnsgd1na2vs0mg"},{"bike_id":"4e29e6b1-af01-475f-8a5e-c62d7b6c198c","system_id":"levelo_inurba_marseille","lat":43.30642,"lon":5.401031,"is_reserved":false,"is_disabled":false,"rental_uris":{"android":"levelo://app?vid=4e29e6b1-af01-475f-8a5e-c62d7b6c198c","ios":"levelo://app?vid=4e29e6b1-af01-475f-8a5e-c62d7b6c198c"},"vehicle_type_id":"4","last_reported":1713034984,"current_range_meters":19600,"station_id":"ce4bh112rcd13ifvqda0","pricing_plan_id":"cebpf4jnsgd1na2vs0mg"},{"bike_id":"38ee1843-ba6d-43ff-9a22-e01a582f481c","system_id":"levelo_inurba_marseille","lat":43.3065,"lon":5.40104,"is_reserved":false,"is_disabled":false,"rental_uris":{"android":"levelo://app?vid=38ee1843-ba6d-43ff-9a22-e01a582f481c","ios":"levelo://app?vid=38ee1843-ba6d-43ff-9a22-e01a582f481c"},"vehicle_type_id":"4","last_reported":1713034984,"current_range_meters":1200,"station_id":"ce4bh112rcd13ifvqda0","pricing_plan_id":"cebpf4jnsgd1na2vs0mg"},{"bike_id":"d88c270a-08ed-4b39-8c3b-b549b744ff17","system_id":"levelo_inurba_marseille","lat":43.312609,"lon":5.401662,"is_reserved":false,"is_disabled":false,"rental_uris":{"android":"levelo://app?vid=d88c270a-08ed-4b39-8c3b-b549b744ff17","ios":"levelo://app?vid=d88c270a-08ed-4b39-8c3b-b549b744ff17"},"vehicle_type_id":"4","last_reported":1713034984,"current_range_meters":13200,"station_id":"ce4bh092rcd13ifvqd30","pricing_plan_id":"cebpf4jnsgd1na2vs0mg"},{"bike_id":"254ca328-9dba-49cf-9364-b13a0e68b504","system_id":"levelo_inurba_marseille","lat":43.301117,"lon":5.398795,"is_reserved":false,"is_disabled":false,"rental_uris":{"android":"levelo://app?vid=254ca328-9dba-49cf-9364-b13a0e68b504","ios":"levelo://app?vid=254ca328-9dba-49cf-9364-b13a0e68b504"},"vehicle_type_id":"4","last_reported":1713034984,"current_range_meters":1600,"station_id":"ce4bh0h2rcd13ifvqd40","pricing_plan_id":"cebpf4jnsgd1na2vs0mg"},{"bike_id":"024d090d-4213-4c5d-86e8-46a6fd4708ae","system_id":"levelo_inurba_marseille","lat":43.301117,"lon":5.398795,"is_reserved":false,"is_disabled":false,"rental_uris":{"android":"levelo://app?vid=024d090d-4213-4c5d-86e8-46a6fd4708ae","ios":"levelo://app?vid=024d090d-4213-4c5d-86e8-46a6fd4708ae"},"vehicle_type_id":"4","last_reported":1713034984,"current_range_meters":23200,"station_id":"ce4bh0h2rcd13ifvqd40","pricing_plan_id":"cebpf4jnsgd1na2vs0mg"},{"bike_id":"a508320f-b3d0-4aa8-9557-9867decd062e","system_id":"levelo_inurba_marseille","lat":43.28729,"lon":5.36094,"is_reserved":false,"is_disabled":false,"rental_uris":{"android":"levelo://app?vid=a508320f-b3d0-4aa8-9557-9867decd062e","ios":"levelo://app?vid=a508320f-b3d0-4aa8-9557-9867decd062e"},"vehicle_type_id":"4","last_reported":1713034984,"current_range_meters":0,"station_id":"cki0cbj6b192h4jlfktg","pricing_plan_id":"cebpf4jnsgd1na2vs0mg"},{"bike_id":"6afdb07e-0912-4df8-8bbf-d2f61302d49f","system_id":"levelo_inurba_marseille","lat":43.28727,"lon":5.36078,"is_reserved":false,"is_disabled":false,"rental_uris":{"android":"levelo://app?vid=6afdb07e-0912-4df8-8bbf-d2f61302d49f","ios":"levelo://app?vid=6afdb07e-0912-4df8-8bbf-d2f61302d49f"},"vehicle_type_id":"4","last_reported":1713034984,"current_range_meters":8400,"station_id":"cki0cbj6b192h4jlfktg","pricing_plan_id":"cebpf4jnsgd1na2vs0mg"},{"bike_id":"eedc6e0f-52ce-40a7-a527-9fafb104ea66","system_id":"levelo_inurba_marseille","lat":43.28724,"lon":5.361,"is_reserved":false,"is_disabled":false,"rental_uris":{"android":"levelo://app?vid=eedc6e0f-52ce-40a7-a527-9fafb104ea66","ios":"levelo://app?vid=eedc6e0f-52ce-40a7-a527-9fafb104ea66"},"vehicle_type_id":"4","last_reported":1713034984,"current_range_meters":0,"station_id":"cki0cbj6b192h4jlfktg","pricing_plan_id":"cebpf4jnsgd1na2vs0mg"},{"bike_id":"31a040eb-0f59-4fdb-96f5-50e7fa5b4935","system_id":"levelo_inurba_marseille","lat":43.28727,"lon":5.36078,"is_reserved":false,"is_disabled":false,"rental_uris":{"android":"levelo://app?vid=31a040eb-0f59-4fdb-96f5-50e7fa5b4935","ios":"levelo://app?vid=31a040eb-0f59-4fdb-96f5-50e7fa5b4935"},"vehicle_type_id":"4","last_reported":1713034984,"current_range_meters":14000,"station_id":"cki0cbj6b192h4jlfktg","pricing_plan_id":"cebpf4jnsgd1na2vs0mg"},{"bike_id":"187fa35a-3949-46de-b239-67b8f0bf2028","system_id":"levelo_inurba_marseille","lat":43.286595,"lon":5.386795,"is_reserved":false,"is_disabled":false,"rental_uris":{"android":"levelo://app?vid=187fa35a-3949-46de-b239-67b8f0bf2028","ios":"levelo://app?vid=187fa35a-3949-46de-b239-67b8f0bf2028"},"vehicle_type_id":"4","last_reported":1713034984,"current_range_meters":3200,"station_id":"ce4bh492rcd13ifvqdug","pricing_plan_id":"cebpf4jnsgd1na2vs0mg"},{"bike_id":"41bc4d58-6619-4e9d-9d65-881109cb9c63","system_id":"levelo_inurba_marseille","lat":43.287059,"lon":5.373857,"is_reserved":false,"is_disabled":false,"rental_uris":{"android":"levelo://app?vid=41bc4d58-6619-4e9d-9d65-881109cb9c63","ios":"levelo://app?vid=41bc4d58-6619-4e9d-9d65-881109cb9c63"},"vehicle_type_id":"4","last_reported":1713034984,"current_range_meters":0,"station_id":"ce4bh3p2rcd13ifvqdq0","pricing_plan_id":"cebpf4jnsgd1na2vs0mg"},{"bike_id":"78494014-b049-4256-8398-8bac00f06e3d","system_id":"levelo_inurba_marseille","lat":43.286961,"lon":5.373785,"is_reserved":false,"is_disabled":false,"rental_uris":{"android":"levelo://app?vid=78494014-b049-4256-8398-8bac00f06e3d","ios":"levelo://app?vid=78494014-b049-4256-8398-8bac00f06e3d"},"vehicle_type_id":"4","last_reported":1713034984,"current_range_meters":28400,"station_id":"ce4bh3p2rcd13ifvqdq0","pricing_plan_id":"cebpf4jnsgd1na2vs0mg"},{"bike_id":"93402141-1320-48a0-b43a-ff1009c947fb","system_id":"levelo_inurba_marseille","lat":43.291994,"lon":5.392907,"is_reserved":false,"is_disabled":false,"rental_uris":{"android":"levelo://app?vid=93402141-1320-48a0-b43a-ff1009c947fb","ios":"levelo://app?vid=93402141-1320-48a0-b43a-ff1009c947fb"},"vehicle_type_id":"4","last_reported":1713034984,"current_range_meters":12400,"station_id":"ce4bh192rcd13ifvqdd0","pricing_plan_id":"cebpf4jnsgd1na2vs0mg"},{"bike_id":"582b4bbe-de8c-4093-99a6-9bff2c156121","system_id":"levelo_inurba_marseille","lat":43.295194,"lon":5.39397,"is_reserved":false,"is_disabled":false,"rental_uris":{"android":"levelo://app?vid=582b4bbe-de8c-4093-99a6-9bff2c156121","ios":"levelo://app?vid=582b4bbe-de8c-4093-99a6-9bff2c156121"},"vehicle_type_id":"4","last_reported":1713034984,"current_range_meters":800,"station_id":"ce4bh292rcd13ifvqdf0","pricing_plan_id":"cebpf4jnsgd1na2vs0mg"},{"bike_id":"aae00ccc-efd9-46dc-8d71-bdd98013cf22","system_id":"levelo_inurba_marseille","lat":43.295221,"lon":5.394034,"is_reserved":false,"is_disabled":false,"rental_uris":{"android":"levelo://app?vid=aae00ccc-efd9-46dc-8d71-bdd98013cf22","ios":"levelo://app?vid=aae00ccc-efd9-46dc-8d71-bdd98013cf22"},"vehicle_type_id":"4","last_reported":1713034984,"current_range_meters":1200,"station_id":"ce4bh292rcd13ifvqdf0","pricing_plan_id":"cebpf4jnsgd1na2vs0mg"},{"bike_id":"d4280534-56e1-43d9-b07e-f0c3347eee04","system_id":"levelo_inurba_marseille","lat":43.304296,"lon":5.397513,"is_reserved":false,"is_disabled":false,"rental_uris":{"android":"levelo://app?vid=d4280534-56e1-43d9-b07e-f0c3347eee04","ios":"levelo://app?vid=d4280534-56e1-43d9-b07e-f0c3347eee04"},"vehicle_type_id":"4","last_reported":1713034984,"current_range_meters":13600,"station_id":"ce4bh092rcd13ifvqd20","pricing_plan_id":"cebpf4jnsgd1na2vs0mg"},{"bike_id":"67b648c4-4a53-41b3-9d3e-f1e38b467cae","system_id":"levelo_inurba_marseille","lat":43.290336,"lon":5.386425,"is_reserved":false,"is_disabled":false,"rental_uris":{"android":"levelo://app?vid=67b648c4-4a53-41b3-9d3e-f1e38b467cae","ios":"levelo://app?vid=67b648c4-4a53-41b3-9d3e-f1e38b467cae"},"vehicle_type_id":"4","last_reported":1713034984,"current_range_meters":0,"station_id":"ce4bh4p2rcd13ifvqe0g","pricing_plan_id":"cebpf4jnsgd1na2vs0mg"},{"bike_id":"90085009-a1f1-4185-87c1-2feb06b484e8","system_id":"levelo_inurba_marseille","lat":43.29038,"lon":5.38647,"is_reserved":false,"is_disabled":false,"rental_uris":{"android":"levelo://app?vid=90085009-a1f1-4185-87c1-2feb06b484e8","ios":"levelo://app?vid=90085009-a1f1-4185-87c1-2feb06b484e8"},"vehicle_type_id":"4","last_reported":1713034984,"current_range_meters":0,"station_id":"ce4bh4p2rcd13ifvqe0g","pricing_plan_id":"cebpf4jnsgd1na2vs0mg"},{"bike_id":"11adde68-002c-4f61-9465-e4e16bba86b3","system_id":"levelo_inurba_marseille","lat":43.302759,"lon":5.400793,"is_reserved":false,"is_disabled":false,"rental_uris":{"android":"levelo://app?vid=11adde68-002c-4f61-9465-e4e16bba86b3","ios":"levelo://app?vid=11adde68-002c-4f61-9465-e4e16bba86b3"},"vehicle_type_id":"4","last_reported":1713034984,"current_range_meters":0,"station_id":"ce4bgvh2rcd13ifvqcs0","pricing_plan_id":"cebpf4jnsgd1na2vs0mg"},{"bike_id":"2db0ab53-0f0d-4e2a-bc4c-921d50ee89ff","system_id":"levelo_inurba_marseille","lat":43.286039,"lon":5.370679,"is_reserved":false,"is_disabled":false,"rental_uris":{"android":"levelo://app?vid=2db0ab53-0f0d-4e2a-bc4c-921d50ee89ff","ios":"levelo://app?vid=2db0ab53-0f0d-4e2a-bc4c-921d50ee89ff"},"vehicle_type_id":"4","last_reported":1713034984,"current_range_meters":1200,"station_id":"ce4bht12rcd13ifvqi60","pricing_plan_id":"cebpf4jnsgd1na2vs0mg"},