{"last_updated":1686899190,"ttl":30,"version":"2.2","data":{"bikes":[{"bike_id":"bbbab6f9-c2ae-439f-a2c8-94cd225b6704","system_id":"levelo_inurba_marseille","lat":43.31341,"lon":5.367098,"is_reserved":false,"is_disabled":false,"rental_uris":{"android":"levelo://app?vid=bbbab6f9-c2ae-439f-a2c8-94cd225b6704","ios":"levelo://app?vid=bbbab6f9-c2ae-439f-a2c8-94cd225b6704"},"vehicle_type_id":"4","last_reported":1686899191,"current_range_meters":8000,"station_id":"ce4bgr92rcd13ifvqc6g","pricing_plan_id":"free"},{"bike_id":"4c855493-f598-46bc-955a-26e9f21e7cb7","system_id":"levelo_inurba_marseille","lat":43.313391,"lon":5.36706,"is_reserved":false,"is_disabled":false,"rental_uris":{"android":"levelo://app?vid=4c855493-f598-46bc-955a-26e9f21e7cb7","ios":"levelo://app?vid=4c855493-f598-46bc-955a-26e9f21e7cb7"},"vehicle_type_id":"4","last_reported":1686899191,"current_range_meters":22000,"station_id":"ce4bgr92rcd13ifvqc6g","pricing_plan_id":"free"},{"bike_id":"a17252f6-21fb-475e-8daa-d764ab194412","system_id":"levelo_inurba_marseille","lat":43.31336,"lon":5.36707,"is_reserved":false,"is_disabled":false,"rental_uris":{"android":"levelo://app?vid=a17252f6-21fb-475e-8daa-d764ab194412","ios":"levelo://app?vid=a17252f6-21fb-475e-8daa-d764ab194412"},"vehicle_type_id":"4","last_reported":1686899191,"current_range_meters":0,"station_id":"ce4bgr92rcd13ifvqc6g","pricing_plan_id":"free"},{"bike_id":"0c3cce94-a1f3-425e-8391-c9680703c2c6","system_id":"levelo_inurba_marseille","lat":43.313391,"lon":5.36706,"is_reserved":false,"is_disabled":false,"rental_uris":{"android":"levelo://app?vid=0c3cce94-a1f3-425e-8391-c9680703c2c6","ios":"levelo://app?vid=0c3cce94-a1f3-425e-8391-c9680703c2c6"},"vehicle_type_id":"4","last_reported":1686899191,"current_range_meters":16000,"station_id":"ce4bgr92rcd13ifvqc6g","pricing_plan_id":"free"},{"bike_id":"526dc4d3-96b8-4db0-af9f-6a3fefddbafe","system_id":"levelo_inurba_marseille","lat":43.313391,"lon":5.36706,"is_reserved":false,"is_disabled":false,"rental_uris":{"android":"levelo://app?vid=526dc4d3-96b8-4db0-af9f-6a3fefddbafe","ios":"levelo://app?vid=526dc4d3-96b8-4db0-af9f-6a3fefddbafe"},"vehicle_type_id":"4","last_reported":1686899191,"current_range_meters":28400,"station_id":"ce4bgr92rcd13ifvqc6g","pricing_plan_id":"free"},{"bike_id":"c0063af3-0c66-4cd4-8969-538ec722ba52","system_id":"levelo_inurba_marseille","lat":43.313391,"lon":5.36706,"is_reserved":false,"is_disabled":false,"rental_uris":{"android":"levelo://app?vid=c0063af3-0c66-4cd4-8969-538ec722ba52","ios":"levelo://app?vid=c0063af3-0c66-4cd4-8969-538ec722ba52"},"vehicle_type_id":"4","last_reported":1686899191,"current_range_meters":20800,"station_id":"ce4bgr92rcd13ifvqc6g","pricing_plan_id":"free"},{"bike_id":"c679b659-cce3-4c81-96ea-172a6dbb9910","system_id":"levelo_inurba_marseille","lat":43.313391,"lon":5.36706,"is_reserved":false,"is_disabled":false,"rental_uris":{"android":"levelo://app?vid=c679b659-cce3-4c81-96ea-172a6dbb9910","ios":"levelo://app?vid=c679b659-cce3-4c81-96ea-172a6dbb9910"},"vehicle_type_id":"4","last_reported":1686899191,"current_range_meters":13200,"station_id":"ce4bgr92rcd13ifvqc6g","pricing_plan_id":"free"},{"bike_id":"b3d46a5c-ae8f-4378-b04f-544915f5eba6","system_id":"levelo_inurba_marseille","lat":43.313391,"lon":5.36706,"is_reserved":false,"is_disabled":false,"rental_uris":{"android":"levelo://app?vid=b3d46a5c-ae8f-4378-b04f-544915f5eba6","ios":"levelo://app?vid=b3d46a5c-ae8f-4378-b04f-544915f5eba6"},"vehicle_type_id":"4","last_reported":1686899191,"current_range_meters":25600,"station_id":"ce4bgr92rcd13ifvqc6g","pricing_plan_id":"free"},{"bike_id":"8a7633d8-1414-4af6-ac7c-539ebd393fd3","system_id":"levelo_inurba_marseille","lat":43.313391,"lon":5.36706,"is_reserved":false,"is_disabled":false,"rental_uris":{"android":"levelo://app?vid=8a7633d8-1414-4af6-ac7c-539ebd393fd3","ios":"levelo://app?vid=8a7633d8-1414-4af6-ac7c-539ebd393fd3"},"vehicle_type_id":"4","last_reported":1686899191,"current_range_meters":26800,"station_id":"ce4bgr92rcd13ifvqc6g","pricing_plan_id":"free"},{"bike_id":"536a9628-d438-4692-baf6-7fe8c17b1dbf","system_id":"levelo_inurba_marseille","lat":43.313391,"lon":5.36706,"is_reserved":false,"is_disabled":false,"rental_uris":{"android":"levelo://app?vid=536a9628-d438-4692-baf6-7fe8c17b1dbf","ios":"levelo://app?vid=536a9628-d438-4692-baf6-7fe8c17b1dbf"},"vehicle_type_id":"4","last_reported":1686899191,"current_range_meters":27600,"station_id":"ce4bgr92rcd13ifvqc6g","pricing_plan_id":"free"},{"bike_id":"9da004b0-4790-4467-934e-06096aba6909","system_id":"levelo_inurba_marseille","lat":43.31341,"lon":5.367098,"is_reserved":false,"is_disabled":false,"rental_uris":{"android":"levelo://app?vid=9da004b0-4790-4467-934e-06096aba6909","ios":"levelo://app?vid=9da004b0-4790-4467-934e-06096aba6909"},"vehicle_type_id":"4","last_reported":1686899191,"current_range_meters":4000,"station_id":"ce4bgr92rcd13ifvqc6g","pricing_plan_id":"free"},{"bike_id":"c28ba49b-9c69-4383-8a19-6c79eef809c3","system_id":"levelo_inurba_marseille","lat":43.31341,"lon":5.367098,"is_reserved":false,"is_disabled":false,"rental_uris":{"android":"levelo://app?vid=c28ba49b-9c69-4383-8a19-6c79eef809c3","ios":"levelo://app?vid=c28ba49b-9c69-4383-8a19-6c79eef809c3"},"vehicle_type_id":"4","last_reported":1686899191,"current_range_meters":6000,"station_id":"ce4bgr92rcd13ifvqc6g","pricing_plan_id":"free"},{"bike_id":"b9fe96cc-be72-40ee-b60b-6e4a315c5c27","system_id":"levelo_inurba_marseille","lat":43.313391,"lon":5.36706,"is_reserved":false,"is_disabled":false,"rental_uris":{"android":"levelo://app?vid=b9fe96cc-be72-40ee-b60b-6e4a315c5c27","ios":"levelo://app?vid=b9fe96cc-be72-40ee-b60b-6e4a315c5c27"},"vehicle_type_id":"4","last_reported":1686899191,"current_range_meters":8000,"station_id":"ce4bgr92rcd13ifvqc6g","pricing_plan_id":"free"},{"bike_id":"b31814f4-c247-41de-aba1-f777edc6184e","system_id":"levelo_inurba_marseille","lat":43.31341,"lon":5.367098,"is_reserved":false,"is_disabled":false,"rental_uris":{"android":"levelo://app?vid=b31814f4-c247-41de-aba1-f777edc6184e","ios":"levelo://app?vid=b31814f4-c247-41de-aba1-f777edc6184e"},"vehicle_type_id":"4","last_reported":1686899191,"current_range_meters":31200,"station_id":"ce4bgr92rcd13ifvqc6g","pricing_plan_id":"free"},{"bike_id":"72c81d68-fc90-4437-a318-2ddb30ad7b33","system_id":"levelo_inurba_marseille","lat":43.31341,"lon":5.367098,"is_reserved":false,"is_disabled":false,"rental_uris":{"android":"levelo://app?vid=72c81d68-fc90-4437-a318-2ddb30ad7b33","ios":"levelo://app?vid=72c81d68-fc90-4437-a318-2ddb30ad7b33"},"vehicle_type_id":"4","last_reported":1686899191,"current_range_meters":31600,"station_id":"ce4bgr92rcd13ifvqc6g","pricing_plan_id":"free"},{"bike_id":"7c0718c5-a565-429b-8ef4-b7cd94e4573d","system_id":"levelo_inurba_marseille","lat":43.31341,"lon":5.367098,"is_reserved":false,"is_disabled":false,"rental_uris":{"android":"levelo://app?vid=7c0718c5-a565-429b-8ef4-b7cd94e4573d","ios":"levelo://app?vid=7c0718c5-a565-429b-8ef4-b7cd94e4573d"},"vehicle_type_id":"4","last_reported":1686899191,"current_range_meters":25200,"station_id":"ce4bgr92rcd13ifvqc6g","pricing_plan_id":"free"},{"bike_id":"b74461a7-b916-4735-8120-22984d4adfc0","system_id":"levelo_inurba_marseille","lat":43.31341,"lon":5.367098,"is_reserved":false,"is_disabled":false,"rental_uris":{"android":"levelo://app?vid=b74461a7-b916-4735-8120-22984d4adfc0","ios":"levelo://app?vid=b74461a7-b916-4735-8120-22984d4adfc0"},"vehicle_type_id":"4","last_reported":1686899191,"current_range_meters":31600,"station_id":"ce4bgr92rcd13ifvqc6g","pricing_plan_id":"free"},{"bike_id":"a5e0d0fd-a751-4075-9321-c2a35266c42b","system_id":"levelo_inurba_marseille","lat":43.31341,"lon":5.367098,"is_reserved":false,"is_disabled":false,"rental_uris":{"android":"levelo://app?vid=a5e0d0fd-a751-4075-9321-c2a35266c42b","ios":"levelo://app?vid=a5e0d0fd-a751-4075-9321-c2a35266c42b"},"vehicle_type_id":"4","last_reported":1686899191,"current_range_meters":28400,"station_id":"ce4bgr92rcd13ifvqc6g","pricing_plan_id":"free"},{"bike_id":"31456a68-4e35-404f-9004-a7ef03aa2813","system_id":"levelo_inurba_marseille","lat":43.312239,"lon":5.368562,"is_reserved":false,"is_disabled":false,"rental_uris":{"android":"levelo://app?vid=31456a68-4e35-404f-9004-a7ef03aa2813","ios":"levelo://app?vid=31456a68-4e35-404f-9004-a7ef03aa2813"},"vehicle_type_id":"4","last_reported":1686899191,"current_range_meters":24800,"station_id":"ce4bgl92rcd13ifvqbq0","pricing_plan_id":"free"},{"bike_id":"29111ac9-c908-45b7-8ff1-f4b04b7a2f48","system_id":"levelo_inurba_marseille","lat":43.312239,"lon":5.368562,"is_reserved":false,"is_disabled":false,"rental_uris":{"android":"levelo://app?vid=29111ac9-c908-45b7-8ff1-f4b04b7a2f48","ios":"levelo://app?vid=29111ac9-c908-45b7-8ff1-f4b04b7a2f48"},"vehicle_type_id":"4","last_reported":1686899191,"current_range_meters":21600,"station_id":"ce4bgl92rcd13ifvqbq0","pricing_plan_id":"free"},{"bike_id":"a142fcc1-dd44-4e45-a4d3-f750f9811ffe","system_id":"levelo_inurba_marseille","lat":43.312239,"lon":5.368562,"is_reserved":false,"is_disabled":false,"rental_uris":{"android":"levelo://app?vid=a142fcc1-dd44-4e45-a4d3-f750f9811ffe","ios":"levelo://app?vid=a142fcc1-dd44-4e45-a4d3-f750f9811ffe"},"vehicle_type_id":"4","last_reported":1686899191,"current_range_meters":31200,"station_id":"ce4bgl92rcd13ifvqbq0","pricing_plan_id":"free"},{"bike_id":"5fdc65e9-8ba6-4755-a960-e92c25719bfd","system_id":"levelo_inurba_marseille","lat":43.312239,"lon":5.368562,"is_reserved":false,"is_disabled":false,"rental_uris":{"android":"levelo://app?vid=5fdc65e9-8ba6-4755-a960-e92c25719bfd","ios":"levelo://app?vid=5fdc65e9-8ba6-4755-a960-e92c25719bfd"},"vehicle_type_id":"4","last_reported":1686899191,"current_range_meters":14800,"station_id":"ce4bgl92rcd13ifvqbq0","pricing_plan_id":"free"},{"bike_id":"6e19519d-0b59-447a-b3a5-1cbce9338ded","system_id":"levelo_inurba_marseille","lat":43.312239,"lon":5.368562,"is_reserved":false,"is_disabled":false,"rental_uris":{"android":"levelo://app?vid=6e19519d-0b59-447a-b3a5-1cbce9338ded","ios":"levelo://app?vid=6e19519d-0b59-447a-b3a5-1cbce9338ded"},"vehicle_type_id":"4","last_reported":1686899191,"current_range_meters":31200,"station_id":"ce4bgl92rcd13ifvqbq0","pricing_plan_id":"free"},{"bike_id":"cd4802ca-6c4e-4c55-b1dc-c1b0106790be","system_id":"levelo_inurba_marseille","lat":43.309076,"lon":5.368465,"is_reserved":false,"is_disabled":false,"rental_uris":{"android":"levelo://app?vid=cd4802ca-6c4e-4c55-b1dc-c1b0106790be","ios":"levelo://app?vid=cd4802ca-6c4e-4c55-b1dc-c1b0106790be"},"vehicle_type_id":"4","last_reported":1686899191,"current_range_meters":21200,"station_id":"ce4bgn92rcd13ifvqbvg","pricing_plan_id":"free"},{"bike_id":"b176e88c-f107-436e-bce0-ec3563b3edc3","system_id":"levelo_inurba_marseille","lat":43.309076,"lon":5.368465,"is_reserved":false,"is_disabled":false,"rental_uris":{"android":"levelo://app?vid=b176e88c-f107-436e-bce0-ec3563b3edc3","ios":"levelo://app?vid=b176e88c-f107-436e-bce0-ec3563b3edc3"},"vehicle_type_id":"4","last_reported":1686899191,"current_range_meters":21200,"station_id":"ce4bgn92rcd13ifvqbvg","pricing_plan_id":"free"},{"bike_id":"56127677-2690-4475-b7e4-5752c641d16a","system_id":"levelo_inurba_marseille","lat":43.309076,"lon":5.368465,"is_reserved":false,"is_disabled":false,"rental_uris":{"android":"levelo://app?vid=56127677-2690-4475-b7e4-5752c641d16a","ios":"levelo://app?vid=56127677-2690-4475-b7e4-5752c641d16a"},"vehicle_type_id":"4","last_reported":1686899191,"current_range_meters":31200,"station_id":"ce4bgn92rcd13ifvqbvg","pricing_plan_id":"free"},{"bike_id":"cb1a65d2-e534-4b9b-9b05-bd8fa0f8a76d","system_id":"levelo_inurba_marseille","lat":43.30917,"lon":5.36851,"is_reserved":false,"is_disabled":false,"rental_uris":{"android":"levelo://app?vid=cb1a65d2-e534-4b9b-9b05-bd8fa0f8a76d","ios":"levelo://app?vid=cb1a65d2-e534-4b9b-9b05-bd8fa0f8a76d"},"vehicle_type_id":"4","last_reported":1686899191,"current_range_meters":13600,"station_id":"ce4bgn92rcd13ifvqbvg","pricing_plan_id":"free"},{"bike_id":"6d61b43d-ab24-443f-9c22-f7ec6fc6ef0c","system_id":"levelo_inurba_marseille","lat":43.309076,"lon":5.368465,"is_reserved":false,"is_disabled":false,"rental_uris":{"android":"levelo://app?vid=6d61b43d-ab24-443f-9c22-f7ec6fc6ef0c","ios":"levelo://app?vid=6d61b43d-ab24-443f-9c22-f7ec6fc6ef0c"},"vehicle_type_id":"4","last_reported":1686899191,"current_range_meters":31200,"station_id":"ce4bgn92rcd13ifvqbvg","pricing_plan_id":"free"},{"bike_id":"f4359069-d719-46f0-887d-784661dd502e","system_id":"levelo_inurba_marseille","lat":43.309076,"lon":5.368465,"is_reserved":false,"is_disabled":false,"rental_uris":{"android":"levelo://app?vid=f4359069-d719-46f0-887d-784661dd502e","ios":"levelo://app?vid=f4359069-d719-46f0-887d-784661dd502e"},"vehicle_type_id":"4","last_reported":1686899191,"current_range_meters":29200,"station_id":"ce4bgn92rcd13ifvqbvg","pricing_plan_id":"free"},{"bike_id":"2cbb013a-4abc-412c-9169-6c93f3490362","system_id":"levelo_inurba_marseille","lat":43.309076,"lon":5.368465,"is_reserved":false,"is_disabled":false,"rental_uris":{"android":"levelo://app?vid=2cbb013a-4abc-412c-9169-6c93f3490362","ios":"levelo://app?vid=2cbb013a-4abc-412c-9169-6c93f3490362"},"vehicle_type_id":"4","last_reported":1686899191,"current_range_meters":12400,"station_id":"ce4bgn92rcd13ifvqbvg","pricing_plan_id":"free"},{"bike_id":"0caf4270-cf28-4834-8b0f-15acacedab09","system_id":"levelo_inurba_marseille","lat":43.309076,"lon":5.368465,"is_reserved":false,"is_disabled":false,"rental_uris":{"android":"levelo://app?vid=0caf4270-cf28-4834-8b0f-15acacedab09","ios":"levelo://app?vid=0caf4270-cf28-4834-8b0f-15acacedab09"},"vehicle_type_id":"4","last_reported":1686899191,"current_range_meters":26800,"station_id":"ce4bgn92rcd13ifvqbvg","pricing_plan_id":"free"},{"bike_id":"74bb7ab0-08c3-4abb-b457-d897d9e95962","system_id":"levelo_inurba_marseille","lat":43.309076,"lon":5.368465,"is_reserved":false,"is_disabled":false,"rental_uris":{"android":"levelo://app?vid=74bb7ab0-08c3-4abb-b457-d897d9e95962","ios":"levelo://app?vid=74bb7ab0-08c3-4abb-b457-d897d9e95962"},"vehicle_type_id":"4","last_reported":1686899191,"current_range_meters":29200,"station_id":"ce4bgn92rcd13ifvqbvg","pricing_plan_id":"free"},{"bike_id":"19e8d4a3-d5a5-4f43-afea-ab649b45f68f","system_id":"levelo_inurba_marseille","lat":43.309076,"lon":5.368465,"is_reserved":false,"is_disabled":false,"rental_uris":{"android":"levelo://app?vid=19e8d4a3-d5a5-4f43-afea-ab649b45f68f","ios":"levelo://app?vid=19e8d4a3-d5a5-4f43-afea-ab649b45f68f"},"vehicle_type_id":"4","last_reported":1686899191,"current_range_meters":16800,"station_id":"ce4bgn92rcd13ifvqbvg","pricing_plan_id":"free"},{"bike_id":"5d1c6f2c-2f63-4414-bd7e-db7fc571c39e","system_id":"levelo_inurba_marseille","lat":43.309076,"lon":5.368465,"is_reserved":false,"is_disabled":false,"rental_uris":{"android":"levelo://app?vid=5d1c6f2c-2f63-4414-bd7e-db7fc571c39e","ios":"levelo://app?vid=5d1c6f2c-2f63-4414-bd7e-db7fc571c39e"},"vehicle_type_id":"4","last_reported":1686899191,"current_range_meters":5600,"station_id":"ce4bgn92rcd13ifvqbvg","pricing_plan_id":"free"},{"bike_id":"9a68d88d-a0d0-4bbc-b1a3-8f0249175e95","system_id":"levelo_inurba_marseille","lat":43.309076,"lon":5.368465,"is_reserved":false,"is_disabled":false,"rental_uris":{"android":"levelo://app?vid=9a68d88d-a0d0-4bbc-b1a3-8f0249175e95","ios":"levelo://app?vid=9a68d88d-a0d0-4bbc-b1a3-8f0249175e95"},"vehicle_type_id":"4","last_reported":1686899191,"current_range_meters":11600,"station_id":"ce4bgn92rcd13ifvqbvg","pricing_plan_id":"free"},{"bike_id":"1e83135a-89aa-4260-b4ac-a182c1e9a906","system_id":"levelo_inurba_marseille","lat":43.31476,"lon":5.37295,"is_reserved":false,"is_disabled":false,"rental_uris":{"android":"levelo://app?vid=1e83135a-89aa-4260-b4ac-a182c1e9a906","ios":"levelo://app?vid=1e83135a-89aa-4260-b4ac-a182c1e9a906"},"vehicle_type_id":"4","last_reported":1686899191,"current_range_meters":30000,"station_id":"ce4bgt12rcd13ifvqcd0","pricing_plan_id":"free"},{"bike_id":"310a82ca-04a4-45b9-bfb0-120b23ba1ea4","system_id":"levelo_inurba_marseille","lat":43.314811,"lon":5.373103,"is_reserved":false,"is_disabled":false,"rental_uris":{"android":"levelo://app?vid=310a82ca-04a4-45b9-bfb0-120b23ba1ea4","ios":"levelo://app?vid=310a82ca-04a4-45b9-bfb0-120b23ba1ea4"},"vehicle_type_id":"4","last_reported":1686899191,"current_range_meters":31200,"station_id":"ce4bgt12rcd13ifvqcd0","pricing_plan_id":"free"},{"bike_id":"fbc48856-645f-4171-b0d7-8e96a12501c2","system_id":"levelo_inurba_marseille","lat":43.314811,"lon":5.373103,"is_reserved":false,"is_disabled":false,"rental_uris":{"android":"levelo://app?vid=fbc48856-645f-4171-b0d7-8e96a12501c2","ios":"levelo://app?vid=fbc48856-645f-4171-b0d7-8e96a12501c2"},"vehicle_type_id":"4","last_reported":1686899191,"current_range_meters":20000,"station_id":"ce4bgt12rcd13ifvqcd0","pricing_plan_id":"free"},{"bike_id":"4760fe37-3077-4fda-92a5-e44c00f09da5","system_id":"levelo_inurba_marseille","lat":43.314811,"lon":5.373104,"is_reserved":false,"is_disabled":false,"rental_uris":{"android":"levelo://app?vid=4760fe37-3077-4fda-92a5-e44c00f09da5","ios":"levelo://app?vid=4760fe37-3077-4fda-92a5-e44c00f09da5"},"vehicle_type_id":"4","last_reported":1686899191,"current_range_meters":30400,"station_id":"ce4bgt12rcd13ifvqcd0","pricing_plan_id":"free"},{"bike_id":"dd77339b-132f-4074-bad8-17ae55b61982","system_id":"levelo_inurba_marseille","lat":43.31486,"lon":5.37307,"is_reserved":false,"is_disabled":false,"rental_uris":{"android":"levelo://app?vid=dd77339b-132f-4074-bad8-17ae55b61982","ios":"levelo://app?vid=dd77339b-132f-4074-bad8-17ae55b61982"},"vehicle_type_id":"4","last_reported":1686899191,"current_range_meters":28400,"station_id":"ce4bgt12rcd13ifvqcd0","pricing_plan_id":"free"},{"bike_id":"35dfac89-b805-42ec-9d0f-6846ec2d45f7","system_id":"levelo_inurba_marseille","lat":43.314811,"lon":5.373104,"is_reserved":false,"is_disabled":false,"rental_uris":{"android":"levelo://app?vid=35dfac89-b805-42ec-9d0f-6846ec2d45f7","ios":"levelo://app?vid=35dfac89-b805-42ec-9d0f-6846ec2d45f7"},"vehicle_type_id":"4","last_reported":1686899191,"current_range_meters":31200,"station_id":"ce4bgt12rcd13ifvqcd0","pricing_plan_id":"free"},{"bike_id":"1a8f7d2f-c9ef-49fb-a30a-b52c6560cd3f","system_id":"levelo_inurba_marseille","lat":43.314811,"lon":5.373103,"is_reserved":false,"is_disabled":false,"rental_uris":{"android":"levelo://app?vid=1a8f7d2f-c9ef-49fb-a30a-b52c6560cd3f","ios":"levelo://app?vid=1a8f7d2f-c9ef-49fb-a30a-b52c6560cd3f"},"vehicle_type_id":"4","last_reported":1686899191,"current_range_meters":23200,"station_id":"ce4bgt12rcd13ifvqcd0","pricing_plan_id":"free"},{"bike_id":"49eaef91-6983-4c38-b461-29817b10bbc2","system_id":"levelo_inurba_marseille","lat":43.314811,"lon":5.373104,"is_reserved":false,"is_disabled":false,"rental_uris":{"android":"levelo://app?vid=49eaef91-6983-4c38-b461-29817b10bbc2","ios":"levelo://app?vid=49eaef91-6983-4c38-b461-29817b10bbc2"},"vehicle_type_id":"4","last_reported":1686899191,"current_range_meters":14400,"station_id":"ce4bgt12rcd13ifvqcd0","pricing_plan_id":"free"},{"bike_id":"cb1836ec-6159-41e7-84db-5c244ec132cd","system_id":"levelo_inurba_marseille","lat":43.314811,"lon":5.373104,"is_reserved":false,"is_disabled":false,"rental_uris":{"android":"levelo://app?vid=cb1836ec-6159-41e7-84db-5c244ec132cd","ios":"levelo://app?vid=cb1836ec-6159-41e7-84db-5c244ec132cd"},"vehicle_type_id":"4","last_reported":1686899191,"current_range_meters":29200,"station_id":"ce4bgt12rcd13ifvqcd0","pricing_plan_id":"free"},{"bike_id":"81fc00c2-2cab-4b20-9c27-d3a0b0524bd8","system_id":"levelo_inurba_marseille","lat":43.308606,"lon":5.372099,"is_reserved":false,"is_disabled":false,"rental_uris":{"android":"levelo://app?vid=81fc00c2-2cab-4b20-9c27-d3a0b0524bd8","ios":"levelo://app?vid=81fc00c2-2cab-4b20-9c27-d3a0b0524bd8"},"vehicle_type_id":"4","last_reported":1686899191,"current_range_meters":22400,"station_id":"ce4bguh2rcd13ifvqckg","pricing_plan_id":"free"},{"bike_id":"aebb6ed6-f73d-40c2-a5c7-83819bb8b6ed","system_id":"levelo_inurba_marseille","lat":43.305368,"lon":5.367343,"is_reserved":false,"is_disabled":false,"rental_uris":{"android":"levelo://app?vid=aebb6ed6-f73d-40c2-a5c7-83819bb8b6ed","ios":"levelo://app?vid=aebb6ed6-f73d-40c2-a5c7-83819bb8b6ed"},"vehicle_type_id":"4","last_reported":1686899191,"current_range_meters":20800,"station_id":"ce4bgrp2rcd13ifvqc9g","pricing_plan_id":"free"},{"bike_id":"e5203bea-61cb-4092-b606-f3fff67b8574","system_id":"levelo_inurba_marseille","lat":43.30542,"lon":5.36713,"is_reserved":false,"is_disabled":false,"rental_uris":{"android":"levelo://app?vid=e5203bea-61cb-4092-b606-f3fff67b8574","ios":"levelo://app?vid=e5203bea-61cb-4092-b606-f3fff67b8574"},"vehicle_type_id":"4","last_reported":1686899191,"current_range_meters":20800,"station_id":"ce4bgrp2rcd13ifvqc9g","pricing_plan_id":"free"},{"bike_id":"cc75fd88-57a5-4660-a0f1-8c044bfc9714","system_id":"levelo_inurba_marseille","lat":43.30537,"lon":5.36712,"is_reserved":false,"is_disabled":false,"rental_uris":{"android":"levelo://app?vid=cc75fd88-57a5-4660-a0f1-8c044bfc9714","ios":"levelo://app?vid=cc75fd88-57a5-4660-a0f1-8c044bfc9714"},"vehicle_type_id":"4","last_reported":1686899191,"current_range_meters":400,"station_id":"ce4bgrp2rcd13ifvqc9g","pricing_plan_id":"free"},{"bike_id":"c3926b5c-db60-4fe9-8a52-6235d3d4c8eb","system_id":"levelo_inurba_marseille","lat":43.305706,"lon":5.365654,"is_reserved":false,"is_disabled":false,"rental_uris":{"android":"levelo://app?vid=c3926b5c-db60-4fe9-8a52-6235d3d4c8eb","ios":"levelo://app?vid=c3926b5c-db60-4fe9-8a52-6235d3d4c8eb"},"vehicle_type_id":"4","last_reported":1686899191,"current_range_meters":26400,"station_id":"ce4bgs12rcd13ifvqcag","pricing_plan_id":"free"},{"bike_id":"876a2a68-f5f2-49a0-b499-d733a5206a48","system_id":"levelo_inurba_marseille","lat":43.305368,"lon":5.367343,"is_reserved":false,"is_disabled":false,"rental_uris":{"android":"levelo://app?vid=876a2a68-f5f2-49a0-b499-d733a5206a48","ios":"levelo://app?vid=876a2a68-f5f2-49a0-b499-d733a5206a48"},"vehicle_type_id":"4","last_reported":1686899191,"current_range_meters":25200,"station_id":"ce4bgrp2rcd13ifvqc9g","pricing_plan_id":"free"},{"bike_id":"7c14c38d-1928-4de6-8c50-f76a328fbc67","system_id":"levelo_inurba_marseille","lat":43.305368,"lon":5.367343,"is_reserved":false,"is_disabled":false,"rental_uris":{"android":"levelo://app?vid=7c14c38d-1928-4de6-8c50-f76a328fbc67","ios":"levelo://app?vid=7c14c38d-1928-4de6-8c50-f76a328fbc67"},"vehicle_type_id":"4","last_reported":1686899191,"current_range_meters":26400,"station_id":"ce4bgrp2rcd13ifvqc9g","pricing_plan_id":"free"},{"bike_id":"17e5eeed-f746-4fe8-8add-3d6caaa1f3ef","system_id":"levelo_inurba_marseille","lat":43.305706,"lon":5.365654,"is_reserved":false,"is_disabled":false,"rental_uris":{"android":"levelo://app?vid=17e5eeed-f746-4fe8-8add-3d6caaa1f3ef","ios":"levelo://app?vid=17e5eeed-f746-4fe8-8add-3d6caaa1f3ef"},"vehicle_type_id":"4","last_reported":1686899191,"current_range_meters":20400,"station_id":"ce4bgs12rcd13ifvqcag","pricing_plan_id":"free"},{"bike_id":"2583c68a-5f87-4971-ac30-c7a46e51a66c","system_id":"levelo_inurba_marseille","lat":43.305706,"lon":5.365654,"is_reserved":false,"is_disabled":false,"rental_uris":{"android":"levelo://app?vid=2583c68a-5f87-4971-ac30-c7a46e51a66c","ios":"levelo://app?vid=2583c68a-5f87-4971-ac30-c7a46e51a66c"},"vehicle_type_id":"4","last_reported":1686899191,"current_range_meters":8000,"station_id":"ce4bgs12rcd13ifvqcag","pricing_plan_id":"free"},{"bike_id":"210219e7-115d-45be-b1ba-85f1f708625d","system_id":"levelo_inurba_marseille","lat":43.305368,"lon":5.367343,"is_reserved":false,"is_disabled":false,"rental_uris":{"android":"levelo://app?vid=210219e7-115d-45be-b1ba-85f1f708625d","ios":"levelo://app?vid=210219e7-115d-45be-b1ba-85f1f708625d"},"vehicle_type_id":"4","last_reported":1686899191,"current_range_meters":24800,"station_id":"ce4bgrp2rcd13ifvqc9g","pricing_plan_id":"free"},{"bike_id":"c07808e5-c756-4234-bd9e-90c7fde4da45","system_id":"levelo_inurba_marseille","lat":43.311125,"lon":5.377624,"is_reserved":false,"is_disabled":false,"rental_uris":{"android":"levelo://app?vid=c07808e5-c756-4234-bd9e-90c7fde4da45","ios":"levelo://app?vid=c07808e5-c756-4234-bd9e-90c7fde4da45"},"vehicle_type_id":"4","last_reported":1686899191,"current_range_meters":29600,"station_id":"ce4bgt92rcd13ifvqcg0","pricing_plan_id":"free"},{"bike_id":"43466f13-7367-471d-a6ee-d156346e1fdc","system_id":"levelo_inurba_marseille","lat":43.317075,"lon":5.377367,"is_reserved":false,"is_disabled":false,"rental_uris":{"android":"levelo://app?vid=43466f13-7367-471d-a6ee-d156346e1fdc","ios":"levelo://app?vid=43466f13-7367-471d-a6ee-d156346e1fdc"},"vehicle_type_id":"4","last_reported":1686899191,"current_range_meters":26800,"station_id":"ce4bgth2rcd13ifvqch0","pricing_plan_id":"free"},{"bike_id":"270c4965-4372-486b-a721-1075517359ae","system_id":"levelo_inurba_marseille","lat":43.317075,"lon":5.377367,"is_reserved":false,"is_disabled":false,"rental_uris":{"android":"levelo://app?vid=270c4965-4372-486b-a721-1075517359ae","ios":"levelo://app?vid=270c4965-4372-486b-a721-1075517359ae"},"vehicle_type_id":"4","last_reported":1686899191,"current_range_meters":10000,"station_id":"ce4bgth2rcd13ifvqch0","pricing_plan_id":"free"},{"bike_id":"4d3fb41b-051b-4c4e-b0c1-2b092448da46","system_id":"levelo_inurba_marseille","lat":43.317075,"lon":5.377367,"is_reserved":false,"is_disabled":false,"rental_uris":{"android":"levelo://app?vid=4d3fb41b-051b-4c4e-b0c1-2b092448da46","ios":"levelo://app?vid=4d3fb41b-051b-4c4e-b0c1-2b092448da46"},"vehicle_type_id":"4","last_reported":1686899191,"current_range_meters":23600,"station_id":"ce4bgth2rcd13ifvqch0","pricing_plan_id":"free"},{"bike_id":"2424216c-0462-4ad0-b127-d0366c91b61c","system_id":"levelo_inurba_marseille","lat":43.317075,"lon":5.377367,"is_reserved":false,"is_disabled":false,"rental_uris":{"android":"levelo://app?vid=2424216c-0462-4ad0-b127-d0366c91b61c","ios":"levelo://app?vid=2424216c-0462-4ad0-b127-d0366c91b61c"},"vehicle_type_id":"4","last_reported":1686899191,"current_range_meters":31200,"station_id":"ce4bgth2rcd13ifvqch0","pricing_plan_id":"free"},{"bike_id":"6f602883-650a-4e96-8ea6-f09fbde140a3","system_id":"levelo_inurba_marseille","lat":43.303046,"lon":5.368981,"is_reserved":false,"is_disabled":false,"rental_uris":{"android":"levelo://app?vid=6f602883-650a-4e96-8ea6-f09fbde140a3","ios":"levelo://app?vid=6f602883-650a-4e96-8ea6-f09fbde140a3"},"vehicle_type_id":"4","last_reported":1686899191,"current_range_meters":23600,"station_id":"ce4bgqh2rcd13ifvqc5g","pricing_plan_id":"free"},{"bike_id":"a0966d2f-cf19-4afc-9d53-c48cd4250011","system_id":"levelo_inurba_marseille","lat":43.303046,"lon":5.368981,"is_reserved":false,"is_disabled":false,"rental_uris":{"android":"levelo://app?vid=a0966d2f-cf19-4afc-9d53-c48cd4250011","ios":"levelo://app?vid=a0966d2f-cf19-4afc-9d53-c48cd4250011"},"vehicle_type_id":"4","last_reported":1686899191,"current_range_meters":15600,"station_id":"ce4bgqh2rcd13ifvqc5g","pricing_plan_id":"free"},{"bike_id":"cf88d26b-006f-49cc-aba9-40dccfba9858","system_id":"levelo_inurba_marseille","lat":43.303046,"lon":5.368981,"is_reserved":false,"is_disabled":false,"rental_uris":{"android":"levelo://app?vid=cf88d26b-006f-49cc-aba9-40dccfba9858","ios":"levelo://app?vid=cf88d26b-006f-49cc-aba9-40dccfba9858"},"vehicle_type_id":"4","last_reported":1686899191,"current_range_meters":31200,"station_id":"ce4bgqh2rcd13ifvqc5g","pricing_plan_id":"free"},{"bike_id":"4bc264b8-d0b0-447c-a12b-f15c9f5515e6","system_id":"levelo_inurba_marseille","lat":43.303046,"lon":5.368981,"is_reserved":false,"is_disabled":false,"rental_uris":{"android":"levelo://app?vid=4bc264b8-d0b0-447c-a12b-f15c9f5515e6","ios":"levelo://app?vid=4bc264b8-d0b0-447c-a12b-f15c9f5515e6"},"vehicle_type_id":"4","last_reported":1686899191,"current_range_meters":30800,"station_id":"ce4bgqh2rcd13ifvqc5g","pricing_plan_id":"free"},{"bike_id":"d615bec8-d16a-4c36-8850-371d4102df2f","system_id":"levelo_inurba_marseille","lat":43.315289,"lon":5.380349,"is_reserved":false,"is_disabled":false,"rental_uris":{"android":"levelo://app?vid=d615bec8-d16a-4c36-8850-371d4102df2f","ios":"levelo://app?vid=d615bec8-d16a-4c36-8850-371d4102df2f"},"vehicle_type_id":"4","last_reported":1686899191,"current_range_meters":30800,"station_id":"ce4bhsp2rcd13ifvqi50","pricing_plan_id":"free"},{"bike_id":"7170a570-a6d0-47c4-aa28-4d171ddf30d1","system_id":"levelo_inurba_marseille","lat":43.315293,"lon":5.380349,"is_reserved":false,"is_disabled":false,"rental_uris":{"android":"levelo://app?vid=7170a570-a6d0-47c4-aa28-4d171ddf30d1","ios":"levelo://app?vid=7170a570-a6d0-47c4-aa28-4d171ddf30d1"},"vehicle_type_id":"4","last_reported":1686899191,"current_range_meters":8800,"station_id":"ce4bhsp2rcd13ifvqi50","pricing_plan_id":"free"},{"bike_id":"978b941c-c21b-4780-8ea8-aed08f2e09a3","system_id":"levelo_inurba_marseille","lat":43.31528,"lon":5.38029,"is_reserved":false,"is_disabled":false,"rental_uris":{"android":"levelo://app?vid=978b941c-c21b-4780-8ea8-aed08f2e09a3","ios":"levelo://app?vid=978b941c-c21b-4780-8ea8-aed08f2e09a3"},"vehicle_type_id":"4","last_reported":1686899191,"current_range_meters":14400,"station_id":"ce4bhsp2rcd13ifvqi50","pricing_plan_id":"free"},{"bike_id":"5ae2b31b-5738-4c93-a2fb-64e8edbc4b55","system_id":"levelo_inurba_marseille","lat":43.315289,"lon":5.380349,"is_reserved":false,"is_disabled":false,"rental_uris":{"android":"levelo://app?vid=5ae2b31b-5738-4c93-a2fb-64e8edbc4b55","ios":"levelo://app?vid=5ae2b31b-5738-4c93-a2fb-64e8edbc4b55"},"vehicle_type_id":"4","last_reported":1686899191,"current_range_meters":4400,"station_id":"ce4bhsp2rcd13ifvqi50","pricing_plan_id":"free"},{"bike_id":"cd8b6958-c31a-4a9d-8c48-cf838953f3b1","system_id":"levelo_inurba_marseille","lat":43.315289,"lon":5.380349,"is_reserved":false,"is_disabled":false,"rental_uris":{"android":"levelo://app?vid=cd8b6958-c31a-4a9d-8c48-cf838953f3b1","ios":"levelo://app?vid=cd8b6958-c31a-4a9d-8c48-cf838953f3b1"},"vehicle_type_id":"4","last_reported":1686899191,"current_range_meters":29200,"station_id":"ce4bhsp2rcd13ifvqi50","pricing_plan_id":"free"},{"bike_id":"bd2bf818-3004-4483-bea2-5dd0540f19bc","system_id":"levelo_inurba_marseille","lat":43.30175,"lon":5.36627,"is_reserved":false,"is_disabled":false,"rental_uris":{"android":"levelo://app?vid=bd2bf818-3004-4483-bea2-5dd0540f19bc","ios":"levelo://app?vid=bd2bf818-3004-4483-bea2-5dd0540f19bc"},"vehicle_type_id":"4","last_reported":1686899191,"current_range_meters":26800,"station_id":"ce4bgrh2rcd13ifvqc8g","pricing_plan_id":"free"},{"bike_id":"ae33307b-fcd5-479b-9ae1-9002ed226c6e","system_id":"levelo_inurba_marseille","lat":43.308012,"lon":5.381511,"is_reserved":false,"is_disabled":false,"rental_uris":{"android":"levelo://app?vid=ae33307b-fcd5-479b-9ae1-9002ed226c6e","ios":"levelo://app?vid=ae33307b-fcd5-479b-9ae1-9002ed226c6e"},"vehicle_type_id":"4","last_reported":1686899191,"current_range_meters":16000,"station_id":"ce4bgt12rcd13ifvqce0","pricing_plan_id":"free"},{"bike_id":"3dd66f46-a44f-4068-8a41-0b6f6cab618e","system_id":"levelo_inurba_marseille","lat":43.30468,"lon":5.37896,"is_reserved":false,"is_disabled":false,"rental_uris":{"android":"levelo://app?vid=3dd66f46-a44f-4068-8a41-0b6f6cab618e","ios":"levelo://app?vid=3dd66f46-a44f-4068-8a41-0b6f6cab618e"},"vehicle_type_id":"4","last_reported":1686899191,"current_range_meters":25200,"station_id":"ce4bgup2rcd13ifvqcn0","pricing_plan_id":"free"},{"bike_id":"617349fd-2619-458d-8095-1aae38fb67d1","system_id":"levelo_inurba_marseille","lat":43.30471,"lon":5.37904,"is_reserved":false,"is_disabled":false,"rental_uris":{"android":"levelo://app?vid=617349fd-2619-458d-8095-1aae38fb67d1","ios":"levelo://app?vid=617349fd-2619-458d-8095-1aae38fb67d1"},"vehicle_type_id":"4","last_reported":1686899191,"current_range_meters":15600,"station_id":"ce4bgup2rcd13ifvqcn0","pricing_plan_id":"free"},{"bike_id":"56e3e537-c580-48c0-babc-7f70f0e79a8c","system_id":"levelo_inurba_marseille","lat":43.30468,"lon":5.37901,"is_reserved":false,"is_disabled":false,"rental_uris":{"android":"levelo://app?vid=56e3e537-c580-48c0-babc-7f70f0e79a8c","ios":"levelo://app?vid=56e3e537-c580-48c0-babc-7f70f0e79a8c"},"vehicle_type_id":"4","last_reported":1686899191,"current_range_meters":31200,"station_id":"ce4bgup2rcd13ifvqcn0","pricing_plan_id":"free"},{"bike_id":"431a8fce-3732-4d5f-96a5-ddaa68b2e1a0","system_id":"levelo_inurba_marseille","lat":43.30465,"lon":5.37899,"is_reserved":false,"is_disabled":false,"rental_uris":{"android":"levelo://app?vid=431a8fce-3732-4d5f-96a5-ddaa68b2e1a0","ios":"levelo://app?vid=431a8fce-3732-4d5f-96a5-ddaa68b2e1a0"},"vehicle_type_id":"4","last_reported":1686899191,"current_range_meters":27200,"station_id":"ce4bgup2rcd13ifvqcn0","pricing_plan_id":"free"},{"bike_id":"5b250191-c124-4b1d-9fbb-ad3455bbc009","system_id":"levelo_inurba_marseille","lat":43.304606,"lon":5.379026,"is_reserved":false,"is_disabled":false,"rental_uris":{"android":"levelo://app?vid=5b250191-c124-4b1d-9fbb-ad3455bbc009","ios":"levelo://app?vid=5b250191-c124-4b1d-9fbb-ad3455bbc009"},"vehicle_type_id":"4","last_reported":1686899191,"current_range_meters":29200,"station_id":"ce4bgup2rcd13ifvqcn0","pricing_plan_id":"free"},{"bike_id":"1544a31b-ff34-40b8-aa05-5d1ca58a822f","system_id":"levelo_inurba_marseille","lat":43.304661,"lon":5.379019,"is_reserved":false,"is_disabled":false,"rental_uris":{"android":"levelo://app?vid=1544a31b-ff34-40b8-aa05-5d1ca58a822f","ios":"levelo://app?vid=1544a31b-ff34-40b8-aa05-5d1ca58a822f"},"vehicle_type_id":"4","last_reported":1686899191,"current_range_meters":400,"station_id":"","pricing_plan_id":"free"},{"bike_id":"c2a032e0-f4b0-4eda-962f-940d57c500c9","system_id":"levelo_inurba_marseille","lat":43.30465,"lon":5.37901,"is_reserved":false,"is_disabled":false,"rental_uris":{"android":"levelo://app?vid=c2a032e0-f4b0-4eda-962f-940d57c500c9","ios":"levelo://app?vid=c2a032e0-f4b0-4eda-962f-940d57c500c9"},"vehicle_type_id":"4","last_reported":1686899191,"current_range_meters":6400,"station_id":"ce4bgup2rcd13ifvqcn0","pricing_plan_id":"free"},{"bike_id":"34429afd-bad4-4a23-a75c-13e1aac1ae52","system_id":"levelo_inurba_marseille","lat":43.304606,"lon":5.379026,"is_reserved":false,"is_disabled":false,"rental_uris":{"android":"levelo://app?vid=34429afd-bad4-4a23-a75c-13e1aac1ae52","ios":"levelo://app?vid=34429afd-bad4-4a23-a75c-13e1aac1ae52"},"vehicle_type_id":"4","last_reported":1686899191,"current_range_meters":22400,"station_id":"ce4bgup2rcd13ifvqcn0","pricing_plan_id":"free"},{"bike_id":"41885ce4-e08c-4f4a-9ef9-6945743fcd49","system_id":"levelo_inurba_marseille","lat":43.304606,"lon":5.379026,"is_reserved":false,"is_disabled":false,"rental_uris":{"android":"levelo://app?vid=41885ce4-e08c-4f4a-9ef9-6945743fcd49","ios":"levelo://app?vid=41885ce4-e08c-4f4a-9ef9-6945743fcd49"},"vehicle_type_id":"4","last_reported":1686899191,"current_range_meters":26000,"station_id":"ce4bgup2rcd13ifvqcn0","pricing_plan_id":"free"},{"bike_id":"0ee7bd70-92af-4635-a714-60603bff28b7","system_id":"levelo_inurba_marseille","lat":43.30463,"lon":5.379,"is_reserved":false,"is_disabled":false,"rental_uris":{"android":"levelo://app?vid=0ee7bd70-92af-4635-a714-60603bff28b7","ios":"levelo://app?vid=0ee7bd70-92af-4635-a714-60603bff28b7"},"vehicle_type_id":"4","last_reported":1686899191,"current_range_meters":24800,"station_id":"ce4bgup2rcd13ifvqcn0","pricing_plan_id":"free"},{"bike_id":"0d90b0d8-7726-4669-9c57-e5fb61d1fa02","system_id":"levelo_inurba_marseille","lat":43.304606,"lon":5.379026,"is_reserved":false,"is_disabled":false,"rental_uris":{"android":"levelo://app?vid=0d90b0d8-7726-4669-9c57-e5fb61d1fa02","ios":"levelo://app?vid=0d90b0d8-7726-4669-9c57-e5fb61d1fa02"},"vehicle_type_id":"4","last_reported":1686899191,"current_range_meters":26400,"station_id":"ce4bgup2rcd13ifvqcn0","pricing_plan_id":"free"},{"bike_id":"9c3f7ef8-6722-45a0-8c42-d2cd51ca2285","system_id":"levelo_inurba_marseille","lat":43.30464,"lon":5.37902,"is_reserved":false,"is_disabled":false,"rental_uris":{"android":"levelo://app?vid=9c3f7ef8-6722-45a0-8c42-d2cd51ca2285","ios":"levelo://app?vid=9c3f7ef8-6722-45a0-8c42-d2cd51ca2285"},"vehicle_type_id":"4","last_reported":1686899191,"current_range_meters":29200,"station_id":"ce4bgup2rcd13ifvqcn0","pricing_plan_id":"free"},{"bike_id":"32827146-2d6b-4fb1-b00e-6b2f535ca544","system_id":"levelo_inurba_marseille","lat":43.304606,"lon":5.379026,"is_reserved":false,"is_disabled":false,"rental_uris":{"android":"levelo://app?vid=32827146-2d6b-4fb1-b00e-6b2f535ca544","ios":"levelo://app?vid=32827146-2d6b-4fb1-b00e-6b2f535ca544"},"vehicle_type_id":"4","last_reported":1686899191,"current_range_meters":31200,"station_id":"ce4bgup2rcd13ifvqcn0","pricing_plan_id":"free"},{"bike_id":"fc4a69da-5dee-4c68-8631-20ee11bc487b","system_id":"levelo_inurba_marseille","lat":43.30463,"lon":5.37904,"is_reserved":false,"is_disabled":false,"rental_uris":{"android":"levelo://app?vid=fc4a69da-5dee-4c68-8631-20ee11bc487b","ios":"levelo://app?vid=fc4a69da-5dee-4c68-8631-20ee11bc487b"},"vehicle_type_id":"4","last_reported":1686899191,"current_range_meters":29600,"station_id":"ce4bgup2rcd13ifvqcn0","pricing_plan_id":"free"},{"bike_id":"7fb1d988-4f7a-4207-958c-78d3e55066ef","system_id":"levelo_inurba_marseille","lat":43.30464,"lon":5.37906,"is_reserved":false,"is_disabled":false,"rental_uris":{"android":"levelo://app?vid=7fb1d988-4f7a-4207-958c-78d3e55066ef","ios":"levelo://app?vid=7fb1d988-4f7a-4207-958c-78d3e55066ef"},"vehicle_type_id":"4","last_reported":1686899191,"current_range_meters":21200,"station_id":"ce4bgup2rcd13ifvqcn0","pricing_plan_id":"free"},{"bike_id":"42709a38-a70f-40fe-b527-7dec91bfc38f","system_id":"levelo_inurba_marseille","lat":43.30464,"lon":5.37907,"is_reserved":false,"is_disabled":false,"rental_uris":{"android":"levelo://app?vid=42709a38-a70f-40fe-b527-7dec91bfc38f","ios":"levelo://app?vid=42709a38-a70f-40fe-b527-7dec91bfc38f"},"vehicle_type_id":"4","last_reported":1686899191,"current_range_meters":30000,"station_id":"ce4bgup2rcd13ifvqcn0","pricing_plan_id":"free"},{"bike_id":"965eaf82-6c18-495d-a692-61d8c4da73c9","system_id":"levelo_inurba_marseille","lat":43.30462,"lon":5.37906,"is_reserved":false,"is_disabled":false,"rental_uris":{"android":"levelo://app?vid=965eaf82-6c18-495d-a692-61d8c4da73c9","ios":"levelo://app?vid=965eaf82-6c18-495d-a692-61d8c4da73c9"},"vehicle_type_id":"4","last_reported":1686899191,"current_range_meters":26400,"station_id":"ce4bgup2rcd13ifvqcn0","pricing_plan_id":"free"},{"bike_id":"7ee1b6bd-d1e5-43c9-b289-bf39528031e3","system_id":"levelo_inurba_marseille","lat":43.304606,"lon":5.379026,"is_reserved":false,"is_disabled":false,"rental_uris":{"android":"levelo://app?vid=7ee1b6bd-d1e5-43c9-b289-bf39528031e3","ios":"levelo://app?vid=7ee1b6bd-d1e5-43c9-b289-bf39528031e3"},"vehicle_type_id":"4","last_reported":1686899191,"current_range_meters":30400,"station_id":"ce4bgup2rcd13ifvqcn0","pricing_plan_id":"free"},{"bike_id":"7a01bdb2-4fc8-4229-b121-b18e40378d52","system_id":"levelo_inurba_marseille","lat":43.304606,"lon":5.379026,"is_reserved":false,"is_disabled":false,"rental_uris":{"android":"levelo://app?vid=7a01bdb2-4fc8-4229-b121-b18e40378d52","ios":"levelo://app?vid=7a01bdb2-4fc8-4229-b121-b18e40378d52"},"vehicle_type_id":"4","last_reported":1686899191,"current_range_meters":31600,"station_id":"ce4bgup2rcd13ifvqcn0","pricing_plan_id":"free"},{"bike_id":"03702fb4-ffa1-4a3e-bfad-983a6c4c743d","system_id":"levelo_inurba_marseille","lat":43.304606,"lon":5.379026,"is_reserved":false,"is_disabled":false,"rental_uris":{"android":"levelo://app?vid=03702fb4-ffa1-4a3e-bfad-983a6c4c743d","ios":"levelo://app?vid=03702fb4-ffa1-4a3e-bfad-983a6c4c743d"},"vehicle_type_id":"4","last_reported":1686899191,"current_range_meters":28800,"station_id":"ce4bgup2rcd13ifvqcn0","pricing_plan_id":"free"},{"bike_id":"0506c595-6aba-453b-9c48-3ebcb96bfdc9","system_id":"levelo_inurba_marseille","lat":43.302784,"lon":5.377158,"is_reserved":false,"is_disabled":false,"rental_uris":{"android":"levelo://app?vid=0506c595-6aba-453b-9c48-3ebcb96bfdc9","ios":"levelo://app?vid=0506c595-6aba-453b-9c48-3ebcb96bfdc9"},"vehicle_type_id":"4","last_reported":1686899191,"current_range_meters":17600,"station_id":"ce4bguh2rcd13ifvqcj0","pricing_plan_id":"free"},{"bike_id":"c91be670-1187-42bf-932d-7928f5c57fe2","system_id":"levelo_inurba_marseille","lat":43.30143,"lon":5.37416,"is_reserved":false,"is_disabled":false,"rental_uris":{"android":"levelo://app?vid=c91be670-1187-42bf-932d-7928f5c57fe2","ios":"levelo://app?vid=c91be670-1187-42bf-932d-7928f5c57fe2"},"vehicle_type_id":"4","last_reported":1686899191,"current_range_meters":14000,"station_id":"ce4bgs92rcd13ifvqcc0","pricing_plan_id":"free"},{"bike_id":"4df00798-9054-4008-8a65-c2da9b76bb09","system_id":"levelo_inurba_marseille","lat":43.30144,"lon":5.37419,"is_reserved":false,"is_disabled":false,"rental_uris":{"android":"levelo://app?vid=4df00798-9054-4008-8a65-c2da9b76bb09","ios":"levelo://app?vid=4df00798-9054-4008-8a65-c2da9b76bb09"},"vehicle_type_id":"4","last_reported":1686899191,"current_range_meters":31200,"station_id":"ce4bgs92rcd13ifvqcc0","pricing_plan_id":"free"},{"bike_id":"5a3fdd03-66a0-4e98-b49c-f3069172bc35","system_id":"levelo_inurba_marseille","lat":43.30143,"lon":5.37422,"is_reserved":false,"is_disabled":false,"rental_uris":{"android":"levelo://app?vid=5a3fdd03-66a0-4e98-b49c-f3069172bc35","ios":"levelo://app?vid=5a3fdd03-66a0-4e98-b49c-f3069172bc35"},"vehicle_type_id":"4","last_reported":1686899191,"current_range_meters":4800,"station_id":"ce4bgs92rcd13ifvqcc0","pricing_plan_id":"free"},{"bike_id":"c3779530-12e1-466b-abc7-2ac4d54aa712","system_id":"levelo_inurba_marseille","lat":43.3014,"lon":5.37416,"is_reserved":false,"is_disabled":false,"rental_uris":{"android":"levelo://app?vid=c3779530-12e1-466b-abc7-2ac4d54aa712","ios":"levelo://app?vid=c3779530-12e1-466b-abc7-2ac4d54aa712"},"vehicle_type_id":"4","last_reported":1686899191,"current_range_meters":21600,"station_id":"ce4bgs92rcd13ifvqcc0","pricing_plan_id":"free"},{"bike_id":"ef40bbc7-d4b5-41ee-b788-fbe71491f328","system_id":"levelo_inurba_marseille","lat":43.30136,"lon":5.37413,"is_reserved":false,"is_disabled":false,"rental_uris":{"android":"levelo://app?vid=ef40bbc7-d4b5-41ee-b788-fbe71491f328","ios":"levelo://app?vid=ef40bbc7-d4b5-41ee-b788-fbe71491f328"},"vehicle_type_id":"4","last_reported":1686899191,"current_range_meters":19600,"station_id":"ce4bgs92rcd13ifvqcc0","pricing_plan_id":"free"},{"bike_id":"5f150133-f7b5-4268-a25e-35e6bb86a77d","system_id":"levelo_inurba_marseille","lat":43.30136,"lon":5.37414,"is_reserved":false,"is_disabled":false,"rental_uris":{"android":"levelo://app?vid=5f150133-f7b5-4268-a25e-35e6bb86a77d","ios":"levelo://app?vid=5f150133-f7b5-4268-a25e-35e6bb86a77d"},"vehicle_type_id":"4","last_reported":1686899191,"current_range_meters":20800,"station_id":"ce4bgs92rcd13ifvqcc0","pricing_plan_id":"free"},{"bike_id":"cc27f62f-f09f-4119-b8ab-191d98c39a1a","system_id":"levelo_inurba_marseille","lat":43.30143,"lon":5.37413,"is_reserved":false,"is_disabled":false,"rental_uris":{"android":"levelo://app?vid=cc27f62f-f09f-4119-b8ab-191d98c39a1a","ios":"levelo://app?vid=cc27f62f-f09f-4119-b8ab-191d98c39a1a"},"vehicle_type_id":"4","last_reported":1686899191,"current_range_meters":31200,"station_id":"ce4bgs92rcd13ifvqcc0","pricing_plan_id":"free"},{"bike_id":"2caf7822-c8ea-4282-9757-39ceeff86a15","system_id":"levelo_inurba_marseille","lat":43.30138,"lon":5.37422,"is_reserved":false,"is_disabled":false,"rental_uris":{"android":"levelo://app?vid=2caf7822-c8ea-4282-9757-39ceeff86a15","ios":"levelo://app?vid=2caf7822-c8ea-4282-9757-39ceeff86a15"},"vehicle_type_id":"4","last_reported":1686899191,"current_range_meters":29600,"station_id":"ce4bgs92rcd13ifvqcc0","pricing_plan_id":"free"},{"bike_id":"cfae5b69-0590-4555-a26c-805dbe7911d1","system_id":"levelo_inurba_marseille","lat":43.30133,"lon":5.37409,"is_reserved":false,"is_disabled":false,"rental_uris":{"android":"levelo://app?vid=cfae5b69-0590-4555-a26c-805dbe7911d1","ios":"levelo://app?vid=cfae5b69-0590-4555-a26c-805dbe7911d1"},"vehicle_type_id":"4","last_reported":1686899191,"current_range_meters":13600,"station_id":"ce4bgs92rcd13ifvqcc0","pricing_plan_id":"free"},{"bike_id":"0398e967-87c3-48af-847a-45286ef0f743","system_id":"levelo_inurba_marseille","lat":43.30133,"lon":5.37416,"is_reserved":false,"is_disabled":false,"rental_uris":{"android":"levelo://app?vid=0398e967-87c3-48af-847a-45286ef0f743","ios":"levelo://app?vid=0398e967-87c3-48af-847a-45286ef0f743"},"vehicle_type_id":"4","last_reported":1686899191,"current_range_meters":24000,"station_id":"ce4bgs92rcd13ifvqcc0","pricing_plan_id":"free"},{"bike_id":"7327afa7-2fad-4a01-aeb9-a9d14bfbe769","system_id":"levelo_inurba_marseille","lat":43.319935,"lon":5.381699,"is_reserved":false,"is_disabled":false,"rental_uris":{"android":"levelo://app?vid=7327afa7-2fad-4a01-aeb9-a9d14bfbe769","ios":"levelo://app?vid=7327afa7-2fad-4a01-aeb9-a9d14bfbe769"},"vehicle_type_id":"4","last_reported":1686899191,"current_range_meters":12000,"station_id":"ce4bhr12rcd13ifvqhpg","pricing_plan_id":"free"},{"bike_id":"8915037a-70dd-41ae-ac31-da3ccea0cd8d","system_id":"levelo_inurba_marseille","lat":43.319935,"lon":5.381699,"is_reserved":false,"is_disabled":false,"rental_uris":{"android":"levelo://app?vid=8915037a-70dd-41ae-ac31-da3ccea0cd8d","ios":"levelo://app?vid=8915037a-70dd-41ae-ac31-da3ccea0cd8d"},"vehicle_type_id":"4","last_reported":1686899191,"current_range_meters":26400,"station_id":"ce4bhr12rcd13ifvqhpg","pricing_plan_id":"free"},{"bike_id":"c362f0e8-0431-494c-8f4e-329091583422","system_id":"levelo_inurba_marseille","lat":43.319935,"lon":5.381699,"is_reserved":false,"is_disabled":false,"rental_uris":{"android":"levelo://app?vid=c362f0e8-0431-494c-8f4e-329091583422","ios":"levelo://app?vid=c362f0e8-0431-494c-8f4e-329091583422"},"vehicle_type_id":"4","last_reported":1686899191,"current_range_meters":25600,"station_id":"ce4bhr12rcd13ifvqhpg","pricing_plan_id":"free"},{"bike_id":"14a08899-349d-4c49-bd20-7204a0b2cd69","system_id":"levelo_inurba_marseille","lat":43.319935,"lon":5.381699,"is_reserved":false,"is_disabled":false,"rental_uris":{"android":"levelo://app?vid=14a08899-349d-4c49-bd20-7204a0b2cd69","ios":"levelo://app?vid=14a08899-349d-4c49-bd20-7204a0b2cd69"},"vehicle_type_id":"4","last_reported":1686899191,"current_range_meters":25600,"station_id":"ce4bhr12rcd13ifvqhpg","pricing_plan_id":"free"},{"bike_id":"7917de1b-4403-4a43-b30b-52ac43236b65","system_id":"levelo_inurba_marseille","lat":43.319935,"lon":5.381699,"is_reserved":false,"is_disabled":false,"rental_uris":{"android":"levelo://app?vid=7917de1b-4403-4a43-b30b-52ac43236b65","ios":"levelo://app?vid=7917de1b-4403-4a43-b30b-52ac43236b65"},"vehicle_type_id":"4","last_reported":1686899191,"current_range_meters":30000,"station_id":"ce4bhr12rcd13ifvqhpg","pricing_plan_id":"free"},{"bike_id":"9467db5d-6592-4a62-ad0c-ba36d7003010","system_id":"levelo_inurba_marseille","lat":43.31994,"lon":5.38151,"is_reserved":false,"is_disabled":false,"rental_uris":{"android":"levelo://app?vid=9467db5d-6592-4a62-ad0c-ba36d7003010","ios":"levelo://app?vid=9467db5d-6592-4a62-ad0c-ba36d7003010"},"vehicle_type_id":"4","last_reported":1686899191,"current_range_meters":28800,"station_id":"ce4bhr12rcd13ifvqhpg","pricing_plan_id":"free"},{"bike_id":"973279cd-48b3-4da5-b019-6bde256ffa58","system_id":"levelo_inurba_marseille","lat":43.319935,"lon":5.381699,"is_reserved":false,"is_disabled":false,"rental_uris":{"android":"levelo://app?vid=973279cd-48b3-4da5-b019-6bde256ffa58","ios":"levelo://app?vid=973279cd-48b3-4da5-b019-6bde256ffa58"},"vehicle_type_id":"4","last_reported":1686899191,"current_range_meters":26800,"station_id":"ce4bhr12rcd13ifvqhpg","pricing_plan_id":"free"},{"bike_id":"198bae8d-6834-40cc-a9ce-3ee14b42cb27","system_id":"levelo_inurba_marseille","lat":43.319935,"lon":5.381699,"is_reserved":false,"is_disabled":false,"rental_uris":{"android":"levelo://app?vid=198bae8d-6834-40cc-a9ce-3ee14b42cb27","ios":"levelo://app?vid=198bae8d-6834-40cc-a9ce-3ee14b42cb27"},"vehicle_type_id":"4","last_reported":1686899191,"current_range_meters":8000,"station_id":"ce4bhr12rcd13ifvqhpg","pricing_plan_id":"free"},{"bike_id":"8f121354-d4eb-42a6-9698-d328e1b7015f","system_id":"levelo_inurba_marseille","lat":43.313571,"lon":5.384829,"is_reserved":false,"is_disabled":false,"rental_uris":{"android":"levelo://app?vid=8f121354-d4eb-42a6-9698-d328e1b7015f","ios":"levelo://app?vid=8f121354-d4eb-42a6-9698-d328e1b7015f"},"vehicle_type_id":"4","last_reported":1686899191,"current_range_meters":29600,"station_id":"ce4bgt92rcd13ifvqcf0","pricing_plan_id":"free"},{"bike_id":"c3b8ce03-c733-4ceb-bd1f-743e6ce6d59a","system_id":"levelo_inurba_marseille","lat":43.298433,"lon":5.362774,"is_reserved":false,"is_disabled":false,"rental_uris":{"android":"levelo://app?vid=c3b8ce03-c733-4ceb-bd1f-743e6ce6d59a","ios":"levelo://app?vid=c3b8ce03-c733-4ceb-bd1f-743e6ce6d59a"},"vehicle_type_id":"4","last_reported":1686899191,"current_range_meters":16800,"station_id":"ce4bgpp2rcd13ifvqc3g","pricing_plan_id":"free"},{"bike_id":"46b7e46d-21f5-4dda-8797-d766547fe7dc","system_id":"levelo_inurba_marseille","lat":43.298433,"lon":5.362774,"is_reserved":false,"is_disabled":false,"rental_uris":{"android":"levelo://app?vid=46b7e46d-21f5-4dda-8797-d766547fe7dc","ios":"levelo://app?vid=46b7e46d-21f5-4dda-8797-d766547fe7dc"},"vehicle_type_id":"4","last_reported":1686899191,"current_range_meters":18800,"station_id":"ce4bgpp2rcd13ifvqc3g","pricing_plan_id":"free"},{"bike_id":"407d3c40-1004-4f24-87d1-1582126a7891","system_id":"levelo_inurba_marseille","lat":43.298433,"lon":5.362774,"is_reserved":false,"is_disabled":false,"rental_uris":{"android":"levelo://app?vid=407d3c40-1004-4f24-87d1-1582126a7891","ios":"levelo://app?vid=407d3c40-1004-4f24-87d1-1582126a7891"},"vehicle_type_id":"4","last_reported":1686899191,"current_range_meters":29200,"station_id":"ce4bgpp2rcd13ifvqc3g","pricing_plan_id":"free"},{"bike_id":"99c8dfe4-171c-40a3-bcbd-6b7b774e31a3","system_id":"levelo_inurba_marseille","lat":43.298433,"lon":5.362774,"is_reserved":false,"is_disabled":false,"rental_uris":{"android":"levelo://app?vid=99c8dfe4-171c-40a3-bcbd-6b7b774e31a3","ios":"levelo://app?vid=99c8dfe4-171c-40a3-bcbd-6b7b774e31a3"},"vehicle_type_id":"4","last_reported":1686899191,"current_range_meters":11600,"station_id":"ce4bgpp2rcd13ifvqc3g","pricing_plan_id":"free"},{"bike_id":"43045b46-54de-42b3-a1d1-af8a48940fd0","system_id":"levelo_inurba_marseille","lat":43.311722,"lon":5.387247,"is_reserved":false,"is_disabled":false,"rental_uris":{"android":"levelo://app?vid=43045b46-54de-42b3-a1d1-af8a48940fd0","ios":"levelo://app?vid=43045b46-54de-42b3-a1d1-af8a48940fd0"},"vehicle_type_id":"4","last_reported":1686899191,"current_range_meters":11600,"station_id":"ce4bgv12rcd13ifvqcp0","pricing_plan_id":"free"},{"bike_id":"0c3c0d2c-2b2f-4ebf-9958-675b9dbe0ee2","system_id":"levelo_inurba_marseille","lat":43.298433,"lon":5.362774,"is_reserved":false,"is_disabled":false,"rental_uris":{"android":"levelo://app?vid=0c3c0d2c-2b2f-4ebf-9958-675b9dbe0ee2","ios":"levelo://app?vid=0c3c0d2c-2b2f-4ebf-9958-675b9dbe0ee2"},"vehicle_type_id":"4","last_reported":1686899191,"current_range_meters":22400,"station_id":"ce4bgpp2rcd13ifvqc3g","pricing_plan_id":"free"},{"bike_id":"e047e3ce-0c86-4e47-874c-5fd52f193231","system_id":"levelo_inurba_marseille","lat":43.29916,"lon":5.37479,"is_reserved":false,"is_disabled":false,"rental_uris":{"android":"levelo://app?vid=e047e3ce-0c86-4e47-874c-5fd52f193231","ios":"levelo://app?vid=e047e3ce-0c86-4e47-874c-5fd52f193231"},"vehicle_type_id":"4","last_reported":1686899191,"current_range_meters":27600,"station_id":"ce4bgjh2rcd13ifvqbg0","pricing_plan_id":"free"},{"bike_id":"23247208-77ca-4961-b1cc-33cadd5a25c4","system_id":"levelo_inurba_marseille","lat":43.299243,"lon":5.37481,"is_reserved":false,"is_disabled":false,"rental_uris":{"android":"levelo://app?vid=23247208-77ca-4961-b1cc-33cadd5a25c4","ios":"levelo://app?vid=23247208-77ca-4961-b1cc-33cadd5a25c4"},"vehicle_type_id":"4","last_reported":1686899191,"current_range_meters":13600,"station_id":"ce4bgjh2rcd13ifvqbg0","pricing_plan_id":"free"},{"bike_id":"aef008e4-a962-4ba3-90d6-a32d524cbbb9","system_id":"levelo_inurba_marseille","lat":43.29798,"lon":5.36291,"is_reserved":false,"is_disabled":false,"rental_uris":{"android":"levelo://app?vid=aef008e4-a962-4ba3-90d6-a32d524cbbb9","ios":"levelo://app?vid=aef008e4-a962-4ba3-90d6-a32d524cbbb9"},"vehicle_type_id":"4","last_reported":1686899191,"current_range_meters":16800,"station_id":"","pricing_plan_id":"free"},{"bike_id":"503bf12e-ab91-456a-a960-7d3882db997f","system_id":"levelo_inurba_marseille","lat":43.297774,"lon":5.370875,"is_reserved":false,"is_disabled":false,"rental_uris":{"android":"levelo://app?vid=503bf12e-ab91-456a-a960-7d3882db997f","ios":"levelo://app?vid=503bf12e-ab91-456a-a960-7d3882db997f"},"vehicle_type_id":"4","last_reported":1686899191,"current_range_meters":14400,"station_id":"ce4bgop2rcd13ifvqc1g","pricing_plan_id":"free"},{"bike_id":"03e9a019-d793-471d-97f4-4dc9ce4dbf5c","system_id":"levelo_inurba_marseille","lat":43.297794,"lon":5.370888,"is_reserved":false,"is_disabled":false,"rental_uris":{"android":"levelo://app?vid=03e9a019-d793-471d-97f4-4dc9ce4dbf5c","ios":"levelo://app?vid=03e9a019-d793-471d-97f4-4dc9ce4dbf5c"},"vehicle_type_id":"4","last_reported":1686899191,"current_range_meters":30400,"station_id":"ce4bgop2rcd13ifvqc1g","pricing_plan_id":"free"},{"bike_id":"6e64a865-20a0-4e00-af53-d6d2914b1c82","system_id":"levelo_inurba_marseille","lat":43.297794,"lon":5.370888,"is_reserved":false,"is_disabled":false,"rental_uris":{"android":"levelo://app?vid=6e64a865-20a0-4e00-af53-d6d2914b1c82","ios":"levelo://app?vid=6e64a865-20a0-4e00-af53-d6d2914b1c82"},"vehicle_type_id":"4","last_reported":1686899191,"current_range_meters":24000,"station_id":"ce4bgop2rcd13ifvqc1g","pricing_plan_id":"free"},{"bike_id":"abbe991a-1ccd-4209-89cb-b8efe99a4de8","system_id":"levelo_inurba_marseille","lat":43.297774,"lon":5.370875,"is_reserved":false,"is_disabled":false,"rental_uris":{"android":"levelo://app?vid=abbe991a-1ccd-4209-89cb-b8efe99a4de8","ios":"levelo://app?vid=abbe991a-1ccd-4209-89cb-b8efe99a4de8"},"vehicle_type_id":"4","last_reported":1686899191,"current_range_meters":24000,"station_id":"ce4bgop2rcd13ifvqc1g","pricing_plan_id":"free"},{"bike_id":"3be30c03-080f-4c07-b04f-11bb003c8dc7","system_id":"levelo_inurba_marseille","lat":43.297774,"lon":5.370875,"is_reserved":false,"is_disabled":false,"rental_uris":{"android":"levelo://app?vid=3be30c03-080f-4c07-b04f-11bb003c8dc7","ios":"levelo://app?vid=3be30c03-080f-4c07-b04f-11bb003c8dc7"},"vehicle_type_id":"4","last_reported":1686899191,"current_range_meters":6800,"station_id":"ce4bgop2rcd13ifvqc1g","pricing_plan_id":"free"},{"bike_id":"099d5bc2-fb7d-4f93-b471-20300fd63a04","system_id":"levelo_inurba_marseille","lat":43.328371,"lon":5.366909,"is_reserved":false,"is_disabled":false,"rental_uris":{"android":"levelo://app?vid=099d5bc2-fb7d-4f93-b471-20300fd63a04","ios":"levelo://app?vid=099d5bc2-fb7d-4f93-b471-20300fd63a04"},"vehicle_type_id":"4","last_reported":1686899191,"current_range_meters":21200,"station_id":"ce4bhs92rcd13ifvqi0g","pricing_plan_id":"free"},{"bike_id":"b03d88f8-bf3f-46ac-9bbf-b15e89df07c3","system_id":"levelo_inurba_marseille","lat":43.328371,"lon":5.366909,"is_reserved":false,"is_disabled":false,"rental_uris":{"android":"levelo://app?vid=b03d88f8-bf3f-46ac-9bbf-b15e89df07c3","ios":"levelo://app?vid=b03d88f8-bf3f-46ac-9bbf-b15e89df07c3"},"vehicle_type_id":"4","last_reported":1686899191,"current_range_meters":11200,"station_id":"ce4bhs92rcd13ifvqi0g","pricing_plan_id":"free"},{"bike_id":"caf0a7b0-f3a0-4710-8d90-6272753042cf","system_id":"levelo_inurba_marseille","lat":43.328371,"lon":5.366909,"is_reserved":false,"is_disabled":false,"rental_uris":{"android":"levelo://app?vid=caf0a7b0-f3a0-4710-8d90-6272753042cf","ios":"levelo://app?vid=caf0a7b0-f3a0-4710-8d90-6272753042cf"},"vehicle_type_id":"4","last_reported":1686899191,"current_range_meters":25200,"station_id":"ce4bhs92rcd13ifvqi0g","pricing_plan_id":"free"},{"bike_id":"d8ab7120-5db4-4f8a-92b5-f55006e30150","system_id":"levelo_inurba_marseille","lat":43.328371,"lon":5.366909,"is_reserved":false,"is_disabled":false,"rental_uris":{"android":"levelo://app?vid=d8ab7120-5db4-4f8a-92b5-f55006e30150","ios":"levelo://app?vid=d8ab7120-5db4-4f8a-92b5-f55006e30150"},"vehicle_type_id":"4","last_reported":1686899191,"current_range_meters":12000,"station_id":"ce4bhs92rcd13ifvqi0g","pricing_plan_id":"free"},{"bike_id":"5aea4ff9-b794-49fa-b864-ba4cf0a9088f","system_id":"levelo_inurba_marseille","lat":43.328371,"lon":5.366912,"is_reserved":false,"is_disabled":false,"rental_uris":{"android":"levelo://app?vid=5aea4ff9-b794-49fa-b864-ba4cf0a9088f","ios":"levelo://app?vid=5aea4ff9-b794-49fa-b864-ba4cf0a9088f"},"vehicle_type_id":"4","last_reported":1686899191,"current_range_meters":4800,"station_id":"ce4bhs92rcd13ifvqi0g","pricing_plan_id":"free"},{"bike_id":"c1bf0892-8ee9-4d93-a254-cc6b7394ade6","system_id":"levelo_inurba_marseille","lat":43.29712,"lon":5.36833,"is_reserved":false,"is_disabled":false,"rental_uris":{"android":"levelo://app?vid=c1bf0892-8ee9-4d93-a254-cc6b7394ade6","ios":"levelo://app?vid=c1bf0892-8ee9-4d93-a254-cc6b7394ade6"},"vehicle_type_id":"4","last_reported":1686899191,"current_range_meters":17600,"station_id":"","pricing_plan_id":"free"},{"bike_id":"88d0330c-5bb0-4a19-9b65-d4683b42e015","system_id":"levelo_inurba_marseille","lat":43.29683,"lon":5.36046,"is_reserved":false,"is_disabled":false,"rental_uris":{"android":"levelo://app?vid=88d0330c-5bb0-4a19-9b65-d4683b42e015","ios":"levelo://app?vid=88d0330c-5bb0-4a19-9b65-d4683b42e015"},"vehicle_type_id":"4","last_reported":1686899191,"current_range_meters":11200,"station_id":"ce4bgpp2rcd13ifvqc3g","pricing_plan_id":"free"},{"bike_id":"8ce9a204-92f9-434a-9edf-f8483afdeb97","system_id":"levelo_inurba_marseille","lat":43.29573,"lon":5.367355,"is_reserved":false,"is_disabled":false,"rental_uris":{"android":"levelo://app?vid=8ce9a204-92f9-434a-9edf-f8483afdeb97","ios":"levelo://app?vid=8ce9a204-92f9-434a-9edf-f8483afdeb97"},"vehicle_type_id":"4","last_reported":1686899191,"current_range_meters":3200,"station_id":"ce4bgph2rcd13ifvqc2g","pricing_plan_id":"free"},{"bike_id":"0120d9c0-e289-4d28-b380-ce747180535c","system_id":"levelo_inurba_marseille","lat":43.29573,"lon":5.367355,"is_reserved":false,"is_disabled":false,"rental_uris":{"android":"levelo://app?vid=0120d9c0-e289-4d28-b380-ce747180535c","ios":"levelo://app?vid=0120d9c0-e289-4d28-b380-ce747180535c"},"vehicle_type_id":"4","last_reported":1686899191,"current_range_meters":31200,"station_id":"ce4bgph2rcd13ifvqc2g","pricing_plan_id":"free"},{"bike_id":"e7da386a-b078-4346-acfa-f16e907c2706","system_id":"levelo_inurba_marseille","lat":43.29573,"lon":5.367355,"is_reserved":false,"is_disabled":false,"rental_uris":{"android":"levelo://app?vid=e7da386a-b078-4346-acfa-f16e907c2706","ios":"levelo://app?vid=e7da386a-b078-4346-acfa-f16e907c2706"},"vehicle_type_id":"4","last_reported":1686899191,"current_range_meters":11600,"station_id":"ce4bgph2rcd13ifvqc2g","pricing_plan_id":"free"},{"bike_id":"70a74fc7-8eba-451d-8f7a-b2d4ab71eafa","system_id":"levelo_inurba_marseille","lat":43.29573,"lon":5.367355,"is_reserved":false,"is_disabled":false,"rental_uris":{"android":"levelo://app?vid=70a74fc7-8eba-451d-8f7a-b2d4ab71eafa","ios":"levelo://app?vid=70a74fc7-8eba-451d-8f7a-b2d4ab71eafa"},"vehicle_type_id":"4","last_reported":1686899191,"current_range_meters":28000,"station_id":"ce4bgph2rcd13ifvqc2g","pricing_plan_id":"free"},{"bike_id":"79c8a36f-d7a8-45e9-b0b3-dc082c687802","system_id":"levelo_inurba_marseille","lat":43.30949,"lon":5.39017,"is_reserved":false,"is_disabled":false,"rental_uris":{"android":"levelo://app?vid=79c8a36f-d7a8-45e9-b0b3-dc082c687802","ios":"levelo://app?vid=79c8a36f-d7a8-45e9-b0b3-dc082c687802"},"vehicle_type_id":"4","last_reported":1686899191,"current_range_meters":27600,"station_id":"ce4bgup2rcd13ifvqco0","pricing_plan_id":"free"},{"bike_id":"63196172-b389-489e-a757-677c739801e4","system_id":"levelo_inurba_marseille","lat":43.299028,"lon":5.381509,"is_reserved":false,"is_disabled":false,"rental_uris":{"android":"levelo://app?vid=63196172-b389-489e-a757-677c739801e4","ios":"levelo://app?vid=63196172-b389-489e-a757-677c739801e4"},"vehicle_type_id":"4","last_reported":1686899191,"current_range_meters":14400,"station_id":"ce4bgj12rcd13ifvqbc0","pricing_plan_id":"free"},{"bike_id":"976bc0bb-01b9-4c6e-b3d6-0a1cd487d3b6","system_id":"levelo_inurba_marseille","lat":43.296935,"lon":5.376544,"is_reserved":false,"is_disabled":false,"rental_uris":{"android":"levelo://app?vid=976bc0bb-01b9-4c6e-b3d6-0a1cd487d3b6","ios":"levelo://app?vid=976bc0bb-01b9-4c6e-b3d6-0a1cd487d3b6"},"vehicle_type_id":"4","last_reported":1686899191,"current_range_meters":23600,"station_id":"ce4bgkh2rcd13ifvqbl0","pricing_plan_id":"free"},{"bike_id":"8dceee15-0eb6-482c-9737-c6807d81da0e","system_id":"levelo_inurba_marseille","lat":43.296935,"lon":5.376544,"is_reserved":false,"is_disabled":false,"rental_uris":{"android":"levelo://app?vid=8dceee15-0eb6-482c-9737-c6807d81da0e","ios":"levelo://app?vid=8dceee15-0eb6-482c-9737-c6807d81da0e"},"vehicle_type_id":"4","last_reported":1686899191,"current_range_meters":29200,"station_id":"ce4bgkh2rcd13ifvqbl0","pricing_plan_id":"free"},{"bike_id":"5cafbb37-e584-452d-ada6-8f8def9c5cbe","system_id":"levelo_inurba_marseille","lat":43.309589,"lon":5.390258,"is_reserved":false,"is_disabled":false,"rental_uris":{"android":"levelo://app?vid=5cafbb37-e584-452d-ada6-8f8def9c5cbe","ios":"levelo://app?vid=5cafbb37-e584-452d-ada6-8f8def9c5cbe"},"vehicle_type_id":"4","last_reported":1686899191,"current_range_meters":27200,"station_id":"ce4bgup2rcd13ifvqco0","pricing_plan_id":"free"},{"bike_id":"4aeedf6e-9910-4121-a2a7-fa0c2342f1d3","system_id":"levelo_inurba_marseille","lat":43.309589,"lon":5.390258,"is_reserved":false,"is_disabled":false,"rental_uris":{"android":"levelo://app?vid=4aeedf6e-9910-4121-a2a7-fa0c2342f1d3","ios":"levelo://app?vid=4aeedf6e-9910-4121-a2a7-fa0c2342f1d3"},"vehicle_type_id":"4","last_reported":1686899191,"current_range_meters":0,"station_id":"ce4bgup2rcd13ifvqco0","pricing_plan_id":"free"},{"bike_id":"f8df7e2c-0ec3-43ea-8a4a-13eff7875bb3","system_id":"levelo_inurba_marseille","lat":43.296921,"lon":5.376579,"is_reserved":false,"is_disabled":false,"rental_uris":{"android":"levelo://app?vid=f8df7e2c-0ec3-43ea-8a4a-13eff7875bb3","ios":"levelo://app?vid=f8df7e2c-0ec3-43ea-8a4a-13eff7875bb3"},"vehicle_type_id":"4","last_reported":1686899191,"current_range_meters":25600,"station_id":"ce4bgkh2rcd13ifvqbl0","pricing_plan_id":"free"},{"bike_id":"a33633d2-6c0b-4998-90af-96bc78dfbc9c","system_id":"levelo_inurba_marseille","lat":43.296921,"lon":5.376579,"is_reserved":false,"is_disabled":false,"rental_uris":{"android":"levelo://app?vid=a33633d2-6c0b-4998-90af-96bc78dfbc9c","ios":"levelo://app?vid=a33633d2-6c0b-4998-90af-96bc78dfbc9c"},"vehicle_type_id":"4","last_reported":1686899191,"current_range_meters":17200,"station_id":"ce4bgkh2rcd13ifvqbl0","pricing_plan_id":"free"},{"bike_id":"f87710f2-6efa-42f8-8ab3-88c402ee7325","system_id":"levelo_inurba_marseille","lat":43.309589,"lon":5.390258,"is_reserved":false,"is_disabled":false,"rental_uris":{"android":"levelo://app?vid=f87710f2-6efa-42f8-8ab3-88c402ee7325","ios":"levelo://app?vid=f87710f2-6efa-42f8-8ab3-88c402ee7325"},"vehicle_type_id":"4","last_reported":1686899191,"current_range_meters":16800,"station_id":"ce4bgup2rcd13ifvqco0","pricing_plan_id":"free"},{"bike_id":"cf4885e5-19ca-4f8f-b2fe-e373762f23a3","system_id":"levelo_inurba_marseille","lat":43.299028,"lon":5.381509,"is_reserved":false,"is_disabled":false,"rental_uris":{"android":"levelo://app?vid=cf4885e5-19ca-4f8f-b2fe-e373762f23a3","ios":"levelo://app?vid=cf4885e5-19ca-4f8f-b2fe-e373762f23a3"},"vehicle_type_id":"4","last_reported":1686899191,"current_range_meters":20000,"station_id":"ce4bgj12rcd13ifvqbc0","pricing_plan_id":"free"},{"bike_id":"68c5b988-a8cb-4c6b-ac96-b50458e70d56","system_id":"levelo_inurba_marseille","lat":43.309589,"lon":5.390258,"is_reserved":false,"is_disabled":false,"rental_uris":{"android":"levelo://app?vid=68c5b988-a8cb-4c6b-ac96-b50458e70d56","ios":"levelo://app?vid=68c5b988-a8cb-4c6b-ac96-b50458e70d56"},"vehicle_type_id":"4","last_reported":1686899191,"current_range_meters":19200,"station_id":"ce4bgup2rcd13ifvqco0","pricing_plan_id":"free"},{"bike_id":"b50a18ef-20a3-4f3e-b745-f58de7ed2946","system_id":"levelo_inurba_marseille","lat":43.296935,"lon":5.376544,"is_reserved":false,"is_disabled":false,"rental_uris":{"android":"levelo://app?vid=b50a18ef-20a3-4f3e-b745-f58de7ed2946","ios":"levelo://app?vid=b50a18ef-20a3-4f3e-b745-f58de7ed2946"},"vehicle_type_id":"4","last_reported":1686899191,"current_range_meters":30400,"station_id":"ce4bgkh2rcd13ifvqbl0","pricing_plan_id":"free"},{"bike_id":"5ae392be-cb72-4644-b252-5f40560de2d2","system_id":"levelo_inurba_marseille","lat":43.31757,"lon":5.39007,"is_reserved":false,"is_disabled":false,"rental_uris":{"android":"levelo://app?vid=5ae392be-cb72-4644-b252-5f40560de2d2","ios":"levelo://app?vid=5ae392be-cb72-4644-b252-5f40560de2d2"},"vehicle_type_id":"4","last_reported":1686899191,"current_range_meters":29600,"station_id":"ce4bhqp2rcd13ifvqhng","pricing_plan_id":"free"},{"bike_id":"2c8ea82c-124b-46e2-be4b-fc6610141864","system_id":"levelo_inurba_marseille","lat":43.31757,"lon":5.3901,"is_reserved":false,"is_disabled":false,"rental_uris":{"android":"levelo://app?vid=2c8ea82c-124b-46e2-be4b-fc6610141864","ios":"levelo://app?vid=2c8ea82c-124b-46e2-be4b-fc6610141864"},"vehicle_type_id":"4","last_reported":1686899191,"current_range_meters":26800,"station_id":"ce4bhqp2rcd13ifvqhng","pricing_plan_id":"free"},{"bike_id":"323c557f-a304-4ce1-b03a-688569b638a6","system_id":"levelo_inurba_marseille","lat":43.31757,"lon":5.3901,"is_reserved":false,"is_disabled":false,"rental_uris":{"android":"levelo://app?vid=323c557f-a304-4ce1-b03a-688569b638a6","ios":"levelo://app?vid=323c557f-a304-4ce1-b03a-688569b638a6"},"vehicle_type_id":"4","last_reported":1686899191,"current_range_meters":22800,"station_id":"ce4bhqp2rcd13ifvqhng","pricing_plan_id":"free"},{"bike_id":"23e2e12c-317d-4545-ba07-7f129804e44f","system_id":"levelo_inurba_marseille","lat":43.31752,"lon":5.39015,"is_reserved":false,"is_disabled":false,"rental_uris":{"android":"levelo://app?vid=23e2e12c-317d-4545-ba07-7f129804e44f","ios":"levelo://app?vid=23e2e12c-317d-4545-ba07-7f129804e44f"},"vehicle_type_id":"4","last_reported":1686899191,"current_range_meters":12400,"station_id":"ce4bhqp2rcd13ifvqhng","pricing_plan_id":"free"},{"bike_id":"113d8f7e-ffd1-4394-aaba-49ba04306712","system_id":"levelo_inurba_marseille","lat":43.317557,"lon":5.390173,"is_reserved":false,"is_disabled":false,"rental_uris":{"android":"levelo://app?vid=113d8f7e-ffd1-4394-aaba-49ba04306712","ios":"levelo://app?vid=113d8f7e-ffd1-4394-aaba-49ba04306712"},"vehicle_type_id":"4","last_reported":1686899191,"current_range_meters":12400,"station_id":"ce4bhqp2rcd13ifvqhng","pricing_plan_id":"free"},{"bike_id":"233870e7-15de-4838-9c04-de1ce2e62768","system_id":"levelo_inurba_marseille","lat":43.31759,"lon":5.39017,"is_reserved":false,"is_disabled":false,"rental_uris":{"android":"levelo://app?vid=233870e7-15de-4838-9c04-de1ce2e62768","ios":"levelo://app?vid=233870e7-15de-4838-9c04-de1ce2e62768"},"vehicle_type_id":"4","last_reported":1686899191,"current_range_meters":29200,"station_id":"ce4bhqp2rcd13ifvqhng","pricing_plan_id":"free"},{"bike_id":"1095fc91-a6e5-4f26-a13a-bae299ca5664","system_id":"levelo_inurba_marseille","lat":43.2957,"lon":5.37499,"is_reserved":false,"is_disabled":false,"rental_uris":{"android":"levelo://app?vid=1095fc91-a6e5-4f26-a13a-bae299ca5664","ios":"levelo://app?vid=1095fc91-a6e5-4f26-a13a-bae299ca5664"},"vehicle_type_id":"4","last_reported":1686899191,"current_range_meters":28400,"station_id":"ce4bgh92rcd13ifvqb50","pricing_plan_id":"free"},{"bike_id":"92af9eaa-450f-4728-a534-51d525aaa5d3","system_id":"levelo_inurba_marseille","lat":43.29573,"lon":5.37516,"is_reserved":false,"is_disabled":false,"rental_uris":{"android":"levelo://app?vid=92af9eaa-450f-4728-a534-51d525aaa5d3","ios":"levelo://app?vid=92af9eaa-450f-4728-a534-51d525aaa5d3"},"vehicle_type_id":"4","last_reported":1686899191,"current_range_meters":29200,"station_id":"ce4bgh92rcd13ifvqb50","pricing_plan_id":"free"},{"bike_id":"2eee23f3-8bc3-4d39-8556-f6e7bb41f026","system_id":"levelo_inurba_marseille","lat":43.304278,"lon":5.388868,"is_reserved":false,"is_disabled":false,"rental_uris":{"android":"levelo://app?vid=2eee23f3-8bc3-4d39-8556-f6e7bb41f026","ios":"levelo://app?vid=2eee23f3-8bc3-4d39-8556-f6e7bb41f026"},"vehicle_type_id":"4","last_reported":1686899191,"current_range_meters":24000,"station_id":"ce4bgk12rcd13ifvqbi0","pricing_plan_id":"free"},{"bike_id":"aa924c8b-076b-4f7d-8476-3a3842f7ebed","system_id":"levelo_inurba_marseille","lat":43.304278,"lon":5.388868,"is_reserved":false,"is_disabled":false,"rental_uris":{"android":"levelo://app?vid=aa924c8b-076b-4f7d-8476-3a3842f7ebed","ios":"levelo://app?vid=aa924c8b-076b-4f7d-8476-3a3842f7ebed"},"vehicle_type_id":"4","last_reported":1686899191,"current_range_meters":18000,"station_id":"ce4bgk12rcd13ifvqbi0","pricing_plan_id":"free"},{"bike_id":"be7275a7-be3c-4632-a577-2aefec901044","system_id":"levelo_inurba_marseille","lat":43.29559,"lon":5.37504,"is_reserved":false,"is_disabled":false,"rental_uris":{"android":"levelo://app?vid=be7275a7-be3c-4632-a577-2aefec901044","ios":"levelo://app?vid=be7275a7-be3c-4632-a577-2aefec901044"},"vehicle_type_id":"4","last_reported":1686899191,"current_range_meters":26800,"station_id":"ce4bgh92rcd13ifvqb50","pricing_plan_id":"free"},{"bike_id":"1d3920ce-c4a8-40d0-a090-0771f38c653b","system_id":"levelo_inurba_marseille","lat":43.30424,"lon":5.38899,"is_reserved":false,"is_disabled":false,"rental_uris":{"android":"levelo://app?vid=1d3920ce-c4a8-40d0-a090-0771f38c653b","ios":"levelo://app?vid=1d3920ce-c4a8-40d0-a090-0771f38c653b"},"vehicle_type_id":"4","last_reported":1686899191,"current_range_meters":29200,"station_id":"ce4bgk12rcd13ifvqbi0","pricing_plan_id":"free"},{"bike_id":"82eb6fc0-7435-4148-b35f-f7bb634db2a8","system_id":"levelo_inurba_marseille","lat":43.29615,"lon":5.3772,"is_reserved":false,"is_disabled":false,"rental_uris":{"android":"levelo://app?vid=82eb6fc0-7435-4148-b35f-f7bb634db2a8","ios":"levelo://app?vid=82eb6fc0-7435-4148-b35f-f7bb634db2a8"},"vehicle_type_id":"4","last_reported":1686899191,"current_range_meters":27200,"station_id":"ce4bgi92rcd13ifvqb90","pricing_plan_id":"free"},{"bike_id":"f61fc806-b6ca-45af-ae48-cfe1cdeabfb4","system_id":"levelo_inurba_marseille","lat":43.309589,"lon":5.390258,"is_reserved":false,"is_disabled":false,"rental_uris":{"android":"levelo://app?vid=f61fc806-b6ca-45af-ae48-cfe1cdeabfb4","ios":"levelo://app?vid=f61fc806-b6ca-45af-ae48-cfe1cdeabfb4"},"vehicle_type_id":"4","last_reported":1686899191,"current_range_meters":13600,"station_id":"ce4bgup2rcd13ifvqco0","pricing_plan_id":"free"},{"bike_id":"ae77fc79-7014-4831-8f82-343ca50ff1d8","system_id":"levelo_inurba_marseille","lat":43.296277,"lon":5.377108,"is_reserved":false,"is_disabled":false,"rental_uris":{"android":"levelo://app?vid=ae77fc79-7014-4831-8f82-343ca50ff1d8","ios":"levelo://app?vid=ae77fc79-7014-4831-8f82-343ca50ff1d8"},"vehicle_type_id":"4","last_reported":1686899191,"current_range_meters":18800,"station_id":"ce4bgi92rcd13ifvqb90","pricing_plan_id":"free"},{"bike_id":"6a9011fb-3dc2-434f-81e6-844f696b02ce","system_id":"levelo_inurba_marseille","lat":43.296263,"lon":5.377094,"is_reserved":false,"is_disabled":false,"rental_uris":{"android":"levelo://app?vid=6a9011fb-3dc2-434f-81e6-844f696b02ce","ios":"levelo://app?vid=6a9011fb-3dc2-434f-81e6-844f696b02ce"},"vehicle_type_id":"4","last_reported":1686899191,"current_range_meters":14000,"station_id":"ce4bgi92rcd13ifvqb90","pricing_plan_id":"free"},{"bike_id":"8ae26f44-69a8-4e32-86f5-06d2912f16da","system_id":"levelo_inurba_marseille","lat":43.29793,"lon":5.38196,"is_reserved":false,"is_disabled":false,"rental_uris":{"android":"levelo://app?vid=8ae26f44-69a8-4e32-86f5-06d2912f16da","ios":"levelo://app?vid=8ae26f44-69a8-4e32-86f5-06d2912f16da"},"vehicle_type_id":"4","last_reported":1686899191,"current_range_meters":22400,"station_id":"","pricing_plan_id":"free"},{"bike_id":"8064ec40-1e28-4f88-bbae-0c9c71c093aa","system_id":"levelo_inurba_marseille","lat":43.2968,"lon":5.37291,"is_reserved":false,"is_disabled":false,"rental_uris":{"android":"levelo://app?vid=8064ec40-1e28-4f88-bbae-0c9c71c093aa","ios":"levelo://app?vid=8064ec40-1e28-4f88-bbae-0c9c71c093aa"},"vehicle_type_id":"4","last_reported":1686899191,"current_range_meters":6000,"station_id":"ce4bgk12rcd13ifvqbj0","pricing_plan_id":"free"},{"bike_id":"eeee5b7d-ef76-4f54-91d8-75ef7b7c61b8","system_id":"levelo_inurba_marseille","lat":43.32367,"lon":5.388836,"is_reserved":false,"is_disabled":false,"rental_uris":{"android":"levelo://app?vid=eeee5b7d-ef76-4f54-91d8-75ef7b7c61b8","ios":"levelo://app?vid=eeee5b7d-ef76-4f54-91d8-75ef7b7c61b8"},"vehicle_type_id":"4","last_reported":1686899191,"current_range_meters":11600,"station_id":"ce4bhqp2rcd13ifvqhog","pricing_plan_id":"free"},{"bike_id":"242f12a2-fa6d-4b5f-9c1c-53e395dd5e66","system_id":"levelo_inurba_marseille","lat":43.32361,"lon":5.38875,"is_reserved":false,"is_disabled":false,"rental_uris":{"android":"levelo://app?vid=242f12a2-fa6d-4b5f-9c1c-53e395dd5e66","ios":"levelo://app?vid=242f12a2-fa6d-4b5f-9c1c-53e395dd5e66"},"vehicle_type_id":"4","last_reported":1686899191,"current_range_meters":20800,"station_id":"","pricing_plan_id":"free"},{"bike_id":"8ff43016-effc-4157-b871-584c11706f73","system_id":"levelo_inurba_marseille","lat":43.32367,"lon":5.388836,"is_reserved":false,"is_disabled":false,"rental_uris":{"android":"levelo://app?vid=8ff43016-effc-4157-b871-584c11706f73","ios":"levelo://app?vid=8ff43016-effc-4157-b871-584c11706f73"},"vehicle_type_id":"4","last_reported":1686899191,"current_range_meters":29200,"station_id":"ce4bhqp2rcd13ifvqhog","pricing_plan_id":"free"},{"bike_id":"2c9ad911-25e0-4222-8751-d809dfadd582","system_id":"levelo_inurba_marseille","lat":43.32367,"lon":5.388836,"is_reserved":false,"is_disabled":false,"rental_uris":{"android":"levelo://app?vid=2c9ad911-25e0-4222-8751-d809dfadd582","ios":"levelo://app?vid=2c9ad911-25e0-4222-8751-d809dfadd582"},"vehicle_type_id":"4","last_reported":1686899191,"current_range_meters":7200,"station_id":"ce4bhqp2rcd13ifvqhog","pricing_plan_id":"free"},{"bike_id":"4e609ef0-2e17-4e6c-ba3b-29daedaa2e8a","system_id":"levelo_inurba_marseille","lat":43.32367,"lon":5.3888,"is_reserved":false,"is_disabled":false,"rental_uris":{"android":"levelo://app?vid=4e609ef0-2e17-4e6c-ba3b-29daedaa2e8a","ios":"levelo://app?vid=4e609ef0-2e17-4e6c-ba3b-29daedaa2e8a"},"vehicle_type_id":"4","last_reported":1686899191,"current_range_meters":20800,"station_id":"ce4bhqp2rcd13ifvqhog","pricing_plan_id":"free"},{"bike_id":"78215555-c896-40a2-aa66-c1d318a07622","system_id":"levelo_inurba_marseille","lat":43.32367,"lon":5.388836,"is_reserved":false,"is_disabled":false,"rental_uris":{"android":"levelo://app?vid=78215555-c896-40a2-aa66-c1d318a07622","ios":"levelo://app?vid=78215555-c896-40a2-aa66-c1d318a07622"},"vehicle_type_id":"4","last_reported":1686899191,"current_range_meters":11600,"station_id":"ce4bhqp2rcd13ifvqhog","pricing_plan_id":"free"},{"bike_id":"71deb49d-5864-4461-882a-e14e759319e0","system_id":"levelo_inurba_marseille","lat":43.32369,"lon":5.38879,"is_reserved":false,"is_disabled":false,"rental_uris":{"android":"levelo://app?vid=71deb49d-5864-4461-882a-e14e759319e0","ios":"levelo://app?vid=71deb49d-5864-4461-882a-e14e759319e0"},"vehicle_type_id":"4","last_reported":1686899191,"current_range_meters":7200,"station_id":"ce4bhqp2rcd13ifvqhog","pricing_plan_id":"free"},{"bike_id":"20a5b24d-b520-42df-8ac4-5a606a1b7de6","system_id":"levelo_inurba_marseille","lat":43.32369,"lon":5.38881,"is_reserved":false,"is_disabled":false,"rental_uris":{"android":"levelo://app?vid=20a5b24d-b520-42df-8ac4-5a606a1b7de6","ios":"levelo://app?vid=20a5b24d-b520-42df-8ac4-5a606a1b7de6"},"vehicle_type_id":"4","last_reported":1686899191,"current_range_meters":30400,"station_id":"ce4bhqp2rcd13ifvqhog","pricing_plan_id":"free"},{"bike_id":"c153f200-368f-49ef-9cf0-3bef515e633e","system_id":"levelo_inurba_marseille","lat":43.32373,"lon":5.38879,"is_reserved":false,"is_disabled":false,"rental_uris":{"android":"levelo://app?vid=c153f200-368f-49ef-9cf0-3bef515e633e","ios":"levelo://app?vid=c153f200-368f-49ef-9cf0-3bef515e633e"},"vehicle_type_id":"4","last_reported":1686899191,"current_range_meters":30800,"station_id":"ce4bhqp2rcd13ifvqhog","pricing_plan_id":"free"},{"bike_id":"2fb562e0-3024-4cb9-97c6-c829d02a1641","system_id":"levelo_inurba_marseille","lat":43.29413,"lon":5.3742,"is_reserved":false,"is_disabled":false,"rental_uris":{"android":"levelo://app?vid=2fb562e0-3024-4cb9-97c6-c829d02a1641","ios":"levelo://app?vid=2fb562e0-3024-4cb9-97c6-c829d02a1641"},"vehicle_type_id":"4","last_reported":1686899191,"current_range_meters":31200,"station_id":"","pricing_plan_id":"free"},{"bike_id":"02d89a16-6d11-430a-9fb7-b3db10b9894d","system_id":"levelo_inurba_marseille","lat":43.29601,"lon":5.3809,"is_reserved":false,"is_disabled":false,"rental_uris":{"android":"levelo://app?vid=02d89a16-6d11-430a-9fb7-b3db10b9894d","ios":"levelo://app?vid=02d89a16-6d11-430a-9fb7-b3db10b9894d"},"vehicle_type_id":"4","last_reported":1686899191,"current_range_meters":29600,"station_id":"ce4bgl12rcd13ifvqbo0","pricing_plan_id":"free"},{"bike_id":"b5e5e7d3-6815-45a7-9f70-71be936e45ad","system_id":"levelo_inurba_marseille","lat":43.29594,"lon":5.38106,"is_reserved":false,"is_disabled":false,"rental_uris":{"android":"levelo://app?vid=b5e5e7d3-6815-45a7-9f70-71be936e45ad","ios":"levelo://app?vid=b5e5e7d3-6815-45a7-9f70-71be936e45ad"},"vehicle_type_id":"4","last_reported":1686899191,"current_range_meters":12400,"station_id":"ce4bgl12rcd13ifvqbo0","pricing_plan_id":"free"},{"bike_id":"fd6c03b7-ada0-4150-b576-aa00990426e0","system_id":"levelo_inurba_marseille","lat":43.296935,"lon":5.376544,"is_reserved":false,"is_disabled":false,"rental_uris":{"android":"levelo://app?vid=fd6c03b7-ada0-4150-b576-aa00990426e0","ios":"levelo://app?vid=fd6c03b7-ada0-4150-b576-aa00990426e0"},"vehicle_type_id":"4","last_reported":1686899191,"current_range_meters":25200,"station_id":"ce4bgkh2rcd13ifvqbl0","pricing_plan_id":"free"},{"bike_id":"cae6697c-cf39-4884-b1ee-8172a5157eb2","system_id":"levelo_inurba_marseille","lat":43.29302,"lon":5.37181,"is_reserved":false,"is_disabled":false,"rental_uris":{"android":"levelo://app?vid=cae6697c-cf39-4884-b1ee-8172a5157eb2","ios":"levelo://app?vid=cae6697c-cf39-4884-b1ee-8172a5157eb2"},"vehicle_type_id":"4","last_reported":1686899191,"current_range_meters":23200,"station_id":"ce4bgh92rcd13ifvqb40","pricing_plan_id":"free"},{"bike_id":"bb1d1c52-0e42-462b-8f0c-ecaa495881f0","system_id":"levelo_inurba_marseille","lat":43.293009,"lon":5.374584,"is_reserved":false,"is_disabled":false,"rental_uris":{"android":"levelo://app?vid=bb1d1c52-0e42-462b-8f0c-ecaa495881f0","ios":"levelo://app?vid=bb1d1c52-0e42-462b-8f0c-ecaa495881f0"},"vehicle_type_id":"4","last_reported":1686899191,"current_range_meters":24000,"station_id":"ce4bgi12rcd13ifvqb70","pricing_plan_id":"free"},{"bike_id":"e6585ce2-43f1-469d-b726-84a5b6fdf7ce","system_id":"levelo_inurba_marseille","lat":43.293103,"lon":5.374564,"is_reserved":false,"is_disabled":false,"rental_uris":{"android":"levelo://app?vid=e6585ce2-43f1-469d-b726-84a5b6fdf7ce","ios":"levelo://app?vid=e6585ce2-43f1-469d-b726-84a5b6fdf7ce"},"vehicle_type_id":"4","last_reported":1686899191,"current_range_meters":28000,"station_id":"ce4bgi12rcd13ifvqb70","pricing_plan_id":"free"},{"bike_id":"0909529f-5557-4919-a1a4-c4d3795892fe","system_id":"levelo_inurba_marseille","lat":43.293009,"lon":5.374584,"is_reserved":false,"is_disabled":false,"rental_uris":{"android":"levelo://app?vid=0909529f-5557-4919-a1a4-c4d3795892fe","ios":"levelo://app?vid=0909529f-5557-4919-a1a4-c4d3795892fe"},"vehicle_type_id":"4","last_reported":1686899191,"current_range_meters":23600,"station_id":"ce4bgi12rcd13ifvqb70","pricing_plan_id":"free"},{"bike_id":"7a1084de-271b-4410-b1e8-f3c76f1bfe49","system_id":"levelo_inurba_marseille","lat":43.293009,"lon":5.374584,"is_reserved":false,"is_disabled":false,"rental_uris":{"android":"levelo://app?vid=7a1084de-271b-4410-b1e8-f3c76f1bfe49","ios":"levelo://app?vid=7a1084de-271b-4410-b1e8-f3c76f1bfe49"},"vehicle_type_id":"4","last_reported":1686899191,"current_range_meters":18800,"station_id":"ce4bgi12rcd13ifvqb70","pricing_plan_id":"free"},{"bike_id":"545ec679-8793-470e-8df6-c30e17ee90de","system_id":"levelo_inurba_marseille","lat":43.293009,"lon":5.374584,"is_reserved":false,"is_disabled":false,"rental_uris":{"android":"levelo://app?vid=545ec679-8793-470e-8df6-c30e17ee90de","ios":"levelo://app?vid=545ec679-8793-470e-8df6-c30e17ee90de"},"vehicle_type_id":"4","last_reported":1686899191,"current_range_meters":8000,"station_id":"ce4bgi12rcd13ifvqb70","pricing_plan_id":"free"},{"bike_id":"d3ce03b3-2cf5-4287-b2a3-a91e0ce72273","system_id":"levelo_inurba_marseille","lat":43.305994,"lon":5.393687,"is_reserved":false,"is_disabled":false,"rental_uris":{"android":"levelo://app?vid=d3ce03b3-2cf5-4287-b2a3-a91e0ce72273","ios":"levelo://app?vid=d3ce03b3-2cf5-4287-b2a3-a91e0ce72273"},"vehicle_type_id":"4","last_reported":1686899191,"current_range_meters":10800,"station_id":"ce4bh0p2rcd13ifvqd80","pricing_plan_id":"free"},{"bike_id":"76d83235-8691-4c09-a892-59e013acd814","system_id":"levelo_inurba_marseille","lat":43.293009,"lon":5.374584,"is_reserved":false,"is_disabled":false,"rental_uris":{"android":"levelo://app?vid=76d83235-8691-4c09-a892-59e013acd814","ios":"levelo://app?vid=76d83235-8691-4c09-a892-59e013acd814"},"vehicle_type_id":"4","last_reported":1686899191,"current_range_meters":13200,"station_id":"ce4bgi12rcd13ifvqb70","pricing_plan_id":"free"},{"bike_id":"97eb5f19-3d26-47b7-b058-bb34ac028f88","system_id":"levelo_inurba_marseille","lat":43.29293,"lon":5.37462,"is_reserved":false,"is_disabled":false,"rental_uris":{"android":"levelo://app?vid=97eb5f19-3d26-47b7-b058-bb34ac028f88","ios":"levelo://app?vid=97eb5f19-3d26-47b7-b058-bb34ac028f88"},"vehicle_type_id":"4","last_reported":1686899191,"current_range_meters":21600,"station_id":"ce4bgi12rcd13ifvqb70","pricing_plan_id":"free"},{"bike_id":"f3972ff8-657a-453e-938b-c6acd4f73f6f","system_id":"levelo_inurba_marseille","lat":43.305994,"lon":5.393687,"is_reserved":false,"is_disabled":false,"rental_uris":{"android":"levelo://app?vid=f3972ff8-657a-453e-938b-c6acd4f73f6f","ios":"levelo://app?vid=f3972ff8-657a-453e-938b-c6acd4f73f6f"},"vehicle_type_id":"4","last_reported":1686899191,"current_range_meters":24800,"station_id":"ce4bh0p2rcd13ifvqd80","pricing_plan_id":"free"},{"bike_id":"215c31be-3ff1-410e-ad8d-1aef1a6870a9","system_id":"levelo_inurba_marseille","lat":43.29218,"lon":5.36403,"is_reserved":false,"is_disabled":false,"rental_uris":{"android":"levelo://app?vid=215c31be-3ff1-410e-ad8d-1aef1a6870a9","ios":"levelo://app?vid=215c31be-3ff1-410e-ad8d-1aef1a6870a9"},"vehicle_type_id":"4","last_reported":1686899191,"current_range_meters":19200,"station_id":"","pricing_plan_id":"free"},{"bike_id":"d3e5ec50-cdd2-4dda-b3aa-56eb536bbb12","system_id":"levelo_inurba_marseille","lat":43.29261,"lon":5.35974,"is_reserved":false,"is_disabled":false,"rental_uris":{"android":"levelo://app?vid=d3e5ec50-cdd2-4dda-b3aa-56eb536bbb12","ios":"levelo://app?vid=d3e5ec50-cdd2-4dda-b3aa-56eb536bbb12"},"vehicle_type_id":"4","last_reported":1686899191,"current_range_meters":26800,"station_id":"","pricing_plan_id":"free"},{"bike_id":"6fbafdb9-34af-4626-8a38-04c92f183923","system_id":"levelo_inurba_marseille","lat":43.2936,"lon":5.37835,"is_reserved":false,"is_disabled":false,"rental_uris":{"android":"levelo://app?vid=6fbafdb9-34af-4626-8a38-04c92f183923","ios":"levelo://app?vid=6fbafdb9-34af-4626-8a38-04c92f183923"},"vehicle_type_id":"4","last_reported":1686899191,"current_range_meters":27600,"station_id":"ce4bgjh2rcd13ifvqbf0","pricing_plan_id":"free"},{"bike_id":"7f44eb50-c13d-41fb-a979-8ac65503e4c6","system_id":"levelo_inurba_marseille","lat":43.300852,"lon":5.390859,"is_reserved":false,"is_disabled":false,"rental_uris":{"android":"levelo://app?vid=7f44eb50-c13d-41fb-a979-8ac65503e4c6","ios":"levelo://app?vid=7f44eb50-c13d-41fb-a979-8ac65503e4c6"},"vehicle_type_id":"4","last_reported":1686899191,"current_range_meters":25600,"station_id":"ce4bh192rcd13ifvqdb0","pricing_plan_id":"free"},{"bike_id":"ca02a49e-aec5-4adb-bf56-0078aebd0f4d","system_id":"levelo_inurba_marseille","lat":43.292311,"lon":5.360731,"is_reserved":false,"is_disabled":false,"rental_uris":{"android":"levelo://app?vid=ca02a49e-aec5-4adb-bf56-0078aebd0f4d","ios":"levelo://app?vid=ca02a49e-aec5-4adb-bf56-0078aebd0f4d"},"vehicle_type_id":"4","last_reported":1686899191,"current_range_meters":26400,"station_id":"ce4bhbh2rcd13ifvqeqg","pricing_plan_id":"free"},{"bike_id":"b1d1c207-6950-40b0-bafe-c61ee36c564f","system_id":"levelo_inurba_marseille","lat":43.292311,"lon":5.360731,"is_reserved":false,"is_disabled":false,"rental_uris":{"android":"levelo://app?vid=b1d1c207-6950-40b0-bafe-c61ee36c564f","ios":"levelo://app?vid=b1d1c207-6950-40b0-bafe-c61ee36c564f"},"vehicle_type_id":"4","last_reported":1686899191,"current_range_meters":29600,"station_id":"ce4bhbh2rcd13ifvqeqg","pricing_plan_id":"free"},{"bike_id":"381676a7-699b-485d-bfd3-24c84fb68b85","system_id":"levelo_inurba_marseille","lat":43.292311,"lon":5.360731,"is_reserved":false,"is_disabled":false,"rental_uris":{"android":"levelo://app?vid=381676a7-699b-485d-bfd3-24c84fb68b85","ios":"levelo://app?vid=381676a7-699b-485d-bfd3-24c84fb68b85"},"vehicle_type_id":"4","last_reported":1686899191,"current_range_meters":22000,"station_id":"ce4bhbh2rcd13ifvqeqg","pricing_plan_id":"free"},{"bike_id":"d6dc7ccc-d794-4c0f-b882-4536c4dfbd70","system_id":"levelo_inurba_marseille","lat":43.292311,"lon":5.360731,"is_reserved":false,"is_disabled":false,"rental_uris":{"android":"levelo://app?vid=d6dc7ccc-d794-4c0f-b882-4536c4dfbd70","ios":"levelo://app?vid=d6dc7ccc-d794-4c0f-b882-4536c4dfbd70"},"vehicle_type_id":"4","last_reported":1686899191,"current_range_meters":31200,"station_id":"ce4bhbh2rcd13ifvqeqg","pricing_plan_id":"free"},{"bike_id":"88f678f8-44cd-4e0b-a7cf-571650c5659e","system_id":"levelo_inurba_marseille","lat":43.292663,"lon":5.376389,"is_reserved":false,"is_disabled":false,"rental_uris":{"android":"levelo://app?vid=88f678f8-44cd-4e0b-a7cf-571650c5659e","ios":"levelo://app?vid=88f678f8-44cd-4e0b-a7cf-571650c5659e"},"vehicle_type_id":"4","last_reported":1686899191,"current_range_meters":16800,"station_id":"ce4bgi12rcd13ifvqb80","pricing_plan_id":"free"},{"bike_id":"eeb5aefd-d28e-48fa-b2cb-937ba820d08d","system_id":"levelo_inurba_marseille","lat":43.2919,"lon":5.35792,"is_reserved":false,"is_disabled":false,"rental_uris":{"android":"levelo://app?vid=eeb5aefd-d28e-48fa-b2cb-937ba820d08d","ios":"levelo://app?vid=eeb5aefd-d28e-48fa-b2cb-937ba820d08d"},"vehicle_type_id":"4","last_reported":1686899191,"current_range_meters":0,"station_id":"ce4bhb12rcd13ifvqel0","pricing_plan_id":"free"},{"bike_id":"e2176057-4454-45e9-9199-50d004f4feeb","system_id":"levelo_inurba_marseille","lat":43.31333,"lon":5.39698,"is_reserved":false,"is_disabled":false,"rental_uris":{"android":"levelo://app?vid=e2176057-4454-45e9-9199-50d004f4feeb","ios":"levelo://app?vid=e2176057-4454-45e9-9199-50d004f4feeb"},"vehicle_type_id":"4","last_reported":1686899191,"current_range_meters":29600,"station_id":"ce4bgvp2rcd13ifvqcu0","pricing_plan_id":"free"},{"bike_id":"46a589c9-b556-40d6-b55f-84a0688d5b9f","system_id":"levelo_inurba_marseille","lat":43.290327,"lon":5.375711,"is_reserved":false,"is_disabled":false,"rental_uris":{"android":"levelo://app?vid=46a589c9-b556-40d6-b55f-84a0688d5b9f","ios":"levelo://app?vid=46a589c9-b556-40d6-b55f-84a0688d5b9f"},"vehicle_type_id":"4","last_reported":1686899191,"current_range_meters":27200,"station_id":"ce4bh692rcd13ifvqe90","pricing_plan_id":"free"},{"bike_id":"c51d3f94-a957-43b7-b5c7-7e47f6d46e11","system_id":"levelo_inurba_marseille","lat":43.290327,"lon":5.375711,"is_reserved":false,"is_disabled":false,"rental_uris":{"android":"levelo://app?vid=c51d3f94-a957-43b7-b5c7-7e47f6d46e11","ios":"levelo://app?vid=c51d3f94-a957-43b7-b5c7-7e47f6d46e11"},"vehicle_type_id":"4","last_reported":1686899191,"current_range_meters":20400,"station_id":"ce4bh692rcd13ifvqe90","pricing_plan_id":"free"},{"bike_id":"6b73bbe1-3e56-4459-b924-b142a787a528","system_id":"levelo_inurba_marseille","lat":43.294153,"lon":5.386305,"is_reserved":false,"is_disabled":false,"rental_uris":{"android":"levelo://app?vid=6b73bbe1-3e56-4459-b924-b142a787a528","ios":"levelo://app?vid=6b73bbe1-3e56-4459-b924-b142a787a528"},"vehicle_type_id":"4","last_reported":1686899191,"current_range_meters":31200,"station_id":"ce4bh2h2rcd13ifvqdh0","pricing_plan_id":"free"},{"bike_id":"38eb09af-7166-42b9-865e-84246929498f","system_id":"levelo_inurba_marseille","lat":43.294167,"lon":5.386207,"is_reserved":false,"is_disabled":false,"rental_uris":{"android":"levelo://app?vid=38eb09af-7166-42b9-865e-84246929498f","ios":"levelo://app?vid=38eb09af-7166-42b9-865e-84246929498f"},"vehicle_type_id":"4","last_reported":1686899191,"current_range_meters":27200,"station_id":"","pricing_plan_id":"free"},{"bike_id":"492dff97-7c10-49bc-bda2-0ea460f20a9d","system_id":"levelo_inurba_marseille","lat":43.290327,"lon":5.375711,"is_reserved":false,"is_disabled":false,"rental_uris":{"android":"levelo://app?vid=492dff97-7c10-49bc-bda2-0ea460f20a9d","ios":"levelo://app?vid=492dff97-7c10-49bc-bda2-0ea460f20a9d"},"vehicle_type_id":"4","last_reported":1686899191,"current_range_meters":20000,"station_id":"ce4bh692rcd13ifvqe90","pricing_plan_id":"free"},{"bike_id":"5e5a707c-65f4-4a26-a470-a4e7ce9d305b","system_id":"levelo_inurba_marseille","lat":43.304296,"lon":5.397513,"is_reserved":false,"is_disabled":false,"rental_uris":{"android":"levelo://app?vid=5e5a707c-65f4-4a26-a470-a4e7ce9d305b","ios":"levelo://app?vid=5e5a707c-65f4-4a26-a470-a4e7ce9d305b"},"vehicle_type_id":"4","last_reported":1686899191,"current_range_meters":24000,"station_id":"ce4bh092rcd13ifvqd20","pricing_plan_id":"free"},{"bike_id":"4303deea-fa03-4c5a-9cf0-ac1e18a32090","system_id":"levelo_inurba_marseille","lat":43.290104,"lon":5.356111,"is_reserved":false,"is_disabled":false,"rental_uris":{"android":"levelo://app?vid=4303deea-fa03-4c5a-9cf0-ac1e18a32090","ios":"levelo://app?vid=4303deea-fa03-4c5a-9cf0-ac1e18a32090"},"vehicle_type_id":"4","last_reported":1686899191,"current_range_meters":12400,"station_id":"ce4bhb92rcd13ifvqen0","pricing_plan_id":"free"},{"bike_id":"52d9914a-df0c-4bb7-b631-320cd0d113f4","system_id":"levelo_inurba_marseille","lat":43.330442,"lon":5.389148,"is_reserved":false,"is_disabled":false,"rental_uris":{"android":"levelo://app?vid=52d9914a-df0c-4bb7-b631-320cd0d113f4","ios":"levelo://app?vid=52d9914a-df0c-4bb7-b631-320cd0d113f4"},"vehicle_type_id":"4","last_reported":1686899191,"current_range_meters":18400,"station_id":"ce4bhr92rcd13ifvqhrg","pricing_plan_id":"free"},{"bike_id":"8663d010-9c17-4308-8fc9-b50ef446e221","system_id":"levelo_inurba_marseille","lat":43.33043,"lon":5.38914,"is_reserved":false,"is_disabled":false,"rental_uris":{"android":"levelo://app?vid=8663d010-9c17-4308-8fc9-b50ef446e221","ios":"levelo://app?vid=8663d010-9c17-4308-8fc9-b50ef446e221"},"vehicle_type_id":"4","last_reported":1686899191,"current_range_meters":0,"station_id":"ce4bhr92rcd13ifvqhrg","pricing_plan_id":"free"},{"bike_id":"a4d2814a-ff66-466e-b091-93a97eadc809","system_id":"levelo_inurba_marseille","lat":43.33042,"lon":5.38918,"is_reserved":false,"is_disabled":false,"rental_uris":{"android":"levelo://app?vid=a4d2814a-ff66-466e-b091-93a97eadc809","ios":"levelo://app?vid=a4d2814a-ff66-466e-b091-93a97eadc809"},"vehicle_type_id":"4","last_reported":1686899191,"current_range_meters":30000,"station_id":"ce4bhr92rcd13ifvqhrg","pricing_plan_id":"free"},{"bike_id":"f3ed5be2-dc55-4f08-b19c-716230d39ab1","system_id":"levelo_inurba_marseille","lat":43.33041,"lon":5.38921,"is_reserved":false,"is_disabled":false,"rental_uris":{"android":"levelo://app?vid=f3ed5be2-dc55-4f08-b19c-716230d39ab1","ios":"levelo://app?vid=f3ed5be2-dc55-4f08-b19c-716230d39ab1"},"vehicle_type_id":"4","last_reported":1686899191,"current_range_meters":30800,"station_id":"ce4bhr92rcd13ifvqhrg","pricing_plan_id":"free"},{"bike_id":"cc61286d-9ee0-4d17-8b36-87dd989ccf29","system_id":"levelo_inurba_marseille","lat":43.33045,"lon":5.3892,"is_reserved":false,"is_disabled":false,"rental_uris":{"android":"levelo://app?vid=cc61286d-9ee0-4d17-8b36-87dd989ccf29","ios":"levelo://app?vid=cc61286d-9ee0-4d17-8b36-87dd989ccf29"},"vehicle_type_id":"4","last_reported":1686899191,"current_range_meters":11200,"station_id":"ce4bhr92rcd13ifvqhrg","pricing_plan_id":"free"},{"bike_id":"dd47fda6-cd57-4802-a827-e1b0893b009a","system_id":"levelo_inurba_marseille","lat":43.33046,"lon":5.38919,"is_reserved":false,"is_disabled":false,"rental_uris":{"android":"levelo://app?vid=dd47fda6-cd57-4802-a827-e1b0893b009a","ios":"levelo://app?vid=dd47fda6-cd57-4802-a827-e1b0893b009a"},"vehicle_type_id":"4","last_reported":1686899191,"current_range_meters":23200,"station_id":"ce4bhr92rcd13ifvqhrg","pricing_plan_id":"free"},{"bike_id":"663905f8-ca25-4a1e-964f-d5f1b76fc38f","system_id":"levelo_inurba_marseille","lat":43.29099,"lon":5.38131,"is_reserved":false,"is_disabled":false,"rental_uris":{"android":"levelo://app?vid=663905f8-ca25-4a1e-964f-d5f1b76fc38f","ios":"levelo://app?vid=663905f8-ca25-4a1e-964f-d5f1b76fc38f"},"vehicle_type_id":"4","last_reported":1686899191,"current_range_meters":22400,"station_id":"ce4bh512rcd13ifvqe2g","pricing_plan_id":"free"},{"bike_id":"c2b92bbf-632d-48fc-9ce2-e158ec20f60c","system_id":"levelo_inurba_marseille","lat":43.290995,"lon":5.381361,"is_reserved":false,"is_disabled":false,"rental_uris":{"android":"levelo://app?vid=c2b92bbf-632d-48fc-9ce2-e158ec20f60c","ios":"levelo://app?vid=c2b92bbf-632d-48fc-9ce2-e158ec20f60c"},"vehicle_type_id":"4","last_reported":1686899191,"current_range_meters":0,"station_id":"ce4bh512rcd13ifvqe2g","pricing_plan_id":"free"},{"bike_id":"6c6c8f03-ab5f-4419-ab9d-d502538d296b","system_id":"levelo_inurba_marseille","lat":43.290995,"lon":5.381361,"is_reserved":false,"is_disabled":false,"rental_uris":{"android":"levelo://app?vid=6c6c8f03-ab5f-4419-ab9d-d502538d296b","ios":"levelo://app?vid=6c6c8f03-ab5f-4419-ab9d-d502538d296b"},"vehicle_type_id":"4","last_reported":1686899191,"current_range_meters":24800,"station_id":"ce4bh512rcd13ifvqe2g","pricing_plan_id":"free"},{"bike_id":"000d4db1-27ab-47d8-be09-dafc531fe785","system_id":"levelo_inurba_marseille","lat":43.289741,"lon":5.378306,"is_reserved":false,"is_disabled":false,"rental_uris":{"android":"levelo://app?vid=000d4db1-27ab-47d8-be09-dafc531fe785","ios":"levelo://app?vid=000d4db1-27ab-47d8-be09-dafc531fe785"},"vehicle_type_id":"4","last_reported":1686899191,"current_range_meters":26400,"station_id":"ce4bh9p2rcd13ifvqed0","pricing_plan_id":"free"},{"bike_id":"0d9b1aa8-f840-4c9c-a108-c55351b3e46e","system_id":"levelo_inurba_marseille","lat":43.323464,"lon":5.406297,"is_reserved":false,"is_disabled":false,"rental_uris":{"android":"levelo://app?vid=0d9b1aa8-f840-4c9c-a108-c55351b3e46e","ios":"levelo://app?vid=0d9b1aa8-f840-4c9c-a108-c55351b3e46e"},"vehicle_type_id":"4","last_reported":1686899191,"current_range_meters":17200,"station_id":"ce4bhq92rcd13ifvqhjg","pricing_plan_id":"free"},{"bike_id":"d01dd9c1-b06d-48ea-911c-18cfd2f6e68e","system_id":"levelo_inurba_marseille","lat":43.2901,"lon":5.381269,"is_reserved":false,"is_disabled":false,"rental_uris":{"android":"levelo://app?vid=d01dd9c1-b06d-48ea-911c-18cfd2f6e68e","ios":"levelo://app?vid=d01dd9c1-b06d-48ea-911c-18cfd2f6e68e"},"vehicle_type_id":"4","last_reported":1686899191,"current_range_meters":15200,"station_id":"ce4bh4p2rcd13ifvqe1g","pricing_plan_id":"free"},{"bike_id":"2607e7bc-47f7-47fb-bc9f-7c08a1cc21d4","system_id":"levelo_inurba_marseille","lat":43.290204,"lon":5.381283,"is_reserved":false,"is_disabled":false,"rental_uris":{"android":"levelo://app?vid=2607e7bc-47f7-47fb-bc9f-7c08a1cc21d4","ios":"levelo://app?vid=2607e7bc-47f7-47fb-bc9f-7c08a1cc21d4"},"vehicle_type_id":"4","last_reported":1686899191,"current_range_meters":17600,"station_id":"ce4bh4p2rcd13ifvqe1g","pricing_plan_id":"free"},{"bike_id":"d779a46d-38a9-4bac-bc40-c67d08c97433","system_id":"levelo_inurba_marseille","lat":43.2901,"lon":5.381269,"is_reserved":false,"is_disabled":false,"rental_uris":{"android":"levelo://app?vid=d779a46d-38a9-4bac-bc40-c67d08c97433","ios":"levelo://app?vid=d779a46d-38a9-4bac-bc40-c67d08c97433"},"vehicle_type_id":"4","last_reported":1686899191,"current_range_meters":9600,"station_id":"ce4bh4p2rcd13ifvqe1g","pricing_plan_id":"free"},{"bike_id":"f21365db-99ed-4492-a47b-667ea29794f3","system_id":"levelo_inurba_marseille","lat":43.2901,"lon":5.381269,"is_reserved":false,"is_disabled":false,"rental_uris":{"android":"levelo://app?vid=f21365db-99ed-4492-a47b-667ea29794f3","ios":"levelo://app?vid=f21365db-99ed-4492-a47b-667ea29794f3"},"vehicle_type_id":"4","last_reported":1686899191,"current_range_meters":24400,"station_id":"ce4bh4p2rcd13ifvqe1g","pricing_plan_id":"free"},{"bike_id":"c0fb8083-e02d-4dec-b1b9-fa095e6c5b75","system_id":"levelo_inurba_marseille","lat":43.337396,"lon":5.374526,"is_reserved":false,"is_disabled":false,"rental_uris":{"android":"levelo://app?vid=c0fb8083-e02d-4dec-b1b9-fa095e6c5b75","ios":"levelo://app?vid=c0fb8083-e02d-4dec-b1b9-fa095e6c5b75"},"vehicle_type_id":"4","last_reported":1686899191,"current_range_meters":2400,"station_id":"ce4bhp92rcd13ifvqhag","pricing_plan_id":"free"},{"bike_id":"5b515a80-82ab-4135-8a06-94a9e0e25642","system_id":"levelo_inurba_marseille","lat":43.33746,"lon":5.37435,"is_reserved":false,"is_disabled":false,"rental_uris":{"android":"levelo://app?vid=5b515a80-82ab-4135-8a06-94a9e0e25642","ios":"levelo://app?vid=5b515a80-82ab-4135-8a06-94a9e0e25642"},"vehicle_type_id":"4","last_reported":1686899191,"current_range_meters":12800,"station_id":"","pricing_plan_id":"free"},{"bike_id":"c6a86b0e-fed1-428b-ade7-e08d84d1a26f","system_id":"levelo_inurba_marseille","lat":43.309371,"lon":5.401449,"is_reserved":false,"is_disabled":false,"rental_uris":{"android":"levelo://app?vid=c6a86b0e-fed1-428b-ade7-e08d84d1a26f","ios":"levelo://app?vid=c6a86b0e-fed1-428b-ade7-e08d84d1a26f"},"vehicle_type_id":"4","last_reported":1686899191,"current_range_meters":23600,"station_id":"ce4bgvp2rcd13ifvqct0","pricing_plan_id":"free"},{"bike_id":"3188f080-121b-4c43-9e55-5bd2860ad238","system_id":"levelo_inurba_marseille","lat":43.33751,"lon":5.374644,"is_reserved":false,"is_disabled":false,"rental_uris":{"android":"levelo://app?vid=3188f080-121b-4c43-9e55-5bd2860ad238","ios":"levelo://app?vid=3188f080-121b-4c43-9e55-5bd2860ad238"},"vehicle_type_id":"4","last_reported":1686899191,"current_range_meters":24000,"station_id":"","pricing_plan_id":"free"},{"bike_id":"8c12ddcc-b723-405f-8071-5df65ce93ad9","system_id":"levelo_inurba_marseille","lat":43.301117,"lon":5.398795,"is_reserved":false,"is_disabled":false,"rental_uris":{"android":"levelo://app?vid=8c12ddcc-b723-405f-8071-5df65ce93ad9","ios":"levelo://app?vid=8c12ddcc-b723-405f-8071-5df65ce93ad9"},"vehicle_type_id":"4","last_reported":1686899191,"current_range_meters":31600,"station_id":"ce4bh0h2rcd13ifvqd40","pricing_plan_id":"free"},