{"last_updated":1702983979,"ttl":30,"version":"2.2","data":{"bikes":[{"bike_id":"08b630a1-c332-4042-9566-0dcfa263e3f6","system_id":"levelo_inurba_marseille","lat":43.312239,"lon":5.368562,"is_reserved":false,"is_disabled":false,"rental_uris":{"android":"levelo://app?vid=08b630a1-c332-4042-9566-0dcfa263e3f6","ios":"levelo://app?vid=08b630a1-c332-4042-9566-0dcfa263e3f6"},"vehicle_type_id":"4","last_reported":1702983979,"current_range_meters":30400,"station_id":"ce4bgl92rcd13ifvqbq0","pricing_plan_id":"free"},{"bike_id":"0959ee72-75c4-44db-9b97-0ce0b9ddb9c2","system_id":"levelo_inurba_marseille","lat":43.312239,"lon":5.368562,"is_reserved":false,"is_disabled":false,"rental_uris":{"android":"levelo://app?vid=0959ee72-75c4-44db-9b97-0ce0b9ddb9c2","ios":"levelo://app?vid=0959ee72-75c4-44db-9b97-0ce0b9ddb9c2"},"vehicle_type_id":"4","last_reported":1702983979,"current_range_meters":27200,"station_id":"ce4bgl92rcd13ifvqbq0","pricing_plan_id":"free"},{"bike_id":"7fc660bf-00b2-475b-896a-d19bf7596e33","system_id":"levelo_inurba_marseille","lat":43.312239,"lon":5.368562,"is_reserved":false,"is_disabled":false,"rental_uris":{"android":"levelo://app?vid=7fc660bf-00b2-475b-896a-d19bf7596e33","ios":"levelo://app?vid=7fc660bf-00b2-475b-896a-d19bf7596e33"},"vehicle_type_id":"4","last_reported":1702983979,"current_range_meters":28800,"station_id":"ce4bgl92rcd13ifvqbq0","pricing_plan_id":"free"},{"bike_id":"c715b015-30fc-402b-bf0c-c1cade3ce502","system_id":"levelo_inurba_marseille","lat":43.312239,"lon":5.368562,"is_reserved":false,"is_disabled":false,"rental_uris":{"android":"levelo://app?vid=c715b015-30fc-402b-bf0c-c1cade3ce502","ios":"levelo://app?vid=c715b015-30fc-402b-bf0c-c1cade3ce502"},"vehicle_type_id":"4","last_reported":1702983979,"current_range_meters":18400,"station_id":"ce4bgl92rcd13ifvqbq0","pricing_plan_id":"free"},{"bike_id":"65cf7538-beb8-49e0-8e37-450fc8be71a7","system_id":"levelo_inurba_marseille","lat":43.312239,"lon":5.368562,"is_reserved":false,"is_disabled":false,"rental_uris":{"android":"levelo://app?vid=65cf7538-beb8-49e0-8e37-450fc8be71a7","ios":"levelo://app?vid=65cf7538-beb8-49e0-8e37-450fc8be71a7"},"vehicle_type_id":"4","last_reported":1702983979,"current_range_meters":31600,"station_id":"ce4bgl92rcd13ifvqbq0","pricing_plan_id":"free"},{"bike_id":"41d65d69-db9c-410b-b29d-fe2b3a028e9f","system_id":"levelo_inurba_marseille","lat":43.309076,"lon":5.368465,"is_reserved":false,"is_disabled":false,"rental_uris":{"android":"levelo://app?vid=41d65d69-db9c-410b-b29d-fe2b3a028e9f","ios":"levelo://app?vid=41d65d69-db9c-410b-b29d-fe2b3a028e9f"},"vehicle_type_id":"4","last_reported":1702983979,"current_range_meters":31200,"station_id":"ce4bgn92rcd13ifvqbvg","pricing_plan_id":"free"},{"bike_id":"c4b013fd-8b44-4896-8630-5e6129f366c2","system_id":"levelo_inurba_marseille","lat":43.307945,"lon":5.376487,"is_reserved":false,"is_disabled":false,"rental_uris":{"android":"levelo://app?vid=c4b013fd-8b44-4896-8630-5e6129f366c2","ios":"levelo://app?vid=c4b013fd-8b44-4896-8630-5e6129f366c2"},"vehicle_type_id":"4","last_reported":1702983979,"current_range_meters":28800,"station_id":"ce4bgv92rcd13ifvqcq0","pricing_plan_id":"free"},{"bike_id":"a591e0ab-22bc-49ac-8ca0-c613a1f972e2","system_id":"levelo_inurba_marseille","lat":43.314811,"lon":5.373103,"is_reserved":false,"is_disabled":false,"rental_uris":{"android":"levelo://app?vid=a591e0ab-22bc-49ac-8ca0-c613a1f972e2","ios":"levelo://app?vid=a591e0ab-22bc-49ac-8ca0-c613a1f972e2"},"vehicle_type_id":"4","last_reported":1702983979,"current_range_meters":8800,"station_id":"ce4bgt12rcd13ifvqcd0","pricing_plan_id":"free"},{"bike_id":"81a92fd7-ee18-40d0-a3e2-cc270f4b09f1","system_id":"levelo_inurba_marseille","lat":43.30565,"lon":5.36533,"is_reserved":false,"is_disabled":false,"rental_uris":{"android":"levelo://app?vid=81a92fd7-ee18-40d0-a3e2-cc270f4b09f1","ios":"levelo://app?vid=81a92fd7-ee18-40d0-a3e2-cc270f4b09f1"},"vehicle_type_id":"4","last_reported":1702983979,"current_range_meters":31200,"station_id":"ce4bgs12rcd13ifvqcag","pricing_plan_id":"free"},{"bike_id":"2d8cc8c5-0d89-4b61-88d5-a541a830bc2c","system_id":"levelo_inurba_marseille","lat":43.30537,"lon":5.367345,"is_reserved":false,"is_disabled":false,"rental_uris":{"android":"levelo://app?vid=2d8cc8c5-0d89-4b61-88d5-a541a830bc2c","ios":"levelo://app?vid=2d8cc8c5-0d89-4b61-88d5-a541a830bc2c"},"vehicle_type_id":"4","last_reported":1702983979,"current_range_meters":29200,"station_id":"ce4bgrp2rcd13ifvqc9g","pricing_plan_id":"free"},{"bike_id":"ffaf1b68-1f49-416c-88e8-4483787775c7","system_id":"levelo_inurba_marseille","lat":43.30559,"lon":5.36553,"is_reserved":false,"is_disabled":false,"rental_uris":{"android":"levelo://app?vid=ffaf1b68-1f49-416c-88e8-4483787775c7","ios":"levelo://app?vid=ffaf1b68-1f49-416c-88e8-4483787775c7"},"vehicle_type_id":"4","last_reported":1702983979,"current_range_meters":20400,"station_id":"ce4bgs12rcd13ifvqcag","pricing_plan_id":"free"},{"bike_id":"cf241bb7-5c40-40ac-85aa-deffc9c22ef6","system_id":"levelo_inurba_marseille","lat":43.30556,"lon":5.36563,"is_reserved":false,"is_disabled":false,"rental_uris":{"android":"levelo://app?vid=cf241bb7-5c40-40ac-85aa-deffc9c22ef6","ios":"levelo://app?vid=cf241bb7-5c40-40ac-85aa-deffc9c22ef6"},"vehicle_type_id":"4","last_reported":1702983979,"current_range_meters":22000,"station_id":"ce4bgs12rcd13ifvqcag","pricing_plan_id":"free"},{"bike_id":"85db37dc-19a7-4473-8f50-fe00d18c535c","system_id":"levelo_inurba_marseille","lat":43.305368,"lon":5.367343,"is_reserved":false,"is_disabled":false,"rental_uris":{"android":"levelo://app?vid=85db37dc-19a7-4473-8f50-fe00d18c535c","ios":"levelo://app?vid=85db37dc-19a7-4473-8f50-fe00d18c535c"},"vehicle_type_id":"4","last_reported":1702983979,"current_range_meters":22000,"station_id":"ce4bgrp2rcd13ifvqc9g","pricing_plan_id":"free"},{"bike_id":"293e8745-e127-4333-85dd-fa0fb52fbf36","system_id":"levelo_inurba_marseille","lat":43.305551,"lon":5.365366,"is_reserved":false,"is_disabled":false,"rental_uris":{"android":"levelo://app?vid=293e8745-e127-4333-85dd-fa0fb52fbf36","ios":"levelo://app?vid=293e8745-e127-4333-85dd-fa0fb52fbf36"},"vehicle_type_id":"4","last_reported":1702983979,"current_range_meters":23200,"station_id":"ce4bgs12rcd13ifvqcag","pricing_plan_id":"free"},{"bike_id":"190bb94a-8dd4-4249-8948-cef756ef4849","system_id":"levelo_inurba_marseille","lat":43.305712,"lon":5.365641,"is_reserved":false,"is_disabled":false,"rental_uris":{"android":"levelo://app?vid=190bb94a-8dd4-4249-8948-cef756ef4849","ios":"levelo://app?vid=190bb94a-8dd4-4249-8948-cef756ef4849"},"vehicle_type_id":"4","last_reported":1702983979,"current_range_meters":31200,"station_id":"ce4bgs12rcd13ifvqcag","pricing_plan_id":"free"},{"bike_id":"1116e87c-ffc1-4009-a215-2b1e00e745f2","system_id":"levelo_inurba_marseille","lat":43.305433,"lon":5.36693,"is_reserved":false,"is_disabled":false,"rental_uris":{"android":"levelo://app?vid=1116e87c-ffc1-4009-a215-2b1e00e745f2","ios":"levelo://app?vid=1116e87c-ffc1-4009-a215-2b1e00e745f2"},"vehicle_type_id":"4","last_reported":1702983979,"current_range_meters":26000,"station_id":"","pricing_plan_id":"free"},{"bike_id":"aa763c21-2fa5-4803-b8c3-0d5acfb2c11e","system_id":"levelo_inurba_marseille","lat":43.305714,"lon":5.365633,"is_reserved":false,"is_disabled":false,"rental_uris":{"android":"levelo://app?vid=aa763c21-2fa5-4803-b8c3-0d5acfb2c11e","ios":"levelo://app?vid=aa763c21-2fa5-4803-b8c3-0d5acfb2c11e"},"vehicle_type_id":"4","last_reported":1702983979,"current_range_meters":13600,"station_id":"ce4bgs12rcd13ifvqcag","pricing_plan_id":"free"},{"bike_id":"d3b97062-8fd7-46c4-a27c-46444171065a","system_id":"levelo_inurba_marseille","lat":43.305368,"lon":5.367343,"is_reserved":false,"is_disabled":false,"rental_uris":{"android":"levelo://app?vid=d3b97062-8fd7-46c4-a27c-46444171065a","ios":"levelo://app?vid=d3b97062-8fd7-46c4-a27c-46444171065a"},"vehicle_type_id":"4","last_reported":1702983979,"current_range_meters":20400,"station_id":"ce4bgrp2rcd13ifvqc9g","pricing_plan_id":"free"},{"bike_id":"daac3644-21e2-4179-a1c8-1302acbeb72c","system_id":"levelo_inurba_marseille","lat":43.30548,"lon":5.36533,"is_reserved":false,"is_disabled":false,"rental_uris":{"android":"levelo://app?vid=daac3644-21e2-4179-a1c8-1302acbeb72c","ios":"levelo://app?vid=daac3644-21e2-4179-a1c8-1302acbeb72c"},"vehicle_type_id":"4","last_reported":1702983979,"current_range_meters":6000,"station_id":"ce4bgs12rcd13ifvqcag","pricing_plan_id":"free"},{"bike_id":"a484c887-9f61-4e17-9cc3-b293a293079b","system_id":"levelo_inurba_marseille","lat":43.305368,"lon":5.367343,"is_reserved":false,"is_disabled":false,"rental_uris":{"android":"levelo://app?vid=a484c887-9f61-4e17-9cc3-b293a293079b","ios":"levelo://app?vid=a484c887-9f61-4e17-9cc3-b293a293079b"},"vehicle_type_id":"4","last_reported":1702983979,"current_range_meters":29600,"station_id":"ce4bgrp2rcd13ifvqc9g","pricing_plan_id":"free"},{"bike_id":"7aeb448b-1750-4e30-9524-3a9ec2ea6519","system_id":"levelo_inurba_marseille","lat":43.305714,"lon":5.365633,"is_reserved":false,"is_disabled":false,"rental_uris":{"android":"levelo://app?vid=7aeb448b-1750-4e30-9524-3a9ec2ea6519","ios":"levelo://app?vid=7aeb448b-1750-4e30-9524-3a9ec2ea6519"},"vehicle_type_id":"4","last_reported":1702983979,"current_range_meters":30800,"station_id":"ce4bgs12rcd13ifvqcag","pricing_plan_id":"free"},{"bike_id":"8847bd39-39fa-459c-ba09-c3b2f1f9d210","system_id":"levelo_inurba_marseille","lat":43.305706,"lon":5.365654,"is_reserved":false,"is_disabled":false,"rental_uris":{"android":"levelo://app?vid=8847bd39-39fa-459c-ba09-c3b2f1f9d210","ios":"levelo://app?vid=8847bd39-39fa-459c-ba09-c3b2f1f9d210"},"vehicle_type_id":"4","last_reported":1702983979,"current_range_meters":26800,"station_id":"ce4bgs12rcd13ifvqcag","pricing_plan_id":"free"},{"bike_id":"cd4eed59-f7a6-440f-8411-7d2d07547176","system_id":"levelo_inurba_marseille","lat":43.305706,"lon":5.365654,"is_reserved":false,"is_disabled":false,"rental_uris":{"android":"levelo://app?vid=cd4eed59-f7a6-440f-8411-7d2d07547176","ios":"levelo://app?vid=cd4eed59-f7a6-440f-8411-7d2d07547176"},"vehicle_type_id":"4","last_reported":1702983979,"current_range_meters":6800,"station_id":"ce4bgs12rcd13ifvqcag","pricing_plan_id":"free"},{"bike_id":"ef654af0-4965-4832-9831-2e8e5b6af509","system_id":"levelo_inurba_marseille","lat":43.305706,"lon":5.365654,"is_reserved":false,"is_disabled":false,"rental_uris":{"android":"levelo://app?vid=ef654af0-4965-4832-9831-2e8e5b6af509","ios":"levelo://app?vid=ef654af0-4965-4832-9831-2e8e5b6af509"},"vehicle_type_id":"4","last_reported":1702983979,"current_range_meters":0,"station_id":"ce4bgs12rcd13ifvqcag","pricing_plan_id":"free"},{"bike_id":"7bd256cf-ac99-45f8-934a-6d72a53556dd","system_id":"levelo_inurba_marseille","lat":43.305706,"lon":5.365654,"is_reserved":false,"is_disabled":false,"rental_uris":{"android":"levelo://app?vid=7bd256cf-ac99-45f8-934a-6d72a53556dd","ios":"levelo://app?vid=7bd256cf-ac99-45f8-934a-6d72a53556dd"},"vehicle_type_id":"4","last_reported":1702983979,"current_range_meters":10400,"station_id":"ce4bgs12rcd13ifvqcag","pricing_plan_id":"free"},{"bike_id":"c1665ec2-c99d-4814-8bfc-aad6fbdd7aa3","system_id":"levelo_inurba_marseille","lat":43.305706,"lon":5.365654,"is_reserved":false,"is_disabled":false,"rental_uris":{"android":"levelo://app?vid=c1665ec2-c99d-4814-8bfc-aad6fbdd7aa3","ios":"levelo://app?vid=c1665ec2-c99d-4814-8bfc-aad6fbdd7aa3"},"vehicle_type_id":"4","last_reported":1702983979,"current_range_meters":26800,"station_id":"ce4bgs12rcd13ifvqcag","pricing_plan_id":"free"},{"bike_id":"274dcdb0-d28c-4362-960b-f13b02ff3ff8","system_id":"levelo_inurba_marseille","lat":43.305706,"lon":5.365654,"is_reserved":false,"is_disabled":false,"rental_uris":{"android":"levelo://app?vid=274dcdb0-d28c-4362-960b-f13b02ff3ff8","ios":"levelo://app?vid=274dcdb0-d28c-4362-960b-f13b02ff3ff8"},"vehicle_type_id":"4","last_reported":1702983979,"current_range_meters":31600,"station_id":"ce4bgs12rcd13ifvqcag","pricing_plan_id":"free"},{"bike_id":"57fb8f5b-e00a-497d-93fd-6736f87a05bc","system_id":"levelo_inurba_marseille","lat":43.30304,"lon":5.368987,"is_reserved":false,"is_disabled":false,"rental_uris":{"android":"levelo://app?vid=57fb8f5b-e00a-497d-93fd-6736f87a05bc","ios":"levelo://app?vid=57fb8f5b-e00a-497d-93fd-6736f87a05bc"},"vehicle_type_id":"4","last_reported":1702983979,"current_range_meters":28000,"station_id":"ce4bgqh2rcd13ifvqc5g","pricing_plan_id":"free"},{"bike_id":"4f5fda3b-a233-466e-accc-ca4498e528ae","system_id":"levelo_inurba_marseille","lat":43.301939,"lon":5.366286,"is_reserved":false,"is_disabled":false,"rental_uris":{"android":"levelo://app?vid=4f5fda3b-a233-466e-accc-ca4498e528ae","ios":"levelo://app?vid=4f5fda3b-a233-466e-accc-ca4498e528ae"},"vehicle_type_id":"4","last_reported":1702983979,"current_range_meters":14800,"station_id":"ce4bgrh2rcd13ifvqc8g","pricing_plan_id":"free"},{"bike_id":"c733c882-f1c0-427d-abd3-c91807043c2f","system_id":"levelo_inurba_marseille","lat":43.301939,"lon":5.366286,"is_reserved":false,"is_disabled":false,"rental_uris":{"android":"levelo://app?vid=c733c882-f1c0-427d-abd3-c91807043c2f","ios":"levelo://app?vid=c733c882-f1c0-427d-abd3-c91807043c2f"},"vehicle_type_id":"4","last_reported":1702983979,"current_range_meters":12400,"station_id":"ce4bgrh2rcd13ifvqc8g","pricing_plan_id":"free"},{"bike_id":"0a9bbfd1-8711-431a-ad8a-539609708f53","system_id":"levelo_inurba_marseille","lat":43.308012,"lon":5.381511,"is_reserved":false,"is_disabled":false,"rental_uris":{"android":"levelo://app?vid=0a9bbfd1-8711-431a-ad8a-539609708f53","ios":"levelo://app?vid=0a9bbfd1-8711-431a-ad8a-539609708f53"},"vehicle_type_id":"4","last_reported":1702983979,"current_range_meters":25600,"station_id":"ce4bgt12rcd13ifvqce0","pricing_plan_id":"free"},{"bike_id":"5906c69d-2b81-4df5-a73c-6e8881f44758","system_id":"levelo_inurba_marseille","lat":43.324771,"lon":5.36557,"is_reserved":false,"is_disabled":false,"rental_uris":{"android":"levelo://app?vid=5906c69d-2b81-4df5-a73c-6e8881f44758","ios":"levelo://app?vid=5906c69d-2b81-4df5-a73c-6e8881f44758"},"vehicle_type_id":"4","last_reported":1702983979,"current_range_meters":14400,"station_id":"ce4bhs12rcd13ifvqhvg","pricing_plan_id":"free"},{"bike_id":"1822044c-8f25-4be1-8698-56d5ee0018b3","system_id":"levelo_inurba_marseille","lat":43.324771,"lon":5.36557,"is_reserved":false,"is_disabled":false,"rental_uris":{"android":"levelo://app?vid=1822044c-8f25-4be1-8698-56d5ee0018b3","ios":"levelo://app?vid=1822044c-8f25-4be1-8698-56d5ee0018b3"},"vehicle_type_id":"4","last_reported":1702983979,"current_range_meters":22400,"station_id":"ce4bhs12rcd13ifvqhvg","pricing_plan_id":"free"},{"bike_id":"126a5ca1-7a16-4283-a5e7-600e3c957491","system_id":"levelo_inurba_marseille","lat":43.30141,"lon":5.37406,"is_reserved":false,"is_disabled":false,"rental_uris":{"android":"levelo://app?vid=126a5ca1-7a16-4283-a5e7-600e3c957491","ios":"levelo://app?vid=126a5ca1-7a16-4283-a5e7-600e3c957491"},"vehicle_type_id":"4","last_reported":1702983979,"current_range_meters":24400,"station_id":"ce4bgs92rcd13ifvqcc0","pricing_plan_id":"free"},{"bike_id":"242d3970-15e0-4463-9f0a-902581b3522a","system_id":"levelo_inurba_marseille","lat":43.301411,"lon":5.374087,"is_reserved":false,"is_disabled":false,"rental_uris":{"android":"levelo://app?vid=242d3970-15e0-4463-9f0a-902581b3522a","ios":"levelo://app?vid=242d3970-15e0-4463-9f0a-902581b3522a"},"vehicle_type_id":"4","last_reported":1702983979,"current_range_meters":22800,"station_id":"ce4bgs92rcd13ifvqcc0","pricing_plan_id":"free"},{"bike_id":"c2e4c9a0-68f0-4f31-b3e7-889be6c1e0de","system_id":"levelo_inurba_marseille","lat":43.30141,"lon":5.37411,"is_reserved":false,"is_disabled":false,"rental_uris":{"android":"levelo://app?vid=c2e4c9a0-68f0-4f31-b3e7-889be6c1e0de","ios":"levelo://app?vid=c2e4c9a0-68f0-4f31-b3e7-889be6c1e0de"},"vehicle_type_id":"4","last_reported":1702983979,"current_range_meters":4800,"station_id":"ce4bgs92rcd13ifvqcc0","pricing_plan_id":"free"},{"bike_id":"d881cd7f-8df8-43e8-af3b-b8f60eea9e81","system_id":"levelo_inurba_marseille","lat":43.30132,"lon":5.37391,"is_reserved":false,"is_disabled":false,"rental_uris":{"android":"levelo://app?vid=d881cd7f-8df8-43e8-af3b-b8f60eea9e81","ios":"levelo://app?vid=d881cd7f-8df8-43e8-af3b-b8f60eea9e81"},"vehicle_type_id":"4","last_reported":1702983979,"current_range_meters":22400,"station_id":"ce4bgs92rcd13ifvqcc0","pricing_plan_id":"free"},{"bike_id":"d75605e7-261d-4811-bda9-9427769b961a","system_id":"levelo_inurba_marseille","lat":43.30141,"lon":5.37422,"is_reserved":false,"is_disabled":false,"rental_uris":{"android":"levelo://app?vid=d75605e7-261d-4811-bda9-9427769b961a","ios":"levelo://app?vid=d75605e7-261d-4811-bda9-9427769b961a"},"vehicle_type_id":"4","last_reported":1702983979,"current_range_meters":28400,"station_id":"ce4bgs92rcd13ifvqcc0","pricing_plan_id":"free"},{"bike_id":"dab176cb-de60-4175-b1bf-60170359e446","system_id":"levelo_inurba_marseille","lat":43.3014,"lon":5.37421,"is_reserved":false,"is_disabled":false,"rental_uris":{"android":"levelo://app?vid=dab176cb-de60-4175-b1bf-60170359e446","ios":"levelo://app?vid=dab176cb-de60-4175-b1bf-60170359e446"},"vehicle_type_id":"4","last_reported":1702983979,"current_range_meters":18800,"station_id":"ce4bgs92rcd13ifvqcc0","pricing_plan_id":"free"},{"bike_id":"264e3760-c068-4f74-aeea-c67a790faa96","system_id":"levelo_inurba_marseille","lat":43.301323,"lon":5.37424,"is_reserved":false,"is_disabled":false,"rental_uris":{"android":"levelo://app?vid=264e3760-c068-4f74-aeea-c67a790faa96","ios":"levelo://app?vid=264e3760-c068-4f74-aeea-c67a790faa96"},"vehicle_type_id":"4","last_reported":1702983979,"current_range_meters":6400,"station_id":"ce4bgs92rcd13ifvqcc0","pricing_plan_id":"free"},{"bike_id":"a3635f03-b693-4a78-8dc4-8df97d392bee","system_id":"levelo_inurba_marseille","lat":43.313571,"lon":5.384829,"is_reserved":false,"is_disabled":false,"rental_uris":{"android":"levelo://app?vid=a3635f03-b693-4a78-8dc4-8df97d392bee","ios":"levelo://app?vid=a3635f03-b693-4a78-8dc4-8df97d392bee"},"vehicle_type_id":"4","last_reported":1702983979,"current_range_meters":28400,"station_id":"ce4bgt92rcd13ifvqcf0","pricing_plan_id":"free"},{"bike_id":"2f23175a-f067-473f-81f9-f99dcf232092","system_id":"levelo_inurba_marseille","lat":43.299222,"lon":5.365554,"is_reserved":false,"is_disabled":false,"rental_uris":{"android":"levelo://app?vid=2f23175a-f067-473f-81f9-f99dcf232092","ios":"levelo://app?vid=2f23175a-f067-473f-81f9-f99dcf232092"},"vehicle_type_id":"4","last_reported":1702983979,"current_range_meters":22000,"station_id":"ce4bgm92rcd13ifvqbr0","pricing_plan_id":"free"},{"bike_id":"0a364ff9-f60d-4031-bbe3-d9a99107a900","system_id":"levelo_inurba_marseille","lat":43.299222,"lon":5.365554,"is_reserved":false,"is_disabled":false,"rental_uris":{"android":"levelo://app?vid=0a364ff9-f60d-4031-bbe3-d9a99107a900","ios":"levelo://app?vid=0a364ff9-f60d-4031-bbe3-d9a99107a900"},"vehicle_type_id":"4","last_reported":1702983979,"current_range_meters":18800,"station_id":"ce4bgm92rcd13ifvqbr0","pricing_plan_id":"free"},{"bike_id":"8ce79b2a-01a8-4f27-a422-43ab0e54b30b","system_id":"levelo_inurba_marseille","lat":43.299243,"lon":5.37481,"is_reserved":false,"is_disabled":false,"rental_uris":{"android":"levelo://app?vid=8ce79b2a-01a8-4f27-a422-43ab0e54b30b","ios":"levelo://app?vid=8ce79b2a-01a8-4f27-a422-43ab0e54b30b"},"vehicle_type_id":"4","last_reported":1702983979,"current_range_meters":30400,"station_id":"ce4bgjh2rcd13ifvqbg0","pricing_plan_id":"free"},{"bike_id":"ca0834b0-077b-48e5-8d61-d563b65c06e3","system_id":"levelo_inurba_marseille","lat":43.305446,"lon":5.384323,"is_reserved":false,"is_disabled":false,"rental_uris":{"android":"levelo://app?vid=ca0834b0-077b-48e5-8d61-d563b65c06e3","ios":"levelo://app?vid=ca0834b0-077b-48e5-8d61-d563b65c06e3"},"vehicle_type_id":"4","last_reported":1702983979,"current_range_meters":3600,"station_id":"ce4bgg92rcd13ifvqb30","pricing_plan_id":"free"},{"bike_id":"38c5728e-4f76-4abe-a917-4dd4ea218d32","system_id":"levelo_inurba_marseille","lat":43.298433,"lon":5.362774,"is_reserved":false,"is_disabled":false,"rental_uris":{"android":"levelo://app?vid=38c5728e-4f76-4abe-a917-4dd4ea218d32","ios":"levelo://app?vid=38c5728e-4f76-4abe-a917-4dd4ea218d32"},"vehicle_type_id":"4","last_reported":1702983979,"current_range_meters":30000,"station_id":"ce4bgpp2rcd13ifvqc3g","pricing_plan_id":"free"},{"bike_id":"9b0d56b0-dec3-478f-a1ff-e62c8dbe4543","system_id":"levelo_inurba_marseille","lat":43.299243,"lon":5.37481,"is_reserved":false,"is_disabled":false,"rental_uris":{"android":"levelo://app?vid=9b0d56b0-dec3-478f-a1ff-e62c8dbe4543","ios":"levelo://app?vid=9b0d56b0-dec3-478f-a1ff-e62c8dbe4543"},"vehicle_type_id":"4","last_reported":1702983979,"current_range_meters":24000,"station_id":"ce4bgjh2rcd13ifvqbg0","pricing_plan_id":"free"},{"bike_id":"68eb485f-1a6c-40ed-a8ec-33dc0a140da5","system_id":"levelo_inurba_marseille","lat":43.298433,"lon":5.362774,"is_reserved":false,"is_disabled":false,"rental_uris":{"android":"levelo://app?vid=68eb485f-1a6c-40ed-a8ec-33dc0a140da5","ios":"levelo://app?vid=68eb485f-1a6c-40ed-a8ec-33dc0a140da5"},"vehicle_type_id":"4","last_reported":1702983979,"current_range_meters":19600,"station_id":"ce4bgpp2rcd13ifvqc3g","pricing_plan_id":"free"},{"bike_id":"57b42e6e-6d61-42dd-8f83-d579ec66c49c","system_id":"levelo_inurba_marseille","lat":43.299243,"lon":5.37481,"is_reserved":false,"is_disabled":false,"rental_uris":{"android":"levelo://app?vid=57b42e6e-6d61-42dd-8f83-d579ec66c49c","ios":"levelo://app?vid=57b42e6e-6d61-42dd-8f83-d579ec66c49c"},"vehicle_type_id":"4","last_reported":1702983979,"current_range_meters":24400,"station_id":"ce4bgjh2rcd13ifvqbg0","pricing_plan_id":"free"},{"bike_id":"26a3b4a2-3431-4354-9a3d-c6cd2d1ab7e5","system_id":"levelo_inurba_marseille","lat":43.297163,"lon":5.365866,"is_reserved":false,"is_disabled":false,"rental_uris":{"android":"levelo://app?vid=26a3b4a2-3431-4354-9a3d-c6cd2d1ab7e5","ios":"levelo://app?vid=26a3b4a2-3431-4354-9a3d-c6cd2d1ab7e5"},"vehicle_type_id":"4","last_reported":1702983979,"current_range_meters":25600,"station_id":"ce4bgn12rcd13ifvqbt0","pricing_plan_id":"free"},{"bike_id":"91ebca5b-5282-482d-9767-93e6eef18439","system_id":"levelo_inurba_marseille","lat":43.328371,"lon":5.366909,"is_reserved":false,"is_disabled":false,"rental_uris":{"android":"levelo://app?vid=91ebca5b-5282-482d-9767-93e6eef18439","ios":"levelo://app?vid=91ebca5b-5282-482d-9767-93e6eef18439"},"vehicle_type_id":"4","last_reported":1702983979,"current_range_meters":12800,"station_id":"ce4bhs92rcd13ifvqi0g","pricing_plan_id":"free"},{"bike_id":"d83fbae2-5f8f-42f4-8ccf-5b712fffb999","system_id":"levelo_inurba_marseille","lat":43.328371,"lon":5.366909,"is_reserved":false,"is_disabled":false,"rental_uris":{"android":"levelo://app?vid=d83fbae2-5f8f-42f4-8ccf-5b712fffb999","ios":"levelo://app?vid=d83fbae2-5f8f-42f4-8ccf-5b712fffb999"},"vehicle_type_id":"4","last_reported":1702983979,"current_range_meters":27200,"station_id":"ce4bhs92rcd13ifvqi0g","pricing_plan_id":"free"},{"bike_id":"5af33d36-774c-4cab-a6d0-f3cdd87b4fbd","system_id":"levelo_inurba_marseille","lat":43.29573,"lon":5.367355,"is_reserved":false,"is_disabled":false,"rental_uris":{"android":"levelo://app?vid=5af33d36-774c-4cab-a6d0-f3cdd87b4fbd","ios":"levelo://app?vid=5af33d36-774c-4cab-a6d0-f3cdd87b4fbd"},"vehicle_type_id":"4","last_reported":1702983979,"current_range_meters":20800,"station_id":"ce4bgph2rcd13ifvqc2g","pricing_plan_id":"free"},{"bike_id":"178f78e4-1f0f-4014-8edc-6c08a2b60a11","system_id":"levelo_inurba_marseille","lat":43.29573,"lon":5.367355,"is_reserved":false,"is_disabled":false,"rental_uris":{"android":"levelo://app?vid=178f78e4-1f0f-4014-8edc-6c08a2b60a11","ios":"levelo://app?vid=178f78e4-1f0f-4014-8edc-6c08a2b60a11"},"vehicle_type_id":"4","last_reported":1702983979,"current_range_meters":30000,"station_id":"ce4bgph2rcd13ifvqc2g","pricing_plan_id":"free"},{"bike_id":"ac8f1a77-0869-4439-bac7-85eb8d8f892d","system_id":"levelo_inurba_marseille","lat":43.296131,"lon":5.370791,"is_reserved":false,"is_disabled":false,"rental_uris":{"android":"levelo://app?vid=ac8f1a77-0869-4439-bac7-85eb8d8f892d","ios":"levelo://app?vid=ac8f1a77-0869-4439-bac7-85eb8d8f892d"},"vehicle_type_id":"4","last_reported":1702983979,"current_range_meters":24000,"station_id":"ce4bgnh2rcd13ifvqc0g","pricing_plan_id":"free"},{"bike_id":"c0fb2a03-b0fe-4feb-bf33-c0be5ded5cd9","system_id":"levelo_inurba_marseille","lat":43.29573,"lon":5.367355,"is_reserved":false,"is_disabled":false,"rental_uris":{"android":"levelo://app?vid=c0fb2a03-b0fe-4feb-bf33-c0be5ded5cd9","ios":"levelo://app?vid=c0fb2a03-b0fe-4feb-bf33-c0be5ded5cd9"},"vehicle_type_id":"4","last_reported":1702983979,"current_range_meters":23200,"station_id":"ce4bgph2rcd13ifvqc2g","pricing_plan_id":"free"},{"bike_id":"8a66d47a-4ef3-45bd-b73e-6a008547fc2f","system_id":"levelo_inurba_marseille","lat":43.29581,"lon":5.36732,"is_reserved":false,"is_disabled":false,"rental_uris":{"android":"levelo://app?vid=8a66d47a-4ef3-45bd-b73e-6a008547fc2f","ios":"levelo://app?vid=8a66d47a-4ef3-45bd-b73e-6a008547fc2f"},"vehicle_type_id":"4","last_reported":1702983979,"current_range_meters":20000,"station_id":"ce4bgph2rcd13ifvqc2g","pricing_plan_id":"free"},{"bike_id":"aca62c6d-f373-41e8-9f45-10e4ac9d22be","system_id":"levelo_inurba_marseille","lat":43.29573,"lon":5.367355,"is_reserved":false,"is_disabled":false,"rental_uris":{"android":"levelo://app?vid=aca62c6d-f373-41e8-9f45-10e4ac9d22be","ios":"levelo://app?vid=aca62c6d-f373-41e8-9f45-10e4ac9d22be"},"vehicle_type_id":"4","last_reported":1702983979,"current_range_meters":30400,"station_id":"ce4bgph2rcd13ifvqc2g","pricing_plan_id":"free"},{"bike_id":"e36a4bb1-feec-4e1c-8511-3e9756a59dcc","system_id":"levelo_inurba_marseille","lat":43.29573,"lon":5.367355,"is_reserved":false,"is_disabled":false,"rental_uris":{"android":"levelo://app?vid=e36a4bb1-feec-4e1c-8511-3e9756a59dcc","ios":"levelo://app?vid=e36a4bb1-feec-4e1c-8511-3e9756a59dcc"},"vehicle_type_id":"4","last_reported":1702983979,"current_range_meters":28400,"station_id":"ce4bgph2rcd13ifvqc2g","pricing_plan_id":"free"},{"bike_id":"1870a230-ac04-461a-8b8f-f0cff29a7cc5","system_id":"levelo_inurba_marseille","lat":43.309589,"lon":5.390258,"is_reserved":false,"is_disabled":false,"rental_uris":{"android":"levelo://app?vid=1870a230-ac04-461a-8b8f-f0cff29a7cc5","ios":"levelo://app?vid=1870a230-ac04-461a-8b8f-f0cff29a7cc5"},"vehicle_type_id":"4","last_reported":1702983979,"current_range_meters":18800,"station_id":"ce4bgup2rcd13ifvqco0","pricing_plan_id":"free"},{"bike_id":"d899966b-9e5e-4116-9fd5-05078346a4fd","system_id":"levelo_inurba_marseille","lat":43.299028,"lon":5.381509,"is_reserved":false,"is_disabled":false,"rental_uris":{"android":"levelo://app?vid=d899966b-9e5e-4116-9fd5-05078346a4fd","ios":"levelo://app?vid=d899966b-9e5e-4116-9fd5-05078346a4fd"},"vehicle_type_id":"4","last_reported":1702983979,"current_range_meters":27200,"station_id":"ce4bgj12rcd13ifvqbc0","pricing_plan_id":"free"},{"bike_id":"a7dca992-cfa5-4b84-8ec0-46d2f08286cf","system_id":"levelo_inurba_marseille","lat":43.309589,"lon":5.390258,"is_reserved":false,"is_disabled":false,"rental_uris":{"android":"levelo://app?vid=a7dca992-cfa5-4b84-8ec0-46d2f08286cf","ios":"levelo://app?vid=a7dca992-cfa5-4b84-8ec0-46d2f08286cf"},"vehicle_type_id":"4","last_reported":1702983979,"current_range_meters":7200,"station_id":"ce4bgup2rcd13ifvqco0","pricing_plan_id":"free"},{"bike_id":"40554fe8-87bf-41d5-b75a-7fd0e2ec929c","system_id":"levelo_inurba_marseille","lat":43.31763,"lon":5.39023,"is_reserved":false,"is_disabled":false,"rental_uris":{"android":"levelo://app?vid=40554fe8-87bf-41d5-b75a-7fd0e2ec929c","ios":"levelo://app?vid=40554fe8-87bf-41d5-b75a-7fd0e2ec929c"},"vehicle_type_id":"4","last_reported":1702983979,"current_range_meters":30400,"station_id":"ce4bhqp2rcd13ifvqhng","pricing_plan_id":"free"},{"bike_id":"f9edd7a5-d0d7-4b36-848d-0f694e269476","system_id":"levelo_inurba_marseille","lat":43.295748,"lon":5.37522,"is_reserved":false,"is_disabled":false,"rental_uris":{"android":"levelo://app?vid=f9edd7a5-d0d7-4b36-848d-0f694e269476","ios":"levelo://app?vid=f9edd7a5-d0d7-4b36-848d-0f694e269476"},"vehicle_type_id":"4","last_reported":1702983979,"current_range_meters":18400,"station_id":"ce4bgh92rcd13ifvqb50","pricing_plan_id":"free"},{"bike_id":"07ee903f-9ce5-4f9b-833d-a63e69961786","system_id":"levelo_inurba_marseille","lat":43.296263,"lon":5.377094,"is_reserved":false,"is_disabled":false,"rental_uris":{"android":"levelo://app?vid=07ee903f-9ce5-4f9b-833d-a63e69961786","ios":"levelo://app?vid=07ee903f-9ce5-4f9b-833d-a63e69961786"},"vehicle_type_id":"4","last_reported":1702983979,"current_range_meters":17600,"station_id":"ce4bgi92rcd13ifvqb90","pricing_plan_id":"free"},{"bike_id":"67a579e1-4bf9-4fa1-bfdd-d0c6cfc4791a","system_id":"levelo_inurba_marseille","lat":43.32367,"lon":5.388836,"is_reserved":false,"is_disabled":false,"rental_uris":{"android":"levelo://app?vid=67a579e1-4bf9-4fa1-bfdd-d0c6cfc4791a","ios":"levelo://app?vid=67a579e1-4bf9-4fa1-bfdd-d0c6cfc4791a"},"vehicle_type_id":"4","last_reported":1702983979,"current_range_meters":4000,"station_id":"ce4bhqp2rcd13ifvqhog","pricing_plan_id":"free"},{"bike_id":"1b32dad6-b365-44ce-b74e-d83cd2081e4d","system_id":"levelo_inurba_marseille","lat":43.32367,"lon":5.388836,"is_reserved":false,"is_disabled":false,"rental_uris":{"android":"levelo://app?vid=1b32dad6-b365-44ce-b74e-d83cd2081e4d","ios":"levelo://app?vid=1b32dad6-b365-44ce-b74e-d83cd2081e4d"},"vehicle_type_id":"4","last_reported":1702983979,"current_range_meters":27200,"station_id":"ce4bhqp2rcd13ifvqhog","pricing_plan_id":"free"},{"bike_id":"555e72ff-6e18-4272-8e93-8bff72f6466a","system_id":"levelo_inurba_marseille","lat":43.32367,"lon":5.388836,"is_reserved":false,"is_disabled":false,"rental_uris":{"android":"levelo://app?vid=555e72ff-6e18-4272-8e93-8bff72f6466a","ios":"levelo://app?vid=555e72ff-6e18-4272-8e93-8bff72f6466a"},"vehicle_type_id":"4","last_reported":1702983979,"current_range_meters":15600,"station_id":"ce4bhqp2rcd13ifvqhog","pricing_plan_id":"free"},{"bike_id":"f16a7363-728e-46ee-bfc7-dae640cce21b","system_id":"levelo_inurba_marseille","lat":43.2928,"lon":5.36791,"is_reserved":false,"is_disabled":false,"rental_uris":{"android":"levelo://app?vid=f16a7363-728e-46ee-bfc7-dae640cce21b","ios":"levelo://app?vid=f16a7363-728e-46ee-bfc7-dae640cce21b"},"vehicle_type_id":"4","last_reported":1702983979,"current_range_meters":28000,"station_id":"","pricing_plan_id":"free"},{"bike_id":"c7490951-a352-4c9f-b0c1-97c05030f359","system_id":"levelo_inurba_marseille","lat":43.293259,"lon":5.371586,"is_reserved":false,"is_disabled":false,"rental_uris":{"android":"levelo://app?vid=c7490951-a352-4c9f-b0c1-97c05030f359","ios":"levelo://app?vid=c7490951-a352-4c9f-b0c1-97c05030f359"},"vehicle_type_id":"4","last_reported":1702983979,"current_range_meters":18800,"station_id":"ce4bgh92rcd13ifvqb40","pricing_plan_id":"free"},{"bike_id":"04978a60-937a-4107-8078-6501c6e9813f","system_id":"levelo_inurba_marseille","lat":43.29275,"lon":5.36762,"is_reserved":false,"is_disabled":false,"rental_uris":{"android":"levelo://app?vid=04978a60-937a-4107-8078-6501c6e9813f","ios":"levelo://app?vid=04978a60-937a-4107-8078-6501c6e9813f"},"vehicle_type_id":"4","last_reported":1702983979,"current_range_meters":26800,"station_id":"","pricing_plan_id":"free"},{"bike_id":"58e7d932-f178-487d-a9aa-08a8c885d5ae","system_id":"levelo_inurba_marseille","lat":43.305994,"lon":5.393687,"is_reserved":false,"is_disabled":false,"rental_uris":{"android":"levelo://app?vid=58e7d932-f178-487d-a9aa-08a8c885d5ae","ios":"levelo://app?vid=58e7d932-f178-487d-a9aa-08a8c885d5ae"},"vehicle_type_id":"4","last_reported":1702983979,"current_range_meters":30000,"station_id":"ce4bh0p2rcd13ifvqd80","pricing_plan_id":"free"},{"bike_id":"df9e0c1d-9dd7-4ea6-b03d-f87bddf46549","system_id":"levelo_inurba_marseille","lat":43.300852,"lon":5.390859,"is_reserved":false,"is_disabled":false,"rental_uris":{"android":"levelo://app?vid=df9e0c1d-9dd7-4ea6-b03d-f87bddf46549","ios":"levelo://app?vid=df9e0c1d-9dd7-4ea6-b03d-f87bddf46549"},"vehicle_type_id":"4","last_reported":1702983979,"current_range_meters":10400,"station_id":"ce4bh192rcd13ifvqdb0","pricing_plan_id":"free"},{"bike_id":"c6c2e409-89ef-45ee-a14f-3a31d87f8c47","system_id":"levelo_inurba_marseille","lat":43.300961,"lon":5.390836,"is_reserved":false,"is_disabled":false,"rental_uris":{"android":"levelo://app?vid=c6c2e409-89ef-45ee-a14f-3a31d87f8c47","ios":"levelo://app?vid=c6c2e409-89ef-45ee-a14f-3a31d87f8c47"},"vehicle_type_id":"4","last_reported":1702983979,"current_range_meters":29200,"station_id":"","pricing_plan_id":"free"},{"bike_id":"9ca58f80-8515-4365-ad9e-dd42e0ef33a8","system_id":"levelo_inurba_marseille","lat":43.30085,"lon":5.390856,"is_reserved":false,"is_disabled":false,"rental_uris":{"android":"levelo://app?vid=9ca58f80-8515-4365-ad9e-dd42e0ef33a8","ios":"levelo://app?vid=9ca58f80-8515-4365-ad9e-dd42e0ef33a8"},"vehicle_type_id":"4","last_reported":1702983979,"current_range_meters":19200,"station_id":"ce4bh192rcd13ifvqdb0","pricing_plan_id":"free"},{"bike_id":"8b79af5d-2131-4570-a530-b7019b38c020","system_id":"levelo_inurba_marseille","lat":43.291675,"lon":5.371583,"is_reserved":false,"is_disabled":false,"rental_uris":{"android":"levelo://app?vid=8b79af5d-2131-4570-a530-b7019b38c020","ios":"levelo://app?vid=8b79af5d-2131-4570-a530-b7019b38c020"},"vehicle_type_id":"4","last_reported":1702983979,"current_range_meters":23600,"station_id":"ce4bha92rcd13ifvqeh0","pricing_plan_id":"free"},{"bike_id":"b496c7c7-1aca-464e-9f35-525f473b39b2","system_id":"levelo_inurba_marseille","lat":43.29529,"lon":5.385581,"is_reserved":false,"is_disabled":false,"rental_uris":{"android":"levelo://app?vid=b496c7c7-1aca-464e-9f35-525f473b39b2","ios":"levelo://app?vid=b496c7c7-1aca-464e-9f35-525f473b39b2"},"vehicle_type_id":"4","last_reported":1702983979,"current_range_meters":18800,"station_id":"ce4bgih2rcd13ifvqba0","pricing_plan_id":"free"},{"bike_id":"b9f73b6a-cd33-40ea-a579-c817738853eb","system_id":"levelo_inurba_marseille","lat":43.290336,"lon":5.386425,"is_reserved":false,"is_disabled":false,"rental_uris":{"android":"levelo://app?vid=b9f73b6a-cd33-40ea-a579-c817738853eb","ios":"levelo://app?vid=b9f73b6a-cd33-40ea-a579-c817738853eb"},"vehicle_type_id":"4","last_reported":1702983979,"current_range_meters":12400,"station_id":"ce4bh4p2rcd13ifvqe0g","pricing_plan_id":"free"},{"bike_id":"81f9d17c-1726-41c5-983d-d3b0612eb4d6","system_id":"levelo_inurba_marseille","lat":43.290631,"lon":5.359244,"is_reserved":false,"is_disabled":false,"rental_uris":{"android":"levelo://app?vid=81f9d17c-1726-41c5-983d-d3b0612eb4d6","ios":"levelo://app?vid=81f9d17c-1726-41c5-983d-d3b0612eb4d6"},"vehicle_type_id":"4","last_reported":1702983979,"current_range_meters":25600,"station_id":"ce4bha92rcd13ifvqeg0","pricing_plan_id":"free"},{"bike_id":"2b876968-f113-43b4-bc64-b2a45661f38c","system_id":"levelo_inurba_marseille","lat":43.290631,"lon":5.359244,"is_reserved":false,"is_disabled":false,"rental_uris":{"android":"levelo://app?vid=2b876968-f113-43b4-bc64-b2a45661f38c","ios":"levelo://app?vid=2b876968-f113-43b4-bc64-b2a45661f38c"},"vehicle_type_id":"4","last_reported":1702983979,"current_range_meters":5600,"station_id":"ce4bha92rcd13ifvqeg0","pricing_plan_id":"free"},{"bike_id":"71a4cded-0422-4e82-933e-d7ac7f274394","system_id":"levelo_inurba_marseille","lat":43.289468,"lon":5.363719,"is_reserved":false,"is_disabled":false,"rental_uris":{"android":"levelo://app?vid=71a4cded-0422-4e82-933e-d7ac7f274394","ios":"levelo://app?vid=71a4cded-0422-4e82-933e-d7ac7f274394"},"vehicle_type_id":"4","last_reported":1702983979,"current_range_meters":27200,"station_id":"ce4bhc92rcd13ifvqetg","pricing_plan_id":"free"},{"bike_id":"61ded3a7-87b0-4a31-945b-f46e8087ddc0","system_id":"levelo_inurba_marseille","lat":43.304296,"lon":5.397513,"is_reserved":false,"is_disabled":false,"rental_uris":{"android":"levelo://app?vid=61ded3a7-87b0-4a31-945b-f46e8087ddc0","ios":"levelo://app?vid=61ded3a7-87b0-4a31-945b-f46e8087ddc0"},"vehicle_type_id":"4","last_reported":1702983979,"current_range_meters":19200,"station_id":"ce4bh092rcd13ifvqd20","pricing_plan_id":"free"},{"bike_id":"05e7cbe2-418d-4f38-8041-42abc083f639","system_id":"levelo_inurba_marseille","lat":43.292642,"lon":5.384254,"is_reserved":false,"is_disabled":false,"rental_uris":{"android":"levelo://app?vid=05e7cbe2-418d-4f38-8041-42abc083f639","ios":"levelo://app?vid=05e7cbe2-418d-4f38-8041-42abc083f639"},"vehicle_type_id":"4","last_reported":1702983979,"current_range_meters":11200,"station_id":"ce4bh692rcd13ifvqea0","pricing_plan_id":"free"},{"bike_id":"39c1a1c3-cbe5-4428-ac17-f1831bb122ce","system_id":"levelo_inurba_marseille","lat":43.290104,"lon":5.356111,"is_reserved":false,"is_disabled":false,"rental_uris":{"android":"levelo://app?vid=39c1a1c3-cbe5-4428-ac17-f1831bb122ce","ios":"levelo://app?vid=39c1a1c3-cbe5-4428-ac17-f1831bb122ce"},"vehicle_type_id":"4","last_reported":1702983979,"current_range_meters":9600,"station_id":"ce4bhb92rcd13ifvqen0","pricing_plan_id":"free"},{"bike_id":"208297bc-3d30-4364-baa4-33c727500ac6","system_id":"levelo_inurba_marseille","lat":43.330442,"lon":5.389148,"is_reserved":false,"is_disabled":false,"rental_uris":{"android":"levelo://app?vid=208297bc-3d30-4364-baa4-33c727500ac6","ios":"levelo://app?vid=208297bc-3d30-4364-baa4-33c727500ac6"},"vehicle_type_id":"4","last_reported":1702983979,"current_range_meters":6000,"station_id":"ce4bhr92rcd13ifvqhrg","pricing_plan_id":"free"},{"bike_id":"549f20c7-e694-4409-88f8-e9c1555d154b","system_id":"levelo_inurba_marseille","lat":43.330442,"lon":5.389148,"is_reserved":false,"is_disabled":false,"rental_uris":{"android":"levelo://app?vid=549f20c7-e694-4409-88f8-e9c1555d154b","ios":"levelo://app?vid=549f20c7-e694-4409-88f8-e9c1555d154b"},"vehicle_type_id":"4","last_reported":1702983979,"current_range_meters":22400,"station_id":"ce4bhr92rcd13ifvqhrg","pricing_plan_id":"free"},{"bike_id":"fb541042-ca34-42cc-9403-1629f61ffdf5","system_id":"levelo_inurba_marseille","lat":43.33045,"lon":5.38918,"is_reserved":false,"is_disabled":false,"rental_uris":{"android":"levelo://app?vid=fb541042-ca34-42cc-9403-1629f61ffdf5","ios":"levelo://app?vid=fb541042-ca34-42cc-9403-1629f61ffdf5"},"vehicle_type_id":"4","last_reported":1702983979,"current_range_meters":29200,"station_id":"ce4bhr92rcd13ifvqhrg","pricing_plan_id":"free"},{"bike_id":"540d0d1c-799d-4741-b14d-2dfb21bd716b","system_id":"levelo_inurba_marseille","lat":43.290995,"lon":5.381361,"is_reserved":false,"is_disabled":false,"rental_uris":{"android":"levelo://app?vid=540d0d1c-799d-4741-b14d-2dfb21bd716b","ios":"levelo://app?vid=540d0d1c-799d-4741-b14d-2dfb21bd716b"},"vehicle_type_id":"4","last_reported":1702983979,"current_range_meters":26000,"station_id":"ce4bh512rcd13ifvqe2g","pricing_plan_id":"free"},{"bike_id":"060b72c2-8b54-4a95-bd07-088930de08ff","system_id":"levelo_inurba_marseille","lat":43.289741,"lon":5.378306,"is_reserved":false,"is_disabled":false,"rental_uris":{"android":"levelo://app?vid=060b72c2-8b54-4a95-bd07-088930de08ff","ios":"levelo://app?vid=060b72c2-8b54-4a95-bd07-088930de08ff"},"vehicle_type_id":"4","last_reported":1702983979,"current_range_meters":19200,"station_id":"ce4bh9p2rcd13ifvqed0","pricing_plan_id":"free"},{"bike_id":"db64e113-0c95-4acc-a346-01456f17b6e8","system_id":"levelo_inurba_marseille","lat":43.28974,"lon":5.37826,"is_reserved":false,"is_disabled":false,"rental_uris":{"android":"levelo://app?vid=db64e113-0c95-4acc-a346-01456f17b6e8","ios":"levelo://app?vid=db64e113-0c95-4acc-a346-01456f17b6e8"},"vehicle_type_id":"4","last_reported":1702983979,"current_range_meters":9600,"station_id":"ce4bh9p2rcd13ifvqed0","pricing_plan_id":"free"},{"bike_id":"c3c3cbbb-aa08-4874-94d9-d40777882ceb","system_id":"levelo_inurba_marseille","lat":43.337682,"lon":5.374286,"is_reserved":false,"is_disabled":false,"rental_uris":{"android":"levelo://app?vid=c3c3cbbb-aa08-4874-94d9-d40777882ceb","ios":"levelo://app?vid=c3c3cbbb-aa08-4874-94d9-d40777882ceb"},"vehicle_type_id":"4","last_reported":1702983979,"current_range_meters":9600,"station_id":"","pricing_plan_id":"free"},{"bike_id":"63e2a288-232e-4f1f-89d5-1d13e82ceff4","system_id":"levelo_inurba_marseille","lat":43.306412,"lon":5.401035,"is_reserved":false,"is_disabled":false,"rental_uris":{"android":"levelo://app?vid=63e2a288-232e-4f1f-89d5-1d13e82ceff4","ios":"levelo://app?vid=63e2a288-232e-4f1f-89d5-1d13e82ceff4"},"vehicle_type_id":"4","last_reported":1702983979,"current_range_meters":27200,"station_id":"ce4bh112rcd13ifvqda0","pricing_plan_id":"free"},{"bike_id":"9da41f20-e7da-4101-ad51-cb992c418006","system_id":"levelo_inurba_marseille","lat":43.306412,"lon":5.401035,"is_reserved":false,"is_disabled":false,"rental_uris":{"android":"levelo://app?vid=9da41f20-e7da-4101-ad51-cb992c418006","ios":"levelo://app?vid=9da41f20-e7da-4101-ad51-cb992c418006"},"vehicle_type_id":"4","last_reported":1702983979,"current_range_meters":22000,"station_id":"ce4bh112rcd13ifvqda0","pricing_plan_id":"free"},{"bike_id":"c1c4ba4e-d231-4e7a-bdfa-5605e3e96c1a","system_id":"levelo_inurba_marseille","lat":43.306412,"lon":5.401035,"is_reserved":false,"is_disabled":false,"rental_uris":{"android":"levelo://app?vid=c1c4ba4e-d231-4e7a-bdfa-5605e3e96c1a","ios":"levelo://app?vid=c1c4ba4e-d231-4e7a-bdfa-5605e3e96c1a"},"vehicle_type_id":"4","last_reported":1702983979,"current_range_meters":8800,"station_id":"ce4bh112rcd13ifvqda0","pricing_plan_id":"free"},{"bike_id":"0e132a50-97af-456f-a072-2e02b755bf0f","system_id":"levelo_inurba_marseille","lat":43.291243,"lon":5.386293,"is_reserved":false,"is_disabled":false,"rental_uris":{"android":"levelo://app?vid=0e132a50-97af-456f-a072-2e02b755bf0f","ios":"levelo://app?vid=0e132a50-97af-456f-a072-2e02b755bf0f"},"vehicle_type_id":"4","last_reported":1702983979,"current_range_meters":14400,"station_id":"","pricing_plan_id":"free"},{"bike_id":"2bfff385-1af1-439c-8cf3-898ee0b0e921","system_id":"levelo_inurba_marseille","lat":43.298681,"lon":5.397225,"is_reserved":false,"is_disabled":false,"rental_uris":{"android":"levelo://app?vid=2bfff385-1af1-439c-8cf3-898ee0b0e921","ios":"levelo://app?vid=2bfff385-1af1-439c-8cf3-898ee0b0e921"},"vehicle_type_id":"4","last_reported":1702983979,"current_range_meters":23200,"station_id":"ce4bh0h2rcd13ifvqd50","pricing_plan_id":"free"},{"bike_id":"95a09615-6a3b-48b2-bde3-63f232c4d051","system_id":"levelo_inurba_marseille","lat":43.286591,"lon":5.363346,"is_reserved":false,"is_disabled":false,"rental_uris":{"android":"levelo://app?vid=95a09615-6a3b-48b2-bde3-63f232c4d051","ios":"levelo://app?vid=95a09615-6a3b-48b2-bde3-63f232c4d051"},"vehicle_type_id":"4","last_reported":1702983979,"current_range_meters":13200,"station_id":"ce4bhah2rcd13ifvqej0","pricing_plan_id":"free"},{"bike_id":"eedc3f8b-7506-4ef2-bff0-ec6f640b99ea","system_id":"levelo_inurba_marseille","lat":43.286961,"lon":5.373785,"is_reserved":false,"is_disabled":false,"rental_uris":{"android":"levelo://app?vid=eedc3f8b-7506-4ef2-bff0-ec6f640b99ea","ios":"levelo://app?vid=eedc3f8b-7506-4ef2-bff0-ec6f640b99ea"},"vehicle_type_id":"4","last_reported":1702983979,"current_range_meters":30400,"station_id":"ce4bh3p2rcd13ifvqdq0","pricing_plan_id":"free"},{"bike_id":"5b8d6b3c-5ba1-47d8-ad7e-b9eb1fd2cdc4","system_id":"levelo_inurba_marseille","lat":43.286961,"lon":5.373785,"is_reserved":false,"is_disabled":false,"rental_uris":{"android":"levelo://app?vid=5b8d6b3c-5ba1-47d8-ad7e-b9eb1fd2cdc4","ios":"levelo://app?vid=5b8d6b3c-5ba1-47d8-ad7e-b9eb1fd2cdc4"},"vehicle_type_id":"4","last_reported":1702983979,"current_range_meters":29600,"station_id":"ce4bh3p2rcd13ifvqdq0","pricing_plan_id":"free"},{"bike_id":"041e8ef1-7c4a-49dd-89c2-4a69bdfcd042","system_id":"levelo_inurba_marseille","lat":43.286039,"lon":5.370679,"is_reserved":false,"is_disabled":false,"rental_uris":{"android":"levelo://app?vid=041e8ef1-7c4a-49dd-89c2-4a69bdfcd042","ios":"levelo://app?vid=041e8ef1-7c4a-49dd-89c2-4a69bdfcd042"},"vehicle_type_id":"4","last_reported":1702983979,"current_range_meters":22000,"station_id":"ce4bht12rcd13ifvqi60","pricing_plan_id":"free"},{"bike_id":"7d68eac5-1bca-4a09-bf11-b2dfc85d8675","system_id":"levelo_inurba_marseille","lat":43.29027,"lon":5.38651,"is_reserved":false,"is_disabled":false,"rental_uris":{"android":"levelo://app?vid=7d68eac5-1bca-4a09-bf11-b2dfc85d8675","ios":"levelo://app?vid=7d68eac5-1bca-4a09-bf11-b2dfc85d8675"},"vehicle_type_id":"4","last_reported":1702983979,"current_range_meters":0,"station_id":"","pricing_plan_id":"free"},{"bike_id":"7fa0342e-5137-4503-a8d6-3969345ceb7c","system_id":"levelo_inurba_marseille","lat":43.302759,"lon":5.400793,"is_reserved":false,"is_disabled":false,"rental_uris":{"android":"levelo://app?vid=7fa0342e-5137-4503-a8d6-3969345ceb7c","ios":"levelo://app?vid=7fa0342e-5137-4503-a8d6-3969345ceb7c"},"vehicle_type_id":"4","last_reported":1702983979,"current_range_meters":22000,"station_id":"ce4bgvh2rcd13ifvqcs0","pricing_plan_id":"free"},{"bike_id":"41501bbc-b034-45ad-b316-c32409342290","system_id":"levelo_inurba_marseille","lat":43.286039,"lon":5.370679,"is_reserved":false,"is_disabled":false,"rental_uris":{"android":"levelo://app?vid=41501bbc-b034-45ad-b316-c32409342290","ios":"levelo://app?vid=41501bbc-b034-45ad-b316-c32409342290"},"vehicle_type_id":"4","last_reported":1702983979,"current_range_meters":31200,"station_id":"ce4bht12rcd13ifvqi60","pricing_plan_id":"free"},{"bike_id":"9dd3e84b-e8b1-4eaa-9afa-8d1f673dc496","system_id":"levelo_inurba_marseille","lat":43.294314,"lon":5.397498,"is_reserved":false,"is_disabled":false,"rental_uris":{"android":"levelo://app?vid=9dd3e84b-e8b1-4eaa-9afa-8d1f673dc496","ios":"levelo://app?vid=9dd3e84b-e8b1-4eaa-9afa-8d1f673dc496"},"vehicle_type_id":"4","last_reported":1702983979,"current_range_meters":30400,"station_id":"ce4bh3h2rcd13ifvqdo0","pricing_plan_id":"free"},{"bike_id":"e6977701-02c5-450c-8deb-53bbbe14a0f9","system_id":"levelo_inurba_marseille","lat":43.294314,"lon":5.397498,"is_reserved":false,"is_disabled":false,"rental_uris":{"android":"levelo://app?vid=e6977701-02c5-450c-8deb-53bbbe14a0f9","ios":"levelo://app?vid=e6977701-02c5-450c-8deb-53bbbe14a0f9"},"vehicle_type_id":"4","last_reported":1702983979,"current_range_meters":28400,"station_id":"ce4bh3h2rcd13ifvqdo0","pricing_plan_id":"free"},{"bike_id":"68a70800-8d14-4262-accb-4be89fbf21ac","system_id":"levelo_inurba_marseille","lat":43.294314,"lon":5.397498,"is_reserved":false,"is_disabled":false,"rental_uris":{"android":"levelo://app?vid=68a70800-8d14-4262-accb-4be89fbf21ac","ios":"levelo://app?vid=68a70800-8d14-4262-accb-4be89fbf21ac"},"vehicle_type_id":"4","last_reported":1702983979,"current_range_meters":18800,"station_id":"ce4bh3h2rcd13ifvqdo0","pricing_plan_id":"free"},{"bike_id":"c21777d1-3012-48a5-9ade-6d8584343c34","system_id":"levelo_inurba_marseille","lat":43.294314,"lon":5.397498,"is_reserved":false,"is_disabled":false,"rental_uris":{"android":"levelo://app?vid=c21777d1-3012-48a5-9ade-6d8584343c34","ios":"levelo://app?vid=c21777d1-3012-48a5-9ade-6d8584343c34"},"vehicle_type_id":"4","last_reported":1702983979,"current_range_meters":17600,"station_id":"ce4bh3h2rcd13ifvqdo0","pricing_plan_id":"free"},{"bike_id":"94cf77e6-748d-46bd-9539-e02fd363aa48","system_id":"levelo_inurba_marseille","lat":43.283998,"lon":5.375062,"is_reserved":false,"is_disabled":false,"rental_uris":{"android":"levelo://app?vid=94cf77e6-748d-46bd-9539-e02fd363aa48","ios":"levelo://app?vid=94cf77e6-748d-46bd-9539-e02fd363aa48"},"vehicle_type_id":"4","last_reported":1702983979,"current_range_meters":20000,"station_id":"ce4bh412rcd13ifvqds0","pricing_plan_id":"free"},{"bike_id":"8538e6dd-dbef-4a5a-a119-9a857fd021ad","system_id":"levelo_inurba_marseille","lat":43.33218,"lon":5.397067,"is_reserved":false,"is_disabled":false,"rental_uris":{"android":"levelo://app?vid=8538e6dd-dbef-4a5a-a119-9a857fd021ad","ios":"levelo://app?vid=8538e6dd-dbef-4a5a-a119-9a857fd021ad"},"vehicle_type_id":"4","last_reported":1702983979,"current_range_meters":1600,"station_id":"","pricing_plan_id":"free"},{"bike_id":"cb8da506-0c61-4efc-a37a-fcf8db806d53","system_id":"levelo_inurba_marseille","lat":43.33709,"lon":5.39217,"is_reserved":false,"is_disabled":false,"rental_uris":{"android":"levelo://app?vid=cb8da506-0c61-4efc-a37a-fcf8db806d53","ios":"levelo://app?vid=cb8da506-0c61-4efc-a37a-fcf8db806d53"},"vehicle_type_id":"4","last_reported":1702983979,"current_range_meters":27200,"station_id":"ce4bhr92rcd13ifvqhsg","pricing_plan_id":"free"},{"bike_id":"96bf667b-fc7a-4276-8634-e50a2d06e943","system_id":"levelo_inurba_marseille","lat":43.33717,"lon":5.391857,"is_reserved":false,"is_disabled":false,"rental_uris":{"android":"levelo://app?vid=96bf667b-fc7a-4276-8634-e50a2d06e943","ios":"levelo://app?vid=96bf667b-fc7a-4276-8634-e50a2d06e943"},"vehicle_type_id":"4","last_reported":1702983979,"current_range_meters":14400,"station_id":"ce4bhr92rcd13ifvqhsg","pricing_plan_id":"free"},{"bike_id":"836b9d28-e887-4e99-8264-d9906b920159","system_id":"levelo_inurba_marseille","lat":43.284793,"lon":5.384119,"is_reserved":false,"is_disabled":false,"rental_uris":{"android":"levelo://app?vid=836b9d28-e887-4e99-8264-d9906b920159","ios":"levelo://app?vid=836b9d28-e887-4e99-8264-d9906b920159"},"vehicle_type_id":"4","last_reported":1702983979,"current_range_meters":25200,"station_id":"ce4bh512rcd13ifvqe3g","pricing_plan_id":"free"},{"bike_id":"1ddffb2c-2358-49c0-a7c0-aa6aaef42b4b","system_id":"levelo_inurba_marseille","lat":43.284793,"lon":5.384113,"is_reserved":false,"is_disabled":false,"rental_uris":{"android":"levelo://app?vid=1ddffb2c-2358-49c0-a7c0-aa6aaef42b4b","ios":"levelo://app?vid=1ddffb2c-2358-49c0-a7c0-aa6aaef42b4b"},"vehicle_type_id":"4","last_reported":1702983979,"current_range_meters":26800,"station_id":"ce4bh512rcd13ifvqe3g","pricing_plan_id":"free"},{"bike_id":"f5332b34-8259-4323-952e-7bd465eb247c","system_id":"levelo_inurba_marseille","lat":43.29795,"lon":5.404086,"is_reserved":false,"is_disabled":false,"rental_uris":{"android":"levelo://app?vid=f5332b34-8259-4323-952e-7bd465eb247c","ios":"levelo://app?vid=f5332b34-8259-4323-952e-7bd465eb247c"},"vehicle_type_id":"4","last_reported":1702983979,"current_range_meters":800,"station_id":"ce4bh112rcd13ifvqd90","pricing_plan_id":"free"},{"bike_id":"313b8aac-1e15-4487-93b2-d9d5f9cbdac4","system_id":"levelo_inurba_marseille","lat":43.284219,"lon":5.3497,"is_reserved":false,"is_disabled":false,"rental_uris":{"android":"levelo://app?vid=313b8aac-1e15-4487-93b2-d9d5f9cbdac4","ios":"levelo://app?vid=313b8aac-1e15-4487-93b2-d9d5f9cbdac4"},"vehicle_type_id":"4","last_reported":1702983979,"current_range_meters":22400,"station_id":"ce4bhbh2rcd13ifvqepg","pricing_plan_id":"free"},{"bike_id":"35e5c977-c3ec-4302-85e4-7f44ba15ca6f","system_id":"levelo_inurba_marseille","lat":43.306412,"lon":5.401035,"is_reserved":false,"is_disabled":false,"rental_uris":{"android":"levelo://app?vid=35e5c977-c3ec-4302-85e4-7f44ba15ca6f","ios":"levelo://app?vid=35e5c977-c3ec-4302-85e4-7f44ba15ca6f"},"vehicle_type_id":"4","last_reported":1702983979,"current_range_meters":23600,"station_id":"ce4bh112rcd13ifvqda0","pricing_plan_id":"free"},{"bike_id":"268a5572-5971-404d-8a91-19cee124314a","system_id":"levelo_inurba_marseille","lat":43.289363,"lon":5.396322,"is_reserved":false,"is_disabled":false,"rental_uris":{"android":"levelo://app?vid=268a5572-5971-404d-8a91-19cee124314a","ios":"levelo://app?vid=268a5572-5971-404d-8a91-19cee124314a"},"vehicle_type_id":"4","last_reported":1702983979,"current_range_meters":20000,"station_id":"ce4bh3h2rcd13ifvqdn0","pricing_plan_id":"free"},{"bike_id":"04d3d8cd-13e7-492b-a5b0-006a8bfd04c5","system_id":"levelo_inurba_marseille","lat":43.289363,"lon":5.396322,"is_reserved":false,"is_disabled":false,"rental_uris":{"android":"levelo://app?vid=04d3d8cd-13e7-492b-a5b0-006a8bfd04c5","ios":"levelo://app?vid=04d3d8cd-13e7-492b-a5b0-006a8bfd04c5"},"vehicle_type_id":"4","last_reported":1702983979,"current_range_meters":5200,"station_id":"ce4bh3h2rcd13ifvqdn0","pricing_plan_id":"free"},{"bike_id":"f8f2c88b-7759-4957-9c61-4c72e559bfcf","system_id":"levelo_inurba_marseille","lat":43.282754,"lon":5.350519,"is_reserved":false,"is_disabled":false,"rental_uris":{"android":"levelo://app?vid=f8f2c88b-7759-4957-9c61-4c72e559bfcf","ios":"levelo://app?vid=f8f2c88b-7759-4957-9c61-4c72e559bfcf"},"vehicle_type_id":"4","last_reported":1702983979,"current_range_meters":6000,"station_id":"ce4bhbp2rcd13ifvqerg","pricing_plan_id":"free"},{"bike_id":"d1ba4e41-3cad-4822-952e-a74b93bc6e23","system_id":"levelo_inurba_marseille","lat":43.282744,"lon":5.350533,"is_reserved":false,"is_disabled":false,"rental_uris":{"android":"levelo://app?vid=d1ba4e41-3cad-4822-952e-a74b93bc6e23","ios":"levelo://app?vid=d1ba4e41-3cad-4822-952e-a74b93bc6e23"},"vehicle_type_id":"4","last_reported":1702983979,"current_range_meters":22000,"station_id":"ce4bhbp2rcd13ifvqerg","pricing_plan_id":"free"},{"bike_id":"bdd855d8-3963-4c17-a3aa-74fa4e08365e","system_id":"levelo_inurba_marseille","lat":43.29041,"lon":5.399634,"is_reserved":false,"is_disabled":false,"rental_uris":{"android":"levelo://app?vid=bdd855d8-3963-4c17-a3aa-74fa4e08365e","ios":"levelo://app?vid=bdd855d8-3963-4c17-a3aa-74fa4e08365e"},"vehicle_type_id":"4","last_reported":1702983979,"current_range_meters":17600,"station_id":"ce4bh392rcd13ifvqdm0","pricing_plan_id":"free"},{"bike_id":"6cb7dc2e-18cd-4a70-89bc-51f3cd2bc089","system_id":"levelo_inurba_marseille","lat":43.282266,"lon":5.386174,"is_reserved":false,"is_disabled":false,"rental_uris":{"android":"levelo://app?vid=6cb7dc2e-18cd-4a70-89bc-51f3cd2bc089","ios":"levelo://app?vid=6cb7dc2e-18cd-4a70-89bc-51f3cd2bc089"},"vehicle_type_id":"4","last_reported":1702983979,"current_range_meters":0,"station_id":"","pricing_plan_id":"free"},{"bike_id":"475607d4-96f7-44c0-b230-ac28e3cb872c","system_id":"levelo_inurba_marseille","lat":43.28573,"lon":5.394992,"is_reserved":false,"is_disabled":false,"rental_uris":{"android":"levelo://app?vid=475607d4-96f7-44c0-b230-ac28e3cb872c","ios":"levelo://app?vid=475607d4-96f7-44c0-b230-ac28e3cb872c"},"vehicle_type_id":"4","last_reported":1702983979,"current_range_meters":24800,"station_id":"ce4bh292rcd13ifvqdg0","pricing_plan_id":"free"},{"bike_id":"ed71d5f9-6cc6-4d00-bea0-c804e97bb284","system_id":"levelo_inurba_marseille","lat":43.325233,"lon":5.414318,"is_reserved":false,"is_disabled":false,"rental_uris":{"android":"levelo://app?vid=ed71d5f9-6cc6-4d00-bea0-c804e97bb284","ios":"levelo://app?vid=ed71d5f9-6cc6-4d00-bea0-c804e97bb284"},"vehicle_type_id":"4","last_reported":1702983979,"current_range_meters":18400,"station_id":"ce4bhq12rcd13ifvqhhg","pricing_plan_id":"free"},{"bike_id":"bdec3685-3e7c-43e5-9a07-26a2ada5ac26","system_id":"levelo_inurba_marseille","lat":43.325233,"lon":5.414318,"is_reserved":false,"is_disabled":false,"rental_uris":{"android":"levelo://app?vid=bdec3685-3e7c-43e5-9a07-26a2ada5ac26","ios":"levelo://app?vid=bdec3685-3e7c-43e5-9a07-26a2ada5ac26"},"vehicle_type_id":"4","last_reported":1702983979,"current_range_meters":18000,"station_id":"ce4bhq12rcd13ifvqhhg","pricing_plan_id":"free"},{"bike_id":"ff73b79f-5550-4404-9505-a518a3ca2a8a","system_id":"levelo_inurba_marseille","lat":43.325233,"lon":5.414318,"is_reserved":false,"is_disabled":false,"rental_uris":{"android":"levelo://app?vid=ff73b79f-5550-4404-9505-a518a3ca2a8a","ios":"levelo://app?vid=ff73b79f-5550-4404-9505-a518a3ca2a8a"},"vehicle_type_id":"4","last_reported":1702983979,"current_range_meters":12800,"station_id":"ce4bhq12rcd13ifvqhhg","pricing_plan_id":"free"},{"bike_id":"0782afe0-0e9d-4c32-ba17-a19fed66c39e","system_id":"levelo_inurba_marseille","lat":43.325233,"lon":5.414318,"is_reserved":false,"is_disabled":false,"rental_uris":{"android":"levelo://app?vid=0782afe0-0e9d-4c32-ba17-a19fed66c39e","ios":"levelo://app?vid=0782afe0-0e9d-4c32-ba17-a19fed66c39e"},"vehicle_type_id":"4","last_reported":1702983979,"current_range_meters":24400,"station_id":"ce4bhq12rcd13ifvqhhg","pricing_plan_id":"free"},{"bike_id":"032ab50a-e8ed-46eb-a784-ec24434ca4e9","system_id":"levelo_inurba_marseille","lat":43.325233,"lon":5.414318,"is_reserved":false,"is_disabled":false,"rental_uris":{"android":"levelo://app?vid=032ab50a-e8ed-46eb-a784-ec24434ca4e9","ios":"levelo://app?vid=032ab50a-e8ed-46eb-a784-ec24434ca4e9"},"vehicle_type_id":"4","last_reported":1702983979,"current_range_meters":26800,"station_id":"ce4bhq12rcd13ifvqhhg","pricing_plan_id":"free"},{"bike_id":"40686c10-84a4-405a-9cd7-375127e2b02d","system_id":"levelo_inurba_marseille","lat":43.325233,"lon":5.414318,"is_reserved":false,"is_disabled":false,"rental_uris":{"android":"levelo://app?vid=40686c10-84a4-405a-9cd7-375127e2b02d","ios":"levelo://app?vid=40686c10-84a4-405a-9cd7-375127e2b02d"},"vehicle_type_id":"4","last_reported":1702983979,"current_range_meters":23600,"station_id":"ce4bhq12rcd13ifvqhhg","pricing_plan_id":"free"},{"bike_id":"622dff07-c11d-48fe-85d3-aa4080dd77f3","system_id":"levelo_inurba_marseille","lat":43.27618,"lon":5.361009,"is_reserved":false,"is_disabled":false,"rental_uris":{"android":"levelo://app?vid=622dff07-c11d-48fe-85d3-aa4080dd77f3","ios":"levelo://app?vid=622dff07-c11d-48fe-85d3-aa4080dd77f3"},"vehicle_type_id":"4","last_reported":1702983979,"current_range_meters":22400,"station_id":"ce4bgj92rcd13ifvqbe0","pricing_plan_id":"free"},{"bike_id":"c56ff55c-8635-4931-8b08-4cbc1bcd04da","system_id":"levelo_inurba_marseille","lat":43.325233,"lon":5.414318,"is_reserved":false,"is_disabled":false,"rental_uris":{"android":"levelo://app?vid=c56ff55c-8635-4931-8b08-4cbc1bcd04da","ios":"levelo://app?vid=c56ff55c-8635-4931-8b08-4cbc1bcd04da"},"vehicle_type_id":"4","last_reported":1702983979,"current_range_meters":17200,"station_id":"ce4bhq12rcd13ifvqhhg","pricing_plan_id":"free"},{"bike_id":"b73b1dc9-66f1-4f8b-9dc1-65b99e7137a5","system_id":"levelo_inurba_marseille","lat":43.325233,"lon":5.414318,"is_reserved":false,"is_disabled":false,"rental_uris":{"android":"levelo://app?vid=b73b1dc9-66f1-4f8b-9dc1-65b99e7137a5","ios":"levelo://app?vid=b73b1dc9-66f1-4f8b-9dc1-65b99e7137a5"},"vehicle_type_id":"4","last_reported":1702983979,"current_range_meters":31200,"station_id":"ce4bhq12rcd13ifvqhhg","pricing_plan_id":"free"},{"bike_id":"5b65099a-813a-49e7-a309-6e1e0570963f","system_id":"levelo_inurba_marseille","lat":43.280784,"lon":5.396622,"is_reserved":false,"is_disabled":false,"rental_uris":{"android":"levelo://app?vid=5b65099a-813a-49e7-a309-6e1e0570963f","ios":"levelo://app?vid=5b65099a-813a-49e7-a309-6e1e0570963f"},"vehicle_type_id":"4","last_reported":1702983979,"current_range_meters":26000,"station_id":"ce4bho12rcd13ifvqh2g","pricing_plan_id":"free"},{"bike_id":"175508af-eec8-4668-bae1-1bdc4eea0891","system_id":"levelo_inurba_marseille","lat":43.303837,"lon":5.418724,"is_reserved":false,"is_disabled":false,"rental_uris":{"android":"levelo://app?vid=175508af-eec8-4668-bae1-1bdc4eea0891","ios":"levelo://app?vid=175508af-eec8-4668-bae1-1bdc4eea0891"},"vehicle_type_id":"4","last_reported":1702983979,"current_range_meters":6000,"station_id":"ce4bhop2rcd13ifvqh7g","pricing_plan_id":"free"},{"bike_id":"f0eb3c09-9339-437d-aed6-4686315924b8","system_id":"levelo_inurba_marseille","lat":43.278399,"lon":5.392139,"is_reserved":false,"is_disabled":false,"rental_uris":{"android":"levelo://app?vid=f0eb3c09-9339-437d-aed6-4686315924b8","ios":"levelo://app?vid=f0eb3c09-9339-437d-aed6-4686315924b8"},"vehicle_type_id":"4","last_reported":1702983979,"current_range_meters":21200,"station_id":"ce4bhjp2rcd13ifvqga0","pricing_plan_id":"free"},{"bike_id":"64f1ff93-8596-4286-b88b-f086c16f2911","system_id":"levelo_inurba_marseille","lat":43.273613,"lon":5.362705,"is_reserved":false,"is_disabled":false,"rental_uris":{"android":"levelo://app?vid=64f1ff93-8596-4286-b88b-f086c16f2911","ios":"levelo://app?vid=64f1ff93-8596-4286-b88b-f086c16f2911"},"vehicle_type_id":"4","last_reported":1702983979,"current_range_meters":7200,"station_id":"ce4bhbh2rcd13ifvqeo0","pricing_plan_id":"free"},{"bike_id":"85357234-8798-48fb-b4cc-8a1b7b0d464f","system_id":"levelo_inurba_marseille","lat":43.273613,"lon":5.362705,"is_reserved":false,"is_disabled":false,"rental_uris":{"android":"levelo://app?vid=85357234-8798-48fb-b4cc-8a1b7b0d464f","ios":"levelo://app?vid=85357234-8798-48fb-b4cc-8a1b7b0d464f"},"vehicle_type_id":"4","last_reported":1702983979,"current_range_meters":26000,"station_id":"ce4bhbh2rcd13ifvqeo0","pricing_plan_id":"free"},{"bike_id":"492247d9-1f7f-40e6-9732-9faadde2abe4","system_id":"levelo_inurba_marseille","lat":43.336148,"lon":5.410349,"is_reserved":false,"is_disabled":false,"rental_uris":{"android":"levelo://app?vid=492247d9-1f7f-40e6-9732-9faadde2abe4","ios":"levelo://app?vid=492247d9-1f7f-40e6-9732-9faadde2abe4"},"vehicle_type_id":"4","last_reported":1702983979,"current_range_meters":26400,"station_id":"ce4bhqh2rcd13ifvqhmg","pricing_plan_id":"free"},{"bike_id":"efd0b8b0-9bd9-4540-b2da-00cee0aafa14","system_id":"levelo_inurba_marseille","lat":43.336134,"lon":5.410341,"is_reserved":false,"is_disabled":false,"rental_uris":{"android":"levelo://app?vid=efd0b8b0-9bd9-4540-b2da-00cee0aafa14","ios":"levelo://app?vid=efd0b8b0-9bd9-4540-b2da-00cee0aafa14"},"vehicle_type_id":"4","last_reported":1702983979,"current_range_meters":27200,"station_id":"ce4bhqh2rcd13ifvqhmg","pricing_plan_id":"free"},{"bike_id":"15f826d3-ae76-4fba-968e-b76953699e67","system_id":"levelo_inurba_marseille","lat":43.275625,"lon":5.384392,"is_reserved":false,"is_disabled":false,"rental_uris":{"android":"levelo://app?vid=15f826d3-ae76-4fba-968e-b76953699e67","ios":"levelo://app?vid=15f826d3-ae76-4fba-968e-b76953699e67"},"vehicle_type_id":"4","last_reported":1702983979,"current_range_meters":26400,"station_id":"ce4bhh92rcd13ifvqfi0","pricing_plan_id":"free"},{"bike_id":"833204d2-ecba-4923-b5f9-66c959ea0bad","system_id":"levelo_inurba_marseille","lat":43.336134,"lon":5.410341,"is_reserved":false,"is_disabled":false,"rental_uris":{"android":"levelo://app?vid=833204d2-ecba-4923-b5f9-66c959ea0bad","ios":"levelo://app?vid=833204d2-ecba-4923-b5f9-66c959ea0bad"},"vehicle_type_id":"4","last_reported":1702983979,"current_range_meters":31200,"station_id":"ce4bhqh2rcd13ifvqhmg","pricing_plan_id":"free"},{"bike_id":"042012bf-b41a-4a38-85af-106041cb171b","system_id":"levelo_inurba_marseille","lat":43.279952,"lon":5.400085,"is_reserved":false,"is_disabled":false,"rental_uris":{"android":"levelo://app?vid=042012bf-b41a-4a38-85af-106041cb171b","ios":"levelo://app?vid=042012bf-b41a-4a38-85af-106041cb171b"},"vehicle_type_id":"4","last_reported":1702983979,"current_range_meters":29600,"station_id":"ce4bho92rcd13ifvqh4g","pricing_plan_id":"free"},{"bike_id":"caa47a55-c9dc-4a2e-81f8-11961b89c7ff","system_id":"levelo_inurba_marseille","lat":43.279952,"lon":5.400085,"is_reserved":false,"is_disabled":false,"rental_uris":{"android":"levelo://app?vid=caa47a55-c9dc-4a2e-81f8-11961b89c7ff","ios":"levelo://app?vid=caa47a55-c9dc-4a2e-81f8-11961b89c7ff"},"vehicle_type_id":"4","last_reported":1702983979,"current_range_meters":28800,"station_id":"ce4bho92rcd13ifvqh4g","pricing_plan_id":"free"},{"bike_id":"7d7af902-848c-49ee-93ed-e5f9352444cd","system_id":"levelo_inurba_marseille","lat":43.279952,"lon":5.400085,"is_reserved":false,"is_disabled":false,"rental_uris":{"android":"levelo://app?vid=7d7af902-848c-49ee-93ed-e5f9352444cd","ios":"levelo://app?vid=7d7af902-848c-49ee-93ed-e5f9352444cd"},"vehicle_type_id":"4","last_reported":1702983979,"current_range_meters":29200,"station_id":"ce4bho92rcd13ifvqh4g","pricing_plan_id":"free"},{"bike_id":"5f2c7fa8-4efa-4bda-ad6a-3652bb21d6a1","system_id":"levelo_inurba_marseille","lat":43.310785,"lon":5.424305,"is_reserved":false,"is_disabled":false,"rental_uris":{"android":"levelo://app?vid=5f2c7fa8-4efa-4bda-ad6a-3652bb21d6a1","ios":"levelo://app?vid=5f2c7fa8-4efa-4bda-ad6a-3652bb21d6a1"},"vehicle_type_id":"4","last_reported":1702983979,"current_range_meters":26400,"station_id":"ce4bhp92rcd13ifvqhag","pricing_plan_id":"free"},{"bike_id":"974dc7db-ff3c-4554-8964-132f9db52d9b","system_id":"levelo_inurba_marseille","lat":43.276092,"lon":5.395289,"is_reserved":false,"is_disabled":false,"rental_uris":{"android":"levelo://app?vid=974dc7db-ff3c-4554-8964-132f9db52d9b","ios":"levelo://app?vid=974dc7db-ff3c-4554-8964-132f9db52d9b"},"vehicle_type_id":"4","last_reported":1702983979,"current_range_meters":8000,"station_id":"","pricing_plan_id":"free"},{"bike_id":"af0b8e3f-d638-46b2-a409-94857ea7c358","system_id":"levelo_inurba_marseille","lat":43.273125,"lon":5.390731,"is_reserved":false,"is_disabled":false,"rental_uris":{"android":"levelo://app?vid=af0b8e3f-d638-46b2-a409-94857ea7c358","ios":"levelo://app?vid=af0b8e3f-d638-46b2-a409-94857ea7c358"},"vehicle_type_id":"4","last_reported":1702983979,"current_range_meters":14000,"station_id":"ce4bhgp2rcd13ifvqfe0","pricing_plan_id":"free"},{"bike_id":"16493d97-8770-468a-b97b-34bf6dd1ef4a","system_id":"levelo_inurba_marseille","lat":43.273129,"lon":5.390725,"is_reserved":false,"is_disabled":false,"rental_uris":{"android":"levelo://app?vid=16493d97-8770-468a-b97b-34bf6dd1ef4a","ios":"levelo://app?vid=16493d97-8770-468a-b97b-34bf6dd1ef4a"},"vehicle_type_id":"4","last_reported":1702983979,"current_range_meters":28400,"station_id":"ce4bhgp2rcd13ifvqfe0","pricing_plan_id":"free"},{"bike_id":"c2d01cf4-416b-479a-8195-73cfbf290ea6","system_id":"levelo_inurba_marseille","lat":43.304096,"lon":5.425385,"is_reserved":false,"is_disabled":false,"rental_uris":{"android":"levelo://app?vid=c2d01cf4-416b-479a-8195-73cfbf290ea6","ios":"levelo://app?vid=c2d01cf4-416b-479a-8195-73cfbf290ea6"},"vehicle_type_id":"4","last_reported":1702983979,"current_range_meters":30000,"station_id":"ce4bhoh2rcd13ifvqh6g","pricing_plan_id":"free"},{"bike_id":"bbc1dded-28d0-40d2-98b9-c718a84b2b55","system_id":"levelo_inurba_marseille","lat":43.304096,"lon":5.425385,"is_reserved":false,"is_disabled":false,"rental_uris":{"android":"levelo://app?vid=bbc1dded-28d0-40d2-98b9-c718a84b2b55","ios":"levelo://app?vid=bbc1dded-28d0-40d2-98b9-c718a84b2b55"},"vehicle_type_id":"4","last_reported":1702983979,"current_range_meters":17600,"station_id":"ce4bhoh2rcd13ifvqh6g","pricing_plan_id":"free"},{"bike_id":"3cfccba8-f3c6-422f-bec0-1d7a4825ad24","system_id":"levelo_inurba_marseille","lat":43.304096,"lon":5.425385,"is_reserved":false,"is_disabled":false,"rental_uris":{"android":"levelo://app?vid=3cfccba8-f3c6-422f-bec0-1d7a4825ad24","ios":"levelo://app?vid=3cfccba8-f3c6-422f-bec0-1d7a4825ad24"},"vehicle_type_id":"4","last_reported":1702983979,"current_range_meters":30000,"station_id":"ce4bhoh2rcd13ifvqh6g","pricing_plan_id":"free"},{"bike_id":"f0d927f9-4d81-4a61-9e75-257d4a0281cb","system_id":"levelo_inurba_marseille","lat":43.29552,"lon":5.42277,"is_reserved":false,"is_disabled":false,"rental_uris":{"android":"levelo://app?vid=f0d927f9-4d81-4a61-9e75-257d4a0281cb","ios":"levelo://app?vid=f0d927f9-4d81-4a61-9e75-257d4a0281cb"},"vehicle_type_id":"4","last_reported":1702983979,"current_range_meters":23600,"station_id":"ce4bhph2rcd13ifvqhdg","pricing_plan_id":"free"},{"bike_id":"b52ed3b8-5e6b-469c-9a28-752d38c3f626","system_id":"levelo_inurba_marseille","lat":43.295523,"lon":5.422926,"is_reserved":false,"is_disabled":false,"rental_uris":{"android":"levelo://app?vid=b52ed3b8-5e6b-469c-9a28-752d38c3f626","ios":"levelo://app?vid=b52ed3b8-5e6b-469c-9a28-752d38c3f626"},"vehicle_type_id":"4","last_reported":1702983979,"current_range_meters":29600,"station_id":"ce4bhph2rcd13ifvqhdg","pricing_plan_id":"free"},{"bike_id":"ca314493-3848-477b-95b3-e1722a7aef04","system_id":"levelo_inurba_marseille","lat":43.295173,"lon":5.422629,"is_reserved":false,"is_disabled":false,"rental_uris":{"android":"levelo://app?vid=ca314493-3848-477b-95b3-e1722a7aef04","ios":"levelo://app?vid=ca314493-3848-477b-95b3-e1722a7aef04"},"vehicle_type_id":"4","last_reported":1702983979,"current_range_meters":16400,"station_id":"ce4bhph2rcd13ifvqhdg","pricing_plan_id":"free"},{"bike_id":"1aaeade2-16f7-4c2d-b598-dfecd6c04985","system_id":"levelo_inurba_marseille","lat":43.29552,"lon":5.42288,"is_reserved":false,"is_disabled":false,"rental_uris":{"android":"levelo://app?vid=1aaeade2-16f7-4c2d-b598-dfecd6c04985","ios":"levelo://app?vid=1aaeade2-16f7-4c2d-b598-dfecd6c04985"},"vehicle_type_id":"4","last_reported":1702983979,"current_range_meters":19600,"station_id":"ce4bhph2rcd13ifvqhdg","pricing_plan_id":"free"},{"bike_id":"ae77d7c6-e181-4594-811d-0a5420de0ee2","system_id":"levelo_inurba_marseille","lat":43.295511,"lon":5.422926,"is_reserved":false,"is_disabled":false,"rental_uris":{"android":"levelo://app?vid=ae77d7c6-e181-4594-811d-0a5420de0ee2","ios":"levelo://app?vid=ae77d7c6-e181-4594-811d-0a5420de0ee2"},"vehicle_type_id":"4","last_reported":1702983979,"current_range_meters":26400,"station_id":"ce4bhph2rcd13ifvqhdg","pricing_plan_id":"free"},{"bike_id":"14d188a1-bcaf-4787-80fb-0ab78630d1f4","system_id":"levelo_inurba_marseille","lat":43.272118,"lon":5.391758,"is_reserved":false,"is_disabled":false,"rental_uris":{"android":"levelo://app?vid=14d188a1-bcaf-4787-80fb-0ab78630d1f4","ios":"levelo://app?vid=14d188a1-bcaf-4787-80fb-0ab78630d1f4"},"vehicle_type_id":"4","last_reported":1702983979,"current_range_meters":24400,"station_id":"ce4bhhp2rcd13ifvqfm0","pricing_plan_id":"free"},{"bike_id":"8134bdea-97d9-45ed-a62e-7aa6b1295011","system_id":"levelo_inurba_marseille","lat":43.27188,"lon":5.39224,"is_reserved":false,"is_disabled":false,"rental_uris":{"android":"levelo://app?vid=8134bdea-97d9-45ed-a62e-7aa6b1295011","ios":"levelo://app?vid=8134bdea-97d9-45ed-a62e-7aa6b1295011"},"vehicle_type_id":"4","last_reported":1702983979,"current_range_meters":10800,"station_id":"ce4bhhp2rcd13ifvqfm0","pricing_plan_id":"free"},{"bike_id":"942b092c-a1f1-4fce-8c52-690f9d1330c2","system_id":"levelo_inurba_marseille","lat":43.27815,"lon":5.40713,"is_reserved":false,"is_disabled":false,"rental_uris":{"android":"levelo://app?vid=942b092c-a1f1-4fce-8c52-690f9d1330c2","ios":"levelo://app?vid=942b092c-a1f1-4fce-8c52-690f9d1330c2"},"vehicle_type_id":"4","last_reported":1702983979,"current_range_meters":24400,"station_id":"ce4bhnh2rcd13ifvqgtg","pricing_plan_id":"free"},{"bike_id":"66965875-1225-4db1-902b-6342e8074330","system_id":"levelo_inurba_marseille","lat":43.269467,"lon":5.386439,"is_reserved":false,"is_disabled":false,"rental_uris":{"android":"levelo://app?vid=66965875-1225-4db1-902b-6342e8074330","ios":"levelo://app?vid=66965875-1225-4db1-902b-6342e8074330"},"vehicle_type_id":"4","last_reported":1702983979,"current_range_meters":0,"station_id":"ce4bhh92rcd13ifvqfh0","pricing_plan_id":"free"},{"bike_id":"3c799b4a-34d2-4a91-a4fe-05bd8c0c0236","system_id":"levelo_inurba_marseille","lat":43.269467,"lon":5.386439,"is_reserved":false,"is_disabled":false,"rental_uris":{"android":"levelo://app?vid=3c799b4a-34d2-4a91-a4fe-05bd8c0c0236","ios":"levelo://app?vid=3c799b4a-34d2-4a91-a4fe-05bd8c0c0236"},"vehicle_type_id":"4","last_reported":1702983979,"current_range_meters":18000,"station_id":"ce4bhh92rcd13ifvqfh0","pricing_plan_id":"free"},{"bike_id":"633aacc7-068b-4bd9-9a72-c0992b8660c5","system_id":"levelo_inurba_marseille","lat":43.269467,"lon":5.386439,"is_reserved":false,"is_disabled":false,"rental_uris":{"android":"levelo://app?vid=633aacc7-068b-4bd9-9a72-c0992b8660c5","ios":"levelo://app?vid=633aacc7-068b-4bd9-9a72-c0992b8660c5"},"vehicle_type_id":"4","last_reported":1702983979,"current_range_meters":27200,"station_id":"ce4bhh92rcd13ifvqfh0","pricing_plan_id":"free"},{"bike_id":"9516b638-b510-4b7a-900d-e7b8c20d2532","system_id":"levelo_inurba_marseille","lat":43.269467,"lon":5.386439,"is_reserved":false,"is_disabled":false,"rental_uris":{"android":"levelo://app?vid=9516b638-b510-4b7a-900d-e7b8c20d2532","ios":"levelo://app?vid=9516b638-b510-4b7a-900d-e7b8c20d2532"},"vehicle_type_id":"4","last_reported":1702983979,"current_range_meters":30800,"station_id":"ce4bhh92rcd13ifvqfh0","pricing_plan_id":"free"},{"bike_id":"d96c01fd-a919-4da7-ac5e-da61aeffa6d8","system_id":"levelo_inurba_marseille","lat":43.26949,"lon":5.3863,"is_reserved":false,"is_disabled":false,"rental_uris":{"android":"levelo://app?vid=d96c01fd-a919-4da7-ac5e-da61aeffa6d8","ios":"levelo://app?vid=d96c01fd-a919-4da7-ac5e-da61aeffa6d8"},"vehicle_type_id":"4","last_reported":1702983979,"current_range_meters":30000,"station_id":"ce4bhh92rcd13ifvqfh0","pricing_plan_id":"free"},{"bike_id":"a8246e0b-77ae-4381-b0b4-6f31eced4fb3","system_id":"levelo_inurba_marseille","lat":43.269467,"lon":5.386439,"is_reserved":false,"is_disabled":false,"rental_uris":{"android":"levelo://app?vid=a8246e0b-77ae-4381-b0b4-6f31eced4fb3","ios":"levelo://app?vid=a8246e0b-77ae-4381-b0b4-6f31eced4fb3"},"vehicle_type_id":"4","last_reported":1702983979,"current_range_meters":25600,"station_id":"ce4bhh92rcd13ifvqfh0","pricing_plan_id":"free"},{"bike_id":"0ab9359b-4a84-4f5e-877e-67d4583fcec1","system_id":"levelo_inurba_marseille","lat":43.26948,"lon":5.38635,"is_reserved":false,"is_disabled":false,"rental_uris":{"android":"levelo://app?vid=0ab9359b-4a84-4f5e-877e-67d4583fcec1","ios":"levelo://app?vid=0ab9359b-4a84-4f5e-877e-67d4583fcec1"},"vehicle_type_id":"4","last_reported":1702983979,"current_range_meters":29600,"station_id":"ce4bhh92rcd13ifvqfh0","pricing_plan_id":"free"},{"bike_id":"d3083e8e-5e29-43bb-b79c-8e63241ad9f2","system_id":"levelo_inurba_marseille","lat":43.279465,"lon":5.410561,"is_reserved":false,"is_disabled":false,"rental_uris":{"android":"levelo://app?vid=d3083e8e-5e29-43bb-b79c-8e63241ad9f2","ios":"levelo://app?vid=d3083e8e-5e29-43bb-b79c-8e63241ad9f2"},"vehicle_type_id":"4","last_reported":1702983979,"current_range_meters":26800,"station_id":"ce4bhnp2rcd13ifvqh0g","pricing_plan_id":"free"},{"bike_id":"dd68d6bc-b1c2-4c73-ac46-85a97cc26964","system_id":"levelo_inurba_marseille","lat":43.279375,"lon":5.410452,"is_reserved":false,"is_disabled":false,"rental_uris":{"android":"levelo://app?vid=dd68d6bc-b1c2-4c73-ac46-85a97cc26964","ios":"levelo://app?vid=dd68d6bc-b1c2-4c73-ac46-85a97cc26964"},"vehicle_type_id":"4","last_reported":1702983979,"current_range_meters":19200,"station_id":"","pricing_plan_id":"free"},{"bike_id":"c6eab633-e206-40c8-9187-9ea22d3ad7a9","system_id":"levelo_inurba_marseille","lat":43.269319,"lon":5.389397,"is_reserved":false,"is_disabled":false,"rental_uris":{"android":"levelo://app?vid=c6eab633-e206-40c8-9187-9ea22d3ad7a9","ios":"levelo://app?vid=c6eab633-e206-40c8-9187-9ea22d3ad7a9"},"vehicle_type_id":"4","last_reported":1702983979,"current_range_meters":25200,"station_id":"ce4bhhh2rcd13ifvqfl0","pricing_plan_id":"free"},{"bike_id":"432f29d2-ece2-46d3-b857-9ef0fe027373","system_id":"levelo_inurba_marseille","lat":43.26933,"lon":5.38917,"is_reserved":false,"is_disabled":false,"rental_uris":{"android":"levelo://app?vid=432f29d2-ece2-46d3-b857-9ef0fe027373","ios":"levelo://app?vid=432f29d2-ece2-46d3-b857-9ef0fe027373"},"vehicle_type_id":"4","last_reported":1702983979,"current_range_meters":27200,"station_id":"ce4bhhh2rcd13ifvqfl0","pricing_plan_id":"free"},{"bike_id":"4d2f508e-0eab-4458-82d6-c73b7c10ea3a","system_id":"levelo_inurba_marseille","lat":43.269319,"lon":5.389397,"is_reserved":false,"is_disabled":false,"rental_uris":{"android":"levelo://app?vid=4d2f508e-0eab-4458-82d6-c73b7c10ea3a","ios":"levelo://app?vid=4d2f508e-0eab-4458-82d6-c73b7c10ea3a"},"vehicle_type_id":"4","last_reported":1702983979,"current_range_meters":8800,"station_id":"ce4bhhh2rcd13ifvqfl0","pricing_plan_id":"free"},{"bike_id":"414560b1-f0ba-4575-8cb2-76f272e8ab22","system_id":"levelo_inurba_marseille","lat":43.26681,"lon":5.382694,"is_reserved":false,"is_disabled":false,"rental_uris":{"android":"levelo://app?vid=414560b1-f0ba-4575-8cb2-76f272e8ab22","ios":"levelo://app?vid=414560b1-f0ba-4575-8cb2-76f272e8ab22"},"vehicle_type_id":"4","last_reported":1702983979,"current_range_meters":22800,"station_id":"ce4bhg92rcd13ifvqf90","pricing_plan_id":"free"},{"bike_id":"02b1d3f0-c498-44d6-93a0-0a038898d815","system_id":"levelo_inurba_marseille","lat":43.26681,"lon":5.382694,"is_reserved":false,"is_disabled":false,"rental_uris":{"android":"levelo://app?vid=02b1d3f0-c498-44d6-93a0-0a038898d815","ios":"levelo://app?vid=02b1d3f0-c498-44d6-93a0-0a038898d815"},"vehicle_type_id":"4","last_reported":1702983979,"current_range_meters":31600,"station_id":"ce4bhg92rcd13ifvqf90","pricing_plan_id":"free"},{"bike_id":"4332ea30-0649-4a88-a8f9-46d7928b6f43","system_id":"levelo_inurba_marseille","lat":43.26681,"lon":5.382694,"is_reserved":false,"is_disabled":false,"rental_uris":{"android":"levelo://app?vid=4332ea30-0649-4a88-a8f9-46d7928b6f43","ios":"levelo://app?vid=4332ea30-0649-4a88-a8f9-46d7928b6f43"},"vehicle_type_id":"4","last_reported":1702983979,"current_range_meters":31600,"station_id":"ce4bhg92rcd13ifvqf90","pricing_plan_id":"free"},{"bike_id":"06b7b265-d935-43f7-a456-7363db57abf8","system_id":"levelo_inurba_marseille","lat":43.26681,"lon":5.382694,"is_reserved":false,"is_disabled":false,"rental_uris":{"android":"levelo://app?vid=06b7b265-d935-43f7-a456-7363db57abf8","ios":"levelo://app?vid=06b7b265-d935-43f7-a456-7363db57abf8"},"vehicle_type_id":"4","last_reported":1702983979,"current_range_meters":22400,"station_id":"ce4bhg92rcd13ifvqf90","pricing_plan_id":"free"},{"bike_id":"81bcf634-dc0c-4104-980b-2d893f59e14a","system_id":"levelo_inurba_marseille","lat":43.26681,"lon":5.382694,"is_reserved":false,"is_disabled":false,"rental_uris":{"android":"levelo://app?vid=81bcf634-dc0c-4104-980b-2d893f59e14a","ios":"levelo://app?vid=81bcf634-dc0c-4104-980b-2d893f59e14a"},"vehicle_type_id":"4","last_reported":1702983979,"current_range_meters":22400,"station_id":"ce4bhg92rcd13ifvqf90","pricing_plan_id":"free"},{"bike_id":"a30270aa-6149-4043-bdb5-78431470d13d","system_id":"levelo_inurba_marseille","lat":43.26681,"lon":5.382694,"is_reserved":false,"is_disabled":false,"rental_uris":{"android":"levelo://app?vid=a30270aa-6149-4043-bdb5-78431470d13d","ios":"levelo://app?vid=a30270aa-6149-4043-bdb5-78431470d13d"},"vehicle_type_id":"4","last_reported":1702983979,"current_range_meters":19200,"station_id":"ce4bhg92rcd13ifvqf90","pricing_plan_id":"free"},{"bike_id":"b2b1f3ac-cb36-4abf-b35b-81035c4fb25d","system_id":"levelo_inurba_marseille","lat":43.265714,"lon":5.372891,"is_reserved":false,"is_disabled":false,"rental_uris":{"android":"levelo://app?vid=b2b1f3ac-cb36-4abf-b35b-81035c4fb25d","ios":"levelo://app?vid=b2b1f3ac-cb36-4abf-b35b-81035c4fb25d"},"vehicle_type_id":"4","last_reported":1702983979,"current_range_meters":23200,"station_id":"ce4bhg12rcd13ifvqf70","pricing_plan_id":"free"},{"bike_id":"d040d53f-bf65-407f-9276-ca3609a61713","system_id":"levelo_inurba_marseille","lat":43.26681,"lon":5.382694,"is_reserved":false,"is_disabled":false,"rental_uris":{"android":"levelo://app?vid=d040d53f-bf65-407f-9276-ca3609a61713","ios":"levelo://app?vid=d040d53f-bf65-407f-9276-ca3609a61713"},"vehicle_type_id":"4","last_reported":1702983979,"current_range_meters":31200,"station_id":"ce4bhg92rcd13ifvqf90","pricing_plan_id":"free"},{"bike_id":"ac8d2520-91cc-4adc-97cd-0b51dabb02dc","system_id":"levelo_inurba_marseille","lat":43.265714,"lon":5.372891,"is_reserved":false,"is_disabled":false,"rental_uris":{"android":"levelo://app?vid=ac8d2520-91cc-4adc-97cd-0b51dabb02dc","ios":"levelo://app?vid=ac8d2520-91cc-4adc-97cd-0b51dabb02dc"},"vehicle_type_id":"4","last_reported":1702983979,"current_range_meters":16400,"station_id":"ce4bhg12rcd13ifvqf70","pricing_plan_id":"free"},{"bike_id":"982a2668-8eed-4af6-8bde-2c353c40ba51","system_id":"levelo_inurba_marseille","lat":43.26577,"lon":5.39002,"is_reserved":false,"is_disabled":false,"rental_uris":{"android":"levelo://app?vid=982a2668-8eed-4af6-8bde-2c353c40ba51","ios":"levelo://app?vid=982a2668-8eed-4af6-8bde-2c353c40ba51"},"vehicle_type_id":"4","last_reported":1702983979,"current_range_meters":19200,"station_id":"ce4bhe12rcd13ifvqf30","pricing_plan_id":"free"},{"bike_id":"45cc99dc-668c-47c2-9232-40f0543b9f30","system_id":"levelo_inurba_marseille","lat":43.265569,"lon":5.390047,"is_reserved":false,"is_disabled":false,"rental_uris":{"android":"levelo://app?vid=45cc99dc-668c-47c2-9232-40f0543b9f30","ios":"levelo://app?vid=45cc99dc-668c-47c2-9232-40f0543b9f30"},"vehicle_type_id":"4","last_reported":1702983979,"current_range_meters":15600,"station_id":"ce4bhe12rcd13ifvqf30","pricing_plan_id":"free"},{"bike_id":"7374ef88-6f05-482f-89c0-c8bd213ca304","system_id":"levelo_inurba_marseille","lat":43.26193,"lon":5.3744,"is_reserved":false,"is_disabled":false,"rental_uris":{"android":"levelo://app?vid=7374ef88-6f05-482f-89c0-c8bd213ca304","ios":"levelo://app?vid=7374ef88-6f05-482f-89c0-c8bd213ca304"},"vehicle_type_id":"4","last_reported":1702983979,"current_range_meters":30400,"station_id":"ce4bhgp2rcd13ifvqfc0","pricing_plan_id":"free"},{"bike_id":"7ff8ad28-d7f6-45d2-8bef-ef8e4f332996","system_id":"levelo_inurba_marseille","lat":43.261782,"lon":5.374515,"is_reserved":false,"is_disabled":false,"rental_uris":{"android":"levelo://app?vid=7ff8ad28-d7f6-45d2-8bef-ef8e4f332996","ios":"levelo://app?vid=7ff8ad28-d7f6-45d2-8bef-ef8e4f332996"},"vehicle_type_id":"4","last_reported":1702983979,"current_range_meters":14400,"station_id":"ce4bhgp2rcd13ifvqfc0","pricing_plan_id":"free"},{"bike_id":"067df923-1955-42a0-8ba4-79c36454123d","system_id":"levelo_inurba_marseille","lat":43.261782,"lon":5.374515,"is_reserved":false,"is_disabled":false,"rental_uris":{"android":"levelo://app?vid=067df923-1955-42a0-8ba4-79c36454123d","ios":"levelo://app?vid=067df923-1955-42a0-8ba4-79c36454123d"},"vehicle_type_id":"4","last_reported":1702983979,"current_range_meters":22800,"station_id":"ce4bhgp2rcd13ifvqfc0","pricing_plan_id":"free"},{"bike_id":"fb6f2523-09f0-4241-9855-ba2f04e96c9d","system_id":"levelo_inurba_marseille","lat":43.26189,"lon":5.37444,"is_reserved":false,"is_disabled":false,"rental_uris":{"android":"levelo://app?vid=fb6f2523-09f0-4241-9855-ba2f04e96c9d","ios":"levelo://app?vid=fb6f2523-09f0-4241-9855-ba2f04e96c9d"},"vehicle_type_id":"4","last_reported":1702983979,"current_range_meters":8800,"station_id":"ce4bhgp2rcd13ifvqfc0","pricing_plan_id":"free"},{"bike_id":"b066f351-c889-4601-a7dc-9a09f3587618","system_id":"levelo_inurba_marseille","lat":43.26188,"lon":5.37445,"is_reserved":false,"is_disabled":false,"rental_uris":{"android":"levelo://app?vid=b066f351-c889-4601-a7dc-9a09f3587618","ios":"levelo://app?vid=b066f351-c889-4601-a7dc-9a09f3587618"},"vehicle_type_id":"4","last_reported":1702983979,"current_range_meters":23600,"station_id":"ce4bhgp2rcd13ifvqfc0","pricing_plan_id":"free"},{"bike_id":"40826c17-9673-4d61-bcfa-2a413144fb57","system_id":"levelo_inurba_marseille","lat":43.261782,"lon":5.374515,"is_reserved":false,"is_disabled":false,"rental_uris":{"android":"levelo://app?vid=40826c17-9673-4d61-bcfa-2a413144fb57","ios":"levelo://app?vid=40826c17-9673-4d61-bcfa-2a413144fb57"},"vehicle_type_id":"4","last_reported":1702983979,"current_range_meters":16800,"station_id":"ce4bhgp2rcd13ifvqfc0","pricing_plan_id":"free"},{"bike_id":"80910aa8-0b36-46c5-b32e-6fd4fcf175d5","system_id":"levelo_inurba_marseille","lat":43.261782,"lon":5.374515,"is_reserved":false,"is_disabled":false,"rental_uris":{"android":"levelo://app?vid=80910aa8-0b36-46c5-b32e-6fd4fcf175d5","ios":"levelo://app?vid=80910aa8-0b36-46c5-b32e-6fd4fcf175d5"},"vehicle_type_id":"4","last_reported":1702983979,"current_range_meters":31200,"station_id":"ce4bhgp2rcd13ifvqfc0","pricing_plan_id":"free"},{"bike_id":"bc36c861-cb92-4264-a6c3-8aebaea14c63","system_id":"levelo_inurba_marseille","lat":43.26184,"lon":5.37443,"is_reserved":false,"is_disabled":false,"rental_uris":{"android":"levelo://app?vid=bc36c861-cb92-4264-a6c3-8aebaea14c63","ios":"levelo://app?vid=bc36c861-cb92-4264-a6c3-8aebaea14c63"},"vehicle_type_id":"4","last_reported":1702983979,"current_range_meters":21600,"station_id":"ce4bhgp2rcd13ifvqfc0","pricing_plan_id":"free"},{"bike_id":"d42e088a-3f0f-4cc6-93db-fc894e6bc35f","system_id":"levelo_inurba_marseille","lat":43.261782,"lon":5.374515,"is_reserved":false,"is_disabled":false,"rental_uris":{"android":"levelo://app?vid=d42e088a-3f0f-4cc6-93db-fc894e6bc35f","ios":"levelo://app?vid=d42e088a-3f0f-4cc6-93db-fc894e6bc35f"},"vehicle_type_id":"4","last_reported":1702983979,"current_range_meters":24000,"station_id":"ce4bhgp2rcd13ifvqfc0","pricing_plan_id":"free"},{"bike_id":"af773fba-0514-4085-aaa6-9a24022684ec","system_id":"levelo_inurba_marseille","lat":43.271388,"lon":5.409269,"is_reserved":false,"is_disabled":false,"rental_uris":{"android":"levelo://app?vid=af773fba-0514-4085-aaa6-9a24022684ec","ios":"levelo://app?vid=af773fba-0514-4085-aaa6-9a24022684ec"},"vehicle_type_id":"4","last_reported":1702983979,"current_range_meters":31200,"station_id":"ce4bhl12rcd13ifvqgf0","pricing_plan_id":"free"},{"bike_id":"6374cdbd-5ccd-4dc1-8f3d-794a0ccc0e89","system_id":"levelo_inurba_marseille","lat":43.271388,"lon":5.409269,"is_reserved":false,"is_disabled":false,"rental_uris":{"android":"levelo://app?vid=6374cdbd-5ccd-4dc1-8f3d-794a0ccc0e89","ios":"levelo://app?vid=6374cdbd-5ccd-4dc1-8f3d-794a0ccc0e89"},"vehicle_type_id":"4","last_reported":1702983979,"current_range_meters":25600,"station_id":"ce4bhl12rcd13ifvqgf0","pricing_plan_id":"free"},{"bike_id":"bb7f1b9c-60f7-4cb5-9bb2-42418fd9b8d7","system_id":"levelo_inurba_marseille","lat":43.271388,"lon":5.409269,"is_reserved":false,"is_disabled":false,"rental_uris":{"android":"levelo://app?vid=bb7f1b9c-60f7-4cb5-9bb2-42418fd9b8d7","ios":"levelo://app?vid=bb7f1b9c-60f7-4cb5-9bb2-42418fd9b8d7"},"vehicle_type_id":"4","last_reported":1702983979,"current_range_meters":26000,"station_id":"ce4bhl12rcd13ifvqgf0","pricing_plan_id":"free"},{"bike_id":"2177bc73-907b-4508-94ac-ac23516a52e3","system_id":"levelo_inurba_marseille","lat":43.298768,"lon":5.43643,"is_reserved":false,"is_disabled":false,"rental_uris":{"android":"levelo://app?vid=2177bc73-907b-4508-94ac-ac23516a52e3","ios":"levelo://app?vid=2177bc73-907b-4508-94ac-ac23516a52e3"},"vehicle_type_id":"4","last_reported":1702983979,"current_range_meters":22400,"station_id":"ce4bhpp2rcd13ifvqhfg","pricing_plan_id":"free"},{"bike_id":"3f1f1e7d-4ff2-49fd-85bf-4cb4257e3933","system_id":"levelo_inurba_marseille","lat":43.298768,"lon":5.43643,"is_reserved":false,"is_disabled":false,"rental_uris":{"android":"levelo://app?vid=3f1f1e7d-4ff2-49fd-85bf-4cb4257e3933","ios":"levelo://app?vid=3f1f1e7d-4ff2-49fd-85bf-4cb4257e3933"},"vehicle_type_id":"4","last_reported":1702983979,"current_range_meters":30800,"station_id":"ce4bhpp2rcd13ifvqhfg","pricing_plan_id":"free"},{"bike_id":"b328f603-749e-41e5-80d8-8c652f40eb62","system_id":"levelo_inurba_marseille","lat":43.298768,"lon":5.43643,"is_reserved":false,"is_disabled":false,"rental_uris":{"android":"levelo://app?vid=b328f603-749e-41e5-80d8-8c652f40eb62","ios":"levelo://app?vid=b328f603-749e-41e5-80d8-8c652f40eb62"},"vehicle_type_id":"4","last_reported":1702983979,"current_range_meters":28400,"station_id":"ce4bhpp2rcd13ifvqhfg","pricing_plan_id":"free"},{"bike_id":"ae3812d0-f941-4d05-854e-b74c250ad30c","system_id":"levelo_inurba_marseille","lat":43.254947,"lon":5.376454,"is_reserved":false,"is_disabled":false,"rental_uris":{"android":"levelo://app?vid=ae3812d0-f941-4d05-854e-b74c250ad30c","ios":"levelo://app?vid=ae3812d0-f941-4d05-854e-b74c250ad30c"},"vehicle_type_id":"4","last_reported":1702983979,"current_range_meters":23200,"station_id":"ce4bhh12rcd13ifvqff0","pricing_plan_id":"free"},{"bike_id":"fc2e592b-d71b-4423-8ba8-2fdcf5bd8624","system_id":"levelo_inurba_marseille","lat":43.260225,"lon":5.375455,"is_reserved":false,"is_disabled":false,"rental_uris":{"android":"levelo://app?vid=fc2e592b-d71b-4423-8ba8-2fdcf5bd8624","ios":"levelo://app?vid=fc2e592b-d71b-4423-8ba8-2fdcf5bd8624"},"vehicle_type_id":"4","last_reported":1702983979,"current_range_meters":8000,"station_id":"ce4bhgh2rcd13ifvqfa0","pricing_plan_id":"free"},{"bike_id":"9545216d-af81-4cd5-aa01-549e07cee63d","system_id":"levelo_inurba_marseille","lat":43.260225,"lon":5.375455,"is_reserved":false,"is_disabled":false,"rental_uris":{"android":"levelo://app?vid=9545216d-af81-4cd5-aa01-549e07cee63d","ios":"levelo://app?vid=9545216d-af81-4cd5-aa01-549e07cee63d"},"vehicle_type_id":"4","last_reported":1702983979,"current_range_meters":30400,"station_id":"ce4bhgh2rcd13ifvqfa0","pricing_plan_id":"free"},{"bike_id":"473ad542-d152-44a0-8b05-a545ac18d3ff","system_id":"levelo_inurba_marseille","lat":43.260219,"lon":5.37546,"is_reserved":false,"is_disabled":false,"rental_uris":{"android":"levelo://app?vid=473ad542-d152-44a0-8b05-a545ac18d3ff","ios":"levelo://app?vid=473ad542-d152-44a0-8b05-a545ac18d3ff"},"vehicle_type_id":"4","last_reported":1702983979,"current_range_meters":24400,"station_id":"ce4bhgh2rcd13ifvqfa0","pricing_plan_id":"free"},{"bike_id":"dedd2cac-4b04-4b36-9e3f-d259ee6e5975","system_id":"levelo_inurba_marseille","lat":43.281548,"lon":5.42643,"is_reserved":false,"is_disabled":false,"rental_uris":{"android":"levelo://app?vid=dedd2cac-4b04-4b36-9e3f-d259ee6e5975","ios":"levelo://app?vid=dedd2cac-4b04-4b36-9e3f-d259ee6e5975"},"vehicle_type_id":"4","last_reported":1702983979,"current_range_meters":18000,"station_id":"ce4bhnh2rcd13ifvqgug","pricing_plan_id":"free"},{"bike_id":"f44ffd77-f617-409c-889a-2aaef3ee6375","system_id":"levelo_inurba_marseille","lat":43.2607,"lon":5.393983,"is_reserved":false,"is_disabled":false,"rental_uris":{"android":"levelo://app?vid=f44ffd77-f617-409c-889a-2aaef3ee6375","ios":"levelo://app?vid=f44ffd77-f617-409c-889a-2aaef3ee6375"},"vehicle_type_id":"4","last_reported":1702983979,"current_range_meters":21600,"station_id":"ce4bhh92rcd13ifvqfj0","pricing_plan_id":"free"},{"bike_id":"f27de55b-24dc-49f6-a978-077789efb37d","system_id":"levelo_inurba_marseille","lat":43.275,"lon":5.424472,"is_reserved":false,"is_disabled":false,"rental_uris":{"android":"levelo://app?vid=f27de55b-24dc-49f6-a978-077789efb37d","ios":"levelo://app?vid=f27de55b-24dc-49f6-a978-077789efb37d"},"vehicle_type_id":"4","last_reported":1702983979,"current_range_meters":28400,"station_id":"ce4bhn92rcd13ifvqgrg","pricing_plan_id":"free"},{"bike_id":"e5c0e845-5529-4741-88ec-85be98a6be97","system_id":"levelo_inurba_marseille","lat":43.275028,"lon":5.424534,"is_reserved":false,"is_disabled":false,"rental_uris":{"android":"levelo://app?vid=e5c0e845-5529-4741-88ec-85be98a6be97","ios":"levelo://app?vid=e5c0e845-5529-4741-88ec-85be98a6be97"},"vehicle_type_id":"4","last_reported":1702983979,"current_range_meters":24800,"station_id":"ce4bhn92rcd13ifvqgrg","pricing_plan_id":"free"},{"bike_id":"8dbc6cb1-e83e-4f58-be99-bea93c26cda5","system_id":"levelo_inurba_marseille","lat":43.27497,"lon":5.42448,"is_reserved":false,"is_disabled":false,"rental_uris":{"android":"levelo://app?vid=8dbc6cb1-e83e-4f58-be99-bea93c26cda5","ios":"levelo://app?vid=8dbc6cb1-e83e-4f58-be99-bea93c26cda5"},"vehicle_type_id":"4","last_reported":1702983979,"current_range_meters":22000,"station_id":"ce4bhn92rcd13ifvqgrg","pricing_plan_id":"free"},{"bike_id":"ff337f60-e3c1-479e-9850-09ad5e0221a6","system_id":"levelo_inurba_marseille","lat":43.275028,"lon":5.424534,"is_reserved":false,"is_disabled":false,"rental_uris":{"android":"levelo://app?vid=ff337f60-e3c1-479e-9850-09ad5e0221a6","ios":"levelo://app?vid=ff337f60-e3c1-479e-9850-09ad5e0221a6"},"vehicle_type_id":"4","last_reported":1702983979,"current_range_meters":25200,"station_id":"ce4bhn92rcd13ifvqgrg","pricing_plan_id":"free"},{"bike_id":"0ac78daa-80e0-4da7-9421-091ef36057c7","system_id":"levelo_inurba_marseille","lat":43.27497,"lon":5.42449,"is_reserved":false,"is_disabled":false,"rental_uris":{"android":"levelo://app?vid=0ac78daa-80e0-4da7-9421-091ef36057c7","ios":"levelo://app?vid=0ac78daa-80e0-4da7-9421-091ef36057c7"},"vehicle_type_id":"4","last_reported":1702983979,"current_range_meters":20400,"station_id":"ce4bhn92rcd13ifvqgrg","pricing_plan_id":"free"},{"bike_id":"c4473f4c-d6b6-4314-9df6-434f3f1f360e","system_id":"levelo_inurba_marseille","lat":43.27497,"lon":5.42449,"is_reserved":false,"is_disabled":false,"rental_uris":{"android":"levelo://app?vid=c4473f4c-d6b6-4314-9df6-434f3f1f360e","ios":"levelo://app?vid=c4473f4c-d6b6-4314-9df6-434f3f1f360e"},"vehicle_type_id":"4","last_reported":1702983979,"current_range_meters":25200,"station_id":"ce4bhn92rcd13ifvqgrg","pricing_plan_id":"free"},{"bike_id":"cd475cf1-8ce7-4ca4-903c-fc74d1b5eb8d","system_id":"levelo_inurba_marseille","lat":43.275028,"lon":5.424534,"is_reserved":false,"is_disabled":false,"rental_uris":{"android":"levelo://app?vid=cd475cf1-8ce7-4ca4-903c-fc74d1b5eb8d","ios":"levelo://app?vid=cd475cf1-8ce7-4ca4-903c-fc74d1b5eb8d"},"vehicle_type_id":"4","last_reported":1702983979,"current_range_meters":21200,"station_id":"ce4bhn92rcd13ifvqgrg","pricing_plan_id":"free"},{"bike_id":"56c2608f-2a8c-44b0-a8f0-1e8a7e1b3c92","system_id":"levelo_inurba_marseille","lat":43.27496,"lon":5.42449,"is_reserved":false,"is_disabled":false,"rental_uris":{"android":"levelo://app?vid=56c2608f-2a8c-44b0-a8f0-1e8a7e1b3c92","ios":"levelo://app?vid=56c2608f-2a8c-44b0-a8f0-1e8a7e1b3c92"},"vehicle_type_id":"4","last_reported":1702983979,"current_range_meters":21600,"station_id":"ce4bhn92rcd13ifvqgrg","pricing_plan_id":"free"},{"bike_id":"004b75c3-c160-4bf7-b05b-bd08ef8d0551","system_id":"levelo_inurba_marseille","lat":43.27496,"lon":5.4245,"is_reserved":false,"is_disabled":false,"rental_uris":{"android":"levelo://app?vid=004b75c3-c160-4bf7-b05b-bd08ef8d0551","ios":"levelo://app?vid=004b75c3-c160-4bf7-b05b-bd08ef8d0551"},"vehicle_type_id":"4","last_reported":1702983979,"current_range_meters":14400,"station_id":"ce4bhn92rcd13ifvqgrg","pricing_plan_id":"free"},{"bike_id":"d6f435ba-4bf8-46a2-8514-9e919c5ff01a","system_id":"levelo_inurba_marseille","lat":43.275028,"lon":5.424534,"is_reserved":false,"is_disabled":false,"rental_uris":{"android":"levelo://app?vid=d6f435ba-4bf8-46a2-8514-9e919c5ff01a","ios":"levelo://app?vid=d6f435ba-4bf8-46a2-8514-9e919c5ff01a"},"vehicle_type_id":"4","last_reported":1702983979,"current_range_meters":30000,"station_id":"ce4bhn92rcd13ifvqgrg","pricing_plan_id":"free"},{"bike_id":"1c1f9cf6-f7a1-45f2-8f68-fad4c454897f","system_id":"levelo_inurba_marseille","lat":43.27495,"lon":5.42451,"is_reserved":false,"is_disabled":false,"rental_uris":{"android":"levelo://app?vid=1c1f9cf6-f7a1-45f2-8f68-fad4c454897f","ios":"levelo://app?vid=1c1f9cf6-f7a1-45f2-8f68-fad4c454897f"},"vehicle_type_id":"4","last_reported":1702983979,"current_range_meters":2400,"station_id":"ce4bhn92rcd13ifvqgrg","pricing_plan_id":"free"},{"bike_id":"c0304c10-42b7-4fa4-b6c8-caae3b7a8e3e","system_id":"levelo_inurba_marseille","lat":43.275028,"lon":5.424534,"is_reserved":false,"is_disabled":false,"rental_uris":{"android":"levelo://app?vid=c0304c10-42b7-4fa4-b6c8-caae3b7a8e3e","ios":"levelo://app?vid=c0304c10-42b7-4fa4-b6c8-caae3b7a8e3e"},"vehicle_type_id":"4","last_reported":1702983979,"current_range_meters":31600,"station_id":"ce4bhn92rcd13ifvqgrg","pricing_plan_id":"free"},{"bike_id":"f77d9d90-53d5-4f34-87d1-a95b6a5a07f5","system_id":"levelo_inurba_marseille","lat":43.27495,"lon":5.42454,"is_reserved":false,"is_disabled":false,"rental_uris":{"android":"levelo://app?vid=f77d9d90-53d5-4f34-87d1-a95b6a5a07f5","ios":"levelo://app?vid=f77d9d90-53d5-4f34-87d1-a95b6a5a07f5"},"vehicle_type_id":"4","last_reported":1702983979,"current_range_meters":8800,"station_id":"ce4bhn92rcd13ifvqgrg","pricing_plan_id":"free"},{"bike_id":"af809f71-baf7-433c-aa94-c56af5637932","system_id":"levelo_inurba_marseille","lat":43.275028,"lon":5.424534,"is_reserved":false,"is_disabled":false,"rental_uris":{"android":"levelo://app?vid=af809f71-baf7-433c-aa94-c56af5637932","ios":"levelo://app?vid=af809f71-baf7-433c-aa94-c56af5637932"},"vehicle_type_id":"4","last_reported":1702983979,"current_range_meters":16400,"station_id":"ce4bhn92rcd13ifvqgrg","pricing_plan_id":"free"},{"bike_id":"cb23256a-fe84-463c-849e-8ecd7dcbb697","system_id":"levelo_inurba_marseille","lat":43.27492,"lon":5.42454,"is_reserved":false,"is_disabled":false,"rental_uris":{"android":"levelo://app?vid=cb23256a-fe84-463c-849e-8ecd7dcbb697","ios":"levelo://app?vid=cb23256a-fe84-463c-849e-8ecd7dcbb697"},"vehicle_type_id":"4","last_reported":1702983979,"current_range_meters":21200,"station_id":"ce4bhn92rcd13ifvqgrg","pricing_plan_id":"free"},{"bike_id":"3b3f4c5c-2522-4a5c-a457-891155ce9028","system_id":"levelo_inurba_marseille","lat":43.27495,"lon":5.42458,"is_reserved":false,"is_disabled":false,"rental_uris":{"android":"levelo://app?vid=3b3f4c5c-2522-4a5c-a457-891155ce9028","ios":"levelo://app?vid=3b3f4c5c-2522-4a5c-a457-891155ce9028"},"vehicle_type_id":"4","last_reported":1702983979,"current_range_meters":20800,"station_id":"ce4bhn92rcd13ifvqgrg","pricing_plan_id":"free"},{"bike_id":"8522c370-1ba4-40c4-baef-01b0b19354a8","system_id":"levelo_inurba_marseille","lat":43.275028,"lon":5.424534,"is_reserved":false,"is_disabled":false,"rental_uris":{"android":"levelo://app?vid=8522c370-1ba4-40c4-baef-01b0b19354a8","ios":"levelo://app?vid=8522c370-1ba4-40c4-baef-01b0b19354a8"},"vehicle_type_id":"4","last_reported":1702983979,"current_range_meters":20800,"station_id":"ce4bhn92rcd13ifvqgrg","pricing_plan_id":"free"},{"bike_id":"f8fc4981-bab0-462f-9ef0-0d1a14fd2279","system_id":"levelo_inurba_marseille","lat":43.255763,"lon":5.382245,"is_reserved":false,"is_disabled":false,"rental_uris":{"android":"levelo://app?vid=f8fc4981-bab0-462f-9ef0-0d1a14fd2279","ios":"levelo://app?vid=f8fc4981-bab0-462f-9ef0-0d1a14fd2279"},"vehicle_type_id":"4","last_reported":1702983979,"current_range_meters":14800,"station_id":"","pricing_plan_id":"free"},{"bike_id":"fd28f3e5-5b94-4a2f-9dfc-a72538573e09","system_id":"levelo_inurba_marseille","lat":43.25576,"lon":5.38244,"is_reserved":false,"is_disabled":false,"rental_uris":{"android":"levelo://app?vid=fd28f3e5-5b94-4a2f-9dfc-a72538573e09","ios":"levelo://app?vid=fd28f3e5-5b94-4a2f-9dfc-a72538573e09"},"vehicle_type_id":"4","last_reported":1702983979,"current_range_meters":29600,"station_id":"ce4bhih2rcd13ifvqfs0","pricing_plan_id":"free"},{"bike_id":"3c7609fe-5cbf-484c-be43-aacc8e953f7b","system_id":"levelo_inurba_marseille","lat":43.258224,"lon":5.394369,"is_reserved":false,"is_disabled":false,"rental_uris":{"android":"levelo://app?vid=3c7609fe-5cbf-484c-be43-aacc8e953f7b","ios":"levelo://app?vid=3c7609fe-5cbf-484c-be43-aacc8e953f7b"},"vehicle_type_id":"4","last_reported":1702983979,"current_range_meters":30000,"station_id":"ce4bhip2rcd13ifvqft0","pricing_plan_id":"free"},{"bike_id":"dad166b1-8e62-4c75-a26b-779cecb491c8","system_id":"levelo_inurba_marseille","lat":43.258224,"lon":5.394369,"is_reserved":false,"is_disabled":false,"rental_uris":{"android":"levelo://app?vid=dad166b1-8e62-4c75-a26b-779cecb491c8","ios":"levelo://app?vid=dad166b1-8e62-4c75-a26b-779cecb491c8"},"vehicle_type_id":"4","last_reported":1702983979,"current_range_meters":17200,"station_id":"ce4bhip2rcd13ifvqft0","pricing_plan_id":"free"},{"bike_id":"1cdc7c9b-5784-4896-9cba-1bc4f33c1b25","system_id":"levelo_inurba_marseille","lat":43.254947,"lon":5.376454,"is_reserved":false,"is_disabled":false,"rental_uris":{"android":"levelo://app?vid=1cdc7c9b-5784-4896-9cba-1bc4f33c1b25","ios":"levelo://app?vid=1cdc7c9b-5784-4896-9cba-1bc4f33c1b25"},"vehicle_type_id":"4","last_reported":1702983979,"current_range_meters":20800,"station_id":"ce4bhh12rcd13ifvqff0","pricing_plan_id":"free"},{"bike_id":"5b0751bc-0225-48f3-8380-57fcccd457dc","system_id":"levelo_inurba_marseille","lat":43.254947,"lon":5.376454,"is_reserved":false,"is_disabled":false,"rental_uris":{"android":"levelo://app?vid=5b0751bc-0225-48f3-8380-57fcccd457dc","ios":"levelo://app?vid=5b0751bc-0225-48f3-8380-57fcccd457dc"},"vehicle_type_id":"4","last_reported":1702983979,"current_range_meters":26400,"station_id":"ce4bhh12rcd13ifvqff0","pricing_plan_id":"free"},