{"last_updated":1767258956,"ttl":60,"version":"2.2","data":{"bikes":[{"bike_id":"16d54ec6-01ef-428d-95b5-39b1c5114a96","system_id":"levelo_inurba_marseille","lat":43.30207,"lon":5.36571,"is_reserved":false,"is_disabled":false,"rental_uris":{"android":"levelo://app?vid=16d54ec6-01ef-428d-95b5-39b1c5114a96","ios":"levelo://app?vid=16d54ec6-01ef-428d-95b5-39b1c5114a96"},"vehicle_type_id":"4","last_reported":1767258957,"current_range_meters":2800,"station_id":"ce4bgrh2rcd13ifvqc8g","pricing_plan_id":"cebpf4jnsgd1na2vs0mg"},{"bike_id":"a6b5ec71-e95c-4b44-bd3a-a9a656eb895a","system_id":"levelo_inurba_marseille","lat":43.30335,"lon":5.40405,"is_reserved":false,"is_disabled":false,"rental_uris":{"android":"levelo://app?vid=a6b5ec71-e95c-4b44-bd3a-a9a656eb895a","ios":"levelo://app?vid=a6b5ec71-e95c-4b44-bd3a-a9a656eb895a"},"vehicle_type_id":"4","last_reported":1767258957,"current_range_meters":2800,"station_id":"ce4bh012rcd13ifvqd10","pricing_plan_id":"cebpf4jnsgd1na2vs0mg"},{"bike_id":"0886fdfa-e17a-4cb2-aed2-9d41afeb0566","system_id":"levelo_inurba_marseille","lat":43.31073,"lon":5.4243,"is_reserved":false,"is_disabled":false,"rental_uris":{"android":"levelo://app?vid=0886fdfa-e17a-4cb2-aed2-9d41afeb0566","ios":"levelo://app?vid=0886fdfa-e17a-4cb2-aed2-9d41afeb0566"},"vehicle_type_id":"4","last_reported":1767258957,"current_range_meters":2800,"station_id":"ce4bhp92rcd13ifvqhag","pricing_plan_id":"cebpf4jnsgd1na2vs0mg"},{"bike_id":"b0cd04e1-2e5d-46d6-a3cb-582face51e09","system_id":"levelo_inurba_marseille","lat":43.27832,"lon":5.39208,"is_reserved":false,"is_disabled":false,"rental_uris":{"android":"levelo://app?vid=b0cd04e1-2e5d-46d6-a3cb-582face51e09","ios":"levelo://app?vid=b0cd04e1-2e5d-46d6-a3cb-582face51e09"},"vehicle_type_id":"4","last_reported":1767258957,"current_range_meters":2800,"station_id":"ce4bhjp2rcd13ifvqga0","pricing_plan_id":"cebpf4jnsgd1na2vs0mg"},{"bike_id":"6713b5cf-f30e-4658-96d2-8d4ed77c3320","system_id":"levelo_inurba_marseille","lat":43.290682,"lon":5.371653,"is_reserved":false,"is_disabled":false,"rental_uris":{"android":"levelo://app?vid=6713b5cf-f30e-4658-96d2-8d4ed77c3320","ios":"levelo://app?vid=6713b5cf-f30e-4658-96d2-8d4ed77c3320"},"vehicle_type_id":"4","last_reported":1767258957,"current_range_meters":3200,"station_id":"ce4bh5p2rcd13ifvqe4g","pricing_plan_id":"cebpf4jnsgd1na2vs0mg"},{"bike_id":"728d4674-feca-4853-9337-b7bff847bc77","system_id":"levelo_inurba_marseille","lat":43.25474,"lon":5.37655,"is_reserved":false,"is_disabled":false,"rental_uris":{"android":"levelo://app?vid=728d4674-feca-4853-9337-b7bff847bc77","ios":"levelo://app?vid=728d4674-feca-4853-9337-b7bff847bc77"},"vehicle_type_id":"4","last_reported":1767258957,"current_range_meters":3200,"station_id":"ce4bhh12rcd13ifvqff0","pricing_plan_id":"cebpf4jnsgd1na2vs0mg"},{"bike_id":"96b69338-5366-4105-9ab5-171400a87694","system_id":"levelo_inurba_marseille","lat":43.26491,"lon":5.3957,"is_reserved":false,"is_disabled":false,"rental_uris":{"android":"levelo://app?vid=96b69338-5366-4105-9ab5-171400a87694","ios":"levelo://app?vid=96b69338-5366-4105-9ab5-171400a87694"},"vehicle_type_id":"4","last_reported":1767258957,"current_range_meters":3200,"station_id":"ce4bhi12rcd13ifvqfq0","pricing_plan_id":"cebpf4jnsgd1na2vs0mg"},{"bike_id":"742f1e99-972a-4415-9c07-2696da1383a1","system_id":"levelo_inurba_marseille","lat":43.29646,"lon":5.40587,"is_reserved":false,"is_disabled":false,"rental_uris":{"android":"levelo://app?vid=742f1e99-972a-4415-9c07-2696da1383a1","ios":"levelo://app?vid=742f1e99-972a-4415-9c07-2696da1383a1"},"vehicle_type_id":"4","last_reported":1767258957,"current_range_meters":3600,"station_id":"","pricing_plan_id":"cebpf4jnsgd1na2vs0mg"},{"bike_id":"2728229d-fa51-4d90-8db4-07cf86efccb2","system_id":"levelo_inurba_marseille","lat":43.28461,"lon":5.38459,"is_reserved":false,"is_disabled":false,"rental_uris":{"android":"levelo://app?vid=2728229d-fa51-4d90-8db4-07cf86efccb2","ios":"levelo://app?vid=2728229d-fa51-4d90-8db4-07cf86efccb2"},"vehicle_type_id":"4","last_reported":1767258957,"current_range_meters":3600,"station_id":"ce4bh512rcd13ifvqe3g","pricing_plan_id":"cebpf4jnsgd1na2vs0mg"},{"bike_id":"5b3430bc-544e-4d03-b7cc-51ec91781173","system_id":"levelo_inurba_marseille","lat":43.30091,"lon":5.39091,"is_reserved":false,"is_disabled":false,"rental_uris":{"android":"levelo://app?vid=5b3430bc-544e-4d03-b7cc-51ec91781173","ios":"levelo://app?vid=5b3430bc-544e-4d03-b7cc-51ec91781173"},"vehicle_type_id":"4","last_reported":1767258957,"current_range_meters":3600,"station_id":"ce4bh192rcd13ifvqdb0","pricing_plan_id":"cebpf4jnsgd1na2vs0mg"},{"bike_id":"7c6af272-d854-4cac-a893-c6faf1234d18","system_id":"levelo_inurba_marseille","lat":43.27067,"lon":5.38312,"is_reserved":false,"is_disabled":false,"rental_uris":{"android":"levelo://app?vid=7c6af272-d854-4cac-a893-c6faf1234d18","ios":"levelo://app?vid=7c6af272-d854-4cac-a893-c6faf1234d18"},"vehicle_type_id":"4","last_reported":1767258957,"current_range_meters":3600,"station_id":"st_d3n2fo6cfp8s73cte1j0","pricing_plan_id":"cebpf4jnsgd1na2vs0mg"},{"bike_id":"c2b69443-bbd5-4d10-9d30-b4aae281dfc1","system_id":"levelo_inurba_marseille","lat":43.30734,"lon":5.371068,"is_reserved":false,"is_disabled":false,"rental_uris":{"android":"levelo://app?vid=c2b69443-bbd5-4d10-9d30-b4aae281dfc1","ios":"levelo://app?vid=c2b69443-bbd5-4d10-9d30-b4aae281dfc1"},"vehicle_type_id":"4","last_reported":1767258957,"current_range_meters":3600,"station_id":"","pricing_plan_id":"cebpf4jnsgd1na2vs0mg"},{"bike_id":"ec5fae6d-47b5-4030-bf64-4af050af9ecb","system_id":"levelo_inurba_marseille","lat":43.30919,"lon":5.37795,"is_reserved":false,"is_disabled":false,"rental_uris":{"android":"levelo://app?vid=ec5fae6d-47b5-4030-bf64-4af050af9ecb","ios":"levelo://app?vid=ec5fae6d-47b5-4030-bf64-4af050af9ecb"},"vehicle_type_id":"4","last_reported":1767258957,"current_range_meters":3600,"station_id":"","pricing_plan_id":"cebpf4jnsgd1na2vs0mg"},{"bike_id":"9b9ad663-e75d-410b-845e-d1af21bc21d4","system_id":"levelo_inurba_marseille","lat":43.31252,"lon":5.36808,"is_reserved":false,"is_disabled":false,"rental_uris":{"android":"levelo://app?vid=9b9ad663-e75d-410b-845e-d1af21bc21d4","ios":"levelo://app?vid=9b9ad663-e75d-410b-845e-d1af21bc21d4"},"vehicle_type_id":"4","last_reported":1767258957,"current_range_meters":3600,"station_id":"ce4bgl92rcd13ifvqbq0","pricing_plan_id":"cebpf4jnsgd1na2vs0mg"},{"bike_id":"9ed46802-c72f-4590-903c-df69b3e82537","system_id":"levelo_inurba_marseille","lat":43.2849,"lon":5.44109,"is_reserved":false,"is_disabled":false,"rental_uris":{"android":"levelo://app?vid=9ed46802-c72f-4590-903c-df69b3e82537","ios":"levelo://app?vid=9ed46802-c72f-4590-903c-df69b3e82537"},"vehicle_type_id":"4","last_reported":1767258957,"current_range_meters":3600,"station_id":"st_d3j3df2ikq2c7380ej80","pricing_plan_id":"cebpf4jnsgd1na2vs0mg"},{"bike_id":"3ae180a1-ad81-4fbd-8d8e-5122c1af76f4","system_id":"levelo_inurba_marseille","lat":43.337444,"lon":5.374475,"is_reserved":false,"is_disabled":false,"rental_uris":{"android":"levelo://app?vid=3ae180a1-ad81-4fbd-8d8e-5122c1af76f4","ios":"levelo://app?vid=3ae180a1-ad81-4fbd-8d8e-5122c1af76f4"},"vehicle_type_id":"4","last_reported":1767258957,"current_range_meters":4000,"station_id":"","pricing_plan_id":"cebpf4jnsgd1na2vs0mg"},{"bike_id":"a29aa530-9c5d-4c5c-bf5d-abcba2c4208a","system_id":"levelo_inurba_marseille","lat":43.33606,"lon":5.41031,"is_reserved":false,"is_disabled":false,"rental_uris":{"android":"levelo://app?vid=a29aa530-9c5d-4c5c-bf5d-abcba2c4208a","ios":"levelo://app?vid=a29aa530-9c5d-4c5c-bf5d-abcba2c4208a"},"vehicle_type_id":"4","last_reported":1767258957,"current_range_meters":4000,"station_id":"ce4bhqh2rcd13ifvqhmg","pricing_plan_id":"cebpf4jnsgd1na2vs0mg"},{"bike_id":"b3555a12-93cc-4978-ab1d-5cb868684f96","system_id":"levelo_inurba_marseille","lat":43.29926,"lon":5.39679,"is_reserved":false,"is_disabled":false,"rental_uris":{"android":"levelo://app?vid=b3555a12-93cc-4978-ab1d-5cb868684f96","ios":"levelo://app?vid=b3555a12-93cc-4978-ab1d-5cb868684f96"},"vehicle_type_id":"4","last_reported":1767258957,"current_range_meters":4400,"station_id":"","pricing_plan_id":"cebpf4jnsgd1na2vs0mg"},{"bike_id":"018ea5fb-0848-45b4-9f08-1e645bfd07db","system_id":"levelo_inurba_marseille","lat":43.28468,"lon":5.38428,"is_reserved":false,"is_disabled":false,"rental_uris":{"android":"levelo://app?vid=018ea5fb-0848-45b4-9f08-1e645bfd07db","ios":"levelo://app?vid=018ea5fb-0848-45b4-9f08-1e645bfd07db"},"vehicle_type_id":"4","last_reported":1767258957,"current_range_meters":4800,"station_id":"ce4bh512rcd13ifvqe3g","pricing_plan_id":"cebpf4jnsgd1na2vs0mg"},{"bike_id":"f591bc23-6dfd-4e5f-b7c7-6174e4097efe","system_id":"levelo_inurba_marseille","lat":43.2816,"lon":5.42667,"is_reserved":false,"is_disabled":false,"rental_uris":{"android":"levelo://app?vid=f591bc23-6dfd-4e5f-b7c7-6174e4097efe","ios":"levelo://app?vid=f591bc23-6dfd-4e5f-b7c7-6174e4097efe"},"vehicle_type_id":"4","last_reported":1767258957,"current_range_meters":4800,"station_id":"ce4bhnh2rcd13ifvqgug","pricing_plan_id":"cebpf4jnsgd1na2vs0mg"},{"bike_id":"b9fe624b-5f79-478c-8b92-041224fcacce","system_id":"levelo_inurba_marseille","lat":43.286133,"lon":5.3987,"is_reserved":false,"is_disabled":false,"rental_uris":{"android":"levelo://app?vid=b9fe624b-5f79-478c-8b92-041224fcacce","ios":"levelo://app?vid=b9fe624b-5f79-478c-8b92-041224fcacce"},"vehicle_type_id":"4","last_reported":1767258957,"current_range_meters":4800,"station_id":"st_d4a7ka997mjs738ck50g","pricing_plan_id":"cebpf4jnsgd1na2vs0mg"},{"bike_id":"110d85ec-a221-4d7f-a0ab-532ef37b1c9d","system_id":"levelo_inurba_marseille","lat":43.27993,"lon":5.40023,"is_reserved":false,"is_disabled":false,"rental_uris":{"android":"levelo://app?vid=110d85ec-a221-4d7f-a0ab-532ef37b1c9d","ios":"levelo://app?vid=110d85ec-a221-4d7f-a0ab-532ef37b1c9d"},"vehicle_type_id":"4","last_reported":1767258957,"current_range_meters":4800,"station_id":"ce4bho92rcd13ifvqh4g","pricing_plan_id":"cebpf4jnsgd1na2vs0mg"},{"bike_id":"bd4ce74d-2960-4ce5-8f75-d0a93048131d","system_id":"levelo_inurba_marseille","lat":43.26499,"lon":5.39569,"is_reserved":false,"is_disabled":false,"rental_uris":{"android":"levelo://app?vid=bd4ce74d-2960-4ce5-8f75-d0a93048131d","ios":"levelo://app?vid=bd4ce74d-2960-4ce5-8f75-d0a93048131d"},"vehicle_type_id":"4","last_reported":1767258957,"current_range_meters":4800,"station_id":"ce4bhi12rcd13ifvqfq0","pricing_plan_id":"cebpf4jnsgd1na2vs0mg"},{"bike_id":"9ce3dc9f-f62c-499a-98dc-3a924e3ec5df","system_id":"levelo_inurba_marseille","lat":43.26938,"lon":5.40245,"is_reserved":false,"is_disabled":false,"rental_uris":{"android":"levelo://app?vid=9ce3dc9f-f62c-499a-98dc-3a924e3ec5df","ios":"levelo://app?vid=9ce3dc9f-f62c-499a-98dc-3a924e3ec5df"},"vehicle_type_id":"4","last_reported":1767258957,"current_range_meters":4800,"station_id":"cjm6bp8fraef2m0cb0m0","pricing_plan_id":"cebpf4jnsgd1na2vs0mg"},{"bike_id":"33c9eaf0-680b-4a68-82f8-7d87f07e6e13","system_id":"levelo_inurba_marseille","lat":43.265,"lon":5.39584,"is_reserved":false,"is_disabled":false,"rental_uris":{"android":"levelo://app?vid=33c9eaf0-680b-4a68-82f8-7d87f07e6e13","ios":"levelo://app?vid=33c9eaf0-680b-4a68-82f8-7d87f07e6e13"},"vehicle_type_id":"4","last_reported":1767258957,"current_range_meters":5600,"station_id":"ce4bhi12rcd13ifvqfq0","pricing_plan_id":"cebpf4jnsgd1na2vs0mg"},{"bike_id":"efd33062-2cef-445f-af98-648f578e9c2a","system_id":"levelo_inurba_marseille","lat":43.32615,"lon":5.41987,"is_reserved":false,"is_disabled":false,"rental_uris":{"android":"levelo://app?vid=efd33062-2cef-445f-af98-648f578e9c2a","ios":"levelo://app?vid=efd33062-2cef-445f-af98-648f578e9c2a"},"vehicle_type_id":"4","last_reported":1767258957,"current_range_meters":5600,"station_id":"","pricing_plan_id":"cebpf4jnsgd1na2vs0mg"},{"bike_id":"c45411a8-096b-45f0-a795-da31790be9da","system_id":"levelo_inurba_marseille","lat":43.30332,"lon":5.40431,"is_reserved":false,"is_disabled":false,"rental_uris":{"android":"levelo://app?vid=c45411a8-096b-45f0-a795-da31790be9da","ios":"levelo://app?vid=c45411a8-096b-45f0-a795-da31790be9da"},"vehicle_type_id":"4","last_reported":1767258957,"current_range_meters":5600,"station_id":"ce4bh012rcd13ifvqd10","pricing_plan_id":"cebpf4jnsgd1na2vs0mg"},{"bike_id":"dc9feb7e-742c-4c15-83bb-7db4fa4848d4","system_id":"levelo_inurba_marseille","lat":43.3226,"lon":5.38956,"is_reserved":false,"is_disabled":false,"rental_uris":{"android":"levelo://app?vid=dc9feb7e-742c-4c15-83bb-7db4fa4848d4","ios":"levelo://app?vid=dc9feb7e-742c-4c15-83bb-7db4fa4848d4"},"vehicle_type_id":"4","last_reported":1767258957,"current_range_meters":5600,"station_id":"","pricing_plan_id":"cebpf4jnsgd1na2vs0mg"},{"bike_id":"54f6ec4b-5c5e-4e7c-a924-d8d70c9ee744","system_id":"levelo_inurba_marseille","lat":43.30327,"lon":5.39754,"is_reserved":false,"is_disabled":false,"rental_uris":{"android":"levelo://app?vid=54f6ec4b-5c5e-4e7c-a924-d8d70c9ee744","ios":"levelo://app?vid=54f6ec4b-5c5e-4e7c-a924-d8d70c9ee744"},"vehicle_type_id":"4","last_reported":1767258957,"current_range_meters":5600,"station_id":"","pricing_plan_id":"cebpf4jnsgd1na2vs0mg"},{"bike_id":"8b03412a-810b-4a8f-91ea-45d30d05d0ee","system_id":"levelo_inurba_marseille","lat":43.231302,"lon":5.39978,"is_reserved":false,"is_disabled":false,"rental_uris":{"android":"levelo://app?vid=8b03412a-810b-4a8f-91ea-45d30d05d0ee","ios":"levelo://app?vid=8b03412a-810b-4a8f-91ea-45d30d05d0ee"},"vehicle_type_id":"4","last_reported":1767258957,"current_range_meters":5600,"station_id":"","pricing_plan_id":"cebpf4jnsgd1na2vs0mg"},{"bike_id":"20f169b7-714d-437c-ad41-0df8b7ef19df","system_id":"levelo_inurba_marseille","lat":43.27181,"lon":5.390489,"is_reserved":false,"is_disabled":true,"rental_uris":{"android":"levelo://app?vid=20f169b7-714d-437c-ad41-0df8b7ef19df","ios":"levelo://app?vid=20f169b7-714d-437c-ad41-0df8b7ef19df"},"vehicle_type_id":"4","last_reported":1767258957,"current_range_meters":5600,"station_id":"ce4bhhp2rcd13ifvqfm0","pricing_plan_id":"cebpf4jnsgd1na2vs0mg"},{"bike_id":"29bbd316-a3ba-4fba-9255-99b4397329c1","system_id":"levelo_inurba_marseille","lat":43.2495,"lon":5.40526,"is_reserved":false,"is_disabled":false,"rental_uris":{"android":"levelo://app?vid=29bbd316-a3ba-4fba-9255-99b4397329c1","ios":"levelo://app?vid=29bbd316-a3ba-4fba-9255-99b4397329c1"},"vehicle_type_id":"4","last_reported":1767258957,"current_range_meters":5600,"station_id":"st_d2ngiaodas8pm72gd1h0","pricing_plan_id":"cebpf4jnsgd1na2vs0mg"},{"bike_id":"d0270600-771e-498c-90ba-ff23f7347b4c","system_id":"levelo_inurba_marseille","lat":43.29617,"lon":5.37736,"is_reserved":false,"is_disabled":false,"rental_uris":{"android":"levelo://app?vid=d0270600-771e-498c-90ba-ff23f7347b4c","ios":"levelo://app?vid=d0270600-771e-498c-90ba-ff23f7347b4c"},"vehicle_type_id":"4","last_reported":1767258957,"current_range_meters":5600,"station_id":"ce4bgi92rcd13ifvqb90","pricing_plan_id":"cebpf4jnsgd1na2vs0mg"},{"bike_id":"65bcb155-d26f-40af-9b01-2b9a18976370","system_id":"levelo_inurba_marseille","lat":43.29977,"lon":5.3718,"is_reserved":false,"is_disabled":true,"rental_uris":{"android":"levelo://app?vid=65bcb155-d26f-40af-9b01-2b9a18976370","ios":"levelo://app?vid=65bcb155-d26f-40af-9b01-2b9a18976370"},"vehicle_type_id":"4","last_reported":1767258957,"current_range_meters":5600,"station_id":"ce4bgr92rcd13ifvqc7g","pricing_plan_id":"cebpf4jnsgd1na2vs0mg"},{"bike_id":"2f776167-fd8c-4bf2-b226-79f6121d295b","system_id":"levelo_inurba_marseille","lat":43.31709,"lon":5.43709,"is_reserved":false,"is_disabled":false,"rental_uris":{"android":"levelo://app?vid=2f776167-fd8c-4bf2-b226-79f6121d295b","ios":"levelo://app?vid=2f776167-fd8c-4bf2-b226-79f6121d295b"},"vehicle_type_id":"4","last_reported":1767258957,"current_range_meters":5600,"station_id":"ce4bhp92rcd13ifvqhcg","pricing_plan_id":"cebpf4jnsgd1na2vs0mg"},{"bike_id":"0fa76090-b264-4d7f-a0bc-7de1e50f19da","system_id":"levelo_inurba_marseille","lat":43.280198,"lon":5.404238,"is_reserved":false,"is_disabled":false,"rental_uris":{"android":"levelo://app?vid=0fa76090-b264-4d7f-a0bc-7de1e50f19da","ios":"levelo://app?vid=0fa76090-b264-4d7f-a0bc-7de1e50f19da"},"vehicle_type_id":"4","last_reported":1767258957,"current_range_meters":5600,"station_id":"","pricing_plan_id":"cebpf4jnsgd1na2vs0mg"},{"bike_id":"41069fea-96c4-45bf-816c-b1152be2e8c4","system_id":"levelo_inurba_marseille","lat":43.25333,"lon":5.4218,"is_reserved":false,"is_disabled":false,"rental_uris":{"android":"levelo://app?vid=41069fea-96c4-45bf-816c-b1152be2e8c4","ios":"levelo://app?vid=41069fea-96c4-45bf-816c-b1152be2e8c4"},"vehicle_type_id":"4","last_reported":1767258957,"current_range_meters":6000,"station_id":"st_d2m65c5bi1j21697t3ng","pricing_plan_id":"cebpf4jnsgd1na2vs0mg"},{"bike_id":"5c3723ae-13f9-448d-9385-5664e312af00","system_id":"levelo_inurba_marseille","lat":43.30529,"lon":5.36564,"is_reserved":false,"is_disabled":false,"rental_uris":{"android":"levelo://app?vid=5c3723ae-13f9-448d-9385-5664e312af00","ios":"levelo://app?vid=5c3723ae-13f9-448d-9385-5664e312af00"},"vehicle_type_id":"4","last_reported":1767258957,"current_range_meters":6000,"station_id":"ce4bgs12rcd13ifvqcag","pricing_plan_id":"cebpf4jnsgd1na2vs0mg"},{"bike_id":"9cf20d61-ddfa-467e-90ea-ddf7859b95f0","system_id":"levelo_inurba_marseille","lat":43.30368,"lon":5.42498,"is_reserved":false,"is_disabled":false,"rental_uris":{"android":"levelo://app?vid=9cf20d61-ddfa-467e-90ea-ddf7859b95f0","ios":"levelo://app?vid=9cf20d61-ddfa-467e-90ea-ddf7859b95f0"},"vehicle_type_id":"4","last_reported":1767258957,"current_range_meters":6000,"station_id":"ce4bhoh2rcd13ifvqh6g","pricing_plan_id":"cebpf4jnsgd1na2vs0mg"},{"bike_id":"dce28840-1b59-4930-917a-12d88071d00f","system_id":"levelo_inurba_marseille","lat":43.28545,"lon":5.44102,"is_reserved":false,"is_disabled":false,"rental_uris":{"android":"levelo://app?vid=dce28840-1b59-4930-917a-12d88071d00f","ios":"levelo://app?vid=dce28840-1b59-4930-917a-12d88071d00f"},"vehicle_type_id":"4","last_reported":1767258957,"current_range_meters":6000,"station_id":"st_d3j3df2ikq2c7380ej80","pricing_plan_id":"cebpf4jnsgd1na2vs0mg"},{"bike_id":"3aff02c6-2c85-49b8-a901-010765c4cee2","system_id":"levelo_inurba_marseille","lat":43.29541,"lon":5.38542,"is_reserved":false,"is_disabled":false,"rental_uris":{"android":"levelo://app?vid=3aff02c6-2c85-49b8-a901-010765c4cee2","ios":"levelo://app?vid=3aff02c6-2c85-49b8-a901-010765c4cee2"},"vehicle_type_id":"4","last_reported":1767258957,"current_range_meters":6000,"station_id":"ce4bghh2rcd13ifvqb60","pricing_plan_id":"cebpf4jnsgd1na2vs0mg"},{"bike_id":"cfaa7270-0be4-4df6-9f1d-2a0a21cc603d","system_id":"levelo_inurba_marseille","lat":43.279876,"lon":5.400201,"is_reserved":false,"is_disabled":false,"rental_uris":{"android":"levelo://app?vid=cfaa7270-0be4-4df6-9f1d-2a0a21cc603d","ios":"levelo://app?vid=cfaa7270-0be4-4df6-9f1d-2a0a21cc603d"},"vehicle_type_id":"4","last_reported":1767258957,"current_range_meters":6000,"station_id":"ce4bho92rcd13ifvqh4g","pricing_plan_id":"cebpf4jnsgd1na2vs0mg"},{"bike_id":"a274e1f3-90e8-4548-9a2a-4f53c59abc4e","system_id":"levelo_inurba_marseille","lat":43.31705,"lon":5.40463,"is_reserved":false,"is_disabled":true,"rental_uris":{"android":"levelo://app?vid=a274e1f3-90e8-4548-9a2a-4f53c59abc4e","ios":"levelo://app?vid=a274e1f3-90e8-4548-9a2a-4f53c59abc4e"},"vehicle_type_id":"4","last_reported":1767258957,"current_range_meters":6000,"station_id":"ce4bh012rcd13ifvqd00","pricing_plan_id":"cebpf4jnsgd1na2vs0mg"},{"bike_id":"c0efa7e8-7f6b-4a9e-941b-890ff80e593b","system_id":"levelo_inurba_marseille","lat":43.2799,"lon":5.40051,"is_reserved":false,"is_disabled":false,"rental_uris":{"android":"levelo://app?vid=c0efa7e8-7f6b-4a9e-941b-890ff80e593b","ios":"levelo://app?vid=c0efa7e8-7f6b-4a9e-941b-890ff80e593b"},"vehicle_type_id":"4","last_reported":1767258957,"current_range_meters":6000,"station_id":"ce4bho92rcd13ifvqh4g","pricing_plan_id":"cebpf4jnsgd1na2vs0mg"},{"bike_id":"bc942189-f5d1-440e-be40-abf6e52870fe","system_id":"levelo_inurba_marseille","lat":43.27623,"lon":5.36124,"is_reserved":false,"is_disabled":false,"rental_uris":{"android":"levelo://app?vid=bc942189-f5d1-440e-be40-abf6e52870fe","ios":"levelo://app?vid=bc942189-f5d1-440e-be40-abf6e52870fe"},"vehicle_type_id":"4","last_reported":1767258957,"current_range_meters":6000,"station_id":"ce4bgj92rcd13ifvqbe0","pricing_plan_id":"cebpf4jnsgd1na2vs0mg"},{"bike_id":"4db762e1-661b-4766-8eda-f3283dbe02e9","system_id":"levelo_inurba_marseille","lat":43.31227,"lon":5.36903,"is_reserved":false,"is_disabled":false,"rental_uris":{"android":"levelo://app?vid=4db762e1-661b-4766-8eda-f3283dbe02e9","ios":"levelo://app?vid=4db762e1-661b-4766-8eda-f3283dbe02e9"},"vehicle_type_id":"4","last_reported":1767258957,"current_range_meters":6000,"station_id":"ce4bgl92rcd13ifvqbq0","pricing_plan_id":"cebpf4jnsgd1na2vs0mg"},{"bike_id":"b9f5bb9a-d9aa-4714-a9ae-ceaed3ab533e","system_id":"levelo_inurba_marseille","lat":43.29643,"lon":5.38045,"is_reserved":false,"is_disabled":false,"rental_uris":{"android":"levelo://app?vid=b9f5bb9a-d9aa-4714-a9ae-ceaed3ab533e","ios":"levelo://app?vid=b9f5bb9a-d9aa-4714-a9ae-ceaed3ab533e"},"vehicle_type_id":"4","last_reported":1767258957,"current_range_meters":6000,"station_id":"","pricing_plan_id":"cebpf4jnsgd1na2vs0mg"},{"bike_id":"9a2077a2-cebc-468c-82f9-fecda68a9ec3","system_id":"levelo_inurba_marseille","lat":43.2949,"lon":5.40896,"is_reserved":false,"is_disabled":false,"rental_uris":{"android":"levelo://app?vid=9a2077a2-cebc-468c-82f9-fecda68a9ec3","ios":"levelo://app?vid=9a2077a2-cebc-468c-82f9-fecda68a9ec3"},"vehicle_type_id":"4","last_reported":1767258957,"current_range_meters":6000,"station_id":"","pricing_plan_id":"cebpf4jnsgd1na2vs0mg"},{"bike_id":"5ac76dd4-8341-4c0d-b496-0898a4870a5a","system_id":"levelo_inurba_marseille","lat":43.29431,"lon":5.41316,"is_reserved":false,"is_disabled":false,"rental_uris":{"android":"levelo://app?vid=5ac76dd4-8341-4c0d-b496-0898a4870a5a","ios":"levelo://app?vid=5ac76dd4-8341-4c0d-b496-0898a4870a5a"},"vehicle_type_id":"4","last_reported":1767258957,"current_range_meters":6400,"station_id":"","pricing_plan_id":"cebpf4jnsgd1na2vs0mg"},{"bike_id":"0ab0ac30-af99-432a-96b6-33a463626c8b","system_id":"levelo_inurba_marseille","lat":43.29193,"lon":5.35811,"is_reserved":false,"is_disabled":false,"rental_uris":{"android":"levelo://app?vid=0ab0ac30-af99-432a-96b6-33a463626c8b","ios":"levelo://app?vid=0ab0ac30-af99-432a-96b6-33a463626c8b"},"vehicle_type_id":"4","last_reported":1767258957,"current_range_meters":6400,"station_id":"ce4bhb12rcd13ifvqel0","pricing_plan_id":"cebpf4jnsgd1na2vs0mg"},{"bike_id":"a661872f-aa9c-48cf-bf60-351a124e6f6d","system_id":"levelo_inurba_marseille","lat":43.27368,"lon":5.36259,"is_reserved":false,"is_disabled":false,"rental_uris":{"android":"levelo://app?vid=a661872f-aa9c-48cf-bf60-351a124e6f6d","ios":"levelo://app?vid=a661872f-aa9c-48cf-bf60-351a124e6f6d"},"vehicle_type_id":"4","last_reported":1767258957,"current_range_meters":6400,"station_id":"ce4bhbh2rcd13ifvqeo0","pricing_plan_id":"cebpf4jnsgd1na2vs0mg"},{"bike_id":"b4da9160-909c-402b-8e87-c5e929ada3b1","system_id":"levelo_inurba_marseille","lat":43.29616,"lon":5.37722,"is_reserved":false,"is_disabled":false,"rental_uris":{"android":"levelo://app?vid=b4da9160-909c-402b-8e87-c5e929ada3b1","ios":"levelo://app?vid=b4da9160-909c-402b-8e87-c5e929ada3b1"},"vehicle_type_id":"4","last_reported":1767258957,"current_range_meters":6400,"station_id":"ce4bgi92rcd13ifvqb90","pricing_plan_id":"cebpf4jnsgd1na2vs0mg"},{"bike_id":"78ed77cb-47f0-4c82-bf8a-f958576ec953","system_id":"levelo_inurba_marseille","lat":43.2814,"lon":5.42649,"is_reserved":false,"is_disabled":false,"rental_uris":{"android":"levelo://app?vid=78ed77cb-47f0-4c82-bf8a-f958576ec953","ios":"levelo://app?vid=78ed77cb-47f0-4c82-bf8a-f958576ec953"},"vehicle_type_id":"4","last_reported":1767258957,"current_range_meters":6400,"station_id":"ce4bhnh2rcd13ifvqgug","pricing_plan_id":"cebpf4jnsgd1na2vs0mg"},{"bike_id":"b7ae1298-3072-47c9-af57-47af9a718dc7","system_id":"levelo_inurba_marseille","lat":43.31221,"lon":5.36862,"is_reserved":false,"is_disabled":false,"rental_uris":{"android":"levelo://app?vid=b7ae1298-3072-47c9-af57-47af9a718dc7","ios":"levelo://app?vid=b7ae1298-3072-47c9-af57-47af9a718dc7"},"vehicle_type_id":"4","last_reported":1767258957,"current_range_meters":6400,"station_id":"ce4bgl92rcd13ifvqbq0","pricing_plan_id":"cebpf4jnsgd1na2vs0mg"},{"bike_id":"53922ae6-0f6f-44b9-ac28-2a5752332516","system_id":"levelo_inurba_marseille","lat":43.292291,"lon":5.360499,"is_reserved":false,"is_disabled":false,"rental_uris":{"android":"levelo://app?vid=53922ae6-0f6f-44b9-ac28-2a5752332516","ios":"levelo://app?vid=53922ae6-0f6f-44b9-ac28-2a5752332516"},"vehicle_type_id":"4","last_reported":1767258957,"current_range_meters":6400,"station_id":"ce4bhbh2rcd13ifvqeqg","pricing_plan_id":"cebpf4jnsgd1na2vs0mg"},{"bike_id":"7451e2f1-97cc-4a6a-824e-1c725c74e9d6","system_id":"levelo_inurba_marseille","lat":43.29387,"lon":5.3805,"is_reserved":false,"is_disabled":false,"rental_uris":{"android":"levelo://app?vid=7451e2f1-97cc-4a6a-824e-1c725c74e9d6","ios":"levelo://app?vid=7451e2f1-97cc-4a6a-824e-1c725c74e9d6"},"vehicle_type_id":"4","last_reported":1767258957,"current_range_meters":6400,"station_id":"","pricing_plan_id":"cebpf4jnsgd1na2vs0mg"},{"bike_id":"e9a5eb2f-5342-4378-8fc6-06fbe17d605d","system_id":"levelo_inurba_marseille","lat":43.29577,"lon":5.39989,"is_reserved":false,"is_disabled":false,"rental_uris":{"android":"levelo://app?vid=e9a5eb2f-5342-4378-8fc6-06fbe17d605d","ios":"levelo://app?vid=e9a5eb2f-5342-4378-8fc6-06fbe17d605d"},"vehicle_type_id":"4","last_reported":1767258957,"current_range_meters":6400,"station_id":"ce4bh312rcd13ifvqdj0","pricing_plan_id":"cebpf4jnsgd1na2vs0mg"},{"bike_id":"1485075b-1bb5-48d2-b0e5-402379126b05","system_id":"levelo_inurba_marseille","lat":43.29859,"lon":5.38103,"is_reserved":false,"is_disabled":false,"rental_uris":{"android":"levelo://app?vid=1485075b-1bb5-48d2-b0e5-402379126b05","ios":"levelo://app?vid=1485075b-1bb5-48d2-b0e5-402379126b05"},"vehicle_type_id":"4","last_reported":1767258957,"current_range_meters":6400,"station_id":"","pricing_plan_id":"cebpf4jnsgd1na2vs0mg"},{"bike_id":"b965a0de-43c2-44b3-b7bc-6d25cc902e81","system_id":"levelo_inurba_marseille","lat":43.286,"lon":5.39891,"is_reserved":false,"is_disabled":false,"rental_uris":{"android":"levelo://app?vid=b965a0de-43c2-44b3-b7bc-6d25cc902e81","ios":"levelo://app?vid=b965a0de-43c2-44b3-b7bc-6d25cc902e81"},"vehicle_type_id":"4","last_reported":1767258957,"current_range_meters":6400,"station_id":"st_d4a7ka997mjs738ck50g","pricing_plan_id":"cebpf4jnsgd1na2vs0mg"},{"bike_id":"149a94e7-8065-4440-a1ab-1ba416a8f181","system_id":"levelo_inurba_marseille","lat":43.28476,"lon":5.48399,"is_reserved":false,"is_disabled":false,"rental_uris":{"android":"levelo://app?vid=149a94e7-8065-4440-a1ab-1ba416a8f181","ios":"levelo://app?vid=149a94e7-8065-4440-a1ab-1ba416a8f181"},"vehicle_type_id":"4","last_reported":1767258957,"current_range_meters":6400,"station_id":"","pricing_plan_id":"cebpf4jnsgd1na2vs0mg"},{"bike_id":"d2c40b22-565d-4a49-bb53-f72047eca32b","system_id":"levelo_inurba_marseille","lat":43.2695,"lon":5.38631,"is_reserved":false,"is_disabled":false,"rental_uris":{"android":"levelo://app?vid=d2c40b22-565d-4a49-bb53-f72047eca32b","ios":"levelo://app?vid=d2c40b22-565d-4a49-bb53-f72047eca32b"},"vehicle_type_id":"4","last_reported":1767258957,"current_range_meters":6400,"station_id":"ce4bhh92rcd13ifvqfh0","pricing_plan_id":"cebpf4jnsgd1na2vs0mg"},{"bike_id":"5265762e-9468-4f8e-963d-e1d647f4d72d","system_id":"levelo_inurba_marseille","lat":43.337444,"lon":5.374475,"is_reserved":false,"is_disabled":false,"rental_uris":{"android":"levelo://app?vid=5265762e-9468-4f8e-963d-e1d647f4d72d","ios":"levelo://app?vid=5265762e-9468-4f8e-963d-e1d647f4d72d"},"vehicle_type_id":"4","last_reported":1767258957,"current_range_meters":6800,"station_id":"","pricing_plan_id":"cebpf4jnsgd1na2vs0mg"},{"bike_id":"e93c83d5-bafc-41ab-b80f-422d8d8d6d2a","system_id":"levelo_inurba_marseille","lat":43.26848,"lon":5.40078,"is_reserved":false,"is_disabled":false,"rental_uris":{"android":"levelo://app?vid=e93c83d5-bafc-41ab-b80f-422d8d8d6d2a","ios":"levelo://app?vid=e93c83d5-bafc-41ab-b80f-422d8d8d6d2a"},"vehicle_type_id":"4","last_reported":1767258957,"current_range_meters":6800,"station_id":"","pricing_plan_id":"cebpf4jnsgd1na2vs0mg"},{"bike_id":"2b23942c-0d5b-4193-b718-e6099c5527d3","system_id":"levelo_inurba_marseille","lat":43.2319,"lon":5.35555,"is_reserved":false,"is_disabled":false,"rental_uris":{"android":"levelo://app?vid=2b23942c-0d5b-4193-b718-e6099c5527d3","ios":"levelo://app?vid=2b23942c-0d5b-4193-b718-e6099c5527d3"},"vehicle_type_id":"4","last_reported":1767258957,"current_range_meters":6800,"station_id":"ce4bhu92rcd13ifvqi70","pricing_plan_id":"cebpf4jnsgd1na2vs0mg"},{"bike_id":"8c9f703d-219a-46f5-bb1d-6f7b59f09c24","system_id":"levelo_inurba_marseille","lat":43.30177,"lon":5.37414,"is_reserved":false,"is_disabled":false,"rental_uris":{"android":"levelo://app?vid=8c9f703d-219a-46f5-bb1d-6f7b59f09c24","ios":"levelo://app?vid=8c9f703d-219a-46f5-bb1d-6f7b59f09c24"},"vehicle_type_id":"4","last_reported":1767258957,"current_range_meters":6800,"station_id":"ce4bgs92rcd13ifvqcc0","pricing_plan_id":"cebpf4jnsgd1na2vs0mg"},{"bike_id":"d1041711-ecb4-4070-8b9f-37a4fa94dae7","system_id":"levelo_inurba_marseille","lat":43.336069,"lon":5.410266,"is_reserved":false,"is_disabled":false,"rental_uris":{"android":"levelo://app?vid=d1041711-ecb4-4070-8b9f-37a4fa94dae7","ios":"levelo://app?vid=d1041711-ecb4-4070-8b9f-37a4fa94dae7"},"vehicle_type_id":"4","last_reported":1767258957,"current_range_meters":6800,"station_id":"ce4bhqh2rcd13ifvqhmg","pricing_plan_id":"cebpf4jnsgd1na2vs0mg"},{"bike_id":"535d562b-448c-43ac-86cc-1d98462f2032","system_id":"levelo_inurba_marseille","lat":43.2786,"lon":5.39591,"is_reserved":false,"is_disabled":false,"rental_uris":{"android":"levelo://app?vid=535d562b-448c-43ac-86cc-1d98462f2032","ios":"levelo://app?vid=535d562b-448c-43ac-86cc-1d98462f2032"},"vehicle_type_id":"4","last_reported":1767258957,"current_range_meters":6800,"station_id":"ce4bhf92rcd13ifvqf40","pricing_plan_id":"cebpf4jnsgd1na2vs0mg"},{"bike_id":"32a7b5d7-5af3-4910-b418-797951028920","system_id":"levelo_inurba_marseille","lat":43.29136,"lon":5.38554,"is_reserved":false,"is_disabled":false,"rental_uris":{"android":"levelo://app?vid=32a7b5d7-5af3-4910-b418-797951028920","ios":"levelo://app?vid=32a7b5d7-5af3-4910-b418-797951028920"},"vehicle_type_id":"4","last_reported":1767258957,"current_range_meters":6800,"station_id":"","pricing_plan_id":"cebpf4jnsgd1na2vs0mg"},{"bike_id":"49998141-cac4-4767-a907-b8a3171a3b09","system_id":"levelo_inurba_marseille","lat":43.29154,"lon":5.38499,"is_reserved":false,"is_disabled":false,"rental_uris":{"android":"levelo://app?vid=49998141-cac4-4767-a907-b8a3171a3b09","ios":"levelo://app?vid=49998141-cac4-4767-a907-b8a3171a3b09"},"vehicle_type_id":"4","last_reported":1767258957,"current_range_meters":6800,"station_id":"","pricing_plan_id":"cebpf4jnsgd1na2vs0mg"},{"bike_id":"b7142933-5bc0-4beb-a4ab-a3152aae03ce","system_id":"levelo_inurba_marseille","lat":43.26038,"lon":5.4176,"is_reserved":false,"is_disabled":false,"rental_uris":{"android":"levelo://app?vid=b7142933-5bc0-4beb-a4ab-a3152aae03ce","ios":"levelo://app?vid=b7142933-5bc0-4beb-a4ab-a3152aae03ce"},"vehicle_type_id":"4","last_reported":1767258957,"current_range_meters":6800,"station_id":"","pricing_plan_id":"cebpf4jnsgd1na2vs0mg"},{"bike_id":"0c9ca243-897c-4d38-8127-8933d39eb60f","system_id":"levelo_inurba_marseille","lat":43.28889,"lon":5.42538,"is_reserved":false,"is_disabled":false,"rental_uris":{"android":"levelo://app?vid=0c9ca243-897c-4d38-8127-8933d39eb60f","ios":"levelo://app?vid=0c9ca243-897c-4d38-8127-8933d39eb60f"},"vehicle_type_id":"4","last_reported":1767258957,"current_range_meters":6800,"station_id":"st_d3b462108ojc7389ooeg","pricing_plan_id":"cebpf4jnsgd1na2vs0mg"},{"bike_id":"90dac6f2-4e58-4623-b929-4f8d06ec1c31","system_id":"levelo_inurba_marseille","lat":43.284995,"lon":5.425424,"is_reserved":false,"is_disabled":false,"rental_uris":{"android":"levelo://app?vid=90dac6f2-4e58-4623-b929-4f8d06ec1c31","ios":"levelo://app?vid=90dac6f2-4e58-4623-b929-4f8d06ec1c31"},"vehicle_type_id":"4","last_reported":1767258957,"current_range_meters":7200,"station_id":"","pricing_plan_id":"cebpf4jnsgd1na2vs0mg"},{"bike_id":"abf838d6-6712-4300-adda-f8cd4c1d329b","system_id":"levelo_inurba_marseille","lat":43.28388,"lon":5.37519,"is_reserved":false,"is_disabled":false,"rental_uris":{"android":"levelo://app?vid=abf838d6-6712-4300-adda-f8cd4c1d329b","ios":"levelo://app?vid=abf838d6-6712-4300-adda-f8cd4c1d329b"},"vehicle_type_id":"4","last_reported":1767258957,"current_range_meters":7200,"station_id":"ce4bh412rcd13ifvqds0","pricing_plan_id":"cebpf4jnsgd1na2vs0mg"},{"bike_id":"8fa53ddb-80a9-4b81-a17d-6b07554edef4","system_id":"levelo_inurba_marseille","lat":43.28487,"lon":5.48424,"is_reserved":false,"is_disabled":false,"rental_uris":{"android":"levelo://app?vid=8fa53ddb-80a9-4b81-a17d-6b07554edef4","ios":"levelo://app?vid=8fa53ddb-80a9-4b81-a17d-6b07554edef4"},"vehicle_type_id":"4","last_reported":1767258957,"current_range_meters":7200,"station_id":"st_d3svhcjqgbts73a3dn0g","pricing_plan_id":"cebpf4jnsgd1na2vs0mg"},{"bike_id":"713d05a3-983d-4b9d-ab7a-e49fde9dfcdb","system_id":"levelo_inurba_marseille","lat":43.30177,"lon":5.3665,"is_reserved":false,"is_disabled":false,"rental_uris":{"android":"levelo://app?vid=713d05a3-983d-4b9d-ab7a-e49fde9dfcdb","ios":"levelo://app?vid=713d05a3-983d-4b9d-ab7a-e49fde9dfcdb"},"vehicle_type_id":"4","last_reported":1767258957,"current_range_meters":7200,"station_id":"ce4bgrh2rcd13ifvqc8g","pricing_plan_id":"cebpf4jnsgd1na2vs0mg"},{"bike_id":"19c8fae4-b80c-498c-a4ef-76cc1120fdb3","system_id":"levelo_inurba_marseille","lat":43.279484,"lon":5.410273,"is_reserved":false,"is_disabled":false,"rental_uris":{"android":"levelo://app?vid=19c8fae4-b80c-498c-a4ef-76cc1120fdb3","ios":"levelo://app?vid=19c8fae4-b80c-498c-a4ef-76cc1120fdb3"},"vehicle_type_id":"4","last_reported":1767258957,"current_range_meters":7200,"station_id":"ce4bhnp2rcd13ifvqh0g","pricing_plan_id":"cebpf4jnsgd1na2vs0mg"},{"bike_id":"e9d34b14-a11a-49cf-b8d8-99a6e9a6e979","system_id":"levelo_inurba_marseille","lat":43.23785,"lon":5.36616,"is_reserved":false,"is_disabled":false,"rental_uris":{"android":"levelo://app?vid=e9d34b14-a11a-49cf-b8d8-99a6e9a6e979","ios":"levelo://app?vid=e9d34b14-a11a-49cf-b8d8-99a6e9a6e979"},"vehicle_type_id":"4","last_reported":1767258957,"current_range_meters":7200,"station_id":"st_d3nk18o9ro0c73en2l3g","pricing_plan_id":"cebpf4jnsgd1na2vs0mg"},{"bike_id":"650cf425-f87e-4c30-9156-354d5fef94cd","system_id":"levelo_inurba_marseille","lat":43.30127,"lon":5.36755,"is_reserved":false,"is_disabled":false,"rental_uris":{"android":"levelo://app?vid=650cf425-f87e-4c30-9156-354d5fef94cd","ios":"levelo://app?vid=650cf425-f87e-4c30-9156-354d5fef94cd"},"vehicle_type_id":"4","last_reported":1767258957,"current_range_meters":7200,"station_id":"","pricing_plan_id":"cebpf4jnsgd1na2vs0mg"},{"bike_id":"9d0a72c1-4d35-4683-bce1-77ea14d9db1b","system_id":"levelo_inurba_marseille","lat":43.261961,"lon":5.3745,"is_reserved":false,"is_disabled":false,"rental_uris":{"android":"levelo://app?vid=9d0a72c1-4d35-4683-bce1-77ea14d9db1b","ios":"levelo://app?vid=9d0a72c1-4d35-4683-bce1-77ea14d9db1b"},"vehicle_type_id":"4","last_reported":1767258957,"current_range_meters":7200,"station_id":"ce4bhgp2rcd13ifvqfc0","pricing_plan_id":"cebpf4jnsgd1na2vs0mg"},{"bike_id":"bf8e880e-be02-4d98-9c69-66f508adf2de","system_id":"levelo_inurba_marseille","lat":43.24076,"lon":5.37766,"is_reserved":false,"is_disabled":false,"rental_uris":{"android":"levelo://app?vid=bf8e880e-be02-4d98-9c69-66f508adf2de","ios":"levelo://app?vid=bf8e880e-be02-4d98-9c69-66f508adf2de"},"vehicle_type_id":"4","last_reported":1767258957,"current_range_meters":7200,"station_id":"ce4bhnp2rcd13ifvqgvg","pricing_plan_id":"cebpf4jnsgd1na2vs0mg"},{"bike_id":"94f95b46-e6bf-4a80-a009-33ee47ec8d03","system_id":"levelo_inurba_marseille","lat":43.29621,"lon":5.37393,"is_reserved":false,"is_disabled":false,"rental_uris":{"android":"levelo://app?vid=94f95b46-e6bf-4a80-a009-33ee47ec8d03","ios":"levelo://app?vid=94f95b46-e6bf-4a80-a009-33ee47ec8d03"},"vehicle_type_id":"4","last_reported":1767258957,"current_range_meters":7200,"station_id":"","pricing_plan_id":"cebpf4jnsgd1na2vs0mg"},{"bike_id":"0b1c31df-6053-46ae-a996-bd44648b6dc1","system_id":"levelo_inurba_marseille","lat":43.29183,"lon":5.39342,"is_reserved":false,"is_disabled":false,"rental_uris":{"android":"levelo://app?vid=0b1c31df-6053-46ae-a996-bd44648b6dc1","ios":"levelo://app?vid=0b1c31df-6053-46ae-a996-bd44648b6dc1"},"vehicle_type_id":"4","last_reported":1767258957,"current_range_meters":7200,"station_id":"ce4bh192rcd13ifvqdd0","pricing_plan_id":"cebpf4jnsgd1na2vs0mg"},{"bike_id":"ff089684-644a-4efd-9de0-323086117121","system_id":"levelo_inurba_marseille","lat":43.2319,"lon":5.3556,"is_reserved":false,"is_disabled":false,"rental_uris":{"android":"levelo://app?vid=ff089684-644a-4efd-9de0-323086117121","ios":"levelo://app?vid=ff089684-644a-4efd-9de0-323086117121"},"vehicle_type_id":"4","last_reported":1767258957,"current_range_meters":7200,"station_id":"ce4bhu92rcd13ifvqi70","pricing_plan_id":"cebpf4jnsgd1na2vs0mg"},{"bike_id":"43464ac5-5123-4584-a572-085a071fa175","system_id":"levelo_inurba_marseille","lat":43.32368,"lon":5.40426,"is_reserved":false,"is_disabled":false,"rental_uris":{"android":"levelo://app?vid=43464ac5-5123-4584-a572-085a071fa175","ios":"levelo://app?vid=43464ac5-5123-4584-a572-085a071fa175"},"vehicle_type_id":"4","last_reported":1767258957,"current_range_meters":7200,"station_id":"","pricing_plan_id":"cebpf4jnsgd1na2vs0mg"},{"bike_id":"d02f7103-24e8-4af6-be13-70960746e5f1","system_id":"levelo_inurba_marseille","lat":43.2871,"lon":5.38692,"is_reserved":false,"is_disabled":false,"rental_uris":{"android":"levelo://app?vid=d02f7103-24e8-4af6-be13-70960746e5f1","ios":"levelo://app?vid=d02f7103-24e8-4af6-be13-70960746e5f1"},"vehicle_type_id":"4","last_reported":1767258957,"current_range_meters":8000,"station_id":"","pricing_plan_id":"cebpf4jnsgd1na2vs0mg"},{"bike_id":"4372a42a-b334-4e8f-9141-9b6d15dd3e03","system_id":"levelo_inurba_marseille","lat":43.28475,"lon":5.48385,"is_reserved":false,"is_disabled":false,"rental_uris":{"android":"levelo://app?vid=4372a42a-b334-4e8f-9141-9b6d15dd3e03","ios":"levelo://app?vid=4372a42a-b334-4e8f-9141-9b6d15dd3e03"},"vehicle_type_id":"4","last_reported":1767258957,"current_range_meters":8000,"station_id":"","pricing_plan_id":"cebpf4jnsgd1na2vs0mg"},{"bike_id":"e038a1b3-3d4f-47d4-b1ff-a265b74bb66e","system_id":"levelo_inurba_marseille","lat":43.30006,"lon":5.37125,"is_reserved":false,"is_disabled":false,"rental_uris":{"android":"levelo://app?vid=e038a1b3-3d4f-47d4-b1ff-a265b74bb66e","ios":"levelo://app?vid=e038a1b3-3d4f-47d4-b1ff-a265b74bb66e"},"vehicle_type_id":"4","last_reported":1767258957,"current_range_meters":8000,"station_id":"","pricing_plan_id":"cebpf4jnsgd1na2vs0mg"},{"bike_id":"65c69465-953d-4ec3-a94f-268bf0b6360d","system_id":"levelo_inurba_marseille","lat":43.29565,"lon":5.40011,"is_reserved":false,"is_disabled":false,"rental_uris":{"android":"levelo://app?vid=65c69465-953d-4ec3-a94f-268bf0b6360d","ios":"levelo://app?vid=65c69465-953d-4ec3-a94f-268bf0b6360d"},"vehicle_type_id":"4","last_reported":1767258957,"current_range_meters":8000,"station_id":"ce4bh312rcd13ifvqdj0","pricing_plan_id":"cebpf4jnsgd1na2vs0mg"},{"bike_id":"9e1c64d3-e7b9-49f4-8f17-a4e4b7f40d5a","system_id":"levelo_inurba_marseille","lat":43.24647,"lon":5.38893,"is_reserved":false,"is_disabled":false,"rental_uris":{"android":"levelo://app?vid=9e1c64d3-e7b9-49f4-8f17-a4e4b7f40d5a","ios":"levelo://app?vid=9e1c64d3-e7b9-49f4-8f17-a4e4b7f40d5a"},"vehicle_type_id":"4","last_reported":1767258957,"current_range_meters":8000,"station_id":"ce4bhg12rcd13ifvqf60","pricing_plan_id":"cebpf4jnsgd1na2vs0mg"},{"bike_id":"cf61d156-dac6-4f0e-b382-70446db78ff3","system_id":"levelo_inurba_marseille","lat":43.32346,"lon":5.36738,"is_reserved":false,"is_disabled":false,"rental_uris":{"android":"levelo://app?vid=cf61d156-dac6-4f0e-b382-70446db78ff3","ios":"levelo://app?vid=cf61d156-dac6-4f0e-b382-70446db78ff3"},"vehicle_type_id":"4","last_reported":1767258957,"current_range_meters":8000,"station_id":"ce4bhsh2rcd13ifvqi2g","pricing_plan_id":"cebpf4jnsgd1na2vs0mg"},{"bike_id":"d285cd77-c7b4-4ad4-ad28-ed6edfeaa990","system_id":"levelo_inurba_marseille","lat":43.29624,"lon":5.38055,"is_reserved":false,"is_disabled":true,"rental_uris":{"android":"levelo://app?vid=d285cd77-c7b4-4ad4-ad28-ed6edfeaa990","ios":"levelo://app?vid=d285cd77-c7b4-4ad4-ad28-ed6edfeaa990"},"vehicle_type_id":"4","last_reported":1767258957,"current_range_meters":8000,"station_id":"","pricing_plan_id":"cebpf4jnsgd1na2vs0mg"},{"bike_id":"2606ffd7-bb7a-4e35-a2a4-19020ea3ecef","system_id":"levelo_inurba_marseille","lat":43.27616,"lon":5.384191,"is_reserved":false,"is_disabled":false,"rental_uris":{"android":"levelo://app?vid=2606ffd7-bb7a-4e35-a2a4-19020ea3ecef","ios":"levelo://app?vid=2606ffd7-bb7a-4e35-a2a4-19020ea3ecef"},"vehicle_type_id":"4","last_reported":1767258957,"current_range_meters":8000,"station_id":"ce4bhh92rcd13ifvqfi0","pricing_plan_id":"cebpf4jnsgd1na2vs0mg"},{"bike_id":"1e979309-d823-4aaf-b851-f1be8461cefe","system_id":"levelo_inurba_marseille","lat":43.28509,"lon":5.48449,"is_reserved":false,"is_disabled":false,"rental_uris":{"android":"levelo://app?vid=1e979309-d823-4aaf-b851-f1be8461cefe","ios":"levelo://app?vid=1e979309-d823-4aaf-b851-f1be8461cefe"},"vehicle_type_id":"4","last_reported":1767258957,"current_range_meters":8000,"station_id":"st_d3svhcjqgbts73a3dn0g","pricing_plan_id":"cebpf4jnsgd1na2vs0mg"},{"bike_id":"235ede5b-13a5-48af-948f-1dc7282bb6bd","system_id":"levelo_inurba_marseille","lat":43.28609,"lon":5.39868,"is_reserved":false,"is_disabled":false,"rental_uris":{"android":"levelo://app?vid=235ede5b-13a5-48af-948f-1dc7282bb6bd","ios":"levelo://app?vid=235ede5b-13a5-48af-948f-1dc7282bb6bd"},"vehicle_type_id":"4","last_reported":1767258957,"current_range_meters":8000,"station_id":"st_d4a7ka997mjs738ck50g","pricing_plan_id":"cebpf4jnsgd1na2vs0mg"},{"bike_id":"56cedb5f-d017-4472-b5e7-d37bea82a31a","system_id":"levelo_inurba_marseille","lat":43.3249,"lon":5.38302,"is_reserved":false,"is_disabled":false,"rental_uris":{"android":"levelo://app?vid=56cedb5f-d017-4472-b5e7-d37bea82a31a","ios":"levelo://app?vid=56cedb5f-d017-4472-b5e7-d37bea82a31a"},"vehicle_type_id":"4","last_reported":1767258957,"current_range_meters":8000,"station_id":"st_d4asgbiv49dc73anf9m0","pricing_plan_id":"cebpf4jnsgd1na2vs0mg"},{"bike_id":"49a01a11-8673-492e-9b5e-b92964e4e9ba","system_id":"levelo_inurba_marseille","lat":43.28165,"lon":5.42659,"is_reserved":false,"is_disabled":false,"rental_uris":{"android":"levelo://app?vid=49a01a11-8673-492e-9b5e-b92964e4e9ba","ios":"levelo://app?vid=49a01a11-8673-492e-9b5e-b92964e4e9ba"},"vehicle_type_id":"4","last_reported":1767258957,"current_range_meters":8000,"station_id":"ce4bhnh2rcd13ifvqgug","pricing_plan_id":"cebpf4jnsgd1na2vs0mg"},{"bike_id":"47e20a65-0c00-4f6a-b64f-dc75ac7a6d5c","system_id":"levelo_inurba_marseille","lat":43.26686,"lon":5.38269,"is_reserved":false,"is_disabled":false,"rental_uris":{"android":"levelo://app?vid=47e20a65-0c00-4f6a-b64f-dc75ac7a6d5c","ios":"levelo://app?vid=47e20a65-0c00-4f6a-b64f-dc75ac7a6d5c"},"vehicle_type_id":"4","last_reported":1767258957,"current_range_meters":8000,"station_id":"ce4bhg92rcd13ifvqf90","pricing_plan_id":"cebpf4jnsgd1na2vs0mg"},{"bike_id":"256f99e5-21f2-4c5b-b369-7ba8831f0d26","system_id":"levelo_inurba_marseille","lat":43.29561,"lon":5.40012,"is_reserved":false,"is_disabled":false,"rental_uris":{"android":"levelo://app?vid=256f99e5-21f2-4c5b-b369-7ba8831f0d26","ios":"levelo://app?vid=256f99e5-21f2-4c5b-b369-7ba8831f0d26"},"vehicle_type_id":"4","last_reported":1767258957,"current_range_meters":8000,"station_id":"ce4bh312rcd13ifvqdj0","pricing_plan_id":"cebpf4jnsgd1na2vs0mg"},{"bike_id":"ae16ff2f-039d-4cdf-a936-aa3dd9f21d44","system_id":"levelo_inurba_marseille","lat":43.27055,"lon":5.38302,"is_reserved":false,"is_disabled":false,"rental_uris":{"android":"levelo://app?vid=ae16ff2f-039d-4cdf-a936-aa3dd9f21d44","ios":"levelo://app?vid=ae16ff2f-039d-4cdf-a936-aa3dd9f21d44"},"vehicle_type_id":"4","last_reported":1767258957,"current_range_meters":8400,"station_id":"st_d3n2fo6cfp8s73cte1j0","pricing_plan_id":"cebpf4jnsgd1na2vs0mg"},{"bike_id":"3282aea1-9bed-44e6-a833-eea50b551ac8","system_id":"levelo_inurba_marseille","lat":43.26938,"lon":5.38951,"is_reserved":false,"is_disabled":false,"rental_uris":{"android":"levelo://app?vid=3282aea1-9bed-44e6-a833-eea50b551ac8","ios":"levelo://app?vid=3282aea1-9bed-44e6-a833-eea50b551ac8"},"vehicle_type_id":"4","last_reported":1767258957,"current_range_meters":8400,"station_id":"ce4bhhh2rcd13ifvqfl0","pricing_plan_id":"cebpf4jnsgd1na2vs0mg"},{"bike_id":"d3d76b1a-8d9b-4657-a7da-86e4312b098f","system_id":"levelo_inurba_marseille","lat":43.27578,"lon":5.38419,"is_reserved":false,"is_disabled":false,"rental_uris":{"android":"levelo://app?vid=d3d76b1a-8d9b-4657-a7da-86e4312b098f","ios":"levelo://app?vid=d3d76b1a-8d9b-4657-a7da-86e4312b098f"},"vehicle_type_id":"4","last_reported":1767258957,"current_range_meters":8400,"station_id":"ce4bhh92rcd13ifvqfi0","pricing_plan_id":"cebpf4jnsgd1na2vs0mg"},{"bike_id":"1c622d05-f6f7-4055-8095-f444e0f3ddb6","system_id":"levelo_inurba_marseille","lat":43.28412,"lon":5.34981,"is_reserved":false,"is_disabled":false,"rental_uris":{"android":"levelo://app?vid=1c622d05-f6f7-4055-8095-f444e0f3ddb6","ios":"levelo://app?vid=1c622d05-f6f7-4055-8095-f444e0f3ddb6"},"vehicle_type_id":"4","last_reported":1767258957,"current_range_meters":8400,"station_id":"ce4bhbh2rcd13ifvqepg","pricing_plan_id":"cebpf4jnsgd1na2vs0mg"},{"bike_id":"416a51ee-5984-45dd-9f1c-f35b094e4920","system_id":"levelo_inurba_marseille","lat":43.31175,"lon":5.38715,"is_reserved":false,"is_disabled":false,"rental_uris":{"android":"levelo://app?vid=416a51ee-5984-45dd-9f1c-f35b094e4920","ios":"levelo://app?vid=416a51ee-5984-45dd-9f1c-f35b094e4920"},"vehicle_type_id":"4","last_reported":1767258957,"current_range_meters":8400,"station_id":"ce4bgv12rcd13ifvqcp0","pricing_plan_id":"cebpf4jnsgd1na2vs0mg"},{"bike_id":"a02fb672-5bdf-46c8-9fc1-e8fcbc8dc4d2","system_id":"levelo_inurba_marseille","lat":43.30297,"lon":5.38657,"is_reserved":false,"is_disabled":false,"rental_uris":{"android":"levelo://app?vid=a02fb672-5bdf-46c8-9fc1-e8fcbc8dc4d2","ios":"levelo://app?vid=a02fb672-5bdf-46c8-9fc1-e8fcbc8dc4d2"},"vehicle_type_id":"4","last_reported":1767258957,"current_range_meters":8400,"station_id":"","pricing_plan_id":"cebpf4jnsgd1na2vs0mg"},{"bike_id":"bb76a84a-e98e-48d3-9c1a-cb33c8071e80","system_id":"levelo_inurba_marseille","lat":43.31332,"lon":5.39715,"is_reserved":false,"is_disabled":false,"rental_uris":{"android":"levelo://app?vid=bb76a84a-e98e-48d3-9c1a-cb33c8071e80","ios":"levelo://app?vid=bb76a84a-e98e-48d3-9c1a-cb33c8071e80"},"vehicle_type_id":"4","last_reported":1767258957,"current_range_meters":8400,"station_id":"ce4bgvp2rcd13ifvqcu0","pricing_plan_id":"cebpf4jnsgd1na2vs0mg"},{"bike_id":"af9b681d-098f-4c7c-92f2-24a71239face","system_id":"levelo_inurba_marseille","lat":43.29705,"lon":5.36618,"is_reserved":false,"is_disabled":false,"rental_uris":{"android":"levelo://app?vid=af9b681d-098f-4c7c-92f2-24a71239face","ios":"levelo://app?vid=af9b681d-098f-4c7c-92f2-24a71239face"},"vehicle_type_id":"4","last_reported":1767258957,"current_range_meters":8400,"station_id":"ce4bgn12rcd13ifvqbt0","pricing_plan_id":"cebpf4jnsgd1na2vs0mg"},{"bike_id":"9b31c737-9919-4753-902d-88d0177986b8","system_id":"levelo_inurba_marseille","lat":43.28867,"lon":5.42515,"is_reserved":false,"is_disabled":false,"rental_uris":{"android":"levelo://app?vid=9b31c737-9919-4753-902d-88d0177986b8","ios":"levelo://app?vid=9b31c737-9919-4753-902d-88d0177986b8"},"vehicle_type_id":"4","last_reported":1767258957,"current_range_meters":8400,"station_id":"st_d3b462108ojc7389ooeg","pricing_plan_id":"cebpf4jnsgd1na2vs0mg"},{"bike_id":"1a670a54-1840-4940-b62b-05b0e394ae95","system_id":"levelo_inurba_marseille","lat":43.28409,"lon":5.34978,"is_reserved":false,"is_disabled":false,"rental_uris":{"android":"levelo://app?vid=1a670a54-1840-4940-b62b-05b0e394ae95","ios":"levelo://app?vid=1a670a54-1840-4940-b62b-05b0e394ae95"},"vehicle_type_id":"4","last_reported":1767258957,"current_range_meters":8400,"station_id":"ce4bhbh2rcd13ifvqepg","pricing_plan_id":"cebpf4jnsgd1na2vs0mg"},{"bike_id":"d89c4ab8-b836-426b-99a2-352e690cd836","system_id":"levelo_inurba_marseille","lat":43.30792,"lon":5.38149,"is_reserved":false,"is_disabled":false,"rental_uris":{"android":"levelo://app?vid=d89c4ab8-b836-426b-99a2-352e690cd836","ios":"levelo://app?vid=d89c4ab8-b836-426b-99a2-352e690cd836"},"vehicle_type_id":"4","last_reported":1767258957,"current_range_meters":8400,"station_id":"ce4bgt12rcd13ifvqce0","pricing_plan_id":"cebpf4jnsgd1na2vs0mg"},{"bike_id":"d49fd2c9-dca5-4864-87e0-359520dd27b8","system_id":"levelo_inurba_marseille","lat":43.26139,"lon":5.39773,"is_reserved":false,"is_disabled":false,"rental_uris":{"android":"levelo://app?vid=d49fd2c9-dca5-4864-87e0-359520dd27b8","ios":"levelo://app?vid=d49fd2c9-dca5-4864-87e0-359520dd27b8"},"vehicle_type_id":"4","last_reported":1767258957,"current_range_meters":8400,"station_id":"","pricing_plan_id":"cebpf4jnsgd1na2vs0mg"},{"bike_id":"f297e1d0-d6d1-470d-832a-7cfd1d704b5f","system_id":"levelo_inurba_marseille","lat":43.26937,"lon":5.39293,"is_reserved":false,"is_disabled":false,"rental_uris":{"android":"levelo://app?vid=f297e1d0-d6d1-470d-832a-7cfd1d704b5f","ios":"levelo://app?vid=f297e1d0-d6d1-470d-832a-7cfd1d704b5f"},"vehicle_type_id":"4","last_reported":1767258957,"current_range_meters":8400,"station_id":"","pricing_plan_id":"cebpf4jnsgd1na2vs0mg"},{"bike_id":"7df75586-262d-4ec2-8f98-c0691702c6c8","system_id":"levelo_inurba_marseille","lat":43.28173,"lon":5.42663,"is_reserved":false,"is_disabled":false,"rental_uris":{"android":"levelo://app?vid=7df75586-262d-4ec2-8f98-c0691702c6c8","ios":"levelo://app?vid=7df75586-262d-4ec2-8f98-c0691702c6c8"},"vehicle_type_id":"4","last_reported":1767258957,"current_range_meters":8400,"station_id":"ce4bhnh2rcd13ifvqgug","pricing_plan_id":"cebpf4jnsgd1na2vs0mg"},{"bike_id":"ca2a4141-2d11-4724-ae9a-5df9c6e34715","system_id":"levelo_inurba_marseille","lat":43.24644,"lon":5.38924,"is_reserved":false,"is_disabled":false,"rental_uris":{"android":"levelo://app?vid=ca2a4141-2d11-4724-ae9a-5df9c6e34715","ios":"levelo://app?vid=ca2a4141-2d11-4724-ae9a-5df9c6e34715"},"vehicle_type_id":"4","last_reported":1767258957,"current_range_meters":8400,"station_id":"ce4bhg12rcd13ifvqf60","pricing_plan_id":"cebpf4jnsgd1na2vs0mg"},{"bike_id":"f9e9fd89-b7c6-4e84-90bb-2a2dc045365a","system_id":"levelo_inurba_marseille","lat":43.25924,"lon":5.40885,"is_reserved":false,"is_disabled":false,"rental_uris":{"android":"levelo://app?vid=f9e9fd89-b7c6-4e84-90bb-2a2dc045365a","ios":"levelo://app?vid=f9e9fd89-b7c6-4e84-90bb-2a2dc045365a"},"vehicle_type_id":"4","last_reported":1767258957,"current_range_meters":8400,"station_id":"ce4bhm92rcd13ifvqglg","pricing_plan_id":"cebpf4jnsgd1na2vs0mg"},{"bike_id":"e091a64d-3bea-4eb4-be23-0d33eb28eebf","system_id":"levelo_inurba_marseille","lat":43.26934,"lon":5.40253,"is_reserved":false,"is_disabled":false,"rental_uris":{"android":"levelo://app?vid=e091a64d-3bea-4eb4-be23-0d33eb28eebf","ios":"levelo://app?vid=e091a64d-3bea-4eb4-be23-0d33eb28eebf"},"vehicle_type_id":"4","last_reported":1767258957,"current_range_meters":8800,"station_id":"cjm6bp8fraef2m0cb0m0","pricing_plan_id":"cebpf4jnsgd1na2vs0mg"},{"bike_id":"dc1d1fd3-287c-4df2-89a3-973e9127dcfe","system_id":"levelo_inurba_marseille","lat":43.246,"lon":5.43171,"is_reserved":false,"is_disabled":false,"rental_uris":{"android":"levelo://app?vid=dc1d1fd3-287c-4df2-89a3-973e9127dcfe","ios":"levelo://app?vid=dc1d1fd3-287c-4df2-89a3-973e9127dcfe"},"vehicle_type_id":"4","last_reported":1767258957,"current_range_meters":8800,"station_id":"st_d2m6c4gdas8pm72e190g","pricing_plan_id":"cebpf4jnsgd1na2vs0mg"},{"bike_id":"8a9cb631-63e9-428f-b283-78ab220c7b5c","system_id":"levelo_inurba_marseille","lat":43.30313,"lon":5.40457,"is_reserved":false,"is_disabled":false,"rental_uris":{"android":"levelo://app?vid=8a9cb631-63e9-428f-b283-78ab220c7b5c","ios":"levelo://app?vid=8a9cb631-63e9-428f-b283-78ab220c7b5c"},"vehicle_type_id":"4","last_reported":1767258957,"current_range_meters":8800,"station_id":"ce4bh012rcd13ifvqd10","pricing_plan_id":"cebpf4jnsgd1na2vs0mg"},{"bike_id":"b5f80a1c-7345-44ae-9c2d-843287ace1f8","system_id":"levelo_inurba_marseille","lat":43.27436,"lon":5.42405,"is_reserved":false,"is_disabled":false,"rental_uris":{"android":"levelo://app?vid=b5f80a1c-7345-44ae-9c2d-843287ace1f8","ios":"levelo://app?vid=b5f80a1c-7345-44ae-9c2d-843287ace1f8"},"vehicle_type_id":"4","last_reported":1767258957,"current_range_meters":8800,"station_id":"","pricing_plan_id":"cebpf4jnsgd1na2vs0mg"},{"bike_id":"25f3b82f-06ca-4f8f-a005-18bf90572843","system_id":"levelo_inurba_marseille","lat":43.301761,"lon":5.366116,"is_reserved":false,"is_disabled":false,"rental_uris":{"android":"levelo://app?vid=25f3b82f-06ca-4f8f-a005-18bf90572843","ios":"levelo://app?vid=25f3b82f-06ca-4f8f-a005-18bf90572843"},"vehicle_type_id":"4","last_reported":1767258957,"current_range_meters":8800,"station_id":"ce4bgrh2rcd13ifvqc8g","pricing_plan_id":"cebpf4jnsgd1na2vs0mg"},{"bike_id":"2d4772b7-d16b-4cb4-a135-dc76b6fe23e3","system_id":"levelo_inurba_marseille","lat":43.27994,"lon":5.399993,"is_reserved":false,"is_disabled":false,"rental_uris":{"android":"levelo://app?vid=2d4772b7-d16b-4cb4-a135-dc76b6fe23e3","ios":"levelo://app?vid=2d4772b7-d16b-4cb4-a135-dc76b6fe23e3"},"vehicle_type_id":"4","last_reported":1767258957,"current_range_meters":8800,"station_id":"ce4bho92rcd13ifvqh4g","pricing_plan_id":"cebpf4jnsgd1na2vs0mg"},{"bike_id":"9e5dafc7-f2da-4d0b-b668-e32cc043ceb4","system_id":"levelo_inurba_marseille","lat":43.28047,"lon":5.40073,"is_reserved":false,"is_disabled":false,"rental_uris":{"android":"levelo://app?vid=9e5dafc7-f2da-4d0b-b668-e32cc043ceb4","ios":"levelo://app?vid=9e5dafc7-f2da-4d0b-b668-e32cc043ceb4"},"vehicle_type_id":"4","last_reported":1767258957,"current_range_meters":8800,"station_id":"","pricing_plan_id":"cebpf4jnsgd1na2vs0mg"},{"bike_id":"16df36bd-9c16-49b7-92f8-d34d0f53a1d7","system_id":"levelo_inurba_marseille","lat":43.29012,"lon":5.38658,"is_reserved":false,"is_disabled":false,"rental_uris":{"android":"levelo://app?vid=16df36bd-9c16-49b7-92f8-d34d0f53a1d7","ios":"levelo://app?vid=16df36bd-9c16-49b7-92f8-d34d0f53a1d7"},"vehicle_type_id":"4","last_reported":1767258957,"current_range_meters":8800,"station_id":"ce4bh4p2rcd13ifvqe0g","pricing_plan_id":"cebpf4jnsgd1na2vs0mg"},{"bike_id":"a4a22561-68ad-4f27-a4a3-49a3966a6a72","system_id":"levelo_inurba_marseille","lat":43.28927,"lon":5.36636,"is_reserved":false,"is_disabled":false,"rental_uris":{"android":"levelo://app?vid=a4a22561-68ad-4f27-a4a3-49a3966a6a72","ios":"levelo://app?vid=a4a22561-68ad-4f27-a4a3-49a3966a6a72"},"vehicle_type_id":"4","last_reported":1767258957,"current_range_meters":8800,"station_id":"ce4bhap2rcd13ifvqek0","pricing_plan_id":"cebpf4jnsgd1na2vs0mg"},{"bike_id":"6ecf1b80-ca59-4b5e-a8b2-1d2fef34a0e5","system_id":"levelo_inurba_marseille","lat":43.28723,"lon":5.37928,"is_reserved":false,"is_disabled":false,"rental_uris":{"android":"levelo://app?vid=6ecf1b80-ca59-4b5e-a8b2-1d2fef34a0e5","ios":"levelo://app?vid=6ecf1b80-ca59-4b5e-a8b2-1d2fef34a0e5"},"vehicle_type_id":"4","last_reported":1767258957,"current_range_meters":8800,"station_id":"ce4bh9p2rcd13ifvqec0","pricing_plan_id":"cebpf4jnsgd1na2vs0mg"},{"bike_id":"2d40d43d-01fa-4e4a-a6cd-26884553db53","system_id":"levelo_inurba_marseille","lat":43.30317,"lon":5.4043,"is_reserved":false,"is_disabled":false,"rental_uris":{"android":"levelo://app?vid=2d40d43d-01fa-4e4a-a6cd-26884553db53","ios":"levelo://app?vid=2d40d43d-01fa-4e4a-a6cd-26884553db53"},"vehicle_type_id":"4","last_reported":1767258957,"current_range_meters":8800,"station_id":"ce4bh012rcd13ifvqd10","pricing_plan_id":"cebpf4jnsgd1na2vs0mg"},{"bike_id":"f489c472-ee6d-42dd-8be8-3a531cfd3f02","system_id":"levelo_inurba_marseille","lat":43.2877,"lon":5.45483,"is_reserved":false,"is_disabled":false,"rental_uris":{"android":"levelo://app?vid=f489c472-ee6d-42dd-8be8-3a531cfd3f02","ios":"levelo://app?vid=f489c472-ee6d-42dd-8be8-3a531cfd3f02"},"vehicle_type_id":"4","last_reported":1767258957,"current_range_meters":8800,"station_id":"","pricing_plan_id":"cebpf4jnsgd1na2vs0mg"},{"bike_id":"ac21faa3-20b0-4072-8817-266ef2535440","system_id":"levelo_inurba_marseille","lat":43.25863,"lon":5.398925,"is_reserved":false,"is_disabled":false,"rental_uris":{"android":"levelo://app?vid=ac21faa3-20b0-4072-8817-266ef2535440","ios":"levelo://app?vid=ac21faa3-20b0-4072-8817-266ef2535440"},"vehicle_type_id":"4","last_reported":1767258957,"current_range_meters":8800,"station_id":"ce4bhl92rcd13ifvqghg","pricing_plan_id":"cebpf4jnsgd1na2vs0mg"},{"bike_id":"96e942f9-9b3a-4077-93de-b3d1b42e96be","system_id":"levelo_inurba_marseille","lat":43.285713,"lon":5.394947,"is_reserved":false,"is_disabled":false,"rental_uris":{"android":"levelo://app?vid=96e942f9-9b3a-4077-93de-b3d1b42e96be","ios":"levelo://app?vid=96e942f9-9b3a-4077-93de-b3d1b42e96be"},"vehicle_type_id":"4","last_reported":1767258957,"current_range_meters":9200,"station_id":"ce4bh292rcd13ifvqdg0","pricing_plan_id":"cebpf4jnsgd1na2vs0mg"},{"bike_id":"4b612c97-f84b-459a-bc6d-0cd90c252bf8","system_id":"levelo_inurba_marseille","lat":43.26517,"lon":5.37956,"is_reserved":false,"is_disabled":false,"rental_uris":{"android":"levelo://app?vid=4b612c97-f84b-459a-bc6d-0cd90c252bf8","ios":"levelo://app?vid=4b612c97-f84b-459a-bc6d-0cd90c252bf8"},"vehicle_type_id":"4","last_reported":1767258957,"current_range_meters":9200,"station_id":"","pricing_plan_id":"cebpf4jnsgd1na2vs0mg"},{"bike_id":"8ed4747c-ffc4-4952-a58f-ccece03fc778","system_id":"levelo_inurba_marseille","lat":43.271804,"lon":5.409946,"is_reserved":false,"is_disabled":false,"rental_uris":{"android":"levelo://app?vid=8ed4747c-ffc4-4952-a58f-ccece03fc778","ios":"levelo://app?vid=8ed4747c-ffc4-4952-a58f-ccece03fc778"},"vehicle_type_id":"4","last_reported":1767258957,"current_range_meters":9200,"station_id":"ce4bhl12rcd13ifvqgf0","pricing_plan_id":"cebpf4jnsgd1na2vs0mg"},{"bike_id":"6e8619ec-a3bf-4d04-895c-caf3015d08fa","system_id":"levelo_inurba_marseille","lat":43.29204,"lon":5.35809,"is_reserved":false,"is_disabled":false,"rental_uris":{"android":"levelo://app?vid=6e8619ec-a3bf-4d04-895c-caf3015d08fa","ios":"levelo://app?vid=6e8619ec-a3bf-4d04-895c-caf3015d08fa"},"vehicle_type_id":"4","last_reported":1767258957,"current_range_meters":9200,"station_id":"ce4bhb12rcd13ifvqel0","pricing_plan_id":"cebpf4jnsgd1na2vs0mg"},{"bike_id":"65586352-19ee-4979-8cba-b52cca760c9d","system_id":"levelo_inurba_marseille","lat":43.2922,"lon":5.38777,"is_reserved":false,"is_disabled":false,"rental_uris":{"android":"levelo://app?vid=65586352-19ee-4979-8cba-b52cca760c9d","ios":"levelo://app?vid=65586352-19ee-4979-8cba-b52cca760c9d"},"vehicle_type_id":"4","last_reported":1767258957,"current_range_meters":9200,"station_id":"","pricing_plan_id":"cebpf4jnsgd1na2vs0mg"},{"bike_id":"a69cb1fc-94b6-4dd1-b11a-579c286140e3","system_id":"levelo_inurba_marseille","lat":43.2921,"lon":5.393268,"is_reserved":false,"is_disabled":false,"rental_uris":{"android":"levelo://app?vid=a69cb1fc-94b6-4dd1-b11a-579c286140e3","ios":"levelo://app?vid=a69cb1fc-94b6-4dd1-b11a-579c286140e3"},"vehicle_type_id":"4","last_reported":1767258957,"current_range_meters":9200,"station_id":"","pricing_plan_id":"cebpf4jnsgd1na2vs0mg"},{"bike_id":"89da9f1f-320c-40d1-85bc-bfe896dcaaea","system_id":"levelo_inurba_marseille","lat":43.324958,"lon":5.383064,"is_reserved":false,"is_disabled":false,"rental_uris":{"android":"levelo://app?vid=89da9f1f-320c-40d1-85bc-bfe896dcaaea","ios":"levelo://app?vid=89da9f1f-320c-40d1-85bc-bfe896dcaaea"},"vehicle_type_id":"4","last_reported":1767258957,"current_range_meters":9200,"station_id":"st_d4asgbiv49dc73anf9m0","pricing_plan_id":"cebpf4jnsgd1na2vs0mg"},{"bike_id":"1763bda5-9a2f-4323-b228-f44726653fd8","system_id":"levelo_inurba_marseille","lat":43.28409,"lon":5.34973,"is_reserved":false,"is_disabled":false,"rental_uris":{"android":"levelo://app?vid=1763bda5-9a2f-4323-b228-f44726653fd8","ios":"levelo://app?vid=1763bda5-9a2f-4323-b228-f44726653fd8"},"vehicle_type_id":"4","last_reported":1767258957,"current_range_meters":9200,"station_id":"ce4bhbh2rcd13ifvqepg","pricing_plan_id":"cebpf4jnsgd1na2vs0mg"},{"bike_id":"0d8b64dc-d3a4-4c37-80be-c48d945a81e3","system_id":"levelo_inurba_marseille","lat":43.284759,"lon":5.384363,"is_reserved":false,"is_disabled":true,"rental_uris":{"android":"levelo://app?vid=0d8b64dc-d3a4-4c37-80be-c48d945a81e3","ios":"levelo://app?vid=0d8b64dc-d3a4-4c37-80be-c48d945a81e3"},"vehicle_type_id":"4","last_reported":1767258957,"current_range_meters":9200,"station_id":"ce4bh512rcd13ifvqe3g","pricing_plan_id":"cebpf4jnsgd1na2vs0mg"},{"bike_id":"2a23ab26-ec07-45e8-be6c-b7129b94a9d1","system_id":"levelo_inurba_marseille","lat":43.28654,"lon":5.3636,"is_reserved":false,"is_disabled":false,"rental_uris":{"android":"levelo://app?vid=2a23ab26-ec07-45e8-be6c-b7129b94a9d1","ios":"levelo://app?vid=2a23ab26-ec07-45e8-be6c-b7129b94a9d1"},"vehicle_type_id":"4","last_reported":1767258957,"current_range_meters":9200,"station_id":"ce4bhah2rcd13ifvqej0","pricing_plan_id":"cebpf4jnsgd1na2vs0mg"},{"bike_id":"819953b1-b6e5-4e7b-93ab-771e36ff1d19","system_id":"levelo_inurba_marseille","lat":43.28037,"lon":5.36965,"is_reserved":false,"is_disabled":false,"rental_uris":{"android":"levelo://app?vid=819953b1-b6e5-4e7b-93ab-771e36ff1d19","ios":"levelo://app?vid=819953b1-b6e5-4e7b-93ab-771e36ff1d19"},"vehicle_type_id":"4","last_reported":1767258957,"current_range_meters":9200,"station_id":"ce4bha12rcd13ifvqef0","pricing_plan_id":"cebpf4jnsgd1na2vs0mg"},{"bike_id":"47502a4f-6643-4d86-adaf-d4a1bda6584d","system_id":"levelo_inurba_marseille","lat":43.30319,"lon":5.4044,"is_reserved":false,"is_disabled":false,"rental_uris":{"android":"levelo://app?vid=47502a4f-6643-4d86-adaf-d4a1bda6584d","ios":"levelo://app?vid=47502a4f-6643-4d86-adaf-d4a1bda6584d"},"vehicle_type_id":"4","last_reported":1767258957,"current_range_meters":9200,"station_id":"ce4bh012rcd13ifvqd10","pricing_plan_id":"cebpf4jnsgd1na2vs0mg"},{"bike_id":"59b9f952-f261-4669-9bf2-ec09f3352df3","system_id":"levelo_inurba_marseille","lat":43.27068,"lon":5.4233,"is_reserved":false,"is_disabled":false,"rental_uris":{"android":"levelo://app?vid=59b9f952-f261-4669-9bf2-ec09f3352df3","ios":"levelo://app?vid=59b9f952-f261-4669-9bf2-ec09f3352df3"},"vehicle_type_id":"4","last_reported":1767258957,"current_range_meters":9200,"station_id":"ce4bhk92rcd13ifvqgb0","pricing_plan_id":"cebpf4jnsgd1na2vs0mg"},{"bike_id":"f50376ee-187b-422c-bfb2-3bcff51c7529","system_id":"levelo_inurba_marseille","lat":43.29031,"lon":5.35635,"is_reserved":false,"is_disabled":false,"rental_uris":{"android":"levelo://app?vid=f50376ee-187b-422c-bfb2-3bcff51c7529","ios":"levelo://app?vid=f50376ee-187b-422c-bfb2-3bcff51c7529"},"vehicle_type_id":"4","last_reported":1767258957,"current_range_meters":9200,"station_id":"ce4bhb92rcd13ifvqen0","pricing_plan_id":"cebpf4jnsgd1na2vs0mg"},{"bike_id":"6bda29c0-298a-4931-b152-ee72aefab1c3","system_id":"levelo_inurba_marseille","lat":43.29849,"lon":5.37639,"is_reserved":false,"is_disabled":false,"rental_uris":{"android":"levelo://app?vid=6bda29c0-298a-4931-b152-ee72aefab1c3","ios":"levelo://app?vid=6bda29c0-298a-4931-b152-ee72aefab1c3"},"vehicle_type_id":"4","last_reported":1767258957,"current_range_meters":9200,"station_id":"","pricing_plan_id":"cebpf4jnsgd1na2vs0mg"},{"bike_id":"cf6a00e2-19c9-4b7e-83b3-96ba1f241707","system_id":"levelo_inurba_marseille","lat":43.28625,"lon":5.35077,"is_reserved":false,"is_disabled":false,"rental_uris":{"android":"levelo://app?vid=cf6a00e2-19c9-4b7e-83b3-96ba1f241707","ios":"levelo://app?vid=cf6a00e2-19c9-4b7e-83b3-96ba1f241707"},"vehicle_type_id":"4","last_reported":1767258957,"current_range_meters":9200,"station_id":"ce4bhch2rcd13ifvqeug","pricing_plan_id":"cebpf4jnsgd1na2vs0mg"},{"bike_id":"f7907c1c-af28-49fc-9bf1-6ea5c9b9576d","system_id":"levelo_inurba_marseille","lat":43.281533,"lon":5.426376,"is_reserved":false,"is_disabled":true,"rental_uris":{"android":"levelo://app?vid=f7907c1c-af28-49fc-9bf1-6ea5c9b9576d","ios":"levelo://app?vid=f7907c1c-af28-49fc-9bf1-6ea5c9b9576d"},"vehicle_type_id":"4","last_reported":1767258957,"current_range_meters":9600,"station_id":"ce4bhnh2rcd13ifvqgug","pricing_plan_id":"cebpf4jnsgd1na2vs0mg"},{"bike_id":"061bf87f-3ebd-4602-992d-adc6d4472a7e","system_id":"levelo_inurba_marseille","lat":43.23795,"lon":5.36627,"is_reserved":false,"is_disabled":false,"rental_uris":{"android":"levelo://app?vid=061bf87f-3ebd-4602-992d-adc6d4472a7e","ios":"levelo://app?vid=061bf87f-3ebd-4602-992d-adc6d4472a7e"},"vehicle_type_id":"4","last_reported":1767258957,"current_range_meters":9600,"station_id":"st_d3nk18o9ro0c73en2l3g","pricing_plan_id":"cebpf4jnsgd1na2vs0mg"},{"bike_id":"dc8e2adf-aff9-469b-85f8-551356393411","system_id":"levelo_inurba_marseille","lat":43.31518,"lon":5.38046,"is_reserved":false,"is_disabled":false,"rental_uris":{"android":"levelo://app?vid=dc8e2adf-aff9-469b-85f8-551356393411","ios":"levelo://app?vid=dc8e2adf-aff9-469b-85f8-551356393411"},"vehicle_type_id":"4","last_reported":1767258957,"current_range_meters":9600,"station_id":"ce4bhsp2rcd13ifvqi50","pricing_plan_id":"cebpf4jnsgd1na2vs0mg"},{"bike_id":"1c7f3fa4-8cc8-4d7f-bfa3-4deb054252b1","system_id":"levelo_inurba_marseille","lat":43.29245,"lon":5.40907,"is_reserved":false,"is_disabled":false,"rental_uris":{"android":"levelo://app?vid=1c7f3fa4-8cc8-4d7f-bfa3-4deb054252b1","ios":"levelo://app?vid=1c7f3fa4-8cc8-4d7f-bfa3-4deb054252b1"},"vehicle_type_id":"4","last_reported":1767258957,"current_range_meters":9600,"station_id":"ce4bh192rcd13ifvqdc0","pricing_plan_id":"cebpf4jnsgd1na2vs0mg"},{"bike_id":"f6c9c2e6-3051-4bbb-a763-1a3397a19876","system_id":"levelo_inurba_marseille","lat":43.30211,"lon":5.39462,"is_reserved":false,"is_disabled":false,"rental_uris":{"android":"levelo://app?vid=f6c9c2e6-3051-4bbb-a763-1a3397a19876","ios":"levelo://app?vid=f6c9c2e6-3051-4bbb-a763-1a3397a19876"},"vehicle_type_id":"4","last_reported":1767258957,"current_range_meters":9600,"station_id":"ce4bh0p2rcd13ifvqd70","pricing_plan_id":"cebpf4jnsgd1na2vs0mg"},{"bike_id":"a37546a5-5ed0-437a-8b08-467eedf47722","system_id":"levelo_inurba_marseille","lat":43.24549,"lon":5.39515,"is_reserved":false,"is_disabled":false,"rental_uris":{"android":"levelo://app?vid=a37546a5-5ed0-437a-8b08-467eedf47722","ios":"levelo://app?vid=a37546a5-5ed0-437a-8b08-467eedf47722"},"vehicle_type_id":"4","last_reported":1767258957,"current_range_meters":9600,"station_id":"ce4bhlp2rcd13ifvqgjg","pricing_plan_id":"cebpf4jnsgd1na2vs0mg"},{"bike_id":"d4c6dc95-f402-4619-8161-a90cb01a834e","system_id":"levelo_inurba_marseille","lat":43.2891,"lon":5.42478,"is_reserved":false,"is_disabled":false,"rental_uris":{"android":"levelo://app?vid=d4c6dc95-f402-4619-8161-a90cb01a834e","ios":"levelo://app?vid=d4c6dc95-f402-4619-8161-a90cb01a834e"},"vehicle_type_id":"4","last_reported":1767258957,"current_range_meters":9600,"station_id":"","pricing_plan_id":"cebpf4jnsgd1na2vs0mg"},{"bike_id":"5453f188-2635-490f-b8b5-4489446de567","system_id":"levelo_inurba_marseille","lat":43.30329,"lon":5.40442,"is_reserved":false,"is_disabled":false,"rental_uris":{"android":"levelo://app?vid=5453f188-2635-490f-b8b5-4489446de567","ios":"levelo://app?vid=5453f188-2635-490f-b8b5-4489446de567"},"vehicle_type_id":"4","last_reported":1767258957,"current_range_meters":9600,"station_id":"ce4bh012rcd13ifvqd10","pricing_plan_id":"cebpf4jnsgd1na2vs0mg"},{"bike_id":"7f8bc2f4-3256-4176-a803-fa7e148de4c6","system_id":"levelo_inurba_marseille","lat":43.2436,"lon":5.40891,"is_reserved":false,"is_disabled":false,"rental_uris":{"android":"levelo://app?vid=7f8bc2f4-3256-4176-a803-fa7e148de4c6","ios":"levelo://app?vid=7f8bc2f4-3256-4176-a803-fa7e148de4c6"},"vehicle_type_id":"4","last_reported":1767258957,"current_range_meters":9600,"station_id":"","pricing_plan_id":"cebpf4jnsgd1na2vs0mg"},{"bike_id":"ea5031e4-b749-4d48-ba29-71e8d8d5383b","system_id":"levelo_inurba_marseille","lat":43.26402,"lon":5.37394,"is_reserved":false,"is_disabled":false,"rental_uris":{"android":"levelo://app?vid=ea5031e4-b749-4d48-ba29-71e8d8d5383b","ios":"levelo://app?vid=ea5031e4-b749-4d48-ba29-71e8d8d5383b"},"vehicle_type_id":"4","last_reported":1767258957,"current_range_meters":9600,"station_id":"","pricing_plan_id":"cebpf4jnsgd1na2vs0mg"},{"bike_id":"bd557ac5-e051-4971-9dce-15a248d16139","system_id":"levelo_inurba_marseille","lat":43.31101,"lon":5.40334,"is_reserved":false,"is_disabled":false,"rental_uris":{"android":"levelo://app?vid=bd557ac5-e051-4971-9dce-15a248d16139","ios":"levelo://app?vid=bd557ac5-e051-4971-9dce-15a248d16139"},"vehicle_type_id":"4","last_reported":1767258957,"current_range_meters":10000,"station_id":"","pricing_plan_id":"cebpf4jnsgd1na2vs0mg"},{"bike_id":"f1108872-5fa5-476f-80f4-3a1cd6f15393","system_id":"levelo_inurba_marseille","lat":43.2928,"lon":5.40123,"is_reserved":false,"is_disabled":false,"rental_uris":{"android":"levelo://app?vid=f1108872-5fa5-476f-80f4-3a1cd6f15393","ios":"levelo://app?vid=f1108872-5fa5-476f-80f4-3a1cd6f15393"},"vehicle_type_id":"4","last_reported":1767258957,"current_range_meters":10000,"station_id":"ce4bh312rcd13ifvqdk0","pricing_plan_id":"cebpf4jnsgd1na2vs0mg"},{"bike_id":"27f62b3e-34a5-44c0-b8d2-5a7048902926","system_id":"levelo_inurba_marseille","lat":43.295401,"lon":5.381565,"is_reserved":false,"is_disabled":false,"rental_uris":{"android":"levelo://app?vid=27f62b3e-34a5-44c0-b8d2-5a7048902926","ios":"levelo://app?vid=27f62b3e-34a5-44c0-b8d2-5a7048902926"},"vehicle_type_id":"4","last_reported":1767258957,"current_range_meters":10000,"station_id":"","pricing_plan_id":"cebpf4jnsgd1na2vs0mg"},{"bike_id":"67057471-b7f6-4964-9f3d-d28fd0a7dcdb","system_id":"levelo_inurba_marseille","lat":43.31895,"lon":5.40759,"is_reserved":false,"is_disabled":true,"rental_uris":{"android":"levelo://app?vid=67057471-b7f6-4964-9f3d-d28fd0a7dcdb","ios":"levelo://app?vid=67057471-b7f6-4964-9f3d-d28fd0a7dcdb"},"vehicle_type_id":"4","last_reported":1767258957,"current_range_meters":10000,"station_id":"ce4bhq12rcd13ifvqhig","pricing_plan_id":"cebpf4jnsgd1na2vs0mg"},{"bike_id":"6d37f2f0-e524-4212-a95e-23a8a6080240","system_id":"levelo_inurba_marseille","lat":43.28473,"lon":5.38418,"is_reserved":false,"is_disabled":false,"rental_uris":{"android":"levelo://app?vid=6d37f2f0-e524-4212-a95e-23a8a6080240","ios":"levelo://app?vid=6d37f2f0-e524-4212-a95e-23a8a6080240"},"vehicle_type_id":"4","last_reported":1767258957,"current_range_meters":10000,"station_id":"ce4bh512rcd13ifvqe3g","pricing_plan_id":"cebpf4jnsgd1na2vs0mg"},{"bike_id":"c1c1bbd9-7f85-4a35-831d-72795b1b0948","system_id":"levelo_inurba_marseille","lat":43.323622,"lon":5.36736,"is_reserved":false,"is_disabled":false,"rental_uris":{"android":"levelo://app?vid=c1c1bbd9-7f85-4a35-831d-72795b1b0948","ios":"levelo://app?vid=c1c1bbd9-7f85-4a35-831d-72795b1b0948"},"vehicle_type_id":"4","last_reported":1767258957,"current_range_meters":10000,"station_id":"ce4bhsh2rcd13ifvqi2g","pricing_plan_id":"cebpf4jnsgd1na2vs0mg"},{"bike_id":"7aa8deaf-4e60-441f-b4fa-11775b88c73b","system_id":"levelo_inurba_marseille","lat":43.29598,"lon":5.40299,"is_reserved":false,"is_disabled":true,"rental_uris":{"android":"levelo://app?vid=7aa8deaf-4e60-441f-b4fa-11775b88c73b","ios":"levelo://app?vid=7aa8deaf-4e60-441f-b4fa-11775b88c73b"},"vehicle_type_id":"4","last_reported":1767258957,"current_range_meters":10000,"station_id":"","pricing_plan_id":"cebpf4jnsgd1na2vs0mg"},{"bike_id":"71feabac-18bb-4c38-9f1c-553d18ed10d6","system_id":"levelo_inurba_marseille","lat":43.29603,"lon":5.37178,"is_reserved":false,"is_disabled":false,"rental_uris":{"android":"levelo://app?vid=71feabac-18bb-4c38-9f1c-553d18ed10d6","ios":"levelo://app?vid=71feabac-18bb-4c38-9f1c-553d18ed10d6"},"vehicle_type_id":"4","last_reported":1767258957,"current_range_meters":10000,"station_id":"ce4bgnh2rcd13ifvqc0g","pricing_plan_id":"cebpf4jnsgd1na2vs0mg"},{"bike_id":"475de299-2917-42da-9347-8b67ff473f85","system_id":"levelo_inurba_marseille","lat":43.30125,"lon":5.43117,"is_reserved":false,"is_disabled":false,"rental_uris":{"android":"levelo://app?vid=475de299-2917-42da-9347-8b67ff473f85","ios":"levelo://app?vid=475de299-2917-42da-9347-8b67ff473f85"},"vehicle_type_id":"4","last_reported":1767258957,"current_range_meters":10000,"station_id":"st_d3js3co5814s73ftftug","pricing_plan_id":"cebpf4jnsgd1na2vs0mg"},{"bike_id":"c0a53d93-3656-40f0-aa26-27efa5b7f7e7","system_id":"levelo_inurba_marseille","lat":43.28204,"lon":5.39056,"is_reserved":false,"is_disabled":false,"rental_uris":{"android":"levelo://app?vid=c0a53d93-3656-40f0-aa26-27efa5b7f7e7","ios":"levelo://app?vid=c0a53d93-3656-40f0-aa26-27efa5b7f7e7"},"vehicle_type_id":"4","last_reported":1767258957,"current_range_meters":10000,"station_id":"ce4bhn92rcd13ifvqgsg","pricing_plan_id":"cebpf4jnsgd1na2vs0mg"},{"bike_id":"da51a696-5705-48cd-a174-f63e3c15d9de","system_id":"levelo_inurba_marseille","lat":43.28862,"lon":5.42549,"is_reserved":false,"is_disabled":false,"rental_uris":{"android":"levelo://app?vid=da51a696-5705-48cd-a174-f63e3c15d9de","ios":"levelo://app?vid=da51a696-5705-48cd-a174-f63e3c15d9de"},"vehicle_type_id":"4","last_reported":1767258957,"current_range_meters":10000,"station_id":"st_d3b462108ojc7389ooeg","pricing_plan_id":"cebpf4jnsgd1na2vs0mg"},{"bike_id":"bebec6bc-9df3-406e-90bc-396ce2b3b0b3","system_id":"levelo_inurba_marseille","lat":43.2637,"lon":5.3741,"is_reserved":false,"is_disabled":false,"rental_uris":{"android":"levelo://app?vid=bebec6bc-9df3-406e-90bc-396ce2b3b0b3","ios":"levelo://app?vid=bebec6bc-9df3-406e-90bc-396ce2b3b0b3"},"vehicle_type_id":"4","last_reported":1767258957,"current_range_meters":10000,"station_id":"","pricing_plan_id":"cebpf4jnsgd1na2vs0mg"},{"bike_id":"652b8175-64c9-409d-ad71-6d77f3b5695b","system_id":"levelo_inurba_marseille","lat":43.28695,"lon":5.38647,"is_reserved":false,"is_disabled":false,"rental_uris":{"android":"levelo://app?vid=652b8175-64c9-409d-ad71-6d77f3b5695b","ios":"levelo://app?vid=652b8175-64c9-409d-ad71-6d77f3b5695b"},"vehicle_type_id":"4","last_reported":1767258957,"current_range_meters":10800,"station_id":"ce4bh492rcd13ifvqdug","pricing_plan_id":"cebpf4jnsgd1na2vs0mg"},{"bike_id":"3501ff75-149d-4276-833a-80688a400562","system_id":"levelo_inurba_marseille","lat":43.27272,"lon":5.3628,"is_reserved":false,"is_disabled":false,"rental_uris":{"android":"levelo://app?vid=3501ff75-149d-4276-833a-80688a400562","ios":"levelo://app?vid=3501ff75-149d-4276-833a-80688a400562"},"vehicle_type_id":"4","last_reported":1767258957,"current_range_meters":10800,"station_id":"","pricing_plan_id":"cebpf4jnsgd1na2vs0mg"},{"bike_id":"68d3d751-d36b-41d3-b364-2b08a74c64e8","system_id":"levelo_inurba_marseille","lat":43.29574,"lon":5.39984,"is_reserved":false,"is_disabled":false,"rental_uris":{"android":"levelo://app?vid=68d3d751-d36b-41d3-b364-2b08a74c64e8","ios":"levelo://app?vid=68d3d751-d36b-41d3-b364-2b08a74c64e8"},"vehicle_type_id":"4","last_reported":1767258957,"current_range_meters":10800,"station_id":"ce4bh312rcd13ifvqdj0","pricing_plan_id":"cebpf4jnsgd1na2vs0mg"},{"bike_id":"ee2fbc46-8d55-4a28-bd47-91dcad9f81ff","system_id":"levelo_inurba_marseille","lat":43.28395,"lon":5.37528,"is_reserved":false,"is_disabled":false,"rental_uris":{"android":"levelo://app?vid=ee2fbc46-8d55-4a28-bd47-91dcad9f81ff","ios":"levelo://app?vid=ee2fbc46-8d55-4a28-bd47-91dcad9f81ff"},"vehicle_type_id":"4","last_reported":1767258957,"current_range_meters":10800,"station_id":"ce4bh412rcd13ifvqds0","pricing_plan_id":"cebpf4jnsgd1na2vs0mg"},{"bike_id":"bab8f5ce-6ea3-45fd-aa21-29b68816a77a","system_id":"levelo_inurba_marseille","lat":43.264841,"lon":5.39562,"is_reserved":false,"is_disabled":false,"rental_uris":{"android":"levelo://app?vid=bab8f5ce-6ea3-45fd-aa21-29b68816a77a","ios":"levelo://app?vid=bab8f5ce-6ea3-45fd-aa21-29b68816a77a"},"vehicle_type_id":"4","last_reported":1767258957,"current_range_meters":10800,"station_id":"ce4bhi12rcd13ifvqfq0","pricing_plan_id":"cebpf4jnsgd1na2vs0mg"},{"bike_id":"6f6ef951-fc00-47c1-b331-a12a272b0d92","system_id":"levelo_inurba_marseille","lat":43.28616,"lon":5.35119,"is_reserved":false,"is_disabled":false,"rental_uris":{"android":"levelo://app?vid=6f6ef951-fc00-47c1-b331-a12a272b0d92","ios":"levelo://app?vid=6f6ef951-fc00-47c1-b331-a12a272b0d92"},"vehicle_type_id":"4","last_reported":1767258957,"current_range_meters":10800,"station_id":"ce4bhch2rcd13ifvqeug","pricing_plan_id":"cebpf4jnsgd1na2vs0mg"},{"bike_id":"a4bf83f6-5478-4dbd-a08e-d579e90306ee","system_id":"levelo_inurba_marseille","lat":43.33586,"lon":5.41068,"is_reserved":false,"is_disabled":false,"rental_uris":{"android":"levelo://app?vid=a4bf83f6-5478-4dbd-a08e-d579e90306ee","ios":"levelo://app?vid=a4bf83f6-5478-4dbd-a08e-d579e90306ee"},"vehicle_type_id":"4","last_reported":1767258957,"current_range_meters":10800,"station_id":"ce4bhqh2rcd13ifvqhmg","pricing_plan_id":"cebpf4jnsgd1na2vs0mg"},{"bike_id":"d8431e58-d3e8-4456-9570-729e3ebbcc73","system_id":"levelo_inurba_marseille","lat":43.30198,"lon":5.37292,"is_reserved":false,"is_disabled":false,"rental_uris":{"android":"levelo://app?vid=d8431e58-d3e8-4456-9570-729e3ebbcc73","ios":"levelo://app?vid=d8431e58-d3e8-4456-9570-729e3ebbcc73"},"vehicle_type_id":"4","last_reported":1767258957,"current_range_meters":10800,"station_id":"","pricing_plan_id":"cebpf4jnsgd1na2vs0mg"},{"bike_id":"a98e1b67-2f4d-4b0e-bea2-d90ff5c89757","system_id":"levelo_inurba_marseille","lat":43.28517,"lon":5.44108,"is_reserved":false,"is_disabled":false,"rental_uris":{"android":"levelo://app?vid=a98e1b67-2f4d-4b0e-bea2-d90ff5c89757","ios":"levelo://app?vid=a98e1b67-2f4d-4b0e-bea2-d90ff5c89757"},"vehicle_type_id":"4","last_reported":1767258957,"current_range_meters":10800,"station_id":"st_d3j3df2ikq2c7380ej80","pricing_plan_id":"cebpf4jnsgd1na2vs0mg"},{"bike_id":"2e432000-19e4-474b-acb8-4742408d8ecf","system_id":"levelo_inurba_marseille","lat":43.29646,"lon":5.37955,"is_reserved":false,"is_disabled":false,"rental_uris":{"android":"levelo://app?vid=2e432000-19e4-474b-acb8-4742408d8ecf","ios":"levelo://app?vid=2e432000-19e4-474b-acb8-4742408d8ecf"},"vehicle_type_id":"4","last_reported":1767258957,"current_range_meters":10800,"station_id":"","pricing_plan_id":"cebpf4jnsgd1na2vs0mg"},{"bike_id":"81586eb2-5997-4a7f-910d-f12ada7984c8","system_id":"levelo_inurba_marseille","lat":43.29887,"lon":5.38629,"is_reserved":false,"is_disabled":false,"rental_uris":{"android":"levelo://app?vid=81586eb2-5997-4a7f-910d-f12ada7984c8","ios":"levelo://app?vid=81586eb2-5997-4a7f-910d-f12ada7984c8"},"vehicle_type_id":"4","last_reported":1767258957,"current_range_meters":10800,"station_id":"","pricing_plan_id":"cebpf4jnsgd1na2vs0mg"},{"bike_id":"9cd33af6-41d1-41ec-a4f6-c787448ebf12","system_id":"levelo_inurba_marseille","lat":43.3128,"lon":5.40183,"is_reserved":false,"is_disabled":false,"rental_uris":{"android":"levelo://app?vid=9cd33af6-41d1-41ec-a4f6-c787448ebf12","ios":"levelo://app?vid=9cd33af6-41d1-41ec-a4f6-c787448ebf12"},"vehicle_type_id":"4","last_reported":1767258957,"current_range_meters":10800,"station_id":"ce4bh092rcd13ifvqd30","pricing_plan_id":"cebpf4jnsgd1na2vs0mg"},{"bike_id":"f3a4c2fd-c27a-4ca6-bbe5-3949d2a88808","system_id":"levelo_inurba_marseille","lat":43.2857,"lon":5.4298,"is_reserved":false,"is_disabled":false,"rental_uris":{"android":"levelo://app?vid=f3a4c2fd-c27a-4ca6-bbe5-3949d2a88808","ios":"levelo://app?vid=f3a4c2fd-c27a-4ca6-bbe5-3949d2a88808"},"vehicle_type_id":"4","last_reported":1767258957,"current_range_meters":10800,"station_id":"","pricing_plan_id":"cebpf4jnsgd1na2vs0mg"},{"bike_id":"30415354-7900-447e-b325-7203d8120468","system_id":"levelo_inurba_marseille","lat":43.27904,"lon":5.39597,"is_reserved":false,"is_disabled":false,"rental_uris":{"android":"levelo://app?vid=30415354-7900-447e-b325-7203d8120468","ios":"levelo://app?vid=30415354-7900-447e-b325-7203d8120468"},"vehicle_type_id":"4","last_reported":1767258957,"current_range_meters":10800,"station_id":"ce4bhf92rcd13ifvqf40","pricing_plan_id":"cebpf4jnsgd1na2vs0mg"},{"bike_id":"3fd00cb0-0645-4a8c-874a-2e0df62cb4f5","system_id":"levelo_inurba_marseille","lat":43.29714,"lon":5.380711,"is_reserved":false,"is_disabled":false,"rental_uris":{"android":"levelo://app?vid=3fd00cb0-0645-4a8c-874a-2e0df62cb4f5","ios":"levelo://app?vid=3fd00cb0-0645-4a8c-874a-2e0df62cb4f5"},"vehicle_type_id":"4","last_reported":1767258957,"current_range_meters":10800,"station_id":"","pricing_plan_id":"cebpf4jnsgd1na2vs0mg"},{"bike_id":"6e6e7601-5f36-46c4-b944-57b23eeba962","system_id":"levelo_inurba_marseille","lat":43.31691,"lon":5.40616,"is_reserved":false,"is_disabled":false,"rental_uris":{"android":"levelo://app?vid=6e6e7601-5f36-46c4-b944-57b23eeba962","ios":"levelo://app?vid=6e6e7601-5f36-46c4-b944-57b23eeba962"},"vehicle_type_id":"4","last_reported":1767258957,"current_range_meters":10800,"station_id":"","pricing_plan_id":"cebpf4jnsgd1na2vs0mg"},{"bike_id":"1e76a634-1236-4429-a6ca-562668962923","system_id":"levelo_inurba_marseille","lat":43.25217,"lon":5.39444,"is_reserved":false,"is_disabled":false,"rental_uris":{"android":"levelo://app?vid=1e76a634-1236-4429-a6ca-562668962923","ios":"levelo://app?vid=1e76a634-1236-4429-a6ca-562668962923"},"vehicle_type_id":"4","last_reported":1767258957,"current_range_meters":11200,"station_id":"","pricing_plan_id":"cebpf4jnsgd1na2vs0mg"},{"bike_id":"3eec8e02-6c1b-4d38-adea-62c83aba9c65","system_id":"levelo_inurba_marseille","lat":43.30873,"lon":5.39653,"is_reserved":false,"is_disabled":false,"rental_uris":{"android":"levelo://app?vid=3eec8e02-6c1b-4d38-adea-62c83aba9c65","ios":"levelo://app?vid=3eec8e02-6c1b-4d38-adea-62c83aba9c65"},"vehicle_type_id":"4","last_reported":1767258957,"current_range_meters":11200,"station_id":"ce4bh012rcd13ifvqcv0","pricing_plan_id":"cebpf4jnsgd1na2vs0mg"},{"bike_id":"5294767e-dd69-4945-8c8e-03dd74e904a7","system_id":"levelo_inurba_marseille","lat":43.23072,"lon":5.35491,"is_reserved":false,"is_disabled":false,"rental_uris":{"android":"levelo://app?vid=5294767e-dd69-4945-8c8e-03dd74e904a7","ios":"levelo://app?vid=5294767e-dd69-4945-8c8e-03dd74e904a7"},"vehicle_type_id":"4","last_reported":1767258957,"current_range_meters":11200,"station_id":"cpo3342slgdg3j2ifvpg","pricing_plan_id":"cebpf4jnsgd1na2vs0mg"},{"bike_id":"02f8bf0b-656a-48d6-ba0e-c8a2cf4484da","system_id":"levelo_inurba_marseille","lat":43.28939,"lon":5.36645,"is_reserved":false,"is_disabled":false,"rental_uris":{"android":"levelo://app?vid=02f8bf0b-656a-48d6-ba0e-c8a2cf4484da","ios":"levelo://app?vid=02f8bf0b-656a-48d6-ba0e-c8a2cf4484da"},"vehicle_type_id":"4","last_reported":1767258957,"current_range_meters":11200,"station_id":"ce4bhap2rcd13ifvqek0","pricing_plan_id":"cebpf4jnsgd1na2vs0mg"},{"bike_id":"41853112-4688-4aa7-ade9-19232fbbbc52","system_id":"levelo_inurba_marseille","lat":43.30322,"lon":5.40449,"is_reserved":false,"is_disabled":false,"rental_uris":{"android":"levelo://app?vid=41853112-4688-4aa7-ade9-19232fbbbc52","ios":"levelo://app?vid=41853112-4688-4aa7-ade9-19232fbbbc52"},"vehicle_type_id":"4","last_reported":1767258957,"current_range_meters":11200,"station_id":"ce4bh012rcd13ifvqd10","pricing_plan_id":"cebpf4jnsgd1na2vs0mg"},{"bike_id":"09d4feb8-b4d8-437f-b113-e76f56616ebf","system_id":"levelo_inurba_marseille","lat":43.28728,"lon":5.36079,"is_reserved":false,"is_disabled":false,"rental_uris":{"android":"levelo://app?vid=09d4feb8-b4d8-437f-b113-e76f56616ebf","ios":"levelo://app?vid=09d4feb8-b4d8-437f-b113-e76f56616ebf"},"vehicle_type_id":"4","last_reported":1767258957,"current_range_meters":11200,"station_id":"cki0cbj6b192h4jlfktg","pricing_plan_id":"cebpf4jnsgd1na2vs0mg"},{"bike_id":"27eab711-3794-4c67-b72c-787e5b4b546b","system_id":"levelo_inurba_marseille","lat":43.25575,"lon":5.38229,"is_reserved":false,"is_disabled":false,"rental_uris":{"android":"levelo://app?vid=27eab711-3794-4c67-b72c-787e5b4b546b","ios":"levelo://app?vid=27eab711-3794-4c67-b72c-787e5b4b546b"},"vehicle_type_id":"4","last_reported":1767258957,"current_range_meters":11200,"station_id":"ce4bhih2rcd13ifvqfs0","pricing_plan_id":"cebpf4jnsgd1na2vs0mg"},{"bike_id":"25f1743a-a2b2-454e-84ce-5c43f5ea30d3","system_id":"levelo_inurba_marseille","lat":43.29896,"lon":5.43689,"is_reserved":false,"is_disabled":false,"rental_uris":{"android":"levelo://app?vid=25f1743a-a2b2-454e-84ce-5c43f5ea30d3","ios":"levelo://app?vid=25f1743a-a2b2-454e-84ce-5c43f5ea30d3"},"vehicle_type_id":"4","last_reported":1767258957,"current_range_meters":11200,"station_id":"ce4bhpp2rcd13ifvqhfg","pricing_plan_id":"cebpf4jnsgd1na2vs0mg"},{"bike_id":"e0decbbd-66f2-41ff-95bf-ae2a7b2f4e23","system_id":"levelo_inurba_marseille","lat":43.2858,"lon":5.42628,"is_reserved":false,"is_disabled":false,"rental_uris":{"android":"levelo://app?vid=e0decbbd-66f2-41ff-95bf-ae2a7b2f4e23","ios":"levelo://app?vid=e0decbbd-66f2-41ff-95bf-ae2a7b2f4e23"},"vehicle_type_id":"4","last_reported":1767258957,"current_range_meters":11200,"station_id":"","pricing_plan_id":"cebpf4jnsgd1na2vs0mg"},{"bike_id":"72b8ccda-6bb4-4910-8afb-2f4124de52aa","system_id":"levelo_inurba_marseille","lat":43.25821,"lon":5.3944,"is_reserved":false,"is_disabled":false,"rental_uris":{"android":"levelo://app?vid=72b8ccda-6bb4-4910-8afb-2f4124de52aa","ios":"levelo://app?vid=72b8ccda-6bb4-4910-8afb-2f4124de52aa"},"vehicle_type_id":"4","last_reported":1767258957,"current_range_meters":11200,"station_id":"ce4bhip2rcd13ifvqft0","pricing_plan_id":"cebpf4jnsgd1na2vs0mg"},{"bike_id":"20541a07-e3c2-4d12-b13e-4f5e28d84422","system_id":"levelo_inurba_marseille","lat":43.335387,"lon":5.374712,"is_reserved":false,"is_disabled":false,"rental_uris":{"android":"levelo://app?vid=20541a07-e3c2-4d12-b13e-4f5e28d84422","ios":"levelo://app?vid=20541a07-e3c2-4d12-b13e-4f5e28d84422"},"vehicle_type_id":"4","last_reported":1767258957,"current_range_meters":11200,"station_id":"st_d46tts09ee8s73dlu43g","pricing_plan_id":"cebpf4jnsgd1na2vs0mg"},{"bike_id":"efbc9ac5-91b0-4c81-a274-29193bdb29ec","system_id":"levelo_inurba_marseille","lat":43.26208,"lon":5.3793,"is_reserved":false,"is_disabled":false,"rental_uris":{"android":"levelo://app?vid=efbc9ac5-91b0-4c81-a274-29193bdb29ec","ios":"levelo://app?vid=efbc9ac5-91b0-4c81-a274-29193bdb29ec"},"vehicle_type_id":"4","last_reported":1767258957,"current_range_meters":11200,"station_id":"ce4bhjp2rcd13ifvqg90","pricing_plan_id":"cebpf4jnsgd1na2vs0mg"},{"bike_id":"cc7d95c5-913c-4570-834d-a943b3da39e0","system_id":"levelo_inurba_marseille","lat":43.2796,"lon":5.387547,"is_reserved":false,"is_disabled":false,"rental_uris":{"android":"levelo://app?vid=cc7d95c5-913c-4570-834d-a943b3da39e0","ios":"levelo://app?vid=cc7d95c5-913c-4570-834d-a943b3da39e0"},"vehicle_type_id":"4","last_reported":1767258957,"current_range_meters":11200,"station_id":"ce4bhg12rcd13ifvqf80","pricing_plan_id":"cebpf4jnsgd1na2vs0mg"},{"bike_id":"76499c74-973d-426f-8f6d-e26d239c3972","system_id":"levelo_inurba_marseille","lat":43.279396,"lon":5.435908,"is_reserved":false,"is_disabled":false,"rental_uris":{"android":"levelo://app?vid=76499c74-973d-426f-8f6d-e26d239c3972","ios":"levelo://app?vid=76499c74-973d-426f-8f6d-e26d239c3972"},"vehicle_type_id":"4","last_reported":1767258957,"current_range_meters":11200,"station_id":"","pricing_plan_id":"cebpf4jnsgd1na2vs0mg"},{"bike_id":"93319775-0548-4905-8d2f-f723315fd278","system_id":"levelo_inurba_marseille","lat":43.30321,"lon":5.40428,"is_reserved":false,"is_disabled":false,"rental_uris":{"android":"levelo://app?vid=93319775-0548-4905-8d2f-f723315fd278","ios":"levelo://app?vid=93319775-0548-4905-8d2f-f723315fd278"},"vehicle_type_id":"4","last_reported":1767258957,"current_range_meters":11200,"station_id":"ce4bh012rcd13ifvqd10","pricing_plan_id":"cebpf4jnsgd1na2vs0mg"},{"bike_id":"c5fed8f9-83de-45dc-ab9b-3a288acc2dff","system_id":"levelo_inurba_marseille","lat":43.29197,"lon":5.358043,"is_reserved":false,"is_disabled":false,"rental_uris":{"android":"levelo://app?vid=c5fed8f9-83de-45dc-ab9b-3a288acc2dff","ios":"levelo://app?vid=c5fed8f9-83de-45dc-ab9b-3a288acc2dff"},"vehicle_type_id":"4","last_reported":1767258957,"current_range_meters":11600,"station_id":"ce4bhb12rcd13ifvqel0","pricing_plan_id":"cebpf4jnsgd1na2vs0mg"},{"bike_id":"1976f061-e064-45cd-9d75-48c90f29fe4d","system_id":"levelo_inurba_marseille","lat":43.28411,"lon":5.34984,"is_reserved":false,"is_disabled":false,"rental_uris":{"android":"levelo://app?vid=1976f061-e064-45cd-9d75-48c90f29fe4d","ios":"levelo://app?vid=1976f061-e064-45cd-9d75-48c90f29fe4d"},"vehicle_type_id":"4","last_reported":1767258957,"current_range_meters":11600,"station_id":"ce4bhbh2rcd13ifvqepg","pricing_plan_id":"cebpf4jnsgd1na2vs0mg"},{"bike_id":"a5ed6123-7735-445c-8078-46d4ca98d044","system_id":"levelo_inurba_marseille","lat":43.26787,"lon":5.39419,"is_reserved":false,"is_disabled":false,"rental_uris":{"android":"levelo://app?vid=a5ed6123-7735-445c-8078-46d4ca98d044","ios":"levelo://app?vid=a5ed6123-7735-445c-8078-46d4ca98d044"},"vehicle_type_id":"4","last_reported":1767258957,"current_range_meters":11600,"station_id":"ce4bhh12rcd13ifvqfg0","pricing_plan_id":"cebpf4jnsgd1na2vs0mg"},{"bike_id":"c3558bbf-f3a8-48f1-ba39-06ef0a3f7ef3","system_id":"levelo_inurba_marseille","lat":43.2953,"lon":5.38551,"is_reserved":false,"is_disabled":false,"rental_uris":{"android":"levelo://app?vid=c3558bbf-f3a8-48f1-ba39-06ef0a3f7ef3","ios":"levelo://app?vid=c3558bbf-f3a8-48f1-ba39-06ef0a3f7ef3"},"vehicle_type_id":"4","last_reported":1767258957,"current_range_meters":11600,"station_id":"ce4bgih2rcd13ifvqba0","pricing_plan_id":"cebpf4jnsgd1na2vs0mg"},{"bike_id":"54045760-2072-46e5-a5c4-00c3b9646aa6","system_id":"levelo_inurba_marseille","lat":43.29991,"lon":5.37192,"is_reserved":false,"is_disabled":false,"rental_uris":{"android":"levelo://app?vid=54045760-2072-46e5-a5c4-00c3b9646aa6","ios":"levelo://app?vid=54045760-2072-46e5-a5c4-00c3b9646aa6"},"vehicle_type_id":"4","last_reported":1767258957,"current_range_meters":11600,"station_id":"ce4bgr92rcd13ifvqc7g","pricing_plan_id":"cebpf4jnsgd1na2vs0mg"},{"bike_id":"32cbcd6b-22a0-47d3-ae4c-55539767b9a6","system_id":"levelo_inurba_marseille","lat":43.30854,"lon":5.39679,"is_reserved":false,"is_disabled":false,"rental_uris":{"android":"levelo://app?vid=32cbcd6b-22a0-47d3-ae4c-55539767b9a6","ios":"levelo://app?vid=32cbcd6b-22a0-47d3-ae4c-55539767b9a6"},"vehicle_type_id":"4","last_reported":1767258957,"current_range_meters":11600,"station_id":"","pricing_plan_id":"cebpf4jnsgd1na2vs0mg"},{"bike_id":"b6c2de47-37fa-44c1-ae2a-ab2b9c904820","system_id":"levelo_inurba_marseille","lat":43.28477,"lon":5.38475,"is_reserved":false,"is_disabled":false,"rental_uris":{"android":"levelo://app?vid=b6c2de47-37fa-44c1-ae2a-ab2b9c904820","ios":"levelo://app?vid=b6c2de47-37fa-44c1-ae2a-ab2b9c904820"},"vehicle_type_id":"4","last_reported":1767258957,"current_range_meters":11600,"station_id":"","pricing_plan_id":"cebpf4jnsgd1na2vs0mg"},{"bike_id":"e072ce20-befa-4d9c-a562-c16f166965ba","system_id":"levelo_inurba_marseille","lat":43.21193,"lon":5.35085,"is_reserved":false,"is_disabled":false,"rental_uris":{"android":"levelo://app?vid=e072ce20-befa-4d9c-a562-c16f166965ba","ios":"levelo://app?vid=e072ce20-befa-4d9c-a562-c16f166965ba"},"vehicle_type_id":"4","last_reported":1767258957,"current_range_meters":11600,"station_id":"st_cvj6sg6p6f1abm77japg","pricing_plan_id":"cebpf4jnsgd1na2vs0mg"},{"bike_id":"1498f079-e300-4265-837b-8da7d97aca06","system_id":"levelo_inurba_marseille","lat":43.24164,"lon":5.36386,"is_reserved":false,"is_disabled":false,"rental_uris":{"android":"levelo://app?vid=1498f079-e300-4265-837b-8da7d97aca06","ios":"levelo://app?vid=1498f079-e300-4265-837b-8da7d97aca06"},"vehicle_type_id":"4","last_reported":1767258957,"current_range_meters":11600,"station_id":"cpo36qri1sfpv3e86is0","pricing_plan_id":"cebpf4jnsgd1na2vs0mg"},{"bike_id":"961a4b80-6a80-41fc-af4e-cb7c655480a6","system_id":"levelo_inurba_marseille","lat":43.28308,"lon":5.39748,"is_reserved":false,"is_disabled":true,"rental_uris":{"android":"levelo://app?vid=961a4b80-6a80-41fc-af4e-cb7c655480a6","ios":"levelo://app?vid=961a4b80-6a80-41fc-af4e-cb7c655480a6"},"vehicle_type_id":"4","last_reported":1767258957,"current_range_meters":11600,"station_id":"","pricing_plan_id":"cebpf4jnsgd1na2vs0mg"},{"bike_id":"1579b22c-0739-4446-affd-66e597b52ce6","system_id":"levelo_inurba_marseille","lat":43.24638,"lon":5.38897,"is_reserved":false,"is_disabled":false,"rental_uris":{"android":"levelo://app?vid=1579b22c-0739-4446-affd-66e597b52ce6","ios":"levelo://app?vid=1579b22c-0739-4446-affd-66e597b52ce6"},"vehicle_type_id":"4","last_reported":1767258957,"current_range_meters":11600,"station_id":"ce4bhg12rcd13ifvqf60","pricing_plan_id":"cebpf4jnsgd1na2vs0mg"},{"bike_id":"0d534b9e-8152-4a4f-b776-4b5239420897","system_id":"levelo_inurba_marseille","lat":43.30847,"lon":5.36864,"is_reserved":false,"is_disabled":false,"rental_uris":{"android":"levelo://app?vid=0d534b9e-8152-4a4f-b776-4b5239420897","ios":"levelo://app?vid=0d534b9e-8152-4a4f-b776-4b5239420897"},"vehicle_type_id":"4","last_reported":1767258957,"current_range_meters":11600,"station_id":"","pricing_plan_id":"cebpf4jnsgd1na2vs0mg"},{"bike_id":"bf0e9831-c74b-4b77-afac-4e525f8e3fd0","system_id":"levelo_inurba_marseille","lat":43.24369,"lon":5.37081,"is_reserved":false,"is_disabled":false,"rental_uris":{"android":"levelo://app?vid=bf0e9831-c74b-4b77-afac-4e525f8e3fd0","ios":"levelo://app?vid=bf0e9831-c74b-4b77-afac-4e525f8e3fd0"},"vehicle_type_id":"4","last_reported":1767258957,"current_range_meters":11600,"station_id":"ce4bhhh2rcd13ifvqfk0","pricing_plan_id":"cebpf4jnsgd1na2vs0mg"},{"bike_id":"5c697cf1-3155-402b-bc5c-8bfef5fdb183","system_id":"levelo_inurba_marseille","lat":43.2994,"lon":5.38524,"is_reserved":false,"is_disabled":false,"rental_uris":{"android":"levelo://app?vid=5c697cf1-3155-402b-bc5c-8bfef5fdb183","ios":"levelo://app?vid=5c697cf1-3155-402b-bc5c-8bfef5fdb183"},"vehicle_type_id":"4","last_reported":1767258957,"current_range_meters":12000,"station_id":"ce4bgj92rcd13ifvqbd0","pricing_plan_id":"cebpf4jnsgd1na2vs0mg"},{"bike_id":"78cb6752-e206-48c8-ab5a-fdfba15196a7","system_id":"levelo_inurba_marseille","lat":43.276626,"lon":5.388789,"is_reserved":false,"is_disabled":false,"rental_uris":{"android":"levelo://app?vid=78cb6752-e206-48c8-ab5a-fdfba15196a7","ios":"levelo://app?vid=78cb6752-e206-48c8-ab5a-fdfba15196a7"},"vehicle_type_id":"4","last_reported":1767258957,"current_range_meters":12000,"station_id":"ce4bhi12rcd13ifvqfo0","pricing_plan_id":"cebpf4jnsgd1na2vs0mg"},{"bike_id":"62bbb4f8-cd37-4703-914d-4c2cbb4345e1","system_id":"levelo_inurba_marseille","lat":43.28073,"lon":5.39662,"is_reserved":false,"is_disabled":false,"rental_uris":{"android":"levelo://app?vid=62bbb4f8-cd37-4703-914d-4c2cbb4345e1","ios":"levelo://app?vid=62bbb4f8-cd37-4703-914d-4c2cbb4345e1"},"vehicle_type_id":"4","last_reported":1767258957,"current_range_meters":12000,"station_id":"ce4bho12rcd13ifvqh2g","pricing_plan_id":"cebpf4jnsgd1na2vs0mg"},{"bike_id":"a63eff76-4348-433b-98e8-106875d368d9","system_id":"levelo_inurba_marseille","lat":43.31108,"lon":5.37276,"is_reserved":false,"is_disabled":false,"rental_uris":{"android":"levelo://app?vid=a63eff76-4348-433b-98e8-106875d368d9","ios":"levelo://app?vid=a63eff76-4348-433b-98e8-106875d368d9"},"vehicle_type_id":"4","last_reported":1767258957,"current_range_meters":12000,"station_id":"","pricing_plan_id":"cebpf4jnsgd1na2vs0mg"},{"bike_id":"240f90c0-9144-4a3b-a221-7e86b8542577","system_id":"levelo_inurba_marseille","lat":43.2683,"lon":5.40256,"is_reserved":false,"is_disabled":false,"rental_uris":{"android":"levelo://app?vid=240f90c0-9144-4a3b-a221-7e86b8542577","ios":"levelo://app?vid=240f90c0-9144-4a3b-a221-7e86b8542577"},"vehicle_type_id":"4","last_reported":1767258957,"current_range_meters":12000,"station_id":"ce501612rcd8frsf0b60","pricing_plan_id":"cebpf4jnsgd1na2vs0mg"},{"bike_id":"f60002fe-1512-46c8-bd85-95df7296e479","system_id":"levelo_inurba_marseille","lat":43.29971,"lon":5.38488,"is_reserved":false,"is_disabled":false,"rental_uris":{"android":"levelo://app?vid=f60002fe-1512-46c8-bd85-95df7296e479","ios":"levelo://app?vid=f60002fe-1512-46c8-bd85-95df7296e479"},"vehicle_type_id":"4","last_reported":1767258957,"current_range_meters":12000,"station_id":"ce4bgj92rcd13ifvqbd0","pricing_plan_id":"cebpf4jnsgd1na2vs0mg"},{"bike_id":"ab98afa8-4907-4b9f-b6c6-75e71a064cde","system_id":"levelo_inurba_marseille","lat":43.25721,"lon":5.4111,"is_reserved":false,"is_disabled":false,"rental_uris":{"android":"levelo://app?vid=ab98afa8-4907-4b9f-b6c6-75e71a064cde","ios":"levelo://app?vid=ab98afa8-4907-4b9f-b6c6-75e71a064cde"},"vehicle_type_id":"4","last_reported":1767258957,"current_range_meters":12000,"station_id":"ce4bhkp2rcd13ifvqgd0","pricing_plan_id":"cebpf4jnsgd1na2vs0mg"},{"bike_id":"adee5904-d2f9-48c4-ad58-68d27b5bb40a","system_id":"levelo_inurba_marseille","lat":43.2927,"lon":5.37677,"is_reserved":false,"is_disabled":false,"rental_uris":{"android":"levelo://app?vid=adee5904-d2f9-48c4-ad58-68d27b5bb40a","ios":"levelo://app?vid=adee5904-d2f9-48c4-ad58-68d27b5bb40a"},"vehicle_type_id":"4","last_reported":1767258957,"current_range_meters":12000,"station_id":"ce4bgi12rcd13ifvqb80","pricing_plan_id":"cebpf4jnsgd1na2vs0mg"},{"bike_id":"03396f01-143e-4b0b-83da-8fba94916c27","system_id":"levelo_inurba_marseille","lat":43.28623,"lon":5.35121,"is_reserved":false,"is_disabled":false,"rental_uris":{"android":"levelo://app?vid=03396f01-143e-4b0b-83da-8fba94916c27","ios":"levelo://app?vid=03396f01-143e-4b0b-83da-8fba94916c27"},"vehicle_type_id":"4","last_reported":1767258957,"current_range_meters":12000,"station_id":"ce4bhch2rcd13ifvqeug","pricing_plan_id":"cebpf4jnsgd1na2vs0mg"},{"bike_id":"a0e8834d-99dc-498c-bfc6-c375b2aebdc7","system_id":"levelo_inurba_marseille","lat":43.287504,"lon":5.365728,"is_reserved":false,"is_disabled":false,"rental_uris":{"android":"levelo://app?vid=a0e8834d-99dc-498c-bfc6-c375b2aebdc7","ios":"levelo://app?vid=a0e8834d-99dc-498c-bfc6-c375b2aebdc7"},"vehicle_type_id":"4","last_reported":1767258957,"current_range_meters":12000,"station_id":"","pricing_plan_id":"cebpf4jnsgd1na2vs0mg"},{"bike_id":"9888b5da-e0d5-4188-9d7f-f5367be9e83e","system_id":"levelo_inurba_marseille","lat":43.30298,"lon":5.39198,"is_reserved":false,"is_disabled":false,"rental_uris":{"android":"levelo://app?vid=9888b5da-e0d5-4188-9d7f-f5367be9e83e","ios":"levelo://app?vid=9888b5da-e0d5-4188-9d7f-f5367be9e83e"},"vehicle_type_id":"4","last_reported":1767258957,"current_range_meters":12000,"station_id":"ce4bgkh2rcd13ifvqbk0","pricing_plan_id":"cebpf4jnsgd1na2vs0mg"},{"bike_id":"550df961-164e-4b10-94a9-f710c45dd1c9","system_id":"levelo_inurba_marseille","lat":43.2861,"lon":5.39918,"is_reserved":false,"is_disabled":false,"rental_uris":{"android":"levelo://app?vid=550df961-164e-4b10-94a9-f710c45dd1c9","ios":"levelo://app?vid=550df961-164e-4b10-94a9-f710c45dd1c9"},"vehicle_type_id":"4","last_reported":1767258957,"current_range_meters":12000,"station_id":"st_d4a7ka997mjs738ck50g","pricing_plan_id":"cebpf4jnsgd1na2vs0mg"},