{"last_updated":1729012148,"ttl":60,"version":"2.2","data":{"bikes":[{"bike_id":"bd169ca4-332f-4ccb-8a91-504a6b784b69","system_id":"levelo_inurba_marseille","lat":43.24546,"lon":5.39523,"is_reserved":false,"is_disabled":false,"rental_uris":{"android":"levelo://app?vid=bd169ca4-332f-4ccb-8a91-504a6b784b69","ios":"levelo://app?vid=bd169ca4-332f-4ccb-8a91-504a6b784b69"},"vehicle_type_id":"4","last_reported":1729012148,"current_range_meters":8000,"station_id":"ce4bhlp2rcd13ifvqgjg","pricing_plan_id":"cebpf4jnsgd1na2vs0mg"},{"bike_id":"69197799-1c4b-46f8-85b6-3058b9ee9332","system_id":"levelo_inurba_marseille","lat":43.29536,"lon":5.3854,"is_reserved":false,"is_disabled":false,"rental_uris":{"android":"levelo://app?vid=69197799-1c4b-46f8-85b6-3058b9ee9332","ios":"levelo://app?vid=69197799-1c4b-46f8-85b6-3058b9ee9332"},"vehicle_type_id":"4","last_reported":1729012148,"current_range_meters":4000,"station_id":"ce4bgih2rcd13ifvqba0","pricing_plan_id":"cebpf4jnsgd1na2vs0mg"},{"bike_id":"5b8bec90-acc7-4c0d-b242-ec78f9ed9240","system_id":"levelo_inurba_marseille","lat":43.33028,"lon":5.39059,"is_reserved":false,"is_disabled":false,"rental_uris":{"android":"levelo://app?vid=5b8bec90-acc7-4c0d-b242-ec78f9ed9240","ios":"levelo://app?vid=5b8bec90-acc7-4c0d-b242-ec78f9ed9240"},"vehicle_type_id":"4","last_reported":1729012148,"current_range_meters":30000,"station_id":"ce4bhr92rcd13ifvqhrg","pricing_plan_id":"cebpf4jnsgd1na2vs0mg"},{"bike_id":"531333bf-e3cd-4ce4-bc39-fe36bfd47ee9","system_id":"levelo_inurba_marseille","lat":43.3133,"lon":5.39691,"is_reserved":false,"is_disabled":false,"rental_uris":{"android":"levelo://app?vid=531333bf-e3cd-4ce4-bc39-fe36bfd47ee9","ios":"levelo://app?vid=531333bf-e3cd-4ce4-bc39-fe36bfd47ee9"},"vehicle_type_id":"4","last_reported":1729012148,"current_range_meters":4400,"station_id":"ce4bgvp2rcd13ifvqcu0","pricing_plan_id":"cebpf4jnsgd1na2vs0mg"},{"bike_id":"d666b878-8c6a-46ea-a928-48676fd31d18","system_id":"levelo_inurba_marseille","lat":43.27945,"lon":5.41059,"is_reserved":false,"is_disabled":false,"rental_uris":{"android":"levelo://app?vid=d666b878-8c6a-46ea-a928-48676fd31d18","ios":"levelo://app?vid=d666b878-8c6a-46ea-a928-48676fd31d18"},"vehicle_type_id":"4","last_reported":1729012148,"current_range_meters":9600,"station_id":"ce4bhnp2rcd13ifvqh0g","pricing_plan_id":"cebpf4jnsgd1na2vs0mg"},{"bike_id":"a0be5a5d-3d1e-4cf9-837a-faf4e08f616f","system_id":"levelo_inurba_marseille","lat":43.2293,"lon":5.35378,"is_reserved":false,"is_disabled":false,"rental_uris":{"android":"levelo://app?vid=a0be5a5d-3d1e-4cf9-837a-faf4e08f616f","ios":"levelo://app?vid=a0be5a5d-3d1e-4cf9-837a-faf4e08f616f"},"vehicle_type_id":"4","last_reported":1729012148,"current_range_meters":8000,"station_id":"cpo3532slgdg3j2ikp40","pricing_plan_id":"cebpf4jnsgd1na2vs0mg"},{"bike_id":"a63c605b-911f-4db2-b4ea-9596f5ac7f07","system_id":"levelo_inurba_marseille","lat":43.29706,"lon":5.37394,"is_reserved":false,"is_disabled":false,"rental_uris":{"android":"levelo://app?vid=a63c605b-911f-4db2-b4ea-9596f5ac7f07","ios":"levelo://app?vid=a63c605b-911f-4db2-b4ea-9596f5ac7f07"},"vehicle_type_id":"4","last_reported":1729012148,"current_range_meters":22800,"station_id":"ce4bgk12rcd13ifvqbj0","pricing_plan_id":"cebpf4jnsgd1na2vs0mg"},{"bike_id":"62d3a36c-5328-4967-b786-7044509a5c57","system_id":"levelo_inurba_marseille","lat":43.31081,"lon":5.42436,"is_reserved":false,"is_disabled":false,"rental_uris":{"android":"levelo://app?vid=62d3a36c-5328-4967-b786-7044509a5c57","ios":"levelo://app?vid=62d3a36c-5328-4967-b786-7044509a5c57"},"vehicle_type_id":"4","last_reported":1729012148,"current_range_meters":32000,"station_id":"ce4bhp92rcd13ifvqhag","pricing_plan_id":"cebpf4jnsgd1na2vs0mg"},{"bike_id":"5554a15a-3e77-4957-960a-9fd3bb5c6cef","system_id":"levelo_inurba_marseille","lat":43.31997,"lon":5.38159,"is_reserved":false,"is_disabled":false,"rental_uris":{"android":"levelo://app?vid=5554a15a-3e77-4957-960a-9fd3bb5c6cef","ios":"levelo://app?vid=5554a15a-3e77-4957-960a-9fd3bb5c6cef"},"vehicle_type_id":"4","last_reported":1729012148,"current_range_meters":10800,"station_id":"ce4bhr12rcd13ifvqhpg","pricing_plan_id":"cebpf4jnsgd1na2vs0mg"},{"bike_id":"dc5f6dbe-5d62-43f5-8a9e-4a48f2a9a38c","system_id":"levelo_inurba_marseille","lat":43.2558,"lon":5.38243,"is_reserved":false,"is_disabled":false,"rental_uris":{"android":"levelo://app?vid=dc5f6dbe-5d62-43f5-8a9e-4a48f2a9a38c","ios":"levelo://app?vid=dc5f6dbe-5d62-43f5-8a9e-4a48f2a9a38c"},"vehicle_type_id":"4","last_reported":1729012148,"current_range_meters":3200,"station_id":"ce4bhih2rcd13ifvqfs0","pricing_plan_id":"cebpf4jnsgd1na2vs0mg"},{"bike_id":"3668da75-c41f-466b-8262-09a17c054d21","system_id":"levelo_inurba_marseille","lat":43.31081,"lon":5.42432,"is_reserved":false,"is_disabled":false,"rental_uris":{"android":"levelo://app?vid=3668da75-c41f-466b-8262-09a17c054d21","ios":"levelo://app?vid=3668da75-c41f-466b-8262-09a17c054d21"},"vehicle_type_id":"4","last_reported":1729012148,"current_range_meters":8800,"station_id":"ce4bhp92rcd13ifvqhag","pricing_plan_id":"cebpf4jnsgd1na2vs0mg"},{"bike_id":"fb7f2922-a476-4ee2-ba72-954bb848d009","system_id":"levelo_inurba_marseille","lat":43.29549,"lon":5.38543,"is_reserved":false,"is_disabled":false,"rental_uris":{"android":"levelo://app?vid=fb7f2922-a476-4ee2-ba72-954bb848d009","ios":"levelo://app?vid=fb7f2922-a476-4ee2-ba72-954bb848d009"},"vehicle_type_id":"4","last_reported":1729012148,"current_range_meters":10000,"station_id":"ce4bgih2rcd13ifvqba0","pricing_plan_id":"cebpf4jnsgd1na2vs0mg"},{"bike_id":"38b89885-ec25-461b-bd73-3c8d7c061b3c","system_id":"levelo_inurba_marseille","lat":43.25581,"lon":5.38229,"is_reserved":false,"is_disabled":false,"rental_uris":{"android":"levelo://app?vid=38b89885-ec25-461b-bd73-3c8d7c061b3c","ios":"levelo://app?vid=38b89885-ec25-461b-bd73-3c8d7c061b3c"},"vehicle_type_id":"4","last_reported":1729012148,"current_range_meters":16000,"station_id":"ce4bhih2rcd13ifvqfs0","pricing_plan_id":"cebpf4jnsgd1na2vs0mg"},{"bike_id":"c5f5cb1d-6115-4834-a655-3c011396eda6","system_id":"levelo_inurba_marseille","lat":43.248621,"lon":5.391228,"is_reserved":false,"is_disabled":false,"rental_uris":{"android":"levelo://app?vid=c5f5cb1d-6115-4834-a655-3c011396eda6","ios":"levelo://app?vid=c5f5cb1d-6115-4834-a655-3c011396eda6"},"vehicle_type_id":"4","last_reported":1729012148,"current_range_meters":25200,"station_id":"ce4bhn12rcd13ifvqgqg","pricing_plan_id":"cebpf4jnsgd1na2vs0mg"},{"bike_id":"0e894bc2-e9be-43fb-a285-170ea3b88386","system_id":"levelo_inurba_marseille","lat":43.28705,"lon":5.37377,"is_reserved":false,"is_disabled":false,"rental_uris":{"android":"levelo://app?vid=0e894bc2-e9be-43fb-a285-170ea3b88386","ios":"levelo://app?vid=0e894bc2-e9be-43fb-a285-170ea3b88386"},"vehicle_type_id":"4","last_reported":1729012148,"current_range_meters":12400,"station_id":"ce4bh3p2rcd13ifvqdq0","pricing_plan_id":"cebpf4jnsgd1na2vs0mg"},{"bike_id":"a3795853-6fd4-4683-b036-097fdac0637b","system_id":"levelo_inurba_marseille","lat":43.29607,"lon":5.38095,"is_reserved":false,"is_disabled":false,"rental_uris":{"android":"levelo://app?vid=a3795853-6fd4-4683-b036-097fdac0637b","ios":"levelo://app?vid=a3795853-6fd4-4683-b036-097fdac0637b"},"vehicle_type_id":"4","last_reported":1729012148,"current_range_meters":27200,"station_id":"ce4bgl12rcd13ifvqbo0","pricing_plan_id":"cebpf4jnsgd1na2vs0mg"},{"bike_id":"a084bff0-9a46-4bdd-bd9c-790e94af5bbf","system_id":"levelo_inurba_marseille","lat":43.26964,"lon":5.38624,"is_reserved":false,"is_disabled":false,"rental_uris":{"android":"levelo://app?vid=a084bff0-9a46-4bdd-bd9c-790e94af5bbf","ios":"levelo://app?vid=a084bff0-9a46-4bdd-bd9c-790e94af5bbf"},"vehicle_type_id":"4","last_reported":1729012148,"current_range_meters":6800,"station_id":"ce4bhh92rcd13ifvqfh0","pricing_plan_id":"cebpf4jnsgd1na2vs0mg"},{"bike_id":"4b29ea64-7a12-43ba-ae2f-97eff0c12de8","system_id":"levelo_inurba_marseille","lat":43.32364,"lon":5.38879,"is_reserved":false,"is_disabled":false,"rental_uris":{"android":"levelo://app?vid=4b29ea64-7a12-43ba-ae2f-97eff0c12de8","ios":"levelo://app?vid=4b29ea64-7a12-43ba-ae2f-97eff0c12de8"},"vehicle_type_id":"4","last_reported":1729012148,"current_range_meters":32000,"station_id":"ce4bhqp2rcd13ifvqhog","pricing_plan_id":"cebpf4jnsgd1na2vs0mg"},{"bike_id":"b0b5b290-e67f-43a3-aacb-7f1c94533b70","system_id":"levelo_inurba_marseille","lat":43.29523,"lon":5.39034,"is_reserved":false,"is_disabled":false,"rental_uris":{"android":"levelo://app?vid=b0b5b290-e67f-43a3-aacb-7f1c94533b70","ios":"levelo://app?vid=b0b5b290-e67f-43a3-aacb-7f1c94533b70"},"vehicle_type_id":"4","last_reported":1729012148,"current_range_meters":8800,"station_id":"ce4bh3p2rcd13ifvqdp0","pricing_plan_id":"cebpf4jnsgd1na2vs0mg"},{"bike_id":"dea7e257-4f47-4843-9d4d-bed05710fa5c","system_id":"levelo_inurba_marseille","lat":43.2952,"lon":5.39045,"is_reserved":false,"is_disabled":false,"rental_uris":{"android":"levelo://app?vid=dea7e257-4f47-4843-9d4d-bed05710fa5c","ios":"levelo://app?vid=dea7e257-4f47-4843-9d4d-bed05710fa5c"},"vehicle_type_id":"4","last_reported":1729012148,"current_range_meters":38800,"station_id":"ce4bh3p2rcd13ifvqdp0","pricing_plan_id":"cebpf4jnsgd1na2vs0mg"},{"bike_id":"755a7622-70a2-4447-afe8-59317900f64c","system_id":"levelo_inurba_marseille","lat":43.28079,"lon":5.39669,"is_reserved":false,"is_disabled":false,"rental_uris":{"android":"levelo://app?vid=755a7622-70a2-4447-afe8-59317900f64c","ios":"levelo://app?vid=755a7622-70a2-4447-afe8-59317900f64c"},"vehicle_type_id":"4","last_reported":1729012148,"current_range_meters":28400,"station_id":"ce4bho12rcd13ifvqh2g","pricing_plan_id":"cebpf4jnsgd1na2vs0mg"},{"bike_id":"ea45a009-c009-40fd-b464-c2e21a7d582e","system_id":"levelo_inurba_marseille","lat":43.29616,"lon":5.40616,"is_reserved":false,"is_disabled":false,"rental_uris":{"android":"levelo://app?vid=ea45a009-c009-40fd-b464-c2e21a7d582e","ios":"levelo://app?vid=ea45a009-c009-40fd-b464-c2e21a7d582e"},"vehicle_type_id":"4","last_reported":1729012148,"current_range_meters":38800,"station_id":"ce4bh0h2rcd13ifvqd60","pricing_plan_id":"cebpf4jnsgd1na2vs0mg"},{"bike_id":"9097392c-d6af-4761-b54b-82aa91f40b20","system_id":"levelo_inurba_marseille","lat":43.30328,"lon":5.40437,"is_reserved":false,"is_disabled":false,"rental_uris":{"android":"levelo://app?vid=9097392c-d6af-4761-b54b-82aa91f40b20","ios":"levelo://app?vid=9097392c-d6af-4761-b54b-82aa91f40b20"},"vehicle_type_id":"4","last_reported":1729012148,"current_range_meters":8400,"station_id":"ce4bh012rcd13ifvqd10","pricing_plan_id":"cebpf4jnsgd1na2vs0mg"},{"bike_id":"e455394c-dca7-403b-a472-bafc0b5a4ced","system_id":"levelo_inurba_marseille","lat":43.31694,"lon":5.4047,"is_reserved":false,"is_disabled":false,"rental_uris":{"android":"levelo://app?vid=e455394c-dca7-403b-a472-bafc0b5a4ced","ios":"levelo://app?vid=e455394c-dca7-403b-a472-bafc0b5a4ced"},"vehicle_type_id":"4","last_reported":1729012148,"current_range_meters":38800,"station_id":"ce4bh012rcd13ifvqd00","pricing_plan_id":"cebpf4jnsgd1na2vs0mg"},{"bike_id":"b8b4bdfd-e929-4fa9-bc8a-3d8210a54882","system_id":"levelo_inurba_marseille","lat":43.29611,"lon":5.38114,"is_reserved":false,"is_disabled":false,"rental_uris":{"android":"levelo://app?vid=b8b4bdfd-e929-4fa9-bc8a-3d8210a54882","ios":"levelo://app?vid=b8b4bdfd-e929-4fa9-bc8a-3d8210a54882"},"vehicle_type_id":"4","last_reported":1729012148,"current_range_meters":14800,"station_id":"ce4bgl12rcd13ifvqbo0","pricing_plan_id":"cebpf4jnsgd1na2vs0mg"},{"bike_id":"6658fd78-b49f-4fdf-bcce-62aa711cf2d3","system_id":"levelo_inurba_marseille","lat":43.27996,"lon":5.41668,"is_reserved":false,"is_disabled":false,"rental_uris":{"android":"levelo://app?vid=6658fd78-b49f-4fdf-bcce-62aa711cf2d3","ios":"levelo://app?vid=6658fd78-b49f-4fdf-bcce-62aa711cf2d3"},"vehicle_type_id":"4","last_reported":1729012148,"current_range_meters":12000,"station_id":"ce4bho12rcd13ifvqh1g","pricing_plan_id":"cebpf4jnsgd1na2vs0mg"},{"bike_id":"d4554a91-0c69-434a-acb5-908f2f843bf0","system_id":"levelo_inurba_marseille","lat":43.29966,"lon":5.38507,"is_reserved":false,"is_disabled":false,"rental_uris":{"android":"levelo://app?vid=d4554a91-0c69-434a-acb5-908f2f843bf0","ios":"levelo://app?vid=d4554a91-0c69-434a-acb5-908f2f843bf0"},"vehicle_type_id":"4","last_reported":1729012148,"current_range_meters":3600,"station_id":"ce4bgj92rcd13ifvqbd0","pricing_plan_id":"cebpf4jnsgd1na2vs0mg"},{"bike_id":"9cf71220-ead5-413c-a359-5e709dd47dd2","system_id":"levelo_inurba_marseille","lat":43.32368,"lon":5.38881,"is_reserved":false,"is_disabled":false,"rental_uris":{"android":"levelo://app?vid=9cf71220-ead5-413c-a359-5e709dd47dd2","ios":"levelo://app?vid=9cf71220-ead5-413c-a359-5e709dd47dd2"},"vehicle_type_id":"4","last_reported":1729012148,"current_range_meters":25600,"station_id":"ce4bhqp2rcd13ifvqhog","pricing_plan_id":"cebpf4jnsgd1na2vs0mg"},{"bike_id":"5f866cdd-5cee-442e-81d2-26f78a203ab9","system_id":"levelo_inurba_marseille","lat":43.320139,"lon":5.381356,"is_reserved":false,"is_disabled":false,"rental_uris":{"android":"levelo://app?vid=5f866cdd-5cee-442e-81d2-26f78a203ab9","ios":"levelo://app?vid=5f866cdd-5cee-442e-81d2-26f78a203ab9"},"vehicle_type_id":"4","last_reported":1729012148,"current_range_meters":27600,"station_id":"ce4bhr12rcd13ifvqhpg","pricing_plan_id":"cebpf4jnsgd1na2vs0mg"},{"bike_id":"c58611c9-5610-40ca-9dff-13b158d6d313","system_id":"levelo_inurba_marseille","lat":43.3171,"lon":5.37721,"is_reserved":false,"is_disabled":false,"rental_uris":{"android":"levelo://app?vid=c58611c9-5610-40ca-9dff-13b158d6d313","ios":"levelo://app?vid=c58611c9-5610-40ca-9dff-13b158d6d313"},"vehicle_type_id":"4","last_reported":1729012148,"current_range_meters":29600,"station_id":"ce4bgth2rcd13ifvqch0","pricing_plan_id":"cebpf4jnsgd1na2vs0mg"},{"bike_id":"cac9d440-ad2e-4e2a-9c1e-dab6b4a8469b","system_id":"levelo_inurba_marseille","lat":43.27171,"lon":5.40993,"is_reserved":false,"is_disabled":false,"rental_uris":{"android":"levelo://app?vid=cac9d440-ad2e-4e2a-9c1e-dab6b4a8469b","ios":"levelo://app?vid=cac9d440-ad2e-4e2a-9c1e-dab6b4a8469b"},"vehicle_type_id":"4","last_reported":1729012148,"current_range_meters":8400,"station_id":"ce4bhl12rcd13ifvqgf0","pricing_plan_id":"cebpf4jnsgd1na2vs0mg"},{"bike_id":"eb646d5e-71f3-41a5-8f49-b168b4fba9d8","system_id":"levelo_inurba_marseille","lat":43.27816,"lon":5.40717,"is_reserved":false,"is_disabled":false,"rental_uris":{"android":"levelo://app?vid=eb646d5e-71f3-41a5-8f49-b168b4fba9d8","ios":"levelo://app?vid=eb646d5e-71f3-41a5-8f49-b168b4fba9d8"},"vehicle_type_id":"4","last_reported":1729012148,"current_range_meters":16800,"station_id":"ce4bhnh2rcd13ifvqgtg","pricing_plan_id":"cebpf4jnsgd1na2vs0mg"},{"bike_id":"fb5d908b-a080-4abb-a8e2-2ec1a990bd47","system_id":"levelo_inurba_marseille","lat":43.30882,"lon":5.39637,"is_reserved":false,"is_disabled":false,"rental_uris":{"android":"levelo://app?vid=fb5d908b-a080-4abb-a8e2-2ec1a990bd47","ios":"levelo://app?vid=fb5d908b-a080-4abb-a8e2-2ec1a990bd47"},"vehicle_type_id":"4","last_reported":1729012148,"current_range_meters":32400,"station_id":"ce4bh012rcd13ifvqcv0","pricing_plan_id":"cebpf4jnsgd1na2vs0mg"},{"bike_id":"b024b187-2d32-4268-97e1-d22ac13c47fc","system_id":"levelo_inurba_marseille","lat":43.30761,"lon":5.37659,"is_reserved":false,"is_disabled":false,"rental_uris":{"android":"levelo://app?vid=b024b187-2d32-4268-97e1-d22ac13c47fc","ios":"levelo://app?vid=b024b187-2d32-4268-97e1-d22ac13c47fc"},"vehicle_type_id":"4","last_reported":1729012148,"current_range_meters":14800,"station_id":"ce4bgv92rcd13ifvqcq0","pricing_plan_id":"cebpf4jnsgd1na2vs0mg"},{"bike_id":"9e57702a-5812-4784-854f-539e093c96ff","system_id":"levelo_inurba_marseille","lat":43.333221,"lon":5.385273,"is_reserved":false,"is_disabled":false,"rental_uris":{"android":"levelo://app?vid=9e57702a-5812-4784-854f-539e093c96ff","ios":"levelo://app?vid=9e57702a-5812-4784-854f-539e093c96ff"},"vehicle_type_id":"4","last_reported":1729012148,"current_range_meters":34800,"station_id":"ce4bhrh2rcd13ifvqhug","pricing_plan_id":"cebpf4jnsgd1na2vs0mg"},{"bike_id":"05adb47d-1266-4e21-ab38-5e328a4b3445","system_id":"levelo_inurba_marseille","lat":43.33017,"lon":5.3904,"is_reserved":false,"is_disabled":false,"rental_uris":{"android":"levelo://app?vid=05adb47d-1266-4e21-ab38-5e328a4b3445","ios":"levelo://app?vid=05adb47d-1266-4e21-ab38-5e328a4b3445"},"vehicle_type_id":"4","last_reported":1729012148,"current_range_meters":24000,"station_id":"ce4bhr92rcd13ifvqhrg","pricing_plan_id":"cebpf4jnsgd1na2vs0mg"},{"bike_id":"3771dbe0-e22d-4fb8-bf57-473d32a3a251","system_id":"levelo_inurba_marseille","lat":43.32643,"lon":5.38873,"is_reserved":false,"is_disabled":false,"rental_uris":{"android":"levelo://app?vid=3771dbe0-e22d-4fb8-bf57-473d32a3a251","ios":"levelo://app?vid=3771dbe0-e22d-4fb8-bf57-473d32a3a251"},"vehicle_type_id":"4","last_reported":1729012148,"current_range_meters":30800,"station_id":"","pricing_plan_id":"cebpf4jnsgd1na2vs0mg"},{"bike_id":"7abf5d6f-b652-4718-bd93-6c61acefccf8","system_id":"levelo_inurba_marseille","lat":43.30434,"lon":5.38888,"is_reserved":false,"is_disabled":false,"rental_uris":{"android":"levelo://app?vid=7abf5d6f-b652-4718-bd93-6c61acefccf8","ios":"levelo://app?vid=7abf5d6f-b652-4718-bd93-6c61acefccf8"},"vehicle_type_id":"4","last_reported":1729012148,"current_range_meters":16000,"station_id":"ce4bgk12rcd13ifvqbi0","pricing_plan_id":"cebpf4jnsgd1na2vs0mg"},{"bike_id":"c0670d96-b06e-446b-a07e-6b5eeebc59d7","system_id":"levelo_inurba_marseille","lat":43.274948,"lon":5.424466,"is_reserved":false,"is_disabled":false,"rental_uris":{"android":"levelo://app?vid=c0670d96-b06e-446b-a07e-6b5eeebc59d7","ios":"levelo://app?vid=c0670d96-b06e-446b-a07e-6b5eeebc59d7"},"vehicle_type_id":"4","last_reported":1729012148,"current_range_meters":11600,"station_id":"ce4bhn92rcd13ifvqgrg","pricing_plan_id":"cebpf4jnsgd1na2vs0mg"},{"bike_id":"576bb499-89e2-4ffe-b7f4-1a1fc411b1c1","system_id":"levelo_inurba_marseille","lat":43.27184,"lon":5.40989,"is_reserved":false,"is_disabled":false,"rental_uris":{"android":"levelo://app?vid=576bb499-89e2-4ffe-b7f4-1a1fc411b1c1","ios":"levelo://app?vid=576bb499-89e2-4ffe-b7f4-1a1fc411b1c1"},"vehicle_type_id":"4","last_reported":1729012148,"current_range_meters":13600,"station_id":"ce4bhl12rcd13ifvqgf0","pricing_plan_id":"cebpf4jnsgd1na2vs0mg"},{"bike_id":"a0d3d324-fa7e-4417-aee7-85012ecab44e","system_id":"levelo_inurba_marseille","lat":43.34185,"lon":5.44504,"is_reserved":false,"is_disabled":false,"rental_uris":{"android":"levelo://app?vid=a0d3d324-fa7e-4417-aee7-85012ecab44e","ios":"levelo://app?vid=a0d3d324-fa7e-4417-aee7-85012ecab44e"},"vehicle_type_id":"4","last_reported":1729012148,"current_range_meters":23200,"station_id":"","pricing_plan_id":"cebpf4jnsgd1na2vs0mg"},{"bike_id":"606ece34-cb87-4dc1-82be-66063de36eb8","system_id":"levelo_inurba_marseille","lat":43.308129,"lon":5.376784,"is_reserved":false,"is_disabled":false,"rental_uris":{"android":"levelo://app?vid=606ece34-cb87-4dc1-82be-66063de36eb8","ios":"levelo://app?vid=606ece34-cb87-4dc1-82be-66063de36eb8"},"vehicle_type_id":"4","last_reported":1729012148,"current_range_meters":20400,"station_id":"ce4bh9p2rcd13ifvqed0","pricing_plan_id":"cebpf4jnsgd1na2vs0mg"},{"bike_id":"d8753687-ab15-4f4f-bb98-cba0e3f2c0b8","system_id":"levelo_inurba_marseille","lat":43.27947,"lon":5.41053,"is_reserved":false,"is_disabled":false,"rental_uris":{"android":"levelo://app?vid=d8753687-ab15-4f4f-bb98-cba0e3f2c0b8","ios":"levelo://app?vid=d8753687-ab15-4f4f-bb98-cba0e3f2c0b8"},"vehicle_type_id":"4","last_reported":1729012148,"current_range_meters":31200,"station_id":"ce4bhnp2rcd13ifvqh0g","pricing_plan_id":"cebpf4jnsgd1na2vs0mg"},{"bike_id":"52f79488-82a8-4ae8-ad58-27d91d161bf2","system_id":"levelo_inurba_marseille","lat":43.28403,"lon":5.34996,"is_reserved":false,"is_disabled":false,"rental_uris":{"android":"levelo://app?vid=52f79488-82a8-4ae8-ad58-27d91d161bf2","ios":"levelo://app?vid=52f79488-82a8-4ae8-ad58-27d91d161bf2"},"vehicle_type_id":"4","last_reported":1729012148,"current_range_meters":4000,"station_id":"ce4bhbh2rcd13ifvqepg","pricing_plan_id":"cebpf4jnsgd1na2vs0mg"},{"bike_id":"b7428e28-6745-4120-92e8-c09822b6836a","system_id":"levelo_inurba_marseille","lat":43.27996,"lon":5.40012,"is_reserved":false,"is_disabled":false,"rental_uris":{"android":"levelo://app?vid=b7428e28-6745-4120-92e8-c09822b6836a","ios":"levelo://app?vid=b7428e28-6745-4120-92e8-c09822b6836a"},"vehicle_type_id":"4","last_reported":1729012148,"current_range_meters":22400,"station_id":"ce4bho92rcd13ifvqh4g","pricing_plan_id":"cebpf4jnsgd1na2vs0mg"},{"bike_id":"92fe5824-5d80-40ad-ae00-2df8f288f7b1","system_id":"levelo_inurba_marseille","lat":43.302856,"lon":5.36652,"is_reserved":false,"is_disabled":false,"rental_uris":{"android":"levelo://app?vid=92fe5824-5d80-40ad-ae00-2df8f288f7b1","ios":"levelo://app?vid=92fe5824-5d80-40ad-ae00-2df8f288f7b1"},"vehicle_type_id":"4","last_reported":1729012148,"current_range_meters":38000,"station_id":"ce4bgv92rcd13ifvqcq0","pricing_plan_id":"cebpf4jnsgd1na2vs0mg"},{"bike_id":"0994d7f0-fa2e-480f-b967-2b1e1b476b78","system_id":"levelo_inurba_marseille","lat":43.23189,"lon":5.35569,"is_reserved":false,"is_disabled":false,"rental_uris":{"android":"levelo://app?vid=0994d7f0-fa2e-480f-b967-2b1e1b476b78","ios":"levelo://app?vid=0994d7f0-fa2e-480f-b967-2b1e1b476b78"},"vehicle_type_id":"4","last_reported":1729012148,"current_range_meters":25600,"station_id":"ce4bhu92rcd13ifvqi70","pricing_plan_id":"cebpf4jnsgd1na2vs0mg"},{"bike_id":"4d423de8-5e22-441a-8848-ae5dc9d8eb39","system_id":"levelo_inurba_marseille","lat":43.33726,"lon":5.37455,"is_reserved":false,"is_disabled":false,"rental_uris":{"android":"levelo://app?vid=4d423de8-5e22-441a-8848-ae5dc9d8eb39","ios":"levelo://app?vid=4d423de8-5e22-441a-8848-ae5dc9d8eb39"},"vehicle_type_id":"4","last_reported":1729012148,"current_range_meters":9200,"station_id":"","pricing_plan_id":"cebpf4jnsgd1na2vs0mg"},{"bike_id":"61332f57-3740-4dcc-9c62-235d83cd6de1","system_id":"levelo_inurba_marseille","lat":43.29523,"lon":5.39047,"is_reserved":false,"is_disabled":false,"rental_uris":{"android":"levelo://app?vid=61332f57-3740-4dcc-9c62-235d83cd6de1","ios":"levelo://app?vid=61332f57-3740-4dcc-9c62-235d83cd6de1"},"vehicle_type_id":"4","last_reported":1729012148,"current_range_meters":38800,"station_id":"ce4bh3p2rcd13ifvqdp0","pricing_plan_id":"cebpf4jnsgd1na2vs0mg"},{"bike_id":"8d7e6ebd-32ae-47fa-bb37-b1fca1a3f366","system_id":"levelo_inurba_marseille","lat":43.28039,"lon":5.36947,"is_reserved":false,"is_disabled":false,"rental_uris":{"android":"levelo://app?vid=8d7e6ebd-32ae-47fa-bb37-b1fca1a3f366","ios":"levelo://app?vid=8d7e6ebd-32ae-47fa-bb37-b1fca1a3f366"},"vehicle_type_id":"4","last_reported":1729012148,"current_range_meters":21600,"station_id":"ce4bha12rcd13ifvqef0","pricing_plan_id":"cebpf4jnsgd1na2vs0mg"},{"bike_id":"8f1473c8-5614-4fe5-9a08-5f8d5d6a0adb","system_id":"levelo_inurba_marseille","lat":43.32108,"lon":5.36778,"is_reserved":false,"is_disabled":false,"rental_uris":{"android":"levelo://app?vid=8f1473c8-5614-4fe5-9a08-5f8d5d6a0adb","ios":"levelo://app?vid=8f1473c8-5614-4fe5-9a08-5f8d5d6a0adb"},"vehicle_type_id":"4","last_reported":1729012148,"current_range_meters":25600,"station_id":"ce4bhrh2rcd13ifvqhug","pricing_plan_id":"cebpf4jnsgd1na2vs0mg"},{"bike_id":"88b732a4-97c0-47d5-a291-cd3e45a259d7","system_id":"levelo_inurba_marseille","lat":43.30144,"lon":5.38767,"is_reserved":false,"is_disabled":false,"rental_uris":{"android":"levelo://app?vid=88b732a4-97c0-47d5-a291-cd3e45a259d7","ios":"levelo://app?vid=88b732a4-97c0-47d5-a291-cd3e45a259d7"},"vehicle_type_id":"4","last_reported":1729012148,"current_range_meters":11200,"station_id":"ce4bghh2rcd13ifvqb60","pricing_plan_id":"cebpf4jnsgd1na2vs0mg"},{"bike_id":"1035de25-a0cd-4d40-bc2e-4170835be9b3","system_id":"levelo_inurba_marseille","lat":43.28154,"lon":5.42648,"is_reserved":false,"is_disabled":false,"rental_uris":{"android":"levelo://app?vid=1035de25-a0cd-4d40-bc2e-4170835be9b3","ios":"levelo://app?vid=1035de25-a0cd-4d40-bc2e-4170835be9b3"},"vehicle_type_id":"4","last_reported":1729012148,"current_range_meters":28800,"station_id":"ce4bhnh2rcd13ifvqgug","pricing_plan_id":"cebpf4jnsgd1na2vs0mg"},{"bike_id":"9ba006d8-03bb-48de-b41d-0308a6f7b450","system_id":"levelo_inurba_marseille","lat":43.31105,"lon":5.40198,"is_reserved":false,"is_disabled":false,"rental_uris":{"android":"levelo://app?vid=9ba006d8-03bb-48de-b41d-0308a6f7b450","ios":"levelo://app?vid=9ba006d8-03bb-48de-b41d-0308a6f7b450"},"vehicle_type_id":"4","last_reported":1729012148,"current_range_meters":38000,"station_id":"ce4bh112rcd13ifvqda0","pricing_plan_id":"cebpf4jnsgd1na2vs0mg"},{"bike_id":"1d7243af-83cb-4d47-b263-1b1f356427dc","system_id":"levelo_inurba_marseille","lat":43.28031,"lon":5.3695,"is_reserved":false,"is_disabled":false,"rental_uris":{"android":"levelo://app?vid=1d7243af-83cb-4d47-b263-1b1f356427dc","ios":"levelo://app?vid=1d7243af-83cb-4d47-b263-1b1f356427dc"},"vehicle_type_id":"4","last_reported":1729012148,"current_range_meters":27600,"station_id":"ce4bha12rcd13ifvqef0","pricing_plan_id":"cebpf4jnsgd1na2vs0mg"},{"bike_id":"e084d3b6-fcfe-4f8b-9130-92054313ed0a","system_id":"levelo_inurba_marseille","lat":43.32365,"lon":5.38883,"is_reserved":false,"is_disabled":false,"rental_uris":{"android":"levelo://app?vid=e084d3b6-fcfe-4f8b-9130-92054313ed0a","ios":"levelo://app?vid=e084d3b6-fcfe-4f8b-9130-92054313ed0a"},"vehicle_type_id":"4","last_reported":1729012148,"current_range_meters":4400,"station_id":"ce4bhqp2rcd13ifvqhog","pricing_plan_id":"cebpf4jnsgd1na2vs0mg"},{"bike_id":"2140b6a3-5118-4150-823e-9225aeb56201","system_id":"levelo_inurba_marseille","lat":43.23195,"lon":5.3555,"is_reserved":false,"is_disabled":false,"rental_uris":{"android":"levelo://app?vid=2140b6a3-5118-4150-823e-9225aeb56201","ios":"levelo://app?vid=2140b6a3-5118-4150-823e-9225aeb56201"},"vehicle_type_id":"4","last_reported":1729012148,"current_range_meters":8400,"station_id":"ce4bhu92rcd13ifvqi70","pricing_plan_id":"cebpf4jnsgd1na2vs0mg"},{"bike_id":"88045875-502e-4fac-a4b2-4a2f10ca8308","system_id":"levelo_inurba_marseille","lat":43.27941,"lon":5.41046,"is_reserved":false,"is_disabled":false,"rental_uris":{"android":"levelo://app?vid=88045875-502e-4fac-a4b2-4a2f10ca8308","ios":"levelo://app?vid=88045875-502e-4fac-a4b2-4a2f10ca8308"},"vehicle_type_id":"4","last_reported":1729012148,"current_range_meters":5600,"station_id":"ce4bhnp2rcd13ifvqh0g","pricing_plan_id":"cebpf4jnsgd1na2vs0mg"},{"bike_id":"b066b390-107f-4d61-9be1-8b16be42b5b4","system_id":"levelo_inurba_marseille","lat":43.25001,"lon":5.38924,"is_reserved":false,"is_disabled":false,"rental_uris":{"android":"levelo://app?vid=b066b390-107f-4d61-9be1-8b16be42b5b4","ios":"levelo://app?vid=b066b390-107f-4d61-9be1-8b16be42b5b4"},"vehicle_type_id":"4","last_reported":1729012148,"current_range_meters":12000,"station_id":"ce4bhgp2rcd13ifvqfd0","pricing_plan_id":"cebpf4jnsgd1na2vs0mg"},{"bike_id":"8b4ffc5a-1db3-401d-a1d4-87f59e28f239","system_id":"levelo_inurba_marseille","lat":43.29637,"lon":5.40596,"is_reserved":false,"is_disabled":false,"rental_uris":{"android":"levelo://app?vid=8b4ffc5a-1db3-401d-a1d4-87f59e28f239","ios":"levelo://app?vid=8b4ffc5a-1db3-401d-a1d4-87f59e28f239"},"vehicle_type_id":"4","last_reported":1729012148,"current_range_meters":38400,"station_id":"ce4bh0h2rcd13ifvqd60","pricing_plan_id":"cebpf4jnsgd1na2vs0mg"},{"bike_id":"af0a2188-ee17-43ae-9100-2e0e68ed45e5","system_id":"levelo_inurba_marseille","lat":43.280445,"lon":5.369514,"is_reserved":false,"is_disabled":false,"rental_uris":{"android":"levelo://app?vid=af0a2188-ee17-43ae-9100-2e0e68ed45e5","ios":"levelo://app?vid=af0a2188-ee17-43ae-9100-2e0e68ed45e5"},"vehicle_type_id":"4","last_reported":1729012148,"current_range_meters":8000,"station_id":"ce4bhi12rcd13ifvqfp0","pricing_plan_id":"cebpf4jnsgd1na2vs0mg"},{"bike_id":"a3e0e9a9-3ae6-4e0d-be69-f0b3a6bbf8ce","system_id":"levelo_inurba_marseille","lat":43.28439,"lon":5.39209,"is_reserved":false,"is_disabled":false,"rental_uris":{"android":"levelo://app?vid=a3e0e9a9-3ae6-4e0d-be69-f0b3a6bbf8ce","ios":"levelo://app?vid=a3e0e9a9-3ae6-4e0d-be69-f0b3a6bbf8ce"},"vehicle_type_id":"4","last_reported":1729012148,"current_range_meters":39200,"station_id":"ce4bhoh2rcd13ifvqh5g","pricing_plan_id":"cebpf4jnsgd1na2vs0mg"},{"bike_id":"679f4f3c-0203-4f7d-9836-538010d8d024","system_id":"levelo_inurba_marseille","lat":43.2803,"lon":5.36935,"is_reserved":false,"is_disabled":false,"rental_uris":{"android":"levelo://app?vid=679f4f3c-0203-4f7d-9836-538010d8d024","ios":"levelo://app?vid=679f4f3c-0203-4f7d-9836-538010d8d024"},"vehicle_type_id":"4","last_reported":1729012148,"current_range_meters":4400,"station_id":"ce4bha12rcd13ifvqef0","pricing_plan_id":"cebpf4jnsgd1na2vs0mg"},{"bike_id":"8c18e7a3-256d-4a3b-b531-a11dc24afda6","system_id":"levelo_inurba_marseille","lat":43.31996,"lon":5.38157,"is_reserved":false,"is_disabled":false,"rental_uris":{"android":"levelo://app?vid=8c18e7a3-256d-4a3b-b531-a11dc24afda6","ios":"levelo://app?vid=8c18e7a3-256d-4a3b-b531-a11dc24afda6"},"vehicle_type_id":"4","last_reported":1729012148,"current_range_meters":24400,"station_id":"ce4bhr12rcd13ifvqhpg","pricing_plan_id":"cebpf4jnsgd1na2vs0mg"},{"bike_id":"89211ee2-076f-4df3-92bd-cd8885f2e76d","system_id":"levelo_inurba_marseille","lat":43.23194,"lon":5.35557,"is_reserved":false,"is_disabled":false,"rental_uris":{"android":"levelo://app?vid=89211ee2-076f-4df3-92bd-cd8885f2e76d","ios":"levelo://app?vid=89211ee2-076f-4df3-92bd-cd8885f2e76d"},"vehicle_type_id":"4","last_reported":1729012148,"current_range_meters":38800,"station_id":"ce4bhu92rcd13ifvqi70","pricing_plan_id":"cebpf4jnsgd1na2vs0mg"},{"bike_id":"9dabbb9f-2820-49db-acc7-73662a324005","system_id":"levelo_inurba_marseille","lat":43.33724,"lon":5.3919,"is_reserved":false,"is_disabled":false,"rental_uris":{"android":"levelo://app?vid=9dabbb9f-2820-49db-acc7-73662a324005","ios":"levelo://app?vid=9dabbb9f-2820-49db-acc7-73662a324005"},"vehicle_type_id":"4","last_reported":1729012148,"current_range_meters":36400,"station_id":"ce4bhr92rcd13ifvqhsg","pricing_plan_id":"cebpf4jnsgd1na2vs0mg"},{"bike_id":"042dd376-8cea-4aaa-91ce-a2d0528ee8f2","system_id":"levelo_inurba_marseille","lat":43.30933,"lon":5.40158,"is_reserved":false,"is_disabled":false,"rental_uris":{"android":"levelo://app?vid=042dd376-8cea-4aaa-91ce-a2d0528ee8f2","ios":"levelo://app?vid=042dd376-8cea-4aaa-91ce-a2d0528ee8f2"},"vehicle_type_id":"4","last_reported":1729012148,"current_range_meters":9600,"station_id":"ce4bgvp2rcd13ifvqct0","pricing_plan_id":"cebpf4jnsgd1na2vs0mg"},{"bike_id":"f8278ac5-d1d7-48a6-8828-cd0ddbd5e94e","system_id":"levelo_inurba_marseille","lat":43.30797,"lon":5.4353,"is_reserved":false,"is_disabled":false,"rental_uris":{"android":"levelo://app?vid=f8278ac5-d1d7-48a6-8828-cd0ddbd5e94e","ios":"levelo://app?vid=f8278ac5-d1d7-48a6-8828-cd0ddbd5e94e"},"vehicle_type_id":"4","last_reported":1729012148,"current_range_meters":12800,"station_id":"ce4bhph2rcd13ifvqheg","pricing_plan_id":"cebpf4jnsgd1na2vs0mg"},{"bike_id":"313f88ff-d469-4549-bdd1-0d5c14177660","system_id":"levelo_inurba_marseille","lat":43.28459,"lon":5.35891,"is_reserved":false,"is_disabled":false,"rental_uris":{"android":"levelo://app?vid=313f88ff-d469-4549-bdd1-0d5c14177660","ios":"levelo://app?vid=313f88ff-d469-4549-bdd1-0d5c14177660"},"vehicle_type_id":"4","last_reported":1729012148,"current_range_meters":5600,"station_id":"ce4bhah2rcd13ifvqei0","pricing_plan_id":"cebpf4jnsgd1na2vs0mg"},{"bike_id":"0d2822b6-9770-457d-b50c-79b92c006463","system_id":"levelo_inurba_marseille","lat":43.308563,"lon":5.38894,"is_reserved":false,"is_disabled":false,"rental_uris":{"android":"levelo://app?vid=0d2822b6-9770-457d-b50c-79b92c006463","ios":"levelo://app?vid=0d2822b6-9770-457d-b50c-79b92c006463"},"vehicle_type_id":"4","last_reported":1729012148,"current_range_meters":25600,"station_id":"","pricing_plan_id":"cebpf4jnsgd1na2vs0mg"},{"bike_id":"422fdabc-7db0-48d0-ae9a-158d83dedbd1","system_id":"levelo_inurba_marseille","lat":43.26946,"lon":5.40244,"is_reserved":false,"is_disabled":false,"rental_uris":{"android":"levelo://app?vid=422fdabc-7db0-48d0-ae9a-158d83dedbd1","ios":"levelo://app?vid=422fdabc-7db0-48d0-ae9a-158d83dedbd1"},"vehicle_type_id":"4","last_reported":1729012148,"current_range_meters":8000,"station_id":"cjm6bp8fraef2m0cb0m0","pricing_plan_id":"cebpf4jnsgd1na2vs0mg"},{"bike_id":"05768fcd-4c88-46a5-a28b-8fab8f860baa","system_id":"levelo_inurba_marseille","lat":43.2781,"lon":5.40724,"is_reserved":false,"is_disabled":false,"rental_uris":{"android":"levelo://app?vid=05768fcd-4c88-46a5-a28b-8fab8f860baa","ios":"levelo://app?vid=05768fcd-4c88-46a5-a28b-8fab8f860baa"},"vehicle_type_id":"4","last_reported":1729012148,"current_range_meters":38000,"station_id":"ce4bhnh2rcd13ifvqgtg","pricing_plan_id":"cebpf4jnsgd1na2vs0mg"},{"bike_id":"24a1af4c-24a0-490a-b4bc-38ee390e8a56","system_id":"levelo_inurba_marseille","lat":43.28456,"lon":5.35889,"is_reserved":false,"is_disabled":false,"rental_uris":{"android":"levelo://app?vid=24a1af4c-24a0-490a-b4bc-38ee390e8a56","ios":"levelo://app?vid=24a1af4c-24a0-490a-b4bc-38ee390e8a56"},"vehicle_type_id":"4","last_reported":1729012148,"current_range_meters":7200,"station_id":"ce4bhah2rcd13ifvqei0","pricing_plan_id":"cebpf4jnsgd1na2vs0mg"},{"bike_id":"308833c0-3934-4794-8f09-11c61383e760","system_id":"levelo_inurba_marseille","lat":43.2902,"lon":5.38149,"is_reserved":false,"is_disabled":false,"rental_uris":{"android":"levelo://app?vid=308833c0-3934-4794-8f09-11c61383e760","ios":"levelo://app?vid=308833c0-3934-4794-8f09-11c61383e760"},"vehicle_type_id":"4","last_reported":1729012148,"current_range_meters":38800,"station_id":"ce4bh4p2rcd13ifvqe1g","pricing_plan_id":"cebpf4jnsgd1na2vs0mg"},{"bike_id":"ff96eee3-1ac8-4888-9ae7-e4b6cc8154af","system_id":"levelo_inurba_marseille","lat":43.33739,"lon":5.3746,"is_reserved":false,"is_disabled":false,"rental_uris":{"android":"levelo://app?vid=ff96eee3-1ac8-4888-9ae7-e4b6cc8154af","ios":"levelo://app?vid=ff96eee3-1ac8-4888-9ae7-e4b6cc8154af"},"vehicle_type_id":"4","last_reported":1729012148,"current_range_meters":33200,"station_id":"","pricing_plan_id":"cebpf4jnsgd1na2vs0mg"},{"bike_id":"cf49c6fe-8b11-4853-a922-e0436257c977","system_id":"levelo_inurba_marseille","lat":43.28157,"lon":5.42639,"is_reserved":false,"is_disabled":false,"rental_uris":{"android":"levelo://app?vid=cf49c6fe-8b11-4853-a922-e0436257c977","ios":"levelo://app?vid=cf49c6fe-8b11-4853-a922-e0436257c977"},"vehicle_type_id":"4","last_reported":1729012148,"current_range_meters":4000,"station_id":"ce4bhnh2rcd13ifvqgug","pricing_plan_id":"cebpf4jnsgd1na2vs0mg"},{"bike_id":"b1dabc6e-6ec9-48a1-8d4a-99314934c66a","system_id":"levelo_inurba_marseille","lat":43.28411,"lon":5.34989,"is_reserved":false,"is_disabled":false,"rental_uris":{"android":"levelo://app?vid=b1dabc6e-6ec9-48a1-8d4a-99314934c66a","ios":"levelo://app?vid=b1dabc6e-6ec9-48a1-8d4a-99314934c66a"},"vehicle_type_id":"4","last_reported":1729012148,"current_range_meters":34000,"station_id":"ce4bhbh2rcd13ifvqepg","pricing_plan_id":"cebpf4jnsgd1na2vs0mg"},{"bike_id":"3af3283c-74d9-4b31-ab5b-b4fcda7f41a2","system_id":"levelo_inurba_marseille","lat":43.25499,"lon":5.37654,"is_reserved":false,"is_disabled":false,"rental_uris":{"android":"levelo://app?vid=3af3283c-74d9-4b31-ab5b-b4fcda7f41a2","ios":"levelo://app?vid=3af3283c-74d9-4b31-ab5b-b4fcda7f41a2"},"vehicle_type_id":"4","last_reported":1729012148,"current_range_meters":26000,"station_id":"ce4bhh12rcd13ifvqff0","pricing_plan_id":"cebpf4jnsgd1na2vs0mg"},{"bike_id":"e649a8ce-44ff-4791-b25f-d093a6ab6aea","system_id":"levelo_inurba_marseille","lat":43.31355,"lon":5.385,"is_reserved":false,"is_disabled":false,"rental_uris":{"android":"levelo://app?vid=e649a8ce-44ff-4791-b25f-d093a6ab6aea","ios":"levelo://app?vid=e649a8ce-44ff-4791-b25f-d093a6ab6aea"},"vehicle_type_id":"4","last_reported":1729012148,"current_range_meters":12800,"station_id":"ce4bgt92rcd13ifvqcf0","pricing_plan_id":"cebpf4jnsgd1na2vs0mg"},{"bike_id":"f3441ff6-118e-4184-8319-c9ce42e423a8","system_id":"levelo_inurba_marseille","lat":43.27938,"lon":5.41043,"is_reserved":false,"is_disabled":false,"rental_uris":{"android":"levelo://app?vid=f3441ff6-118e-4184-8319-c9ce42e423a8","ios":"levelo://app?vid=f3441ff6-118e-4184-8319-c9ce42e423a8"},"vehicle_type_id":"4","last_reported":1729012148,"current_range_meters":11200,"station_id":"ce4bhnp2rcd13ifvqh0g","pricing_plan_id":"cebpf4jnsgd1na2vs0mg"},{"bike_id":"ff348505-dd89-4975-8f28-290a95a34784","system_id":"levelo_inurba_marseille","lat":43.30328,"lon":5.40441,"is_reserved":false,"is_disabled":false,"rental_uris":{"android":"levelo://app?vid=ff348505-dd89-4975-8f28-290a95a34784","ios":"levelo://app?vid=ff348505-dd89-4975-8f28-290a95a34784"},"vehicle_type_id":"4","last_reported":1729012148,"current_range_meters":39200,"station_id":"ce4bh012rcd13ifvqd10","pricing_plan_id":"cebpf4jnsgd1na2vs0mg"},{"bike_id":"518eae26-0512-481d-a6d0-d16cfd19fb16","system_id":"levelo_inurba_marseille","lat":43.27814,"lon":5.40716,"is_reserved":false,"is_disabled":false,"rental_uris":{"android":"levelo://app?vid=518eae26-0512-481d-a6d0-d16cfd19fb16","ios":"levelo://app?vid=518eae26-0512-481d-a6d0-d16cfd19fb16"},"vehicle_type_id":"4","last_reported":1729012148,"current_range_meters":12400,"station_id":"ce4bhnh2rcd13ifvqgtg","pricing_plan_id":"cebpf4jnsgd1na2vs0mg"},{"bike_id":"b3703aea-fc93-4bee-81e1-e90ce9fdb056","system_id":"levelo_inurba_marseille","lat":43.28151,"lon":5.42647,"is_reserved":false,"is_disabled":false,"rental_uris":{"android":"levelo://app?vid=b3703aea-fc93-4bee-81e1-e90ce9fdb056","ios":"levelo://app?vid=b3703aea-fc93-4bee-81e1-e90ce9fdb056"},"vehicle_type_id":"4","last_reported":1729012148,"current_range_meters":28800,"station_id":"ce4bhnh2rcd13ifvqgug","pricing_plan_id":"cebpf4jnsgd1na2vs0mg"},{"bike_id":"292b9425-1372-40d4-bf0a-fe57aa779a41","system_id":"levelo_inurba_marseille","lat":43.23063,"lon":5.35495,"is_reserved":false,"is_disabled":false,"rental_uris":{"android":"levelo://app?vid=292b9425-1372-40d4-bf0a-fe57aa779a41","ios":"levelo://app?vid=292b9425-1372-40d4-bf0a-fe57aa779a41"},"vehicle_type_id":"4","last_reported":1729012148,"current_range_meters":32400,"station_id":"cpo3342slgdg3j2ifvpg","pricing_plan_id":"cebpf4jnsgd1na2vs0mg"},{"bike_id":"f6e489d5-2b26-4c9a-8a4a-e05f35e91c1e","system_id":"levelo_inurba_marseille","lat":43.28072,"lon":5.39658,"is_reserved":false,"is_disabled":false,"rental_uris":{"android":"levelo://app?vid=f6e489d5-2b26-4c9a-8a4a-e05f35e91c1e","ios":"levelo://app?vid=f6e489d5-2b26-4c9a-8a4a-e05f35e91c1e"},"vehicle_type_id":"4","last_reported":1729012148,"current_range_meters":4400,"station_id":"ce4bho12rcd13ifvqh2g","pricing_plan_id":"cebpf4jnsgd1na2vs0mg"},{"bike_id":"3efe7129-fd44-4781-8502-7c0743d263f4","system_id":"levelo_inurba_marseille","lat":43.29962,"lon":5.38504,"is_reserved":false,"is_disabled":false,"rental_uris":{"android":"levelo://app?vid=3efe7129-fd44-4781-8502-7c0743d263f4","ios":"levelo://app?vid=3efe7129-fd44-4781-8502-7c0743d263f4"},"vehicle_type_id":"4","last_reported":1729012148,"current_range_meters":19600,"station_id":"ce4bgj92rcd13ifvqbd0","pricing_plan_id":"cebpf4jnsgd1na2vs0mg"},{"bike_id":"7cc9d172-bf43-40ee-94c6-03e8d6dc0154","system_id":"levelo_inurba_marseille","lat":43.29851,"lon":5.36283,"is_reserved":false,"is_disabled":false,"rental_uris":{"android":"levelo://app?vid=7cc9d172-bf43-40ee-94c6-03e8d6dc0154","ios":"levelo://app?vid=7cc9d172-bf43-40ee-94c6-03e8d6dc0154"},"vehicle_type_id":"4","last_reported":1729012148,"current_range_meters":4000,"station_id":"ce4bgpp2rcd13ifvqc3g","pricing_plan_id":"cebpf4jnsgd1na2vs0mg"},{"bike_id":"c51f4641-9b2d-468e-9bbf-bb6800d077d7","system_id":"levelo_inurba_marseille","lat":43.326672,"lon":5.409893,"is_reserved":false,"is_disabled":false,"rental_uris":{"android":"levelo://app?vid=c51f4641-9b2d-468e-9bbf-bb6800d077d7","ios":"levelo://app?vid=c51f4641-9b2d-468e-9bbf-bb6800d077d7"},"vehicle_type_id":"4","last_reported":1729012148,"current_range_meters":2000,"station_id":"ce4bhpp2rcd13ifvqhgg","pricing_plan_id":"cebpf4jnsgd1na2vs0mg"},{"bike_id":"90cec82f-fec6-44bb-8118-12feba593cd4","system_id":"levelo_inurba_marseille","lat":43.28153,"lon":5.42646,"is_reserved":false,"is_disabled":false,"rental_uris":{"android":"levelo://app?vid=90cec82f-fec6-44bb-8118-12feba593cd4","ios":"levelo://app?vid=90cec82f-fec6-44bb-8118-12feba593cd4"},"vehicle_type_id":"4","last_reported":1729012148,"current_range_meters":17200,"station_id":"ce4bhnh2rcd13ifvqgug","pricing_plan_id":"cebpf4jnsgd1na2vs0mg"},{"bike_id":"8c743dfd-4d21-459e-bd89-3c0bf685bc88","system_id":"levelo_inurba_marseille","lat":43.25502,"lon":5.37653,"is_reserved":false,"is_disabled":false,"rental_uris":{"android":"levelo://app?vid=8c743dfd-4d21-459e-bd89-3c0bf685bc88","ios":"levelo://app?vid=8c743dfd-4d21-459e-bd89-3c0bf685bc88"},"vehicle_type_id":"4","last_reported":1729012148,"current_range_meters":12400,"station_id":"ce4bhh12rcd13ifvqff0","pricing_plan_id":"cebpf4jnsgd1na2vs0mg"},{"bike_id":"d06f24f3-1961-4c39-8b26-c72733863fe9","system_id":"levelo_inurba_marseille","lat":43.33781,"lon":5.37443,"is_reserved":false,"is_disabled":false,"rental_uris":{"android":"levelo://app?vid=d06f24f3-1961-4c39-8b26-c72733863fe9","ios":"levelo://app?vid=d06f24f3-1961-4c39-8b26-c72733863fe9"},"vehicle_type_id":"4","last_reported":1729012148,"current_range_meters":24000,"station_id":"","pricing_plan_id":"cebpf4jnsgd1na2vs0mg"},{"bike_id":"c3b2b2f2-3fd7-48cd-a4bf-79bb52b5799e","system_id":"levelo_inurba_marseille","lat":43.28161,"lon":5.42639,"is_reserved":false,"is_disabled":false,"rental_uris":{"android":"levelo://app?vid=c3b2b2f2-3fd7-48cd-a4bf-79bb52b5799e","ios":"levelo://app?vid=c3b2b2f2-3fd7-48cd-a4bf-79bb52b5799e"},"vehicle_type_id":"4","last_reported":1729012148,"current_range_meters":26000,"station_id":"ce4bhnh2rcd13ifvqgug","pricing_plan_id":"cebpf4jnsgd1na2vs0mg"},{"bike_id":"034bcb99-59d5-42bc-be12-bd2687f36f8e","system_id":"levelo_inurba_marseille","lat":43.30325,"lon":5.40437,"is_reserved":false,"is_disabled":false,"rental_uris":{"android":"levelo://app?vid=034bcb99-59d5-42bc-be12-bd2687f36f8e","ios":"levelo://app?vid=034bcb99-59d5-42bc-be12-bd2687f36f8e"},"vehicle_type_id":"4","last_reported":1729012148,"current_range_meters":20400,"station_id":"ce4bh012rcd13ifvqd10","pricing_plan_id":"cebpf4jnsgd1na2vs0mg"},{"bike_id":"313c4070-6c0b-49e7-b6c7-5fe5f74ff6a1","system_id":"levelo_inurba_marseille","lat":43.24647,"lon":5.38892,"is_reserved":false,"is_disabled":false,"rental_uris":{"android":"levelo://app?vid=313c4070-6c0b-49e7-b6c7-5fe5f74ff6a1","ios":"levelo://app?vid=313c4070-6c0b-49e7-b6c7-5fe5f74ff6a1"},"vehicle_type_id":"4","last_reported":1729012148,"current_range_meters":3600,"station_id":"ce4bhg12rcd13ifvqf60","pricing_plan_id":"cebpf4jnsgd1na2vs0mg"},{"bike_id":"b3540a48-b930-4f1f-8764-644ac9839ef9","system_id":"levelo_inurba_marseille","lat":43.27618,"lon":5.3612,"is_reserved":false,"is_disabled":false,"rental_uris":{"android":"levelo://app?vid=b3540a48-b930-4f1f-8764-644ac9839ef9","ios":"levelo://app?vid=b3540a48-b930-4f1f-8764-644ac9839ef9"},"vehicle_type_id":"4","last_reported":1729012148,"current_range_meters":39200,"station_id":"ce4bgj92rcd13ifvqbe0","pricing_plan_id":"cebpf4jnsgd1na2vs0mg"},{"bike_id":"1145e9a3-86fb-4f9c-a8a9-89e242947b54","system_id":"levelo_inurba_marseille","lat":43.279053,"lon":5.395727,"is_reserved":false,"is_disabled":false,"rental_uris":{"android":"levelo://app?vid=1145e9a3-86fb-4f9c-a8a9-89e242947b54","ios":"levelo://app?vid=1145e9a3-86fb-4f9c-a8a9-89e242947b54"},"vehicle_type_id":"4","last_reported":1729012148,"current_range_meters":5600,"station_id":"ce4bhf92rcd13ifvqf40","pricing_plan_id":"cebpf4jnsgd1na2vs0mg"},{"bike_id":"d41309ab-1a1f-4395-acaa-455483c3f8e1","system_id":"levelo_inurba_marseille","lat":43.23195,"lon":5.3555,"is_reserved":false,"is_disabled":false,"rental_uris":{"android":"levelo://app?vid=d41309ab-1a1f-4395-acaa-455483c3f8e1","ios":"levelo://app?vid=d41309ab-1a1f-4395-acaa-455483c3f8e1"},"vehicle_type_id":"4","last_reported":1729012148,"current_range_meters":31200,"station_id":"ce4bhu92rcd13ifvqi70","pricing_plan_id":"cebpf4jnsgd1na2vs0mg"},{"bike_id":"9d23ae5c-6731-49b8-90f0-c4bb43364d28","system_id":"levelo_inurba_marseille","lat":43.28998,"lon":5.39995,"is_reserved":false,"is_disabled":false,"rental_uris":{"android":"levelo://app?vid=9d23ae5c-6731-49b8-90f0-c4bb43364d28","ios":"levelo://app?vid=9d23ae5c-6731-49b8-90f0-c4bb43364d28"},"vehicle_type_id":"4","last_reported":1729012148,"current_range_meters":8800,"station_id":"","pricing_plan_id":"cebpf4jnsgd1na2vs0mg"},{"bike_id":"a2fe5107-de00-496a-b23e-67cc7f613d84","system_id":"levelo_inurba_marseille","lat":43.24543,"lon":5.39542,"is_reserved":false,"is_disabled":false,"rental_uris":{"android":"levelo://app?vid=a2fe5107-de00-496a-b23e-67cc7f613d84","ios":"levelo://app?vid=a2fe5107-de00-496a-b23e-67cc7f613d84"},"vehicle_type_id":"4","last_reported":1729012148,"current_range_meters":9200,"station_id":"ce4bhlp2rcd13ifvqgjg","pricing_plan_id":"cebpf4jnsgd1na2vs0mg"},{"bike_id":"f83dcdb9-999b-4694-b01b-026d4a069601","system_id":"levelo_inurba_marseille","lat":43.33024,"lon":5.39042,"is_reserved":false,"is_disabled":false,"rental_uris":{"android":"levelo://app?vid=f83dcdb9-999b-4694-b01b-026d4a069601","ios":"levelo://app?vid=f83dcdb9-999b-4694-b01b-026d4a069601"},"vehicle_type_id":"4","last_reported":1729012148,"current_range_meters":16800,"station_id":"ce4bhr92rcd13ifvqhrg","pricing_plan_id":"cebpf4jnsgd1na2vs0mg"},{"bike_id":"e137d8df-89bc-4e8b-bf06-e5f8ffd35017","system_id":"levelo_inurba_marseille","lat":43.25813,"lon":5.39442,"is_reserved":false,"is_disabled":false,"rental_uris":{"android":"levelo://app?vid=e137d8df-89bc-4e8b-bf06-e5f8ffd35017","ios":"levelo://app?vid=e137d8df-89bc-4e8b-bf06-e5f8ffd35017"},"vehicle_type_id":"4","last_reported":1729012148,"current_range_meters":14000,"station_id":"ce4bhip2rcd13ifvqft0","pricing_plan_id":"cebpf4jnsgd1na2vs0mg"},{"bike_id":"0724a63d-c145-4795-ad54-b55f7e9a3795","system_id":"levelo_inurba_marseille","lat":43.28861,"lon":5.35847,"is_reserved":false,"is_disabled":false,"rental_uris":{"android":"levelo://app?vid=0724a63d-c145-4795-ad54-b55f7e9a3795","ios":"levelo://app?vid=0724a63d-c145-4795-ad54-b55f7e9a3795"},"vehicle_type_id":"4","last_reported":1729012148,"current_range_meters":38000,"station_id":"ce4bhb12rcd13ifvqem0","pricing_plan_id":"cebpf4jnsgd1na2vs0mg"},{"bike_id":"70604fe2-152f-4b98-a745-b6e59b00ce84","system_id":"levelo_inurba_marseille","lat":43.3229,"lon":5.38273,"is_reserved":false,"is_disabled":false,"rental_uris":{"android":"levelo://app?vid=70604fe2-152f-4b98-a745-b6e59b00ce84","ios":"levelo://app?vid=70604fe2-152f-4b98-a745-b6e59b00ce84"},"vehicle_type_id":"4","last_reported":1729012148,"current_range_meters":12400,"station_id":"ce4bhr12rcd13ifvqhqg","pricing_plan_id":"cebpf4jnsgd1na2vs0mg"},{"bike_id":"6117fd7b-138d-4402-8d14-97f9b1ebe8e5","system_id":"levelo_inurba_marseille","lat":43.29553,"lon":5.42296,"is_reserved":false,"is_disabled":false,"rental_uris":{"android":"levelo://app?vid=6117fd7b-138d-4402-8d14-97f9b1ebe8e5","ios":"levelo://app?vid=6117fd7b-138d-4402-8d14-97f9b1ebe8e5"},"vehicle_type_id":"4","last_reported":1729012148,"current_range_meters":26000,"station_id":"ce4bhph2rcd13ifvqhdg","pricing_plan_id":"cebpf4jnsgd1na2vs0mg"},{"bike_id":"1af2813b-98a0-4b62-aaf8-89652b30f639","system_id":"levelo_inurba_marseille","lat":43.22933,"lon":5.35381,"is_reserved":false,"is_disabled":false,"rental_uris":{"android":"levelo://app?vid=1af2813b-98a0-4b62-aaf8-89652b30f639","ios":"levelo://app?vid=1af2813b-98a0-4b62-aaf8-89652b30f639"},"vehicle_type_id":"4","last_reported":1729012148,"current_range_meters":28800,"station_id":"cpo3532slgdg3j2ikp40","pricing_plan_id":"cebpf4jnsgd1na2vs0mg"},{"bike_id":"c5af4ecd-4e19-4991-8d5d-6c1027d6164f","system_id":"levelo_inurba_marseille","lat":43.307892,"lon":5.435257,"is_reserved":false,"is_disabled":false,"rental_uris":{"android":"levelo://app?vid=c5af4ecd-4e19-4991-8d5d-6c1027d6164f","ios":"levelo://app?vid=c5af4ecd-4e19-4991-8d5d-6c1027d6164f"},"vehicle_type_id":"4","last_reported":1729012148,"current_range_meters":11600,"station_id":"ce4bhph2rcd13ifvqheg","pricing_plan_id":"cebpf4jnsgd1na2vs0mg"},{"bike_id":"f93454e1-a669-4c63-a4ca-b572042c7971","system_id":"levelo_inurba_marseille","lat":43.23192,"lon":5.35558,"is_reserved":false,"is_disabled":false,"rental_uris":{"android":"levelo://app?vid=f93454e1-a669-4c63-a4ca-b572042c7971","ios":"levelo://app?vid=f93454e1-a669-4c63-a4ca-b572042c7971"},"vehicle_type_id":"4","last_reported":1729012148,"current_range_meters":24800,"station_id":"ce4bhu92rcd13ifvqi70","pricing_plan_id":"cebpf4jnsgd1na2vs0mg"},{"bike_id":"96807348-fa4a-4e9b-a719-09b27b28358d","system_id":"levelo_inurba_marseille","lat":43.28398,"lon":5.37532,"is_reserved":false,"is_disabled":false,"rental_uris":{"android":"levelo://app?vid=96807348-fa4a-4e9b-a719-09b27b28358d","ios":"levelo://app?vid=96807348-fa4a-4e9b-a719-09b27b28358d"},"vehicle_type_id":"4","last_reported":1729012148,"current_range_meters":12400,"station_id":"ce4bh412rcd13ifvqds0","pricing_plan_id":"cebpf4jnsgd1na2vs0mg"},{"bike_id":"32a94ebc-8938-4639-9212-9af60d3a4f59","system_id":"levelo_inurba_marseille","lat":43.25573,"lon":5.38246,"is_reserved":false,"is_disabled":false,"rental_uris":{"android":"levelo://app?vid=32a94ebc-8938-4639-9212-9af60d3a4f59","ios":"levelo://app?vid=32a94ebc-8938-4639-9212-9af60d3a4f59"},"vehicle_type_id":"4","last_reported":1729012148,"current_range_meters":3600,"station_id":"ce4bhih2rcd13ifvqfs0","pricing_plan_id":"cebpf4jnsgd1na2vs0mg"},{"bike_id":"672822b6-0a10-44ea-91e3-1b43f5c70af3","system_id":"levelo_inurba_marseille","lat":43.2808,"lon":5.39663,"is_reserved":false,"is_disabled":false,"rental_uris":{"android":"levelo://app?vid=672822b6-0a10-44ea-91e3-1b43f5c70af3","ios":"levelo://app?vid=672822b6-0a10-44ea-91e3-1b43f5c70af3"},"vehicle_type_id":"4","last_reported":1729012148,"current_range_meters":11600,"station_id":"ce4bho12rcd13ifvqh2g","pricing_plan_id":"cebpf4jnsgd1na2vs0mg"},{"bike_id":"7025780b-6f41-45a6-8f1f-94e8c271ebb2","system_id":"levelo_inurba_marseille","lat":43.28029,"lon":5.36945,"is_reserved":false,"is_disabled":false,"rental_uris":{"android":"levelo://app?vid=7025780b-6f41-45a6-8f1f-94e8c271ebb2","ios":"levelo://app?vid=7025780b-6f41-45a6-8f1f-94e8c271ebb2"},"vehicle_type_id":"4","last_reported":1729012148,"current_range_meters":2000,"station_id":"ce4bha12rcd13ifvqef0","pricing_plan_id":"cebpf4jnsgd1na2vs0mg"},{"bike_id":"23e02fee-c6c6-40f8-b244-1724cfae5ea4","system_id":"levelo_inurba_marseille","lat":43.3015,"lon":5.3742,"is_reserved":false,"is_disabled":false,"rental_uris":{"android":"levelo://app?vid=23e02fee-c6c6-40f8-b244-1724cfae5ea4","ios":"levelo://app?vid=23e02fee-c6c6-40f8-b244-1724cfae5ea4"},"vehicle_type_id":"4","last_reported":1729012148,"current_range_meters":8400,"station_id":"ce4bgs92rcd13ifvqcc0","pricing_plan_id":"cebpf4jnsgd1na2vs0mg"},{"bike_id":"167a3dcd-afcd-457e-8998-67360ace43c0","system_id":"levelo_inurba_marseille","lat":43.3375,"lon":5.37436,"is_reserved":false,"is_disabled":false,"rental_uris":{"android":"levelo://app?vid=167a3dcd-afcd-457e-8998-67360ace43c0","ios":"levelo://app?vid=167a3dcd-afcd-457e-8998-67360ace43c0"},"vehicle_type_id":"4","last_reported":1729012148,"current_range_meters":33600,"station_id":"","pricing_plan_id":"cebpf4jnsgd1na2vs0mg"},{"bike_id":"6c15eadd-31b5-4b6b-963b-02668f9518f2","system_id":"levelo_inurba_marseille","lat":43.28037,"lon":5.36949,"is_reserved":false,"is_disabled":false,"rental_uris":{"android":"levelo://app?vid=6c15eadd-31b5-4b6b-963b-02668f9518f2","ios":"levelo://app?vid=6c15eadd-31b5-4b6b-963b-02668f9518f2"},"vehicle_type_id":"4","last_reported":1729012148,"current_range_meters":22800,"station_id":"ce4bha12rcd13ifvqef0","pricing_plan_id":"cebpf4jnsgd1na2vs0mg"},{"bike_id":"f3d27077-0b38-4d3c-9d61-111cf8901775","system_id":"levelo_inurba_marseille","lat":43.27952,"lon":5.41046,"is_reserved":false,"is_disabled":false,"rental_uris":{"android":"levelo://app?vid=f3d27077-0b38-4d3c-9d61-111cf8901775","ios":"levelo://app?vid=f3d27077-0b38-4d3c-9d61-111cf8901775"},"vehicle_type_id":"4","last_reported":1729012148,"current_range_meters":8400,"station_id":"ce4bhnp2rcd13ifvqh0g","pricing_plan_id":"cebpf4jnsgd1na2vs0mg"},{"bike_id":"2ae7cb6e-e949-4f32-b410-0e62af4ecc02","system_id":"levelo_inurba_marseille","lat":43.23175,"lon":5.39982,"is_reserved":false,"is_disabled":false,"rental_uris":{"android":"levelo://app?vid=2ae7cb6e-e949-4f32-b410-0e62af4ecc02","ios":"levelo://app?vid=2ae7cb6e-e949-4f32-b410-0e62af4ecc02"},"vehicle_type_id":"4","last_reported":1729012148,"current_range_meters":24400,"station_id":"ce4bhn12rcd13ifvqgqg","pricing_plan_id":"cebpf4jnsgd1na2vs0mg"},{"bike_id":"61ef8410-48ad-432c-aed9-579ab6acd8dd","system_id":"levelo_inurba_marseille","lat":43.29537,"lon":5.38549,"is_reserved":false,"is_disabled":false,"rental_uris":{"android":"levelo://app?vid=61ef8410-48ad-432c-aed9-579ab6acd8dd","ios":"levelo://app?vid=61ef8410-48ad-432c-aed9-579ab6acd8dd"},"vehicle_type_id":"4","last_reported":1729012148,"current_range_meters":30000,"station_id":"ce4bgih2rcd13ifvqba0","pricing_plan_id":"cebpf4jnsgd1na2vs0mg"},{"bike_id":"3865be72-1239-4a30-b6c0-d535796ff922","system_id":"levelo_inurba_marseille","lat":43.32368,"lon":5.38884,"is_reserved":false,"is_disabled":false,"rental_uris":{"android":"levelo://app?vid=3865be72-1239-4a30-b6c0-d535796ff922","ios":"levelo://app?vid=3865be72-1239-4a30-b6c0-d535796ff922"},"vehicle_type_id":"4","last_reported":1729012148,"current_range_meters":38400,"station_id":"ce4bhqp2rcd13ifvqhog","pricing_plan_id":"cebpf4jnsgd1na2vs0mg"},{"bike_id":"1b87c42d-7c50-4b92-8a66-53344aea6fcd","system_id":"levelo_inurba_marseille","lat":43.29896,"lon":5.4367,"is_reserved":false,"is_disabled":false,"rental_uris":{"android":"levelo://app?vid=1b87c42d-7c50-4b92-8a66-53344aea6fcd","ios":"levelo://app?vid=1b87c42d-7c50-4b92-8a66-53344aea6fcd"},"vehicle_type_id":"4","last_reported":1729012148,"current_range_meters":27200,"station_id":"ce4bhpp2rcd13ifvqhfg","pricing_plan_id":"cebpf4jnsgd1na2vs0mg"},{"bike_id":"176c51f8-dbe6-4a14-9671-48f1da4ce89a","system_id":"levelo_inurba_marseille","lat":43.2803,"lon":5.36952,"is_reserved":false,"is_disabled":false,"rental_uris":{"android":"levelo://app?vid=176c51f8-dbe6-4a14-9671-48f1da4ce89a","ios":"levelo://app?vid=176c51f8-dbe6-4a14-9671-48f1da4ce89a"},"vehicle_type_id":"4","last_reported":1729012148,"current_range_meters":6800,"station_id":"ce4bha12rcd13ifvqef0","pricing_plan_id":"cebpf4jnsgd1na2vs0mg"},{"bike_id":"cf2cb7da-c090-4010-b0e7-a916ba839211","system_id":"levelo_inurba_marseille","lat":43.290354,"lon":5.378166,"is_reserved":false,"is_disabled":false,"rental_uris":{"android":"levelo://app?vid=cf2cb7da-c090-4010-b0e7-a916ba839211","ios":"levelo://app?vid=cf2cb7da-c090-4010-b0e7-a916ba839211"},"vehicle_type_id":"4","last_reported":1729012148,"current_range_meters":9200,"station_id":"ce4bh9p2rcd13ifvqed0","pricing_plan_id":"cebpf4jnsgd1na2vs0mg"},{"bike_id":"28d22c18-3183-4800-b065-caf585c68bc9","system_id":"levelo_inurba_marseille","lat":43.27054,"lon":5.40256,"is_reserved":false,"is_disabled":false,"rental_uris":{"android":"levelo://app?vid=28d22c18-3183-4800-b065-caf585c68bc9","ios":"levelo://app?vid=28d22c18-3183-4800-b065-caf585c68bc9"},"vehicle_type_id":"4","last_reported":1729012148,"current_range_meters":16400,"station_id":"ce4bhk92rcd13ifvqgc0","pricing_plan_id":"cebpf4jnsgd1na2vs0mg"},{"bike_id":"c94d3112-017a-46fc-86b5-6a58beef3113","system_id":"levelo_inurba_marseille","lat":43.31757,"lon":5.39024,"is_reserved":false,"is_disabled":false,"rental_uris":{"android":"levelo://app?vid=c94d3112-017a-46fc-86b5-6a58beef3113","ios":"levelo://app?vid=c94d3112-017a-46fc-86b5-6a58beef3113"},"vehicle_type_id":"4","last_reported":1729012148,"current_range_meters":5600,"station_id":"ce4bhqp2rcd13ifvqhng","pricing_plan_id":"cebpf4jnsgd1na2vs0mg"},{"bike_id":"f269126c-1b0b-4a1a-a1d6-f8c3716f5336","system_id":"levelo_inurba_marseille","lat":43.23197,"lon":5.35554,"is_reserved":false,"is_disabled":false,"rental_uris":{"android":"levelo://app?vid=f269126c-1b0b-4a1a-a1d6-f8c3716f5336","ios":"levelo://app?vid=f269126c-1b0b-4a1a-a1d6-f8c3716f5336"},"vehicle_type_id":"4","last_reported":1729012148,"current_range_meters":32000,"station_id":"ce4bhu92rcd13ifvqi70","pricing_plan_id":"cebpf4jnsgd1na2vs0mg"},{"bike_id":"3064e5e9-de54-44b9-9eb7-6c03ac9cf33b","system_id":"levelo_inurba_marseille","lat":43.33023,"lon":5.39044,"is_reserved":false,"is_disabled":false,"rental_uris":{"android":"levelo://app?vid=3064e5e9-de54-44b9-9eb7-6c03ac9cf33b","ios":"levelo://app?vid=3064e5e9-de54-44b9-9eb7-6c03ac9cf33b"},"vehicle_type_id":"4","last_reported":1729012148,"current_range_meters":19600,"station_id":"ce4bhr92rcd13ifvqhrg","pricing_plan_id":"cebpf4jnsgd1na2vs0mg"},{"bike_id":"569c09bd-1bd3-41fd-ab5d-16491be342e9","system_id":"levelo_inurba_marseille","lat":43.268,"lon":5.4027,"is_reserved":false,"is_disabled":false,"rental_uris":{"android":"levelo://app?vid=569c09bd-1bd3-41fd-ab5d-16491be342e9","ios":"levelo://app?vid=569c09bd-1bd3-41fd-ab5d-16491be342e9"},"vehicle_type_id":"4","last_reported":1729012148,"current_range_meters":8800,"station_id":"ce501612rcd8frsf0b60","pricing_plan_id":"cebpf4jnsgd1na2vs0mg"},{"bike_id":"b6a13d35-57ac-4d7b-b87a-4e69f460021d","system_id":"levelo_inurba_marseille","lat":43.33723,"lon":5.39181,"is_reserved":false,"is_disabled":false,"rental_uris":{"android":"levelo://app?vid=b6a13d35-57ac-4d7b-b87a-4e69f460021d","ios":"levelo://app?vid=b6a13d35-57ac-4d7b-b87a-4e69f460021d"},"vehicle_type_id":"4","last_reported":1729012148,"current_range_meters":9200,"station_id":"ce4bhr92rcd13ifvqhsg","pricing_plan_id":"cebpf4jnsgd1na2vs0mg"},{"bike_id":"94d48054-be54-488d-a425-2deb433f452c","system_id":"levelo_inurba_marseille","lat":43.29804,"lon":5.36433,"is_reserved":false,"is_disabled":false,"rental_uris":{"android":"levelo://app?vid=94d48054-be54-488d-a425-2deb433f452c","ios":"levelo://app?vid=94d48054-be54-488d-a425-2deb433f452c"},"vehicle_type_id":"4","last_reported":1729012148,"current_range_meters":24800,"station_id":"ce4bgnh2rcd13ifvqc0g","pricing_plan_id":"cebpf4jnsgd1na2vs0mg"},{"bike_id":"1616c9ce-4d58-4b41-a0ce-686df9d6f698","system_id":"levelo_inurba_marseille","lat":43.27808,"lon":5.4073,"is_reserved":false,"is_disabled":false,"rental_uris":{"android":"levelo://app?vid=1616c9ce-4d58-4b41-a0ce-686df9d6f698","ios":"levelo://app?vid=1616c9ce-4d58-4b41-a0ce-686df9d6f698"},"vehicle_type_id":"4","last_reported":1729012148,"current_range_meters":18000,"station_id":"ce4bhnh2rcd13ifvqgtg","pricing_plan_id":"cebpf4jnsgd1na2vs0mg"},{"bike_id":"39e2cef0-87b5-4c42-8436-370a1dc391c3","system_id":"levelo_inurba_marseille","lat":43.2718,"lon":5.40989,"is_reserved":false,"is_disabled":false,"rental_uris":{"android":"levelo://app?vid=39e2cef0-87b5-4c42-8436-370a1dc391c3","ios":"levelo://app?vid=39e2cef0-87b5-4c42-8436-370a1dc391c3"},"vehicle_type_id":"4","last_reported":1729012148,"current_range_meters":14400,"station_id":"ce4bhl12rcd13ifvqgf0","pricing_plan_id":"cebpf4jnsgd1na2vs0mg"},{"bike_id":"daaeb53a-2b0a-4794-94f4-133bac3a94d8","system_id":"levelo_inurba_marseille","lat":43.30645,"lon":5.40103,"is_reserved":false,"is_disabled":false,"rental_uris":{"android":"levelo://app?vid=daaeb53a-2b0a-4794-94f4-133bac3a94d8","ios":"levelo://app?vid=daaeb53a-2b0a-4794-94f4-133bac3a94d8"},"vehicle_type_id":"4","last_reported":1729012148,"current_range_meters":12800,"station_id":"ce4bh112rcd13ifvqda0","pricing_plan_id":"cebpf4jnsgd1na2vs0mg"},{"bike_id":"f88f55c9-d8d9-4ddd-962c-c8a6a26f46d9","system_id":"levelo_inurba_marseille","lat":43.26687,"lon":5.38277,"is_reserved":false,"is_disabled":false,"rental_uris":{"android":"levelo://app?vid=f88f55c9-d8d9-4ddd-962c-c8a6a26f46d9","ios":"levelo://app?vid=f88f55c9-d8d9-4ddd-962c-c8a6a26f46d9"},"vehicle_type_id":"4","last_reported":1729012148,"current_range_meters":36000,"station_id":"ce4bhg92rcd13ifvqf90","pricing_plan_id":"cebpf4jnsgd1na2vs0mg"},{"bike_id":"2ada95fd-848c-4a5e-8e88-6d31259a0836","system_id":"levelo_inurba_marseille","lat":43.28152,"lon":5.42641,"is_reserved":false,"is_disabled":false,"rental_uris":{"android":"levelo://app?vid=2ada95fd-848c-4a5e-8e88-6d31259a0836","ios":"levelo://app?vid=2ada95fd-848c-4a5e-8e88-6d31259a0836"},"vehicle_type_id":"4","last_reported":1729012148,"current_range_meters":8800,"station_id":"ce4bhnh2rcd13ifvqgug","pricing_plan_id":"cebpf4jnsgd1na2vs0mg"},{"bike_id":"5c9c5e51-839c-4857-b24e-b573b380ffcf","system_id":"levelo_inurba_marseille","lat":43.27406,"lon":5.40036,"is_reserved":false,"is_disabled":false,"rental_uris":{"android":"levelo://app?vid=5c9c5e51-839c-4857-b24e-b573b380ffcf","ios":"levelo://app?vid=5c9c5e51-839c-4857-b24e-b573b380ffcf"},"vehicle_type_id":"4","last_reported":1729012148,"current_range_meters":24800,"station_id":"cjm6bp8fraef2m0cb0m0","pricing_plan_id":"cebpf4jnsgd1na2vs0mg"},{"bike_id":"f42e7939-2932-41cc-9961-f9de4d41da04","system_id":"levelo_inurba_marseille","lat":43.28878,"lon":5.39288,"is_reserved":false,"is_disabled":false,"rental_uris":{"android":"levelo://app?vid=f42e7939-2932-41cc-9961-f9de4d41da04","ios":"levelo://app?vid=f42e7939-2932-41cc-9961-f9de4d41da04"},"vehicle_type_id":"4","last_reported":1729012148,"current_range_meters":6000,"station_id":"ce4bh2p2rcd13ifvqdi0","pricing_plan_id":"cebpf4jnsgd1na2vs0mg"},{"bike_id":"b28ba61e-6668-4fbf-849a-6bc417fd5656","system_id":"levelo_inurba_marseille","lat":43.28098,"lon":5.3786,"is_reserved":false,"is_disabled":false,"rental_uris":{"android":"levelo://app?vid=b28ba61e-6668-4fbf-849a-6bc417fd5656","ios":"levelo://app?vid=b28ba61e-6668-4fbf-849a-6bc417fd5656"},"vehicle_type_id":"4","last_reported":1729012148,"current_range_meters":30800,"station_id":"ce4bha12rcd13ifvqee0","pricing_plan_id":"cebpf4jnsgd1na2vs0mg"},{"bike_id":"0e41df3a-0ace-488c-be65-6a9fd2305448","system_id":"levelo_inurba_marseille","lat":43.33756,"lon":5.37448,"is_reserved":false,"is_disabled":false,"rental_uris":{"android":"levelo://app?vid=0e41df3a-0ace-488c-be65-6a9fd2305448","ios":"levelo://app?vid=0e41df3a-0ace-488c-be65-6a9fd2305448"},"vehicle_type_id":"4","last_reported":1729012148,"current_range_meters":34000,"station_id":"","pricing_plan_id":"cebpf4jnsgd1na2vs0mg"},{"bike_id":"10cb732e-fcc4-465e-8668-509af9e31bf0","system_id":"levelo_inurba_marseille","lat":43.2916,"lon":5.37156,"is_reserved":false,"is_disabled":false,"rental_uris":{"android":"levelo://app?vid=10cb732e-fcc4-465e-8668-509af9e31bf0","ios":"levelo://app?vid=10cb732e-fcc4-465e-8668-509af9e31bf0"},"vehicle_type_id":"4","last_reported":1729012148,"current_range_meters":3600,"station_id":"ce4bha92rcd13ifvqeh0","pricing_plan_id":"cebpf4jnsgd1na2vs0mg"},{"bike_id":"59014890-06b7-4e4a-9ef3-326f929d5846","system_id":"levelo_inurba_marseille","lat":43.25821,"lon":5.3944,"is_reserved":false,"is_disabled":false,"rental_uris":{"android":"levelo://app?vid=59014890-06b7-4e4a-9ef3-326f929d5846","ios":"levelo://app?vid=59014890-06b7-4e4a-9ef3-326f929d5846"},"vehicle_type_id":"4","last_reported":1729012148,"current_range_meters":5600,"station_id":"ce4bhip2rcd13ifvqft0","pricing_plan_id":"cebpf4jnsgd1na2vs0mg"},{"bike_id":"2d4ae3c2-4d26-40c0-aad4-6310fa13a7f4","system_id":"levelo_inurba_marseille","lat":43.29614,"lon":5.37726,"is_reserved":false,"is_disabled":false,"rental_uris":{"android":"levelo://app?vid=2d4ae3c2-4d26-40c0-aad4-6310fa13a7f4","ios":"levelo://app?vid=2d4ae3c2-4d26-40c0-aad4-6310fa13a7f4"},"vehicle_type_id":"4","last_reported":1729012148,"current_range_meters":0,"station_id":"ce4bgi92rcd13ifvqb90","pricing_plan_id":"cebpf4jnsgd1na2vs0mg"},{"bike_id":"0ec6dd9e-f7b0-4f18-a48b-06e8b6b946a8","system_id":"levelo_inurba_marseille","lat":43.3136,"lon":5.38498,"is_reserved":false,"is_disabled":false,"rental_uris":{"android":"levelo://app?vid=0ec6dd9e-f7b0-4f18-a48b-06e8b6b946a8","ios":"levelo://app?vid=0ec6dd9e-f7b0-4f18-a48b-06e8b6b946a8"},"vehicle_type_id":"4","last_reported":1729012148,"current_range_meters":27600,"station_id":"ce4bgt92rcd13ifvqcf0","pricing_plan_id":"cebpf4jnsgd1na2vs0mg"},{"bike_id":"5c6b8020-b727-4629-9acb-d41e186083c6","system_id":"levelo_inurba_marseille","lat":43.28728,"lon":5.36082,"is_reserved":false,"is_disabled":false,"rental_uris":{"android":"levelo://app?vid=5c6b8020-b727-4629-9acb-d41e186083c6","ios":"levelo://app?vid=5c6b8020-b727-4629-9acb-d41e186083c6"},"vehicle_type_id":"4","last_reported":1729012148,"current_range_meters":4000,"station_id":"cki0cbj6b192h4jlfktg","pricing_plan_id":"cebpf4jnsgd1na2vs0mg"},{"bike_id":"20e157b9-e3ea-4f3e-932a-40a73d4d2734","system_id":"levelo_inurba_marseille","lat":43.23179,"lon":5.39993,"is_reserved":false,"is_disabled":false,"rental_uris":{"android":"levelo://app?vid=20e157b9-e3ea-4f3e-932a-40a73d4d2734","ios":"levelo://app?vid=20e157b9-e3ea-4f3e-932a-40a73d4d2734"},"vehicle_type_id":"4","last_reported":1729012148,"current_range_meters":9600,"station_id":"ce4bhn12rcd13ifvqgqg","pricing_plan_id":"cebpf4jnsgd1na2vs0mg"},{"bike_id":"e7838990-26eb-492c-ac63-2a965bc41037","system_id":"levelo_inurba_marseille","lat":43.32273,"lon":5.38942,"is_reserved":false,"is_disabled":false,"rental_uris":{"android":"levelo://app?vid=e7838990-26eb-492c-ac63-2a965bc41037","ios":"levelo://app?vid=e7838990-26eb-492c-ac63-2a965bc41037"},"vehicle_type_id":"4","last_reported":1729012148,"current_range_meters":20000,"station_id":"","pricing_plan_id":"cebpf4jnsgd1na2vs0mg"},{"bike_id":"6ed80952-27fa-4112-bdd0-484f62b1fe60","system_id":"levelo_inurba_marseille","lat":43.280579,"lon":5.409893,"is_reserved":false,"is_disabled":false,"rental_uris":{"android":"levelo://app?vid=6ed80952-27fa-4112-bdd0-484f62b1fe60","ios":"levelo://app?vid=6ed80952-27fa-4112-bdd0-484f62b1fe60"},"vehicle_type_id":"4","last_reported":1729012148,"current_range_meters":19600,"station_id":"ce4bhnp2rcd13ifvqh0g","pricing_plan_id":"cebpf4jnsgd1na2vs0mg"},{"bike_id":"1b5795e9-268a-4cac-8032-ec4ad6269f71","system_id":"levelo_inurba_marseille","lat":43.29898,"lon":5.43671,"is_reserved":false,"is_disabled":false,"rental_uris":{"android":"levelo://app?vid=1b5795e9-268a-4cac-8032-ec4ad6269f71","ios":"levelo://app?vid=1b5795e9-268a-4cac-8032-ec4ad6269f71"},"vehicle_type_id":"4","last_reported":1729012148,"current_range_meters":16800,"station_id":"ce4bhpp2rcd13ifvqhfg","pricing_plan_id":"cebpf4jnsgd1na2vs0mg"},{"bike_id":"4e7664a8-2531-4b3a-89fc-5a73e92f0414","system_id":"levelo_inurba_marseille","lat":43.31079,"lon":5.38354,"is_reserved":false,"is_disabled":false,"rental_uris":{"android":"levelo://app?vid=4e7664a8-2531-4b3a-89fc-5a73e92f0414","ios":"levelo://app?vid=4e7664a8-2531-4b3a-89fc-5a73e92f0414"},"vehicle_type_id":"4","last_reported":1729012148,"current_range_meters":27600,"station_id":"ce4bgv92rcd13ifvqcr0","pricing_plan_id":"cebpf4jnsgd1na2vs0mg"},{"bike_id":"a1e0278e-920e-4eea-a381-891331e8e403","system_id":"levelo_inurba_marseille","lat":43.23188,"lon":5.3555,"is_reserved":false,"is_disabled":false,"rental_uris":{"android":"levelo://app?vid=a1e0278e-920e-4eea-a381-891331e8e403","ios":"levelo://app?vid=a1e0278e-920e-4eea-a381-891331e8e403"},"vehicle_type_id":"4","last_reported":1729012148,"current_range_meters":5600,"station_id":"ce4bhu92rcd13ifvqi70","pricing_plan_id":"cebpf4jnsgd1na2vs0mg"},{"bike_id":"a25f3797-3c3d-48bd-8f3d-b410c751045d","system_id":"levelo_inurba_marseille","lat":43.28,"lon":5.40035,"is_reserved":false,"is_disabled":false,"rental_uris":{"android":"levelo://app?vid=a25f3797-3c3d-48bd-8f3d-b410c751045d","ios":"levelo://app?vid=a25f3797-3c3d-48bd-8f3d-b410c751045d"},"vehicle_type_id":"4","last_reported":1729012148,"current_range_meters":6400,"station_id":"ce4bho92rcd13ifvqh4g","pricing_plan_id":"cebpf4jnsgd1na2vs0mg"},{"bike_id":"a3e51466-73d2-4317-a62b-7fed3face5b9","system_id":"levelo_inurba_marseille","lat":43.26058,"lon":5.39399,"is_reserved":false,"is_disabled":false,"rental_uris":{"android":"levelo://app?vid=a3e51466-73d2-4317-a62b-7fed3face5b9","ios":"levelo://app?vid=a3e51466-73d2-4317-a62b-7fed3face5b9"},"vehicle_type_id":"4","last_reported":1729012148,"current_range_meters":29600,"station_id":"ce4bhh92rcd13ifvqfj0","pricing_plan_id":"cebpf4jnsgd1na2vs0mg"},{"bike_id":"4c9cfffb-3259-490d-9183-358ed04211b2","system_id":"levelo_inurba_marseille","lat":43.24388,"lon":5.37062,"is_reserved":false,"is_disabled":false,"rental_uris":{"android":"levelo://app?vid=4c9cfffb-3259-490d-9183-358ed04211b2","ios":"levelo://app?vid=4c9cfffb-3259-490d-9183-358ed04211b2"},"vehicle_type_id":"4","last_reported":1729012148,"current_range_meters":4400,"station_id":"ce4bhhh2rcd13ifvqfk0","pricing_plan_id":"cebpf4jnsgd1na2vs0mg"},{"bike_id":"d521dac0-6bb9-44d6-8d5c-0f2c15768506","system_id":"levelo_inurba_marseille","lat":43.28606,"lon":5.37067,"is_reserved":false,"is_disabled":false,"rental_uris":{"android":"levelo://app?vid=d521dac0-6bb9-44d6-8d5c-0f2c15768506","ios":"levelo://app?vid=d521dac0-6bb9-44d6-8d5c-0f2c15768506"},"vehicle_type_id":"4","last_reported":1729012148,"current_range_meters":22400,"station_id":"ce4bht12rcd13ifvqi60","pricing_plan_id":"cebpf4jnsgd1na2vs0mg"},{"bike_id":"c7626b67-8490-47b2-82ea-49347108e9fb","system_id":"levelo_inurba_marseille","lat":43.29421,"lon":5.3861,"is_reserved":false,"is_disabled":false,"rental_uris":{"android":"levelo://app?vid=c7626b67-8490-47b2-82ea-49347108e9fb","ios":"levelo://app?vid=c7626b67-8490-47b2-82ea-49347108e9fb"},"vehicle_type_id":"4","last_reported":1729012148,"current_range_meters":34800,"station_id":"ce4bh2h2rcd13ifvqdh0","pricing_plan_id":"cebpf4jnsgd1na2vs0mg"},{"bike_id":"57dfe002-b82e-4f7d-8b32-a913ca1b41de","system_id":"levelo_inurba_marseille","lat":43.28934,"lon":5.38394,"is_reserved":false,"is_disabled":false,"rental_uris":{"android":"levelo://app?vid=57dfe002-b82e-4f7d-8b32-a913ca1b41de","ios":"levelo://app?vid=57dfe002-b82e-4f7d-8b32-a913ca1b41de"},"vehicle_type_id":"4","last_reported":1729012148,"current_range_meters":27600,"station_id":"ce4bh612rcd13ifvqe6g","pricing_plan_id":"cebpf4jnsgd1na2vs0mg"},{"bike_id":"4eefa1ec-0d89-406a-9ba6-ab04341864b0","system_id":"levelo_inurba_marseille","lat":43.23197,"lon":5.35548,"is_reserved":false,"is_disabled":false,"rental_uris":{"android":"levelo://app?vid=4eefa1ec-0d89-406a-9ba6-ab04341864b0","ios":"levelo://app?vid=4eefa1ec-0d89-406a-9ba6-ab04341864b0"},"vehicle_type_id":"4","last_reported":1729012148,"current_range_meters":39200,"station_id":"ce4bhu92rcd13ifvqi70","pricing_plan_id":"cebpf4jnsgd1na2vs0mg"},{"bike_id":"89e93242-a25c-410f-bd50-0b5709cb6899","system_id":"levelo_inurba_marseille","lat":43.22934,"lon":5.35377,"is_reserved":false,"is_disabled":false,"rental_uris":{"android":"levelo://app?vid=89e93242-a25c-410f-bd50-0b5709cb6899","ios":"levelo://app?vid=89e93242-a25c-410f-bd50-0b5709cb6899"},"vehicle_type_id":"4","last_reported":1729012148,"current_range_meters":8800,"station_id":"cpo3532slgdg3j2ikp40","pricing_plan_id":"cebpf4jnsgd1na2vs0mg"},{"bike_id":"745cb2d4-2172-480a-b892-f555e08e7589","system_id":"levelo_inurba_marseille","lat":43.337444,"lon":5.374475,"is_reserved":false,"is_disabled":false,"rental_uris":{"android":"levelo://app?vid=745cb2d4-2172-480a-b892-f555e08e7589","ios":"levelo://app?vid=745cb2d4-2172-480a-b892-f555e08e7589"},"vehicle_type_id":"4","last_reported":1729012148,"current_range_meters":35600,"station_id":"","pricing_plan_id":"cebpf4jnsgd1na2vs0mg"},{"bike_id":"60a228b9-87fa-462a-a071-f77a48b3f8f5","system_id":"levelo_inurba_marseille","lat":43.30801,"lon":5.43527,"is_reserved":false,"is_disabled":false,"rental_uris":{"android":"levelo://app?vid=60a228b9-87fa-462a-a071-f77a48b3f8f5","ios":"levelo://app?vid=60a228b9-87fa-462a-a071-f77a48b3f8f5"},"vehicle_type_id":"4","last_reported":1729012148,"current_range_meters":30400,"station_id":"ce4bhph2rcd13ifvqheg","pricing_plan_id":"cebpf4jnsgd1na2vs0mg"},{"bike_id":"de15656e-29b4-4578-a8c9-93334b388072","system_id":"levelo_inurba_marseille","lat":43.29227,"lon":5.36067,"is_reserved":false,"is_disabled":false,"rental_uris":{"android":"levelo://app?vid=de15656e-29b4-4578-a8c9-93334b388072","ios":"levelo://app?vid=de15656e-29b4-4578-a8c9-93334b388072"},"vehicle_type_id":"4","last_reported":1729012148,"current_range_meters":30800,"station_id":"ce4bhbh2rcd13ifvqeqg","pricing_plan_id":"cebpf4jnsgd1na2vs0mg"},{"bike_id":"f28783f7-33f8-4b39-b0c9-0d23db560a04","system_id":"levelo_inurba_marseille","lat":43.23192,"lon":5.35552,"is_reserved":false,"is_disabled":false,"rental_uris":{"android":"levelo://app?vid=f28783f7-33f8-4b39-b0c9-0d23db560a04","ios":"levelo://app?vid=f28783f7-33f8-4b39-b0c9-0d23db560a04"},"vehicle_type_id":"4","last_reported":1729012148,"current_range_meters":3200,"station_id":"ce4bhu92rcd13ifvqi70","pricing_plan_id":"cebpf4jnsgd1na2vs0mg"},{"bike_id":"beab1866-0c1d-462f-ac0b-2e60daa5bdd4","system_id":"levelo_inurba_marseille","lat":43.28464,"lon":5.35889,"is_reserved":false,"is_disabled":false,"rental_uris":{"android":"levelo://app?vid=beab1866-0c1d-462f-ac0b-2e60daa5bdd4","ios":"levelo://app?vid=beab1866-0c1d-462f-ac0b-2e60daa5bdd4"},"vehicle_type_id":"4","last_reported":1729012148,"current_range_meters":15200,"station_id":"ce4bhah2rcd13ifvqei0","pricing_plan_id":"cebpf4jnsgd1na2vs0mg"},{"bike_id":"f9ce6141-84d3-4a94-9cf1-33b69bef009c","system_id":"levelo_inurba_marseille","lat":43.28083,"lon":5.39661,"is_reserved":false,"is_disabled":false,"rental_uris":{"android":"levelo://app?vid=f9ce6141-84d3-4a94-9cf1-33b69bef009c","ios":"levelo://app?vid=f9ce6141-84d3-4a94-9cf1-33b69bef009c"},"vehicle_type_id":"4","last_reported":1729012148,"current_range_meters":36000,"station_id":"ce4bho12rcd13ifvqh2g","pricing_plan_id":"cebpf4jnsgd1na2vs0mg"},{"bike_id":"18582e79-1ac7-47b4-9a6b-d11138d475a1","system_id":"levelo_inurba_marseille","lat":43.28697,"lon":5.37389,"is_reserved":false,"is_disabled":false,"rental_uris":{"android":"levelo://app?vid=18582e79-1ac7-47b4-9a6b-d11138d475a1","ios":"levelo://app?vid=18582e79-1ac7-47b4-9a6b-d11138d475a1"},"vehicle_type_id":"4","last_reported":1729012148,"current_range_meters":6000,"station_id":"ce4bh3p2rcd13ifvqdq0","pricing_plan_id":"cebpf4jnsgd1na2vs0mg"},{"bike_id":"c5778fa8-1bd7-4b9f-a77e-b1fa228dccc8","system_id":"levelo_inurba_marseille","lat":43.31685,"lon":5.40473,"is_reserved":false,"is_disabled":false,"rental_uris":{"android":"levelo://app?vid=c5778fa8-1bd7-4b9f-a77e-b1fa228dccc8","ios":"levelo://app?vid=c5778fa8-1bd7-4b9f-a77e-b1fa228dccc8"},"vehicle_type_id":"4","last_reported":1729012148,"current_range_meters":9200,"station_id":"ce4bh012rcd13ifvqd00","pricing_plan_id":"cebpf4jnsgd1na2vs0mg"},{"bike_id":"b7353920-3073-487e-b40f-6b7e657aad92","system_id":"levelo_inurba_marseille","lat":43.30455,"lon":5.40204,"is_reserved":false,"is_disabled":false,"rental_uris":{"android":"levelo://app?vid=b7353920-3073-487e-b40f-6b7e657aad92","ios":"levelo://app?vid=b7353920-3073-487e-b40f-6b7e657aad92"},"vehicle_type_id":"4","last_reported":1729012148,"current_range_meters":22800,"station_id":"","pricing_plan_id":"cebpf4jnsgd1na2vs0mg"},{"bike_id":"605fd007-fa4d-44d1-bcb3-9d83e65d0994","system_id":"levelo_inurba_marseille","lat":43.33699,"lon":5.37418,"is_reserved":false,"is_disabled":false,"rental_uris":{"android":"levelo://app?vid=605fd007-fa4d-44d1-bcb3-9d83e65d0994","ios":"levelo://app?vid=605fd007-fa4d-44d1-bcb3-9d83e65d0994"},"vehicle_type_id":"4","last_reported":1729012148,"current_range_meters":12800,"station_id":"","pricing_plan_id":"cebpf4jnsgd1na2vs0mg"},{"bike_id":"6f0d6442-6807-44dd-a668-ab09f2f58ffd","system_id":"levelo_inurba_marseille","lat":43.28033,"lon":5.36941,"is_reserved":false,"is_disabled":false,"rental_uris":{"android":"levelo://app?vid=6f0d6442-6807-44dd-a668-ab09f2f58ffd","ios":"levelo://app?vid=6f0d6442-6807-44dd-a668-ab09f2f58ffd"},"vehicle_type_id":"4","last_reported":1729012148,"current_range_meters":36000,"station_id":"ce4bha12rcd13ifvqef0","pricing_plan_id":"cebpf4jnsgd1na2vs0mg"},{"bike_id":"a44d0449-ddf7-447f-89a3-faa488b33d2c","system_id":"levelo_inurba_marseille","lat":43.22967,"lon":5.40028,"is_reserved":false,"is_disabled":false,"rental_uris":{"android":"levelo://app?vid=a44d0449-ddf7-447f-89a3-faa488b33d2c","ios":"levelo://app?vid=a44d0449-ddf7-447f-89a3-faa488b33d2c"},"vehicle_type_id":"4","last_reported":1729012148,"current_range_meters":5600,"station_id":"ce4bhn12rcd13ifvqgqg","pricing_plan_id":"cebpf4jnsgd1na2vs0mg"},{"bike_id":"c486dd84-dddb-4383-9b49-d3ff8158038d","system_id":"levelo_inurba_marseille","lat":43.32288,"lon":5.38277,"is_reserved":false,"is_disabled":false,"rental_uris":{"android":"levelo://app?vid=c486dd84-dddb-4383-9b49-d3ff8158038d","ios":"levelo://app?vid=c486dd84-dddb-4383-9b49-d3ff8158038d"},"vehicle_type_id":"4","last_reported":1729012148,"current_range_meters":8000,"station_id":"ce4bhr12rcd13ifvqhqg","pricing_plan_id":"cebpf4jnsgd1na2vs0mg"},{"bike_id":"84c778f0-98b4-4058-bfb6-85b8c1f04b8e","system_id":"levelo_inurba_marseille","lat":43.3372,"lon":5.39181,"is_reserved":false,"is_disabled":false,"rental_uris":{"android":"levelo://app?vid=84c778f0-98b4-4058-bfb6-85b8c1f04b8e","ios":"levelo://app?vid=84c778f0-98b4-4058-bfb6-85b8c1f04b8e"},"vehicle_type_id":"4","last_reported":1729012148,"current_range_meters":38000,"station_id":"ce4bhr92rcd13ifvqhsg","pricing_plan_id":"cebpf4jnsgd1na2vs0mg"},{"bike_id":"beb1fc18-f1fa-438e-ae81-8c849af956af","system_id":"levelo_inurba_marseille","lat":43.23181,"lon":5.39988,"is_reserved":false,"is_disabled":false,"rental_uris":{"android":"levelo://app?vid=beb1fc18-f1fa-438e-ae81-8c849af956af","ios":"levelo://app?vid=beb1fc18-f1fa-438e-ae81-8c849af956af"},"vehicle_type_id":"4","last_reported":1729012148,"current_range_meters":39200,"station_id":"ce4bhn12rcd13ifvqgqg","pricing_plan_id":"cebpf4jnsgd1na2vs0mg"},{"bike_id":"2361e270-07e7-4b73-85b2-8d840bf15d40","system_id":"levelo_inurba_marseille","lat":43.2738,"lon":5.36265,"is_reserved":false,"is_disabled":false,"rental_uris":{"android":"levelo://app?vid=2361e270-07e7-4b73-85b2-8d840bf15d40","ios":"levelo://app?vid=2361e270-07e7-4b73-85b2-8d840bf15d40"},"vehicle_type_id":"4","last_reported":1729012148,"current_range_meters":4000,"station_id":"ce4bhbh2rcd13ifvqeo0","pricing_plan_id":"cebpf4jnsgd1na2vs0mg"},{"bike_id":"4346075d-bc4b-4998-a3e3-c58b13ebb3b7","system_id":"levelo_inurba_marseille","lat":43.303222,"lon":5.404451,"is_reserved":false,"is_disabled":false,"rental_uris":{"android":"levelo://app?vid=4346075d-bc4b-4998-a3e3-c58b13ebb3b7","ios":"levelo://app?vid=4346075d-bc4b-4998-a3e3-c58b13ebb3b7"},"vehicle_type_id":"4","last_reported":1729012148,"current_range_meters":400,"station_id":"ce4bh012rcd13ifvqcv0","pricing_plan_id":"cebpf4jnsgd1na2vs0mg"},{"bike_id":"27c430bf-c731-4acc-bbfc-c1c203ffd012","system_id":"levelo_inurba_marseille","lat":43.31349,"lon":5.38508,"is_reserved":false,"is_disabled":false,"rental_uris":{"android":"levelo://app?vid=27c430bf-c731-4acc-bbfc-c1c203ffd012","ios":"levelo://app?vid=27c430bf-c731-4acc-bbfc-c1c203ffd012"},"vehicle_type_id":"4","last_reported":1729012148,"current_range_meters":5600,"station_id":"ce4bgt92rcd13ifvqcf0","pricing_plan_id":"cebpf4jnsgd1na2vs0mg"},{"bike_id":"ff66635e-acb8-46c0-85fd-4582199b36e7","system_id":"levelo_inurba_marseille","lat":43.28698,"lon":5.39983,"is_reserved":false,"is_disabled":false,"rental_uris":{"android":"levelo://app?vid=ff66635e-acb8-46c0-85fd-4582199b36e7","ios":"levelo://app?vid=ff66635e-acb8-46c0-85fd-4582199b36e7"},"vehicle_type_id":"4","last_reported":1729012148,"current_range_meters":37600,"station_id":"ce4bh292rcd13ifvqdg0","pricing_plan_id":"cebpf4jnsgd1na2vs0mg"},{"bike_id":"2b79d066-face-4a84-a17c-64c26cf0be3b","system_id":"levelo_inurba_marseille","lat":43.30601,"lon":5.37256,"is_reserved":false,"is_disabled":false,"rental_uris":{"android":"levelo://app?vid=2b79d066-face-4a84-a17c-64c26cf0be3b","ios":"levelo://app?vid=2b79d066-face-4a84-a17c-64c26cf0be3b"},"vehicle_type_id":"4","last_reported":1729012148,"current_range_meters":8400,"station_id":"ce4bgqh2rcd13ifvqc4g","pricing_plan_id":"cebpf4jnsgd1na2vs0mg"},{"bike_id":"093bbebe-ef81-44bf-93dc-39f32678cdbd","system_id":"levelo_inurba_marseille","lat":43.295563,"lon":5.422969,"is_reserved":false,"is_disabled":false,"rental_uris":{"android":"levelo://app?vid=093bbebe-ef81-44bf-93dc-39f32678cdbd","ios":"levelo://app?vid=093bbebe-ef81-44bf-93dc-39f32678cdbd"},"vehicle_type_id":"4","last_reported":1729012148,"current_range_meters":25200,"station_id":"ce4bhph2rcd13ifvqhdg","pricing_plan_id":"cebpf4jnsgd1na2vs0mg"},{"bike_id":"0b9cbfd3-ae36-4237-8715-d7d39bed0124","system_id":"levelo_inurba_marseille","lat":43.29517,"lon":5.39058,"is_reserved":false,"is_disabled":false,"rental_uris":{"android":"levelo://app?vid=0b9cbfd3-ae36-4237-8715-d7d39bed0124","ios":"levelo://app?vid=0b9cbfd3-ae36-4237-8715-d7d39bed0124"},"vehicle_type_id":"4","last_reported":1729012148,"current_range_meters":2000,"station_id":"ce4bh3p2rcd13ifvqdp0","pricing_plan_id":"cebpf4jnsgd1na2vs0mg"},{"bike_id":"cc2e9722-738b-45b2-b19c-cd6eb9de8793","system_id":"levelo_inurba_marseille","lat":43.2799,"lon":5.40009,"is_reserved":false,"is_disabled":false,"rental_uris":{"android":"levelo://app?vid=cc2e9722-738b-45b2-b19c-cd6eb9de8793","ios":"levelo://app?vid=cc2e9722-738b-45b2-b19c-cd6eb9de8793"},"vehicle_type_id":"4","last_reported":1729012148,"current_range_meters":20400,"station_id":"ce4bho92rcd13ifvqh4g","pricing_plan_id":"cebpf4jnsgd1na2vs0mg"},{"bike_id":"fa8b24ec-e7f2-4bc7-981b-1024135194d6","system_id":"levelo_inurba_marseille","lat":43.28448,"lon":5.35893,"is_reserved":false,"is_disabled":false,"rental_uris":{"android":"levelo://app?vid=fa8b24ec-e7f2-4bc7-981b-1024135194d6","ios":"levelo://app?vid=fa8b24ec-e7f2-4bc7-981b-1024135194d6"},"vehicle_type_id":"4","last_reported":1729012148,"current_range_meters":10800,"station_id":"ce4bhah2rcd13ifvqei0","pricing_plan_id":"cebpf4jnsgd1na2vs0mg"},{"bike_id":"a7c32a98-c1f5-4fe3-8c83-7f539fe6ada5","system_id":"levelo_inurba_marseille","lat":43.23067,"lon":5.35494,"is_reserved":false,"is_disabled":false,"rental_uris":{"android":"levelo://app?vid=a7c32a98-c1f5-4fe3-8c83-7f539fe6ada5","ios":"levelo://app?vid=a7c32a98-c1f5-4fe3-8c83-7f539fe6ada5"},"vehicle_type_id":"4","last_reported":1729012148,"current_range_meters":8800,"station_id":"cpo3342slgdg3j2ifvpg","pricing_plan_id":"cebpf4jnsgd1na2vs0mg"},{"bike_id":"59f7333c-967a-40a8-8aef-5601c7d8997c","system_id":"levelo_inurba_marseille","lat":43.33722,"lon":5.39184,"is_reserved":false,"is_disabled":false,"rental_uris":{"android":"levelo://app?vid=59f7333c-967a-40a8-8aef-5601c7d8997c","ios":"levelo://app?vid=59f7333c-967a-40a8-8aef-5601c7d8997c"},"vehicle_type_id":"4","last_reported":1729012148,"current_range_meters":22400,"station_id":"ce4bhr92rcd13ifvqhsg","pricing_plan_id":"cebpf4jnsgd1na2vs0mg"},{"bike_id":"15d67619-9a54-4f78-a1fb-ed2487dc868e","system_id":"levelo_inurba_marseille","lat":43.27616,"lon":5.36125,"is_reserved":false,"is_disabled":false,"rental_uris":{"android":"levelo://app?vid=15d67619-9a54-4f78-a1fb-ed2487dc868e","ios":"levelo://app?vid=15d67619-9a54-4f78-a1fb-ed2487dc868e"},"vehicle_type_id":"4","last_reported":1729012148,"current_range_meters":27600,"station_id":"ce4bgj92rcd13ifvqbe0","pricing_plan_id":"cebpf4jnsgd1na2vs0mg"},{"bike_id":"58414f67-1b30-4e50-9d7f-00734b03468b","system_id":"levelo_inurba_marseille","lat":43.28465,"lon":5.35889,"is_reserved":false,"is_disabled":false,"rental_uris":{"android":"levelo://app?vid=58414f67-1b30-4e50-9d7f-00734b03468b","ios":"levelo://app?vid=58414f67-1b30-4e50-9d7f-00734b03468b"},"vehicle_type_id":"4","last_reported":1729012148,"current_range_meters":23200,"station_id":"ce4bhah2rcd13ifvqei0","pricing_plan_id":"cebpf4jnsgd1na2vs0mg"},{"bike_id":"343cec2c-b90e-4832-880c-e63c7f5a4ca2","system_id":"levelo_inurba_marseille","lat":43.25503,"lon":5.37653,"is_reserved":false,"is_disabled":false,"rental_uris":{"android":"levelo://app?vid=343cec2c-b90e-4832-880c-e63c7f5a4ca2","ios":"levelo://app?vid=343cec2c-b90e-4832-880c-e63c7f5a4ca2"},"vehicle_type_id":"4","last_reported":1729012148,"current_range_meters":3200,"station_id":"ce4bhh12rcd13ifvqff0","pricing_plan_id":"cebpf4jnsgd1na2vs0mg"},{"bike_id":"e4ab1169-6137-47c5-961b-6738e8616bbc","system_id":"levelo_inurba_marseille","lat":43.26057,"lon":5.394,"is_reserved":false,"is_disabled":false,"rental_uris":{"android":"levelo://app?vid=e4ab1169-6137-47c5-961b-6738e8616bbc","ios":"levelo://app?vid=e4ab1169-6137-47c5-961b-6738e8616bbc"},"vehicle_type_id":"4","last_reported":1729012148,"current_range_meters":26000,"station_id":"ce4bhh92rcd13ifvqfj0","pricing_plan_id":"cebpf4jnsgd1na2vs0mg"},{"bike_id":"ca6ce1dc-e374-418a-b02b-9be585883c1b","system_id":"levelo_inurba_marseille","lat":43.29782,"lon":5.38109,"is_reserved":false,"is_disabled":false,"rental_uris":{"android":"levelo://app?vid=ca6ce1dc-e374-418a-b02b-9be585883c1b","ios":"levelo://app?vid=ca6ce1dc-e374-418a-b02b-9be585883c1b"},"vehicle_type_id":"4","last_reported":1729012148,"current_range_meters":9200,"station_id":"ce4bh3p2rcd13ifvqdp0","pricing_plan_id":"cebpf4jnsgd1na2vs0mg"},{"bike_id":"1cb8f4be-f3ac-499e-9939-8c11bcf0b7cc","system_id":"levelo_inurba_marseille","lat":43.30131,"lon":5.38786,"is_reserved":false,"is_disabled":false,"rental_uris":{"android":"levelo://app?vid=1cb8f4be-f3ac-499e-9939-8c11bcf0b7cc","ios":"levelo://app?vid=1cb8f4be-f3ac-499e-9939-8c11bcf0b7cc"},"vehicle_type_id":"4","last_reported":1729012148,"current_range_meters":6800,"station_id":"ce4bghh2rcd13ifvqb60","pricing_plan_id":"cebpf4jnsgd1na2vs0mg"},{"bike_id":"8fec3cb6-ae2e-4e1d-b412-55ec13090740","system_id":"levelo_inurba_marseille","lat":43.31071,"lon":5.38356,"is_reserved":false,"is_disabled":false,"rental_uris":{"android":"levelo://app?vid=8fec3cb6-ae2e-4e1d-b412-55ec13090740","ios":"levelo://app?vid=8fec3cb6-ae2e-4e1d-b412-55ec13090740"},"vehicle_type_id":"4","last_reported":1729012148,"current_range_meters":9200,"station_id":"ce4bgv92rcd13ifvqcr0","pricing_plan_id":"cebpf4jnsgd1na2vs0mg"},{"bike_id":"eb71acdb-44aa-4397-ac4a-f1cc4735b943","system_id":"levelo_inurba_marseille","lat":43.29374,"lon":5.40158,"is_reserved":false,"is_disabled":false,"rental_uris":{"android":"levelo://app?vid=eb71acdb-44aa-4397-ac4a-f1cc4735b943","ios":"levelo://app?vid=eb71acdb-44aa-4397-ac4a-f1cc4735b943"},"vehicle_type_id":"4","last_reported":1729012148,"current_range_meters":18800,"station_id":"ce4bh192rcd13ifvqdc0","pricing_plan_id":"cebpf4jnsgd1na2vs0mg"},{"bike_id":"5f204125-8b22-499d-baf3-178bd4e7f7b4","system_id":"levelo_inurba_marseille","lat":43.31994,"lon":5.38162,"is_reserved":false,"is_disabled":false,"rental_uris":{"android":"levelo://app?vid=5f204125-8b22-499d-baf3-178bd4e7f7b4","ios":"levelo://app?vid=5f204125-8b22-499d-baf3-178bd4e7f7b4"},"vehicle_type_id":"4","last_reported":1729012148,"current_range_meters":16400,"station_id":"ce4bhr12rcd13ifvqhpg","pricing_plan_id":"cebpf4jnsgd1na2vs0mg"},{"bike_id":"1fadaeaf-da14-4492-8d0a-8d29ac040b4e","system_id":"levelo_inurba_marseille","lat":43.33024,"lon":5.39038,"is_reserved":false,"is_disabled":false,"rental_uris":{"android":"levelo://app?vid=1fadaeaf-da14-4492-8d0a-8d29ac040b4e","ios":"levelo://app?vid=1fadaeaf-da14-4492-8d0a-8d29ac040b4e"},"vehicle_type_id":"4","last_reported":1729012148,"current_range_meters":37600,"station_id":"ce4bhr92rcd13ifvqhrg","pricing_plan_id":"cebpf4jnsgd1na2vs0mg"},{"bike_id":"df5c8a96-5d17-422e-8ff3-f11b0008913a","system_id":"levelo_inurba_marseille","lat":43.27612,"lon":5.36108,"is_reserved":false,"is_disabled":false,"rental_uris":{"android":"levelo://app?vid=df5c8a96-5d17-422e-8ff3-f11b0008913a","ios":"levelo://app?vid=df5c8a96-5d17-422e-8ff3-f11b0008913a"},"vehicle_type_id":"4","last_reported":1729012148,"current_range_meters":24400,"station_id":"ce4bgj92rcd13ifvqbe0","pricing_plan_id":"cebpf4jnsgd1na2vs0mg"},{"bike_id":"39328288-7eb3-446b-90cb-3b4ba64dd7a9","system_id":"levelo_inurba_marseille","lat":43.28147,"lon":5.42641,"is_reserved":false,"is_disabled":false,"rental_uris":{"android":"levelo://app?vid=39328288-7eb3-446b-90cb-3b4ba64dd7a9","ios":"levelo://app?vid=39328288-7eb3-446b-90cb-3b4ba64dd7a9"},"vehicle_type_id":"4","last_reported":1729012148,"current_range_meters":29600,"station_id":"ce4bhnh2rcd13ifvqgug","pricing_plan_id":"cebpf4jnsgd1na2vs0mg"},{"bike_id":"22e42eeb-1983-4ba6-9867-57d33dd8885f","system_id":"levelo_inurba_marseille","lat":43.28459,"lon":5.35884,"is_reserved":false,"is_disabled":false,"rental_uris":{"android":"levelo://app?vid=22e42eeb-1983-4ba6-9867-57d33dd8885f","ios":"levelo://app?vid=22e42eeb-1983-4ba6-9867-57d33dd8885f"},"vehicle_type_id":"4","last_reported":1729012148,"current_range_meters":15200,"station_id":"ce4bhah2rcd13ifvqei0","pricing_plan_id":"cebpf4jnsgd1na2vs0mg"},{"bike_id":"8cf9107c-c102-4eaf-a634-8bd855ac01b5","system_id":"levelo_inurba_marseille","lat":43.23956,"lon":5.36635,"is_reserved":false,"is_disabled":false,"rental_uris":{"android":"levelo://app?vid=8cf9107c-c102-4eaf-a634-8bd855ac01b5","ios":"levelo://app?vid=8cf9107c-c102-4eaf-a634-8bd855ac01b5"},"vehicle_type_id":"4","last_reported":1729012148,"current_range_meters":3200,"station_id":"ce4bhi12rcd13ifvqfp0","pricing_plan_id":"cebpf4jnsgd1na2vs0mg"},{"bike_id":"0f5cb3b1-04a4-4985-aecb-6a2359895956","system_id":"levelo_inurba_marseille","lat":43.25501,"lon":5.37652,"is_reserved":false,"is_disabled":false,"rental_uris":{"android":"levelo://app?vid=0f5cb3b1-04a4-4985-aecb-6a2359895956","ios":"levelo://app?vid=0f5cb3b1-04a4-4985-aecb-6a2359895956"},"vehicle_type_id":"4","last_reported":1729012148,"current_range_meters":36000,"station_id":"ce4bhh12rcd13ifvqff0","pricing_plan_id":"cebpf4jnsgd1na2vs0mg"},{"bike_id":"ac413cb6-2a10-4634-987e-bdbe7153f21b","system_id":"levelo_inurba_marseille","lat":43.28037,"lon":5.36944,"is_reserved":false,"is_disabled":false,"rental_uris":{"android":"levelo://app?vid=ac413cb6-2a10-4634-987e-bdbe7153f21b","ios":"levelo://app?vid=ac413cb6-2a10-4634-987e-bdbe7153f21b"},"vehicle_type_id":"4","last_reported":1729012148,"current_range_meters":21600,"station_id":"ce4bha12rcd13ifvqef0","pricing_plan_id":"cebpf4jnsgd1na2vs0mg"},{"bike_id":"73918071-1773-4af7-bab4-cffb66fa20a3","system_id":"levelo_inurba_marseille","lat":43.31327,"lon":5.39691,"is_reserved":false,"is_disabled":false,"rental_uris":{"android":"levelo://app?vid=73918071-1773-4af7-bab4-cffb66fa20a3","ios":"levelo://app?vid=73918071-1773-4af7-bab4-cffb66fa20a3"},"vehicle_type_id":"4","last_reported":1729012148,"current_range_meters":9200,"station_id":"ce4bgvp2rcd13ifvqcu0","pricing_plan_id":"cebpf4jnsgd1na2vs0mg"},{"bike_id":"cb8e1a0f-d2ed-4127-852f-48e0eaf8a5dd","system_id":"levelo_inurba_marseille","lat":43.23957,"lon":5.36628,"is_reserved":false,"is_disabled":false,"rental_uris":{"android":"levelo://app?vid=cb8e1a0f-d2ed-4127-852f-48e0eaf8a5dd","ios":"levelo://app?vid=cb8e1a0f-d2ed-4127-852f-48e0eaf8a5dd"},"vehicle_type_id":"4","last_reported":1729012148,"current_range_meters":17600,"station_id":"ce4bhi12rcd13ifvqfp0","pricing_plan_id":"cebpf4jnsgd1na2vs0mg"},{"bike_id":"0787ffff-1043-4364-86f9-6bbb1de03fe2","system_id":"levelo_inurba_marseille","lat":43.24651,"lon":5.38895,"is_reserved":false,"is_disabled":false,"rental_uris":{"android":"levelo://app?vid=0787ffff-1043-4364-86f9-6bbb1de03fe2","ios":"levelo://app?vid=0787ffff-1043-4364-86f9-6bbb1de03fe2"},"vehicle_type_id":"4","last_reported":1729012148,"current_range_meters":4000,"station_id":"ce4bhg12rcd13ifvqf60","pricing_plan_id":"cebpf4jnsgd1na2vs0mg"},{"bike_id":"81e2d086-dec0-4945-9016-a6afecf8f9ec","system_id":"levelo_inurba_marseille","lat":43.32344,"lon":5.4062,"is_reserved":false,"is_disabled":false,"rental_uris":{"android":"levelo://app?vid=81e2d086-dec0-4945-9016-a6afecf8f9ec","ios":"levelo://app?vid=81e2d086-dec0-4945-9016-a6afecf8f9ec"},"vehicle_type_id":"4","last_reported":1729012148,"current_range_meters":28400,"station_id":"ce4bhq92rcd13ifvqhjg","pricing_plan_id":"cebpf4jnsgd1na2vs0mg"},{"bike_id":"761540af-2694-4f82-b291-4d277c5596f8","system_id":"levelo_inurba_marseille","lat":43.30314,"lon":5.40448,"is_reserved":false,"is_disabled":false,"rental_uris":{"android":"levelo://app?vid=761540af-2694-4f82-b291-4d277c5596f8","ios":"levelo://app?vid=761540af-2694-4f82-b291-4d277c5596f8"},"vehicle_type_id":"4","last_reported":1729012148,"current_range_meters":39200,"station_id":"ce4bh012rcd13ifvqd10","pricing_plan_id":"cebpf4jnsgd1na2vs0mg"},{"bike_id":"c5924f7f-e5b4-4a07-b66d-cc9916f6f2c2","system_id":"levelo_inurba_marseille","lat":43.27378,"lon":5.36254,"is_reserved":false,"is_disabled":false,"rental_uris":{"android":"levelo://app?vid=c5924f7f-e5b4-4a07-b66d-cc9916f6f2c2","ios":"levelo://app?vid=c5924f7f-e5b4-4a07-b66d-cc9916f6f2c2"},"vehicle_type_id":"4","last_reported":1729012148,"current_range_meters":16800,"station_id":"ce4bhbh2rcd13ifvqeo0","pricing_plan_id":"cebpf4jnsgd1na2vs0mg"},{"bike_id":"3cd1531c-b5af-4770-a0c8-d9f046b64bff","system_id":"levelo_inurba_marseille","lat":43.30132,"lon":5.39857,"is_reserved":false,"is_disabled":false,"rental_uris":{"android":"levelo://app?vid=3cd1531c-b5af-4770-a0c8-d9f046b64bff","ios":"levelo://app?vid=3cd1531c-b5af-4770-a0c8-d9f046b64bff"},"vehicle_type_id":"4","last_reported":1729012148,"current_range_meters":28400,"station_id":"ce4bhk92rcd13ifvqgb0","pricing_plan_id":"cebpf4jnsgd1na2vs0mg"},{"bike_id":"70b4e1df-a557-45ac-bdae-59034ef9a92c","system_id":"levelo_inurba_marseille","lat":43.31332,"lon":5.39697,"is_reserved":false,"is_disabled":false,"rental_uris":{"android":"levelo://app?vid=70b4e1df-a557-45ac-bdae-59034ef9a92c","ios":"levelo://app?vid=70b4e1df-a557-45ac-bdae-59034ef9a92c"},"vehicle_type_id":"4","last_reported":1729012148,"current_range_meters":40000,"station_id":"ce4bgvp2rcd13ifvqcu0","pricing_plan_id":"cebpf4jnsgd1na2vs0mg"},{"bike_id":"f1f44c7a-e4eb-4c05-a0a5-7c114df4cda5","system_id":"levelo_inurba_marseille","lat":43.22934,"lon":5.35383,"is_reserved":false,"is_disabled":false,"rental_uris":{"android":"levelo://app?vid=f1f44c7a-e4eb-4c05-a0a5-7c114df4cda5","ios":"levelo://app?vid=f1f44c7a-e4eb-4c05-a0a5-7c114df4cda5"},"vehicle_type_id":"4","last_reported":1729012148,"current_range_meters":11600,"station_id":"cpo3532slgdg3j2ikp40","pricing_plan_id":"cebpf4jnsgd1na2vs0mg"},{"bike_id":"738ab788-ed59-4e77-9194-19068d68de98","system_id":"levelo_inurba_marseille","lat":43.27072,"lon":5.42276,"is_reserved":false,"is_disabled":false,"rental_uris":{"android":"levelo://app?vid=738ab788-ed59-4e77-9194-19068d68de98","ios":"levelo://app?vid=738ab788-ed59-4e77-9194-19068d68de98"},"vehicle_type_id":"4","last_reported":1729012148,"current_range_meters":6400,"station_id":"ce4bhk92rcd13ifvqgb0","pricing_plan_id":"cebpf4jnsgd1na2vs0mg"},{"bike_id":"b3de1653-e74a-47db-9b16-f95f25d58b87","system_id":"levelo_inurba_marseille","lat":43.26189,"lon":5.37452,"is_reserved":false,"is_disabled":false,"rental_uris":{"android":"levelo://app?vid=b3de1653-e74a-47db-9b16-f95f25d58b87","ios":"levelo://app?vid=b3de1653-e74a-47db-9b16-f95f25d58b87"},"vehicle_type_id":"4","last_reported":1729012148,"current_range_meters":22000,"station_id":"ce4bhgp2rcd13ifvqfc0","pricing_plan_id":"cebpf4jnsgd1na2vs0mg"},{"bike_id":"2dd1d628-a739-4cd4-a503-80e50c47e55d","system_id":"levelo_inurba_marseille","lat":43.26487,"lon":5.395431,"is_reserved":false,"is_disabled":false,"rental_uris":{"android":"levelo://app?vid=2dd1d628-a739-4cd4-a503-80e50c47e55d","ios":"levelo://app?vid=2dd1d628-a739-4cd4-a503-80e50c47e55d"},"vehicle_type_id":"4","last_reported":1729012148,"current_range_meters":30400,"station_id":"ce4bhi12rcd13ifvqfq0","pricing_plan_id":"cebpf4jnsgd1na2vs0mg"},{"bike_id":"0e338a1d-917a-4e41-b869-5153491c5424","system_id":"levelo_inurba_marseille","lat":43.321503,"lon":5.413539,"is_reserved":false,"is_disabled":false,"rental_uris":{"android":"levelo://app?vid=0e338a1d-917a-4e41-b869-5153491c5424","ios":"levelo://app?vid=0e338a1d-917a-4e41-b869-5153491c5424"},"vehicle_type_id":"4","last_reported":1729012148,"current_range_meters":25200,"station_id":"ce4bhqh2rcd13ifvqhlg","pricing_plan_id":"cebpf4jnsgd1na2vs0mg"},{"bike_id":"36ff951c-f827-42ef-92ae-1305cd124595","system_id":"levelo_inurba_marseille","lat":43.33029,"lon":5.39055,"is_reserved":false,"is_disabled":false,"rental_uris":{"android":"levelo://app?vid=36ff951c-f827-42ef-92ae-1305cd124595","ios":"levelo://app?vid=36ff951c-f827-42ef-92ae-1305cd124595"},"vehicle_type_id":"4","last_reported":1729012148,"current_range_meters":39200,"station_id":"ce4bhr92rcd13ifvqhrg","pricing_plan_id":"cebpf4jnsgd1na2vs0mg"},{"bike_id":"b4669ba7-9e84-4a45-9cf9-ec62c90ed5e4","system_id":"levelo_inurba_marseille","lat":43.30328,"lon":5.4046,"is_reserved":false,"is_disabled":false,"rental_uris":{"android":"levelo://app?vid=b4669ba7-9e84-4a45-9cf9-ec62c90ed5e4","ios":"levelo://app?vid=b4669ba7-9e84-4a45-9cf9-ec62c90ed5e4"},"vehicle_type_id":"4","last_reported":1729012148,"current_range_meters":0,"station_id":"ce4bh012rcd13ifvqd10","pricing_plan_id":"cebpf4jnsgd1na2vs0mg"},{"bike_id":"1de35a62-8913-4880-802c-93472fad2cad","system_id":"levelo_inurba_marseille","lat":43.27375,"lon":5.36257,"is_reserved":false,"is_disabled":false,"rental_uris":{"android":"levelo://app?vid=1de35a62-8913-4880-802c-93472fad2cad","ios":"levelo://app?vid=1de35a62-8913-4880-802c-93472fad2cad"},"vehicle_type_id":"4","last_reported":1729012148,"current_range_meters":10800,"station_id":"ce4bhbh2rcd13ifvqeo0","pricing_plan_id":"cebpf4jnsgd1na2vs0mg"},{"bike_id":"5974ff13-12e3-4719-bdc0-90252ad55bd0","system_id":"levelo_inurba_marseille","lat":43.303741,"lon":5.406224,"is_reserved":false,"is_disabled":false,"rental_uris":{"android":"levelo://app?vid=5974ff13-12e3-4719-bdc0-90252ad55bd0","ios":"levelo://app?vid=5974ff13-12e3-4719-bdc0-90252ad55bd0"},"vehicle_type_id":"4","last_reported":1729012148,"current_range_meters":18000,"station_id":"ce4bhph2rcd13ifvqheg","pricing_plan_id":"cebpf4jnsgd1na2vs0mg"},{"bike_id":"2ecbe184-1316-4903-81d0-e5b230b14fb2","system_id":"levelo_inurba_marseille","lat":43.33024,"lon":5.39043,"is_reserved":false,"is_disabled":false,"rental_uris":{"android":"levelo://app?vid=2ecbe184-1316-4903-81d0-e5b230b14fb2","ios":"levelo://app?vid=2ecbe184-1316-4903-81d0-e5b230b14fb2"},"vehicle_type_id":"4","last_reported":1729012148,"current_range_meters":6000,"station_id":"ce4bhr92rcd13ifvqhrg","pricing_plan_id":"cebpf4jnsgd1na2vs0mg"},{"bike_id":"4c189915-8dbb-4b9e-82f4-7c0e4c6d281c","system_id":"levelo_inurba_marseille","lat":43.32343,"lon":5.40619,"is_reserved":false,"is_disabled":false,"rental_uris":{"android":"levelo://app?vid=4c189915-8dbb-4b9e-82f4-7c0e4c6d281c","ios":"levelo://app?vid=4c189915-8dbb-4b9e-82f4-7c0e4c6d281c"},"vehicle_type_id":"4","last_reported":1729012148,"current_range_meters":38800,"station_id":"ce4bhq92rcd13ifvqhjg","pricing_plan_id":"cebpf4jnsgd1na2vs0mg"},{"bike_id":"1906d370-11a4-4980-b72c-32488ba164b5","system_id":"levelo_inurba_marseille","lat":43.30173,"lon":5.36617,"is_reserved":false,"is_disabled":false,"rental_uris":{"android":"levelo://app?vid=1906d370-11a4-4980-b72c-32488ba164b5","ios":"levelo://app?vid=1906d370-11a4-4980-b72c-32488ba164b5"},"vehicle_type_id":"4","last_reported":1729012148,"current_range_meters":27600,"station_id":"ce4bgrh2rcd13ifvqc8g","pricing_plan_id":"cebpf4jnsgd1na2vs0mg"},{"bike_id":"65e33b5a-a4ae-4131-b691-a2774e477607","system_id":"levelo_inurba_marseille","lat":43.28155,"lon":5.42643,"is_reserved":false,"is_disabled":false,"rental_uris":{"android":"levelo://app?vid=65e33b5a-a4ae-4131-b691-a2774e477607","ios":"levelo://app?vid=65e33b5a-a4ae-4131-b691-a2774e477607"},"vehicle_type_id":"4","last_reported":1729012148,"current_range_meters":26000,"station_id":"ce4bhnh2rcd13ifvqgug","pricing_plan_id":"cebpf4jnsgd1na2vs0mg"},