{"last_updated":1746019275,"ttl":60,"version":"2.2","data":{"bikes":[{"bike_id":"dc719509-2fc2-4fd5-beb9-8220140de379","system_id":"levelo_inurba_marseille","lat":43.2176,"lon":5.34599,"is_reserved":false,"is_disabled":false,"rental_uris":{"android":"levelo://app?vid=dc719509-2fc2-4fd5-beb9-8220140de379","ios":"levelo://app?vid=dc719509-2fc2-4fd5-beb9-8220140de379"},"vehicle_type_id":"4","last_reported":1746019275,"current_range_meters":2800,"station_id":"st_cvj6r9ubvosntc0bgbag","pricing_plan_id":"cebpf4jnsgd1na2vs0mg"},{"bike_id":"d19af9fe-9edd-4abc-ab1b-22ea5abb68c5","system_id":"levelo_inurba_marseille","lat":43.3064,"lon":5.40091,"is_reserved":false,"is_disabled":false,"rental_uris":{"android":"levelo://app?vid=d19af9fe-9edd-4abc-ab1b-22ea5abb68c5","ios":"levelo://app?vid=d19af9fe-9edd-4abc-ab1b-22ea5abb68c5"},"vehicle_type_id":"4","last_reported":1746019275,"current_range_meters":2800,"station_id":"ce4bh112rcd13ifvqda0","pricing_plan_id":"cebpf4jnsgd1na2vs0mg"},{"bike_id":"e5b4b90d-e268-4de2-98f4-f6d0513f8801","system_id":"levelo_inurba_marseille","lat":43.26547,"lon":5.42219,"is_reserved":false,"is_disabled":false,"rental_uris":{"android":"levelo://app?vid=e5b4b90d-e268-4de2-98f4-f6d0513f8801","ios":"levelo://app?vid=e5b4b90d-e268-4de2-98f4-f6d0513f8801"},"vehicle_type_id":"4","last_reported":1746019275,"current_range_meters":3200,"station_id":"","pricing_plan_id":"cebpf4jnsgd1na2vs0mg"},{"bike_id":"2c6d909e-6baf-4870-9f04-c36b6f60c4d6","system_id":"levelo_inurba_marseille","lat":43.29018,"lon":5.37554,"is_reserved":false,"is_disabled":true,"rental_uris":{"android":"levelo://app?vid=2c6d909e-6baf-4870-9f04-c36b6f60c4d6","ios":"levelo://app?vid=2c6d909e-6baf-4870-9f04-c36b6f60c4d6"},"vehicle_type_id":"4","last_reported":1746019275,"current_range_meters":3200,"station_id":"ce4bh692rcd13ifvqe90","pricing_plan_id":"cebpf4jnsgd1na2vs0mg"},{"bike_id":"772c2df1-59ca-42dc-b4ed-ba91205a4b51","system_id":"levelo_inurba_marseille","lat":43.31312,"lon":5.39692,"is_reserved":false,"is_disabled":false,"rental_uris":{"android":"levelo://app?vid=772c2df1-59ca-42dc-b4ed-ba91205a4b51","ios":"levelo://app?vid=772c2df1-59ca-42dc-b4ed-ba91205a4b51"},"vehicle_type_id":"4","last_reported":1746019275,"current_range_meters":3200,"station_id":"ce4bgvp2rcd13ifvqcu0","pricing_plan_id":"cebpf4jnsgd1na2vs0mg"},{"bike_id":"f049f752-cd02-4a3f-8c8d-ac6dbafce647","system_id":"levelo_inurba_marseille","lat":43.3229,"lon":5.38274,"is_reserved":false,"is_disabled":false,"rental_uris":{"android":"levelo://app?vid=f049f752-cd02-4a3f-8c8d-ac6dbafce647","ios":"levelo://app?vid=f049f752-cd02-4a3f-8c8d-ac6dbafce647"},"vehicle_type_id":"4","last_reported":1746019275,"current_range_meters":3600,"station_id":"ce4bhr12rcd13ifvqhqg","pricing_plan_id":"cebpf4jnsgd1na2vs0mg"},{"bike_id":"e0bca8b2-6b12-4ab5-a741-45e08e69ebd5","system_id":"levelo_inurba_marseille","lat":43.30337,"lon":5.40432,"is_reserved":false,"is_disabled":false,"rental_uris":{"android":"levelo://app?vid=e0bca8b2-6b12-4ab5-a741-45e08e69ebd5","ios":"levelo://app?vid=e0bca8b2-6b12-4ab5-a741-45e08e69ebd5"},"vehicle_type_id":"4","last_reported":1746019275,"current_range_meters":3200,"station_id":"ce4bh012rcd13ifvqd10","pricing_plan_id":"cebpf4jnsgd1na2vs0mg"},{"bike_id":"16518af4-4122-42a5-b483-cfe48bc50c2e","system_id":"levelo_inurba_marseille","lat":43.29269,"lon":5.38445,"is_reserved":false,"is_disabled":false,"rental_uris":{"android":"levelo://app?vid=16518af4-4122-42a5-b483-cfe48bc50c2e","ios":"levelo://app?vid=16518af4-4122-42a5-b483-cfe48bc50c2e"},"vehicle_type_id":"4","last_reported":1746019275,"current_range_meters":4000,"station_id":"ce4bh692rcd13ifvqea0","pricing_plan_id":"cebpf4jnsgd1na2vs0mg"},{"bike_id":"f1e3c12a-02a3-4893-b9e1-1aacd74f3f49","system_id":"levelo_inurba_marseille","lat":43.32113,"lon":5.36768,"is_reserved":false,"is_disabled":false,"rental_uris":{"android":"levelo://app?vid=f1e3c12a-02a3-4893-b9e1-1aacd74f3f49","ios":"levelo://app?vid=f1e3c12a-02a3-4893-b9e1-1aacd74f3f49"},"vehicle_type_id":"4","last_reported":1746019275,"current_range_meters":4000,"station_id":"ce4bhrh2rcd13ifvqhug","pricing_plan_id":"cebpf4jnsgd1na2vs0mg"},{"bike_id":"7aba410a-85ab-4814-aa2b-1c2185397eec","system_id":"levelo_inurba_marseille","lat":43.30918,"lon":5.40151,"is_reserved":false,"is_disabled":false,"rental_uris":{"android":"levelo://app?vid=7aba410a-85ab-4814-aa2b-1c2185397eec","ios":"levelo://app?vid=7aba410a-85ab-4814-aa2b-1c2185397eec"},"vehicle_type_id":"4","last_reported":1746019275,"current_range_meters":3600,"station_id":"ce4bgvp2rcd13ifvqct0","pricing_plan_id":"cebpf4jnsgd1na2vs0mg"},{"bike_id":"b01a7e2b-c9f1-4ac2-a255-3ec190f6b2dc","system_id":"levelo_inurba_marseille","lat":43.24169,"lon":5.36398,"is_reserved":false,"is_disabled":false,"rental_uris":{"android":"levelo://app?vid=b01a7e2b-c9f1-4ac2-a255-3ec190f6b2dc","ios":"levelo://app?vid=b01a7e2b-c9f1-4ac2-a255-3ec190f6b2dc"},"vehicle_type_id":"4","last_reported":1746019275,"current_range_meters":4000,"station_id":"cpo36qri1sfpv3e86is0","pricing_plan_id":"cebpf4jnsgd1na2vs0mg"},{"bike_id":"87f3c6d6-b161-495f-9fce-0486758b0b65","system_id":"levelo_inurba_marseille","lat":43.30544,"lon":5.36556,"is_reserved":false,"is_disabled":false,"rental_uris":{"android":"levelo://app?vid=87f3c6d6-b161-495f-9fce-0486758b0b65","ios":"levelo://app?vid=87f3c6d6-b161-495f-9fce-0486758b0b65"},"vehicle_type_id":"4","last_reported":1746019275,"current_range_meters":4000,"station_id":"ce4bgs12rcd13ifvqcag","pricing_plan_id":"cebpf4jnsgd1na2vs0mg"},{"bike_id":"56be7afa-306d-4e8c-96de-f4621573a3d5","system_id":"levelo_inurba_marseille","lat":43.27377,"lon":5.36252,"is_reserved":false,"is_disabled":false,"rental_uris":{"android":"levelo://app?vid=56be7afa-306d-4e8c-96de-f4621573a3d5","ios":"levelo://app?vid=56be7afa-306d-4e8c-96de-f4621573a3d5"},"vehicle_type_id":"4","last_reported":1746019275,"current_range_meters":4400,"station_id":"ce4bhbh2rcd13ifvqeo0","pricing_plan_id":"cebpf4jnsgd1na2vs0mg"},{"bike_id":"8ec2068c-6383-49f6-8423-dd597497f40d","system_id":"levelo_inurba_marseille","lat":43.27621,"lon":5.36105,"is_reserved":false,"is_disabled":false,"rental_uris":{"android":"levelo://app?vid=8ec2068c-6383-49f6-8423-dd597497f40d","ios":"levelo://app?vid=8ec2068c-6383-49f6-8423-dd597497f40d"},"vehicle_type_id":"4","last_reported":1746019275,"current_range_meters":4400,"station_id":"ce4bgj92rcd13ifvqbe0","pricing_plan_id":"cebpf4jnsgd1na2vs0mg"},{"bike_id":"f45a6e61-d894-44a0-9a65-eb0a9e0cc1c7","system_id":"levelo_inurba_marseille","lat":43.211977,"lon":5.35065,"is_reserved":false,"is_disabled":false,"rental_uris":{"android":"levelo://app?vid=f45a6e61-d894-44a0-9a65-eb0a9e0cc1c7","ios":"levelo://app?vid=f45a6e61-d894-44a0-9a65-eb0a9e0cc1c7"},"vehicle_type_id":"4","last_reported":1746019275,"current_range_meters":4400,"station_id":"st_cvj6sg6p6f1abm77japg","pricing_plan_id":"cebpf4jnsgd1na2vs0mg"},{"bike_id":"4df50a3f-ec75-4abb-a66a-7f49c68de98b","system_id":"levelo_inurba_marseille","lat":43.299026,"lon":5.436606,"is_reserved":false,"is_disabled":false,"rental_uris":{"android":"levelo://app?vid=4df50a3f-ec75-4abb-a66a-7f49c68de98b","ios":"levelo://app?vid=4df50a3f-ec75-4abb-a66a-7f49c68de98b"},"vehicle_type_id":"4","last_reported":1746019275,"current_range_meters":4400,"station_id":"ce4bhpp2rcd13ifvqhfg","pricing_plan_id":"cebpf4jnsgd1na2vs0mg"},{"bike_id":"85d41d74-9d1e-4717-be27-06f5a8403b09","system_id":"levelo_inurba_marseille","lat":43.23196,"lon":5.35552,"is_reserved":false,"is_disabled":false,"rental_uris":{"android":"levelo://app?vid=85d41d74-9d1e-4717-be27-06f5a8403b09","ios":"levelo://app?vid=85d41d74-9d1e-4717-be27-06f5a8403b09"},"vehicle_type_id":"4","last_reported":1746019275,"current_range_meters":4800,"station_id":"ce4bhu92rcd13ifvqi70","pricing_plan_id":"cebpf4jnsgd1na2vs0mg"},{"bike_id":"41ce140c-b609-4ebe-b466-319f42b8f890","system_id":"levelo_inurba_marseille","lat":43.27066,"lon":5.402632,"is_reserved":false,"is_disabled":false,"rental_uris":{"android":"levelo://app?vid=41ce140c-b609-4ebe-b466-319f42b8f890","ios":"levelo://app?vid=41ce140c-b609-4ebe-b466-319f42b8f890"},"vehicle_type_id":"4","last_reported":1746019275,"current_range_meters":4800,"station_id":"","pricing_plan_id":"cebpf4jnsgd1na2vs0mg"},{"bike_id":"24e43c13-d268-4170-880c-06f4b533f034","system_id":"levelo_inurba_marseille","lat":43.31489,"lon":5.37308,"is_reserved":false,"is_disabled":false,"rental_uris":{"android":"levelo://app?vid=24e43c13-d268-4170-880c-06f4b533f034","ios":"levelo://app?vid=24e43c13-d268-4170-880c-06f4b533f034"},"vehicle_type_id":"4","last_reported":1746019275,"current_range_meters":4800,"station_id":"ce4bgt12rcd13ifvqcd0","pricing_plan_id":"cebpf4jnsgd1na2vs0mg"},{"bike_id":"0dbacc1e-ea8e-4e4f-8580-8cdc803bf2e8","system_id":"levelo_inurba_marseille","lat":43.30649,"lon":5.40096,"is_reserved":false,"is_disabled":false,"rental_uris":{"android":"levelo://app?vid=0dbacc1e-ea8e-4e4f-8580-8cdc803bf2e8","ios":"levelo://app?vid=0dbacc1e-ea8e-4e4f-8580-8cdc803bf2e8"},"vehicle_type_id":"4","last_reported":1746019275,"current_range_meters":5600,"station_id":"ce4bh112rcd13ifvqda0","pricing_plan_id":"cebpf4jnsgd1na2vs0mg"},{"bike_id":"770a55fa-1920-4301-914d-eb9d14937e0e","system_id":"levelo_inurba_marseille","lat":43.27433,"lon":5.39424,"is_reserved":false,"is_disabled":false,"rental_uris":{"android":"levelo://app?vid=770a55fa-1920-4301-914d-eb9d14937e0e","ios":"levelo://app?vid=770a55fa-1920-4301-914d-eb9d14937e0e"},"vehicle_type_id":"4","last_reported":1746019275,"current_range_meters":4800,"station_id":"ce4bhdp2rcd13ifvqf20","pricing_plan_id":"cebpf4jnsgd1na2vs0mg"},{"bike_id":"5e3937c9-cccb-4366-a4bd-7c644936dadf","system_id":"levelo_inurba_marseille","lat":43.29373,"lon":5.37859,"is_reserved":false,"is_disabled":false,"rental_uris":{"android":"levelo://app?vid=5e3937c9-cccb-4366-a4bd-7c644936dadf","ios":"levelo://app?vid=5e3937c9-cccb-4366-a4bd-7c644936dadf"},"vehicle_type_id":"4","last_reported":1746019275,"current_range_meters":6000,"station_id":"ce4bgjh2rcd13ifvqbf0","pricing_plan_id":"cebpf4jnsgd1na2vs0mg"},{"bike_id":"d3b30997-4832-426d-aa52-7a45e21d094e","system_id":"levelo_inurba_marseille","lat":43.24548,"lon":5.39523,"is_reserved":false,"is_disabled":false,"rental_uris":{"android":"levelo://app?vid=d3b30997-4832-426d-aa52-7a45e21d094e","ios":"levelo://app?vid=d3b30997-4832-426d-aa52-7a45e21d094e"},"vehicle_type_id":"4","last_reported":1746019275,"current_range_meters":6000,"station_id":"ce4bhlp2rcd13ifvqgjg","pricing_plan_id":"cebpf4jnsgd1na2vs0mg"},{"bike_id":"4441358f-f997-4f8a-9ea5-0f018f36448c","system_id":"levelo_inurba_marseille","lat":43.29008,"lon":5.35604,"is_reserved":false,"is_disabled":false,"rental_uris":{"android":"levelo://app?vid=4441358f-f997-4f8a-9ea5-0f018f36448c","ios":"levelo://app?vid=4441358f-f997-4f8a-9ea5-0f018f36448c"},"vehicle_type_id":"4","last_reported":1746019275,"current_range_meters":5600,"station_id":"ce4bhb92rcd13ifvqen0","pricing_plan_id":"cebpf4jnsgd1na2vs0mg"},{"bike_id":"64c8d3ea-9c6f-455a-b2d7-00a036fae7a4","system_id":"levelo_inurba_marseille","lat":43.26926,"lon":5.39258,"is_reserved":false,"is_disabled":false,"rental_uris":{"android":"levelo://app?vid=64c8d3ea-9c6f-455a-b2d7-00a036fae7a4","ios":"levelo://app?vid=64c8d3ea-9c6f-455a-b2d7-00a036fae7a4"},"vehicle_type_id":"4","last_reported":1746019275,"current_range_meters":6400,"station_id":"","pricing_plan_id":"cebpf4jnsgd1na2vs0mg"},{"bike_id":"6cb8b99f-3f6f-459e-a0c0-f04445338438","system_id":"levelo_inurba_marseille","lat":43.30315,"lon":5.39211,"is_reserved":false,"is_disabled":false,"rental_uris":{"android":"levelo://app?vid=6cb8b99f-3f6f-459e-a0c0-f04445338438","ios":"levelo://app?vid=6cb8b99f-3f6f-459e-a0c0-f04445338438"},"vehicle_type_id":"4","last_reported":1746019275,"current_range_meters":6400,"station_id":"ce4bgkh2rcd13ifvqbk0","pricing_plan_id":"cebpf4jnsgd1na2vs0mg"},{"bike_id":"dbc3b9a2-6fa8-4624-923a-50ef869739db","system_id":"levelo_inurba_marseille","lat":43.25493,"lon":5.37648,"is_reserved":false,"is_disabled":false,"rental_uris":{"android":"levelo://app?vid=dbc3b9a2-6fa8-4624-923a-50ef869739db","ios":"levelo://app?vid=dbc3b9a2-6fa8-4624-923a-50ef869739db"},"vehicle_type_id":"4","last_reported":1746019275,"current_range_meters":6400,"station_id":"ce4bhh12rcd13ifvqff0","pricing_plan_id":"cebpf4jnsgd1na2vs0mg"},{"bike_id":"89e9553b-359a-4286-8dbe-b7ac879dcc90","system_id":"levelo_inurba_marseille","lat":43.32473,"lon":5.36544,"is_reserved":false,"is_disabled":false,"rental_uris":{"android":"levelo://app?vid=89e9553b-359a-4286-8dbe-b7ac879dcc90","ios":"levelo://app?vid=89e9553b-359a-4286-8dbe-b7ac879dcc90"},"vehicle_type_id":"4","last_reported":1746019275,"current_range_meters":6400,"station_id":"ce4bhs12rcd13ifvqhvg","pricing_plan_id":"cebpf4jnsgd1na2vs0mg"},{"bike_id":"9f22f990-1d13-45a2-bc87-ca90219f9bc0","system_id":"levelo_inurba_marseille","lat":43.24563,"lon":5.39514,"is_reserved":false,"is_disabled":false,"rental_uris":{"android":"levelo://app?vid=9f22f990-1d13-45a2-bc87-ca90219f9bc0","ios":"levelo://app?vid=9f22f990-1d13-45a2-bc87-ca90219f9bc0"},"vehicle_type_id":"4","last_reported":1746019275,"current_range_meters":6400,"station_id":"ce4bhlp2rcd13ifvqgjg","pricing_plan_id":"cebpf4jnsgd1na2vs0mg"},{"bike_id":"888314a6-652c-42c3-bb4c-5f19bef5251b","system_id":"levelo_inurba_marseille","lat":43.290063,"lon":5.356121,"is_reserved":false,"is_disabled":false,"rental_uris":{"android":"levelo://app?vid=888314a6-652c-42c3-bb4c-5f19bef5251b","ios":"levelo://app?vid=888314a6-652c-42c3-bb4c-5f19bef5251b"},"vehicle_type_id":"4","last_reported":1746019275,"current_range_meters":6400,"station_id":"ce4bhb92rcd13ifvqen0","pricing_plan_id":"cebpf4jnsgd1na2vs0mg"},{"bike_id":"3234a140-97c2-4441-8e61-c29a79e88c11","system_id":"levelo_inurba_marseille","lat":43.27372,"lon":5.3625,"is_reserved":false,"is_disabled":false,"rental_uris":{"android":"levelo://app?vid=3234a140-97c2-4441-8e61-c29a79e88c11","ios":"levelo://app?vid=3234a140-97c2-4441-8e61-c29a79e88c11"},"vehicle_type_id":"4","last_reported":1746019275,"current_range_meters":6800,"station_id":"ce4bhbh2rcd13ifvqeo0","pricing_plan_id":"cebpf4jnsgd1na2vs0mg"},{"bike_id":"369e23e5-2240-4e38-ac42-96c3371f4bfe","system_id":"levelo_inurba_marseille","lat":43.2867,"lon":5.3635,"is_reserved":false,"is_disabled":false,"rental_uris":{"android":"levelo://app?vid=369e23e5-2240-4e38-ac42-96c3371f4bfe","ios":"levelo://app?vid=369e23e5-2240-4e38-ac42-96c3371f4bfe"},"vehicle_type_id":"4","last_reported":1746019275,"current_range_meters":6800,"station_id":"ce4bhah2rcd13ifvqej0","pricing_plan_id":"cebpf4jnsgd1na2vs0mg"},{"bike_id":"a0e339f9-968b-4a9b-b259-5917b9aa4840","system_id":"levelo_inurba_marseille","lat":43.28416,"lon":5.37511,"is_reserved":false,"is_disabled":false,"rental_uris":{"android":"levelo://app?vid=a0e339f9-968b-4a9b-b259-5917b9aa4840","ios":"levelo://app?vid=a0e339f9-968b-4a9b-b259-5917b9aa4840"},"vehicle_type_id":"4","last_reported":1746019275,"current_range_meters":6800,"station_id":"ce4bh412rcd13ifvqds0","pricing_plan_id":"cebpf4jnsgd1na2vs0mg"},{"bike_id":"afb5fd72-e5b4-4630-a677-e1c0f5ac01d3","system_id":"levelo_inurba_marseille","lat":43.25831,"lon":5.39438,"is_reserved":false,"is_disabled":false,"rental_uris":{"android":"levelo://app?vid=afb5fd72-e5b4-4630-a677-e1c0f5ac01d3","ios":"levelo://app?vid=afb5fd72-e5b4-4630-a677-e1c0f5ac01d3"},"vehicle_type_id":"4","last_reported":1746019275,"current_range_meters":6800,"station_id":"ce4bhip2rcd13ifvqft0","pricing_plan_id":"cebpf4jnsgd1na2vs0mg"},{"bike_id":"ea9fec3d-8748-4e9a-a2ec-d0b2ea85f1f3","system_id":"levelo_inurba_marseille","lat":43.24169,"lon":5.36396,"is_reserved":false,"is_disabled":false,"rental_uris":{"android":"levelo://app?vid=ea9fec3d-8748-4e9a-a2ec-d0b2ea85f1f3","ios":"levelo://app?vid=ea9fec3d-8748-4e9a-a2ec-d0b2ea85f1f3"},"vehicle_type_id":"4","last_reported":1746019275,"current_range_meters":6800,"station_id":"cpo36qri1sfpv3e86is0","pricing_plan_id":"cebpf4jnsgd1na2vs0mg"},{"bike_id":"f4f06f8e-53d4-42d1-ac43-e3898a2dbd54","system_id":"levelo_inurba_marseille","lat":43.28669,"lon":5.36342,"is_reserved":false,"is_disabled":false,"rental_uris":{"android":"levelo://app?vid=f4f06f8e-53d4-42d1-ac43-e3898a2dbd54","ios":"levelo://app?vid=f4f06f8e-53d4-42d1-ac43-e3898a2dbd54"},"vehicle_type_id":"4","last_reported":1746019275,"current_range_meters":7200,"station_id":"ce4bhah2rcd13ifvqej0","pricing_plan_id":"cebpf4jnsgd1na2vs0mg"},{"bike_id":"3a099ec1-7990-4038-9313-3c1f2562a259","system_id":"levelo_inurba_marseille","lat":43.261893,"lon":5.37555,"is_reserved":false,"is_disabled":false,"rental_uris":{"android":"levelo://app?vid=3a099ec1-7990-4038-9313-3c1f2562a259","ios":"levelo://app?vid=3a099ec1-7990-4038-9313-3c1f2562a259"},"vehicle_type_id":"4","last_reported":1746019275,"current_range_meters":7200,"station_id":"","pricing_plan_id":"cebpf4jnsgd1na2vs0mg"},{"bike_id":"b1d2cb25-7731-416f-83a1-eee9d2c1cead","system_id":"levelo_inurba_marseille","lat":43.264823,"lon":5.395562,"is_reserved":false,"is_disabled":false,"rental_uris":{"android":"levelo://app?vid=b1d2cb25-7731-416f-83a1-eee9d2c1cead","ios":"levelo://app?vid=b1d2cb25-7731-416f-83a1-eee9d2c1cead"},"vehicle_type_id":"4","last_reported":1746019275,"current_range_meters":7200,"station_id":"ce4bhi12rcd13ifvqfq0","pricing_plan_id":"cebpf4jnsgd1na2vs0mg"},{"bike_id":"36255865-01f1-4366-9a44-66117f6120db","system_id":"levelo_inurba_marseille","lat":43.2985,"lon":5.38107,"is_reserved":false,"is_disabled":false,"rental_uris":{"android":"levelo://app?vid=36255865-01f1-4366-9a44-66117f6120db","ios":"levelo://app?vid=36255865-01f1-4366-9a44-66117f6120db"},"vehicle_type_id":"4","last_reported":1746019275,"current_range_meters":7200,"station_id":"ce4bhgh2rcd13ifvqfb0","pricing_plan_id":"cebpf4jnsgd1na2vs0mg"},{"bike_id":"50c0da64-7b99-4d52-bd85-6f5c360f4ddc","system_id":"levelo_inurba_marseille","lat":43.21759,"lon":5.34611,"is_reserved":false,"is_disabled":false,"rental_uris":{"android":"levelo://app?vid=50c0da64-7b99-4d52-bd85-6f5c360f4ddc","ios":"levelo://app?vid=50c0da64-7b99-4d52-bd85-6f5c360f4ddc"},"vehicle_type_id":"4","last_reported":1746019275,"current_range_meters":8000,"station_id":"st_cvj6r9ubvosntc0bgbag","pricing_plan_id":"cebpf4jnsgd1na2vs0mg"},{"bike_id":"373780b6-3ca7-4926-9bf4-ae13ddc2663c","system_id":"levelo_inurba_marseille","lat":43.323438,"lon":5.406205,"is_reserved":false,"is_disabled":true,"rental_uris":{"android":"levelo://app?vid=373780b6-3ca7-4926-9bf4-ae13ddc2663c","ios":"levelo://app?vid=373780b6-3ca7-4926-9bf4-ae13ddc2663c"},"vehicle_type_id":"4","last_reported":1746019275,"current_range_meters":8000,"station_id":"ce4bhq92rcd13ifvqhjg","pricing_plan_id":"cebpf4jnsgd1na2vs0mg"},{"bike_id":"ae1d5fbc-8945-49e5-a2b0-931924a7e137","system_id":"levelo_inurba_marseille","lat":43.29032,"lon":5.39976,"is_reserved":false,"is_disabled":false,"rental_uris":{"android":"levelo://app?vid=ae1d5fbc-8945-49e5-a2b0-931924a7e137","ios":"levelo://app?vid=ae1d5fbc-8945-49e5-a2b0-931924a7e137"},"vehicle_type_id":"4","last_reported":1746019275,"current_range_meters":8000,"station_id":"ce4bh392rcd13ifvqdm0","pricing_plan_id":"cebpf4jnsgd1na2vs0mg"},{"bike_id":"e7437578-5c21-459d-a9a9-162acb594aaf","system_id":"levelo_inurba_marseille","lat":43.30673,"lon":5.40074,"is_reserved":false,"is_disabled":true,"rental_uris":{"android":"levelo://app?vid=e7437578-5c21-459d-a9a9-162acb594aaf","ios":"levelo://app?vid=e7437578-5c21-459d-a9a9-162acb594aaf"},"vehicle_type_id":"4","last_reported":1746019275,"current_range_meters":8000,"station_id":"ce4bh112rcd13ifvqda0","pricing_plan_id":"cebpf4jnsgd1na2vs0mg"},{"bike_id":"aa1cd4fc-cacd-4616-92ba-a2b397925d83","system_id":"levelo_inurba_marseille","lat":43.26217,"lon":5.37438,"is_reserved":false,"is_disabled":false,"rental_uris":{"android":"levelo://app?vid=aa1cd4fc-cacd-4616-92ba-a2b397925d83","ios":"levelo://app?vid=aa1cd4fc-cacd-4616-92ba-a2b397925d83"},"vehicle_type_id":"4","last_reported":1746019275,"current_range_meters":8000,"station_id":"ce4bhgp2rcd13ifvqfc0","pricing_plan_id":"cebpf4jnsgd1na2vs0mg"},{"bike_id":"f7d434d6-c94a-44aa-85df-690d8ef2922e","system_id":"levelo_inurba_marseille","lat":43.32486,"lon":5.36564,"is_reserved":false,"is_disabled":false,"rental_uris":{"android":"levelo://app?vid=f7d434d6-c94a-44aa-85df-690d8ef2922e","ios":"levelo://app?vid=f7d434d6-c94a-44aa-85df-690d8ef2922e"},"vehicle_type_id":"4","last_reported":1746019275,"current_range_meters":8400,"station_id":"ce4bhs12rcd13ifvqhvg","pricing_plan_id":"cebpf4jnsgd1na2vs0mg"},{"bike_id":"87b1dedc-1f4b-4235-96db-e9f679755b35","system_id":"levelo_inurba_marseille","lat":43.283708,"lon":5.386466,"is_reserved":false,"is_disabled":true,"rental_uris":{"android":"levelo://app?vid=87b1dedc-1f4b-4235-96db-e9f679755b35","ios":"levelo://app?vid=87b1dedc-1f4b-4235-96db-e9f679755b35"},"vehicle_type_id":"4","last_reported":1746019275,"current_range_meters":8400,"station_id":"ce4bh492rcd13ifvqdvg","pricing_plan_id":"cebpf4jnsgd1na2vs0mg"},{"bike_id":"c7d4ca92-020f-4c6f-815a-ddc6fdf77b1f","system_id":"levelo_inurba_marseille","lat":43.2347,"lon":5.38049,"is_reserved":false,"is_disabled":false,"rental_uris":{"android":"levelo://app?vid=c7d4ca92-020f-4c6f-815a-ddc6fdf77b1f","ios":"levelo://app?vid=c7d4ca92-020f-4c6f-815a-ddc6fdf77b1f"},"vehicle_type_id":"4","last_reported":1746019275,"current_range_meters":8400,"station_id":"","pricing_plan_id":"cebpf4jnsgd1na2vs0mg"},{"bike_id":"ffa0285d-5baa-4325-94c3-07da0c2810f9","system_id":"levelo_inurba_marseille","lat":43.284087,"lon":5.375058,"is_reserved":false,"is_disabled":true,"rental_uris":{"android":"levelo://app?vid=ffa0285d-5baa-4325-94c3-07da0c2810f9","ios":"levelo://app?vid=ffa0285d-5baa-4325-94c3-07da0c2810f9"},"vehicle_type_id":"4","last_reported":1746019275,"current_range_meters":8800,"station_id":"ce4bh412rcd13ifvqds0","pricing_plan_id":"cebpf4jnsgd1na2vs0mg"},{"bike_id":"19753a26-9488-4d93-aa93-66ddc306f770","system_id":"levelo_inurba_marseille","lat":43.3154,"lon":5.38015,"is_reserved":false,"is_disabled":false,"rental_uris":{"android":"levelo://app?vid=19753a26-9488-4d93-aa93-66ddc306f770","ios":"levelo://app?vid=19753a26-9488-4d93-aa93-66ddc306f770"},"vehicle_type_id":"4","last_reported":1746019275,"current_range_meters":8800,"station_id":"ce4bhsp2rcd13ifvqi50","pricing_plan_id":"cebpf4jnsgd1na2vs0mg"},{"bike_id":"6c762325-22d4-409f-abd0-63634b302a04","system_id":"levelo_inurba_marseille","lat":43.23148,"lon":5.43705,"is_reserved":false,"is_disabled":false,"rental_uris":{"android":"levelo://app?vid=6c762325-22d4-409f-abd0-63634b302a04","ios":"levelo://app?vid=6c762325-22d4-409f-abd0-63634b302a04"},"vehicle_type_id":"4","last_reported":1746019275,"current_range_meters":8800,"station_id":"ce4bhmp2rcd13ifvqgog","pricing_plan_id":"cebpf4jnsgd1na2vs0mg"},{"bike_id":"a0f4bd78-f5c4-42c9-acdf-e7276b835249","system_id":"levelo_inurba_marseille","lat":43.33157,"lon":5.38157,"is_reserved":false,"is_disabled":false,"rental_uris":{"android":"levelo://app?vid=a0f4bd78-f5c4-42c9-acdf-e7276b835249","ios":"levelo://app?vid=a0f4bd78-f5c4-42c9-acdf-e7276b835249"},"vehicle_type_id":"4","last_reported":1746019275,"current_range_meters":8800,"station_id":"","pricing_plan_id":"cebpf4jnsgd1na2vs0mg"},{"bike_id":"d8f54294-1e93-4c29-9fbf-a13872607e6b","system_id":"levelo_inurba_marseille","lat":43.24809,"lon":5.37448,"is_reserved":false,"is_disabled":false,"rental_uris":{"android":"levelo://app?vid=d8f54294-1e93-4c29-9fbf-a13872607e6b","ios":"levelo://app?vid=d8f54294-1e93-4c29-9fbf-a13872607e6b"},"vehicle_type_id":"4","last_reported":1746019275,"current_range_meters":8800,"station_id":"ce4bhgh2rcd13ifvqfb0","pricing_plan_id":"cebpf4jnsgd1na2vs0mg"},{"bike_id":"489415b8-9254-45c1-b00c-e7554d56755c","system_id":"levelo_inurba_marseille","lat":43.245291,"lon":5.412189,"is_reserved":false,"is_disabled":false,"rental_uris":{"android":"levelo://app?vid=489415b8-9254-45c1-b00c-e7554d56755c","ios":"levelo://app?vid=489415b8-9254-45c1-b00c-e7554d56755c"},"vehicle_type_id":"4","last_reported":1746019275,"current_range_meters":9200,"station_id":"","pricing_plan_id":"cebpf4jnsgd1na2vs0mg"},{"bike_id":"abf89996-0510-4f04-bfa2-1205bbeec745","system_id":"levelo_inurba_marseille","lat":43.26932,"lon":5.38909,"is_reserved":false,"is_disabled":false,"rental_uris":{"android":"levelo://app?vid=abf89996-0510-4f04-bfa2-1205bbeec745","ios":"levelo://app?vid=abf89996-0510-4f04-bfa2-1205bbeec745"},"vehicle_type_id":"4","last_reported":1746019275,"current_range_meters":8800,"station_id":"ce4bhhh2rcd13ifvqfl0","pricing_plan_id":"cebpf4jnsgd1na2vs0mg"},{"bike_id":"8c7ea2d4-589d-4f14-baee-3f95898bc63d","system_id":"levelo_inurba_marseille","lat":43.25825,"lon":5.39436,"is_reserved":false,"is_disabled":false,"rental_uris":{"android":"levelo://app?vid=8c7ea2d4-589d-4f14-baee-3f95898bc63d","ios":"levelo://app?vid=8c7ea2d4-589d-4f14-baee-3f95898bc63d"},"vehicle_type_id":"4","last_reported":1746019275,"current_range_meters":9200,"station_id":"ce4bhip2rcd13ifvqft0","pricing_plan_id":"cebpf4jnsgd1na2vs0mg"},{"bike_id":"b247cfa0-2a9e-4389-993a-0446b8975648","system_id":"levelo_inurba_marseille","lat":43.24816,"lon":5.37449,"is_reserved":false,"is_disabled":false,"rental_uris":{"android":"levelo://app?vid=b247cfa0-2a9e-4389-993a-0446b8975648","ios":"levelo://app?vid=b247cfa0-2a9e-4389-993a-0446b8975648"},"vehicle_type_id":"4","last_reported":1746019275,"current_range_meters":9600,"station_id":"ce4bhgh2rcd13ifvqfb0","pricing_plan_id":"cebpf4jnsgd1na2vs0mg"},{"bike_id":"bb823fdf-9c19-43dd-8023-221b745cad6b","system_id":"levelo_inurba_marseille","lat":43.265542,"lon":5.372819,"is_reserved":false,"is_disabled":false,"rental_uris":{"android":"levelo://app?vid=bb823fdf-9c19-43dd-8023-221b745cad6b","ios":"levelo://app?vid=bb823fdf-9c19-43dd-8023-221b745cad6b"},"vehicle_type_id":"4","last_reported":1746019275,"current_range_meters":9600,"station_id":"ce4bhg12rcd13ifvqf70","pricing_plan_id":"cebpf4jnsgd1na2vs0mg"},{"bike_id":"dc82108c-9525-48bf-8a2c-9aab4803c159","system_id":"levelo_inurba_marseille","lat":43.3048,"lon":5.36641,"is_reserved":false,"is_disabled":false,"rental_uris":{"android":"levelo://app?vid=dc82108c-9525-48bf-8a2c-9aab4803c159","ios":"levelo://app?vid=dc82108c-9525-48bf-8a2c-9aab4803c159"},"vehicle_type_id":"4","last_reported":1746019275,"current_range_meters":9600,"station_id":"","pricing_plan_id":"cebpf4jnsgd1na2vs0mg"},{"bike_id":"07edfd45-c3fa-4b57-b865-cf1bf9963264","system_id":"levelo_inurba_marseille","lat":43.2339,"lon":5.36429,"is_reserved":false,"is_disabled":false,"rental_uris":{"android":"levelo://app?vid=07edfd45-c3fa-4b57-b865-cf1bf9963264","ios":"levelo://app?vid=07edfd45-c3fa-4b57-b865-cf1bf9963264"},"vehicle_type_id":"4","last_reported":1746019275,"current_range_meters":9600,"station_id":"","pricing_plan_id":"cebpf4jnsgd1na2vs0mg"},{"bike_id":"1f67440e-7cde-4ea1-9a6b-a133412b785a","system_id":"levelo_inurba_marseille","lat":43.2551,"lon":5.37654,"is_reserved":false,"is_disabled":false,"rental_uris":{"android":"levelo://app?vid=1f67440e-7cde-4ea1-9a6b-a133412b785a","ios":"levelo://app?vid=1f67440e-7cde-4ea1-9a6b-a133412b785a"},"vehicle_type_id":"4","last_reported":1746019275,"current_range_meters":9600,"station_id":"ce4bhh12rcd13ifvqff0","pricing_plan_id":"cebpf4jnsgd1na2vs0mg"},{"bike_id":"dd15dd3d-2d4e-4590-8fd7-a3a434ab7115","system_id":"levelo_inurba_marseille","lat":43.31253,"lon":5.36824,"is_reserved":false,"is_disabled":false,"rental_uris":{"android":"levelo://app?vid=dd15dd3d-2d4e-4590-8fd7-a3a434ab7115","ios":"levelo://app?vid=dd15dd3d-2d4e-4590-8fd7-a3a434ab7115"},"vehicle_type_id":"4","last_reported":1746019275,"current_range_meters":9600,"station_id":"ce4bgl92rcd13ifvqbq0","pricing_plan_id":"cebpf4jnsgd1na2vs0mg"},{"bike_id":"0a751336-2ada-4d45-9440-724456094b4b","system_id":"levelo_inurba_marseille","lat":43.24808,"lon":5.37454,"is_reserved":false,"is_disabled":false,"rental_uris":{"android":"levelo://app?vid=0a751336-2ada-4d45-9440-724456094b4b","ios":"levelo://app?vid=0a751336-2ada-4d45-9440-724456094b4b"},"vehicle_type_id":"4","last_reported":1746019275,"current_range_meters":10000,"station_id":"ce4bhgh2rcd13ifvqfb0","pricing_plan_id":"cebpf4jnsgd1na2vs0mg"},{"bike_id":"dd26ecd7-4857-4e33-aee0-9420c26e4020","system_id":"levelo_inurba_marseille","lat":43.27376,"lon":5.36247,"is_reserved":false,"is_disabled":false,"rental_uris":{"android":"levelo://app?vid=dd26ecd7-4857-4e33-aee0-9420c26e4020","ios":"levelo://app?vid=dd26ecd7-4857-4e33-aee0-9420c26e4020"},"vehicle_type_id":"4","last_reported":1746019275,"current_range_meters":10800,"station_id":"ce4bhbh2rcd13ifvqeo0","pricing_plan_id":"cebpf4jnsgd1na2vs0mg"},{"bike_id":"ac80e985-cfdf-4940-bf6d-bf2ebe2c2fd0","system_id":"levelo_inurba_marseille","lat":43.321019,"lon":5.367856,"is_reserved":false,"is_disabled":false,"rental_uris":{"android":"levelo://app?vid=ac80e985-cfdf-4940-bf6d-bf2ebe2c2fd0","ios":"levelo://app?vid=ac80e985-cfdf-4940-bf6d-bf2ebe2c2fd0"},"vehicle_type_id":"4","last_reported":1746019275,"current_range_meters":10800,"station_id":"ce4bhrh2rcd13ifvqhug","pricing_plan_id":"cebpf4jnsgd1na2vs0mg"},{"bike_id":"b50579fb-0adf-4831-a107-05c8e81f5dce","system_id":"levelo_inurba_marseille","lat":43.2782,"lon":5.40693,"is_reserved":false,"is_disabled":false,"rental_uris":{"android":"levelo://app?vid=b50579fb-0adf-4831-a107-05c8e81f5dce","ios":"levelo://app?vid=b50579fb-0adf-4831-a107-05c8e81f5dce"},"vehicle_type_id":"4","last_reported":1746019275,"current_range_meters":10800,"station_id":"ce4bhnh2rcd13ifvqgtg","pricing_plan_id":"cebpf4jnsgd1na2vs0mg"},{"bike_id":"dcb0b990-89f9-495c-a9c1-10b17ae39667","system_id":"levelo_inurba_marseille","lat":43.23465,"lon":5.38045,"is_reserved":false,"is_disabled":false,"rental_uris":{"android":"levelo://app?vid=dcb0b990-89f9-495c-a9c1-10b17ae39667","ios":"levelo://app?vid=dcb0b990-89f9-495c-a9c1-10b17ae39667"},"vehicle_type_id":"4","last_reported":1746019275,"current_range_meters":10800,"station_id":"","pricing_plan_id":"cebpf4jnsgd1na2vs0mg"},{"bike_id":"19e5131d-f89f-4163-a032-e238b5d6d7ef","system_id":"levelo_inurba_marseille","lat":43.28468,"lon":5.35897,"is_reserved":false,"is_disabled":false,"rental_uris":{"android":"levelo://app?vid=19e5131d-f89f-4163-a032-e238b5d6d7ef","ios":"levelo://app?vid=19e5131d-f89f-4163-a032-e238b5d6d7ef"},"vehicle_type_id":"4","last_reported":1746019275,"current_range_meters":11200,"station_id":"ce4bhah2rcd13ifvqei0","pricing_plan_id":"cebpf4jnsgd1na2vs0mg"},{"bike_id":"1ecc8740-cbb3-4e7e-b2f3-011f095d2ac5","system_id":"levelo_inurba_marseille","lat":43.24169,"lon":5.36404,"is_reserved":false,"is_disabled":false,"rental_uris":{"android":"levelo://app?vid=1ecc8740-cbb3-4e7e-b2f3-011f095d2ac5","ios":"levelo://app?vid=1ecc8740-cbb3-4e7e-b2f3-011f095d2ac5"},"vehicle_type_id":"4","last_reported":1746019275,"current_range_meters":11200,"station_id":"cpo36qri1sfpv3e86is0","pricing_plan_id":"cebpf4jnsgd1na2vs0mg"},{"bike_id":"3305eb03-d172-4754-9cd8-b1a07869ed3a","system_id":"levelo_inurba_marseille","lat":43.282654,"lon":5.350524,"is_reserved":false,"is_disabled":false,"rental_uris":{"android":"levelo://app?vid=3305eb03-d172-4754-9cd8-b1a07869ed3a","ios":"levelo://app?vid=3305eb03-d172-4754-9cd8-b1a07869ed3a"},"vehicle_type_id":"4","last_reported":1746019275,"current_range_meters":11200,"station_id":"ce4bhbp2rcd13ifvqerg","pricing_plan_id":"cebpf4jnsgd1na2vs0mg"},{"bike_id":"da4d4708-f2c7-4d58-bcdd-8aec201686b0","system_id":"levelo_inurba_marseille","lat":43.30143,"lon":5.39852,"is_reserved":false,"is_disabled":false,"rental_uris":{"android":"levelo://app?vid=da4d4708-f2c7-4d58-bcdd-8aec201686b0","ios":"levelo://app?vid=da4d4708-f2c7-4d58-bcdd-8aec201686b0"},"vehicle_type_id":"4","last_reported":1746019275,"current_range_meters":11200,"station_id":"ce4bh0h2rcd13ifvqd40","pricing_plan_id":"cebpf4jnsgd1na2vs0mg"},{"bike_id":"ecb27177-b3e3-4480-8cc0-d7bb27e23cab","system_id":"levelo_inurba_marseille","lat":43.26028,"lon":5.37545,"is_reserved":false,"is_disabled":false,"rental_uris":{"android":"levelo://app?vid=ecb27177-b3e3-4480-8cc0-d7bb27e23cab","ios":"levelo://app?vid=ecb27177-b3e3-4480-8cc0-d7bb27e23cab"},"vehicle_type_id":"4","last_reported":1746019275,"current_range_meters":10800,"station_id":"ce4bhgh2rcd13ifvqfa0","pricing_plan_id":"cebpf4jnsgd1na2vs0mg"},{"bike_id":"78d35512-d565-43ab-baa3-30a84eecd323","system_id":"levelo_inurba_marseille","lat":43.266798,"lon":5.382736,"is_reserved":false,"is_disabled":true,"rental_uris":{"android":"levelo://app?vid=78d35512-d565-43ab-baa3-30a84eecd323","ios":"levelo://app?vid=78d35512-d565-43ab-baa3-30a84eecd323"},"vehicle_type_id":"4","last_reported":1746019275,"current_range_meters":11600,"station_id":"ce4bhg92rcd13ifvqf90","pricing_plan_id":"cebpf4jnsgd1na2vs0mg"},{"bike_id":"2089cfa8-e94e-4740-81b4-209ccc3114cb","system_id":"levelo_inurba_marseille","lat":43.28737,"lon":5.3609,"is_reserved":false,"is_disabled":false,"rental_uris":{"android":"levelo://app?vid=2089cfa8-e94e-4740-81b4-209ccc3114cb","ios":"levelo://app?vid=2089cfa8-e94e-4740-81b4-209ccc3114cb"},"vehicle_type_id":"4","last_reported":1746019275,"current_range_meters":11200,"station_id":"cki0cbj6b192h4jlfktg","pricing_plan_id":"cebpf4jnsgd1na2vs0mg"},{"bike_id":"3af33880-44b4-4b75-97ae-43e2b91a0e2f","system_id":"levelo_inurba_marseille","lat":43.25831,"lon":5.39435,"is_reserved":false,"is_disabled":false,"rental_uris":{"android":"levelo://app?vid=3af33880-44b4-4b75-97ae-43e2b91a0e2f","ios":"levelo://app?vid=3af33880-44b4-4b75-97ae-43e2b91a0e2f"},"vehicle_type_id":"4","last_reported":1746019275,"current_range_meters":11600,"station_id":"ce4bhip2rcd13ifvqft0","pricing_plan_id":"cebpf4jnsgd1na2vs0mg"},{"bike_id":"7f770ba9-2e48-47c9-8bb4-942855273bad","system_id":"levelo_inurba_marseille","lat":43.25332,"lon":5.42417,"is_reserved":false,"is_disabled":false,"rental_uris":{"android":"levelo://app?vid=7f770ba9-2e48-47c9-8bb4-942855273bad","ios":"levelo://app?vid=7f770ba9-2e48-47c9-8bb4-942855273bad"},"vehicle_type_id":"4","last_reported":1746019275,"current_range_meters":11600,"station_id":"","pricing_plan_id":"cebpf4jnsgd1na2vs0mg"},{"bike_id":"7066bf6e-1400-4942-9742-efc1607fc1cd","system_id":"levelo_inurba_marseille","lat":43.23972,"lon":5.36608,"is_reserved":false,"is_disabled":false,"rental_uris":{"android":"levelo://app?vid=7066bf6e-1400-4942-9742-efc1607fc1cd","ios":"levelo://app?vid=7066bf6e-1400-4942-9742-efc1607fc1cd"},"vehicle_type_id":"4","last_reported":1746019275,"current_range_meters":12000,"station_id":"ce4bhi12rcd13ifvqfp0","pricing_plan_id":"cebpf4jnsgd1na2vs0mg"},{"bike_id":"d00f8a95-3ee8-4e84-85a7-d6b93fe6538e","system_id":"levelo_inurba_marseille","lat":43.24539,"lon":5.39523,"is_reserved":false,"is_disabled":false,"rental_uris":{"android":"levelo://app?vid=d00f8a95-3ee8-4e84-85a7-d6b93fe6538e","ios":"levelo://app?vid=d00f8a95-3ee8-4e84-85a7-d6b93fe6538e"},"vehicle_type_id":"4","last_reported":1746019275,"current_range_meters":12000,"station_id":"ce4bhlp2rcd13ifvqgjg","pricing_plan_id":"cebpf4jnsgd1na2vs0mg"},{"bike_id":"e6bd403f-c66a-4a6a-b05f-5e54e6f0fb3e","system_id":"levelo_inurba_marseille","lat":43.28737,"lon":5.3608,"is_reserved":false,"is_disabled":false,"rental_uris":{"android":"levelo://app?vid=e6bd403f-c66a-4a6a-b05f-5e54e6f0fb3e","ios":"levelo://app?vid=e6bd403f-c66a-4a6a-b05f-5e54e6f0fb3e"},"vehicle_type_id":"4","last_reported":1746019275,"current_range_meters":12400,"station_id":"cki0cbj6b192h4jlfktg","pricing_plan_id":"cebpf4jnsgd1na2vs0mg"},{"bike_id":"7053d1c3-bf84-4199-8fff-219a9812a7e4","system_id":"levelo_inurba_marseille","lat":43.28737,"lon":5.36079,"is_reserved":false,"is_disabled":false,"rental_uris":{"android":"levelo://app?vid=7053d1c3-bf84-4199-8fff-219a9812a7e4","ios":"levelo://app?vid=7053d1c3-bf84-4199-8fff-219a9812a7e4"},"vehicle_type_id":"4","last_reported":1746019275,"current_range_meters":12400,"station_id":"cki0cbj6b192h4jlfktg","pricing_plan_id":"cebpf4jnsgd1na2vs0mg"},{"bike_id":"e5e92a64-e709-4b1a-a9b1-cbffe85789ca","system_id":"levelo_inurba_marseille","lat":43.2554,"lon":5.38143,"is_reserved":false,"is_disabled":false,"rental_uris":{"android":"levelo://app?vid=e5e92a64-e709-4b1a-a9b1-cbffe85789ca","ios":"levelo://app?vid=e5e92a64-e709-4b1a-a9b1-cbffe85789ca"},"vehicle_type_id":"4","last_reported":1746019275,"current_range_meters":12400,"station_id":"","pricing_plan_id":"cebpf4jnsgd1na2vs0mg"},{"bike_id":"0ef033bb-1cc9-43d3-9ed0-6a0691f6e630","system_id":"levelo_inurba_marseille","lat":43.334234,"lon":5.400076,"is_reserved":false,"is_disabled":false,"rental_uris":{"android":"levelo://app?vid=0ef033bb-1cc9-43d3-9ed0-6a0691f6e630","ios":"levelo://app?vid=0ef033bb-1cc9-43d3-9ed0-6a0691f6e630"},"vehicle_type_id":"4","last_reported":1746019275,"current_range_meters":12800,"station_id":"","pricing_plan_id":"cebpf4jnsgd1na2vs0mg"},{"bike_id":"fca9dc8b-9c20-4eab-83ff-17d0ce9a6922","system_id":"levelo_inurba_marseille","lat":43.26023,"lon":5.41744,"is_reserved":false,"is_disabled":false,"rental_uris":{"android":"levelo://app?vid=fca9dc8b-9c20-4eab-83ff-17d0ce9a6922","ios":"levelo://app?vid=fca9dc8b-9c20-4eab-83ff-17d0ce9a6922"},"vehicle_type_id":"4","last_reported":1746019275,"current_range_meters":13600,"station_id":"","pricing_plan_id":"cebpf4jnsgd1na2vs0mg"},{"bike_id":"bfa29fb4-ab8f-4f92-bb75-b6fe98550b51","system_id":"levelo_inurba_marseille","lat":43.28669,"lon":5.36352,"is_reserved":false,"is_disabled":false,"rental_uris":{"android":"levelo://app?vid=bfa29fb4-ab8f-4f92-bb75-b6fe98550b51","ios":"levelo://app?vid=bfa29fb4-ab8f-4f92-bb75-b6fe98550b51"},"vehicle_type_id":"4","last_reported":1746019275,"current_range_meters":13600,"station_id":"ce4bhah2rcd13ifvqej0","pricing_plan_id":"cebpf4jnsgd1na2vs0mg"},{"bike_id":"eb461aed-e4eb-463b-86cf-2c242cce5471","system_id":"levelo_inurba_marseille","lat":43.26682,"lon":5.38268,"is_reserved":false,"is_disabled":false,"rental_uris":{"android":"levelo://app?vid=eb461aed-e4eb-463b-86cf-2c242cce5471","ios":"levelo://app?vid=eb461aed-e4eb-463b-86cf-2c242cce5471"},"vehicle_type_id":"4","last_reported":1746019275,"current_range_meters":12800,"station_id":"ce4bhg92rcd13ifvqf90","pricing_plan_id":"cebpf4jnsgd1na2vs0mg"},{"bike_id":"4a9cc1f8-b832-4556-a5c2-84c9c5716a9a","system_id":"levelo_inurba_marseille","lat":43.25116,"lon":5.40316,"is_reserved":false,"is_disabled":false,"rental_uris":{"android":"levelo://app?vid=4a9cc1f8-b832-4556-a5c2-84c9c5716a9a","ios":"levelo://app?vid=4a9cc1f8-b832-4556-a5c2-84c9c5716a9a"},"vehicle_type_id":"4","last_reported":1746019275,"current_range_meters":13600,"station_id":"ce4bhlh2rcd13ifvqgig","pricing_plan_id":"cebpf4jnsgd1na2vs0mg"},{"bike_id":"56973c62-c000-4091-9194-64142ba8c234","system_id":"levelo_inurba_marseille","lat":43.30522,"lon":5.36556,"is_reserved":false,"is_disabled":false,"rental_uris":{"android":"levelo://app?vid=56973c62-c000-4091-9194-64142ba8c234","ios":"levelo://app?vid=56973c62-c000-4091-9194-64142ba8c234"},"vehicle_type_id":"4","last_reported":1746019275,"current_range_meters":13600,"station_id":"ce4bgs12rcd13ifvqcag","pricing_plan_id":"cebpf4jnsgd1na2vs0mg"},{"bike_id":"86c49e2d-3893-4db7-a75a-7ba8416d02e3","system_id":"levelo_inurba_marseille","lat":43.30885,"lon":5.37197,"is_reserved":false,"is_disabled":false,"rental_uris":{"android":"levelo://app?vid=86c49e2d-3893-4db7-a75a-7ba8416d02e3","ios":"levelo://app?vid=86c49e2d-3893-4db7-a75a-7ba8416d02e3"},"vehicle_type_id":"4","last_reported":1746019275,"current_range_meters":13600,"station_id":"ce4bguh2rcd13ifvqckg","pricing_plan_id":"cebpf4jnsgd1na2vs0mg"},{"bike_id":"d88f1c89-45c5-49a2-9923-ca805a5fb6a9","system_id":"levelo_inurba_marseille","lat":43.30519,"lon":5.36508,"is_reserved":false,"is_disabled":false,"rental_uris":{"android":"levelo://app?vid=d88f1c89-45c5-49a2-9923-ca805a5fb6a9","ios":"levelo://app?vid=d88f1c89-45c5-49a2-9923-ca805a5fb6a9"},"vehicle_type_id":"4","last_reported":1746019275,"current_range_meters":14000,"station_id":"","pricing_plan_id":"cebpf4jnsgd1na2vs0mg"},{"bike_id":"c1cbc237-cfab-474a-aa26-81a87506105a","system_id":"levelo_inurba_marseille","lat":43.21769,"lon":5.34616,"is_reserved":false,"is_disabled":false,"rental_uris":{"android":"levelo://app?vid=c1cbc237-cfab-474a-aa26-81a87506105a","ios":"levelo://app?vid=c1cbc237-cfab-474a-aa26-81a87506105a"},"vehicle_type_id":"4","last_reported":1746019275,"current_range_meters":14000,"station_id":"st_cvj6r9ubvosntc0bgbag","pricing_plan_id":"cebpf4jnsgd1na2vs0mg"},{"bike_id":"e6dbf88b-a76e-4b79-b704-484109e38993","system_id":"levelo_inurba_marseille","lat":43.27377,"lon":5.36252,"is_reserved":false,"is_disabled":false,"rental_uris":{"android":"levelo://app?vid=e6dbf88b-a76e-4b79-b704-484109e38993","ios":"levelo://app?vid=e6dbf88b-a76e-4b79-b704-484109e38993"},"vehicle_type_id":"4","last_reported":1746019275,"current_range_meters":14000,"station_id":"ce4bhbh2rcd13ifvqeo0","pricing_plan_id":"cebpf4jnsgd1na2vs0mg"},{"bike_id":"04848848-fc58-434a-a1df-b371e984a538","system_id":"levelo_inurba_marseille","lat":43.244832,"lon":5.396082,"is_reserved":false,"is_disabled":false,"rental_uris":{"android":"levelo://app?vid=04848848-fc58-434a-a1df-b371e984a538","ios":"levelo://app?vid=04848848-fc58-434a-a1df-b371e984a538"},"vehicle_type_id":"4","last_reported":1746019275,"current_range_meters":14400,"station_id":"ce4bhlp2rcd13ifvqgjg","pricing_plan_id":"cebpf4jnsgd1na2vs0mg"},{"bike_id":"c1f3acbf-9d7a-4a68-a052-54ea7f77b051","system_id":"levelo_inurba_marseille","lat":43.27372,"lon":5.36249,"is_reserved":false,"is_disabled":false,"rental_uris":{"android":"levelo://app?vid=c1f3acbf-9d7a-4a68-a052-54ea7f77b051","ios":"levelo://app?vid=c1f3acbf-9d7a-4a68-a052-54ea7f77b051"},"vehicle_type_id":"4","last_reported":1746019275,"current_range_meters":14400,"station_id":"ce4bhbh2rcd13ifvqeo0","pricing_plan_id":"cebpf4jnsgd1na2vs0mg"},{"bike_id":"b4eac98b-b33b-471e-839f-e85806851e8f","system_id":"levelo_inurba_marseille","lat":43.24168,"lon":5.36388,"is_reserved":false,"is_disabled":false,"rental_uris":{"android":"levelo://app?vid=b4eac98b-b33b-471e-839f-e85806851e8f","ios":"levelo://app?vid=b4eac98b-b33b-471e-839f-e85806851e8f"},"vehicle_type_id":"4","last_reported":1746019275,"current_range_meters":14400,"station_id":"cpo36qri1sfpv3e86is0","pricing_plan_id":"cebpf4jnsgd1na2vs0mg"},{"bike_id":"2cbe2fab-72a1-4bcd-8c44-98069ca26f60","system_id":"levelo_inurba_marseille","lat":43.309079,"lon":5.368509,"is_reserved":false,"is_disabled":false,"rental_uris":{"android":"levelo://app?vid=2cbe2fab-72a1-4bcd-8c44-98069ca26f60","ios":"levelo://app?vid=2cbe2fab-72a1-4bcd-8c44-98069ca26f60"},"vehicle_type_id":"4","last_reported":1746019275,"current_range_meters":14400,"station_id":"ce4bgn92rcd13ifvqbvg","pricing_plan_id":"cebpf4jnsgd1na2vs0mg"},{"bike_id":"dc3ba869-8718-4888-999b-efcfb464e5c7","system_id":"levelo_inurba_marseille","lat":43.28439,"lon":5.35006,"is_reserved":false,"is_disabled":false,"rental_uris":{"android":"levelo://app?vid=dc3ba869-8718-4888-999b-efcfb464e5c7","ios":"levelo://app?vid=dc3ba869-8718-4888-999b-efcfb464e5c7"},"vehicle_type_id":"4","last_reported":1746019275,"current_range_meters":14800,"station_id":"ce4bhbh2rcd13ifvqepg","pricing_plan_id":"cebpf4jnsgd1na2vs0mg"},{"bike_id":"bc077fd8-07ce-4519-a73a-89ac9067cfd4","system_id":"levelo_inurba_marseille","lat":43.28002,"lon":5.40011,"is_reserved":false,"is_disabled":false,"rental_uris":{"android":"levelo://app?vid=bc077fd8-07ce-4519-a73a-89ac9067cfd4","ios":"levelo://app?vid=bc077fd8-07ce-4519-a73a-89ac9067cfd4"},"vehicle_type_id":"4","last_reported":1746019275,"current_range_meters":14800,"station_id":"ce4bho92rcd13ifvqh4g","pricing_plan_id":"cebpf4jnsgd1na2vs0mg"},{"bike_id":"6c12ff60-ca47-4317-8fd9-41b438c555cc","system_id":"levelo_inurba_marseille","lat":43.2175,"lon":5.34604,"is_reserved":false,"is_disabled":false,"rental_uris":{"android":"levelo://app?vid=6c12ff60-ca47-4317-8fd9-41b438c555cc","ios":"levelo://app?vid=6c12ff60-ca47-4317-8fd9-41b438c555cc"},"vehicle_type_id":"4","last_reported":1746019275,"current_range_meters":14800,"station_id":"st_cvj6r9ubvosntc0bgbag","pricing_plan_id":"cebpf4jnsgd1na2vs0mg"},{"bike_id":"d8823978-bb5b-4761-9324-b08421b9241f","system_id":"levelo_inurba_marseille","lat":43.2582,"lon":5.39417,"is_reserved":false,"is_disabled":false,"rental_uris":{"android":"levelo://app?vid=d8823978-bb5b-4761-9324-b08421b9241f","ios":"levelo://app?vid=d8823978-bb5b-4761-9324-b08421b9241f"},"vehicle_type_id":"4","last_reported":1746019275,"current_range_meters":15200,"station_id":"ce4bhip2rcd13ifvqft0","pricing_plan_id":"cebpf4jnsgd1na2vs0mg"},{"bike_id":"3f977889-8b72-4f3e-ac02-76abc53e01de","system_id":"levelo_inurba_marseille","lat":43.25827,"lon":5.3943,"is_reserved":false,"is_disabled":false,"rental_uris":{"android":"levelo://app?vid=3f977889-8b72-4f3e-ac02-76abc53e01de","ios":"levelo://app?vid=3f977889-8b72-4f3e-ac02-76abc53e01de"},"vehicle_type_id":"4","last_reported":1746019275,"current_range_meters":15200,"station_id":"ce4bhip2rcd13ifvqft0","pricing_plan_id":"cebpf4jnsgd1na2vs0mg"},{"bike_id":"cf2676fd-2529-4668-b08d-6c4e1d5698f3","system_id":"levelo_inurba_marseille","lat":43.313345,"lon":5.396885,"is_reserved":false,"is_disabled":false,"rental_uris":{"android":"levelo://app?vid=cf2676fd-2529-4668-b08d-6c4e1d5698f3","ios":"levelo://app?vid=cf2676fd-2529-4668-b08d-6c4e1d5698f3"},"vehicle_type_id":"4","last_reported":1746019275,"current_range_meters":14800,"station_id":"ce4bgvp2rcd13ifvqcu0","pricing_plan_id":"cebpf4jnsgd1na2vs0mg"},{"bike_id":"463446f1-9fed-47a4-8bc5-ee3650d6035d","system_id":"levelo_inurba_marseille","lat":43.29043,"lon":5.375725,"is_reserved":false,"is_disabled":false,"rental_uris":{"android":"levelo://app?vid=463446f1-9fed-47a4-8bc5-ee3650d6035d","ios":"levelo://app?vid=463446f1-9fed-47a4-8bc5-ee3650d6035d"},"vehicle_type_id":"4","last_reported":1746019275,"current_range_meters":15200,"station_id":"ce4bh692rcd13ifvqe90","pricing_plan_id":"cebpf4jnsgd1na2vs0mg"},{"bike_id":"734807e5-7b6e-48bb-8fdc-bca8e02391df","system_id":"levelo_inurba_marseille","lat":43.30324,"lon":5.40439,"is_reserved":false,"is_disabled":false,"rental_uris":{"android":"levelo://app?vid=734807e5-7b6e-48bb-8fdc-bca8e02391df","ios":"levelo://app?vid=734807e5-7b6e-48bb-8fdc-bca8e02391df"},"vehicle_type_id":"4","last_reported":1746019275,"current_range_meters":15200,"station_id":"ce4bh012rcd13ifvqd10","pricing_plan_id":"cebpf4jnsgd1na2vs0mg"},{"bike_id":"c21afb1b-35ef-44e4-a5dc-5163703a08f4","system_id":"levelo_inurba_marseille","lat":43.23968,"lon":5.36622,"is_reserved":false,"is_disabled":false,"rental_uris":{"android":"levelo://app?vid=c21afb1b-35ef-44e4-a5dc-5163703a08f4","ios":"levelo://app?vid=c21afb1b-35ef-44e4-a5dc-5163703a08f4"},"vehicle_type_id":"4","last_reported":1746019275,"current_range_meters":15200,"station_id":"ce4bhi12rcd13ifvqfp0","pricing_plan_id":"cebpf4jnsgd1na2vs0mg"},{"bike_id":"67c8643c-4583-45b2-9d94-0b5cdc362b54","system_id":"levelo_inurba_marseille","lat":43.24807,"lon":5.37452,"is_reserved":false,"is_disabled":false,"rental_uris":{"android":"levelo://app?vid=67c8643c-4583-45b2-9d94-0b5cdc362b54","ios":"levelo://app?vid=67c8643c-4583-45b2-9d94-0b5cdc362b54"},"vehicle_type_id":"4","last_reported":1746019275,"current_range_meters":15200,"station_id":"ce4bhgh2rcd13ifvqfb0","pricing_plan_id":"cebpf4jnsgd1na2vs0mg"},{"bike_id":"fc38ea83-a2cf-42ec-8635-798eaac6ab02","system_id":"levelo_inurba_marseille","lat":43.2418,"lon":5.39722,"is_reserved":false,"is_disabled":false,"rental_uris":{"android":"levelo://app?vid=fc38ea83-a2cf-42ec-8635-798eaac6ab02","ios":"levelo://app?vid=fc38ea83-a2cf-42ec-8635-798eaac6ab02"},"vehicle_type_id":"4","last_reported":1746019275,"current_range_meters":15200,"station_id":"ce4bhn12rcd13ifvqgpg","pricing_plan_id":"cebpf4jnsgd1na2vs0mg"},{"bike_id":"536eb4af-6603-467c-a76b-98f5a843ca10","system_id":"levelo_inurba_marseille","lat":43.24167,"lon":5.36395,"is_reserved":false,"is_disabled":false,"rental_uris":{"android":"levelo://app?vid=536eb4af-6603-467c-a76b-98f5a843ca10","ios":"levelo://app?vid=536eb4af-6603-467c-a76b-98f5a843ca10"},"vehicle_type_id":"4","last_reported":1746019275,"current_range_meters":15200,"station_id":"cpo36qri1sfpv3e86is0","pricing_plan_id":"cebpf4jnsgd1na2vs0mg"},{"bike_id":"a4b5defd-aa19-42c1-b5f6-7e0ca54bd48d","system_id":"levelo_inurba_marseille","lat":43.30151,"lon":5.38086,"is_reserved":false,"is_disabled":false,"rental_uris":{"android":"levelo://app?vid=a4b5defd-aa19-42c1-b5f6-7e0ca54bd48d","ios":"levelo://app?vid=a4b5defd-aa19-42c1-b5f6-7e0ca54bd48d"},"vehicle_type_id":"4","last_reported":1746019275,"current_range_meters":15200,"station_id":"ce4bgjp2rcd13ifvqbh0","pricing_plan_id":"cebpf4jnsgd1na2vs0mg"},{"bike_id":"02c34c65-9e29-4adf-87ca-500c6052f434","system_id":"levelo_inurba_marseille","lat":43.21194,"lon":5.35066,"is_reserved":false,"is_disabled":false,"rental_uris":{"android":"levelo://app?vid=02c34c65-9e29-4adf-87ca-500c6052f434","ios":"levelo://app?vid=02c34c65-9e29-4adf-87ca-500c6052f434"},"vehicle_type_id":"4","last_reported":1746019275,"current_range_meters":16000,"station_id":"st_cvj6sg6p6f1abm77japg","pricing_plan_id":"cebpf4jnsgd1na2vs0mg"},{"bike_id":"51b3bc0a-0f29-4097-b8ef-49e0405502e2","system_id":"levelo_inurba_marseille","lat":43.290028,"lon":5.356092,"is_reserved":false,"is_disabled":false,"rental_uris":{"android":"levelo://app?vid=51b3bc0a-0f29-4097-b8ef-49e0405502e2","ios":"levelo://app?vid=51b3bc0a-0f29-4097-b8ef-49e0405502e2"},"vehicle_type_id":"4","last_reported":1746019275,"current_range_meters":16000,"station_id":"ce4bhb92rcd13ifvqen0","pricing_plan_id":"cebpf4jnsgd1na2vs0mg"},{"bike_id":"e82167c2-1f5f-4fd5-9a41-6fd765d8d7b0","system_id":"levelo_inurba_marseille","lat":43.31246,"lon":5.36849,"is_reserved":false,"is_disabled":false,"rental_uris":{"android":"levelo://app?vid=e82167c2-1f5f-4fd5-9a41-6fd765d8d7b0","ios":"levelo://app?vid=e82167c2-1f5f-4fd5-9a41-6fd765d8d7b0"},"vehicle_type_id":"4","last_reported":1746019275,"current_range_meters":16000,"station_id":"ce4bgl92rcd13ifvqbq0","pricing_plan_id":"cebpf4jnsgd1na2vs0mg"},{"bike_id":"b12db72c-3dea-4fb6-a379-03afa6d20383","system_id":"levelo_inurba_marseille","lat":43.28413,"lon":5.3499,"is_reserved":false,"is_disabled":false,"rental_uris":{"android":"levelo://app?vid=b12db72c-3dea-4fb6-a379-03afa6d20383","ios":"levelo://app?vid=b12db72c-3dea-4fb6-a379-03afa6d20383"},"vehicle_type_id":"4","last_reported":1746019275,"current_range_meters":16000,"station_id":"ce4bhbh2rcd13ifvqepg","pricing_plan_id":"cebpf4jnsgd1na2vs0mg"},{"bike_id":"cfb37eb1-5f14-4840-b582-3a343150fc18","system_id":"levelo_inurba_marseille","lat":43.24067,"lon":5.37756,"is_reserved":false,"is_disabled":false,"rental_uris":{"android":"levelo://app?vid=cfb37eb1-5f14-4840-b582-3a343150fc18","ios":"levelo://app?vid=cfb37eb1-5f14-4840-b582-3a343150fc18"},"vehicle_type_id":"4","last_reported":1746019275,"current_range_meters":16000,"station_id":"ce4bhnp2rcd13ifvqgvg","pricing_plan_id":"cebpf4jnsgd1na2vs0mg"},{"bike_id":"c90defe5-04f2-4166-b264-bffa85bba503","system_id":"levelo_inurba_marseille","lat":43.28418,"lon":5.37516,"is_reserved":false,"is_disabled":false,"rental_uris":{"android":"levelo://app?vid=c90defe5-04f2-4166-b264-bffa85bba503","ios":"levelo://app?vid=c90defe5-04f2-4166-b264-bffa85bba503"},"vehicle_type_id":"4","last_reported":1746019275,"current_range_meters":16000,"station_id":"ce4bh412rcd13ifvqds0","pricing_plan_id":"cebpf4jnsgd1na2vs0mg"},{"bike_id":"df1cd735-c9cc-4b5c-8919-9e900ddc2485","system_id":"levelo_inurba_marseille","lat":43.28279,"lon":5.35079,"is_reserved":false,"is_disabled":false,"rental_uris":{"android":"levelo://app?vid=df1cd735-c9cc-4b5c-8919-9e900ddc2485","ios":"levelo://app?vid=df1cd735-c9cc-4b5c-8919-9e900ddc2485"},"vehicle_type_id":"4","last_reported":1746019275,"current_range_meters":16000,"station_id":"ce4bhbp2rcd13ifvqerg","pricing_plan_id":"cebpf4jnsgd1na2vs0mg"},{"bike_id":"86c2979e-8cf6-48ed-bdb1-835ff11e3adc","system_id":"levelo_inurba_marseille","lat":43.25386,"lon":5.41829,"is_reserved":false,"is_disabled":false,"rental_uris":{"android":"levelo://app?vid=86c2979e-8cf6-48ed-bdb1-835ff11e3adc","ios":"levelo://app?vid=86c2979e-8cf6-48ed-bdb1-835ff11e3adc"},"vehicle_type_id":"4","last_reported":1746019275,"current_range_meters":16400,"station_id":"","pricing_plan_id":"cebpf4jnsgd1na2vs0mg"},{"bike_id":"7f1f0598-01ac-47a0-bc53-a25d42986bb2","system_id":"levelo_inurba_marseille","lat":43.28266,"lon":5.35062,"is_reserved":false,"is_disabled":false,"rental_uris":{"android":"levelo://app?vid=7f1f0598-01ac-47a0-bc53-a25d42986bb2","ios":"levelo://app?vid=7f1f0598-01ac-47a0-bc53-a25d42986bb2"},"vehicle_type_id":"4","last_reported":1746019275,"current_range_meters":16400,"station_id":"ce4bhbp2rcd13ifvqerg","pricing_plan_id":"cebpf4jnsgd1na2vs0mg"},{"bike_id":"a22bb3ac-0734-437d-9e7d-0684fd9d24cf","system_id":"levelo_inurba_marseille","lat":43.288564,"lon":5.358565,"is_reserved":false,"is_disabled":false,"rental_uris":{"android":"levelo://app?vid=a22bb3ac-0734-437d-9e7d-0684fd9d24cf","ios":"levelo://app?vid=a22bb3ac-0734-437d-9e7d-0684fd9d24cf"},"vehicle_type_id":"4","last_reported":1746019275,"current_range_meters":16400,"station_id":"ce4bhb12rcd13ifvqem0","pricing_plan_id":"cebpf4jnsgd1na2vs0mg"},{"bike_id":"3eee3256-924b-491b-953a-929fcc50faca","system_id":"levelo_inurba_marseille","lat":43.25818,"lon":5.39422,"is_reserved":false,"is_disabled":false,"rental_uris":{"android":"levelo://app?vid=3eee3256-924b-491b-953a-929fcc50faca","ios":"levelo://app?vid=3eee3256-924b-491b-953a-929fcc50faca"},"vehicle_type_id":"4","last_reported":1746019275,"current_range_meters":16800,"station_id":"ce4bhip2rcd13ifvqft0","pricing_plan_id":"cebpf4jnsgd1na2vs0mg"},{"bike_id":"7940bc1b-eaa7-4f49-a435-46dc9391f6a1","system_id":"levelo_inurba_marseille","lat":43.212032,"lon":5.350667,"is_reserved":false,"is_disabled":false,"rental_uris":{"android":"levelo://app?vid=7940bc1b-eaa7-4f49-a435-46dc9391f6a1","ios":"levelo://app?vid=7940bc1b-eaa7-4f49-a435-46dc9391f6a1"},"vehicle_type_id":"4","last_reported":1746019275,"current_range_meters":16800,"station_id":"st_cvj6sg6p6f1abm77japg","pricing_plan_id":"cebpf4jnsgd1na2vs0mg"},{"bike_id":"34b484ab-c0f1-4e55-b51a-e2bafdafb63e","system_id":"levelo_inurba_marseille","lat":43.230575,"lon":5.354926,"is_reserved":false,"is_disabled":false,"rental_uris":{"android":"levelo://app?vid=34b484ab-c0f1-4e55-b51a-e2bafdafb63e","ios":"levelo://app?vid=34b484ab-c0f1-4e55-b51a-e2bafdafb63e"},"vehicle_type_id":"4","last_reported":1746019275,"current_range_meters":16800,"station_id":"cpo3342slgdg3j2ifvpg","pricing_plan_id":"cebpf4jnsgd1na2vs0mg"},{"bike_id":"d2696307-56f6-4240-88a6-4166a510499d","system_id":"levelo_inurba_marseille","lat":43.283458,"lon":5.381058,"is_reserved":false,"is_disabled":true,"rental_uris":{"android":"levelo://app?vid=d2696307-56f6-4240-88a6-4166a510499d","ios":"levelo://app?vid=d2696307-56f6-4240-88a6-4166a510499d"},"vehicle_type_id":"4","last_reported":1746019275,"current_range_meters":16800,"station_id":"ce4bh412rcd13ifvqdr0","pricing_plan_id":"cebpf4jnsgd1na2vs0mg"},{"bike_id":"f721107e-5ab6-41f3-9a31-0bd44665dbda","system_id":"levelo_inurba_marseille","lat":43.31165,"lon":5.38726,"is_reserved":false,"is_disabled":false,"rental_uris":{"android":"levelo://app?vid=f721107e-5ab6-41f3-9a31-0bd44665dbda","ios":"levelo://app?vid=f721107e-5ab6-41f3-9a31-0bd44665dbda"},"vehicle_type_id":"4","last_reported":1746019275,"current_range_meters":16800,"station_id":"ce4bgv12rcd13ifvqcp0","pricing_plan_id":"cebpf4jnsgd1na2vs0mg"},{"bike_id":"f30f6f4c-378c-461f-b191-ae6d7f6fd0eb","system_id":"levelo_inurba_marseille","lat":43.23192,"lon":5.3998,"is_reserved":false,"is_disabled":false,"rental_uris":{"android":"levelo://app?vid=f30f6f4c-378c-461f-b191-ae6d7f6fd0eb","ios":"levelo://app?vid=f30f6f4c-378c-461f-b191-ae6d7f6fd0eb"},"vehicle_type_id":"4","last_reported":1746019275,"current_range_meters":17200,"station_id":"ce4bhn12rcd13ifvqgqg","pricing_plan_id":"cebpf4jnsgd1na2vs0mg"},{"bike_id":"ab2bee09-cd0f-4f9a-a348-95b1d061e92d","system_id":"levelo_inurba_marseille","lat":43.27378,"lon":5.3626,"is_reserved":false,"is_disabled":false,"rental_uris":{"android":"levelo://app?vid=ab2bee09-cd0f-4f9a-a348-95b1d061e92d","ios":"levelo://app?vid=ab2bee09-cd0f-4f9a-a348-95b1d061e92d"},"vehicle_type_id":"4","last_reported":1746019275,"current_range_meters":16800,"station_id":"ce4bhbh2rcd13ifvqeo0","pricing_plan_id":"cebpf4jnsgd1na2vs0mg"},{"bike_id":"243dad39-384e-4630-bcf5-8b2102d42963","system_id":"levelo_inurba_marseille","lat":43.30911,"lon":5.36842,"is_reserved":false,"is_disabled":false,"rental_uris":{"android":"levelo://app?vid=243dad39-384e-4630-bcf5-8b2102d42963","ios":"levelo://app?vid=243dad39-384e-4630-bcf5-8b2102d42963"},"vehicle_type_id":"4","last_reported":1746019275,"current_range_meters":17200,"station_id":"ce4bgn92rcd13ifvqbvg","pricing_plan_id":"cebpf4jnsgd1na2vs0mg"},{"bike_id":"6f22906b-94c9-4d7b-9ebc-9fe65ec0611d","system_id":"levelo_inurba_marseille","lat":43.321141,"lon":5.367755,"is_reserved":false,"is_disabled":false,"rental_uris":{"android":"levelo://app?vid=6f22906b-94c9-4d7b-9ebc-9fe65ec0611d","ios":"levelo://app?vid=6f22906b-94c9-4d7b-9ebc-9fe65ec0611d"},"vehicle_type_id":"4","last_reported":1746019275,"current_range_meters":17600,"station_id":"ce4bhrh2rcd13ifvqhug","pricing_plan_id":"cebpf4jnsgd1na2vs0mg"},{"bike_id":"70a3f063-7f49-40dc-b61e-768d1217ff91","system_id":"levelo_inurba_marseille","lat":43.28279,"lon":5.35077,"is_reserved":false,"is_disabled":false,"rental_uris":{"android":"levelo://app?vid=70a3f063-7f49-40dc-b61e-768d1217ff91","ios":"levelo://app?vid=70a3f063-7f49-40dc-b61e-768d1217ff91"},"vehicle_type_id":"4","last_reported":1746019275,"current_range_meters":17600,"station_id":"ce4bhbp2rcd13ifvqerg","pricing_plan_id":"cebpf4jnsgd1na2vs0mg"},{"bike_id":"9f96d61e-ebde-4815-bb85-fb5b4c73225a","system_id":"levelo_inurba_marseille","lat":43.2886,"lon":5.35845,"is_reserved":false,"is_disabled":false,"rental_uris":{"android":"levelo://app?vid=9f96d61e-ebde-4815-bb85-fb5b4c73225a","ios":"levelo://app?vid=9f96d61e-ebde-4815-bb85-fb5b4c73225a"},"vehicle_type_id":"4","last_reported":1746019275,"current_range_meters":17600,"station_id":"ce4bhb12rcd13ifvqem0","pricing_plan_id":"cebpf4jnsgd1na2vs0mg"},{"bike_id":"0e316dc8-d31b-4553-8fe6-37ed7d376ff8","system_id":"levelo_inurba_marseille","lat":43.282654,"lon":5.350583,"is_reserved":false,"is_disabled":false,"rental_uris":{"android":"levelo://app?vid=0e316dc8-d31b-4553-8fe6-37ed7d376ff8","ios":"levelo://app?vid=0e316dc8-d31b-4553-8fe6-37ed7d376ff8"},"vehicle_type_id":"4","last_reported":1746019275,"current_range_meters":17600,"station_id":"ce4bhbp2rcd13ifvqerg","pricing_plan_id":"cebpf4jnsgd1na2vs0mg"},{"bike_id":"04df2c49-ead7-4670-967e-181935855641","system_id":"levelo_inurba_marseille","lat":43.29873,"lon":5.39723,"is_reserved":false,"is_disabled":false,"rental_uris":{"android":"levelo://app?vid=04df2c49-ead7-4670-967e-181935855641","ios":"levelo://app?vid=04df2c49-ead7-4670-967e-181935855641"},"vehicle_type_id":"4","last_reported":1746019275,"current_range_meters":17600,"station_id":"ce4bh0h2rcd13ifvqd50","pricing_plan_id":"cebpf4jnsgd1na2vs0mg"},{"bike_id":"a1149e9c-fd50-4602-8f0f-b1511a3cc33e","system_id":"levelo_inurba_marseille","lat":43.31995,"lon":5.38164,"is_reserved":false,"is_disabled":true,"rental_uris":{"android":"levelo://app?vid=a1149e9c-fd50-4602-8f0f-b1511a3cc33e","ios":"levelo://app?vid=a1149e9c-fd50-4602-8f0f-b1511a3cc33e"},"vehicle_type_id":"4","last_reported":1746019275,"current_range_meters":17600,"station_id":"ce4bhr12rcd13ifvqhpg","pricing_plan_id":"cebpf4jnsgd1na2vs0mg"},{"bike_id":"870cfb75-cb6e-4365-b09b-27dc2f7c154a","system_id":"levelo_inurba_marseille","lat":43.31333,"lon":5.36771,"is_reserved":false,"is_disabled":false,"rental_uris":{"android":"levelo://app?vid=870cfb75-cb6e-4365-b09b-27dc2f7c154a","ios":"levelo://app?vid=870cfb75-cb6e-4365-b09b-27dc2f7c154a"},"vehicle_type_id":"4","last_reported":1746019275,"current_range_meters":18000,"station_id":"","pricing_plan_id":"cebpf4jnsgd1na2vs0mg"},{"bike_id":"ad5a8e45-6893-4506-853e-2268ccc8adef","system_id":"levelo_inurba_marseille","lat":43.32286,"lon":5.38273,"is_reserved":false,"is_disabled":false,"rental_uris":{"android":"levelo://app?vid=ad5a8e45-6893-4506-853e-2268ccc8adef","ios":"levelo://app?vid=ad5a8e45-6893-4506-853e-2268ccc8adef"},"vehicle_type_id":"4","last_reported":1746019275,"current_range_meters":17600,"station_id":"ce4bhr12rcd13ifvqhqg","pricing_plan_id":"cebpf4jnsgd1na2vs0mg"},{"bike_id":"ee01121f-e62c-43cd-a3d0-1cb13945691a","system_id":"levelo_inurba_marseille","lat":43.24803,"lon":5.37452,"is_reserved":false,"is_disabled":false,"rental_uris":{"android":"levelo://app?vid=ee01121f-e62c-43cd-a3d0-1cb13945691a","ios":"levelo://app?vid=ee01121f-e62c-43cd-a3d0-1cb13945691a"},"vehicle_type_id":"4","last_reported":1746019275,"current_range_meters":18000,"station_id":"ce4bhgh2rcd13ifvqfb0","pricing_plan_id":"cebpf4jnsgd1na2vs0mg"},{"bike_id":"34f6bef6-9812-42f6-9d83-56b323ffad45","system_id":"levelo_inurba_marseille","lat":43.282685,"lon":5.350573,"is_reserved":false,"is_disabled":false,"rental_uris":{"android":"levelo://app?vid=34f6bef6-9812-42f6-9d83-56b323ffad45","ios":"levelo://app?vid=34f6bef6-9812-42f6-9d83-56b323ffad45"},"vehicle_type_id":"4","last_reported":1746019275,"current_range_meters":18000,"station_id":"ce4bhbp2rcd13ifvqerg","pricing_plan_id":"cebpf4jnsgd1na2vs0mg"},{"bike_id":"48ee4ecb-742a-4d30-9d91-da6b6d049dd5","system_id":"levelo_inurba_marseille","lat":43.31326,"lon":5.39713,"is_reserved":false,"is_disabled":false,"rental_uris":{"android":"levelo://app?vid=48ee4ecb-742a-4d30-9d91-da6b6d049dd5","ios":"levelo://app?vid=48ee4ecb-742a-4d30-9d91-da6b6d049dd5"},"vehicle_type_id":"4","last_reported":1746019275,"current_range_meters":18000,"station_id":"ce4bgvp2rcd13ifvqcu0","pricing_plan_id":"cebpf4jnsgd1na2vs0mg"},{"bike_id":"5c6204d4-d9c0-43b1-be8c-6d614660954c","system_id":"levelo_inurba_marseille","lat":43.26784,"lon":5.39413,"is_reserved":false,"is_disabled":false,"rental_uris":{"android":"levelo://app?vid=5c6204d4-d9c0-43b1-be8c-6d614660954c","ios":"levelo://app?vid=5c6204d4-d9c0-43b1-be8c-6d614660954c"},"vehicle_type_id":"4","last_reported":1746019275,"current_range_meters":17600,"station_id":"ce4bhh12rcd13ifvqfg0","pricing_plan_id":"cebpf4jnsgd1na2vs0mg"},{"bike_id":"1c30356f-668e-4020-a7a6-dfcc7f0040df","system_id":"levelo_inurba_marseille","lat":43.24813,"lon":5.37455,"is_reserved":false,"is_disabled":false,"rental_uris":{"android":"levelo://app?vid=1c30356f-668e-4020-a7a6-dfcc7f0040df","ios":"levelo://app?vid=1c30356f-668e-4020-a7a6-dfcc7f0040df"},"vehicle_type_id":"4","last_reported":1746019275,"current_range_meters":18800,"station_id":"ce4bhgh2rcd13ifvqfb0","pricing_plan_id":"cebpf4jnsgd1na2vs0mg"},{"bike_id":"6d514e84-bd0b-4fee-95e8-26878678602a","system_id":"levelo_inurba_marseille","lat":43.21751,"lon":5.34605,"is_reserved":false,"is_disabled":false,"rental_uris":{"android":"levelo://app?vid=6d514e84-bd0b-4fee-95e8-26878678602a","ios":"levelo://app?vid=6d514e84-bd0b-4fee-95e8-26878678602a"},"vehicle_type_id":"4","last_reported":1746019275,"current_range_meters":18800,"station_id":"st_cvj6r9ubvosntc0bgbag","pricing_plan_id":"cebpf4jnsgd1na2vs0mg"},{"bike_id":"b58385b2-d1b2-4ecc-af75-eb7cf4772905","system_id":"levelo_inurba_marseille","lat":43.23052,"lon":5.3549,"is_reserved":false,"is_disabled":false,"rental_uris":{"android":"levelo://app?vid=b58385b2-d1b2-4ecc-af75-eb7cf4772905","ios":"levelo://app?vid=b58385b2-d1b2-4ecc-af75-eb7cf4772905"},"vehicle_type_id":"4","last_reported":1746019275,"current_range_meters":18800,"station_id":"cpo3342slgdg3j2ifvpg","pricing_plan_id":"cebpf4jnsgd1na2vs0mg"},{"bike_id":"cb8e1b19-8fba-4896-a258-382f21af406d","system_id":"levelo_inurba_marseille","lat":43.241666,"lon":5.363886,"is_reserved":false,"is_disabled":false,"rental_uris":{"android":"levelo://app?vid=cb8e1b19-8fba-4896-a258-382f21af406d","ios":"levelo://app?vid=cb8e1b19-8fba-4896-a258-382f21af406d"},"vehicle_type_id":"4","last_reported":1746019275,"current_range_meters":18800,"station_id":"cpo36qri1sfpv3e86is0","pricing_plan_id":"cebpf4jnsgd1na2vs0mg"},{"bike_id":"7c348217-0e46-4169-98dc-fb69c0ad03e6","system_id":"levelo_inurba_marseille","lat":43.26229,"lon":5.40448,"is_reserved":false,"is_disabled":false,"rental_uris":{"android":"levelo://app?vid=7c348217-0e46-4169-98dc-fb69c0ad03e6","ios":"levelo://app?vid=7c348217-0e46-4169-98dc-fb69c0ad03e6"},"vehicle_type_id":"4","last_reported":1746019275,"current_range_meters":18800,"station_id":"ce4bhmh2rcd13ifvqgmg","pricing_plan_id":"cebpf4jnsgd1na2vs0mg"},{"bike_id":"9cf1732b-616f-4a21-832c-0f9a999b43a6","system_id":"levelo_inurba_marseille","lat":43.313361,"lon":5.396855,"is_reserved":false,"is_disabled":false,"rental_uris":{"android":"levelo://app?vid=9cf1732b-616f-4a21-832c-0f9a999b43a6","ios":"levelo://app?vid=9cf1732b-616f-4a21-832c-0f9a999b43a6"},"vehicle_type_id":"4","last_reported":1746019275,"current_range_meters":18800,"station_id":"ce4bgvp2rcd13ifvqcu0","pricing_plan_id":"cebpf4jnsgd1na2vs0mg"},{"bike_id":"40ae96c3-0aac-43aa-ad12-6aff8cf17d9f","system_id":"levelo_inurba_marseille","lat":43.293107,"lon":5.401667,"is_reserved":false,"is_disabled":false,"rental_uris":{"android":"levelo://app?vid=40ae96c3-0aac-43aa-ad12-6aff8cf17d9f","ios":"levelo://app?vid=40ae96c3-0aac-43aa-ad12-6aff8cf17d9f"},"vehicle_type_id":"4","last_reported":1746019275,"current_range_meters":18800,"station_id":"ce4bh312rcd13ifvqdk0","pricing_plan_id":"cebpf4jnsgd1na2vs0mg"},{"bike_id":"e387d285-ec48-456f-9f30-ca6a88dc1a9c","system_id":"levelo_inurba_marseille","lat":43.27819,"lon":5.40722,"is_reserved":false,"is_disabled":false,"rental_uris":{"android":"levelo://app?vid=e387d285-ec48-456f-9f30-ca6a88dc1a9c","ios":"levelo://app?vid=e387d285-ec48-456f-9f30-ca6a88dc1a9c"},"vehicle_type_id":"4","last_reported":1746019275,"current_range_meters":18800,"station_id":"ce4bhnh2rcd13ifvqgtg","pricing_plan_id":"cebpf4jnsgd1na2vs0mg"},{"bike_id":"1a1266bd-3bcf-4816-b0ce-bff9ab63584f","system_id":"levelo_inurba_marseille","lat":43.262206,"lon":5.37463,"is_reserved":false,"is_disabled":false,"rental_uris":{"android":"levelo://app?vid=1a1266bd-3bcf-4816-b0ce-bff9ab63584f","ios":"levelo://app?vid=1a1266bd-3bcf-4816-b0ce-bff9ab63584f"},"vehicle_type_id":"4","last_reported":1746019275,"current_range_meters":19200,"station_id":"ce4bhgp2rcd13ifvqfc0","pricing_plan_id":"cebpf4jnsgd1na2vs0mg"},{"bike_id":"1a325a44-3eb5-4e4b-8d48-75476293f16a","system_id":"levelo_inurba_marseille","lat":43.28736,"lon":5.36087,"is_reserved":false,"is_disabled":false,"rental_uris":{"android":"levelo://app?vid=1a325a44-3eb5-4e4b-8d48-75476293f16a","ios":"levelo://app?vid=1a325a44-3eb5-4e4b-8d48-75476293f16a"},"vehicle_type_id":"4","last_reported":1746019275,"current_range_meters":19200,"station_id":"cki0cbj6b192h4jlfktg","pricing_plan_id":"cebpf4jnsgd1na2vs0mg"},{"bike_id":"3827674c-2c9d-48e3-a4ad-ecf939e7b109","system_id":"levelo_inurba_marseille","lat":43.24182,"lon":5.39735,"is_reserved":false,"is_disabled":false,"rental_uris":{"android":"levelo://app?vid=3827674c-2c9d-48e3-a4ad-ecf939e7b109","ios":"levelo://app?vid=3827674c-2c9d-48e3-a4ad-ecf939e7b109"},"vehicle_type_id":"4","last_reported":1746019275,"current_range_meters":19200,"station_id":"ce4bhn12rcd13ifvqgpg","pricing_plan_id":"cebpf4jnsgd1na2vs0mg"},{"bike_id":"b56eca54-644a-4b1a-9a87-6a3c33df0596","system_id":"levelo_inurba_marseille","lat":43.306467,"lon":5.400808,"is_reserved":false,"is_disabled":false,"rental_uris":{"android":"levelo://app?vid=b56eca54-644a-4b1a-9a87-6a3c33df0596","ios":"levelo://app?vid=b56eca54-644a-4b1a-9a87-6a3c33df0596"},"vehicle_type_id":"4","last_reported":1746019275,"current_range_meters":19200,"station_id":"ce4bh112rcd13ifvqda0","pricing_plan_id":"cebpf4jnsgd1na2vs0mg"},{"bike_id":"3b70334b-df33-44e5-8058-1147f3518590","system_id":"levelo_inurba_marseille","lat":43.3133,"lon":5.39695,"is_reserved":false,"is_disabled":false,"rental_uris":{"android":"levelo://app?vid=3b70334b-df33-44e5-8058-1147f3518590","ios":"levelo://app?vid=3b70334b-df33-44e5-8058-1147f3518590"},"vehicle_type_id":"4","last_reported":1746019275,"current_range_meters":19200,"station_id":"ce4bgvp2rcd13ifvqcu0","pricing_plan_id":"cebpf4jnsgd1na2vs0mg"},{"bike_id":"8a195b7e-5f7f-4bc2-976f-387883a7ea96","system_id":"levelo_inurba_marseille","lat":43.29014,"lon":5.3561,"is_reserved":false,"is_disabled":false,"rental_uris":{"android":"levelo://app?vid=8a195b7e-5f7f-4bc2-976f-387883a7ea96","ios":"levelo://app?vid=8a195b7e-5f7f-4bc2-976f-387883a7ea96"},"vehicle_type_id":"4","last_reported":1746019275,"current_range_meters":19200,"station_id":"ce4bhb92rcd13ifvqen0","pricing_plan_id":"cebpf4jnsgd1na2vs0mg"},{"bike_id":"9374ebd9-ff53-476a-b629-a110bd48fb00","system_id":"levelo_inurba_marseille","lat":43.27492,"lon":5.42457,"is_reserved":false,"is_disabled":true,"rental_uris":{"android":"levelo://app?vid=9374ebd9-ff53-476a-b629-a110bd48fb00","ios":"levelo://app?vid=9374ebd9-ff53-476a-b629-a110bd48fb00"},"vehicle_type_id":"4","last_reported":1746019275,"current_range_meters":19600,"station_id":"ce4bhn92rcd13ifvqgrg","pricing_plan_id":"cebpf4jnsgd1na2vs0mg"},{"bike_id":"be900c40-8388-486a-b00a-4b9bee48a663","system_id":"levelo_inurba_marseille","lat":43.25496,"lon":5.37663,"is_reserved":false,"is_disabled":false,"rental_uris":{"android":"levelo://app?vid=be900c40-8388-486a-b00a-4b9bee48a663","ios":"levelo://app?vid=be900c40-8388-486a-b00a-4b9bee48a663"},"vehicle_type_id":"4","last_reported":1746019275,"current_range_meters":19600,"station_id":"ce4bhh12rcd13ifvqff0","pricing_plan_id":"cebpf4jnsgd1na2vs0mg"},{"bike_id":"d7c63ace-1090-4494-aae1-5e271e73ab11","system_id":"levelo_inurba_marseille","lat":43.23182,"lon":5.399865,"is_reserved":false,"is_disabled":false,"rental_uris":{"android":"levelo://app?vid=d7c63ace-1090-4494-aae1-5e271e73ab11","ios":"levelo://app?vid=d7c63ace-1090-4494-aae1-5e271e73ab11"},"vehicle_type_id":"4","last_reported":1746019275,"current_range_meters":19200,"station_id":"ce4bhn12rcd13ifvqgqg","pricing_plan_id":"cebpf4jnsgd1na2vs0mg"},{"bike_id":"627f6a19-f030-4b36-a27f-7b70d9f403d4","system_id":"levelo_inurba_marseille","lat":43.257208,"lon":5.411147,"is_reserved":false,"is_disabled":true,"rental_uris":{"android":"levelo://app?vid=627f6a19-f030-4b36-a27f-7b70d9f403d4","ios":"levelo://app?vid=627f6a19-f030-4b36-a27f-7b70d9f403d4"},"vehicle_type_id":"4","last_reported":1746019275,"current_range_meters":18000,"station_id":"ce4bhkp2rcd13ifvqgd0","pricing_plan_id":"cebpf4jnsgd1na2vs0mg"},{"bike_id":"2d90d92c-e010-4034-9c8a-92ec848e2a6f","system_id":"levelo_inurba_marseille","lat":43.30308,"lon":5.36899,"is_reserved":false,"is_disabled":false,"rental_uris":{"android":"levelo://app?vid=2d90d92c-e010-4034-9c8a-92ec848e2a6f","ios":"levelo://app?vid=2d90d92c-e010-4034-9c8a-92ec848e2a6f"},"vehicle_type_id":"4","last_reported":1746019275,"current_range_meters":19600,"station_id":"ce4bgqh2rcd13ifvqc5g","pricing_plan_id":"cebpf4jnsgd1na2vs0mg"},{"bike_id":"1ba12a3b-d5a9-409d-9b0b-51648816daa8","system_id":"levelo_inurba_marseille","lat":43.25497,"lon":5.37648,"is_reserved":false,"is_disabled":false,"rental_uris":{"android":"levelo://app?vid=1ba12a3b-d5a9-409d-9b0b-51648816daa8","ios":"levelo://app?vid=1ba12a3b-d5a9-409d-9b0b-51648816daa8"},"vehicle_type_id":"4","last_reported":1746019275,"current_range_meters":19200,"station_id":"ce4bhh12rcd13ifvqff0","pricing_plan_id":"cebpf4jnsgd1na2vs0mg"},{"bike_id":"8b410ac9-bd90-4e8e-8acf-7fcbeb10251d","system_id":"levelo_inurba_marseille","lat":43.24993,"lon":5.38938,"is_reserved":false,"is_disabled":false,"rental_uris":{"android":"levelo://app?vid=8b410ac9-bd90-4e8e-8acf-7fcbeb10251d","ios":"levelo://app?vid=8b410ac9-bd90-4e8e-8acf-7fcbeb10251d"},"vehicle_type_id":"4","last_reported":1746019275,"current_range_meters":19600,"station_id":"ce4bhgp2rcd13ifvqfd0","pricing_plan_id":"cebpf4jnsgd1na2vs0mg"},{"bike_id":"347e8e80-c660-42cc-a851-575f053225e0","system_id":"levelo_inurba_marseille","lat":43.23139,"lon":5.43746,"is_reserved":false,"is_disabled":false,"rental_uris":{"android":"levelo://app?vid=347e8e80-c660-42cc-a851-575f053225e0","ios":"levelo://app?vid=347e8e80-c660-42cc-a851-575f053225e0"},"vehicle_type_id":"4","last_reported":1746019275,"current_range_meters":19600,"station_id":"ce4bhmp2rcd13ifvqgog","pricing_plan_id":"cebpf4jnsgd1na2vs0mg"},{"bike_id":"0cec9de0-aac7-4ad9-9739-144d31bba126","system_id":"levelo_inurba_marseille","lat":43.27613,"lon":5.3612,"is_reserved":false,"is_disabled":false,"rental_uris":{"android":"levelo://app?vid=0cec9de0-aac7-4ad9-9739-144d31bba126","ios":"levelo://app?vid=0cec9de0-aac7-4ad9-9739-144d31bba126"},"vehicle_type_id":"4","last_reported":1746019275,"current_range_meters":19600,"station_id":"ce4bgj92rcd13ifvqbe0","pricing_plan_id":"cebpf4jnsgd1na2vs0mg"},{"bike_id":"e75945bd-3f0f-4efa-91e7-4dd950b270f9","system_id":"levelo_inurba_marseille","lat":43.28006,"lon":5.40004,"is_reserved":false,"is_disabled":false,"rental_uris":{"android":"levelo://app?vid=e75945bd-3f0f-4efa-91e7-4dd950b270f9","ios":"levelo://app?vid=e75945bd-3f0f-4efa-91e7-4dd950b270f9"},"vehicle_type_id":"4","last_reported":1746019275,"current_range_meters":19600,"station_id":"ce4bho92rcd13ifvqh4g","pricing_plan_id":"cebpf4jnsgd1na2vs0mg"},{"bike_id":"cc72cace-c85b-480b-b8ff-980710dfe869","system_id":"levelo_inurba_marseille","lat":43.28419,"lon":5.34989,"is_reserved":false,"is_disabled":false,"rental_uris":{"android":"levelo://app?vid=cc72cace-c85b-480b-b8ff-980710dfe869","ios":"levelo://app?vid=cc72cace-c85b-480b-b8ff-980710dfe869"},"vehicle_type_id":"4","last_reported":1746019275,"current_range_meters":19600,"station_id":"ce4bhbh2rcd13ifvqepg","pricing_plan_id":"cebpf4jnsgd1na2vs0mg"},{"bike_id":"77d5be1e-601f-47a2-9ab4-ba1971b2cfe3","system_id":"levelo_inurba_marseille","lat":43.29016,"lon":5.35611,"is_reserved":false,"is_disabled":false,"rental_uris":{"android":"levelo://app?vid=77d5be1e-601f-47a2-9ab4-ba1971b2cfe3","ios":"levelo://app?vid=77d5be1e-601f-47a2-9ab4-ba1971b2cfe3"},"vehicle_type_id":"4","last_reported":1746019275,"current_range_meters":20000,"station_id":"ce4bhb92rcd13ifvqen0","pricing_plan_id":"cebpf4jnsgd1na2vs0mg"},{"bike_id":"f193e987-a996-4daa-b87c-a4390e514fb4","system_id":"levelo_inurba_marseille","lat":43.23965,"lon":5.36639,"is_reserved":false,"is_disabled":false,"rental_uris":{"android":"levelo://app?vid=f193e987-a996-4daa-b87c-a4390e514fb4","ios":"levelo://app?vid=f193e987-a996-4daa-b87c-a4390e514fb4"},"vehicle_type_id":"4","last_reported":1746019275,"current_range_meters":20000,"station_id":"ce4bhi12rcd13ifvqfp0","pricing_plan_id":"cebpf4jnsgd1na2vs0mg"},{"bike_id":"314c9ca8-4b5f-463a-be70-52f1846de12e","system_id":"levelo_inurba_marseille","lat":43.34144,"lon":5.40907,"is_reserved":false,"is_disabled":false,"rental_uris":{"android":"levelo://app?vid=314c9ca8-4b5f-463a-be70-52f1846de12e","ios":"levelo://app?vid=314c9ca8-4b5f-463a-be70-52f1846de12e"},"vehicle_type_id":"4","last_reported":1746019275,"current_range_meters":20000,"station_id":"ce4bhqh2rcd13ifvqhlg","pricing_plan_id":"cebpf4jnsgd1na2vs0mg"},{"bike_id":"48fe0a61-16d8-4c4d-8014-6583682528ed","system_id":"levelo_inurba_marseille","lat":43.21753,"lon":5.34596,"is_reserved":false,"is_disabled":false,"rental_uris":{"android":"levelo://app?vid=48fe0a61-16d8-4c4d-8014-6583682528ed","ios":"levelo://app?vid=48fe0a61-16d8-4c4d-8014-6583682528ed"},"vehicle_type_id":"4","last_reported":1746019275,"current_range_meters":20000,"station_id":"st_cvj6r9ubvosntc0bgbag","pricing_plan_id":"cebpf4jnsgd1na2vs0mg"},{"bike_id":"d00e406c-e99d-42c0-833e-33c1e02529fd","system_id":"levelo_inurba_marseille","lat":43.290036,"lon":5.356135,"is_reserved":false,"is_disabled":false,"rental_uris":{"android":"levelo://app?vid=d00e406c-e99d-42c0-833e-33c1e02529fd","ios":"levelo://app?vid=d00e406c-e99d-42c0-833e-33c1e02529fd"},"vehicle_type_id":"4","last_reported":1746019275,"current_range_meters":20000,"station_id":"ce4bhb92rcd13ifvqen0","pricing_plan_id":"cebpf4jnsgd1na2vs0mg"},{"bike_id":"6b974cc3-0ef9-49d9-ae0e-082f8d8251a1","system_id":"levelo_inurba_marseille","lat":43.26563,"lon":5.37277,"is_reserved":false,"is_disabled":false,"rental_uris":{"android":"levelo://app?vid=6b974cc3-0ef9-49d9-ae0e-082f8d8251a1","ios":"levelo://app?vid=6b974cc3-0ef9-49d9-ae0e-082f8d8251a1"},"vehicle_type_id":"4","last_reported":1746019275,"current_range_meters":20000,"station_id":"ce4bhg12rcd13ifvqf70","pricing_plan_id":"cebpf4jnsgd1na2vs0mg"},{"bike_id":"6fe35d57-465d-404c-8c88-d24d6ad589fc","system_id":"levelo_inurba_marseille","lat":43.28734,"lon":5.36079,"is_reserved":false,"is_disabled":false,"rental_uris":{"android":"levelo://app?vid=6fe35d57-465d-404c-8c88-d24d6ad589fc","ios":"levelo://app?vid=6fe35d57-465d-404c-8c88-d24d6ad589fc"},"vehicle_type_id":"4","last_reported":1746019275,"current_range_meters":20400,"station_id":"cki0cbj6b192h4jlfktg","pricing_plan_id":"cebpf4jnsgd1na2vs0mg"},{"bike_id":"e7faa150-0e49-48b7-a520-08a07416a8bf","system_id":"levelo_inurba_marseille","lat":43.337444,"lon":5.374475,"is_reserved":false,"is_disabled":false,"rental_uris":{"android":"levelo://app?vid=e7faa150-0e49-48b7-a520-08a07416a8bf","ios":"levelo://app?vid=e7faa150-0e49-48b7-a520-08a07416a8bf"},"vehicle_type_id":"4","last_reported":1746019275,"current_range_meters":20400,"station_id":"ce4bhb92rcd13ifvqen0","pricing_plan_id":"cebpf4jnsgd1na2vs0mg"},{"bike_id":"4d151daf-88db-43ab-a993-9fc0c711bb01","system_id":"levelo_inurba_marseille","lat":43.284217,"lon":5.349905,"is_reserved":false,"is_disabled":false,"rental_uris":{"android":"levelo://app?vid=4d151daf-88db-43ab-a993-9fc0c711bb01","ios":"levelo://app?vid=4d151daf-88db-43ab-a993-9fc0c711bb01"},"vehicle_type_id":"4","last_reported":1746019275,"current_range_meters":20400,"station_id":"ce4bhbh2rcd13ifvqepg","pricing_plan_id":"cebpf4jnsgd1na2vs0mg"},{"bike_id":"5b8df32b-6bd3-46c5-92f6-95932c59353e","system_id":"levelo_inurba_marseille","lat":43.325459,"lon":5.414273,"is_reserved":false,"is_disabled":false,"rental_uris":{"android":"levelo://app?vid=5b8df32b-6bd3-46c5-92f6-95932c59353e","ios":"levelo://app?vid=5b8df32b-6bd3-46c5-92f6-95932c59353e"},"vehicle_type_id":"4","last_reported":1746019275,"current_range_meters":20800,"station_id":"ce4bhq12rcd13ifvqhhg","pricing_plan_id":"cebpf4jnsgd1na2vs0mg"},{"bike_id":"78bd6b36-168d-41d2-bcce-932b973e2e8d","system_id":"levelo_inurba_marseille","lat":43.28111,"lon":5.378347,"is_reserved":false,"is_disabled":false,"rental_uris":{"android":"levelo://app?vid=78bd6b36-168d-41d2-bcce-932b973e2e8d","ios":"levelo://app?vid=78bd6b36-168d-41d2-bcce-932b973e2e8d"},"vehicle_type_id":"4","last_reported":1746019275,"current_range_meters":20800,"station_id":"ce4bha12rcd13ifvqee0","pricing_plan_id":"cebpf4jnsgd1na2vs0mg"},{"bike_id":"cdcb50a2-3beb-4586-94ea-c6962ac3cbe5","system_id":"levelo_inurba_marseille","lat":43.24182,"lon":5.39722,"is_reserved":false,"is_disabled":false,"rental_uris":{"android":"levelo://app?vid=cdcb50a2-3beb-4586-94ea-c6962ac3cbe5","ios":"levelo://app?vid=cdcb50a2-3beb-4586-94ea-c6962ac3cbe5"},"vehicle_type_id":"4","last_reported":1746019275,"current_range_meters":20800,"station_id":"ce4bhn12rcd13ifvqgpg","pricing_plan_id":"cebpf4jnsgd1na2vs0mg"},{"bike_id":"e2e61a8c-bdc6-4f5b-8077-037999f48fdc","system_id":"levelo_inurba_marseille","lat":43.28411,"lon":5.34984,"is_reserved":false,"is_disabled":false,"rental_uris":{"android":"levelo://app?vid=e2e61a8c-bdc6-4f5b-8077-037999f48fdc","ios":"levelo://app?vid=e2e61a8c-bdc6-4f5b-8077-037999f48fdc"},"vehicle_type_id":"4","last_reported":1746019275,"current_range_meters":20800,"station_id":"ce4bhbh2rcd13ifvqepg","pricing_plan_id":"cebpf4jnsgd1na2vs0mg"},{"bike_id":"14ad4215-57c9-4423-b3f2-3d8acf4bce45","system_id":"levelo_inurba_marseille","lat":43.2738,"lon":5.36252,"is_reserved":false,"is_disabled":false,"rental_uris":{"android":"levelo://app?vid=14ad4215-57c9-4423-b3f2-3d8acf4bce45","ios":"levelo://app?vid=14ad4215-57c9-4423-b3f2-3d8acf4bce45"},"vehicle_type_id":"4","last_reported":1746019275,"current_range_meters":20800,"station_id":"ce4bhbh2rcd13ifvqeo0","pricing_plan_id":"cebpf4jnsgd1na2vs0mg"},{"bike_id":"a0b01763-5881-4aa6-b7ff-5cb4131f6c67","system_id":"levelo_inurba_marseille","lat":43.23963,"lon":5.36628,"is_reserved":false,"is_disabled":false,"rental_uris":{"android":"levelo://app?vid=a0b01763-5881-4aa6-b7ff-5cb4131f6c67","ios":"levelo://app?vid=a0b01763-5881-4aa6-b7ff-5cb4131f6c67"},"vehicle_type_id":"4","last_reported":1746019275,"current_range_meters":20800,"station_id":"ce4bhi12rcd13ifvqfp0","pricing_plan_id":"cebpf4jnsgd1na2vs0mg"},{"bike_id":"73a7602c-10ce-4c6a-bf9a-6b326504bbd9","system_id":"levelo_inurba_marseille","lat":43.24551,"lon":5.39532,"is_reserved":false,"is_disabled":false,"rental_uris":{"android":"levelo://app?vid=73a7602c-10ce-4c6a-bf9a-6b326504bbd9","ios":"levelo://app?vid=73a7602c-10ce-4c6a-bf9a-6b326504bbd9"},"vehicle_type_id":"4","last_reported":1746019275,"current_range_meters":21600,"station_id":"ce4bhlp2rcd13ifvqgjg","pricing_plan_id":"cebpf4jnsgd1na2vs0mg"},{"bike_id":"cde443bb-9a98-4dfc-a82f-cbb08d6f149e","system_id":"levelo_inurba_marseille","lat":43.24176,"lon":5.39716,"is_reserved":false,"is_disabled":false,"rental_uris":{"android":"levelo://app?vid=cde443bb-9a98-4dfc-a82f-cbb08d6f149e","ios":"levelo://app?vid=cde443bb-9a98-4dfc-a82f-cbb08d6f149e"},"vehicle_type_id":"4","last_reported":1746019275,"current_range_meters":21600,"station_id":"ce4bhn12rcd13ifvqgpg","pricing_plan_id":"cebpf4jnsgd1na2vs0mg"},{"bike_id":"e6ab582b-6fb3-4ef8-a9c5-39c4339aa8eb","system_id":"levelo_inurba_marseille","lat":43.27684,"lon":5.36073,"is_reserved":false,"is_disabled":false,"rental_uris":{"android":"levelo://app?vid=e6ab582b-6fb3-4ef8-a9c5-39c4339aa8eb","ios":"levelo://app?vid=e6ab582b-6fb3-4ef8-a9c5-39c4339aa8eb"},"vehicle_type_id":"4","last_reported":1746019275,"current_range_meters":20800,"station_id":"ce4bgj92rcd13ifvqbe0","pricing_plan_id":"cebpf4jnsgd1na2vs0mg"},{"bike_id":"990ee646-ea0a-4842-9d50-3106b5e8ae11","system_id":"levelo_inurba_marseille","lat":43.28269,"lon":5.35066,"is_reserved":false,"is_disabled":false,"rental_uris":{"android":"levelo://app?vid=990ee646-ea0a-4842-9d50-3106b5e8ae11","ios":"levelo://app?vid=990ee646-ea0a-4842-9d50-3106b5e8ae11"},"vehicle_type_id":"4","last_reported":1746019275,"current_range_meters":21600,"station_id":"ce4bhbp2rcd13ifvqerg","pricing_plan_id":"cebpf4jnsgd1na2vs0mg"},{"bike_id":"42c28565-d089-4c8f-9c0c-e8f843e7062e","system_id":"levelo_inurba_marseille","lat":43.29643,"lon":5.37157,"is_reserved":false,"is_disabled":true,"rental_uris":{"android":"levelo://app?vid=42c28565-d089-4c8f-9c0c-e8f843e7062e","ios":"levelo://app?vid=42c28565-d089-4c8f-9c0c-e8f843e7062e"},"vehicle_type_id":"4","last_reported":1746019275,"current_range_meters":21600,"station_id":"ce4bgnh2rcd13ifvqc0g","pricing_plan_id":"cebpf4jnsgd1na2vs0mg"},{"bike_id":"b7b5024a-d3e2-4466-92eb-4f3c1d5ad9c3","system_id":"levelo_inurba_marseille","lat":43.28669,"lon":5.36351,"is_reserved":false,"is_disabled":false,"rental_uris":{"android":"levelo://app?vid=b7b5024a-d3e2-4466-92eb-4f3c1d5ad9c3","ios":"levelo://app?vid=b7b5024a-d3e2-4466-92eb-4f3c1d5ad9c3"},"vehicle_type_id":"4","last_reported":1746019275,"current_range_meters":21600,"station_id":"ce4bhah2rcd13ifvqej0","pricing_plan_id":"cebpf4jnsgd1na2vs0mg"},{"bike_id":"a0b52111-1059-4de8-ac81-c5fa6a89e2d3","system_id":"levelo_inurba_marseille","lat":43.23964,"lon":5.36627,"is_reserved":false,"is_disabled":false,"rental_uris":{"android":"levelo://app?vid=a0b52111-1059-4de8-ac81-c5fa6a89e2d3","ios":"levelo://app?vid=a0b52111-1059-4de8-ac81-c5fa6a89e2d3"},"vehicle_type_id":"4","last_reported":1746019275,"current_range_meters":22000,"station_id":"ce4bhi12rcd13ifvqfp0","pricing_plan_id":"cebpf4jnsgd1na2vs0mg"},{"bike_id":"c488e739-0a54-4e13-a506-6a8bf15f38af","system_id":"levelo_inurba_marseille","lat":43.28423,"lon":5.34979,"is_reserved":false,"is_disabled":false,"rental_uris":{"android":"levelo://app?vid=c488e739-0a54-4e13-a506-6a8bf15f38af","ios":"levelo://app?vid=c488e739-0a54-4e13-a506-6a8bf15f38af"},"vehicle_type_id":"4","last_reported":1746019275,"current_range_meters":22000,"station_id":"ce4bhbh2rcd13ifvqepg","pricing_plan_id":"cebpf4jnsgd1na2vs0mg"},{"bike_id":"8a108257-ba62-40f1-b151-5864796d192a","system_id":"levelo_inurba_marseille","lat":43.21753,"lon":5.34592,"is_reserved":false,"is_disabled":false,"rental_uris":{"android":"levelo://app?vid=8a108257-ba62-40f1-b151-5864796d192a","ios":"levelo://app?vid=8a108257-ba62-40f1-b151-5864796d192a"},"vehicle_type_id":"4","last_reported":1746019275,"current_range_meters":22000,"station_id":"st_cvj6r9ubvosntc0bgbag","pricing_plan_id":"cebpf4jnsgd1na2vs0mg"},{"bike_id":"041fd603-a7a7-41c8-86db-ba42ed9a763d","system_id":"levelo_inurba_marseille","lat":43.28266,"lon":5.3508,"is_reserved":false,"is_disabled":false,"rental_uris":{"android":"levelo://app?vid=041fd603-a7a7-41c8-86db-ba42ed9a763d","ios":"levelo://app?vid=041fd603-a7a7-41c8-86db-ba42ed9a763d"},"vehicle_type_id":"4","last_reported":1746019275,"current_range_meters":22000,"station_id":"ce4bhbp2rcd13ifvqerg","pricing_plan_id":"cebpf4jnsgd1na2vs0mg"},{"bike_id":"49503cae-9211-482c-be56-4b83f5311e1e","system_id":"levelo_inurba_marseille","lat":43.26497,"lon":5.39536,"is_reserved":false,"is_disabled":false,"rental_uris":{"android":"levelo://app?vid=49503cae-9211-482c-be56-4b83f5311e1e","ios":"levelo://app?vid=49503cae-9211-482c-be56-4b83f5311e1e"},"vehicle_type_id":"4","last_reported":1746019275,"current_range_meters":22000,"station_id":"ce4bhi12rcd13ifvqfq0","pricing_plan_id":"cebpf4jnsgd1na2vs0mg"},{"bike_id":"2c69655b-c1c2-4a0c-a97e-33e3a7e92f7f","system_id":"levelo_inurba_marseille","lat":43.29017,"lon":5.35609,"is_reserved":false,"is_disabled":false,"rental_uris":{"android":"levelo://app?vid=2c69655b-c1c2-4a0c-a97e-33e3a7e92f7f","ios":"levelo://app?vid=2c69655b-c1c2-4a0c-a97e-33e3a7e92f7f"},"vehicle_type_id":"4","last_reported":1746019275,"current_range_meters":22000,"station_id":"ce4bhb92rcd13ifvqen0","pricing_plan_id":"cebpf4jnsgd1na2vs0mg"},{"bike_id":"4fb09c77-e2fe-4a0d-bfaa-c0225bd427de","system_id":"levelo_inurba_marseille","lat":43.2925,"lon":5.40912,"is_reserved":false,"is_disabled":false,"rental_uris":{"android":"levelo://app?vid=4fb09c77-e2fe-4a0d-bfaa-c0225bd427de","ios":"levelo://app?vid=4fb09c77-e2fe-4a0d-bfaa-c0225bd427de"},"vehicle_type_id":"4","last_reported":1746019275,"current_range_meters":22000,"station_id":"ce4bh192rcd13ifvqdc0","pricing_plan_id":"cebpf4jnsgd1na2vs0mg"},{"bike_id":"9a6d1a0d-0520-4c44-b0a9-74ddbe754418","system_id":"levelo_inurba_marseille","lat":43.25795,"lon":5.41042,"is_reserved":false,"is_disabled":false,"rental_uris":{"android":"levelo://app?vid=9a6d1a0d-0520-4c44-b0a9-74ddbe754418","ios":"levelo://app?vid=9a6d1a0d-0520-4c44-b0a9-74ddbe754418"},"vehicle_type_id":"4","last_reported":1746019275,"current_range_meters":22400,"station_id":"","pricing_plan_id":"cebpf4jnsgd1na2vs0mg"},{"bike_id":"c097e460-17b5-4ed7-8e95-f16294a66b29","system_id":"levelo_inurba_marseille","lat":43.31539,"lon":5.38015,"is_reserved":false,"is_disabled":false,"rental_uris":{"android":"levelo://app?vid=c097e460-17b5-4ed7-8e95-f16294a66b29","ios":"levelo://app?vid=c097e460-17b5-4ed7-8e95-f16294a66b29"},"vehicle_type_id":"4","last_reported":1746019275,"current_range_meters":22000,"station_id":"ce4bhsp2rcd13ifvqi50","pricing_plan_id":"cebpf4jnsgd1na2vs0mg"},{"bike_id":"808d76fe-ead7-4746-90e3-305ac83f064d","system_id":"levelo_inurba_marseille","lat":43.30594,"lon":5.37209,"is_reserved":false,"is_disabled":false,"rental_uris":{"android":"levelo://app?vid=808d76fe-ead7-4746-90e3-305ac83f064d","ios":"levelo://app?vid=808d76fe-ead7-4746-90e3-305ac83f064d"},"vehicle_type_id":"4","last_reported":1746019275,"current_range_meters":22400,"station_id":"ce4bgqh2rcd13ifvqc4g","pricing_plan_id":"cebpf4jnsgd1na2vs0mg"},{"bike_id":"e07d62a1-8528-4e05-9e15-828a10ab3116","system_id":"levelo_inurba_marseille","lat":43.282673,"lon":5.350657,"is_reserved":false,"is_disabled":false,"rental_uris":{"android":"levelo://app?vid=e07d62a1-8528-4e05-9e15-828a10ab3116","ios":"levelo://app?vid=e07d62a1-8528-4e05-9e15-828a10ab3116"},"vehicle_type_id":"4","last_reported":1746019275,"current_range_meters":22400,"station_id":"ce4bhbp2rcd13ifvqerg","pricing_plan_id":"cebpf4jnsgd1na2vs0mg"},{"bike_id":"58da268d-a992-42b8-8721-9d5a9af0632f","system_id":"levelo_inurba_marseille","lat":43.28258,"lon":5.35056,"is_reserved":false,"is_disabled":false,"rental_uris":{"android":"levelo://app?vid=58da268d-a992-42b8-8721-9d5a9af0632f","ios":"levelo://app?vid=58da268d-a992-42b8-8721-9d5a9af0632f"},"vehicle_type_id":"4","last_reported":1746019275,"current_range_meters":22400,"station_id":"ce4bhbp2rcd13ifvqerg","pricing_plan_id":"cebpf4jnsgd1na2vs0mg"},{"bike_id":"70b79563-b2ce-4971-9628-67810d321448","system_id":"levelo_inurba_marseille","lat":43.26234,"lon":5.40446,"is_reserved":false,"is_disabled":false,"rental_uris":{"android":"levelo://app?vid=70b79563-b2ce-4971-9628-67810d321448","ios":"levelo://app?vid=70b79563-b2ce-4971-9628-67810d321448"},"vehicle_type_id":"4","last_reported":1746019275,"current_range_meters":22800,"station_id":"ce4bhmh2rcd13ifvqgmg","pricing_plan_id":"cebpf4jnsgd1na2vs0mg"},{"bike_id":"ccda0702-c654-4426-9501-ec19d12e410a","system_id":"levelo_inurba_marseille","lat":43.28465,"lon":5.35894,"is_reserved":false,"is_disabled":false,"rental_uris":{"android":"levelo://app?vid=ccda0702-c654-4426-9501-ec19d12e410a","ios":"levelo://app?vid=ccda0702-c654-4426-9501-ec19d12e410a"},"vehicle_type_id":"4","last_reported":1746019275,"current_range_meters":22800,"station_id":"ce4bhah2rcd13ifvqei0","pricing_plan_id":"cebpf4jnsgd1na2vs0mg"},{"bike_id":"0bbc06ca-396e-444b-ac5a-91786c91639f","system_id":"levelo_inurba_marseille","lat":43.31332,"lon":5.39692,"is_reserved":false,"is_disabled":false,"rental_uris":{"android":"levelo://app?vid=0bbc06ca-396e-444b-ac5a-91786c91639f","ios":"levelo://app?vid=0bbc06ca-396e-444b-ac5a-91786c91639f"},"vehicle_type_id":"4","last_reported":1746019275,"current_range_meters":22800,"station_id":"ce4bgvp2rcd13ifvqcu0","pricing_plan_id":"cebpf4jnsgd1na2vs0mg"},{"bike_id":"f1d6f623-dc7e-452d-93e8-bcb8756ed483","system_id":"levelo_inurba_marseille","lat":43.3051,"lon":5.36522,"is_reserved":false,"is_disabled":false,"rental_uris":{"android":"levelo://app?vid=f1d6f623-dc7e-452d-93e8-bcb8756ed483","ios":"levelo://app?vid=f1d6f623-dc7e-452d-93e8-bcb8756ed483"},"vehicle_type_id":"4","last_reported":1746019275,"current_range_meters":22800,"station_id":"","pricing_plan_id":"cebpf4jnsgd1na2vs0mg"},{"bike_id":"3aeb961f-88b6-47fd-986a-c7b2a855fefd","system_id":"levelo_inurba_marseille","lat":43.23071,"lon":5.35489,"is_reserved":false,"is_disabled":false,"rental_uris":{"android":"levelo://app?vid=3aeb961f-88b6-47fd-986a-c7b2a855fefd","ios":"levelo://app?vid=3aeb961f-88b6-47fd-986a-c7b2a855fefd"},"vehicle_type_id":"4","last_reported":1746019275,"current_range_meters":22800,"station_id":"cpo3342slgdg3j2ifvpg","pricing_plan_id":"cebpf4jnsgd1na2vs0mg"},{"bike_id":"92f4a1fb-5678-43ad-8c47-f3e699838d72","system_id":"levelo_inurba_marseille","lat":43.2738,"lon":5.36256,"is_reserved":false,"is_disabled":false,"rental_uris":{"android":"levelo://app?vid=92f4a1fb-5678-43ad-8c47-f3e699838d72","ios":"levelo://app?vid=92f4a1fb-5678-43ad-8c47-f3e699838d72"},"vehicle_type_id":"4","last_reported":1746019275,"current_range_meters":22800,"station_id":"ce4bhbh2rcd13ifvqeo0","pricing_plan_id":"cebpf4jnsgd1na2vs0mg"},{"bike_id":"f709b1d1-725b-4776-9964-54f6aca05c41","system_id":"levelo_inurba_marseille","lat":43.273724,"lon":5.362491,"is_reserved":false,"is_disabled":false,"rental_uris":{"android":"levelo://app?vid=f709b1d1-725b-4776-9964-54f6aca05c41","ios":"levelo://app?vid=f709b1d1-725b-4776-9964-54f6aca05c41"},"vehicle_type_id":"4","last_reported":1746019275,"current_range_meters":23200,"station_id":"ce4bhbh2rcd13ifvqeo0","pricing_plan_id":"cebpf4jnsgd1na2vs0mg"},{"bike_id":"0c9ed2fc-fd06-4c36-a53b-988db87a737b","system_id":"levelo_inurba_marseille","lat":43.25875,"lon":5.40987,"is_reserved":false,"is_disabled":false,"rental_uris":{"android":"levelo://app?vid=0c9ed2fc-fd06-4c36-a53b-988db87a737b","ios":"levelo://app?vid=0c9ed2fc-fd06-4c36-a53b-988db87a737b"},"vehicle_type_id":"4","last_reported":1746019275,"current_range_meters":23200,"station_id":"","pricing_plan_id":"cebpf4jnsgd1na2vs0mg"},{"bike_id":"4f012800-95ef-49b1-9970-b9b5fbf32b82","system_id":"levelo_inurba_marseille","lat":43.24548,"lon":5.39522,"is_reserved":false,"is_disabled":false,"rental_uris":{"android":"levelo://app?vid=4f012800-95ef-49b1-9970-b9b5fbf32b82","ios":"levelo://app?vid=4f012800-95ef-49b1-9970-b9b5fbf32b82"},"vehicle_type_id":"4","last_reported":1746019275,"current_range_meters":23200,"station_id":"ce4bhlp2rcd13ifvqgjg","pricing_plan_id":"cebpf4jnsgd1na2vs0mg"},{"bike_id":"8152f1cc-a7db-421f-b868-e1cb45cf2017","system_id":"levelo_inurba_marseille","lat":43.33022,"lon":5.390377,"is_reserved":false,"is_disabled":false,"rental_uris":{"android":"levelo://app?vid=8152f1cc-a7db-421f-b868-e1cb45cf2017","ios":"levelo://app?vid=8152f1cc-a7db-421f-b868-e1cb45cf2017"},"vehicle_type_id":"4","last_reported":1746019275,"current_range_meters":23200,"station_id":"ce4bhr92rcd13ifvqhrg","pricing_plan_id":"cebpf4jnsgd1na2vs0mg"},{"bike_id":"1504394b-bf58-4c06-a784-42ffc05ff14f","system_id":"levelo_inurba_marseille","lat":43.33154,"lon":5.38168,"is_reserved":false,"is_disabled":false,"rental_uris":{"android":"levelo://app?vid=1504394b-bf58-4c06-a784-42ffc05ff14f","ios":"levelo://app?vid=1504394b-bf58-4c06-a784-42ffc05ff14f"},"vehicle_type_id":"4","last_reported":1746019275,"current_range_meters":23200,"station_id":"","pricing_plan_id":"cebpf4jnsgd1na2vs0mg"},{"bike_id":"213c67aa-3d58-4db7-be65-06448c186e16","system_id":"levelo_inurba_marseille","lat":43.313539,"lon":5.36705,"is_reserved":false,"is_disabled":false,"rental_uris":{"android":"levelo://app?vid=213c67aa-3d58-4db7-be65-06448c186e16","ios":"levelo://app?vid=213c67aa-3d58-4db7-be65-06448c186e16"},"vehicle_type_id":"4","last_reported":1746019275,"current_range_meters":23200,"station_id":"ce4bgr92rcd13ifvqc6g","pricing_plan_id":"cebpf4jnsgd1na2vs0mg"},{"bike_id":"8918510d-adef-4348-a657-b8d319950526","system_id":"levelo_inurba_marseille","lat":43.24999,"lon":5.38946,"is_reserved":false,"is_disabled":false,"rental_uris":{"android":"levelo://app?vid=8918510d-adef-4348-a657-b8d319950526","ios":"levelo://app?vid=8918510d-adef-4348-a657-b8d319950526"},"vehicle_type_id":"4","last_reported":1746019275,"current_range_meters":23200,"station_id":"ce4bhgp2rcd13ifvqfd0","pricing_plan_id":"cebpf4jnsgd1na2vs0mg"},{"bike_id":"ec1a7320-748a-4ff5-ba83-d5d3cd77ad53","system_id":"levelo_inurba_marseille","lat":43.27372,"lon":5.36266,"is_reserved":false,"is_disabled":false,"rental_uris":{"android":"levelo://app?vid=ec1a7320-748a-4ff5-ba83-d5d3cd77ad53","ios":"levelo://app?vid=ec1a7320-748a-4ff5-ba83-d5d3cd77ad53"},"vehicle_type_id":"4","last_reported":1746019275,"current_range_meters":23200,"station_id":"ce4bhbh2rcd13ifvqeo0","pricing_plan_id":"cebpf4jnsgd1na2vs0mg"},{"bike_id":"64a8e9dd-65e3-46bc-8627-6d0657b0f772","system_id":"levelo_inurba_marseille","lat":43.26058,"lon":5.39399,"is_reserved":false,"is_disabled":false,"rental_uris":{"android":"levelo://app?vid=64a8e9dd-65e3-46bc-8627-6d0657b0f772","ios":"levelo://app?vid=64a8e9dd-65e3-46bc-8627-6d0657b0f772"},"vehicle_type_id":"4","last_reported":1746019275,"current_range_meters":23200,"station_id":"ce4bhh92rcd13ifvqfj0","pricing_plan_id":"cebpf4jnsgd1na2vs0mg"},{"bike_id":"292cf551-4769-4007-af41-b7714955f1a4","system_id":"levelo_inurba_marseille","lat":43.28412,"lon":5.37505,"is_reserved":false,"is_disabled":false,"rental_uris":{"android":"levelo://app?vid=292cf551-4769-4007-af41-b7714955f1a4","ios":"levelo://app?vid=292cf551-4769-4007-af41-b7714955f1a4"},"vehicle_type_id":"4","last_reported":1746019275,"current_range_meters":23200,"station_id":"ce4bh412rcd13ifvqds0","pricing_plan_id":"cebpf4jnsgd1na2vs0mg"},{"bike_id":"5835fd0b-ee23-47ca-9dc4-2ad55b423268","system_id":"levelo_inurba_marseille","lat":43.30561,"lon":5.36544,"is_reserved":false,"is_disabled":true,"rental_uris":{"android":"levelo://app?vid=5835fd0b-ee23-47ca-9dc4-2ad55b423268","ios":"levelo://app?vid=5835fd0b-ee23-47ca-9dc4-2ad55b423268"},"vehicle_type_id":"4","last_reported":1746019275,"current_range_meters":23200,"station_id":"ce4bgs12rcd13ifvqcag","pricing_plan_id":"cebpf4jnsgd1na2vs0mg"},{"bike_id":"cc91c84c-ffcd-4c1d-9520-1a0eb349c7d2","system_id":"levelo_inurba_marseille","lat":43.341309,"lon":5.409363,"is_reserved":false,"is_disabled":false,"rental_uris":{"android":"levelo://app?vid=cc91c84c-ffcd-4c1d-9520-1a0eb349c7d2","ios":"levelo://app?vid=cc91c84c-ffcd-4c1d-9520-1a0eb349c7d2"},"vehicle_type_id":"4","last_reported":1746019275,"current_range_meters":24000,"station_id":"ce4bhqh2rcd13ifvqhlg","pricing_plan_id":"cebpf4jnsgd1na2vs0mg"},{"bike_id":"21f6503a-d430-432d-81d4-28901a465578","system_id":"levelo_inurba_marseille","lat":43.29229,"lon":5.36057,"is_reserved":false,"is_disabled":false,"rental_uris":{"android":"levelo://app?vid=21f6503a-d430-432d-81d4-28901a465578","ios":"levelo://app?vid=21f6503a-d430-432d-81d4-28901a465578"},"vehicle_type_id":"4","last_reported":1746019275,"current_range_meters":24000,"station_id":"ce4bhbh2rcd13ifvqeqg","pricing_plan_id":"cebpf4jnsgd1na2vs0mg"},{"bike_id":"2ab0eeeb-5787-4ff7-890f-17fc0c7ec7c4","system_id":"levelo_inurba_marseille","lat":43.31212,"lon":5.37683,"is_reserved":false,"is_disabled":false,"rental_uris":{"android":"levelo://app?vid=2ab0eeeb-5787-4ff7-890f-17fc0c7ec7c4","ios":"levelo://app?vid=2ab0eeeb-5787-4ff7-890f-17fc0c7ec7c4"},"vehicle_type_id":"4","last_reported":1746019275,"current_range_meters":24000,"station_id":"ce4bgt12rcd13ifvqcd0","pricing_plan_id":"cebpf4jnsgd1na2vs0mg"},{"bike_id":"c695bac2-0581-4a6a-b9c9-eb8e0d8673ed","system_id":"levelo_inurba_marseille","lat":43.3374,"lon":5.39201,"is_reserved":false,"is_disabled":false,"rental_uris":{"android":"levelo://app?vid=c695bac2-0581-4a6a-b9c9-eb8e0d8673ed","ios":"levelo://app?vid=c695bac2-0581-4a6a-b9c9-eb8e0d8673ed"},"vehicle_type_id":"4","last_reported":1746019275,"current_range_meters":24000,"station_id":"ce4bhr92rcd13ifvqhsg","pricing_plan_id":"cebpf4jnsgd1na2vs0mg"},{"bike_id":"67696ae1-a36f-4fc0-8a41-065a8b017a1c","system_id":"levelo_inurba_marseille","lat":43.29041,"lon":5.37553,"is_reserved":false,"is_disabled":false,"rental_uris":{"android":"levelo://app?vid=67696ae1-a36f-4fc0-8a41-065a8b017a1c","ios":"levelo://app?vid=67696ae1-a36f-4fc0-8a41-065a8b017a1c"},"vehicle_type_id":"4","last_reported":1746019275,"current_range_meters":24000,"station_id":"ce4bh692rcd13ifvqe90","pricing_plan_id":"cebpf4jnsgd1na2vs0mg"},{"bike_id":"b49c6658-f712-4905-8be8-4c050243110a","system_id":"levelo_inurba_marseille","lat":43.28692,"lon":5.36344,"is_reserved":false,"is_disabled":false,"rental_uris":{"android":"levelo://app?vid=b49c6658-f712-4905-8be8-4c050243110a","ios":"levelo://app?vid=b49c6658-f712-4905-8be8-4c050243110a"},"vehicle_type_id":"4","last_reported":1746019275,"current_range_meters":23200,"station_id":"ce4bhah2rcd13ifvqej0","pricing_plan_id":"cebpf4jnsgd1na2vs0mg"},{"bike_id":"480126cf-a0b0-4781-b654-ff4b2a358c73","system_id":"levelo_inurba_marseille","lat":43.28422,"lon":5.34993,"is_reserved":false,"is_disabled":false,"rental_uris":{"android":"levelo://app?vid=480126cf-a0b0-4781-b654-ff4b2a358c73","ios":"levelo://app?vid=480126cf-a0b0-4781-b654-ff4b2a358c73"},"vehicle_type_id":"4","last_reported":1746019275,"current_range_meters":24000,"station_id":"ce4bhbh2rcd13ifvqepg","pricing_plan_id":"cebpf4jnsgd1na2vs0mg"},