{"last_updated":1737454181,"ttl":60,"version":"2.2","data":{"bikes":[{"bike_id":"b74b855a-0a8e-44e1-aa63-99dc34613857","system_id":"levelo_inurba_marseille","lat":43.29903,"lon":5.43658,"is_reserved":false,"is_disabled":false,"rental_uris":{"android":"levelo://app?vid=b74b855a-0a8e-44e1-aa63-99dc34613857","ios":"levelo://app?vid=b74b855a-0a8e-44e1-aa63-99dc34613857"},"vehicle_type_id":"4","last_reported":1737454181,"current_range_meters":29600,"station_id":"ce4bhpp2rcd13ifvqhfg","pricing_plan_id":"cebpf4jnsgd1na2vs0mg"},{"bike_id":"b35cfe77-c215-418b-b426-ecaffb61c8e9","system_id":"levelo_inurba_marseille","lat":43.30955,"lon":5.39056,"is_reserved":false,"is_disabled":false,"rental_uris":{"android":"levelo://app?vid=b35cfe77-c215-418b-b426-ecaffb61c8e9","ios":"levelo://app?vid=b35cfe77-c215-418b-b426-ecaffb61c8e9"},"vehicle_type_id":"4","last_reported":1737454181,"current_range_meters":39200,"station_id":"ce4bgup2rcd13ifvqco0","pricing_plan_id":"cebpf4jnsgd1na2vs0mg"},{"bike_id":"9731f8f4-e959-4457-9e5d-50628458bffe","system_id":"levelo_inurba_marseille","lat":43.30137,"lon":5.37415,"is_reserved":false,"is_disabled":false,"rental_uris":{"android":"levelo://app?vid=9731f8f4-e959-4457-9e5d-50628458bffe","ios":"levelo://app?vid=9731f8f4-e959-4457-9e5d-50628458bffe"},"vehicle_type_id":"4","last_reported":1737454181,"current_range_meters":6400,"station_id":"ce4bgs92rcd13ifvqcc0","pricing_plan_id":"cebpf4jnsgd1na2vs0mg"},{"bike_id":"8403688e-2cae-47f8-a0e0-0d97b3fd96bd","system_id":"levelo_inurba_marseille","lat":43.29248,"lon":5.38445,"is_reserved":false,"is_disabled":false,"rental_uris":{"android":"levelo://app?vid=8403688e-2cae-47f8-a0e0-0d97b3fd96bd","ios":"levelo://app?vid=8403688e-2cae-47f8-a0e0-0d97b3fd96bd"},"vehicle_type_id":"4","last_reported":1737454181,"current_range_meters":37600,"station_id":"ce4bh692rcd13ifvqea0","pricing_plan_id":"cebpf4jnsgd1na2vs0mg"},{"bike_id":"19ab77b4-671c-4d05-aa42-ad5f7c338f06","system_id":"levelo_inurba_marseille","lat":43.28261,"lon":5.35107,"is_reserved":false,"is_disabled":true,"rental_uris":{"android":"levelo://app?vid=19ab77b4-671c-4d05-aa42-ad5f7c338f06","ios":"levelo://app?vid=19ab77b4-671c-4d05-aa42-ad5f7c338f06"},"vehicle_type_id":"4","last_reported":1737454181,"current_range_meters":38800,"station_id":"ce4bhbp2rcd13ifvqerg","pricing_plan_id":"cebpf4jnsgd1na2vs0mg"},{"bike_id":"b3441528-b46d-47b6-b76c-3fd84aa20027","system_id":"levelo_inurba_marseille","lat":43.30447,"lon":5.38899,"is_reserved":false,"is_disabled":true,"rental_uris":{"android":"levelo://app?vid=b3441528-b46d-47b6-b76c-3fd84aa20027","ios":"levelo://app?vid=b3441528-b46d-47b6-b76c-3fd84aa20027"},"vehicle_type_id":"4","last_reported":1737454181,"current_range_meters":1600,"station_id":"ce4bgk12rcd13ifvqbi0","pricing_plan_id":"cebpf4jnsgd1na2vs0mg"},{"bike_id":"dbfc6bbb-0554-4b09-9ba3-6a0d99a97020","system_id":"levelo_inurba_marseille","lat":43.30536,"lon":5.38428,"is_reserved":false,"is_disabled":false,"rental_uris":{"android":"levelo://app?vid=dbfc6bbb-0554-4b09-9ba3-6a0d99a97020","ios":"levelo://app?vid=dbfc6bbb-0554-4b09-9ba3-6a0d99a97020"},"vehicle_type_id":"4","last_reported":1737454181,"current_range_meters":26800,"station_id":"ce4bgg92rcd13ifvqb30","pricing_plan_id":"cebpf4jnsgd1na2vs0mg"},{"bike_id":"d40e2ce2-18ac-4051-b8a4-2c60c55bb04b","system_id":"levelo_inurba_marseille","lat":43.25104,"lon":5.40321,"is_reserved":false,"is_disabled":false,"rental_uris":{"android":"levelo://app?vid=d40e2ce2-18ac-4051-b8a4-2c60c55bb04b","ios":"levelo://app?vid=d40e2ce2-18ac-4051-b8a4-2c60c55bb04b"},"vehicle_type_id":"4","last_reported":1737454181,"current_range_meters":27200,"station_id":"ce4bhlh2rcd13ifvqgig","pricing_plan_id":"cebpf4jnsgd1na2vs0mg"},{"bike_id":"a0117086-9419-4256-a304-3d4e93d47a4e","system_id":"levelo_inurba_marseille","lat":43.33609,"lon":5.41034,"is_reserved":false,"is_disabled":false,"rental_uris":{"android":"levelo://app?vid=a0117086-9419-4256-a304-3d4e93d47a4e","ios":"levelo://app?vid=a0117086-9419-4256-a304-3d4e93d47a4e"},"vehicle_type_id":"4","last_reported":1737454181,"current_range_meters":33600,"station_id":"ce4bhqh2rcd13ifvqhmg","pricing_plan_id":"cebpf4jnsgd1na2vs0mg"},{"bike_id":"0efcb19d-a5d5-4cbb-a0ba-146fb16ac38e","system_id":"levelo_inurba_marseille","lat":43.30547,"lon":5.36528,"is_reserved":false,"is_disabled":false,"rental_uris":{"android":"levelo://app?vid=0efcb19d-a5d5-4cbb-a0ba-146fb16ac38e","ios":"levelo://app?vid=0efcb19d-a5d5-4cbb-a0ba-146fb16ac38e"},"vehicle_type_id":"4","last_reported":1737454181,"current_range_meters":39200,"station_id":"ce4bgs12rcd13ifvqcag","pricing_plan_id":"cebpf4jnsgd1na2vs0mg"},{"bike_id":"e65f406c-7f67-45a7-aa82-f802c824546f","system_id":"levelo_inurba_marseille","lat":43.240688,"lon":5.377623,"is_reserved":false,"is_disabled":false,"rental_uris":{"android":"levelo://app?vid=e65f406c-7f67-45a7-aa82-f802c824546f","ios":"levelo://app?vid=e65f406c-7f67-45a7-aa82-f802c824546f"},"vehicle_type_id":"4","last_reported":1737454181,"current_range_meters":18000,"station_id":"ce4bhnp2rcd13ifvqgvg","pricing_plan_id":"cebpf4jnsgd1na2vs0mg"},{"bike_id":"7388954d-535f-4c1a-960e-18bf9ca31df7","system_id":"levelo_inurba_marseille","lat":43.30144,"lon":5.37392,"is_reserved":false,"is_disabled":false,"rental_uris":{"android":"levelo://app?vid=7388954d-535f-4c1a-960e-18bf9ca31df7","ios":"levelo://app?vid=7388954d-535f-4c1a-960e-18bf9ca31df7"},"vehicle_type_id":"4","last_reported":1737454181,"current_range_meters":39200,"station_id":"ce4bgs92rcd13ifvqcc0","pricing_plan_id":"cebpf4jnsgd1na2vs0mg"},{"bike_id":"8bddb2b5-57d3-4f31-83e0-3d202773f007","system_id":"levelo_inurba_marseille","lat":43.30475,"lon":5.37912,"is_reserved":false,"is_disabled":false,"rental_uris":{"android":"levelo://app?vid=8bddb2b5-57d3-4f31-83e0-3d202773f007","ios":"levelo://app?vid=8bddb2b5-57d3-4f31-83e0-3d202773f007"},"vehicle_type_id":"4","last_reported":1737454181,"current_range_meters":7200,"station_id":"ce4bgup2rcd13ifvqcn0","pricing_plan_id":"cebpf4jnsgd1na2vs0mg"},{"bike_id":"48a4db89-2f72-4ee8-b0ea-b0bc6e5aab84","system_id":"levelo_inurba_marseille","lat":43.260548,"lon":5.39396,"is_reserved":false,"is_disabled":false,"rental_uris":{"android":"levelo://app?vid=48a4db89-2f72-4ee8-b0ea-b0bc6e5aab84","ios":"levelo://app?vid=48a4db89-2f72-4ee8-b0ea-b0bc6e5aab84"},"vehicle_type_id":"4","last_reported":1737454181,"current_range_meters":38000,"station_id":"ce4bhh92rcd13ifvqfj0","pricing_plan_id":"cebpf4jnsgd1na2vs0mg"},{"bike_id":"48d60ac7-a2bd-44ea-8ae7-f8e68106fc06","system_id":"levelo_inurba_marseille","lat":43.29263,"lon":5.3844,"is_reserved":false,"is_disabled":true,"rental_uris":{"android":"levelo://app?vid=48d60ac7-a2bd-44ea-8ae7-f8e68106fc06","ios":"levelo://app?vid=48d60ac7-a2bd-44ea-8ae7-f8e68106fc06"},"vehicle_type_id":"4","last_reported":1737454181,"current_range_meters":32400,"station_id":"ce4bh692rcd13ifvqea0","pricing_plan_id":"cebpf4jnsgd1na2vs0mg"},{"bike_id":"21d0a240-bf78-4842-b62a-9f641595edd6","system_id":"levelo_inurba_marseille","lat":43.3232,"lon":5.38886,"is_reserved":false,"is_disabled":false,"rental_uris":{"android":"levelo://app?vid=21d0a240-bf78-4842-b62a-9f641595edd6","ios":"levelo://app?vid=21d0a240-bf78-4842-b62a-9f641595edd6"},"vehicle_type_id":"4","last_reported":1737454181,"current_range_meters":4800,"station_id":"ce4bhqp2rcd13ifvqhog","pricing_plan_id":"cebpf4jnsgd1na2vs0mg"},{"bike_id":"54e47bbf-d358-4fc6-9623-23d2eb6b92a9","system_id":"levelo_inurba_marseille","lat":43.276747,"lon":5.388474,"is_reserved":false,"is_disabled":true,"rental_uris":{"android":"levelo://app?vid=54e47bbf-d358-4fc6-9623-23d2eb6b92a9","ios":"levelo://app?vid=54e47bbf-d358-4fc6-9623-23d2eb6b92a9"},"vehicle_type_id":"4","last_reported":1737454181,"current_range_meters":12800,"station_id":"","pricing_plan_id":"cebpf4jnsgd1na2vs0mg"},{"bike_id":"a2771881-b956-4a9a-9bc9-a89642d437c9","system_id":"levelo_inurba_marseille","lat":43.23186,"lon":5.35558,"is_reserved":false,"is_disabled":false,"rental_uris":{"android":"levelo://app?vid=a2771881-b956-4a9a-9bc9-a89642d437c9","ios":"levelo://app?vid=a2771881-b956-4a9a-9bc9-a89642d437c9"},"vehicle_type_id":"4","last_reported":1737454181,"current_range_meters":38800,"station_id":"ce4bhu92rcd13ifvqi70","pricing_plan_id":"cebpf4jnsgd1na2vs0mg"},{"bike_id":"3b26ab37-3b51-49df-bcb5-b23c8b5b2a76","system_id":"levelo_inurba_marseille","lat":43.32102,"lon":5.36807,"is_reserved":false,"is_disabled":false,"rental_uris":{"android":"levelo://app?vid=3b26ab37-3b51-49df-bcb5-b23c8b5b2a76","ios":"levelo://app?vid=3b26ab37-3b51-49df-bcb5-b23c8b5b2a76"},"vehicle_type_id":"4","last_reported":1737454181,"current_range_meters":14000,"station_id":"ce4bhrh2rcd13ifvqhug","pricing_plan_id":"cebpf4jnsgd1na2vs0mg"},{"bike_id":"a0b6907a-1e1a-4e71-8881-c6aaf1bfce9b","system_id":"levelo_inurba_marseille","lat":43.30299,"lon":5.36927,"is_reserved":false,"is_disabled":false,"rental_uris":{"android":"levelo://app?vid=a0b6907a-1e1a-4e71-8881-c6aaf1bfce9b","ios":"levelo://app?vid=a0b6907a-1e1a-4e71-8881-c6aaf1bfce9b"},"vehicle_type_id":"4","last_reported":1737454181,"current_range_meters":17200,"station_id":"ce4bgqh2rcd13ifvqc5g","pricing_plan_id":"cebpf4jnsgd1na2vs0mg"},{"bike_id":"8278550a-d2bd-4df6-b67d-28b29e493b15","system_id":"levelo_inurba_marseille","lat":43.29598,"lon":5.38115,"is_reserved":false,"is_disabled":false,"rental_uris":{"android":"levelo://app?vid=8278550a-d2bd-4df6-b67d-28b29e493b15","ios":"levelo://app?vid=8278550a-d2bd-4df6-b67d-28b29e493b15"},"vehicle_type_id":"4","last_reported":1737454181,"current_range_meters":31200,"station_id":"ce4bgl12rcd13ifvqbo0","pricing_plan_id":"cebpf4jnsgd1na2vs0mg"},{"bike_id":"4460a7ea-e284-4a3b-9092-132b8f1c5c7d","system_id":"levelo_inurba_marseille","lat":43.29002,"lon":5.35608,"is_reserved":false,"is_disabled":false,"rental_uris":{"android":"levelo://app?vid=4460a7ea-e284-4a3b-9092-132b8f1c5c7d","ios":"levelo://app?vid=4460a7ea-e284-4a3b-9092-132b8f1c5c7d"},"vehicle_type_id":"4","last_reported":1737454181,"current_range_meters":22400,"station_id":"ce4bhb92rcd13ifvqen0","pricing_plan_id":"cebpf4jnsgd1na2vs0mg"},{"bike_id":"79246c68-7de1-4555-9cf4-39bd1625183d","system_id":"levelo_inurba_marseille","lat":43.25499,"lon":5.3765,"is_reserved":false,"is_disabled":false,"rental_uris":{"android":"levelo://app?vid=79246c68-7de1-4555-9cf4-39bd1625183d","ios":"levelo://app?vid=79246c68-7de1-4555-9cf4-39bd1625183d"},"vehicle_type_id":"4","last_reported":1737454181,"current_range_meters":8800,"station_id":"ce4bhh12rcd13ifvqff0","pricing_plan_id":"cebpf4jnsgd1na2vs0mg"},{"bike_id":"68ec9209-01c6-4e1c-ae8b-ca6e09a5ba59","system_id":"levelo_inurba_marseille","lat":43.32364,"lon":5.38887,"is_reserved":false,"is_disabled":false,"rental_uris":{"android":"levelo://app?vid=68ec9209-01c6-4e1c-ae8b-ca6e09a5ba59","ios":"levelo://app?vid=68ec9209-01c6-4e1c-ae8b-ca6e09a5ba59"},"vehicle_type_id":"4","last_reported":1737454181,"current_range_meters":8800,"station_id":"ce4bhqp2rcd13ifvqhog","pricing_plan_id":"cebpf4jnsgd1na2vs0mg"},{"bike_id":"d910d3e7-2c71-4ae9-a626-413cfffea8bc","system_id":"levelo_inurba_marseille","lat":43.28271,"lon":5.35072,"is_reserved":false,"is_disabled":false,"rental_uris":{"android":"levelo://app?vid=d910d3e7-2c71-4ae9-a626-413cfffea8bc","ios":"levelo://app?vid=d910d3e7-2c71-4ae9-a626-413cfffea8bc"},"vehicle_type_id":"4","last_reported":1737454181,"current_range_meters":39200,"station_id":"ce4bhbp2rcd13ifvqerg","pricing_plan_id":"cebpf4jnsgd1na2vs0mg"},{"bike_id":"bf5cf568-c10e-4e60-a0a0-9d85a4d64367","system_id":"levelo_inurba_marseille","lat":43.29302,"lon":5.37455,"is_reserved":false,"is_disabled":false,"rental_uris":{"android":"levelo://app?vid=bf5cf568-c10e-4e60-a0a0-9d85a4d64367","ios":"levelo://app?vid=bf5cf568-c10e-4e60-a0a0-9d85a4d64367"},"vehicle_type_id":"4","last_reported":1737454181,"current_range_meters":14400,"station_id":"ce4bgi12rcd13ifvqb70","pricing_plan_id":"cebpf4jnsgd1na2vs0mg"},{"bike_id":"02da9480-e0bb-4089-86ef-36d062565380","system_id":"levelo_inurba_marseille","lat":43.32539,"lon":5.41434,"is_reserved":false,"is_disabled":false,"rental_uris":{"android":"levelo://app?vid=02da9480-e0bb-4089-86ef-36d062565380","ios":"levelo://app?vid=02da9480-e0bb-4089-86ef-36d062565380"},"vehicle_type_id":"4","last_reported":1737454181,"current_range_meters":32400,"station_id":"ce4bhq12rcd13ifvqhhg","pricing_plan_id":"cebpf4jnsgd1na2vs0mg"},{"bike_id":"9f0e3f9b-2729-470b-985a-e68b6092701a","system_id":"levelo_inurba_marseille","lat":43.33618,"lon":5.41005,"is_reserved":false,"is_disabled":false,"rental_uris":{"android":"levelo://app?vid=9f0e3f9b-2729-470b-985a-e68b6092701a","ios":"levelo://app?vid=9f0e3f9b-2729-470b-985a-e68b6092701a"},"vehicle_type_id":"4","last_reported":1737454181,"current_range_meters":10000,"station_id":"ce4bhqh2rcd13ifvqhmg","pricing_plan_id":"cebpf4jnsgd1na2vs0mg"},{"bike_id":"ab7b1d7a-8ae0-4c4a-9611-7e663b41825a","system_id":"levelo_inurba_marseille","lat":43.3228,"lon":5.38295,"is_reserved":false,"is_disabled":false,"rental_uris":{"android":"levelo://app?vid=ab7b1d7a-8ae0-4c4a-9611-7e663b41825a","ios":"levelo://app?vid=ab7b1d7a-8ae0-4c4a-9611-7e663b41825a"},"vehicle_type_id":"4","last_reported":1737454181,"current_range_meters":38800,"station_id":"ce4bhr12rcd13ifvqhqg","pricing_plan_id":"cebpf4jnsgd1na2vs0mg"},{"bike_id":"d4a18e16-6eb1-455f-9f8d-52c212244e83","system_id":"levelo_inurba_marseille","lat":43.27798,"lon":5.40505,"is_reserved":false,"is_disabled":true,"rental_uris":{"android":"levelo://app?vid=d4a18e16-6eb1-455f-9f8d-52c212244e83","ios":"levelo://app?vid=d4a18e16-6eb1-455f-9f8d-52c212244e83"},"vehicle_type_id":"4","last_reported":1737454181,"current_range_meters":0,"station_id":"","pricing_plan_id":"cebpf4jnsgd1na2vs0mg"},{"bike_id":"ffa59ed4-240a-4c8b-a1fb-4b0d995ed412","system_id":"levelo_inurba_marseille","lat":43.29983,"lon":5.37167,"is_reserved":false,"is_disabled":false,"rental_uris":{"android":"levelo://app?vid=ffa59ed4-240a-4c8b-a1fb-4b0d995ed412","ios":"levelo://app?vid=ffa59ed4-240a-4c8b-a1fb-4b0d995ed412"},"vehicle_type_id":"4","last_reported":1737454181,"current_range_meters":24800,"station_id":"ce4bgr92rcd13ifvqc7g","pricing_plan_id":"cebpf4jnsgd1na2vs0mg"},{"bike_id":"9a46fc70-7cd3-48e2-808e-3b382fbb61cd","system_id":"levelo_inurba_marseille","lat":43.23147,"lon":5.43726,"is_reserved":false,"is_disabled":false,"rental_uris":{"android":"levelo://app?vid=9a46fc70-7cd3-48e2-808e-3b382fbb61cd","ios":"levelo://app?vid=9a46fc70-7cd3-48e2-808e-3b382fbb61cd"},"vehicle_type_id":"4","last_reported":1737454181,"current_range_meters":15200,"station_id":"ce4bhmp2rcd13ifvqgog","pricing_plan_id":"cebpf4jnsgd1na2vs0mg"},{"bike_id":"4a31d953-a351-4e4b-a04e-ac11058ef623","system_id":"levelo_inurba_marseille","lat":43.27805,"lon":5.40719,"is_reserved":false,"is_disabled":false,"rental_uris":{"android":"levelo://app?vid=4a31d953-a351-4e4b-a04e-ac11058ef623","ios":"levelo://app?vid=4a31d953-a351-4e4b-a04e-ac11058ef623"},"vehicle_type_id":"4","last_reported":1737454181,"current_range_meters":27200,"station_id":"ce4bhnh2rcd13ifvqgtg","pricing_plan_id":"cebpf4jnsgd1na2vs0mg"},{"bike_id":"3cdae501-d533-4bc4-8409-6212e9542676","system_id":"levelo_inurba_marseille","lat":43.240728,"lon":5.377614,"is_reserved":false,"is_disabled":false,"rental_uris":{"android":"levelo://app?vid=3cdae501-d533-4bc4-8409-6212e9542676","ios":"levelo://app?vid=3cdae501-d533-4bc4-8409-6212e9542676"},"vehicle_type_id":"4","last_reported":1737454181,"current_range_meters":28800,"station_id":"ce4bhnp2rcd13ifvqgvg","pricing_plan_id":"cebpf4jnsgd1na2vs0mg"},{"bike_id":"d91be513-c350-4df2-80c9-9eac41eaf470","system_id":"levelo_inurba_marseille","lat":43.27955,"lon":5.38745,"is_reserved":false,"is_disabled":true,"rental_uris":{"android":"levelo://app?vid=d91be513-c350-4df2-80c9-9eac41eaf470","ios":"levelo://app?vid=d91be513-c350-4df2-80c9-9eac41eaf470"},"vehicle_type_id":"4","last_reported":1737454181,"current_range_meters":0,"station_id":"ce4bhg12rcd13ifvqf80","pricing_plan_id":"cebpf4jnsgd1na2vs0mg"},{"bike_id":"e26033bc-2130-4284-a4d7-cac1fa574cc3","system_id":"levelo_inurba_marseille","lat":43.29971,"lon":5.38497,"is_reserved":false,"is_disabled":false,"rental_uris":{"android":"levelo://app?vid=e26033bc-2130-4284-a4d7-cac1fa574cc3","ios":"levelo://app?vid=e26033bc-2130-4284-a4d7-cac1fa574cc3"},"vehicle_type_id":"4","last_reported":1737454181,"current_range_meters":30400,"station_id":"ce4bgj92rcd13ifvqbd0","pricing_plan_id":"cebpf4jnsgd1na2vs0mg"},{"bike_id":"87ebad09-65a6-4770-9b00-958e02f13d23","system_id":"levelo_inurba_marseille","lat":43.27497,"lon":5.42461,"is_reserved":false,"is_disabled":false,"rental_uris":{"android":"levelo://app?vid=87ebad09-65a6-4770-9b00-958e02f13d23","ios":"levelo://app?vid=87ebad09-65a6-4770-9b00-958e02f13d23"},"vehicle_type_id":"4","last_reported":1737454181,"current_range_meters":35600,"station_id":"ce4bhn92rcd13ifvqgrg","pricing_plan_id":"cebpf4jnsgd1na2vs0mg"},{"bike_id":"a3212914-fc49-41cd-bcee-c129fc7ffd9b","system_id":"levelo_inurba_marseille","lat":43.28441,"lon":5.3921,"is_reserved":false,"is_disabled":false,"rental_uris":{"android":"levelo://app?vid=a3212914-fc49-41cd-bcee-c129fc7ffd9b","ios":"levelo://app?vid=a3212914-fc49-41cd-bcee-c129fc7ffd9b"},"vehicle_type_id":"4","last_reported":1737454181,"current_range_meters":4800,"station_id":"ce4bhoh2rcd13ifvqh5g","pricing_plan_id":"cebpf4jnsgd1na2vs0mg"},{"bike_id":"2f9a1a9a-40b7-4030-bcf3-d6f92c7797ba","system_id":"levelo_inurba_marseille","lat":43.26221,"lon":5.40459,"is_reserved":false,"is_disabled":false,"rental_uris":{"android":"levelo://app?vid=2f9a1a9a-40b7-4030-bcf3-d6f92c7797ba","ios":"levelo://app?vid=2f9a1a9a-40b7-4030-bcf3-d6f92c7797ba"},"vehicle_type_id":"4","last_reported":1737454181,"current_range_meters":27600,"station_id":"","pricing_plan_id":"cebpf4jnsgd1na2vs0mg"},{"bike_id":"7c981f3d-d8ae-413a-bc44-55e9cce45c22","system_id":"levelo_inurba_marseille","lat":43.30912,"lon":5.36849,"is_reserved":false,"is_disabled":false,"rental_uris":{"android":"levelo://app?vid=7c981f3d-d8ae-413a-bc44-55e9cce45c22","ios":"levelo://app?vid=7c981f3d-d8ae-413a-bc44-55e9cce45c22"},"vehicle_type_id":"4","last_reported":1737454181,"current_range_meters":34000,"station_id":"ce4bgn92rcd13ifvqbvg","pricing_plan_id":"cebpf4jnsgd1na2vs0mg"},{"bike_id":"41aceb29-c457-45f6-9059-a55dba94a243","system_id":"levelo_inurba_marseille","lat":43.29872,"lon":5.3973,"is_reserved":false,"is_disabled":false,"rental_uris":{"android":"levelo://app?vid=41aceb29-c457-45f6-9059-a55dba94a243","ios":"levelo://app?vid=41aceb29-c457-45f6-9059-a55dba94a243"},"vehicle_type_id":"4","last_reported":1737454181,"current_range_meters":35200,"station_id":"ce4bh0h2rcd13ifvqd50","pricing_plan_id":"cebpf4jnsgd1na2vs0mg"},{"bike_id":"c35f2a56-0945-408c-ab7b-059d91aadb6e","system_id":"levelo_inurba_marseille","lat":43.25932,"lon":5.40911,"is_reserved":false,"is_disabled":false,"rental_uris":{"android":"levelo://app?vid=c35f2a56-0945-408c-ab7b-059d91aadb6e","ios":"levelo://app?vid=c35f2a56-0945-408c-ab7b-059d91aadb6e"},"vehicle_type_id":"4","last_reported":1737454181,"current_range_meters":22400,"station_id":"ce4bhm92rcd13ifvqglg","pricing_plan_id":"cebpf4jnsgd1na2vs0mg"},{"bike_id":"e9a130dc-806e-49a7-80a8-0ae869a1a749","system_id":"levelo_inurba_marseille","lat":43.31196,"lon":5.36882,"is_reserved":false,"is_disabled":false,"rental_uris":{"android":"levelo://app?vid=e9a130dc-806e-49a7-80a8-0ae869a1a749","ios":"levelo://app?vid=e9a130dc-806e-49a7-80a8-0ae869a1a749"},"vehicle_type_id":"4","last_reported":1737454181,"current_range_meters":6400,"station_id":"ce4bgl92rcd13ifvqbq0","pricing_plan_id":"cebpf4jnsgd1na2vs0mg"},{"bike_id":"53e56092-bf59-4d37-8073-3e35714bc05d","system_id":"levelo_inurba_marseille","lat":43.23151,"lon":5.4372,"is_reserved":false,"is_disabled":false,"rental_uris":{"android":"levelo://app?vid=53e56092-bf59-4d37-8073-3e35714bc05d","ios":"levelo://app?vid=53e56092-bf59-4d37-8073-3e35714bc05d"},"vehicle_type_id":"4","last_reported":1737454181,"current_range_meters":18000,"station_id":"ce4bhmp2rcd13ifvqgog","pricing_plan_id":"cebpf4jnsgd1na2vs0mg"},{"bike_id":"89e5d999-b64a-4894-b233-fbd2ca840386","system_id":"levelo_inurba_marseille","lat":43.30916,"lon":5.36855,"is_reserved":false,"is_disabled":false,"rental_uris":{"android":"levelo://app?vid=89e5d999-b64a-4894-b233-fbd2ca840386","ios":"levelo://app?vid=89e5d999-b64a-4894-b233-fbd2ca840386"},"vehicle_type_id":"4","last_reported":1737454181,"current_range_meters":32000,"station_id":"ce4bgn92rcd13ifvqbvg","pricing_plan_id":"cebpf4jnsgd1na2vs0mg"},{"bike_id":"7f865fb1-a21b-4393-a12d-712b54b8725b","system_id":"levelo_inurba_marseille","lat":43.26683,"lon":5.38275,"is_reserved":false,"is_disabled":false,"rental_uris":{"android":"levelo://app?vid=7f865fb1-a21b-4393-a12d-712b54b8725b","ios":"levelo://app?vid=7f865fb1-a21b-4393-a12d-712b54b8725b"},"vehicle_type_id":"4","last_reported":1737454181,"current_range_meters":33600,"station_id":"ce4bhg92rcd13ifvqf90","pricing_plan_id":"cebpf4jnsgd1na2vs0mg"},{"bike_id":"3402a18e-81b6-4b1b-aff9-7444a417ad02","system_id":"levelo_inurba_marseille","lat":43.29197,"lon":5.39316,"is_reserved":false,"is_disabled":false,"rental_uris":{"android":"levelo://app?vid=3402a18e-81b6-4b1b-aff9-7444a417ad02","ios":"levelo://app?vid=3402a18e-81b6-4b1b-aff9-7444a417ad02"},"vehicle_type_id":"4","last_reported":1737454181,"current_range_meters":38400,"station_id":"ce4bh192rcd13ifvqdd0","pricing_plan_id":"cebpf4jnsgd1na2vs0mg"},{"bike_id":"80f6dc3a-c3ca-4687-bf99-15113c504e75","system_id":"levelo_inurba_marseille","lat":43.30415,"lon":5.41285,"is_reserved":false,"is_disabled":false,"rental_uris":{"android":"levelo://app?vid=80f6dc3a-c3ca-4687-bf99-15113c504e75","ios":"levelo://app?vid=80f6dc3a-c3ca-4687-bf99-15113c504e75"},"vehicle_type_id":"4","last_reported":1737454181,"current_range_meters":36000,"station_id":"ce4bhop2rcd13ifvqh8g","pricing_plan_id":"cebpf4jnsgd1na2vs0mg"},{"bike_id":"31254844-cf96-4069-8c0f-e219c1d8caa3","system_id":"levelo_inurba_marseille","lat":43.29026,"lon":5.40048,"is_reserved":false,"is_disabled":false,"rental_uris":{"android":"levelo://app?vid=31254844-cf96-4069-8c0f-e219c1d8caa3","ios":"levelo://app?vid=31254844-cf96-4069-8c0f-e219c1d8caa3"},"vehicle_type_id":"4","last_reported":1737454181,"current_range_meters":38000,"station_id":"","pricing_plan_id":"cebpf4jnsgd1na2vs0mg"},{"bike_id":"4a95da1b-b6c5-4a4e-9930-21a2e0b47b1d","system_id":"levelo_inurba_marseille","lat":43.27986,"lon":5.41663,"is_reserved":false,"is_disabled":false,"rental_uris":{"android":"levelo://app?vid=4a95da1b-b6c5-4a4e-9930-21a2e0b47b1d","ios":"levelo://app?vid=4a95da1b-b6c5-4a4e-9930-21a2e0b47b1d"},"vehicle_type_id":"4","last_reported":1737454181,"current_range_meters":29600,"station_id":"ce4bho12rcd13ifvqh1g","pricing_plan_id":"cebpf4jnsgd1na2vs0mg"},{"bike_id":"c6aec08a-95b2-468e-b6ba-3552b798296e","system_id":"levelo_inurba_marseille","lat":43.336113,"lon":5.410241,"is_reserved":false,"is_disabled":false,"rental_uris":{"android":"levelo://app?vid=c6aec08a-95b2-468e-b6ba-3552b798296e","ios":"levelo://app?vid=c6aec08a-95b2-468e-b6ba-3552b798296e"},"vehicle_type_id":"4","last_reported":1737454181,"current_range_meters":28400,"station_id":"ce4bhqh2rcd13ifvqhmg","pricing_plan_id":"cebpf4jnsgd1na2vs0mg"},{"bike_id":"c5b30ff3-a055-4ec4-836d-1e81f89e5f14","system_id":"levelo_inurba_marseille","lat":43.31346,"lon":5.3851,"is_reserved":false,"is_disabled":false,"rental_uris":{"android":"levelo://app?vid=c5b30ff3-a055-4ec4-836d-1e81f89e5f14","ios":"levelo://app?vid=c5b30ff3-a055-4ec4-836d-1e81f89e5f14"},"vehicle_type_id":"4","last_reported":1737454181,"current_range_meters":38800,"station_id":"ce4bgt92rcd13ifvqcf0","pricing_plan_id":"cebpf4jnsgd1na2vs0mg"},{"bike_id":"57089681-4dfb-4ed4-9d3a-5124dafb4159","system_id":"levelo_inurba_marseille","lat":43.27065,"lon":5.42276,"is_reserved":false,"is_disabled":false,"rental_uris":{"android":"levelo://app?vid=57089681-4dfb-4ed4-9d3a-5124dafb4159","ios":"levelo://app?vid=57089681-4dfb-4ed4-9d3a-5124dafb4159"},"vehicle_type_id":"4","last_reported":1737454181,"current_range_meters":32000,"station_id":"ce4bhk92rcd13ifvqgb0","pricing_plan_id":"cebpf4jnsgd1na2vs0mg"},{"bike_id":"6d0ff190-8321-400f-8cc8-c6475b4fa52f","system_id":"levelo_inurba_marseille","lat":43.302999,"lon":5.392104,"is_reserved":false,"is_disabled":false,"rental_uris":{"android":"levelo://app?vid=6d0ff190-8321-400f-8cc8-c6475b4fa52f","ios":"levelo://app?vid=6d0ff190-8321-400f-8cc8-c6475b4fa52f"},"vehicle_type_id":"4","last_reported":1737454181,"current_range_meters":6000,"station_id":"ce4bgkh2rcd13ifvqbk0","pricing_plan_id":"cebpf4jnsgd1na2vs0mg"},{"bike_id":"580fd682-a63d-4470-bd40-a527c3d7e682","system_id":"levelo_inurba_marseille","lat":43.24998,"lon":5.38945,"is_reserved":false,"is_disabled":false,"rental_uris":{"android":"levelo://app?vid=580fd682-a63d-4470-bd40-a527c3d7e682","ios":"levelo://app?vid=580fd682-a63d-4470-bd40-a527c3d7e682"},"vehicle_type_id":"4","last_reported":1737454181,"current_range_meters":38800,"station_id":"ce4bhgp2rcd13ifvqfd0","pricing_plan_id":"cebpf4jnsgd1na2vs0mg"},{"bike_id":"11c141b4-e9b4-42c2-9875-a9df196d41b9","system_id":"levelo_inurba_marseille","lat":43.26673,"lon":5.38276,"is_reserved":false,"is_disabled":false,"rental_uris":{"android":"levelo://app?vid=11c141b4-e9b4-42c2-9875-a9df196d41b9","ios":"levelo://app?vid=11c141b4-e9b4-42c2-9875-a9df196d41b9"},"vehicle_type_id":"4","last_reported":1737454181,"current_range_meters":26800,"station_id":"ce4bhg92rcd13ifvqf90","pricing_plan_id":"cebpf4jnsgd1na2vs0mg"},{"bike_id":"845f61d5-df34-4df2-90eb-7138fc4094b7","system_id":"levelo_inurba_marseille","lat":43.31361,"lon":5.38487,"is_reserved":false,"is_disabled":false,"rental_uris":{"android":"levelo://app?vid=845f61d5-df34-4df2-90eb-7138fc4094b7","ios":"levelo://app?vid=845f61d5-df34-4df2-90eb-7138fc4094b7"},"vehicle_type_id":"4","last_reported":1737454181,"current_range_meters":27200,"station_id":"ce4bgt92rcd13ifvqcf0","pricing_plan_id":"cebpf4jnsgd1na2vs0mg"},{"bike_id":"78ead62c-8e6d-4caa-b268-759e0d7ac090","system_id":"levelo_inurba_marseille","lat":43.27491,"lon":5.42454,"is_reserved":false,"is_disabled":false,"rental_uris":{"android":"levelo://app?vid=78ead62c-8e6d-4caa-b268-759e0d7ac090","ios":"levelo://app?vid=78ead62c-8e6d-4caa-b268-759e0d7ac090"},"vehicle_type_id":"4","last_reported":1737454181,"current_range_meters":23200,"station_id":"ce4bhn92rcd13ifvqgrg","pricing_plan_id":"cebpf4jnsgd1na2vs0mg"},{"bike_id":"cc958890-0ed5-44c2-a0d9-92928b491c54","system_id":"levelo_inurba_marseille","lat":43.272,"lon":5.39182,"is_reserved":false,"is_disabled":false,"rental_uris":{"android":"levelo://app?vid=cc958890-0ed5-44c2-a0d9-92928b491c54","ios":"levelo://app?vid=cc958890-0ed5-44c2-a0d9-92928b491c54"},"vehicle_type_id":"4","last_reported":1737454181,"current_range_meters":39200,"station_id":"ce4bhhp2rcd13ifvqfm0","pricing_plan_id":"cebpf4jnsgd1na2vs0mg"},{"bike_id":"2d8a7250-7ab8-4220-89a7-be8a9949efcf","system_id":"levelo_inurba_marseille","lat":43.29873,"lon":5.39717,"is_reserved":false,"is_disabled":false,"rental_uris":{"android":"levelo://app?vid=2d8a7250-7ab8-4220-89a7-be8a9949efcf","ios":"levelo://app?vid=2d8a7250-7ab8-4220-89a7-be8a9949efcf"},"vehicle_type_id":"4","last_reported":1737454181,"current_range_meters":35600,"station_id":"ce4bh0h2rcd13ifvqd50","pricing_plan_id":"cebpf4jnsgd1na2vs0mg"},{"bike_id":"89246613-701f-4c68-9d92-02bfec38ebf0","system_id":"levelo_inurba_marseille","lat":43.26799,"lon":5.40274,"is_reserved":false,"is_disabled":false,"rental_uris":{"android":"levelo://app?vid=89246613-701f-4c68-9d92-02bfec38ebf0","ios":"levelo://app?vid=89246613-701f-4c68-9d92-02bfec38ebf0"},"vehicle_type_id":"4","last_reported":1737454181,"current_range_meters":27200,"station_id":"ce501612rcd8frsf0b60","pricing_plan_id":"cebpf4jnsgd1na2vs0mg"},{"bike_id":"ea4936bb-a020-48d0-ad34-8742c0d8a98c","system_id":"levelo_inurba_marseille","lat":43.30913,"lon":5.36863,"is_reserved":false,"is_disabled":false,"rental_uris":{"android":"levelo://app?vid=ea4936bb-a020-48d0-ad34-8742c0d8a98c","ios":"levelo://app?vid=ea4936bb-a020-48d0-ad34-8742c0d8a98c"},"vehicle_type_id":"4","last_reported":1737454181,"current_range_meters":31200,"station_id":"ce4bgn92rcd13ifvqbvg","pricing_plan_id":"cebpf4jnsgd1na2vs0mg"},{"bike_id":"31257c94-14b2-42e2-9664-77ef70ea51d9","system_id":"levelo_inurba_marseille","lat":43.32484,"lon":5.3656,"is_reserved":false,"is_disabled":false,"rental_uris":{"android":"levelo://app?vid=31257c94-14b2-42e2-9664-77ef70ea51d9","ios":"levelo://app?vid=31257c94-14b2-42e2-9664-77ef70ea51d9"},"vehicle_type_id":"4","last_reported":1737454181,"current_range_meters":38800,"station_id":"ce4bhs12rcd13ifvqhvg","pricing_plan_id":"cebpf4jnsgd1na2vs0mg"},{"bike_id":"bc44b838-5e20-4546-8ae8-e1fd2cf0cd3c","system_id":"levelo_inurba_marseille","lat":43.27563,"lon":5.38428,"is_reserved":false,"is_disabled":false,"rental_uris":{"android":"levelo://app?vid=bc44b838-5e20-4546-8ae8-e1fd2cf0cd3c","ios":"levelo://app?vid=bc44b838-5e20-4546-8ae8-e1fd2cf0cd3c"},"vehicle_type_id":"4","last_reported":1737454181,"current_range_meters":38800,"station_id":"ce4bhh92rcd13ifvqfi0","pricing_plan_id":"cebpf4jnsgd1na2vs0mg"},{"bike_id":"d6da2584-b3dd-457b-8a6a-58d03381838a","system_id":"levelo_inurba_marseille","lat":43.30109,"lon":5.37429,"is_reserved":false,"is_disabled":false,"rental_uris":{"android":"levelo://app?vid=d6da2584-b3dd-457b-8a6a-58d03381838a","ios":"levelo://app?vid=d6da2584-b3dd-457b-8a6a-58d03381838a"},"vehicle_type_id":"4","last_reported":1737454181,"current_range_meters":39200,"station_id":"ce4bgs92rcd13ifvqcc0","pricing_plan_id":"cebpf4jnsgd1na2vs0mg"},{"bike_id":"a3f90777-1b74-4cb6-afca-03f80d642831","system_id":"levelo_inurba_marseille","lat":43.26945,"lon":5.38629,"is_reserved":false,"is_disabled":false,"rental_uris":{"android":"levelo://app?vid=a3f90777-1b74-4cb6-afca-03f80d642831","ios":"levelo://app?vid=a3f90777-1b74-4cb6-afca-03f80d642831"},"vehicle_type_id":"4","last_reported":1737454181,"current_range_meters":39200,"station_id":"ce4bhh92rcd13ifvqfh0","pricing_plan_id":"cebpf4jnsgd1na2vs0mg"},{"bike_id":"b6cc31be-151e-4d56-8839-e71a9cd45b18","system_id":"levelo_inurba_marseille","lat":43.23179,"lon":5.35569,"is_reserved":false,"is_disabled":false,"rental_uris":{"android":"levelo://app?vid=b6cc31be-151e-4d56-8839-e71a9cd45b18","ios":"levelo://app?vid=b6cc31be-151e-4d56-8839-e71a9cd45b18"},"vehicle_type_id":"4","last_reported":1737454181,"current_range_meters":37600,"station_id":"ce4bhu92rcd13ifvqi70","pricing_plan_id":"cebpf4jnsgd1na2vs0mg"},{"bike_id":"1a0a2514-1dbf-4be6-9e23-d2b90daf2f22","system_id":"levelo_inurba_marseille","lat":43.23142,"lon":5.43712,"is_reserved":false,"is_disabled":false,"rental_uris":{"android":"levelo://app?vid=1a0a2514-1dbf-4be6-9e23-d2b90daf2f22","ios":"levelo://app?vid=1a0a2514-1dbf-4be6-9e23-d2b90daf2f22"},"vehicle_type_id":"4","last_reported":1737454181,"current_range_meters":9600,"station_id":"ce4bhmp2rcd13ifvqgog","pricing_plan_id":"cebpf4jnsgd1na2vs0mg"},{"bike_id":"28201ba4-e578-471a-844b-6e5aba6eabab","system_id":"levelo_inurba_marseille","lat":43.31168,"lon":5.38708,"is_reserved":false,"is_disabled":false,"rental_uris":{"android":"levelo://app?vid=28201ba4-e578-471a-844b-6e5aba6eabab","ios":"levelo://app?vid=28201ba4-e578-471a-844b-6e5aba6eabab"},"vehicle_type_id":"4","last_reported":1737454181,"current_range_meters":38800,"station_id":"ce4bgv12rcd13ifvqcp0","pricing_plan_id":"cebpf4jnsgd1na2vs0mg"},{"bike_id":"51ef1423-7a3e-4cca-ae71-2b6e28f69bdf","system_id":"levelo_inurba_marseille","lat":43.30473,"lon":5.37899,"is_reserved":false,"is_disabled":false,"rental_uris":{"android":"levelo://app?vid=51ef1423-7a3e-4cca-ae71-2b6e28f69bdf","ios":"levelo://app?vid=51ef1423-7a3e-4cca-ae71-2b6e28f69bdf"},"vehicle_type_id":"4","last_reported":1737454181,"current_range_meters":36400,"station_id":"ce4bgup2rcd13ifvqcn0","pricing_plan_id":"cebpf4jnsgd1na2vs0mg"},{"bike_id":"e769477c-b503-4bb8-b7d3-b7f7ff9ddf2d","system_id":"levelo_inurba_marseille","lat":43.29204,"lon":5.36924,"is_reserved":false,"is_disabled":false,"rental_uris":{"android":"levelo://app?vid=e769477c-b503-4bb8-b7d3-b7f7ff9ddf2d","ios":"levelo://app?vid=e769477c-b503-4bb8-b7d3-b7f7ff9ddf2d"},"vehicle_type_id":"4","last_reported":1737454181,"current_range_meters":10800,"station_id":"","pricing_plan_id":"cebpf4jnsgd1na2vs0mg"},{"bike_id":"28ef1c1e-dd89-43e8-817b-9b489831397b","system_id":"levelo_inurba_marseille","lat":43.27105,"lon":5.39608,"is_reserved":false,"is_disabled":true,"rental_uris":{"android":"levelo://app?vid=28ef1c1e-dd89-43e8-817b-9b489831397b","ios":"levelo://app?vid=28ef1c1e-dd89-43e8-817b-9b489831397b"},"vehicle_type_id":"4","last_reported":1737454181,"current_range_meters":0,"station_id":"","pricing_plan_id":"cebpf4jnsgd1na2vs0mg"},{"bike_id":"bf04cb94-1bb7-4539-a87b-98c1f139ab50","system_id":"levelo_inurba_marseille","lat":43.29899,"lon":5.37469,"is_reserved":false,"is_disabled":false,"rental_uris":{"android":"levelo://app?vid=bf04cb94-1bb7-4539-a87b-98c1f139ab50","ios":"levelo://app?vid=bf04cb94-1bb7-4539-a87b-98c1f139ab50"},"vehicle_type_id":"4","last_reported":1737454181,"current_range_meters":24800,"station_id":"ce4bgjh2rcd13ifvqbg0","pricing_plan_id":"cebpf4jnsgd1na2vs0mg"},{"bike_id":"973357c8-dead-42ca-92e9-500225bc994c","system_id":"levelo_inurba_marseille","lat":43.33025,"lon":5.39045,"is_reserved":false,"is_disabled":false,"rental_uris":{"android":"levelo://app?vid=973357c8-dead-42ca-92e9-500225bc994c","ios":"levelo://app?vid=973357c8-dead-42ca-92e9-500225bc994c"},"vehicle_type_id":"4","last_reported":1737454181,"current_range_meters":38800,"station_id":"ce4bhr92rcd13ifvqhrg","pricing_plan_id":"cebpf4jnsgd1na2vs0mg"},{"bike_id":"e176cee4-7a25-4853-917d-a588337a0630","system_id":"levelo_inurba_marseille","lat":43.30279,"lon":5.37704,"is_reserved":false,"is_disabled":true,"rental_uris":{"android":"levelo://app?vid=e176cee4-7a25-4853-917d-a588337a0630","ios":"levelo://app?vid=e176cee4-7a25-4853-917d-a588337a0630"},"vehicle_type_id":"4","last_reported":1737454181,"current_range_meters":0,"station_id":"ce4bguh2rcd13ifvqcj0","pricing_plan_id":"cebpf4jnsgd1na2vs0mg"},{"bike_id":"9147097d-da43-46f3-8949-6317a1ac1f83","system_id":"levelo_inurba_marseille","lat":43.26198,"lon":5.37932,"is_reserved":false,"is_disabled":false,"rental_uris":{"android":"levelo://app?vid=9147097d-da43-46f3-8949-6317a1ac1f83","ios":"levelo://app?vid=9147097d-da43-46f3-8949-6317a1ac1f83"},"vehicle_type_id":"4","last_reported":1737454181,"current_range_meters":32000,"station_id":"ce4bhjp2rcd13ifvqg90","pricing_plan_id":"cebpf4jnsgd1na2vs0mg"},{"bike_id":"a4b74f2c-4c83-457e-85d5-04753235df80","system_id":"levelo_inurba_marseille","lat":43.28344,"lon":5.38103,"is_reserved":false,"is_disabled":false,"rental_uris":{"android":"levelo://app?vid=a4b74f2c-4c83-457e-85d5-04753235df80","ios":"levelo://app?vid=a4b74f2c-4c83-457e-85d5-04753235df80"},"vehicle_type_id":"4","last_reported":1737454181,"current_range_meters":36000,"station_id":"ce4bh412rcd13ifvqdr0","pricing_plan_id":"cebpf4jnsgd1na2vs0mg"},{"bike_id":"526c1d72-da5c-48b1-b724-d5230cfe22b0","system_id":"levelo_inurba_marseille","lat":43.27213,"lon":5.39186,"is_reserved":false,"is_disabled":false,"rental_uris":{"android":"levelo://app?vid=526c1d72-da5c-48b1-b724-d5230cfe22b0","ios":"levelo://app?vid=526c1d72-da5c-48b1-b724-d5230cfe22b0"},"vehicle_type_id":"4","last_reported":1737454181,"current_range_meters":25200,"station_id":"ce4bhhp2rcd13ifvqfm0","pricing_plan_id":"cebpf4jnsgd1na2vs0mg"},{"bike_id":"584a2a6a-e927-4176-a83e-1ee67ef5c40a","system_id":"levelo_inurba_marseille","lat":43.3013,"lon":5.38095,"is_reserved":false,"is_disabled":false,"rental_uris":{"android":"levelo://app?vid=584a2a6a-e927-4176-a83e-1ee67ef5c40a","ios":"levelo://app?vid=584a2a6a-e927-4176-a83e-1ee67ef5c40a"},"vehicle_type_id":"4","last_reported":1737454181,"current_range_meters":22800,"station_id":"ce4bgjp2rcd13ifvqbh0","pricing_plan_id":"cebpf4jnsgd1na2vs0mg"},{"bike_id":"be6271dc-1ee0-49fb-a2be-19b461220882","system_id":"levelo_inurba_marseille","lat":43.29031,"lon":5.37568,"is_reserved":false,"is_disabled":false,"rental_uris":{"android":"levelo://app?vid=be6271dc-1ee0-49fb-a2be-19b461220882","ios":"levelo://app?vid=be6271dc-1ee0-49fb-a2be-19b461220882"},"vehicle_type_id":"4","last_reported":1737454181,"current_range_meters":33600,"station_id":"ce4bh692rcd13ifvqe90","pricing_plan_id":"cebpf4jnsgd1na2vs0mg"},{"bike_id":"6d170c43-ed25-40d3-b88a-cefadd58002d","system_id":"levelo_inurba_marseille","lat":43.336114,"lon":5.410314,"is_reserved":false,"is_disabled":false,"rental_uris":{"android":"levelo://app?vid=6d170c43-ed25-40d3-b88a-cefadd58002d","ios":"levelo://app?vid=6d170c43-ed25-40d3-b88a-cefadd58002d"},"vehicle_type_id":"4","last_reported":1737454181,"current_range_meters":25200,"station_id":"ce4bhqh2rcd13ifvqhmg","pricing_plan_id":"cebpf4jnsgd1na2vs0mg"},{"bike_id":"1bc4f972-1eb6-4a1e-8920-bbde83f7ed86","system_id":"levelo_inurba_marseille","lat":43.30914,"lon":5.36853,"is_reserved":false,"is_disabled":false,"rental_uris":{"android":"levelo://app?vid=1bc4f972-1eb6-4a1e-8920-bbde83f7ed86","ios":"levelo://app?vid=1bc4f972-1eb6-4a1e-8920-bbde83f7ed86"},"vehicle_type_id":"4","last_reported":1737454181,"current_range_meters":38800,"station_id":"ce4bgn92rcd13ifvqbvg","pricing_plan_id":"cebpf4jnsgd1na2vs0mg"},{"bike_id":"36b4c2d3-4a85-40ff-8782-58f9f15eac34","system_id":"levelo_inurba_marseille","lat":43.28614,"lon":5.35104,"is_reserved":false,"is_disabled":false,"rental_uris":{"android":"levelo://app?vid=36b4c2d3-4a85-40ff-8782-58f9f15eac34","ios":"levelo://app?vid=36b4c2d3-4a85-40ff-8782-58f9f15eac34"},"vehicle_type_id":"4","last_reported":1737454181,"current_range_meters":16400,"station_id":"ce4bhch2rcd13ifvqeug","pricing_plan_id":"cebpf4jnsgd1na2vs0mg"},{"bike_id":"39c5321a-3c58-496a-827f-06fa19935fa7","system_id":"levelo_inurba_marseille","lat":43.25821,"lon":5.39436,"is_reserved":false,"is_disabled":false,"rental_uris":{"android":"levelo://app?vid=39c5321a-3c58-496a-827f-06fa19935fa7","ios":"levelo://app?vid=39c5321a-3c58-496a-827f-06fa19935fa7"},"vehicle_type_id":"4","last_reported":1737454181,"current_range_meters":38000,"station_id":"ce4bhip2rcd13ifvqft0","pricing_plan_id":"cebpf4jnsgd1na2vs0mg"},{"bike_id":"77ff5724-d727-4cb9-9e22-72b1fa336373","system_id":"levelo_inurba_marseille","lat":43.23056,"lon":5.35495,"is_reserved":false,"is_disabled":false,"rental_uris":{"android":"levelo://app?vid=77ff5724-d727-4cb9-9e22-72b1fa336373","ios":"levelo://app?vid=77ff5724-d727-4cb9-9e22-72b1fa336373"},"vehicle_type_id":"4","last_reported":1737454181,"current_range_meters":9200,"station_id":"cpo3342slgdg3j2ifvpg","pricing_plan_id":"cebpf4jnsgd1na2vs0mg"},{"bike_id":"5c553694-e398-4681-9126-df5bb320f912","system_id":"levelo_inurba_marseille","lat":43.29577,"lon":5.36758,"is_reserved":false,"is_disabled":false,"rental_uris":{"android":"levelo://app?vid=5c553694-e398-4681-9126-df5bb320f912","ios":"levelo://app?vid=5c553694-e398-4681-9126-df5bb320f912"},"vehicle_type_id":"4","last_reported":1737454181,"current_range_meters":38000,"station_id":"ce4bgph2rcd13ifvqc2g","pricing_plan_id":"cebpf4jnsgd1na2vs0mg"},{"bike_id":"b9a085cb-bb5b-4cc1-84ad-d76baa6c959d","system_id":"levelo_inurba_marseille","lat":43.301629,"lon":5.380917,"is_reserved":false,"is_disabled":false,"rental_uris":{"android":"levelo://app?vid=b9a085cb-bb5b-4cc1-84ad-d76baa6c959d","ios":"levelo://app?vid=b9a085cb-bb5b-4cc1-84ad-d76baa6c959d"},"vehicle_type_id":"4","last_reported":1737454181,"current_range_meters":36400,"station_id":"ce4bgjp2rcd13ifvqbh0","pricing_plan_id":"cebpf4jnsgd1na2vs0mg"},{"bike_id":"b0977a80-6e3f-461c-8852-5c7538e5b942","system_id":"levelo_inurba_marseille","lat":43.30301,"lon":5.37731,"is_reserved":false,"is_disabled":false,"rental_uris":{"android":"levelo://app?vid=b0977a80-6e3f-461c-8852-5c7538e5b942","ios":"levelo://app?vid=b0977a80-6e3f-461c-8852-5c7538e5b942"},"vehicle_type_id":"4","last_reported":1737454181,"current_range_meters":39200,"station_id":"ce4bguh2rcd13ifvqcj0","pricing_plan_id":"cebpf4jnsgd1na2vs0mg"},{"bike_id":"b1e7c0e3-f276-47c4-8832-08cec6a6eeae","system_id":"levelo_inurba_marseille","lat":43.30537,"lon":5.36707,"is_reserved":false,"is_disabled":false,"rental_uris":{"android":"levelo://app?vid=b1e7c0e3-f276-47c4-8832-08cec6a6eeae","ios":"levelo://app?vid=b1e7c0e3-f276-47c4-8832-08cec6a6eeae"},"vehicle_type_id":"4","last_reported":1737454181,"current_range_meters":38800,"station_id":"ce4bgrp2rcd13ifvqc9g","pricing_plan_id":"cebpf4jnsgd1na2vs0mg"},{"bike_id":"69c5f992-b640-46d6-bd55-6c4390105b36","system_id":"levelo_inurba_marseille","lat":43.29834,"lon":5.36266,"is_reserved":false,"is_disabled":false,"rental_uris":{"android":"levelo://app?vid=69c5f992-b640-46d6-bd55-6c4390105b36","ios":"levelo://app?vid=69c5f992-b640-46d6-bd55-6c4390105b36"},"vehicle_type_id":"4","last_reported":1737454181,"current_range_meters":24400,"station_id":"ce4bgpp2rcd13ifvqc3g","pricing_plan_id":"cebpf4jnsgd1na2vs0mg"},{"bike_id":"64b66824-f064-4903-8358-094ea3275fbf","system_id":"levelo_inurba_marseille","lat":43.302836,"lon":5.377141,"is_reserved":false,"is_disabled":false,"rental_uris":{"android":"levelo://app?vid=64b66824-f064-4903-8358-094ea3275fbf","ios":"levelo://app?vid=64b66824-f064-4903-8358-094ea3275fbf"},"vehicle_type_id":"4","last_reported":1737454181,"current_range_meters":38800,"station_id":"ce4bguh2rcd13ifvqcj0","pricing_plan_id":"cebpf4jnsgd1na2vs0mg"},{"bike_id":"1b1acf8d-54ac-4efe-96ff-66c901f3aba1","system_id":"levelo_inurba_marseille","lat":43.30525,"lon":5.36542,"is_reserved":false,"is_disabled":false,"rental_uris":{"android":"levelo://app?vid=1b1acf8d-54ac-4efe-96ff-66c901f3aba1","ios":"levelo://app?vid=1b1acf8d-54ac-4efe-96ff-66c901f3aba1"},"vehicle_type_id":"4","last_reported":1737454181,"current_range_meters":38800,"station_id":"ce4bgs12rcd13ifvqcag","pricing_plan_id":"cebpf4jnsgd1na2vs0mg"},{"bike_id":"5ce3495b-4e9e-4f98-ad22-2c76c4387f36","system_id":"levelo_inurba_marseille","lat":43.32033,"lon":5.41557,"is_reserved":false,"is_disabled":false,"rental_uris":{"android":"levelo://app?vid=5ce3495b-4e9e-4f98-ad22-2c76c4387f36","ios":"levelo://app?vid=5ce3495b-4e9e-4f98-ad22-2c76c4387f36"},"vehicle_type_id":"4","last_reported":1737454181,"current_range_meters":38800,"station_id":"ce4bhq92rcd13ifvqhkg","pricing_plan_id":"cebpf4jnsgd1na2vs0mg"},{"bike_id":"d1c0ae1b-2227-4d30-b950-063d288cef29","system_id":"levelo_inurba_marseille","lat":43.24062,"lon":5.37764,"is_reserved":false,"is_disabled":false,"rental_uris":{"android":"levelo://app?vid=d1c0ae1b-2227-4d30-b950-063d288cef29","ios":"levelo://app?vid=d1c0ae1b-2227-4d30-b950-063d288cef29"},"vehicle_type_id":"4","last_reported":1737454181,"current_range_meters":39200,"station_id":"ce4bhnp2rcd13ifvqgvg","pricing_plan_id":"cebpf4jnsgd1na2vs0mg"},{"bike_id":"28cb4c2d-387a-41d3-ab8b-b351efbd2d00","system_id":"levelo_inurba_marseille","lat":43.29371,"lon":5.37831,"is_reserved":false,"is_disabled":false,"rental_uris":{"android":"levelo://app?vid=28cb4c2d-387a-41d3-ab8b-b351efbd2d00","ios":"levelo://app?vid=28cb4c2d-387a-41d3-ab8b-b351efbd2d00"},"vehicle_type_id":"4","last_reported":1737454181,"current_range_meters":29600,"station_id":"ce4bgjh2rcd13ifvqbf0","pricing_plan_id":"cebpf4jnsgd1na2vs0mg"},{"bike_id":"d9a21e48-72dd-414c-a6ba-3f528de3c67f","system_id":"levelo_inurba_marseille","lat":43.2749,"lon":5.42458,"is_reserved":false,"is_disabled":false,"rental_uris":{"android":"levelo://app?vid=d9a21e48-72dd-414c-a6ba-3f528de3c67f","ios":"levelo://app?vid=d9a21e48-72dd-414c-a6ba-3f528de3c67f"},"vehicle_type_id":"4","last_reported":1737454181,"current_range_meters":30000,"station_id":"ce4bhn92rcd13ifvqgrg","pricing_plan_id":"cebpf4jnsgd1na2vs0mg"},{"bike_id":"c1d8b947-dec0-4f70-8618-0fcf111b42ed","system_id":"levelo_inurba_marseille","lat":43.30152,"lon":5.38078,"is_reserved":false,"is_disabled":false,"rental_uris":{"android":"levelo://app?vid=c1d8b947-dec0-4f70-8618-0fcf111b42ed","ios":"levelo://app?vid=c1d8b947-dec0-4f70-8618-0fcf111b42ed"},"vehicle_type_id":"4","last_reported":1737454181,"current_range_meters":6000,"station_id":"ce4bgjp2rcd13ifvqbh0","pricing_plan_id":"cebpf4jnsgd1na2vs0mg"},{"bike_id":"2089036c-5db7-48b8-83e7-b7fbc7dff2e5","system_id":"levelo_inurba_marseille","lat":43.2668,"lon":5.38284,"is_reserved":false,"is_disabled":false,"rental_uris":{"android":"levelo://app?vid=2089036c-5db7-48b8-83e7-b7fbc7dff2e5","ios":"levelo://app?vid=2089036c-5db7-48b8-83e7-b7fbc7dff2e5"},"vehicle_type_id":"4","last_reported":1737454181,"current_range_meters":38800,"station_id":"ce4bhg92rcd13ifvqf90","pricing_plan_id":"cebpf4jnsgd1na2vs0mg"},{"bike_id":"80bcc3e7-77de-44a5-8965-f19acb6d7452","system_id":"levelo_inurba_marseille","lat":43.33026,"lon":5.39046,"is_reserved":false,"is_disabled":false,"rental_uris":{"android":"levelo://app?vid=80bcc3e7-77de-44a5-8965-f19acb6d7452","ios":"levelo://app?vid=80bcc3e7-77de-44a5-8965-f19acb6d7452"},"vehicle_type_id":"4","last_reported":1737454181,"current_range_meters":38800,"station_id":"ce4bhr92rcd13ifvqhrg","pricing_plan_id":"cebpf4jnsgd1na2vs0mg"},{"bike_id":"b8e67c99-6b85-48bc-9187-dec9ed848b5c","system_id":"levelo_inurba_marseille","lat":43.26198,"lon":5.37931,"is_reserved":false,"is_disabled":false,"rental_uris":{"android":"levelo://app?vid=b8e67c99-6b85-48bc-9187-dec9ed848b5c","ios":"levelo://app?vid=b8e67c99-6b85-48bc-9187-dec9ed848b5c"},"vehicle_type_id":"4","last_reported":1737454181,"current_range_meters":26000,"station_id":"ce4bhjp2rcd13ifvqg90","pricing_plan_id":"cebpf4jnsgd1na2vs0mg"},{"bike_id":"9ca4de9a-cfca-4937-bf4d-f360d7c8f7f5","system_id":"levelo_inurba_marseille","lat":43.3053,"lon":5.36544,"is_reserved":false,"is_disabled":false,"rental_uris":{"android":"levelo://app?vid=9ca4de9a-cfca-4937-bf4d-f360d7c8f7f5","ios":"levelo://app?vid=9ca4de9a-cfca-4937-bf4d-f360d7c8f7f5"},"vehicle_type_id":"4","last_reported":1737454181,"current_range_meters":37600,"station_id":"ce4bgs12rcd13ifvqcag","pricing_plan_id":"cebpf4jnsgd1na2vs0mg"},{"bike_id":"a8b2bce0-f1dd-4a71-a9a2-0df7de336bb7","system_id":"levelo_inurba_marseille","lat":43.29193,"lon":5.39306,"is_reserved":false,"is_disabled":false,"rental_uris":{"android":"levelo://app?vid=a8b2bce0-f1dd-4a71-a9a2-0df7de336bb7","ios":"levelo://app?vid=a8b2bce0-f1dd-4a71-a9a2-0df7de336bb7"},"vehicle_type_id":"4","last_reported":1737454181,"current_range_meters":22000,"station_id":"ce4bh192rcd13ifvqdd0","pricing_plan_id":"cebpf4jnsgd1na2vs0mg"},{"bike_id":"ca2e49eb-5e04-4abb-8880-8079238db7aa","system_id":"levelo_inurba_marseille","lat":43.29977,"lon":5.37166,"is_reserved":false,"is_disabled":false,"rental_uris":{"android":"levelo://app?vid=ca2e49eb-5e04-4abb-8880-8079238db7aa","ios":"levelo://app?vid=ca2e49eb-5e04-4abb-8880-8079238db7aa"},"vehicle_type_id":"4","last_reported":1737454181,"current_range_meters":27600,"station_id":"ce4bgr92rcd13ifvqc7g","pricing_plan_id":"cebpf4jnsgd1na2vs0mg"},{"bike_id":"72907924-f2de-43d9-88d7-314cf1d8cd1e","system_id":"levelo_inurba_marseille","lat":43.30309,"lon":5.369,"is_reserved":false,"is_disabled":false,"rental_uris":{"android":"levelo://app?vid=72907924-f2de-43d9-88d7-314cf1d8cd1e","ios":"levelo://app?vid=72907924-f2de-43d9-88d7-314cf1d8cd1e"},"vehicle_type_id":"4","last_reported":1737454181,"current_range_meters":16800,"station_id":"ce4bgqh2rcd13ifvqc5g","pricing_plan_id":"cebpf4jnsgd1na2vs0mg"},{"bike_id":"ee9f75ff-30d6-4da3-8595-6156f69d6dcb","system_id":"levelo_inurba_marseille","lat":43.29274,"lon":5.38442,"is_reserved":false,"is_disabled":false,"rental_uris":{"android":"levelo://app?vid=ee9f75ff-30d6-4da3-8595-6156f69d6dcb","ios":"levelo://app?vid=ee9f75ff-30d6-4da3-8595-6156f69d6dcb"},"vehicle_type_id":"4","last_reported":1737454181,"current_range_meters":15200,"station_id":"ce4bh692rcd13ifvqea0","pricing_plan_id":"cebpf4jnsgd1na2vs0mg"},{"bike_id":"2b1e95cc-4743-4250-8e1f-97ad00416d93","system_id":"levelo_inurba_marseille","lat":43.29262,"lon":5.36853,"is_reserved":false,"is_disabled":false,"rental_uris":{"android":"levelo://app?vid=2b1e95cc-4743-4250-8e1f-97ad00416d93","ios":"levelo://app?vid=2b1e95cc-4743-4250-8e1f-97ad00416d93"},"vehicle_type_id":"4","last_reported":1737454181,"current_range_meters":14400,"station_id":"ce4bhbp2rcd13ifvqesg","pricing_plan_id":"cebpf4jnsgd1na2vs0mg"},{"bike_id":"ca5ebe5c-d696-4d10-94b0-99fa9093db2a","system_id":"levelo_inurba_marseille","lat":43.32488,"lon":5.36568,"is_reserved":false,"is_disabled":false,"rental_uris":{"android":"levelo://app?vid=ca5ebe5c-d696-4d10-94b0-99fa9093db2a","ios":"levelo://app?vid=ca5ebe5c-d696-4d10-94b0-99fa9093db2a"},"vehicle_type_id":"4","last_reported":1737454181,"current_range_meters":26000,"station_id":"ce4bhs12rcd13ifvqhvg","pricing_plan_id":"cebpf4jnsgd1na2vs0mg"},{"bike_id":"c90ffd17-4082-43c2-8c46-021b3cdedd99","system_id":"levelo_inurba_marseille","lat":43.26066,"lon":5.39382,"is_reserved":false,"is_disabled":false,"rental_uris":{"android":"levelo://app?vid=c90ffd17-4082-43c2-8c46-021b3cdedd99","ios":"levelo://app?vid=c90ffd17-4082-43c2-8c46-021b3cdedd99"},"vehicle_type_id":"4","last_reported":1737454181,"current_range_meters":38400,"station_id":"ce4bhh92rcd13ifvqfj0","pricing_plan_id":"cebpf4jnsgd1na2vs0mg"},{"bike_id":"751968b9-3f67-45de-aadc-83a067946788","system_id":"levelo_inurba_marseille","lat":43.33581,"lon":5.41025,"is_reserved":false,"is_disabled":false,"rental_uris":{"android":"levelo://app?vid=751968b9-3f67-45de-aadc-83a067946788","ios":"levelo://app?vid=751968b9-3f67-45de-aadc-83a067946788"},"vehicle_type_id":"4","last_reported":1737454181,"current_range_meters":31200,"station_id":"ce4bhqh2rcd13ifvqhmg","pricing_plan_id":"cebpf4jnsgd1na2vs0mg"},{"bike_id":"6894c688-d4dd-4ff9-b160-92ac50bf8b29","system_id":"levelo_inurba_marseille","lat":43.29643,"lon":5.37167,"is_reserved":false,"is_disabled":false,"rental_uris":{"android":"levelo://app?vid=6894c688-d4dd-4ff9-b160-92ac50bf8b29","ios":"levelo://app?vid=6894c688-d4dd-4ff9-b160-92ac50bf8b29"},"vehicle_type_id":"4","last_reported":1737454181,"current_range_meters":21600,"station_id":"ce4bgnh2rcd13ifvqc0g","pricing_plan_id":"cebpf4jnsgd1na2vs0mg"},{"bike_id":"db9233a0-541f-470e-96f3-96db6f81cf0f","system_id":"levelo_inurba_marseille","lat":43.27819,"lon":5.40737,"is_reserved":false,"is_disabled":false,"rental_uris":{"android":"levelo://app?vid=db9233a0-541f-470e-96f3-96db6f81cf0f","ios":"levelo://app?vid=db9233a0-541f-470e-96f3-96db6f81cf0f"},"vehicle_type_id":"4","last_reported":1737454181,"current_range_meters":22400,"station_id":"ce4bhnh2rcd13ifvqgtg","pricing_plan_id":"cebpf4jnsgd1na2vs0mg"},{"bike_id":"9581d823-00a2-453e-b405-8c14c6cd88df","system_id":"levelo_inurba_marseille","lat":43.28103,"lon":5.37838,"is_reserved":false,"is_disabled":false,"rental_uris":{"android":"levelo://app?vid=9581d823-00a2-453e-b405-8c14c6cd88df","ios":"levelo://app?vid=9581d823-00a2-453e-b405-8c14c6cd88df"},"vehicle_type_id":"4","last_reported":1737454181,"current_range_meters":17600,"station_id":"ce4bha12rcd13ifvqee0","pricing_plan_id":"cebpf4jnsgd1na2vs0mg"},{"bike_id":"1c55422b-da70-439b-bce1-830182dc761c","system_id":"levelo_inurba_marseille","lat":43.2894,"lon":5.36631,"is_reserved":false,"is_disabled":false,"rental_uris":{"android":"levelo://app?vid=1c55422b-da70-439b-bce1-830182dc761c","ios":"levelo://app?vid=1c55422b-da70-439b-bce1-830182dc761c"},"vehicle_type_id":"4","last_reported":1737454181,"current_range_meters":32000,"station_id":"ce4bhap2rcd13ifvqek0","pricing_plan_id":"cebpf4jnsgd1na2vs0mg"},{"bike_id":"64932641-bbab-4533-af1e-ae9aade25efc","system_id":"levelo_inurba_marseille","lat":43.33719,"lon":5.39188,"is_reserved":false,"is_disabled":false,"rental_uris":{"android":"levelo://app?vid=64932641-bbab-4533-af1e-ae9aade25efc","ios":"levelo://app?vid=64932641-bbab-4533-af1e-ae9aade25efc"},"vehicle_type_id":"4","last_reported":1737454181,"current_range_meters":24000,"station_id":"ce4bhr92rcd13ifvqhsg","pricing_plan_id":"cebpf4jnsgd1na2vs0mg"},{"bike_id":"80f8c7e1-7147-432a-aa78-c963441bc66d","system_id":"levelo_inurba_marseille","lat":43.29773,"lon":5.37099,"is_reserved":false,"is_disabled":false,"rental_uris":{"android":"levelo://app?vid=80f8c7e1-7147-432a-aa78-c963441bc66d","ios":"levelo://app?vid=80f8c7e1-7147-432a-aa78-c963441bc66d"},"vehicle_type_id":"4","last_reported":1737454181,"current_range_meters":39200,"station_id":"ce4bgop2rcd13ifvqc1g","pricing_plan_id":"cebpf4jnsgd1na2vs0mg"},{"bike_id":"8e37d5a1-5a26-42a5-8fbe-c99733a808dd","system_id":"levelo_inurba_marseille","lat":43.26055,"lon":5.39393,"is_reserved":false,"is_disabled":false,"rental_uris":{"android":"levelo://app?vid=8e37d5a1-5a26-42a5-8fbe-c99733a808dd","ios":"levelo://app?vid=8e37d5a1-5a26-42a5-8fbe-c99733a808dd"},"vehicle_type_id":"4","last_reported":1737454181,"current_range_meters":38800,"station_id":"ce4bhh92rcd13ifvqfj0","pricing_plan_id":"cebpf4jnsgd1na2vs0mg"},{"bike_id":"24358710-b706-4f56-ac4f-fcfcba51d2d9","system_id":"levelo_inurba_marseille","lat":43.29003,"lon":5.35615,"is_reserved":false,"is_disabled":false,"rental_uris":{"android":"levelo://app?vid=24358710-b706-4f56-ac4f-fcfcba51d2d9","ios":"levelo://app?vid=24358710-b706-4f56-ac4f-fcfcba51d2d9"},"vehicle_type_id":"4","last_reported":1737454181,"current_range_meters":38000,"station_id":"ce4bhb92rcd13ifvqen0","pricing_plan_id":"cebpf4jnsgd1na2vs0mg"},{"bike_id":"22c3b3f3-6835-405e-9c28-a86f29f70685","system_id":"levelo_inurba_marseille","lat":43.25007,"lon":5.38918,"is_reserved":false,"is_disabled":false,"rental_uris":{"android":"levelo://app?vid=22c3b3f3-6835-405e-9c28-a86f29f70685","ios":"levelo://app?vid=22c3b3f3-6835-405e-9c28-a86f29f70685"},"vehicle_type_id":"4","last_reported":1737454181,"current_range_meters":22800,"station_id":"ce4bhgp2rcd13ifvqfd0","pricing_plan_id":"cebpf4jnsgd1na2vs0mg"},{"bike_id":"0d9ea08f-aadb-4135-b4c8-0d91cd810588","system_id":"levelo_inurba_marseille","lat":43.27502,"lon":5.42462,"is_reserved":false,"is_disabled":false,"rental_uris":{"android":"levelo://app?vid=0d9ea08f-aadb-4135-b4c8-0d91cd810588","ios":"levelo://app?vid=0d9ea08f-aadb-4135-b4c8-0d91cd810588"},"vehicle_type_id":"4","last_reported":1737454181,"current_range_meters":24000,"station_id":"ce4bhn92rcd13ifvqgrg","pricing_plan_id":"cebpf4jnsgd1na2vs0mg"},{"bike_id":"64dd059b-ecf7-48ee-8d07-a03165f684e7","system_id":"levelo_inurba_marseille","lat":43.30023,"lon":5.37436,"is_reserved":false,"is_disabled":false,"rental_uris":{"android":"levelo://app?vid=64dd059b-ecf7-48ee-8d07-a03165f684e7","ios":"levelo://app?vid=64dd059b-ecf7-48ee-8d07-a03165f684e7"},"vehicle_type_id":"4","last_reported":1737454181,"current_range_meters":39200,"station_id":"ce4bgjh2rcd13ifvqbg0","pricing_plan_id":"cebpf4jnsgd1na2vs0mg"},{"bike_id":"9504b7e0-2f20-49ea-814e-e380f0d8ec79","system_id":"levelo_inurba_marseille","lat":43.32099,"lon":5.36809,"is_reserved":false,"is_disabled":false,"rental_uris":{"android":"levelo://app?vid=9504b7e0-2f20-49ea-814e-e380f0d8ec79","ios":"levelo://app?vid=9504b7e0-2f20-49ea-814e-e380f0d8ec79"},"vehicle_type_id":"4","last_reported":1737454181,"current_range_meters":38400,"station_id":"ce4bhrh2rcd13ifvqhug","pricing_plan_id":"cebpf4jnsgd1na2vs0mg"},{"bike_id":"6360fbac-968c-4504-9149-b94ed7bc1ff6","system_id":"levelo_inurba_marseille","lat":43.26683,"lon":5.3828,"is_reserved":false,"is_disabled":false,"rental_uris":{"android":"levelo://app?vid=6360fbac-968c-4504-9149-b94ed7bc1ff6","ios":"levelo://app?vid=6360fbac-968c-4504-9149-b94ed7bc1ff6"},"vehicle_type_id":"4","last_reported":1737454181,"current_range_meters":34000,"station_id":"ce4bhg92rcd13ifvqf90","pricing_plan_id":"cebpf4jnsgd1na2vs0mg"},{"bike_id":"97c52603-515a-40d4-9ab1-1af335cf2fbd","system_id":"levelo_inurba_marseille","lat":43.30902,"lon":5.36861,"is_reserved":false,"is_disabled":false,"rental_uris":{"android":"levelo://app?vid=97c52603-515a-40d4-9ab1-1af335cf2fbd","ios":"levelo://app?vid=97c52603-515a-40d4-9ab1-1af335cf2fbd"},"vehicle_type_id":"4","last_reported":1737454181,"current_range_meters":33600,"station_id":"ce4bgn92rcd13ifvqbvg","pricing_plan_id":"cebpf4jnsgd1na2vs0mg"},{"bike_id":"2e391245-990a-489f-b7cc-387a1c7f1479","system_id":"levelo_inurba_marseille","lat":43.3055,"lon":5.36687,"is_reserved":false,"is_disabled":false,"rental_uris":{"android":"levelo://app?vid=2e391245-990a-489f-b7cc-387a1c7f1479","ios":"levelo://app?vid=2e391245-990a-489f-b7cc-387a1c7f1479"},"vehicle_type_id":"4","last_reported":1737454181,"current_range_meters":26800,"station_id":"ce4bgrp2rcd13ifvqc9g","pricing_plan_id":"cebpf4jnsgd1na2vs0mg"},{"bike_id":"028aceea-6958-4c15-bce2-3cece9d00f25","system_id":"levelo_inurba_marseille","lat":43.29312,"lon":5.37193,"is_reserved":false,"is_disabled":false,"rental_uris":{"android":"levelo://app?vid=028aceea-6958-4c15-bce2-3cece9d00f25","ios":"levelo://app?vid=028aceea-6958-4c15-bce2-3cece9d00f25"},"vehicle_type_id":"4","last_reported":1737454181,"current_range_meters":9600,"station_id":"ce4bgh92rcd13ifvqb40","pricing_plan_id":"cebpf4jnsgd1na2vs0mg"},{"bike_id":"da3a7eb9-5fa6-49b3-9e5b-6452969eedf1","system_id":"levelo_inurba_marseille","lat":43.24387,"lon":5.37062,"is_reserved":false,"is_disabled":false,"rental_uris":{"android":"levelo://app?vid=da3a7eb9-5fa6-49b3-9e5b-6452969eedf1","ios":"levelo://app?vid=da3a7eb9-5fa6-49b3-9e5b-6452969eedf1"},"vehicle_type_id":"4","last_reported":1737454181,"current_range_meters":20400,"station_id":"ce4bhhh2rcd13ifvqfk0","pricing_plan_id":"cebpf4jnsgd1na2vs0mg"},{"bike_id":"13eb1080-0165-43df-ba68-3da74a387126","system_id":"levelo_inurba_marseille","lat":43.31214,"lon":5.36882,"is_reserved":false,"is_disabled":false,"rental_uris":{"android":"levelo://app?vid=13eb1080-0165-43df-ba68-3da74a387126","ios":"levelo://app?vid=13eb1080-0165-43df-ba68-3da74a387126"},"vehicle_type_id":"4","last_reported":1737454181,"current_range_meters":39200,"station_id":"ce4bgl92rcd13ifvqbq0","pricing_plan_id":"cebpf4jnsgd1na2vs0mg"},{"bike_id":"06f9398d-e006-4557-bd03-71cc21447599","system_id":"levelo_inurba_marseille","lat":43.29286,"lon":5.38443,"is_reserved":false,"is_disabled":false,"rental_uris":{"android":"levelo://app?vid=06f9398d-e006-4557-bd03-71cc21447599","ios":"levelo://app?vid=06f9398d-e006-4557-bd03-71cc21447599"},"vehicle_type_id":"4","last_reported":1737454181,"current_range_meters":30800,"station_id":"ce4bh692rcd13ifvqea0","pricing_plan_id":"cebpf4jnsgd1na2vs0mg"},{"bike_id":"026c5cbe-081d-480e-8260-80cc91166677","system_id":"levelo_inurba_marseille","lat":43.28712,"lon":5.40007,"is_reserved":false,"is_disabled":true,"rental_uris":{"android":"levelo://app?vid=026c5cbe-081d-480e-8260-80cc91166677","ios":"levelo://app?vid=026c5cbe-081d-480e-8260-80cc91166677"},"vehicle_type_id":"4","last_reported":1737454181,"current_range_meters":0,"station_id":"ce4bho92rcd13ifvqh3g","pricing_plan_id":"cebpf4jnsgd1na2vs0mg"},{"bike_id":"55e9e33f-65d7-4114-a3b6-94916cdab4b2","system_id":"levelo_inurba_marseille","lat":43.2649,"lon":5.39558,"is_reserved":false,"is_disabled":false,"rental_uris":{"android":"levelo://app?vid=55e9e33f-65d7-4114-a3b6-94916cdab4b2","ios":"levelo://app?vid=55e9e33f-65d7-4114-a3b6-94916cdab4b2"},"vehicle_type_id":"4","last_reported":1737454181,"current_range_meters":17200,"station_id":"ce4bhi12rcd13ifvqfq0","pricing_plan_id":"cebpf4jnsgd1na2vs0mg"},{"bike_id":"7d27045b-8156-426b-a009-337a61172034","system_id":"levelo_inurba_marseille","lat":43.26801,"lon":5.39421,"is_reserved":false,"is_disabled":false,"rental_uris":{"android":"levelo://app?vid=7d27045b-8156-426b-a009-337a61172034","ios":"levelo://app?vid=7d27045b-8156-426b-a009-337a61172034"},"vehicle_type_id":"4","last_reported":1737454181,"current_range_meters":38800,"station_id":"ce4bhh12rcd13ifvqfg0","pricing_plan_id":"cebpf4jnsgd1na2vs0mg"},{"bike_id":"4870b6d1-d2b5-4d7f-857f-64659f3ada17","system_id":"levelo_inurba_marseille","lat":43.24167,"lon":5.36406,"is_reserved":false,"is_disabled":false,"rental_uris":{"android":"levelo://app?vid=4870b6d1-d2b5-4d7f-857f-64659f3ada17","ios":"levelo://app?vid=4870b6d1-d2b5-4d7f-857f-64659f3ada17"},"vehicle_type_id":"4","last_reported":1737454181,"current_range_meters":17600,"station_id":"cpo36qri1sfpv3e86is0","pricing_plan_id":"cebpf4jnsgd1na2vs0mg"},{"bike_id":"7aa9710a-b7e3-4890-81ca-654444a2204c","system_id":"levelo_inurba_marseille","lat":43.25923,"lon":5.40894,"is_reserved":false,"is_disabled":false,"rental_uris":{"android":"levelo://app?vid=7aa9710a-b7e3-4890-81ca-654444a2204c","ios":"levelo://app?vid=7aa9710a-b7e3-4890-81ca-654444a2204c"},"vehicle_type_id":"4","last_reported":1737454181,"current_range_meters":17200,"station_id":"ce4bhm92rcd13ifvqglg","pricing_plan_id":"cebpf4jnsgd1na2vs0mg"},{"bike_id":"25cdbb00-74ea-413e-ab8b-94524a6386c7","system_id":"levelo_inurba_marseille","lat":43.28411,"lon":5.37518,"is_reserved":false,"is_disabled":false,"rental_uris":{"android":"levelo://app?vid=25cdbb00-74ea-413e-ab8b-94524a6386c7","ios":"levelo://app?vid=25cdbb00-74ea-413e-ab8b-94524a6386c7"},"vehicle_type_id":"4","last_reported":1737454181,"current_range_meters":6000,"station_id":"ce4bh412rcd13ifvqds0","pricing_plan_id":"cebpf4jnsgd1na2vs0mg"},{"bike_id":"14bf62af-c950-435b-82dd-0bca67231add","system_id":"levelo_inurba_marseille","lat":43.25718,"lon":5.41118,"is_reserved":false,"is_disabled":false,"rental_uris":{"android":"levelo://app?vid=14bf62af-c950-435b-82dd-0bca67231add","ios":"levelo://app?vid=14bf62af-c950-435b-82dd-0bca67231add"},"vehicle_type_id":"4","last_reported":1737454181,"current_range_meters":27600,"station_id":"ce4bhkp2rcd13ifvqgd0","pricing_plan_id":"cebpf4jnsgd1na2vs0mg"},{"bike_id":"bb2aa27c-d314-433f-a134-98756fdc47bc","system_id":"levelo_inurba_marseille","lat":43.31333,"lon":5.36715,"is_reserved":false,"is_disabled":false,"rental_uris":{"android":"levelo://app?vid=bb2aa27c-d314-433f-a134-98756fdc47bc","ios":"levelo://app?vid=bb2aa27c-d314-433f-a134-98756fdc47bc"},"vehicle_type_id":"4","last_reported":1737454181,"current_range_meters":30800,"station_id":"ce4bgr92rcd13ifvqc6g","pricing_plan_id":"cebpf4jnsgd1na2vs0mg"},{"bike_id":"aaf3beee-7178-4027-9df8-0d7f0453f726","system_id":"levelo_inurba_marseille","lat":43.29827,"lon":5.36282,"is_reserved":false,"is_disabled":false,"rental_uris":{"android":"levelo://app?vid=aaf3beee-7178-4027-9df8-0d7f0453f726","ios":"levelo://app?vid=aaf3beee-7178-4027-9df8-0d7f0453f726"},"vehicle_type_id":"4","last_reported":1737454181,"current_range_meters":30000,"station_id":"ce4bgpp2rcd13ifvqc3g","pricing_plan_id":"cebpf4jnsgd1na2vs0mg"},{"bike_id":"d326e0fd-911d-4dc4-be3f-16c0b7104154","system_id":"levelo_inurba_marseille","lat":43.30947,"lon":5.39032,"is_reserved":false,"is_disabled":false,"rental_uris":{"android":"levelo://app?vid=d326e0fd-911d-4dc4-be3f-16c0b7104154","ios":"levelo://app?vid=d326e0fd-911d-4dc4-be3f-16c0b7104154"},"vehicle_type_id":"4","last_reported":1737454181,"current_range_meters":26800,"station_id":"ce4bgup2rcd13ifvqco0","pricing_plan_id":"cebpf4jnsgd1na2vs0mg"},{"bike_id":"0a43ba50-a354-4819-83c3-9d65eecd307e","system_id":"levelo_inurba_marseille","lat":43.30146,"lon":5.38086,"is_reserved":false,"is_disabled":false,"rental_uris":{"android":"levelo://app?vid=0a43ba50-a354-4819-83c3-9d65eecd307e","ios":"levelo://app?vid=0a43ba50-a354-4819-83c3-9d65eecd307e"},"vehicle_type_id":"4","last_reported":1737454181,"current_range_meters":19200,"station_id":"ce4bgjp2rcd13ifvqbh0","pricing_plan_id":"cebpf4jnsgd1na2vs0mg"},{"bike_id":"7c4b9d70-e01e-49f4-bcc2-da404f462a85","system_id":"levelo_inurba_marseille","lat":43.29306,"lon":5.37154,"is_reserved":false,"is_disabled":false,"rental_uris":{"android":"levelo://app?vid=7c4b9d70-e01e-49f4-bcc2-da404f462a85","ios":"levelo://app?vid=7c4b9d70-e01e-49f4-bcc2-da404f462a85"},"vehicle_type_id":"4","last_reported":1737454181,"current_range_meters":39200,"station_id":"ce4bgh92rcd13ifvqb40","pricing_plan_id":"cebpf4jnsgd1na2vs0mg"},{"bike_id":"8c071b1b-846e-4de8-b971-0bda4c6b8fdc","system_id":"levelo_inurba_marseille","lat":43.33599,"lon":5.41033,"is_reserved":false,"is_disabled":false,"rental_uris":{"android":"levelo://app?vid=8c071b1b-846e-4de8-b971-0bda4c6b8fdc","ios":"levelo://app?vid=8c071b1b-846e-4de8-b971-0bda4c6b8fdc"},"vehicle_type_id":"4","last_reported":1737454181,"current_range_meters":14400,"station_id":"ce4bhqh2rcd13ifvqhmg","pricing_plan_id":"cebpf4jnsgd1na2vs0mg"},{"bike_id":"1a3b29b3-17e8-4775-8d86-74e3b8c314ae","system_id":"levelo_inurba_marseille","lat":43.30521,"lon":5.36729,"is_reserved":false,"is_disabled":false,"rental_uris":{"android":"levelo://app?vid=1a3b29b3-17e8-4775-8d86-74e3b8c314ae","ios":"levelo://app?vid=1a3b29b3-17e8-4775-8d86-74e3b8c314ae"},"vehicle_type_id":"4","last_reported":1737454181,"current_range_meters":38800,"station_id":"ce4bgrp2rcd13ifvqc9g","pricing_plan_id":"cebpf4jnsgd1na2vs0mg"},{"bike_id":"ca74e526-580c-493e-b181-17fe0bc8eae8","system_id":"levelo_inurba_marseille","lat":43.25933,"lon":5.40907,"is_reserved":false,"is_disabled":false,"rental_uris":{"android":"levelo://app?vid=ca74e526-580c-493e-b181-17fe0bc8eae8","ios":"levelo://app?vid=ca74e526-580c-493e-b181-17fe0bc8eae8"},"vehicle_type_id":"4","last_reported":1737454181,"current_range_meters":38800,"station_id":"ce4bhm92rcd13ifvqglg","pricing_plan_id":"cebpf4jnsgd1na2vs0mg"},{"bike_id":"ce348ecb-e6da-4256-ae38-a3cca0ccf065","system_id":"levelo_inurba_marseille","lat":43.3055,"lon":5.36701,"is_reserved":false,"is_disabled":false,"rental_uris":{"android":"levelo://app?vid=ce348ecb-e6da-4256-ae38-a3cca0ccf065","ios":"levelo://app?vid=ce348ecb-e6da-4256-ae38-a3cca0ccf065"},"vehicle_type_id":"4","last_reported":1737454181,"current_range_meters":39200,"station_id":"ce4bgrp2rcd13ifvqc9g","pricing_plan_id":"cebpf4jnsgd1na2vs0mg"},{"bike_id":"9673a1b4-4f84-45a2-b364-9126d096b5f1","system_id":"levelo_inurba_marseille","lat":43.29033,"lon":5.3997,"is_reserved":false,"is_disabled":false,"rental_uris":{"android":"levelo://app?vid=9673a1b4-4f84-45a2-b364-9126d096b5f1","ios":"levelo://app?vid=9673a1b4-4f84-45a2-b364-9126d096b5f1"},"vehicle_type_id":"4","last_reported":1737454181,"current_range_meters":39200,"station_id":"ce4bh392rcd13ifvqdm0","pricing_plan_id":"cebpf4jnsgd1na2vs0mg"},{"bike_id":"ac0f8531-2ec8-4d8c-84ce-f17851f08e6a","system_id":"levelo_inurba_marseille","lat":43.30567,"lon":5.36522,"is_reserved":false,"is_disabled":false,"rental_uris":{"android":"levelo://app?vid=ac0f8531-2ec8-4d8c-84ce-f17851f08e6a","ios":"levelo://app?vid=ac0f8531-2ec8-4d8c-84ce-f17851f08e6a"},"vehicle_type_id":"4","last_reported":1737454181,"current_range_meters":36400,"station_id":"ce4bgs12rcd13ifvqcag","pricing_plan_id":"cebpf4jnsgd1na2vs0mg"},{"bike_id":"54f17643-86bb-494f-8b67-4a9bf8a4e466","system_id":"levelo_inurba_marseille","lat":43.26686,"lon":5.38271,"is_reserved":false,"is_disabled":false,"rental_uris":{"android":"levelo://app?vid=54f17643-86bb-494f-8b67-4a9bf8a4e466","ios":"levelo://app?vid=54f17643-86bb-494f-8b67-4a9bf8a4e466"},"vehicle_type_id":"4","last_reported":1737454181,"current_range_meters":27600,"station_id":"ce4bhg92rcd13ifvqf90","pricing_plan_id":"cebpf4jnsgd1na2vs0mg"},{"bike_id":"f5b4c7d1-4223-40f8-9a73-988b3580d305","system_id":"levelo_inurba_marseille","lat":43.30966,"lon":5.39042,"is_reserved":false,"is_disabled":false,"rental_uris":{"android":"levelo://app?vid=f5b4c7d1-4223-40f8-9a73-988b3580d305","ios":"levelo://app?vid=f5b4c7d1-4223-40f8-9a73-988b3580d305"},"vehicle_type_id":"4","last_reported":1737454181,"current_range_meters":7200,"station_id":"ce4bgup2rcd13ifvqco0","pricing_plan_id":"cebpf4jnsgd1na2vs0mg"},{"bike_id":"40e5a64d-65b5-4754-b8f6-3564af0d8c58","system_id":"levelo_inurba_marseille","lat":43.23149,"lon":5.43722,"is_reserved":false,"is_disabled":false,"rental_uris":{"android":"levelo://app?vid=40e5a64d-65b5-4754-b8f6-3564af0d8c58","ios":"levelo://app?vid=40e5a64d-65b5-4754-b8f6-3564af0d8c58"},"vehicle_type_id":"4","last_reported":1737454181,"current_range_meters":6400,"station_id":"ce4bhmp2rcd13ifvqgog","pricing_plan_id":"cebpf4jnsgd1na2vs0mg"},{"bike_id":"e9eab48a-67af-48b5-a8a9-3129acac378b","system_id":"levelo_inurba_marseille","lat":43.30144,"lon":5.374,"is_reserved":false,"is_disabled":true,"rental_uris":{"android":"levelo://app?vid=e9eab48a-67af-48b5-a8a9-3129acac378b","ios":"levelo://app?vid=e9eab48a-67af-48b5-a8a9-3129acac378b"},"vehicle_type_id":"4","last_reported":1737454181,"current_range_meters":0,"station_id":"ce4bgs92rcd13ifvqcc0","pricing_plan_id":"cebpf4jnsgd1na2vs0mg"},{"bike_id":"2eeb9544-f50a-4f44-8eaa-63b01b7ac06e","system_id":"levelo_inurba_marseille","lat":43.27203,"lon":5.39182,"is_reserved":false,"is_disabled":false,"rental_uris":{"android":"levelo://app?vid=2eeb9544-f50a-4f44-8eaa-63b01b7ac06e","ios":"levelo://app?vid=2eeb9544-f50a-4f44-8eaa-63b01b7ac06e"},"vehicle_type_id":"4","last_reported":1737454181,"current_range_meters":38800,"station_id":"ce4bhhp2rcd13ifvqfm0","pricing_plan_id":"cebpf4jnsgd1na2vs0mg"},{"bike_id":"23379a95-72b4-449c-abbd-5871cdaaa4bd","system_id":"levelo_inurba_marseille","lat":43.3053,"lon":5.36718,"is_reserved":false,"is_disabled":false,"rental_uris":{"android":"levelo://app?vid=23379a95-72b4-449c-abbd-5871cdaaa4bd","ios":"levelo://app?vid=23379a95-72b4-449c-abbd-5871cdaaa4bd"},"vehicle_type_id":"4","last_reported":1737454181,"current_range_meters":37600,"station_id":"ce4bgrp2rcd13ifvqc9g","pricing_plan_id":"cebpf4jnsgd1na2vs0mg"},{"bike_id":"43e995f9-55d3-437f-9d0a-c9ae5529f39e","system_id":"levelo_inurba_marseille","lat":43.2721,"lon":5.39187,"is_reserved":false,"is_disabled":false,"rental_uris":{"android":"levelo://app?vid=43e995f9-55d3-437f-9d0a-c9ae5529f39e","ios":"levelo://app?vid=43e995f9-55d3-437f-9d0a-c9ae5529f39e"},"vehicle_type_id":"4","last_reported":1737454181,"current_range_meters":38000,"station_id":"ce4bhhp2rcd13ifvqfm0","pricing_plan_id":"cebpf4jnsgd1na2vs0mg"},{"bike_id":"009e4e21-eaff-4df3-a6cd-96d6c5c81fda","system_id":"levelo_inurba_marseille","lat":43.30553,"lon":5.36526,"is_reserved":false,"is_disabled":false,"rental_uris":{"android":"levelo://app?vid=009e4e21-eaff-4df3-a6cd-96d6c5c81fda","ios":"levelo://app?vid=009e4e21-eaff-4df3-a6cd-96d6c5c81fda"},"vehicle_type_id":"4","last_reported":1737454181,"current_range_meters":24000,"station_id":"ce4bgs12rcd13ifvqcag","pricing_plan_id":"cebpf4jnsgd1na2vs0mg"},{"bike_id":"9ea35a92-1564-493c-991c-f92a347b776b","system_id":"levelo_inurba_marseille","lat":43.30549,"lon":5.36556,"is_reserved":false,"is_disabled":false,"rental_uris":{"android":"levelo://app?vid=9ea35a92-1564-493c-991c-f92a347b776b","ios":"levelo://app?vid=9ea35a92-1564-493c-991c-f92a347b776b"},"vehicle_type_id":"4","last_reported":1737454181,"current_range_meters":25200,"station_id":"ce4bgs12rcd13ifvqcag","pricing_plan_id":"cebpf4jnsgd1na2vs0mg"},{"bike_id":"b98d1ee6-d9b6-4436-8256-e6796817c6db","system_id":"levelo_inurba_marseille","lat":43.27197,"lon":5.39194,"is_reserved":false,"is_disabled":false,"rental_uris":{"android":"levelo://app?vid=b98d1ee6-d9b6-4436-8256-e6796817c6db","ios":"levelo://app?vid=b98d1ee6-d9b6-4436-8256-e6796817c6db"},"vehicle_type_id":"4","last_reported":1737454181,"current_range_meters":20000,"station_id":"ce4bhhp2rcd13ifvqfm0","pricing_plan_id":"cebpf4jnsgd1na2vs0mg"},{"bike_id":"5957b55c-bbf3-4d79-a9fa-182e34bda710","system_id":"levelo_inurba_marseille","lat":43.26684,"lon":5.40282,"is_reserved":false,"is_disabled":false,"rental_uris":{"android":"levelo://app?vid=5957b55c-bbf3-4d79-a9fa-182e34bda710","ios":"levelo://app?vid=5957b55c-bbf3-4d79-a9fa-182e34bda710"},"vehicle_type_id":"4","last_reported":1737454181,"current_range_meters":7200,"station_id":"","pricing_plan_id":"cebpf4jnsgd1na2vs0mg"},{"bike_id":"c166a21a-36b7-4fcb-9e2a-905086cd8f91","system_id":"levelo_inurba_marseille","lat":43.28267,"lon":5.35061,"is_reserved":false,"is_disabled":false,"rental_uris":{"android":"levelo://app?vid=c166a21a-36b7-4fcb-9e2a-905086cd8f91","ios":"levelo://app?vid=c166a21a-36b7-4fcb-9e2a-905086cd8f91"},"vehicle_type_id":"4","last_reported":1737454181,"current_range_meters":38000,"station_id":"ce4bhbp2rcd13ifvqerg","pricing_plan_id":"cebpf4jnsgd1na2vs0mg"},{"bike_id":"10d27098-69e9-48b1-9d26-115b0af1cc68","system_id":"levelo_inurba_marseille","lat":43.30537,"lon":5.3655,"is_reserved":false,"is_disabled":false,"rental_uris":{"android":"levelo://app?vid=10d27098-69e9-48b1-9d26-115b0af1cc68","ios":"levelo://app?vid=10d27098-69e9-48b1-9d26-115b0af1cc68"},"vehicle_type_id":"4","last_reported":1737454181,"current_range_meters":31200,"station_id":"ce4bgs12rcd13ifvqcag","pricing_plan_id":"cebpf4jnsgd1na2vs0mg"},{"bike_id":"668f9767-c78d-438a-96bb-c0760f782967","system_id":"levelo_inurba_marseille","lat":43.26198,"lon":5.37924,"is_reserved":false,"is_disabled":false,"rental_uris":{"android":"levelo://app?vid=668f9767-c78d-438a-96bb-c0760f782967","ios":"levelo://app?vid=668f9767-c78d-438a-96bb-c0760f782967"},"vehicle_type_id":"4","last_reported":1737454181,"current_range_meters":28400,"station_id":"ce4bhjp2rcd13ifvqg90","pricing_plan_id":"cebpf4jnsgd1na2vs0mg"},{"bike_id":"18fe3aba-021a-44a6-b68e-2807901f7eac","system_id":"levelo_inurba_marseille","lat":43.30945,"lon":5.39041,"is_reserved":false,"is_disabled":false,"rental_uris":{"android":"levelo://app?vid=18fe3aba-021a-44a6-b68e-2807901f7eac","ios":"levelo://app?vid=18fe3aba-021a-44a6-b68e-2807901f7eac"},"vehicle_type_id":"4","last_reported":1737454181,"current_range_meters":32800,"station_id":"ce4bgup2rcd13ifvqco0","pricing_plan_id":"cebpf4jnsgd1na2vs0mg"},{"bike_id":"d45c6794-d7f7-4f3d-a9c9-185e720b711a","system_id":"levelo_inurba_marseille","lat":43.26056,"lon":5.394,"is_reserved":false,"is_disabled":false,"rental_uris":{"android":"levelo://app?vid=d45c6794-d7f7-4f3d-a9c9-185e720b711a","ios":"levelo://app?vid=d45c6794-d7f7-4f3d-a9c9-185e720b711a"},"vehicle_type_id":"4","last_reported":1737454181,"current_range_meters":28400,"station_id":"ce4bhh92rcd13ifvqfj0","pricing_plan_id":"cebpf4jnsgd1na2vs0mg"},{"bike_id":"6bdb6348-cd9b-497c-bf22-c3c23715979b","system_id":"levelo_inurba_marseille","lat":43.277355,"lon":5.388582,"is_reserved":false,"is_disabled":false,"rental_uris":{"android":"levelo://app?vid=6bdb6348-cd9b-497c-bf22-c3c23715979b","ios":"levelo://app?vid=6bdb6348-cd9b-497c-bf22-c3c23715979b"},"vehicle_type_id":"4","last_reported":1737454181,"current_range_meters":24000,"station_id":"ce4bhg12rcd13ifvqf80","pricing_plan_id":"cebpf4jnsgd1na2vs0mg"},{"bike_id":"d0732447-00f1-437f-80e4-990c2a8224ed","system_id":"levelo_inurba_marseille","lat":43.2903,"lon":5.39964,"is_reserved":false,"is_disabled":false,"rental_uris":{"android":"levelo://app?vid=d0732447-00f1-437f-80e4-990c2a8224ed","ios":"levelo://app?vid=d0732447-00f1-437f-80e4-990c2a8224ed"},"vehicle_type_id":"4","last_reported":1737454181,"current_range_meters":36000,"station_id":"ce4bh392rcd13ifvqdm0","pricing_plan_id":"cebpf4jnsgd1na2vs0mg"},{"bike_id":"5af06b04-a3b4-4f6a-8253-054b460c72db","system_id":"levelo_inurba_marseille","lat":43.26489,"lon":5.39585,"is_reserved":false,"is_disabled":false,"rental_uris":{"android":"levelo://app?vid=5af06b04-a3b4-4f6a-8253-054b460c72db","ios":"levelo://app?vid=5af06b04-a3b4-4f6a-8253-054b460c72db"},"vehicle_type_id":"4","last_reported":1737454181,"current_range_meters":30800,"station_id":"ce4bhi12rcd13ifvqfq0","pricing_plan_id":"cebpf4jnsgd1na2vs0mg"},{"bike_id":"5debc92c-1374-44f6-9127-d7d2be7f929f","system_id":"levelo_inurba_marseille","lat":43.30295,"lon":5.39222,"is_reserved":false,"is_disabled":false,"rental_uris":{"android":"levelo://app?vid=5debc92c-1374-44f6-9127-d7d2be7f929f","ios":"levelo://app?vid=5debc92c-1374-44f6-9127-d7d2be7f929f"},"vehicle_type_id":"4","last_reported":1737454181,"current_range_meters":25200,"station_id":"ce4bgkh2rcd13ifvqbk0","pricing_plan_id":"cebpf4jnsgd1na2vs0mg"},{"bike_id":"aeccc9d2-e2b6-481a-bb5d-16e623633f7e","system_id":"levelo_inurba_marseille","lat":43.30132,"lon":5.37416,"is_reserved":false,"is_disabled":false,"rental_uris":{"android":"levelo://app?vid=aeccc9d2-e2b6-481a-bb5d-16e623633f7e","ios":"levelo://app?vid=aeccc9d2-e2b6-481a-bb5d-16e623633f7e"},"vehicle_type_id":"4","last_reported":1737454181,"current_range_meters":37600,"station_id":"ce4bgs92rcd13ifvqcc0","pricing_plan_id":"cebpf4jnsgd1na2vs0mg"},{"bike_id":"686a45c4-240c-42ac-8f87-187e1593f8b7","system_id":"levelo_inurba_marseille","lat":43.32101,"lon":5.36766,"is_reserved":false,"is_disabled":false,"rental_uris":{"android":"levelo://app?vid=686a45c4-240c-42ac-8f87-187e1593f8b7","ios":"levelo://app?vid=686a45c4-240c-42ac-8f87-187e1593f8b7"},"vehicle_type_id":"4","last_reported":1737454181,"current_range_meters":28400,"station_id":"","pricing_plan_id":"cebpf4jnsgd1na2vs0mg"},{"bike_id":"477448eb-f60c-4a0c-8e7d-6fa92b99483b","system_id":"levelo_inurba_marseille","lat":43.30957,"lon":5.39071,"is_reserved":false,"is_disabled":false,"rental_uris":{"android":"levelo://app?vid=477448eb-f60c-4a0c-8e7d-6fa92b99483b","ios":"levelo://app?vid=477448eb-f60c-4a0c-8e7d-6fa92b99483b"},"vehicle_type_id":"4","last_reported":1737454181,"current_range_meters":35200,"station_id":"ce4bgup2rcd13ifvqco0","pricing_plan_id":"cebpf4jnsgd1na2vs0mg"},{"bike_id":"2c97c10e-493e-4a18-a19d-8c3882b944f6","system_id":"levelo_inurba_marseille","lat":43.28854,"lon":5.35852,"is_reserved":false,"is_disabled":false,"rental_uris":{"android":"levelo://app?vid=2c97c10e-493e-4a18-a19d-8c3882b944f6","ios":"levelo://app?vid=2c97c10e-493e-4a18-a19d-8c3882b944f6"},"vehicle_type_id":"4","last_reported":1737454181,"current_range_meters":32800,"station_id":"ce4bhb12rcd13ifvqem0","pricing_plan_id":"cebpf4jnsgd1na2vs0mg"},{"bike_id":"e7108e7c-a8c7-40ef-b807-f248f382429c","system_id":"levelo_inurba_marseille","lat":43.28847,"lon":5.39312,"is_reserved":false,"is_disabled":false,"rental_uris":{"android":"levelo://app?vid=e7108e7c-a8c7-40ef-b807-f248f382429c","ios":"levelo://app?vid=e7108e7c-a8c7-40ef-b807-f248f382429c"},"vehicle_type_id":"4","last_reported":1737454181,"current_range_meters":28400,"station_id":"ce4bh2p2rcd13ifvqdi0","pricing_plan_id":"cebpf4jnsgd1na2vs0mg"},{"bike_id":"d7eada76-31a2-48a9-9191-47372a8e4127","system_id":"levelo_inurba_marseille","lat":43.29918,"lon":5.3745,"is_reserved":false,"is_disabled":false,"rental_uris":{"android":"levelo://app?vid=d7eada76-31a2-48a9-9191-47372a8e4127","ios":"levelo://app?vid=d7eada76-31a2-48a9-9191-47372a8e4127"},"vehicle_type_id":"4","last_reported":1737454181,"current_range_meters":18000,"station_id":"ce4bgjh2rcd13ifvqbg0","pricing_plan_id":"cebpf4jnsgd1na2vs0mg"},{"bike_id":"840970cb-e38b-49a2-a304-3fb195b5311c","system_id":"levelo_inurba_marseille","lat":43.28461,"lon":5.38418,"is_reserved":false,"is_disabled":false,"rental_uris":{"android":"levelo://app?vid=840970cb-e38b-49a2-a304-3fb195b5311c","ios":"levelo://app?vid=840970cb-e38b-49a2-a304-3fb195b5311c"},"vehicle_type_id":"4","last_reported":1737454181,"current_range_meters":39200,"station_id":"ce4bh512rcd13ifvqe3g","pricing_plan_id":"cebpf4jnsgd1na2vs0mg"},{"bike_id":"460c6b11-4caa-4567-86ea-40510ef57302","system_id":"levelo_inurba_marseille","lat":43.2406,"lon":5.3778,"is_reserved":false,"is_disabled":false,"rental_uris":{"android":"levelo://app?vid=460c6b11-4caa-4567-86ea-40510ef57302","ios":"levelo://app?vid=460c6b11-4caa-4567-86ea-40510ef57302"},"vehicle_type_id":"4","last_reported":1737454181,"current_range_meters":20400,"station_id":"ce4bhnp2rcd13ifvqgvg","pricing_plan_id":"cebpf4jnsgd1na2vs0mg"},{"bike_id":"46ec0d21-6cd3-4848-8b5e-9203c2c96a2f","system_id":"levelo_inurba_marseille","lat":43.33597,"lon":5.41034,"is_reserved":false,"is_disabled":false,"rental_uris":{"android":"levelo://app?vid=46ec0d21-6cd3-4848-8b5e-9203c2c96a2f","ios":"levelo://app?vid=46ec0d21-6cd3-4848-8b5e-9203c2c96a2f"},"vehicle_type_id":"4","last_reported":1737454181,"current_range_meters":11600,"station_id":"ce4bhqh2rcd13ifvqhmg","pricing_plan_id":"cebpf4jnsgd1na2vs0mg"},{"bike_id":"c6dcac86-20b9-4255-b761-057799075c0e","system_id":"levelo_inurba_marseille","lat":43.31353,"lon":5.36703,"is_reserved":false,"is_disabled":false,"rental_uris":{"android":"levelo://app?vid=c6dcac86-20b9-4255-b761-057799075c0e","ios":"levelo://app?vid=c6dcac86-20b9-4255-b761-057799075c0e"},"vehicle_type_id":"4","last_reported":1737454181,"current_range_meters":38800,"station_id":"ce4bgr92rcd13ifvqc6g","pricing_plan_id":"cebpf4jnsgd1na2vs0mg"},{"bike_id":"f29197b7-892b-4656-99c5-484d8091a1b7","system_id":"levelo_inurba_marseille","lat":43.30538,"lon":5.36692,"is_reserved":false,"is_disabled":false,"rental_uris":{"android":"levelo://app?vid=f29197b7-892b-4656-99c5-484d8091a1b7","ios":"levelo://app?vid=f29197b7-892b-4656-99c5-484d8091a1b7"},"vehicle_type_id":"4","last_reported":1737454181,"current_range_meters":39200,"station_id":"ce4bgrp2rcd13ifvqc9g","pricing_plan_id":"cebpf4jnsgd1na2vs0mg"},{"bike_id":"ba834d37-a138-4e00-bc01-7355fbf3fb3d","system_id":"levelo_inurba_marseille","lat":43.24645,"lon":5.38164,"is_reserved":false,"is_disabled":false,"rental_uris":{"android":"levelo://app?vid=ba834d37-a138-4e00-bc01-7355fbf3fb3d","ios":"levelo://app?vid=ba834d37-a138-4e00-bc01-7355fbf3fb3d"},"vehicle_type_id":"4","last_reported":1737454181,"current_range_meters":20800,"station_id":"ce4bhih2rcd13ifvqfr0","pricing_plan_id":"cebpf4jnsgd1na2vs0mg"},{"bike_id":"5434439c-80a7-45ef-8e7d-a897cb833684","system_id":"levelo_inurba_marseille","lat":43.32419,"lon":5.36749,"is_reserved":false,"is_disabled":false,"rental_uris":{"android":"levelo://app?vid=5434439c-80a7-45ef-8e7d-a897cb833684","ios":"levelo://app?vid=5434439c-80a7-45ef-8e7d-a897cb833684"},"vehicle_type_id":"4","last_reported":1737454181,"current_range_meters":38800,"station_id":"","pricing_plan_id":"cebpf4jnsgd1na2vs0mg"},{"bike_id":"ebf3a559-bca1-434f-8958-0e15342dbca6","system_id":"levelo_inurba_marseille","lat":43.29142,"lon":5.37166,"is_reserved":false,"is_disabled":false,"rental_uris":{"android":"levelo://app?vid=ebf3a559-bca1-434f-8958-0e15342dbca6","ios":"levelo://app?vid=ebf3a559-bca1-434f-8958-0e15342dbca6"},"vehicle_type_id":"4","last_reported":1737454181,"current_range_meters":38800,"station_id":"ce4bha92rcd13ifvqeh0","pricing_plan_id":"cebpf4jnsgd1na2vs0mg"},{"bike_id":"64899030-1386-4f33-8aa8-3daa0b76ca1f","system_id":"levelo_inurba_marseille","lat":43.33616,"lon":5.41016,"is_reserved":false,"is_disabled":false,"rental_uris":{"android":"levelo://app?vid=64899030-1386-4f33-8aa8-3daa0b76ca1f","ios":"levelo://app?vid=64899030-1386-4f33-8aa8-3daa0b76ca1f"},"vehicle_type_id":"4","last_reported":1737454181,"current_range_meters":11200,"station_id":"ce4bhqh2rcd13ifvqhmg","pricing_plan_id":"cebpf4jnsgd1na2vs0mg"},{"bike_id":"eee68cca-66ce-4db8-9bee-0b5f8a69b9a8","system_id":"levelo_inurba_marseille","lat":43.33717,"lon":5.39172,"is_reserved":false,"is_disabled":false,"rental_uris":{"android":"levelo://app?vid=eee68cca-66ce-4db8-9bee-0b5f8a69b9a8","ios":"levelo://app?vid=eee68cca-66ce-4db8-9bee-0b5f8a69b9a8"},"vehicle_type_id":"4","last_reported":1737454181,"current_range_meters":38800,"station_id":"ce4bhr92rcd13ifvqhsg","pricing_plan_id":"cebpf4jnsgd1na2vs0mg"},{"bike_id":"cf196764-360c-4142-89cc-e57597f81d8e","system_id":"levelo_inurba_marseille","lat":43.26679,"lon":5.38283,"is_reserved":false,"is_disabled":false,"rental_uris":{"android":"levelo://app?vid=cf196764-360c-4142-89cc-e57597f81d8e","ios":"levelo://app?vid=cf196764-360c-4142-89cc-e57597f81d8e"},"vehicle_type_id":"4","last_reported":1737454181,"current_range_meters":36000,"station_id":"ce4bhg92rcd13ifvqf90","pricing_plan_id":"cebpf4jnsgd1na2vs0mg"},{"bike_id":"50267a36-8428-4ee1-ac27-ac6a771a71af","system_id":"levelo_inurba_marseille","lat":43.33681,"lon":5.35555,"is_reserved":false,"is_disabled":true,"rental_uris":{"android":"levelo://app?vid=50267a36-8428-4ee1-ac27-ac6a771a71af","ios":"levelo://app?vid=50267a36-8428-4ee1-ac27-ac6a771a71af"},"vehicle_type_id":"4","last_reported":1737454181,"current_range_meters":0,"station_id":"","pricing_plan_id":"cebpf4jnsgd1na2vs0mg"},{"bike_id":"f5863b18-13a1-4c6e-92de-5668ea912ad3","system_id":"levelo_inurba_marseille","lat":43.26234,"lon":5.40439,"is_reserved":false,"is_disabled":true,"rental_uris":{"android":"levelo://app?vid=f5863b18-13a1-4c6e-92de-5668ea912ad3","ios":"levelo://app?vid=f5863b18-13a1-4c6e-92de-5668ea912ad3"},"vehicle_type_id":"4","last_reported":1737454181,"current_range_meters":0,"station_id":"","pricing_plan_id":"cebpf4jnsgd1na2vs0mg"},{"bike_id":"3dd094e6-7b23-41d2-9e4a-a9cfaaac6a3e","system_id":"levelo_inurba_marseille","lat":43.33612,"lon":5.40981,"is_reserved":false,"is_disabled":false,"rental_uris":{"android":"levelo://app?vid=3dd094e6-7b23-41d2-9e4a-a9cfaaac6a3e","ios":"levelo://app?vid=3dd094e6-7b23-41d2-9e4a-a9cfaaac6a3e"},"vehicle_type_id":"4","last_reported":1737454181,"current_range_meters":38000,"station_id":"ce4bhqh2rcd13ifvqhmg","pricing_plan_id":"cebpf4jnsgd1na2vs0mg"},{"bike_id":"5c2eada5-c12f-4d4e-9ffe-40deaf6410ea","system_id":"levelo_inurba_marseille","lat":43.29712,"lon":5.37675,"is_reserved":false,"is_disabled":false,"rental_uris":{"android":"levelo://app?vid=5c2eada5-c12f-4d4e-9ffe-40deaf6410ea","ios":"levelo://app?vid=5c2eada5-c12f-4d4e-9ffe-40deaf6410ea"},"vehicle_type_id":"4","last_reported":1737454181,"current_range_meters":39200,"station_id":"ce4bgkh2rcd13ifvqbl0","pricing_plan_id":"cebpf4jnsgd1na2vs0mg"},{"bike_id":"7e15284e-3aba-4da6-9122-46b9d68738ef","system_id":"levelo_inurba_marseille","lat":43.2607,"lon":5.3939,"is_reserved":false,"is_disabled":false,"rental_uris":{"android":"levelo://app?vid=7e15284e-3aba-4da6-9122-46b9d68738ef","ios":"levelo://app?vid=7e15284e-3aba-4da6-9122-46b9d68738ef"},"vehicle_type_id":"4","last_reported":1737454181,"current_range_meters":38000,"station_id":"ce4bhh92rcd13ifvqfj0","pricing_plan_id":"cebpf4jnsgd1na2vs0mg"},{"bike_id":"d3eabb8f-7db6-4520-8426-5501d37fed92","system_id":"levelo_inurba_marseille","lat":43.29004,"lon":5.35622,"is_reserved":false,"is_disabled":false,"rental_uris":{"android":"levelo://app?vid=d3eabb8f-7db6-4520-8426-5501d37fed92","ios":"levelo://app?vid=d3eabb8f-7db6-4520-8426-5501d37fed92"},"vehicle_type_id":"4","last_reported":1737454181,"current_range_meters":39200,"station_id":"ce4bhb92rcd13ifvqen0","pricing_plan_id":"cebpf4jnsgd1na2vs0mg"},{"bike_id":"c396952d-f1f3-4edb-a785-472f1ff281a7","system_id":"levelo_inurba_marseille","lat":43.26189,"lon":5.37458,"is_reserved":false,"is_disabled":false,"rental_uris":{"android":"levelo://app?vid=c396952d-f1f3-4edb-a785-472f1ff281a7","ios":"levelo://app?vid=c396952d-f1f3-4edb-a785-472f1ff281a7"},"vehicle_type_id":"4","last_reported":1737454181,"current_range_meters":33200,"station_id":"ce4bhgp2rcd13ifvqfc0","pricing_plan_id":"cebpf4jnsgd1na2vs0mg"},{"bike_id":"8b10e647-7504-4c12-b2df-8acd91216653","system_id":"levelo_inurba_marseille","lat":43.30959,"lon":5.39061,"is_reserved":false,"is_disabled":false,"rental_uris":{"android":"levelo://app?vid=8b10e647-7504-4c12-b2df-8acd91216653","ios":"levelo://app?vid=8b10e647-7504-4c12-b2df-8acd91216653"},"vehicle_type_id":"4","last_reported":1737454181,"current_range_meters":38800,"station_id":"ce4bgup2rcd13ifvqco0","pricing_plan_id":"cebpf4jnsgd1na2vs0mg"},{"bike_id":"4fe58642-8ec3-4f25-a4fc-eb5dc3dc47a8","system_id":"levelo_inurba_marseille","lat":43.33524,"lon":5.36139,"is_reserved":false,"is_disabled":true,"rental_uris":{"android":"levelo://app?vid=4fe58642-8ec3-4f25-a4fc-eb5dc3dc47a8","ios":"levelo://app?vid=4fe58642-8ec3-4f25-a4fc-eb5dc3dc47a8"},"vehicle_type_id":"4","last_reported":1737454181,"current_range_meters":21600,"station_id":"","pricing_plan_id":"cebpf4jnsgd1na2vs0mg"},{"bike_id":"9cccd2ff-b864-466b-83c6-b52ec2815836","system_id":"levelo_inurba_marseille","lat":43.25703,"lon":5.41126,"is_reserved":false,"is_disabled":false,"rental_uris":{"android":"levelo://app?vid=9cccd2ff-b864-466b-83c6-b52ec2815836","ios":"levelo://app?vid=9cccd2ff-b864-466b-83c6-b52ec2815836"},"vehicle_type_id":"4","last_reported":1737454181,"current_range_meters":36400,"station_id":"ce4bhkp2rcd13ifvqgd0","pricing_plan_id":"cebpf4jnsgd1na2vs0mg"},{"bike_id":"9e6b4737-0d93-45cc-bb18-333843ee4aff","system_id":"levelo_inurba_marseille","lat":43.27512,"lon":5.42462,"is_reserved":false,"is_disabled":false,"rental_uris":{"android":"levelo://app?vid=9e6b4737-0d93-45cc-bb18-333843ee4aff","ios":"levelo://app?vid=9e6b4737-0d93-45cc-bb18-333843ee4aff"},"vehicle_type_id":"4","last_reported":1737454181,"current_range_meters":22800,"station_id":"ce4bhn92rcd13ifvqgrg","pricing_plan_id":"cebpf4jnsgd1na2vs0mg"},{"bike_id":"91205cd1-594e-404b-8d00-894de72b18ca","system_id":"levelo_inurba_marseille","lat":43.24069,"lon":5.37755,"is_reserved":false,"is_disabled":false,"rental_uris":{"android":"levelo://app?vid=91205cd1-594e-404b-8d00-894de72b18ca","ios":"levelo://app?vid=91205cd1-594e-404b-8d00-894de72b18ca"},"vehicle_type_id":"4","last_reported":1737454181,"current_range_meters":36800,"station_id":"ce4bhnp2rcd13ifvqgvg","pricing_plan_id":"cebpf4jnsgd1na2vs0mg"},{"bike_id":"5bc669ac-d025-4cd8-811c-a7c83bdeba88","system_id":"levelo_inurba_marseille","lat":43.30906,"lon":5.36861,"is_reserved":false,"is_disabled":false,"rental_uris":{"android":"levelo://app?vid=5bc669ac-d025-4cd8-811c-a7c83bdeba88","ios":"levelo://app?vid=5bc669ac-d025-4cd8-811c-a7c83bdeba88"},"vehicle_type_id":"4","last_reported":1737454181,"current_range_meters":19200,"station_id":"ce4bgn92rcd13ifvqbvg","pricing_plan_id":"cebpf4jnsgd1na2vs0mg"},{"bike_id":"b5b91842-f1aa-4bba-964f-7a9484225fb0","system_id":"levelo_inurba_marseille","lat":43.258634,"lon":5.39911,"is_reserved":false,"is_disabled":false,"rental_uris":{"android":"levelo://app?vid=b5b91842-f1aa-4bba-964f-7a9484225fb0","ios":"levelo://app?vid=b5b91842-f1aa-4bba-964f-7a9484225fb0"},"vehicle_type_id":"4","last_reported":1737454181,"current_range_meters":38800,"station_id":"ce4bhl92rcd13ifvqghg","pricing_plan_id":"cebpf4jnsgd1na2vs0mg"},{"bike_id":"60b7d049-237a-4dbd-ad0c-436ecde1802f","system_id":"levelo_inurba_marseille","lat":43.231907,"lon":5.355599,"is_reserved":false,"is_disabled":false,"rental_uris":{"android":"levelo://app?vid=60b7d049-237a-4dbd-ad0c-436ecde1802f","ios":"levelo://app?vid=60b7d049-237a-4dbd-ad0c-436ecde1802f"},"vehicle_type_id":"4","last_reported":1737454181,"current_range_meters":21600,"station_id":"ce4bhu92rcd13ifvqi70","pricing_plan_id":"cebpf4jnsgd1na2vs0mg"},{"bike_id":"47babdd2-c668-46e0-9cc7-c115ce40496d","system_id":"levelo_inurba_marseille","lat":43.29301,"lon":5.37449,"is_reserved":false,"is_disabled":false,"rental_uris":{"android":"levelo://app?vid=47babdd2-c668-46e0-9cc7-c115ce40496d","ios":"levelo://app?vid=47babdd2-c668-46e0-9cc7-c115ce40496d"},"vehicle_type_id":"4","last_reported":1737454181,"current_range_meters":5600,"station_id":"ce4bgi12rcd13ifvqb70","pricing_plan_id":"cebpf4jnsgd1na2vs0mg"},{"bike_id":"f7a6c901-31c8-4066-b53a-57cec004d404","system_id":"levelo_inurba_marseille","lat":43.25822,"lon":5.3944,"is_reserved":false,"is_disabled":false,"rental_uris":{"android":"levelo://app?vid=f7a6c901-31c8-4066-b53a-57cec004d404","ios":"levelo://app?vid=f7a6c901-31c8-4066-b53a-57cec004d404"},"vehicle_type_id":"4","last_reported":1737454181,"current_range_meters":26800,"station_id":"ce4bhip2rcd13ifvqft0","pricing_plan_id":"cebpf4jnsgd1na2vs0mg"},{"bike_id":"86d67274-3f7f-4b7f-936e-b73e7a0da0d3","system_id":"levelo_inurba_marseille","lat":43.30537,"lon":5.367087,"is_reserved":false,"is_disabled":false,"rental_uris":{"android":"levelo://app?vid=86d67274-3f7f-4b7f-936e-b73e7a0da0d3","ios":"levelo://app?vid=86d67274-3f7f-4b7f-936e-b73e7a0da0d3"},"vehicle_type_id":"4","last_reported":1737454181,"current_range_meters":39200,"station_id":"ce4bgrp2rcd13ifvqc9g","pricing_plan_id":"cebpf4jnsgd1na2vs0mg"},{"bike_id":"792370a9-f1f1-4881-b0e4-75ce4c22b313","system_id":"levelo_inurba_marseille","lat":43.29358,"lon":5.37838,"is_reserved":false,"is_disabled":false,"rental_uris":{"android":"levelo://app?vid=792370a9-f1f1-4881-b0e4-75ce4c22b313","ios":"levelo://app?vid=792370a9-f1f1-4881-b0e4-75ce4c22b313"},"vehicle_type_id":"4","last_reported":1737454181,"current_range_meters":29600,"station_id":"ce4bgjh2rcd13ifvqbf0","pricing_plan_id":"cebpf4jnsgd1na2vs0mg"},{"bike_id":"f2b8aeab-8c5b-4c5c-8520-4e486493b3b3","system_id":"levelo_inurba_marseille","lat":43.29618,"lon":5.37183,"is_reserved":false,"is_disabled":false,"rental_uris":{"android":"levelo://app?vid=f2b8aeab-8c5b-4c5c-8520-4e486493b3b3","ios":"levelo://app?vid=f2b8aeab-8c5b-4c5c-8520-4e486493b3b3"},"vehicle_type_id":"4","last_reported":1737454181,"current_range_meters":8800,"station_id":"ce4bgnh2rcd13ifvqc0g","pricing_plan_id":"cebpf4jnsgd1na2vs0mg"},{"bike_id":"5f332c0c-02d1-4eb7-a43a-51173c240f7e","system_id":"levelo_inurba_marseille","lat":43.26955,"lon":5.3865,"is_reserved":false,"is_disabled":false,"rental_uris":{"android":"levelo://app?vid=5f332c0c-02d1-4eb7-a43a-51173c240f7e","ios":"levelo://app?vid=5f332c0c-02d1-4eb7-a43a-51173c240f7e"},"vehicle_type_id":"4","last_reported":1737454181,"current_range_meters":39200,"station_id":"ce4bhh92rcd13ifvqfh0","pricing_plan_id":"cebpf4jnsgd1na2vs0mg"},{"bike_id":"35adf1d8-47b5-45fe-8849-bfdf88141725","system_id":"levelo_inurba_marseille","lat":43.24057,"lon":5.37781,"is_reserved":false,"is_disabled":false,"rental_uris":{"android":"levelo://app?vid=35adf1d8-47b5-45fe-8849-bfdf88141725","ios":"levelo://app?vid=35adf1d8-47b5-45fe-8849-bfdf88141725"},"vehicle_type_id":"4","last_reported":1737454181,"current_range_meters":28400,"station_id":"ce4bhnp2rcd13ifvqgvg","pricing_plan_id":"cebpf4jnsgd1na2vs0mg"},{"bike_id":"95b517d0-9dcf-47f9-8053-773bec6e6a69","system_id":"levelo_inurba_marseille","lat":43.26654,"lon":5.39561,"is_reserved":false,"is_disabled":false,"rental_uris":{"android":"levelo://app?vid=95b517d0-9dcf-47f9-8053-773bec6e6a69","ios":"levelo://app?vid=95b517d0-9dcf-47f9-8053-773bec6e6a69"},"vehicle_type_id":"4","last_reported":1737454181,"current_range_meters":4400,"station_id":"","pricing_plan_id":"cebpf4jnsgd1na2vs0mg"},{"bike_id":"c1ec84ac-90b7-443e-a1e0-0762b4eadd65","system_id":"levelo_inurba_marseille","lat":43.24068,"lon":5.37749,"is_reserved":false,"is_disabled":false,"rental_uris":{"android":"levelo://app?vid=c1ec84ac-90b7-443e-a1e0-0762b4eadd65","ios":"levelo://app?vid=c1ec84ac-90b7-443e-a1e0-0762b4eadd65"},"vehicle_type_id":"4","last_reported":1737454181,"current_range_meters":33200,"station_id":"ce4bhnp2rcd13ifvqgvg","pricing_plan_id":"cebpf4jnsgd1na2vs0mg"},{"bike_id":"4f990209-04d5-4ce5-bcf6-1abc31b5d30d","system_id":"levelo_inurba_marseille","lat":43.3054,"lon":5.36528,"is_reserved":false,"is_disabled":false,"rental_uris":{"android":"levelo://app?vid=4f990209-04d5-4ce5-bcf6-1abc31b5d30d","ios":"levelo://app?vid=4f990209-04d5-4ce5-bcf6-1abc31b5d30d"},"vehicle_type_id":"4","last_reported":1737454181,"current_range_meters":38800,"station_id":"ce4bgs12rcd13ifvqcag","pricing_plan_id":"cebpf4jnsgd1na2vs0mg"},{"bike_id":"a2665873-ff7d-4ec2-9a56-ebacf8c35007","system_id":"levelo_inurba_marseille","lat":43.29222,"lon":5.36093,"is_reserved":false,"is_disabled":false,"rental_uris":{"android":"levelo://app?vid=a2665873-ff7d-4ec2-9a56-ebacf8c35007","ios":"levelo://app?vid=a2665873-ff7d-4ec2-9a56-ebacf8c35007"},"vehicle_type_id":"4","last_reported":1737454181,"current_range_meters":28400,"station_id":"ce4bhbh2rcd13ifvqeqg","pricing_plan_id":"cebpf4jnsgd1na2vs0mg"},{"bike_id":"786757ae-b10f-40c4-b380-0b2af1144c2a","system_id":"levelo_inurba_marseille","lat":43.240762,"lon":5.377584,"is_reserved":false,"is_disabled":false,"rental_uris":{"android":"levelo://app?vid=786757ae-b10f-40c4-b380-0b2af1144c2a","ios":"levelo://app?vid=786757ae-b10f-40c4-b380-0b2af1144c2a"},"vehicle_type_id":"4","last_reported":1737454181,"current_range_meters":24400,"station_id":"ce4bhnp2rcd13ifvqgvg","pricing_plan_id":"cebpf4jnsgd1na2vs0mg"},{"bike_id":"292f8adc-7623-41ea-a3ea-158a93156577","system_id":"levelo_inurba_marseille","lat":43.30332,"lon":5.38505,"is_reserved":false,"is_disabled":false,"rental_uris":{"android":"levelo://app?vid=292f8adc-7623-41ea-a3ea-158a93156577","ios":"levelo://app?vid=292f8adc-7623-41ea-a3ea-158a93156577"},"vehicle_type_id":"4","last_reported":1737454181,"current_range_meters":29600,"station_id":"","pricing_plan_id":"cebpf4jnsgd1na2vs0mg"},{"bike_id":"09271c13-bc57-4a1b-ad60-73ddd2d0ee51","system_id":"levelo_inurba_marseille","lat":43.3136,"lon":5.36705,"is_reserved":false,"is_disabled":false,"rental_uris":{"android":"levelo://app?vid=09271c13-bc57-4a1b-ad60-73ddd2d0ee51","ios":"levelo://app?vid=09271c13-bc57-4a1b-ad60-73ddd2d0ee51"},"vehicle_type_id":"4","last_reported":1737454181,"current_range_meters":39200,"station_id":"ce4bgr92rcd13ifvqc6g","pricing_plan_id":"cebpf4jnsgd1na2vs0mg"},{"bike_id":"2ddf8f2a-7b47-442c-b23e-f4d6077f6772","system_id":"levelo_inurba_marseille","lat":43.32365,"lon":5.3889,"is_reserved":false,"is_disabled":false,"rental_uris":{"android":"levelo://app?vid=2ddf8f2a-7b47-442c-b23e-f4d6077f6772","ios":"levelo://app?vid=2ddf8f2a-7b47-442c-b23e-f4d6077f6772"},"vehicle_type_id":"4","last_reported":1737454181,"current_range_meters":35600,"station_id":"ce4bhqp2rcd13ifvqhog","pricing_plan_id":"cebpf4jnsgd1na2vs0mg"},{"bike_id":"ab2947e6-a4a5-49b2-8120-3af82d07ff40","system_id":"levelo_inurba_marseille","lat":43.24157,"lon":5.39733,"is_reserved":false,"is_disabled":false,"rental_uris":{"android":"levelo://app?vid=ab2947e6-a4a5-49b2-8120-3af82d07ff40","ios":"levelo://app?vid=ab2947e6-a4a5-49b2-8120-3af82d07ff40"},"vehicle_type_id":"4","last_reported":1737454181,"current_range_meters":27600,"station_id":"ce4bhn12rcd13ifvqgpg","pricing_plan_id":"cebpf4jnsgd1na2vs0mg"},{"bike_id":"c2099609-4a49-4e8a-a489-d46f71e09ff5","system_id":"levelo_inurba_marseille","lat":43.29045,"lon":5.3758,"is_reserved":false,"is_disabled":false,"rental_uris":{"android":"levelo://app?vid=c2099609-4a49-4e8a-a489-d46f71e09ff5","ios":"levelo://app?vid=c2099609-4a49-4e8a-a489-d46f71e09ff5"},"vehicle_type_id":"4","last_reported":1737454181,"current_range_meters":8400,"station_id":"ce4bh692rcd13ifvqe90","pricing_plan_id":"cebpf4jnsgd1na2vs0mg"},{"bike_id":"8416c2eb-29ef-40ca-bcab-1cbe26f7589e","system_id":"levelo_inurba_marseille","lat":43.28086,"lon":5.35215,"is_reserved":false,"is_disabled":false,"rental_uris":{"android":"levelo://app?vid=8416c2eb-29ef-40ca-bcab-1cbe26f7589e","ios":"levelo://app?vid=8416c2eb-29ef-40ca-bcab-1cbe26f7589e"},"vehicle_type_id":"4","last_reported":1737454181,"current_range_meters":31200,"station_id":"","pricing_plan_id":"cebpf4jnsgd1na2vs0mg"},{"bike_id":"2ccc0676-ed58-4b7f-a896-37d4c6cb7dea","system_id":"levelo_inurba_marseille","lat":43.3047,"lon":5.37905,"is_reserved":false,"is_disabled":false,"rental_uris":{"android":"levelo://app?vid=2ccc0676-ed58-4b7f-a896-37d4c6cb7dea","ios":"levelo://app?vid=2ccc0676-ed58-4b7f-a896-37d4c6cb7dea"},"vehicle_type_id":"4","last_reported":1737454181,"current_range_meters":8000,"station_id":"ce4bgup2rcd13ifvqcn0","pricing_plan_id":"cebpf4jnsgd1na2vs0mg"},{"bike_id":"0aaedd18-95c7-458b-bb63-6504ef2e11ba","system_id":"levelo_inurba_marseille","lat":43.32105,"lon":5.368,"is_reserved":false,"is_disabled":false,"rental_uris":{"android":"levelo://app?vid=0aaedd18-95c7-458b-bb63-6504ef2e11ba","ios":"levelo://app?vid=0aaedd18-95c7-458b-bb63-6504ef2e11ba"},"vehicle_type_id":"4","last_reported":1737454181,"current_range_meters":34000,"station_id":"ce4bhrh2rcd13ifvqhug","pricing_plan_id":"cebpf4jnsgd1na2vs0mg"},{"bike_id":"b4b8d306-3fcb-4285-9db5-3958f77c2583","system_id":"levelo_inurba_marseille","lat":43.26054,"lon":5.39396,"is_reserved":false,"is_disabled":false,"rental_uris":{"android":"levelo://app?vid=b4b8d306-3fcb-4285-9db5-3958f77c2583","ios":"levelo://app?vid=b4b8d306-3fcb-4285-9db5-3958f77c2583"},"vehicle_type_id":"4","last_reported":1737454181,"current_range_meters":39200,"station_id":"ce4bhh92rcd13ifvqfj0","pricing_plan_id":"cebpf4jnsgd1na2vs0mg"},