{"last_updated":1704877647,"ttl":30,"version":"2.2","data":{"bikes":[{"bike_id":"a23a5160-cf80-496d-ad3a-6266bd915461","system_id":"levelo_inurba_marseille","lat":43.31341,"lon":5.367098,"is_reserved":false,"is_disabled":false,"rental_uris":{"android":"levelo://app?vid=a23a5160-cf80-496d-ad3a-6266bd915461","ios":"levelo://app?vid=a23a5160-cf80-496d-ad3a-6266bd915461"},"vehicle_type_id":"4","last_reported":1704877647,"current_range_meters":19200,"station_id":"ce4bgr92rcd13ifvqc6g","pricing_plan_id":"free"},{"bike_id":"a10bc6ef-cac4-47be-855f-b618cda030f4","system_id":"levelo_inurba_marseille","lat":43.313391,"lon":5.36706,"is_reserved":false,"is_disabled":false,"rental_uris":{"android":"levelo://app?vid=a10bc6ef-cac4-47be-855f-b618cda030f4","ios":"levelo://app?vid=a10bc6ef-cac4-47be-855f-b618cda030f4"},"vehicle_type_id":"4","last_reported":1704877647,"current_range_meters":10800,"station_id":"ce4bgr92rcd13ifvqc6g","pricing_plan_id":"free"},{"bike_id":"1eaa779c-1e57-4608-996e-614e7746bd34","system_id":"levelo_inurba_marseille","lat":43.313391,"lon":5.36706,"is_reserved":false,"is_disabled":false,"rental_uris":{"android":"levelo://app?vid=1eaa779c-1e57-4608-996e-614e7746bd34","ios":"levelo://app?vid=1eaa779c-1e57-4608-996e-614e7746bd34"},"vehicle_type_id":"4","last_reported":1704877647,"current_range_meters":31600,"station_id":"ce4bgr92rcd13ifvqc6g","pricing_plan_id":"free"},{"bike_id":"1169a497-c06e-4c06-9235-ca55c9e83238","system_id":"levelo_inurba_marseille","lat":43.313391,"lon":5.36706,"is_reserved":false,"is_disabled":false,"rental_uris":{"android":"levelo://app?vid=1169a497-c06e-4c06-9235-ca55c9e83238","ios":"levelo://app?vid=1169a497-c06e-4c06-9235-ca55c9e83238"},"vehicle_type_id":"4","last_reported":1704877647,"current_range_meters":12800,"station_id":"ce4bgr92rcd13ifvqc6g","pricing_plan_id":"free"},{"bike_id":"2e6b79e4-3ca8-4cdd-be19-d2a805117f84","system_id":"levelo_inurba_marseille","lat":43.313391,"lon":5.36706,"is_reserved":false,"is_disabled":false,"rental_uris":{"android":"levelo://app?vid=2e6b79e4-3ca8-4cdd-be19-d2a805117f84","ios":"levelo://app?vid=2e6b79e4-3ca8-4cdd-be19-d2a805117f84"},"vehicle_type_id":"4","last_reported":1704877647,"current_range_meters":29600,"station_id":"ce4bgr92rcd13ifvqc6g","pricing_plan_id":"free"},{"bike_id":"7b1c7416-afc8-4a98-bbde-abaa0ffee31a","system_id":"levelo_inurba_marseille","lat":43.31341,"lon":5.367098,"is_reserved":false,"is_disabled":false,"rental_uris":{"android":"levelo://app?vid=7b1c7416-afc8-4a98-bbde-abaa0ffee31a","ios":"levelo://app?vid=7b1c7416-afc8-4a98-bbde-abaa0ffee31a"},"vehicle_type_id":"4","last_reported":1704877647,"current_range_meters":30000,"station_id":"ce4bgr92rcd13ifvqc6g","pricing_plan_id":"free"},{"bike_id":"01e046e8-3a7b-4cb8-90c2-72225c677678","system_id":"levelo_inurba_marseille","lat":43.313391,"lon":5.36706,"is_reserved":false,"is_disabled":false,"rental_uris":{"android":"levelo://app?vid=01e046e8-3a7b-4cb8-90c2-72225c677678","ios":"levelo://app?vid=01e046e8-3a7b-4cb8-90c2-72225c677678"},"vehicle_type_id":"4","last_reported":1704877647,"current_range_meters":22400,"station_id":"ce4bgr92rcd13ifvqc6g","pricing_plan_id":"free"},{"bike_id":"95e053e7-1244-4291-8269-35c9c62afa42","system_id":"levelo_inurba_marseille","lat":43.313391,"lon":5.36706,"is_reserved":false,"is_disabled":false,"rental_uris":{"android":"levelo://app?vid=95e053e7-1244-4291-8269-35c9c62afa42","ios":"levelo://app?vid=95e053e7-1244-4291-8269-35c9c62afa42"},"vehicle_type_id":"4","last_reported":1704877647,"current_range_meters":25600,"station_id":"ce4bgr92rcd13ifvqc6g","pricing_plan_id":"free"},{"bike_id":"c47fcfb4-32be-4931-b271-338a56909f0a","system_id":"levelo_inurba_marseille","lat":43.31341,"lon":5.367098,"is_reserved":false,"is_disabled":false,"rental_uris":{"android":"levelo://app?vid=c47fcfb4-32be-4931-b271-338a56909f0a","ios":"levelo://app?vid=c47fcfb4-32be-4931-b271-338a56909f0a"},"vehicle_type_id":"4","last_reported":1704877647,"current_range_meters":19600,"station_id":"ce4bgr92rcd13ifvqc6g","pricing_plan_id":"free"},{"bike_id":"0755139a-b0e8-4b8b-b009-b365349f28cb","system_id":"levelo_inurba_marseille","lat":43.312239,"lon":5.368562,"is_reserved":false,"is_disabled":false,"rental_uris":{"android":"levelo://app?vid=0755139a-b0e8-4b8b-b009-b365349f28cb","ios":"levelo://app?vid=0755139a-b0e8-4b8b-b009-b365349f28cb"},"vehicle_type_id":"4","last_reported":1704877647,"current_range_meters":30800,"station_id":"ce4bgl92rcd13ifvqbq0","pricing_plan_id":"free"},{"bike_id":"cdd07c87-380c-434b-bf7a-4592ac184aed","system_id":"levelo_inurba_marseille","lat":43.309076,"lon":5.368465,"is_reserved":false,"is_disabled":false,"rental_uris":{"android":"levelo://app?vid=cdd07c87-380c-434b-bf7a-4592ac184aed","ios":"levelo://app?vid=cdd07c87-380c-434b-bf7a-4592ac184aed"},"vehicle_type_id":"4","last_reported":1704877647,"current_range_meters":8800,"station_id":"ce4bgn92rcd13ifvqbvg","pricing_plan_id":"free"},{"bike_id":"0ef08877-2f61-4e12-bc62-676dfcf0c455","system_id":"levelo_inurba_marseille","lat":43.309076,"lon":5.368465,"is_reserved":false,"is_disabled":false,"rental_uris":{"android":"levelo://app?vid=0ef08877-2f61-4e12-bc62-676dfcf0c455","ios":"levelo://app?vid=0ef08877-2f61-4e12-bc62-676dfcf0c455"},"vehicle_type_id":"4","last_reported":1704877647,"current_range_meters":28000,"station_id":"ce4bgn92rcd13ifvqbvg","pricing_plan_id":"free"},{"bike_id":"4d8a100a-0a86-4de4-9a19-bef4787669b8","system_id":"levelo_inurba_marseille","lat":43.309076,"lon":5.368465,"is_reserved":false,"is_disabled":false,"rental_uris":{"android":"levelo://app?vid=4d8a100a-0a86-4de4-9a19-bef4787669b8","ios":"levelo://app?vid=4d8a100a-0a86-4de4-9a19-bef4787669b8"},"vehicle_type_id":"4","last_reported":1704877647,"current_range_meters":15200,"station_id":"ce4bgn92rcd13ifvqbvg","pricing_plan_id":"free"},{"bike_id":"80478f91-2ca5-4fc7-9ccc-0b74ca8e5427","system_id":"levelo_inurba_marseille","lat":43.309076,"lon":5.368465,"is_reserved":false,"is_disabled":false,"rental_uris":{"android":"levelo://app?vid=80478f91-2ca5-4fc7-9ccc-0b74ca8e5427","ios":"levelo://app?vid=80478f91-2ca5-4fc7-9ccc-0b74ca8e5427"},"vehicle_type_id":"4","last_reported":1704877647,"current_range_meters":31600,"station_id":"ce4bgn92rcd13ifvqbvg","pricing_plan_id":"free"},{"bike_id":"1c4746e3-ddbc-4a5c-9ab2-d9bbdf1654d3","system_id":"levelo_inurba_marseille","lat":43.309076,"lon":5.368465,"is_reserved":false,"is_disabled":false,"rental_uris":{"android":"levelo://app?vid=1c4746e3-ddbc-4a5c-9ab2-d9bbdf1654d3","ios":"levelo://app?vid=1c4746e3-ddbc-4a5c-9ab2-d9bbdf1654d3"},"vehicle_type_id":"4","last_reported":1704877647,"current_range_meters":0,"station_id":"ce4bgn92rcd13ifvqbvg","pricing_plan_id":"free"},{"bike_id":"dd9b650b-9b16-4b9d-b991-1f8d3d9605ea","system_id":"levelo_inurba_marseille","lat":43.309076,"lon":5.368465,"is_reserved":false,"is_disabled":false,"rental_uris":{"android":"levelo://app?vid=dd9b650b-9b16-4b9d-b991-1f8d3d9605ea","ios":"levelo://app?vid=dd9b650b-9b16-4b9d-b991-1f8d3d9605ea"},"vehicle_type_id":"4","last_reported":1704877647,"current_range_meters":22000,"station_id":"ce4bgn92rcd13ifvqbvg","pricing_plan_id":"free"},{"bike_id":"85210d5c-0bf9-47cd-ae05-c290281b4c68","system_id":"levelo_inurba_marseille","lat":43.309076,"lon":5.368465,"is_reserved":false,"is_disabled":false,"rental_uris":{"android":"levelo://app?vid=85210d5c-0bf9-47cd-ae05-c290281b4c68","ios":"levelo://app?vid=85210d5c-0bf9-47cd-ae05-c290281b4c68"},"vehicle_type_id":"4","last_reported":1704877647,"current_range_meters":12000,"station_id":"ce4bgn92rcd13ifvqbvg","pricing_plan_id":"free"},{"bike_id":"c3bbae30-3b73-4573-bab0-e27bbdbe432d","system_id":"levelo_inurba_marseille","lat":43.309076,"lon":5.368465,"is_reserved":false,"is_disabled":false,"rental_uris":{"android":"levelo://app?vid=c3bbae30-3b73-4573-bab0-e27bbdbe432d","ios":"levelo://app?vid=c3bbae30-3b73-4573-bab0-e27bbdbe432d"},"vehicle_type_id":"4","last_reported":1704877647,"current_range_meters":14000,"station_id":"ce4bgn92rcd13ifvqbvg","pricing_plan_id":"free"},{"bike_id":"159c2bff-f6df-4b6d-b652-a32bfa92e58c","system_id":"levelo_inurba_marseille","lat":43.309076,"lon":5.368465,"is_reserved":false,"is_disabled":false,"rental_uris":{"android":"levelo://app?vid=159c2bff-f6df-4b6d-b652-a32bfa92e58c","ios":"levelo://app?vid=159c2bff-f6df-4b6d-b652-a32bfa92e58c"},"vehicle_type_id":"4","last_reported":1704877647,"current_range_meters":14800,"station_id":"ce4bgn92rcd13ifvqbvg","pricing_plan_id":"free"},{"bike_id":"40696809-c445-4fc9-85ab-fe847d1b0ddc","system_id":"levelo_inurba_marseille","lat":43.309076,"lon":5.368465,"is_reserved":false,"is_disabled":false,"rental_uris":{"android":"levelo://app?vid=40696809-c445-4fc9-85ab-fe847d1b0ddc","ios":"levelo://app?vid=40696809-c445-4fc9-85ab-fe847d1b0ddc"},"vehicle_type_id":"4","last_reported":1704877647,"current_range_meters":19200,"station_id":"ce4bgn92rcd13ifvqbvg","pricing_plan_id":"free"},{"bike_id":"a18c9f18-dd23-4fa3-ae4c-750a813ec2dd","system_id":"levelo_inurba_marseille","lat":43.313597,"lon":5.373423,"is_reserved":false,"is_disabled":false,"rental_uris":{"android":"levelo://app?vid=a18c9f18-dd23-4fa3-ae4c-750a813ec2dd","ios":"levelo://app?vid=a18c9f18-dd23-4fa3-ae4c-750a813ec2dd"},"vehicle_type_id":"4","last_reported":1704877647,"current_range_meters":2400,"station_id":"","pricing_plan_id":"free"},{"bike_id":"913fa9e1-9d6f-4f94-bb7e-5d7a52f65b7a","system_id":"levelo_inurba_marseille","lat":43.314811,"lon":5.373103,"is_reserved":false,"is_disabled":false,"rental_uris":{"android":"levelo://app?vid=913fa9e1-9d6f-4f94-bb7e-5d7a52f65b7a","ios":"levelo://app?vid=913fa9e1-9d6f-4f94-bb7e-5d7a52f65b7a"},"vehicle_type_id":"4","last_reported":1704877647,"current_range_meters":13200,"station_id":"ce4bgt12rcd13ifvqcd0","pricing_plan_id":"free"},{"bike_id":"7ea78f98-f736-46aa-b8e0-7b70196c1152","system_id":"levelo_inurba_marseille","lat":43.314811,"lon":5.373103,"is_reserved":false,"is_disabled":false,"rental_uris":{"android":"levelo://app?vid=7ea78f98-f736-46aa-b8e0-7b70196c1152","ios":"levelo://app?vid=7ea78f98-f736-46aa-b8e0-7b70196c1152"},"vehicle_type_id":"4","last_reported":1704877647,"current_range_meters":800,"station_id":"ce4bgt12rcd13ifvqcd0","pricing_plan_id":"free"},{"bike_id":"f93a565b-2648-4294-965e-e467a5b5696e","system_id":"levelo_inurba_marseille","lat":43.314811,"lon":5.373103,"is_reserved":false,"is_disabled":false,"rental_uris":{"android":"levelo://app?vid=f93a565b-2648-4294-965e-e467a5b5696e","ios":"levelo://app?vid=f93a565b-2648-4294-965e-e467a5b5696e"},"vehicle_type_id":"4","last_reported":1704877647,"current_range_meters":30000,"station_id":"ce4bgt12rcd13ifvqcd0","pricing_plan_id":"free"},{"bike_id":"c4db8564-80ed-4e2f-8d74-36933b9cc18b","system_id":"levelo_inurba_marseille","lat":43.314811,"lon":5.373103,"is_reserved":false,"is_disabled":false,"rental_uris":{"android":"levelo://app?vid=c4db8564-80ed-4e2f-8d74-36933b9cc18b","ios":"levelo://app?vid=c4db8564-80ed-4e2f-8d74-36933b9cc18b"},"vehicle_type_id":"4","last_reported":1704877647,"current_range_meters":4800,"station_id":"ce4bgt12rcd13ifvqcd0","pricing_plan_id":"free"},{"bike_id":"7cb381dc-8e31-4248-8c5a-279ba0a2e737","system_id":"levelo_inurba_marseille","lat":43.314811,"lon":5.373104,"is_reserved":false,"is_disabled":false,"rental_uris":{"android":"levelo://app?vid=7cb381dc-8e31-4248-8c5a-279ba0a2e737","ios":"levelo://app?vid=7cb381dc-8e31-4248-8c5a-279ba0a2e737"},"vehicle_type_id":"4","last_reported":1704877647,"current_range_meters":31200,"station_id":"ce4bgt12rcd13ifvqcd0","pricing_plan_id":"free"},{"bike_id":"cb519a15-903a-440d-9a46-7be4a697260a","system_id":"levelo_inurba_marseille","lat":43.314811,"lon":5.373104,"is_reserved":false,"is_disabled":false,"rental_uris":{"android":"levelo://app?vid=cb519a15-903a-440d-9a46-7be4a697260a","ios":"levelo://app?vid=cb519a15-903a-440d-9a46-7be4a697260a"},"vehicle_type_id":"4","last_reported":1704877647,"current_range_meters":18800,"station_id":"ce4bgt12rcd13ifvqcd0","pricing_plan_id":"free"},{"bike_id":"7b3b699f-3f99-4e35-89af-d56ef1f73cc7","system_id":"levelo_inurba_marseille","lat":43.31531,"lon":5.37284,"is_reserved":false,"is_disabled":false,"rental_uris":{"android":"levelo://app?vid=7b3b699f-3f99-4e35-89af-d56ef1f73cc7","ios":"levelo://app?vid=7b3b699f-3f99-4e35-89af-d56ef1f73cc7"},"vehicle_type_id":"4","last_reported":1704877647,"current_range_meters":20000,"station_id":"","pricing_plan_id":"free"},{"bike_id":"c4effae3-062e-4287-b691-41acbc04c341","system_id":"levelo_inurba_marseille","lat":43.30895,"lon":5.37199,"is_reserved":false,"is_disabled":false,"rental_uris":{"android":"levelo://app?vid=c4effae3-062e-4287-b691-41acbc04c341","ios":"levelo://app?vid=c4effae3-062e-4287-b691-41acbc04c341"},"vehicle_type_id":"4","last_reported":1704877647,"current_range_meters":20800,"station_id":"ce4bguh2rcd13ifvqckg","pricing_plan_id":"free"},{"bike_id":"6c2e6ab3-33bd-44dd-b492-1d7160bf712d","system_id":"levelo_inurba_marseille","lat":43.305712,"lon":5.365641,"is_reserved":false,"is_disabled":false,"rental_uris":{"android":"levelo://app?vid=6c2e6ab3-33bd-44dd-b492-1d7160bf712d","ios":"levelo://app?vid=6c2e6ab3-33bd-44dd-b492-1d7160bf712d"},"vehicle_type_id":"4","last_reported":1704877647,"current_range_meters":17200,"station_id":"ce4bgs12rcd13ifvqcag","pricing_plan_id":"free"},{"bike_id":"b4b1ca73-b9d0-4f75-8173-31586fbaa116","system_id":"levelo_inurba_marseille","lat":43.305368,"lon":5.367343,"is_reserved":false,"is_disabled":false,"rental_uris":{"android":"levelo://app?vid=b4b1ca73-b9d0-4f75-8173-31586fbaa116","ios":"levelo://app?vid=b4b1ca73-b9d0-4f75-8173-31586fbaa116"},"vehicle_type_id":"4","last_reported":1704877647,"current_range_meters":25200,"station_id":"ce4bgrp2rcd13ifvqc9g","pricing_plan_id":"free"},{"bike_id":"0c44db73-fd9a-413d-a6cc-5123feb3f567","system_id":"levelo_inurba_marseille","lat":43.305368,"lon":5.367343,"is_reserved":false,"is_disabled":false,"rental_uris":{"android":"levelo://app?vid=0c44db73-fd9a-413d-a6cc-5123feb3f567","ios":"levelo://app?vid=0c44db73-fd9a-413d-a6cc-5123feb3f567"},"vehicle_type_id":"4","last_reported":1704877647,"current_range_meters":21600,"station_id":"ce4bgrp2rcd13ifvqc9g","pricing_plan_id":"free"},{"bike_id":"de80505e-7394-482e-b05d-3bc139b9cdcd","system_id":"levelo_inurba_marseille","lat":43.305368,"lon":5.367343,"is_reserved":false,"is_disabled":false,"rental_uris":{"android":"levelo://app?vid=de80505e-7394-482e-b05d-3bc139b9cdcd","ios":"levelo://app?vid=de80505e-7394-482e-b05d-3bc139b9cdcd"},"vehicle_type_id":"4","last_reported":1704877647,"current_range_meters":23600,"station_id":"ce4bgrp2rcd13ifvqc9g","pricing_plan_id":"free"},{"bike_id":"620cb73b-a540-4dbc-baab-26a318819634","system_id":"levelo_inurba_marseille","lat":43.305368,"lon":5.367343,"is_reserved":false,"is_disabled":false,"rental_uris":{"android":"levelo://app?vid=620cb73b-a540-4dbc-baab-26a318819634","ios":"levelo://app?vid=620cb73b-a540-4dbc-baab-26a318819634"},"vehicle_type_id":"4","last_reported":1704877647,"current_range_meters":16800,"station_id":"ce4bgrp2rcd13ifvqc9g","pricing_plan_id":"free"},{"bike_id":"9e34277b-8c05-4767-a216-7872b48d5f19","system_id":"levelo_inurba_marseille","lat":43.305714,"lon":5.365633,"is_reserved":false,"is_disabled":false,"rental_uris":{"android":"levelo://app?vid=9e34277b-8c05-4767-a216-7872b48d5f19","ios":"levelo://app?vid=9e34277b-8c05-4767-a216-7872b48d5f19"},"vehicle_type_id":"4","last_reported":1704877647,"current_range_meters":20000,"station_id":"ce4bgs12rcd13ifvqcag","pricing_plan_id":"free"},{"bike_id":"bd00bc22-c1fc-4504-a39f-38c834772ed2","system_id":"levelo_inurba_marseille","lat":43.305368,"lon":5.367343,"is_reserved":false,"is_disabled":false,"rental_uris":{"android":"levelo://app?vid=bd00bc22-c1fc-4504-a39f-38c834772ed2","ios":"levelo://app?vid=bd00bc22-c1fc-4504-a39f-38c834772ed2"},"vehicle_type_id":"4","last_reported":1704877647,"current_range_meters":26800,"station_id":"ce4bgrp2rcd13ifvqc9g","pricing_plan_id":"free"},{"bike_id":"a0829565-00e3-4fc3-b994-e439e88d5dac","system_id":"levelo_inurba_marseille","lat":43.305368,"lon":5.367343,"is_reserved":false,"is_disabled":false,"rental_uris":{"android":"levelo://app?vid=a0829565-00e3-4fc3-b994-e439e88d5dac","ios":"levelo://app?vid=a0829565-00e3-4fc3-b994-e439e88d5dac"},"vehicle_type_id":"4","last_reported":1704877647,"current_range_meters":7200,"station_id":"ce4bgrp2rcd13ifvqc9g","pricing_plan_id":"free"},{"bike_id":"46d76dcb-3179-4a3f-ab0a-74637fe9a6aa","system_id":"levelo_inurba_marseille","lat":43.305368,"lon":5.367343,"is_reserved":false,"is_disabled":false,"rental_uris":{"android":"levelo://app?vid=46d76dcb-3179-4a3f-ab0a-74637fe9a6aa","ios":"levelo://app?vid=46d76dcb-3179-4a3f-ab0a-74637fe9a6aa"},"vehicle_type_id":"4","last_reported":1704877647,"current_range_meters":14400,"station_id":"ce4bgrp2rcd13ifvqc9g","pricing_plan_id":"free"},{"bike_id":"e5f962e8-6669-4787-8461-f34f81e1e28a","system_id":"levelo_inurba_marseille","lat":43.305714,"lon":5.365633,"is_reserved":false,"is_disabled":false,"rental_uris":{"android":"levelo://app?vid=e5f962e8-6669-4787-8461-f34f81e1e28a","ios":"levelo://app?vid=e5f962e8-6669-4787-8461-f34f81e1e28a"},"vehicle_type_id":"4","last_reported":1704877647,"current_range_meters":28800,"station_id":"ce4bgs12rcd13ifvqcag","pricing_plan_id":"free"},{"bike_id":"e4312e89-9809-409e-bc38-0dc94acce425","system_id":"levelo_inurba_marseille","lat":43.305714,"lon":5.365633,"is_reserved":false,"is_disabled":false,"rental_uris":{"android":"levelo://app?vid=e4312e89-9809-409e-bc38-0dc94acce425","ios":"levelo://app?vid=e4312e89-9809-409e-bc38-0dc94acce425"},"vehicle_type_id":"4","last_reported":1704877647,"current_range_meters":28400,"station_id":"ce4bgs12rcd13ifvqcag","pricing_plan_id":"free"},{"bike_id":"c5539758-c990-44af-b790-52da18cb2458","system_id":"levelo_inurba_marseille","lat":43.305368,"lon":5.367343,"is_reserved":false,"is_disabled":false,"rental_uris":{"android":"levelo://app?vid=c5539758-c990-44af-b790-52da18cb2458","ios":"levelo://app?vid=c5539758-c990-44af-b790-52da18cb2458"},"vehicle_type_id":"4","last_reported":1704877647,"current_range_meters":5600,"station_id":"ce4bgrp2rcd13ifvqc9g","pricing_plan_id":"free"},{"bike_id":"e689c190-864d-4d79-a188-e79adc37e73f","system_id":"levelo_inurba_marseille","lat":43.305706,"lon":5.365654,"is_reserved":false,"is_disabled":false,"rental_uris":{"android":"levelo://app?vid=e689c190-864d-4d79-a188-e79adc37e73f","ios":"levelo://app?vid=e689c190-864d-4d79-a188-e79adc37e73f"},"vehicle_type_id":"4","last_reported":1704877647,"current_range_meters":13200,"station_id":"ce4bgs12rcd13ifvqcag","pricing_plan_id":"free"},{"bike_id":"fcd107de-d8a6-4457-9fb3-a9e665a222ff","system_id":"levelo_inurba_marseille","lat":43.305706,"lon":5.365654,"is_reserved":false,"is_disabled":false,"rental_uris":{"android":"levelo://app?vid=fcd107de-d8a6-4457-9fb3-a9e665a222ff","ios":"levelo://app?vid=fcd107de-d8a6-4457-9fb3-a9e665a222ff"},"vehicle_type_id":"4","last_reported":1704877647,"current_range_meters":16400,"station_id":"ce4bgs12rcd13ifvqcag","pricing_plan_id":"free"},{"bike_id":"53e92ba1-855f-4a93-ae1b-6120cda4af75","system_id":"levelo_inurba_marseille","lat":43.305706,"lon":5.365654,"is_reserved":false,"is_disabled":false,"rental_uris":{"android":"levelo://app?vid=53e92ba1-855f-4a93-ae1b-6120cda4af75","ios":"levelo://app?vid=53e92ba1-855f-4a93-ae1b-6120cda4af75"},"vehicle_type_id":"4","last_reported":1704877647,"current_range_meters":30000,"station_id":"ce4bgs12rcd13ifvqcag","pricing_plan_id":"free"},{"bike_id":"93e9843b-cb86-4ad2-834a-838248d014c2","system_id":"levelo_inurba_marseille","lat":43.305989,"lon":5.37225,"is_reserved":false,"is_disabled":false,"rental_uris":{"android":"levelo://app?vid=93e9843b-cb86-4ad2-834a-838248d014c2","ios":"levelo://app?vid=93e9843b-cb86-4ad2-834a-838248d014c2"},"vehicle_type_id":"4","last_reported":1704877647,"current_range_meters":29200,"station_id":"ce4bgqh2rcd13ifvqc4g","pricing_plan_id":"free"},{"bike_id":"7677becd-06fe-4fc6-98d7-83ae5b8b6bae","system_id":"levelo_inurba_marseille","lat":43.305989,"lon":5.37225,"is_reserved":false,"is_disabled":false,"rental_uris":{"android":"levelo://app?vid=7677becd-06fe-4fc6-98d7-83ae5b8b6bae","ios":"levelo://app?vid=7677becd-06fe-4fc6-98d7-83ae5b8b6bae"},"vehicle_type_id":"4","last_reported":1704877647,"current_range_meters":24400,"station_id":"ce4bgqh2rcd13ifvqc4g","pricing_plan_id":"free"},{"bike_id":"98cb0443-4bf9-48f7-82db-85b01bacce21","system_id":"levelo_inurba_marseille","lat":43.306042,"lon":5.372413,"is_reserved":false,"is_disabled":false,"rental_uris":{"android":"levelo://app?vid=98cb0443-4bf9-48f7-82db-85b01bacce21","ios":"levelo://app?vid=98cb0443-4bf9-48f7-82db-85b01bacce21"},"vehicle_type_id":"4","last_reported":1704877647,"current_range_meters":28000,"station_id":"ce4bgqh2rcd13ifvqc4g","pricing_plan_id":"free"},{"bike_id":"66cb6309-9162-4eb9-86fe-07c4974f436d","system_id":"levelo_inurba_marseille","lat":43.305989,"lon":5.37225,"is_reserved":false,"is_disabled":false,"rental_uris":{"android":"levelo://app?vid=66cb6309-9162-4eb9-86fe-07c4974f436d","ios":"levelo://app?vid=66cb6309-9162-4eb9-86fe-07c4974f436d"},"vehicle_type_id":"4","last_reported":1704877647,"current_range_meters":31200,"station_id":"ce4bgqh2rcd13ifvqc4g","pricing_plan_id":"free"},{"bike_id":"961b53d2-a391-4807-8d36-b5457a96a289","system_id":"levelo_inurba_marseille","lat":43.305989,"lon":5.37225,"is_reserved":false,"is_disabled":false,"rental_uris":{"android":"levelo://app?vid=961b53d2-a391-4807-8d36-b5457a96a289","ios":"levelo://app?vid=961b53d2-a391-4807-8d36-b5457a96a289"},"vehicle_type_id":"4","last_reported":1704877647,"current_range_meters":31200,"station_id":"ce4bgqh2rcd13ifvqc4g","pricing_plan_id":"free"},{"bike_id":"55acfcbf-3a21-4c9e-8d36-d5cc48cc6134","system_id":"levelo_inurba_marseille","lat":43.305989,"lon":5.37225,"is_reserved":false,"is_disabled":false,"rental_uris":{"android":"levelo://app?vid=55acfcbf-3a21-4c9e-8d36-d5cc48cc6134","ios":"levelo://app?vid=55acfcbf-3a21-4c9e-8d36-d5cc48cc6134"},"vehicle_type_id":"4","last_reported":1704877647,"current_range_meters":22800,"station_id":"ce4bgqh2rcd13ifvqc4g","pricing_plan_id":"free"},{"bike_id":"af9fe4ce-35e4-4185-b2c9-dbe5751cb175","system_id":"levelo_inurba_marseille","lat":43.311125,"lon":5.377624,"is_reserved":false,"is_disabled":false,"rental_uris":{"android":"levelo://app?vid=af9fe4ce-35e4-4185-b2c9-dbe5751cb175","ios":"levelo://app?vid=af9fe4ce-35e4-4185-b2c9-dbe5751cb175"},"vehicle_type_id":"4","last_reported":1704877647,"current_range_meters":18800,"station_id":"ce4bgt92rcd13ifvqcg0","pricing_plan_id":"free"},{"bike_id":"f1e5a6b5-9e3e-4402-b5eb-5f4526827fa8","system_id":"levelo_inurba_marseille","lat":43.311125,"lon":5.377624,"is_reserved":false,"is_disabled":false,"rental_uris":{"android":"levelo://app?vid=f1e5a6b5-9e3e-4402-b5eb-5f4526827fa8","ios":"levelo://app?vid=f1e5a6b5-9e3e-4402-b5eb-5f4526827fa8"},"vehicle_type_id":"4","last_reported":1704877647,"current_range_meters":24000,"station_id":"ce4bgt92rcd13ifvqcg0","pricing_plan_id":"free"},{"bike_id":"12789e48-fde7-4ce7-bfa6-372920137b7f","system_id":"levelo_inurba_marseille","lat":43.311193,"lon":5.37771,"is_reserved":false,"is_disabled":false,"rental_uris":{"android":"levelo://app?vid=12789e48-fde7-4ce7-bfa6-372920137b7f","ios":"levelo://app?vid=12789e48-fde7-4ce7-bfa6-372920137b7f"},"vehicle_type_id":"4","last_reported":1704877647,"current_range_meters":27200,"station_id":"ce4bgt92rcd13ifvqcg0","pricing_plan_id":"free"},{"bike_id":"fd5afc91-6135-4c0d-9b97-8844d2e58b55","system_id":"levelo_inurba_marseille","lat":43.307945,"lon":5.376487,"is_reserved":false,"is_disabled":false,"rental_uris":{"android":"levelo://app?vid=fd5afc91-6135-4c0d-9b97-8844d2e58b55","ios":"levelo://app?vid=fd5afc91-6135-4c0d-9b97-8844d2e58b55"},"vehicle_type_id":"4","last_reported":1704877647,"current_range_meters":31200,"station_id":"ce4bgv92rcd13ifvqcq0","pricing_plan_id":"free"},{"bike_id":"5edff1e9-c6eb-486c-833a-14d35c6e65e0","system_id":"levelo_inurba_marseille","lat":43.317075,"lon":5.377367,"is_reserved":false,"is_disabled":false,"rental_uris":{"android":"levelo://app?vid=5edff1e9-c6eb-486c-833a-14d35c6e65e0","ios":"levelo://app?vid=5edff1e9-c6eb-486c-833a-14d35c6e65e0"},"vehicle_type_id":"4","last_reported":1704877647,"current_range_meters":24000,"station_id":"ce4bgth2rcd13ifvqch0","pricing_plan_id":"free"},{"bike_id":"dd5387d2-458c-4283-9f14-5702c861ee74","system_id":"levelo_inurba_marseille","lat":43.317075,"lon":5.377367,"is_reserved":false,"is_disabled":false,"rental_uris":{"android":"levelo://app?vid=dd5387d2-458c-4283-9f14-5702c861ee74","ios":"levelo://app?vid=dd5387d2-458c-4283-9f14-5702c861ee74"},"vehicle_type_id":"4","last_reported":1704877647,"current_range_meters":31200,"station_id":"ce4bgth2rcd13ifvqch0","pricing_plan_id":"free"},{"bike_id":"d1c71a6d-c3e7-4f8a-a612-065af51348d2","system_id":"levelo_inurba_marseille","lat":43.317075,"lon":5.377367,"is_reserved":false,"is_disabled":false,"rental_uris":{"android":"levelo://app?vid=d1c71a6d-c3e7-4f8a-a612-065af51348d2","ios":"levelo://app?vid=d1c71a6d-c3e7-4f8a-a612-065af51348d2"},"vehicle_type_id":"4","last_reported":1704877647,"current_range_meters":18000,"station_id":"ce4bgth2rcd13ifvqch0","pricing_plan_id":"free"},{"bike_id":"9ab73fcb-f3fb-4603-a337-54776f7c6aa8","system_id":"levelo_inurba_marseille","lat":43.303046,"lon":5.368981,"is_reserved":false,"is_disabled":false,"rental_uris":{"android":"levelo://app?vid=9ab73fcb-f3fb-4603-a337-54776f7c6aa8","ios":"levelo://app?vid=9ab73fcb-f3fb-4603-a337-54776f7c6aa8"},"vehicle_type_id":"4","last_reported":1704877647,"current_range_meters":31200,"station_id":"ce4bgqh2rcd13ifvqc5g","pricing_plan_id":"free"},{"bike_id":"08bfdbf3-d1a7-4f71-a445-3b9b4b73206d","system_id":"levelo_inurba_marseille","lat":43.303146,"lon":5.369069,"is_reserved":false,"is_disabled":false,"rental_uris":{"android":"levelo://app?vid=08bfdbf3-d1a7-4f71-a445-3b9b4b73206d","ios":"levelo://app?vid=08bfdbf3-d1a7-4f71-a445-3b9b4b73206d"},"vehicle_type_id":"4","last_reported":1704877647,"current_range_meters":22800,"station_id":"ce4bgqh2rcd13ifvqc5g","pricing_plan_id":"free"},{"bike_id":"e4790442-4212-4bcd-957d-4c6cd301bd42","system_id":"levelo_inurba_marseille","lat":43.30304,"lon":5.368987,"is_reserved":false,"is_disabled":false,"rental_uris":{"android":"levelo://app?vid=e4790442-4212-4bcd-957d-4c6cd301bd42","ios":"levelo://app?vid=e4790442-4212-4bcd-957d-4c6cd301bd42"},"vehicle_type_id":"4","last_reported":1704877647,"current_range_meters":22000,"station_id":"ce4bgqh2rcd13ifvqc5g","pricing_plan_id":"free"},{"bike_id":"81c285aa-f562-4886-906e-229c7706d110","system_id":"levelo_inurba_marseille","lat":43.315424,"lon":5.38025,"is_reserved":false,"is_disabled":false,"rental_uris":{"android":"levelo://app?vid=81c285aa-f562-4886-906e-229c7706d110","ios":"levelo://app?vid=81c285aa-f562-4886-906e-229c7706d110"},"vehicle_type_id":"4","last_reported":1704877647,"current_range_meters":2800,"station_id":"ce4bhsp2rcd13ifvqi50","pricing_plan_id":"free"},{"bike_id":"49a83e0c-5b32-453a-8438-7c07353165da","system_id":"levelo_inurba_marseille","lat":43.301939,"lon":5.366286,"is_reserved":false,"is_disabled":false,"rental_uris":{"android":"levelo://app?vid=49a83e0c-5b32-453a-8438-7c07353165da","ios":"levelo://app?vid=49a83e0c-5b32-453a-8438-7c07353165da"},"vehicle_type_id":"4","last_reported":1704877647,"current_range_meters":24800,"station_id":"ce4bgrh2rcd13ifvqc8g","pricing_plan_id":"free"},{"bike_id":"366e6aca-cc12-4167-b204-eeafe9493c2d","system_id":"levelo_inurba_marseille","lat":43.301939,"lon":5.366286,"is_reserved":false,"is_disabled":false,"rental_uris":{"android":"levelo://app?vid=366e6aca-cc12-4167-b204-eeafe9493c2d","ios":"levelo://app?vid=366e6aca-cc12-4167-b204-eeafe9493c2d"},"vehicle_type_id":"4","last_reported":1704877647,"current_range_meters":30800,"station_id":"ce4bgrh2rcd13ifvqc8g","pricing_plan_id":"free"},{"bike_id":"442cd244-a890-4fab-bd44-b23fb436f558","system_id":"levelo_inurba_marseille","lat":43.301939,"lon":5.366286,"is_reserved":false,"is_disabled":false,"rental_uris":{"android":"levelo://app?vid=442cd244-a890-4fab-bd44-b23fb436f558","ios":"levelo://app?vid=442cd244-a890-4fab-bd44-b23fb436f558"},"vehicle_type_id":"4","last_reported":1704877647,"current_range_meters":22800,"station_id":"ce4bgrh2rcd13ifvqc8g","pricing_plan_id":"free"},{"bike_id":"3d679f23-b67e-42ed-9281-75c5c6ab5b3b","system_id":"levelo_inurba_marseille","lat":43.308012,"lon":5.381511,"is_reserved":false,"is_disabled":false,"rental_uris":{"android":"levelo://app?vid=3d679f23-b67e-42ed-9281-75c5c6ab5b3b","ios":"levelo://app?vid=3d679f23-b67e-42ed-9281-75c5c6ab5b3b"},"vehicle_type_id":"4","last_reported":1704877647,"current_range_meters":16000,"station_id":"ce4bgt12rcd13ifvqce0","pricing_plan_id":"free"},{"bike_id":"0ed787c3-d4a9-4fe8-be46-c0d29b081035","system_id":"levelo_inurba_marseille","lat":43.304606,"lon":5.379026,"is_reserved":false,"is_disabled":false,"rental_uris":{"android":"levelo://app?vid=0ed787c3-d4a9-4fe8-be46-c0d29b081035","ios":"levelo://app?vid=0ed787c3-d4a9-4fe8-be46-c0d29b081035"},"vehicle_type_id":"4","last_reported":1704877647,"current_range_meters":30800,"station_id":"ce4bgup2rcd13ifvqcn0","pricing_plan_id":"free"},{"bike_id":"726fda8c-542c-404b-a80e-40f5be8ac966","system_id":"levelo_inurba_marseille","lat":43.30475,"lon":5.379052,"is_reserved":false,"is_disabled":false,"rental_uris":{"android":"levelo://app?vid=726fda8c-542c-404b-a80e-40f5be8ac966","ios":"levelo://app?vid=726fda8c-542c-404b-a80e-40f5be8ac966"},"vehicle_type_id":"4","last_reported":1704877647,"current_range_meters":26800,"station_id":"ce4bgup2rcd13ifvqcn0","pricing_plan_id":"free"},{"bike_id":"f782db7b-3d44-4f12-bd82-55a91acfaf61","system_id":"levelo_inurba_marseille","lat":43.304658,"lon":5.378975,"is_reserved":false,"is_disabled":false,"rental_uris":{"android":"levelo://app?vid=f782db7b-3d44-4f12-bd82-55a91acfaf61","ios":"levelo://app?vid=f782db7b-3d44-4f12-bd82-55a91acfaf61"},"vehicle_type_id":"4","last_reported":1704877647,"current_range_meters":0,"station_id":"ce4bgup2rcd13ifvqcn0","pricing_plan_id":"free"},{"bike_id":"e7e98ff9-812f-45d0-832b-34e7a6affd97","system_id":"levelo_inurba_marseille","lat":43.30465,"lon":5.37898,"is_reserved":false,"is_disabled":false,"rental_uris":{"android":"levelo://app?vid=e7e98ff9-812f-45d0-832b-34e7a6affd97","ios":"levelo://app?vid=e7e98ff9-812f-45d0-832b-34e7a6affd97"},"vehicle_type_id":"4","last_reported":1704877647,"current_range_meters":26800,"station_id":"ce4bgup2rcd13ifvqcn0","pricing_plan_id":"free"},{"bike_id":"3baf1e84-f180-43b0-834d-371d8cdedc96","system_id":"levelo_inurba_marseille","lat":43.304606,"lon":5.379026,"is_reserved":false,"is_disabled":false,"rental_uris":{"android":"levelo://app?vid=3baf1e84-f180-43b0-834d-371d8cdedc96","ios":"levelo://app?vid=3baf1e84-f180-43b0-834d-371d8cdedc96"},"vehicle_type_id":"4","last_reported":1704877647,"current_range_meters":4800,"station_id":"ce4bgup2rcd13ifvqcn0","pricing_plan_id":"free"},{"bike_id":"f3024a02-cad0-4e53-8fac-c01eac4054bd","system_id":"levelo_inurba_marseille","lat":43.300827,"lon":5.365856,"is_reserved":false,"is_disabled":false,"rental_uris":{"android":"levelo://app?vid=f3024a02-cad0-4e53-8fac-c01eac4054bd","ios":"levelo://app?vid=f3024a02-cad0-4e53-8fac-c01eac4054bd"},"vehicle_type_id":"4","last_reported":1704877647,"current_range_meters":13600,"station_id":"","pricing_plan_id":"free"},{"bike_id":"2a7ac9d2-7904-49cc-a177-b960192be0bb","system_id":"levelo_inurba_marseille","lat":43.304606,"lon":5.379026,"is_reserved":false,"is_disabled":false,"rental_uris":{"android":"levelo://app?vid=2a7ac9d2-7904-49cc-a177-b960192be0bb","ios":"levelo://app?vid=2a7ac9d2-7904-49cc-a177-b960192be0bb"},"vehicle_type_id":"4","last_reported":1704877647,"current_range_meters":22000,"station_id":"ce4bgup2rcd13ifvqcn0","pricing_plan_id":"free"},{"bike_id":"7f77d63c-963a-4fea-9c1a-e6d96f35674f","system_id":"levelo_inurba_marseille","lat":43.304619,"lon":5.37896,"is_reserved":false,"is_disabled":false,"rental_uris":{"android":"levelo://app?vid=7f77d63c-963a-4fea-9c1a-e6d96f35674f","ios":"levelo://app?vid=7f77d63c-963a-4fea-9c1a-e6d96f35674f"},"vehicle_type_id":"4","last_reported":1704877647,"current_range_meters":30400,"station_id":"ce4bgup2rcd13ifvqcn0","pricing_plan_id":"free"},{"bike_id":"2762818f-f08e-4cdd-a6f8-779ead14a43a","system_id":"levelo_inurba_marseille","lat":43.304707,"lon":5.379085,"is_reserved":false,"is_disabled":false,"rental_uris":{"android":"levelo://app?vid=2762818f-f08e-4cdd-a6f8-779ead14a43a","ios":"levelo://app?vid=2762818f-f08e-4cdd-a6f8-779ead14a43a"},"vehicle_type_id":"4","last_reported":1704877647,"current_range_meters":12800,"station_id":"ce4bgup2rcd13ifvqcn0","pricing_plan_id":"free"},{"bike_id":"c6e381b6-2378-4c93-9d0b-552969bbae34","system_id":"levelo_inurba_marseille","lat":43.304653,"lon":5.37902,"is_reserved":false,"is_disabled":false,"rental_uris":{"android":"levelo://app?vid=c6e381b6-2378-4c93-9d0b-552969bbae34","ios":"levelo://app?vid=c6e381b6-2378-4c93-9d0b-552969bbae34"},"vehicle_type_id":"4","last_reported":1704877647,"current_range_meters":11600,"station_id":"ce4bgup2rcd13ifvqcn0","pricing_plan_id":"free"},{"bike_id":"f01320ac-d669-480e-b9c6-477f0424ea65","system_id":"levelo_inurba_marseille","lat":43.304632,"lon":5.379018,"is_reserved":false,"is_disabled":false,"rental_uris":{"android":"levelo://app?vid=f01320ac-d669-480e-b9c6-477f0424ea65","ios":"levelo://app?vid=f01320ac-d669-480e-b9c6-477f0424ea65"},"vehicle_type_id":"4","last_reported":1704877647,"current_range_meters":14800,"station_id":"ce4bgup2rcd13ifvqcn0","pricing_plan_id":"free"},{"bike_id":"96ce3e3a-c1a0-41f8-9084-68f3c38640f0","system_id":"levelo_inurba_marseille","lat":43.304606,"lon":5.379026,"is_reserved":false,"is_disabled":false,"rental_uris":{"android":"levelo://app?vid=96ce3e3a-c1a0-41f8-9084-68f3c38640f0","ios":"levelo://app?vid=96ce3e3a-c1a0-41f8-9084-68f3c38640f0"},"vehicle_type_id":"4","last_reported":1704877647,"current_range_meters":28000,"station_id":"ce4bgup2rcd13ifvqcn0","pricing_plan_id":"free"},{"bike_id":"dbbbe036-ec28-4924-b1cb-2dc154f3acc0","system_id":"levelo_inurba_marseille","lat":43.304578,"lon":5.378977,"is_reserved":false,"is_disabled":false,"rental_uris":{"android":"levelo://app?vid=dbbbe036-ec28-4924-b1cb-2dc154f3acc0","ios":"levelo://app?vid=dbbbe036-ec28-4924-b1cb-2dc154f3acc0"},"vehicle_type_id":"4","last_reported":1704877647,"current_range_meters":30800,"station_id":"ce4bgup2rcd13ifvqcn0","pricing_plan_id":"free"},{"bike_id":"7d420c98-0b06-423c-b0c8-1561f890fa77","system_id":"levelo_inurba_marseille","lat":43.304636,"lon":5.379061,"is_reserved":false,"is_disabled":false,"rental_uris":{"android":"levelo://app?vid=7d420c98-0b06-423c-b0c8-1561f890fa77","ios":"levelo://app?vid=7d420c98-0b06-423c-b0c8-1561f890fa77"},"vehicle_type_id":"4","last_reported":1704877647,"current_range_meters":22800,"station_id":"ce4bgup2rcd13ifvqcn0","pricing_plan_id":"free"},{"bike_id":"58544bb4-648f-4122-b9c8-a949055f3737","system_id":"levelo_inurba_marseille","lat":43.3046,"lon":5.37903,"is_reserved":false,"is_disabled":false,"rental_uris":{"android":"levelo://app?vid=58544bb4-648f-4122-b9c8-a949055f3737","ios":"levelo://app?vid=58544bb4-648f-4122-b9c8-a949055f3737"},"vehicle_type_id":"4","last_reported":1704877647,"current_range_meters":31200,"station_id":"ce4bgup2rcd13ifvqcn0","pricing_plan_id":"free"},{"bike_id":"c720980a-e294-46d3-9b21-6ede52506549","system_id":"levelo_inurba_marseille","lat":43.30466,"lon":5.37911,"is_reserved":false,"is_disabled":false,"rental_uris":{"android":"levelo://app?vid=c720980a-e294-46d3-9b21-6ede52506549","ios":"levelo://app?vid=c720980a-e294-46d3-9b21-6ede52506549"},"vehicle_type_id":"4","last_reported":1704877647,"current_range_meters":27200,"station_id":"ce4bgup2rcd13ifvqcn0","pricing_plan_id":"free"},{"bike_id":"d602e65d-3cb1-4169-a2d1-8a935aac4a6e","system_id":"levelo_inurba_marseille","lat":43.304606,"lon":5.379026,"is_reserved":false,"is_disabled":false,"rental_uris":{"android":"levelo://app?vid=d602e65d-3cb1-4169-a2d1-8a935aac4a6e","ios":"levelo://app?vid=d602e65d-3cb1-4169-a2d1-8a935aac4a6e"},"vehicle_type_id":"4","last_reported":1704877647,"current_range_meters":27200,"station_id":"ce4bgup2rcd13ifvqcn0","pricing_plan_id":"free"},{"bike_id":"9c1905d3-188e-46aa-8b77-08f55bf0ebee","system_id":"levelo_inurba_marseille","lat":43.30461,"lon":5.37906,"is_reserved":false,"is_disabled":false,"rental_uris":{"android":"levelo://app?vid=9c1905d3-188e-46aa-8b77-08f55bf0ebee","ios":"levelo://app?vid=9c1905d3-188e-46aa-8b77-08f55bf0ebee"},"vehicle_type_id":"4","last_reported":1704877647,"current_range_meters":27200,"station_id":"ce4bgup2rcd13ifvqcn0","pricing_plan_id":"free"},{"bike_id":"34adee7a-5614-443f-b024-af7c605779d7","system_id":"levelo_inurba_marseille","lat":43.304606,"lon":5.379026,"is_reserved":false,"is_disabled":false,"rental_uris":{"android":"levelo://app?vid=34adee7a-5614-443f-b024-af7c605779d7","ios":"levelo://app?vid=34adee7a-5614-443f-b024-af7c605779d7"},"vehicle_type_id":"4","last_reported":1704877647,"current_range_meters":29200,"station_id":"ce4bgup2rcd13ifvqcn0","pricing_plan_id":"free"},{"bike_id":"220aae56-447a-48f4-ab40-eed9edac2098","system_id":"levelo_inurba_marseille","lat":43.3046,"lon":5.37906,"is_reserved":false,"is_disabled":false,"rental_uris":{"android":"levelo://app?vid=220aae56-447a-48f4-ab40-eed9edac2098","ios":"levelo://app?vid=220aae56-447a-48f4-ab40-eed9edac2098"},"vehicle_type_id":"4","last_reported":1704877647,"current_range_meters":17200,"station_id":"ce4bgup2rcd13ifvqcn0","pricing_plan_id":"free"},{"bike_id":"485bcd57-ad8e-4677-8a72-302f6c1c9d6a","system_id":"levelo_inurba_marseille","lat":43.304606,"lon":5.379026,"is_reserved":false,"is_disabled":false,"rental_uris":{"android":"levelo://app?vid=485bcd57-ad8e-4677-8a72-302f6c1c9d6a","ios":"levelo://app?vid=485bcd57-ad8e-4677-8a72-302f6c1c9d6a"},"vehicle_type_id":"4","last_reported":1704877647,"current_range_meters":20800,"station_id":"ce4bgup2rcd13ifvqcn0","pricing_plan_id":"free"},{"bike_id":"6a7ed5ee-991d-4fc1-b9c2-0790f6ce3f3f","system_id":"levelo_inurba_marseille","lat":43.30461,"lon":5.37909,"is_reserved":false,"is_disabled":false,"rental_uris":{"android":"levelo://app?vid=6a7ed5ee-991d-4fc1-b9c2-0790f6ce3f3f","ios":"levelo://app?vid=6a7ed5ee-991d-4fc1-b9c2-0790f6ce3f3f"},"vehicle_type_id":"4","last_reported":1704877647,"current_range_meters":20000,"station_id":"ce4bgup2rcd13ifvqcn0","pricing_plan_id":"free"},{"bike_id":"592186ea-9749-4077-a128-39abeba103d1","system_id":"levelo_inurba_marseille","lat":43.32475,"lon":5.3656,"is_reserved":false,"is_disabled":false,"rental_uris":{"android":"levelo://app?vid=592186ea-9749-4077-a128-39abeba103d1","ios":"levelo://app?vid=592186ea-9749-4077-a128-39abeba103d1"},"vehicle_type_id":"4","last_reported":1704877647,"current_range_meters":8400,"station_id":"ce4bhs12rcd13ifvqhvg","pricing_plan_id":"free"},{"bike_id":"2aa100e7-2671-4c1b-a1f0-ab7832afcbad","system_id":"levelo_inurba_marseille","lat":43.324771,"lon":5.36557,"is_reserved":false,"is_disabled":false,"rental_uris":{"android":"levelo://app?vid=2aa100e7-2671-4c1b-a1f0-ab7832afcbad","ios":"levelo://app?vid=2aa100e7-2671-4c1b-a1f0-ab7832afcbad"},"vehicle_type_id":"4","last_reported":1704877647,"current_range_meters":13200,"station_id":"ce4bhs12rcd13ifvqhvg","pricing_plan_id":"free"},{"bike_id":"bb02e8fc-1b1a-442d-be08-908b3392a957","system_id":"levelo_inurba_marseille","lat":43.324771,"lon":5.36557,"is_reserved":false,"is_disabled":false,"rental_uris":{"android":"levelo://app?vid=bb02e8fc-1b1a-442d-be08-908b3392a957","ios":"levelo://app?vid=bb02e8fc-1b1a-442d-be08-908b3392a957"},"vehicle_type_id":"4","last_reported":1704877647,"current_range_meters":13200,"station_id":"ce4bhs12rcd13ifvqhvg","pricing_plan_id":"free"},{"bike_id":"9a5d20fc-5739-4188-aece-a966211e1333","system_id":"levelo_inurba_marseille","lat":43.324771,"lon":5.36557,"is_reserved":false,"is_disabled":false,"rental_uris":{"android":"levelo://app?vid=9a5d20fc-5739-4188-aece-a966211e1333","ios":"levelo://app?vid=9a5d20fc-5739-4188-aece-a966211e1333"},"vehicle_type_id":"4","last_reported":1704877647,"current_range_meters":2000,"station_id":"ce4bhs12rcd13ifvqhvg","pricing_plan_id":"free"},{"bike_id":"ee926864-2611-4e6a-bfd8-5fc91eba9acd","system_id":"levelo_inurba_marseille","lat":43.324771,"lon":5.36557,"is_reserved":false,"is_disabled":false,"rental_uris":{"android":"levelo://app?vid=ee926864-2611-4e6a-bfd8-5fc91eba9acd","ios":"levelo://app?vid=ee926864-2611-4e6a-bfd8-5fc91eba9acd"},"vehicle_type_id":"4","last_reported":1704877647,"current_range_meters":19200,"station_id":"ce4bhs12rcd13ifvqhvg","pricing_plan_id":"free"},{"bike_id":"ff7d6d39-92d2-4309-910f-696520f9158d","system_id":"levelo_inurba_marseille","lat":43.324771,"lon":5.36557,"is_reserved":false,"is_disabled":false,"rental_uris":{"android":"levelo://app?vid=ff7d6d39-92d2-4309-910f-696520f9158d","ios":"levelo://app?vid=ff7d6d39-92d2-4309-910f-696520f9158d"},"vehicle_type_id":"4","last_reported":1704877647,"current_range_meters":13200,"station_id":"ce4bhs12rcd13ifvqhvg","pricing_plan_id":"free"},{"bike_id":"ab43eba4-1628-4ae9-9265-d18b2b020df2","system_id":"levelo_inurba_marseille","lat":43.30285,"lon":5.37696,"is_reserved":false,"is_disabled":false,"rental_uris":{"android":"levelo://app?vid=ab43eba4-1628-4ae9-9265-d18b2b020df2","ios":"levelo://app?vid=ab43eba4-1628-4ae9-9265-d18b2b020df2"},"vehicle_type_id":"4","last_reported":1704877647,"current_range_meters":16400,"station_id":"","pricing_plan_id":"free"},{"bike_id":"7f6bc609-3757-4b4e-b33d-a13fdcaf9c44","system_id":"levelo_inurba_marseille","lat":43.302775,"lon":5.37707,"is_reserved":false,"is_disabled":false,"rental_uris":{"android":"levelo://app?vid=7f6bc609-3757-4b4e-b33d-a13fdcaf9c44","ios":"levelo://app?vid=7f6bc609-3757-4b4e-b33d-a13fdcaf9c44"},"vehicle_type_id":"4","last_reported":1704877647,"current_range_meters":27600,"station_id":"","pricing_plan_id":"free"},{"bike_id":"16d9ac23-f201-48e1-9659-a79db293c170","system_id":"levelo_inurba_marseille","lat":43.30281,"lon":5.37726,"is_reserved":false,"is_disabled":false,"rental_uris":{"android":"levelo://app?vid=16d9ac23-f201-48e1-9659-a79db293c170","ios":"levelo://app?vid=16d9ac23-f201-48e1-9659-a79db293c170"},"vehicle_type_id":"4","last_reported":1704877647,"current_range_meters":25600,"station_id":"","pricing_plan_id":"free"},{"bike_id":"5015fdfb-9613-47af-b70d-d9807c30e5b0","system_id":"levelo_inurba_marseille","lat":43.30274,"lon":5.37716,"is_reserved":false,"is_disabled":false,"rental_uris":{"android":"levelo://app?vid=5015fdfb-9613-47af-b70d-d9807c30e5b0","ios":"levelo://app?vid=5015fdfb-9613-47af-b70d-d9807c30e5b0"},"vehicle_type_id":"4","last_reported":1704877647,"current_range_meters":2000,"station_id":"","pricing_plan_id":"free"},{"bike_id":"b9470094-4555-4f89-9bb3-8b648ab442a3","system_id":"levelo_inurba_marseille","lat":43.301465,"lon":5.374256,"is_reserved":false,"is_disabled":false,"rental_uris":{"android":"levelo://app?vid=b9470094-4555-4f89-9bb3-8b648ab442a3","ios":"levelo://app?vid=b9470094-4555-4f89-9bb3-8b648ab442a3"},"vehicle_type_id":"4","last_reported":1704877647,"current_range_meters":14800,"station_id":"","pricing_plan_id":"free"},{"bike_id":"1feab9c2-9c91-48cf-a1aa-d7e41159f40b","system_id":"levelo_inurba_marseille","lat":43.301429,"lon":5.37413,"is_reserved":false,"is_disabled":false,"rental_uris":{"android":"levelo://app?vid=1feab9c2-9c91-48cf-a1aa-d7e41159f40b","ios":"levelo://app?vid=1feab9c2-9c91-48cf-a1aa-d7e41159f40b"},"vehicle_type_id":"4","last_reported":1704877647,"current_range_meters":20000,"station_id":"ce4bgs92rcd13ifvqcc0","pricing_plan_id":"free"},{"bike_id":"36f64b5c-c0c7-473d-acce-0a7cc87a82dc","system_id":"levelo_inurba_marseille","lat":43.313571,"lon":5.384829,"is_reserved":false,"is_disabled":false,"rental_uris":{"android":"levelo://app?vid=36f64b5c-c0c7-473d-acce-0a7cc87a82dc","ios":"levelo://app?vid=36f64b5c-c0c7-473d-acce-0a7cc87a82dc"},"vehicle_type_id":"4","last_reported":1704877647,"current_range_meters":2000,"station_id":"ce4bgt92rcd13ifvqcf0","pricing_plan_id":"free"},{"bike_id":"1937c52d-ff86-4c7e-a592-7423dc8c3d60","system_id":"levelo_inurba_marseille","lat":43.313571,"lon":5.384829,"is_reserved":false,"is_disabled":false,"rental_uris":{"android":"levelo://app?vid=1937c52d-ff86-4c7e-a592-7423dc8c3d60","ios":"levelo://app?vid=1937c52d-ff86-4c7e-a592-7423dc8c3d60"},"vehicle_type_id":"4","last_reported":1704877647,"current_range_meters":26000,"station_id":"ce4bgt92rcd13ifvqcf0","pricing_plan_id":"free"},{"bike_id":"287c313b-a022-4815-a68c-c776b48902ca","system_id":"levelo_inurba_marseille","lat":43.313571,"lon":5.384829,"is_reserved":false,"is_disabled":false,"rental_uris":{"android":"levelo://app?vid=287c313b-a022-4815-a68c-c776b48902ca","ios":"levelo://app?vid=287c313b-a022-4815-a68c-c776b48902ca"},"vehicle_type_id":"4","last_reported":1704877647,"current_range_meters":20800,"station_id":"ce4bgt92rcd13ifvqcf0","pricing_plan_id":"free"},{"bike_id":"5e3ae350-92fc-4f1a-91e5-fca6c6157e9c","system_id":"levelo_inurba_marseille","lat":43.314305,"lon":5.385497,"is_reserved":false,"is_disabled":false,"rental_uris":{"android":"levelo://app?vid=5e3ae350-92fc-4f1a-91e5-fca6c6157e9c","ios":"levelo://app?vid=5e3ae350-92fc-4f1a-91e5-fca6c6157e9c"},"vehicle_type_id":"4","last_reported":1704877647,"current_range_meters":9200,"station_id":"","pricing_plan_id":"free"},{"bike_id":"c223abca-e423-478c-b4ca-7ca67bf7024f","system_id":"levelo_inurba_marseille","lat":43.298433,"lon":5.362774,"is_reserved":false,"is_disabled":false,"rental_uris":{"android":"levelo://app?vid=c223abca-e423-478c-b4ca-7ca67bf7024f","ios":"levelo://app?vid=c223abca-e423-478c-b4ca-7ca67bf7024f"},"vehicle_type_id":"4","last_reported":1704877647,"current_range_meters":21600,"station_id":"ce4bgpp2rcd13ifvqc3g","pricing_plan_id":"free"},{"bike_id":"0a4c8bd4-ec03-4f8d-b71a-478a46f333fa","system_id":"levelo_inurba_marseille","lat":43.298433,"lon":5.362774,"is_reserved":false,"is_disabled":false,"rental_uris":{"android":"levelo://app?vid=0a4c8bd4-ec03-4f8d-b71a-478a46f333fa","ios":"levelo://app?vid=0a4c8bd4-ec03-4f8d-b71a-478a46f333fa"},"vehicle_type_id":"4","last_reported":1704877647,"current_range_meters":10400,"station_id":"ce4bgpp2rcd13ifvqc3g","pricing_plan_id":"free"},{"bike_id":"62845ea1-7dfd-447b-8f91-b4abb92609d3","system_id":"levelo_inurba_marseille","lat":43.299243,"lon":5.37481,"is_reserved":false,"is_disabled":false,"rental_uris":{"android":"levelo://app?vid=62845ea1-7dfd-447b-8f91-b4abb92609d3","ios":"levelo://app?vid=62845ea1-7dfd-447b-8f91-b4abb92609d3"},"vehicle_type_id":"4","last_reported":1704877647,"current_range_meters":3200,"station_id":"ce4bgjh2rcd13ifvqbg0","pricing_plan_id":"free"},{"bike_id":"f7a9b889-8f67-44dd-921b-763daff9e184","system_id":"levelo_inurba_marseille","lat":43.298433,"lon":5.362774,"is_reserved":false,"is_disabled":false,"rental_uris":{"android":"levelo://app?vid=f7a9b889-8f67-44dd-921b-763daff9e184","ios":"levelo://app?vid=f7a9b889-8f67-44dd-921b-763daff9e184"},"vehicle_type_id":"4","last_reported":1704877647,"current_range_meters":15600,"station_id":"ce4bgpp2rcd13ifvqc3g","pricing_plan_id":"free"},{"bike_id":"75f55441-4601-47b7-98ed-6009c4951b3b","system_id":"levelo_inurba_marseille","lat":43.299243,"lon":5.374807,"is_reserved":false,"is_disabled":false,"rental_uris":{"android":"levelo://app?vid=75f55441-4601-47b7-98ed-6009c4951b3b","ios":"levelo://app?vid=75f55441-4601-47b7-98ed-6009c4951b3b"},"vehicle_type_id":"4","last_reported":1704877647,"current_range_meters":30400,"station_id":"ce4bgjh2rcd13ifvqbg0","pricing_plan_id":"free"},{"bike_id":"847622eb-fbf7-41bb-9f24-e9ae639dad0b","system_id":"levelo_inurba_marseille","lat":43.298433,"lon":5.362774,"is_reserved":false,"is_disabled":false,"rental_uris":{"android":"levelo://app?vid=847622eb-fbf7-41bb-9f24-e9ae639dad0b","ios":"levelo://app?vid=847622eb-fbf7-41bb-9f24-e9ae639dad0b"},"vehicle_type_id":"4","last_reported":1704877647,"current_range_meters":28800,"station_id":"ce4bgpp2rcd13ifvqc3g","pricing_plan_id":"free"},{"bike_id":"a6021900-4850-4e39-95ba-ceb590a0b42b","system_id":"levelo_inurba_marseille","lat":43.298433,"lon":5.362774,"is_reserved":false,"is_disabled":false,"rental_uris":{"android":"levelo://app?vid=a6021900-4850-4e39-95ba-ceb590a0b42b","ios":"levelo://app?vid=a6021900-4850-4e39-95ba-ceb590a0b42b"},"vehicle_type_id":"4","last_reported":1704877647,"current_range_meters":15600,"station_id":"ce4bgpp2rcd13ifvqc3g","pricing_plan_id":"free"},{"bike_id":"b72e05c9-d31b-4f30-b9de-0b8f35281d98","system_id":"levelo_inurba_marseille","lat":43.311722,"lon":5.387247,"is_reserved":false,"is_disabled":false,"rental_uris":{"android":"levelo://app?vid=b72e05c9-d31b-4f30-b9de-0b8f35281d98","ios":"levelo://app?vid=b72e05c9-d31b-4f30-b9de-0b8f35281d98"},"vehicle_type_id":"4","last_reported":1704877647,"current_range_meters":22800,"station_id":"ce4bgv12rcd13ifvqcp0","pricing_plan_id":"free"},{"bike_id":"2a9af894-d5e2-43af-a3ee-381d888c08fb","system_id":"levelo_inurba_marseille","lat":43.299243,"lon":5.374807,"is_reserved":false,"is_disabled":false,"rental_uris":{"android":"levelo://app?vid=2a9af894-d5e2-43af-a3ee-381d888c08fb","ios":"levelo://app?vid=2a9af894-d5e2-43af-a3ee-381d888c08fb"},"vehicle_type_id":"4","last_reported":1704877647,"current_range_meters":30400,"station_id":"ce4bgjh2rcd13ifvqbg0","pricing_plan_id":"free"},{"bike_id":"5dd3b165-9b88-4449-94d9-7b0281d1c735","system_id":"levelo_inurba_marseille","lat":43.299243,"lon":5.37481,"is_reserved":false,"is_disabled":false,"rental_uris":{"android":"levelo://app?vid=5dd3b165-9b88-4449-94d9-7b0281d1c735","ios":"levelo://app?vid=5dd3b165-9b88-4449-94d9-7b0281d1c735"},"vehicle_type_id":"4","last_reported":1704877647,"current_range_meters":31200,"station_id":"ce4bgjh2rcd13ifvqbg0","pricing_plan_id":"free"},{"bike_id":"0c80e788-c914-4ce5-ac89-bf43470464de","system_id":"levelo_inurba_marseille","lat":43.299243,"lon":5.37481,"is_reserved":false,"is_disabled":false,"rental_uris":{"android":"levelo://app?vid=0c80e788-c914-4ce5-ac89-bf43470464de","ios":"levelo://app?vid=0c80e788-c914-4ce5-ac89-bf43470464de"},"vehicle_type_id":"4","last_reported":1704877647,"current_range_meters":23200,"station_id":"ce4bgjh2rcd13ifvqbg0","pricing_plan_id":"free"},{"bike_id":"fd371294-2b40-4c3a-8908-59c8a6ff83c5","system_id":"levelo_inurba_marseille","lat":43.29786,"lon":5.37102,"is_reserved":false,"is_disabled":false,"rental_uris":{"android":"levelo://app?vid=fd371294-2b40-4c3a-8908-59c8a6ff83c5","ios":"levelo://app?vid=fd371294-2b40-4c3a-8908-59c8a6ff83c5"},"vehicle_type_id":"4","last_reported":1704877647,"current_range_meters":26400,"station_id":"ce4bgop2rcd13ifvqc1g","pricing_plan_id":"free"},{"bike_id":"b4c8f863-cd30-4a6c-85da-8ff8be11a4ad","system_id":"levelo_inurba_marseille","lat":43.297794,"lon":5.370888,"is_reserved":false,"is_disabled":false,"rental_uris":{"android":"levelo://app?vid=b4c8f863-cd30-4a6c-85da-8ff8be11a4ad","ios":"levelo://app?vid=b4c8f863-cd30-4a6c-85da-8ff8be11a4ad"},"vehicle_type_id":"4","last_reported":1704877647,"current_range_meters":27600,"station_id":"ce4bgop2rcd13ifvqc1g","pricing_plan_id":"free"},{"bike_id":"965e06bb-d727-441b-b835-de8a0777d9ea","system_id":"levelo_inurba_marseille","lat":43.32281,"lon":5.38272,"is_reserved":false,"is_disabled":false,"rental_uris":{"android":"levelo://app?vid=965e06bb-d727-441b-b835-de8a0777d9ea","ios":"levelo://app?vid=965e06bb-d727-441b-b835-de8a0777d9ea"},"vehicle_type_id":"4","last_reported":1704877647,"current_range_meters":0,"station_id":"ce4bhr12rcd13ifvqhqg","pricing_plan_id":"free"},{"bike_id":"e5f64b36-ecfd-4fac-a3a5-5904b691c001","system_id":"levelo_inurba_marseille","lat":43.322872,"lon":5.382756,"is_reserved":false,"is_disabled":false,"rental_uris":{"android":"levelo://app?vid=e5f64b36-ecfd-4fac-a3a5-5904b691c001","ios":"levelo://app?vid=e5f64b36-ecfd-4fac-a3a5-5904b691c001"},"vehicle_type_id":"4","last_reported":1704877647,"current_range_meters":30400,"station_id":"ce4bhr12rcd13ifvqhqg","pricing_plan_id":"free"},{"bike_id":"72905f78-9c33-4138-8385-d331d9223abd","system_id":"levelo_inurba_marseille","lat":43.32823,"lon":5.36686,"is_reserved":false,"is_disabled":false,"rental_uris":{"android":"levelo://app?vid=72905f78-9c33-4138-8385-d331d9223abd","ios":"levelo://app?vid=72905f78-9c33-4138-8385-d331d9223abd"},"vehicle_type_id":"4","last_reported":1704877647,"current_range_meters":2000,"station_id":"ce4bhs92rcd13ifvqi0g","pricing_plan_id":"free"},{"bike_id":"d68ce626-ef98-4d52-b3b3-f34d703a806b","system_id":"levelo_inurba_marseille","lat":43.32828,"lon":5.36679,"is_reserved":false,"is_disabled":false,"rental_uris":{"android":"levelo://app?vid=d68ce626-ef98-4d52-b3b3-f34d703a806b","ios":"levelo://app?vid=d68ce626-ef98-4d52-b3b3-f34d703a806b"},"vehicle_type_id":"4","last_reported":1704877647,"current_range_meters":22400,"station_id":"ce4bhs92rcd13ifvqi0g","pricing_plan_id":"free"},{"bike_id":"387c1dff-fb7e-4547-838e-1af3f69c4219","system_id":"levelo_inurba_marseille","lat":43.328289,"lon":5.366808,"is_reserved":false,"is_disabled":false,"rental_uris":{"android":"levelo://app?vid=387c1dff-fb7e-4547-838e-1af3f69c4219","ios":"levelo://app?vid=387c1dff-fb7e-4547-838e-1af3f69c4219"},"vehicle_type_id":"4","last_reported":1704877647,"current_range_meters":9600,"station_id":"ce4bhs92rcd13ifvqi0g","pricing_plan_id":"free"},{"bike_id":"66addf4b-70b7-4ac4-8e17-37956e9ecfbb","system_id":"levelo_inurba_marseille","lat":43.32829,"lon":5.36677,"is_reserved":false,"is_disabled":false,"rental_uris":{"android":"levelo://app?vid=66addf4b-70b7-4ac4-8e17-37956e9ecfbb","ios":"levelo://app?vid=66addf4b-70b7-4ac4-8e17-37956e9ecfbb"},"vehicle_type_id":"4","last_reported":1704877647,"current_range_meters":6800,"station_id":"ce4bhs92rcd13ifvqi0g","pricing_plan_id":"free"},{"bike_id":"1f1a5220-6426-49f4-89de-c9c79ed6428d","system_id":"levelo_inurba_marseille","lat":43.328306,"lon":5.36682,"is_reserved":false,"is_disabled":false,"rental_uris":{"android":"levelo://app?vid=1f1a5220-6426-49f4-89de-c9c79ed6428d","ios":"levelo://app?vid=1f1a5220-6426-49f4-89de-c9c79ed6428d"},"vehicle_type_id":"4","last_reported":1704877647,"current_range_meters":10800,"station_id":"ce4bhs92rcd13ifvqi0g","pricing_plan_id":"free"},{"bike_id":"a70069dc-f773-452d-9d3a-320d0014d11e","system_id":"levelo_inurba_marseille","lat":43.328308,"lon":5.366713,"is_reserved":false,"is_disabled":false,"rental_uris":{"android":"levelo://app?vid=a70069dc-f773-452d-9d3a-320d0014d11e","ios":"levelo://app?vid=a70069dc-f773-452d-9d3a-320d0014d11e"},"vehicle_type_id":"4","last_reported":1704877647,"current_range_meters":19200,"station_id":"ce4bhs92rcd13ifvqi0g","pricing_plan_id":"free"},{"bike_id":"fb45f142-a2e6-4b54-b6fd-5660ca2c1fe5","system_id":"levelo_inurba_marseille","lat":43.32832,"lon":5.36681,"is_reserved":false,"is_disabled":false,"rental_uris":{"android":"levelo://app?vid=fb45f142-a2e6-4b54-b6fd-5660ca2c1fe5","ios":"levelo://app?vid=fb45f142-a2e6-4b54-b6fd-5660ca2c1fe5"},"vehicle_type_id":"4","last_reported":1704877647,"current_range_meters":23200,"station_id":"ce4bhs92rcd13ifvqi0g","pricing_plan_id":"free"},{"bike_id":"331410e4-8362-40e5-8b58-6a53f46a25bd","system_id":"levelo_inurba_marseille","lat":43.32832,"lon":5.36679,"is_reserved":false,"is_disabled":false,"rental_uris":{"android":"levelo://app?vid=331410e4-8362-40e5-8b58-6a53f46a25bd","ios":"levelo://app?vid=331410e4-8362-40e5-8b58-6a53f46a25bd"},"vehicle_type_id":"4","last_reported":1704877647,"current_range_meters":12400,"station_id":"ce4bhs92rcd13ifvqi0g","pricing_plan_id":"free"},{"bike_id":"b417e045-2acd-45ab-8543-5d87cc32d878","system_id":"levelo_inurba_marseille","lat":43.328323,"lon":5.366768,"is_reserved":false,"is_disabled":false,"rental_uris":{"android":"levelo://app?vid=b417e045-2acd-45ab-8543-5d87cc32d878","ios":"levelo://app?vid=b417e045-2acd-45ab-8543-5d87cc32d878"},"vehicle_type_id":"4","last_reported":1704877647,"current_range_meters":9200,"station_id":"ce4bhs92rcd13ifvqi0g","pricing_plan_id":"free"},{"bike_id":"94aef639-2d24-4db9-9f77-d718bacb1edd","system_id":"levelo_inurba_marseille","lat":43.297163,"lon":5.365866,"is_reserved":false,"is_disabled":false,"rental_uris":{"android":"levelo://app?vid=94aef639-2d24-4db9-9f77-d718bacb1edd","ios":"levelo://app?vid=94aef639-2d24-4db9-9f77-d718bacb1edd"},"vehicle_type_id":"4","last_reported":1704877647,"current_range_meters":26000,"station_id":"ce4bgn12rcd13ifvqbt0","pricing_plan_id":"free"},{"bike_id":"5d17fcc1-ee1a-4e36-8844-4f9946d324b0","system_id":"levelo_inurba_marseille","lat":43.297004,"lon":5.365984,"is_reserved":false,"is_disabled":false,"rental_uris":{"android":"levelo://app?vid=5d17fcc1-ee1a-4e36-8844-4f9946d324b0","ios":"levelo://app?vid=5d17fcc1-ee1a-4e36-8844-4f9946d324b0"},"vehicle_type_id":"4","last_reported":1704877647,"current_range_meters":14400,"station_id":"ce4bgn12rcd13ifvqbt0","pricing_plan_id":"free"},{"bike_id":"7a74f40d-ab20-47c1-8402-a25e7aabb01a","system_id":"levelo_inurba_marseille","lat":43.307945,"lon":5.376487,"is_reserved":false,"is_disabled":false,"rental_uris":{"android":"levelo://app?vid=7a74f40d-ab20-47c1-8402-a25e7aabb01a","ios":"levelo://app?vid=7a74f40d-ab20-47c1-8402-a25e7aabb01a"},"vehicle_type_id":"4","last_reported":1704877647,"current_range_meters":27200,"station_id":"ce4bgv92rcd13ifvqcq0","pricing_plan_id":"free"},{"bike_id":"0e21c0e1-cd91-41f5-a668-23429ce9066e","system_id":"levelo_inurba_marseille","lat":43.296801,"lon":5.372822,"is_reserved":false,"is_disabled":false,"rental_uris":{"android":"levelo://app?vid=0e21c0e1-cd91-41f5-a668-23429ce9066e","ios":"levelo://app?vid=0e21c0e1-cd91-41f5-a668-23429ce9066e"},"vehicle_type_id":"4","last_reported":1704877647,"current_range_meters":12000,"station_id":"","pricing_plan_id":"free"},{"bike_id":"9911e3a4-c69e-4e07-8397-0050554fc56e","system_id":"levelo_inurba_marseille","lat":43.296211,"lon":5.371499,"is_reserved":false,"is_disabled":false,"rental_uris":{"android":"levelo://app?vid=9911e3a4-c69e-4e07-8397-0050554fc56e","ios":"levelo://app?vid=9911e3a4-c69e-4e07-8397-0050554fc56e"},"vehicle_type_id":"4","last_reported":1704877647,"current_range_meters":22800,"station_id":"ce4bgnh2rcd13ifvqc0g","pricing_plan_id":"free"},{"bike_id":"b233e2f2-d65c-4f60-b5bf-34e41ab1370d","system_id":"levelo_inurba_marseille","lat":43.29573,"lon":5.367355,"is_reserved":false,"is_disabled":false,"rental_uris":{"android":"levelo://app?vid=b233e2f2-d65c-4f60-b5bf-34e41ab1370d","ios":"levelo://app?vid=b233e2f2-d65c-4f60-b5bf-34e41ab1370d"},"vehicle_type_id":"4","last_reported":1704877647,"current_range_meters":13200,"station_id":"ce4bgph2rcd13ifvqc2g","pricing_plan_id":"free"},{"bike_id":"464262c2-e2fd-4e01-8421-a3e1e7212f44","system_id":"levelo_inurba_marseille","lat":43.296921,"lon":5.376579,"is_reserved":false,"is_disabled":false,"rental_uris":{"android":"levelo://app?vid=464262c2-e2fd-4e01-8421-a3e1e7212f44","ios":"levelo://app?vid=464262c2-e2fd-4e01-8421-a3e1e7212f44"},"vehicle_type_id":"4","last_reported":1704877647,"current_range_meters":30000,"station_id":"ce4bgkh2rcd13ifvqbl0","pricing_plan_id":"free"},{"bike_id":"36de1a0f-0286-4058-8cc0-28d38c2db717","system_id":"levelo_inurba_marseille","lat":43.299028,"lon":5.381509,"is_reserved":false,"is_disabled":false,"rental_uris":{"android":"levelo://app?vid=36de1a0f-0286-4058-8cc0-28d38c2db717","ios":"levelo://app?vid=36de1a0f-0286-4058-8cc0-28d38c2db717"},"vehicle_type_id":"4","last_reported":1704877647,"current_range_meters":30000,"station_id":"ce4bgj12rcd13ifvqbc0","pricing_plan_id":"free"},{"bike_id":"3c3f5fd7-4845-4905-9987-de8af104d0b0","system_id":"levelo_inurba_marseille","lat":43.296935,"lon":5.376544,"is_reserved":false,"is_disabled":false,"rental_uris":{"android":"levelo://app?vid=3c3f5fd7-4845-4905-9987-de8af104d0b0","ios":"levelo://app?vid=3c3f5fd7-4845-4905-9987-de8af104d0b0"},"vehicle_type_id":"4","last_reported":1704877647,"current_range_meters":23200,"station_id":"ce4bgkh2rcd13ifvqbl0","pricing_plan_id":"free"},{"bike_id":"958bbb75-5e0a-423f-9ade-75d19d168469","system_id":"levelo_inurba_marseille","lat":43.309589,"lon":5.390258,"is_reserved":false,"is_disabled":false,"rental_uris":{"android":"levelo://app?vid=958bbb75-5e0a-423f-9ade-75d19d168469","ios":"levelo://app?vid=958bbb75-5e0a-423f-9ade-75d19d168469"},"vehicle_type_id":"4","last_reported":1704877647,"current_range_meters":31200,"station_id":"ce4bgup2rcd13ifvqco0","pricing_plan_id":"free"},{"bike_id":"ddc18f47-6305-4862-9b8a-3e6b3dd4799f","system_id":"levelo_inurba_marseille","lat":43.309589,"lon":5.390258,"is_reserved":false,"is_disabled":false,"rental_uris":{"android":"levelo://app?vid=ddc18f47-6305-4862-9b8a-3e6b3dd4799f","ios":"levelo://app?vid=ddc18f47-6305-4862-9b8a-3e6b3dd4799f"},"vehicle_type_id":"4","last_reported":1704877647,"current_range_meters":24400,"station_id":"ce4bgup2rcd13ifvqco0","pricing_plan_id":"free"},{"bike_id":"92a89b99-a31d-40fe-9f3f-a955b25b2061","system_id":"levelo_inurba_marseille","lat":43.309589,"lon":5.390258,"is_reserved":false,"is_disabled":false,"rental_uris":{"android":"levelo://app?vid=92a89b99-a31d-40fe-9f3f-a955b25b2061","ios":"levelo://app?vid=92a89b99-a31d-40fe-9f3f-a955b25b2061"},"vehicle_type_id":"4","last_reported":1704877647,"current_range_meters":20800,"station_id":"ce4bgup2rcd13ifvqco0","pricing_plan_id":"free"},{"bike_id":"a385f413-055b-41a4-8092-33c6bf680e25","system_id":"levelo_inurba_marseille","lat":43.309589,"lon":5.390258,"is_reserved":false,"is_disabled":false,"rental_uris":{"android":"levelo://app?vid=a385f413-055b-41a4-8092-33c6bf680e25","ios":"levelo://app?vid=a385f413-055b-41a4-8092-33c6bf680e25"},"vehicle_type_id":"4","last_reported":1704877647,"current_range_meters":17600,"station_id":"ce4bgup2rcd13ifvqco0","pricing_plan_id":"free"},{"bike_id":"2d424a70-d250-4209-a1ef-4feb7b20a234","system_id":"levelo_inurba_marseille","lat":43.309589,"lon":5.390258,"is_reserved":false,"is_disabled":false,"rental_uris":{"android":"levelo://app?vid=2d424a70-d250-4209-a1ef-4feb7b20a234","ios":"levelo://app?vid=2d424a70-d250-4209-a1ef-4feb7b20a234"},"vehicle_type_id":"4","last_reported":1704877647,"current_range_meters":7600,"station_id":"ce4bgup2rcd13ifvqco0","pricing_plan_id":"free"},{"bike_id":"14bdf64a-39fe-469d-9766-b3ac49eddf5b","system_id":"levelo_inurba_marseille","lat":43.309589,"lon":5.390258,"is_reserved":false,"is_disabled":false,"rental_uris":{"android":"levelo://app?vid=14bdf64a-39fe-469d-9766-b3ac49eddf5b","ios":"levelo://app?vid=14bdf64a-39fe-469d-9766-b3ac49eddf5b"},"vehicle_type_id":"4","last_reported":1704877647,"current_range_meters":0,"station_id":"ce4bgup2rcd13ifvqco0","pricing_plan_id":"free"},{"bike_id":"f3d68c79-4c41-4794-8c44-abc1870d8d42","system_id":"levelo_inurba_marseille","lat":43.317557,"lon":5.390173,"is_reserved":false,"is_disabled":false,"rental_uris":{"android":"levelo://app?vid=f3d68c79-4c41-4794-8c44-abc1870d8d42","ios":"levelo://app?vid=f3d68c79-4c41-4794-8c44-abc1870d8d42"},"vehicle_type_id":"4","last_reported":1704877647,"current_range_meters":30800,"station_id":"ce4bhqp2rcd13ifvqhng","pricing_plan_id":"free"},{"bike_id":"2d2ed703-ed54-40c8-90dc-93abf2315c55","system_id":"levelo_inurba_marseille","lat":43.317557,"lon":5.390173,"is_reserved":false,"is_disabled":false,"rental_uris":{"android":"levelo://app?vid=2d2ed703-ed54-40c8-90dc-93abf2315c55","ios":"levelo://app?vid=2d2ed703-ed54-40c8-90dc-93abf2315c55"},"vehicle_type_id":"4","last_reported":1704877647,"current_range_meters":28800,"station_id":"ce4bhqp2rcd13ifvqhng","pricing_plan_id":"free"},{"bike_id":"5b159e97-00e1-4124-93b7-e42c8ba76a66","system_id":"levelo_inurba_marseille","lat":43.309599,"lon":5.39071,"is_reserved":false,"is_disabled":false,"rental_uris":{"android":"levelo://app?vid=5b159e97-00e1-4124-93b7-e42c8ba76a66","ios":"levelo://app?vid=5b159e97-00e1-4124-93b7-e42c8ba76a66"},"vehicle_type_id":"4","last_reported":1704877647,"current_range_meters":4400,"station_id":"ce4bgup2rcd13ifvqco0","pricing_plan_id":"free"},{"bike_id":"a4a8fe16-b861-482d-8919-e7240e077d1f","system_id":"levelo_inurba_marseille","lat":43.317549,"lon":5.390184,"is_reserved":false,"is_disabled":false,"rental_uris":{"android":"levelo://app?vid=a4a8fe16-b861-482d-8919-e7240e077d1f","ios":"levelo://app?vid=a4a8fe16-b861-482d-8919-e7240e077d1f"},"vehicle_type_id":"4","last_reported":1704877647,"current_range_meters":18800,"station_id":"ce4bhqp2rcd13ifvqhng","pricing_plan_id":"free"},{"bike_id":"e5fe3264-2519-4d05-acee-04964fbbcb57","system_id":"levelo_inurba_marseille","lat":43.317557,"lon":5.390173,"is_reserved":false,"is_disabled":false,"rental_uris":{"android":"levelo://app?vid=e5fe3264-2519-4d05-acee-04964fbbcb57","ios":"levelo://app?vid=e5fe3264-2519-4d05-acee-04964fbbcb57"},"vehicle_type_id":"4","last_reported":1704877647,"current_range_meters":12000,"station_id":"ce4bhqp2rcd13ifvqhng","pricing_plan_id":"free"},{"bike_id":"aa974c30-f0f5-445b-804d-b8697f04c78c","system_id":"levelo_inurba_marseille","lat":43.317557,"lon":5.390173,"is_reserved":false,"is_disabled":false,"rental_uris":{"android":"levelo://app?vid=aa974c30-f0f5-445b-804d-b8697f04c78c","ios":"levelo://app?vid=aa974c30-f0f5-445b-804d-b8697f04c78c"},"vehicle_type_id":"4","last_reported":1704877647,"current_range_meters":11600,"station_id":"ce4bhqp2rcd13ifvqhng","pricing_plan_id":"free"},{"bike_id":"6a74128d-36dc-4ed0-af27-82a816f852ae","system_id":"levelo_inurba_marseille","lat":43.29806,"lon":5.380907,"is_reserved":false,"is_disabled":false,"rental_uris":{"android":"levelo://app?vid=6a74128d-36dc-4ed0-af27-82a816f852ae","ios":"levelo://app?vid=6a74128d-36dc-4ed0-af27-82a816f852ae"},"vehicle_type_id":"4","last_reported":1704877647,"current_range_meters":19600,"station_id":"ce4bgip2rcd13ifvqbb0","pricing_plan_id":"free"},{"bike_id":"77806f91-8e40-488e-993a-d23c667ba43c","system_id":"levelo_inurba_marseille","lat":43.298037,"lon":5.381066,"is_reserved":false,"is_disabled":false,"rental_uris":{"android":"levelo://app?vid=77806f91-8e40-488e-993a-d23c667ba43c","ios":"levelo://app?vid=77806f91-8e40-488e-993a-d23c667ba43c"},"vehicle_type_id":"4","last_reported":1704877647,"current_range_meters":30000,"station_id":"ce4bgip2rcd13ifvqbb0","pricing_plan_id":"free"},{"bike_id":"1765c5e7-d172-4b62-a5ea-d665518d02ef","system_id":"levelo_inurba_marseille","lat":43.298037,"lon":5.381066,"is_reserved":false,"is_disabled":false,"rental_uris":{"android":"levelo://app?vid=1765c5e7-d172-4b62-a5ea-d665518d02ef","ios":"levelo://app?vid=1765c5e7-d172-4b62-a5ea-d665518d02ef"},"vehicle_type_id":"4","last_reported":1704877647,"current_range_meters":23200,"station_id":"ce4bgip2rcd13ifvqbb0","pricing_plan_id":"free"},{"bike_id":"01732f5f-4d35-428a-b96b-bde16f045e4f","system_id":"levelo_inurba_marseille","lat":43.298037,"lon":5.381066,"is_reserved":false,"is_disabled":false,"rental_uris":{"android":"levelo://app?vid=01732f5f-4d35-428a-b96b-bde16f045e4f","ios":"levelo://app?vid=01732f5f-4d35-428a-b96b-bde16f045e4f"},"vehicle_type_id":"4","last_reported":1704877647,"current_range_meters":28800,"station_id":"ce4bgip2rcd13ifvqbb0","pricing_plan_id":"free"},{"bike_id":"cfc858ad-fab8-4ce5-be5e-b84309431eb9","system_id":"levelo_inurba_marseille","lat":43.295748,"lon":5.37522,"is_reserved":false,"is_disabled":false,"rental_uris":{"android":"levelo://app?vid=cfc858ad-fab8-4ce5-be5e-b84309431eb9","ios":"levelo://app?vid=cfc858ad-fab8-4ce5-be5e-b84309431eb9"},"vehicle_type_id":"4","last_reported":1704877647,"current_range_meters":27600,"station_id":"ce4bgh92rcd13ifvqb50","pricing_plan_id":"free"},{"bike_id":"a7661eac-0a12-4f39-9487-36d2c83d98fe","system_id":"levelo_inurba_marseille","lat":43.298037,"lon":5.381066,"is_reserved":false,"is_disabled":false,"rental_uris":{"android":"levelo://app?vid=a7661eac-0a12-4f39-9487-36d2c83d98fe","ios":"levelo://app?vid=a7661eac-0a12-4f39-9487-36d2c83d98fe"},"vehicle_type_id":"4","last_reported":1704877647,"current_range_meters":14000,"station_id":"ce4bgip2rcd13ifvqbb0","pricing_plan_id":"free"},{"bike_id":"93cac491-5101-4a96-9dd9-b884e0457b8f","system_id":"levelo_inurba_marseille","lat":43.298037,"lon":5.381066,"is_reserved":false,"is_disabled":false,"rental_uris":{"android":"levelo://app?vid=93cac491-5101-4a96-9dd9-b884e0457b8f","ios":"levelo://app?vid=93cac491-5101-4a96-9dd9-b884e0457b8f"},"vehicle_type_id":"4","last_reported":1704877647,"current_range_meters":30400,"station_id":"ce4bgip2rcd13ifvqbb0","pricing_plan_id":"free"},{"bike_id":"b232caeb-29ee-4abe-84bc-a72a974cee69","system_id":"levelo_inurba_marseille","lat":43.297893,"lon":5.381033,"is_reserved":false,"is_disabled":false,"rental_uris":{"android":"levelo://app?vid=b232caeb-29ee-4abe-84bc-a72a974cee69","ios":"levelo://app?vid=b232caeb-29ee-4abe-84bc-a72a974cee69"},"vehicle_type_id":"4","last_reported":1704877647,"current_range_meters":31200,"station_id":"ce4bgip2rcd13ifvqbb0","pricing_plan_id":"free"},{"bike_id":"55681a98-bf1c-4657-9104-2a49bbc6e885","system_id":"levelo_inurba_marseille","lat":43.295748,"lon":5.37522,"is_reserved":false,"is_disabled":false,"rental_uris":{"android":"levelo://app?vid=55681a98-bf1c-4657-9104-2a49bbc6e885","ios":"levelo://app?vid=55681a98-bf1c-4657-9104-2a49bbc6e885"},"vehicle_type_id":"4","last_reported":1704877647,"current_range_meters":24800,"station_id":"ce4bgh92rcd13ifvqb50","pricing_plan_id":"free"},{"bike_id":"09067590-aa1f-445e-b97f-b197820f0036","system_id":"levelo_inurba_marseille","lat":43.295748,"lon":5.37522,"is_reserved":false,"is_disabled":false,"rental_uris":{"android":"levelo://app?vid=09067590-aa1f-445e-b97f-b197820f0036","ios":"levelo://app?vid=09067590-aa1f-445e-b97f-b197820f0036"},"vehicle_type_id":"4","last_reported":1704877647,"current_range_meters":12400,"station_id":"ce4bgh92rcd13ifvqb50","pricing_plan_id":"free"},{"bike_id":"d6eae174-e3fd-4891-b5e1-3c1d66593216","system_id":"levelo_inurba_marseille","lat":43.296277,"lon":5.377108,"is_reserved":false,"is_disabled":false,"rental_uris":{"android":"levelo://app?vid=d6eae174-e3fd-4891-b5e1-3c1d66593216","ios":"levelo://app?vid=d6eae174-e3fd-4891-b5e1-3c1d66593216"},"vehicle_type_id":"4","last_reported":1704877647,"current_range_meters":10000,"station_id":"ce4bgi92rcd13ifvqb90","pricing_plan_id":"free"},{"bike_id":"d98a3d6c-4a65-4439-9c28-7695ec8622a9","system_id":"levelo_inurba_marseille","lat":43.296277,"lon":5.377108,"is_reserved":false,"is_disabled":false,"rental_uris":{"android":"levelo://app?vid=d98a3d6c-4a65-4439-9c28-7695ec8622a9","ios":"levelo://app?vid=d98a3d6c-4a65-4439-9c28-7695ec8622a9"},"vehicle_type_id":"4","last_reported":1704877647,"current_range_meters":13600,"station_id":"ce4bgi92rcd13ifvqb90","pricing_plan_id":"free"},{"bike_id":"2ecc07a5-f365-449e-bba9-003417f3645b","system_id":"levelo_inurba_marseille","lat":43.296263,"lon":5.377094,"is_reserved":false,"is_disabled":false,"rental_uris":{"android":"levelo://app?vid=2ecc07a5-f365-449e-bba9-003417f3645b","ios":"levelo://app?vid=2ecc07a5-f365-449e-bba9-003417f3645b"},"vehicle_type_id":"4","last_reported":1704877647,"current_range_meters":24400,"station_id":"ce4bgi92rcd13ifvqb90","pricing_plan_id":"free"},{"bike_id":"1083fea4-c362-4ca4-85ae-feec57b92141","system_id":"levelo_inurba_marseille","lat":43.29615,"lon":5.37731,"is_reserved":false,"is_disabled":false,"rental_uris":{"android":"levelo://app?vid=1083fea4-c362-4ca4-85ae-feec57b92141","ios":"levelo://app?vid=1083fea4-c362-4ca4-85ae-feec57b92141"},"vehicle_type_id":"4","last_reported":1704877647,"current_range_meters":22400,"station_id":"ce4bgi92rcd13ifvqb90","pricing_plan_id":"free"},{"bike_id":"752b26f9-00d8-4d08-b1b9-aa99d113b457","system_id":"levelo_inurba_marseille","lat":43.296277,"lon":5.377108,"is_reserved":false,"is_disabled":false,"rental_uris":{"android":"levelo://app?vid=752b26f9-00d8-4d08-b1b9-aa99d113b457","ios":"levelo://app?vid=752b26f9-00d8-4d08-b1b9-aa99d113b457"},"vehicle_type_id":"4","last_reported":1704877647,"current_range_meters":26000,"station_id":"ce4bgi92rcd13ifvqb90","pricing_plan_id":"free"},{"bike_id":"7986fd59-4f75-441f-9770-fa56fe9a23e8","system_id":"levelo_inurba_marseille","lat":43.296277,"lon":5.377108,"is_reserved":false,"is_disabled":false,"rental_uris":{"android":"levelo://app?vid=7986fd59-4f75-441f-9770-fa56fe9a23e8","ios":"levelo://app?vid=7986fd59-4f75-441f-9770-fa56fe9a23e8"},"vehicle_type_id":"4","last_reported":1704877647,"current_range_meters":7600,"station_id":"ce4bgi92rcd13ifvqb90","pricing_plan_id":"free"},{"bike_id":"d87467f8-cd34-43ab-a5d5-d5b07131e39b","system_id":"levelo_inurba_marseille","lat":43.299717,"lon":5.384845,"is_reserved":false,"is_disabled":false,"rental_uris":{"android":"levelo://app?vid=d87467f8-cd34-43ab-a5d5-d5b07131e39b","ios":"levelo://app?vid=d87467f8-cd34-43ab-a5d5-d5b07131e39b"},"vehicle_type_id":"4","last_reported":1704877647,"current_range_meters":30400,"station_id":"ce4bgj92rcd13ifvqbd0","pricing_plan_id":"free"},{"bike_id":"c1c35652-342d-4397-8455-12a51df19ba8","system_id":"levelo_inurba_marseille","lat":43.299724,"lon":5.384848,"is_reserved":false,"is_disabled":false,"rental_uris":{"android":"levelo://app?vid=c1c35652-342d-4397-8455-12a51df19ba8","ios":"levelo://app?vid=c1c35652-342d-4397-8455-12a51df19ba8"},"vehicle_type_id":"4","last_reported":1704877647,"current_range_meters":17200,"station_id":"ce4bgj92rcd13ifvqbd0","pricing_plan_id":"free"},{"bike_id":"5f3dfcb7-59e8-4d69-b1b2-6fbee907ac5d","system_id":"levelo_inurba_marseille","lat":43.299717,"lon":5.384845,"is_reserved":false,"is_disabled":false,"rental_uris":{"android":"levelo://app?vid=5f3dfcb7-59e8-4d69-b1b2-6fbee907ac5d","ios":"levelo://app?vid=5f3dfcb7-59e8-4d69-b1b2-6fbee907ac5d"},"vehicle_type_id":"4","last_reported":1704877647,"current_range_meters":20800,"station_id":"ce4bgj92rcd13ifvqbd0","pricing_plan_id":"free"},{"bike_id":"f9be0551-963c-49f6-b3e4-feffbeacdae9","system_id":"levelo_inurba_marseille","lat":43.299724,"lon":5.384848,"is_reserved":false,"is_disabled":false,"rental_uris":{"android":"levelo://app?vid=f9be0551-963c-49f6-b3e4-feffbeacdae9","ios":"levelo://app?vid=f9be0551-963c-49f6-b3e4-feffbeacdae9"},"vehicle_type_id":"4","last_reported":1704877647,"current_range_meters":27200,"station_id":"ce4bgj92rcd13ifvqbd0","pricing_plan_id":"free"},{"bike_id":"0f584d26-aa30-4f03-b4be-03f9a98d5950","system_id":"levelo_inurba_marseille","lat":43.29602,"lon":5.381084,"is_reserved":false,"is_disabled":false,"rental_uris":{"android":"levelo://app?vid=0f584d26-aa30-4f03-b4be-03f9a98d5950","ios":"levelo://app?vid=0f584d26-aa30-4f03-b4be-03f9a98d5950"},"vehicle_type_id":"4","last_reported":1704877647,"current_range_meters":23600,"station_id":"ce4bgl12rcd13ifvqbo0","pricing_plan_id":"free"},{"bike_id":"b5286398-f42a-498c-99e5-bce6080e5966","system_id":"levelo_inurba_marseille","lat":43.29602,"lon":5.381084,"is_reserved":false,"is_disabled":false,"rental_uris":{"android":"levelo://app?vid=b5286398-f42a-498c-99e5-bce6080e5966","ios":"levelo://app?vid=b5286398-f42a-498c-99e5-bce6080e5966"},"vehicle_type_id":"4","last_reported":1704877647,"current_range_meters":26000,"station_id":"ce4bgl12rcd13ifvqbo0","pricing_plan_id":"free"},{"bike_id":"418e2ec6-7652-41b6-9830-c97b08371746","system_id":"levelo_inurba_marseille","lat":43.292749,"lon":5.368402,"is_reserved":false,"is_disabled":false,"rental_uris":{"android":"levelo://app?vid=418e2ec6-7652-41b6-9830-c97b08371746","ios":"levelo://app?vid=418e2ec6-7652-41b6-9830-c97b08371746"},"vehicle_type_id":"4","last_reported":1704877647,"current_range_meters":24000,"station_id":"ce4bhbp2rcd13ifvqesg","pricing_plan_id":"free"},{"bike_id":"3899aca4-d82b-459b-94cf-c1d0b4c8c361","system_id":"levelo_inurba_marseille","lat":43.292749,"lon":5.368402,"is_reserved":false,"is_disabled":false,"rental_uris":{"android":"levelo://app?vid=3899aca4-d82b-459b-94cf-c1d0b4c8c361","ios":"levelo://app?vid=3899aca4-d82b-459b-94cf-c1d0b4c8c361"},"vehicle_type_id":"4","last_reported":1704877647,"current_range_meters":22800,"station_id":"ce4bhbp2rcd13ifvqesg","pricing_plan_id":"free"},{"bike_id":"91e76ccf-8c96-4ade-9380-279307c49c3b","system_id":"levelo_inurba_marseille","lat":43.292749,"lon":5.368402,"is_reserved":false,"is_disabled":false,"rental_uris":{"android":"levelo://app?vid=91e76ccf-8c96-4ade-9380-279307c49c3b","ios":"levelo://app?vid=91e76ccf-8c96-4ade-9380-279307c49c3b"},"vehicle_type_id":"4","last_reported":1704877647,"current_range_meters":28000,"station_id":"ce4bhbp2rcd13ifvqesg","pricing_plan_id":"free"},{"bike_id":"7e6a2878-c60f-4618-8675-cdea971a26b8","system_id":"levelo_inurba_marseille","lat":43.292749,"lon":5.368402,"is_reserved":false,"is_disabled":false,"rental_uris":{"android":"levelo://app?vid=7e6a2878-c60f-4618-8675-cdea971a26b8","ios":"levelo://app?vid=7e6a2878-c60f-4618-8675-cdea971a26b8"},"vehicle_type_id":"4","last_reported":1704877647,"current_range_meters":0,"station_id":"ce4bhbp2rcd13ifvqesg","pricing_plan_id":"free"},{"bike_id":"487b06fc-0c7b-42c7-bf38-2f19da2146a5","system_id":"levelo_inurba_marseille","lat":43.292749,"lon":5.368402,"is_reserved":false,"is_disabled":false,"rental_uris":{"android":"levelo://app?vid=487b06fc-0c7b-42c7-bf38-2f19da2146a5","ios":"levelo://app?vid=487b06fc-0c7b-42c7-bf38-2f19da2146a5"},"vehicle_type_id":"4","last_reported":1704877647,"current_range_meters":27200,"station_id":"ce4bhbp2rcd13ifvqesg","pricing_plan_id":"free"},{"bike_id":"8df03d5f-92d5-457c-a626-769683dfdf34","system_id":"levelo_inurba_marseille","lat":43.29268,"lon":5.36845,"is_reserved":false,"is_disabled":false,"rental_uris":{"android":"levelo://app?vid=8df03d5f-92d5-457c-a626-769683dfdf34","ios":"levelo://app?vid=8df03d5f-92d5-457c-a626-769683dfdf34"},"vehicle_type_id":"4","last_reported":1704877647,"current_range_meters":29200,"station_id":"ce4bhbp2rcd13ifvqesg","pricing_plan_id":"free"},{"bike_id":"2adfb02b-b13a-41ae-ba6b-171bce342a2d","system_id":"levelo_inurba_marseille","lat":43.293259,"lon":5.371586,"is_reserved":false,"is_disabled":false,"rental_uris":{"android":"levelo://app?vid=2adfb02b-b13a-41ae-ba6b-171bce342a2d","ios":"levelo://app?vid=2adfb02b-b13a-41ae-ba6b-171bce342a2d"},"vehicle_type_id":"4","last_reported":1704877647,"current_range_meters":27600,"station_id":"ce4bgh92rcd13ifvqb40","pricing_plan_id":"free"},{"bike_id":"3c3afd1c-5491-48a3-a6b6-9559b662c973","system_id":"levelo_inurba_marseille","lat":43.29239,"lon":5.36485,"is_reserved":false,"is_disabled":false,"rental_uris":{"android":"levelo://app?vid=3c3afd1c-5491-48a3-a6b6-9559b662c973","ios":"levelo://app?vid=3c3afd1c-5491-48a3-a6b6-9559b662c973"},"vehicle_type_id":"4","last_reported":1704877647,"current_range_meters":0,"station_id":"","pricing_plan_id":"free"},{"bike_id":"a62b5f70-47f8-4936-ac52-ebe906a20beb","system_id":"levelo_inurba_marseille","lat":43.293009,"lon":5.374584,"is_reserved":false,"is_disabled":false,"rental_uris":{"android":"levelo://app?vid=a62b5f70-47f8-4936-ac52-ebe906a20beb","ios":"levelo://app?vid=a62b5f70-47f8-4936-ac52-ebe906a20beb"},"vehicle_type_id":"4","last_reported":1704877647,"current_range_meters":26400,"station_id":"ce4bgi12rcd13ifvqb70","pricing_plan_id":"free"},{"bike_id":"3656a6b7-f417-446d-b9c5-4ea5e890201e","system_id":"levelo_inurba_marseille","lat":43.305994,"lon":5.393687,"is_reserved":false,"is_disabled":false,"rental_uris":{"android":"levelo://app?vid=3656a6b7-f417-446d-b9c5-4ea5e890201e","ios":"levelo://app?vid=3656a6b7-f417-446d-b9c5-4ea5e890201e"},"vehicle_type_id":"4","last_reported":1704877647,"current_range_meters":30000,"station_id":"ce4bh0p2rcd13ifvqd80","pricing_plan_id":"free"},{"bike_id":"213b7577-6d57-42fa-af13-5b8cf1c77ddf","system_id":"levelo_inurba_marseille","lat":43.30595,"lon":5.39366,"is_reserved":false,"is_disabled":false,"rental_uris":{"android":"levelo://app?vid=213b7577-6d57-42fa-af13-5b8cf1c77ddf","ios":"levelo://app?vid=213b7577-6d57-42fa-af13-5b8cf1c77ddf"},"vehicle_type_id":"4","last_reported":1704877647,"current_range_meters":0,"station_id":"ce4bh0p2rcd13ifvqd80","pricing_plan_id":"free"},{"bike_id":"e3d999d7-2e11-49d5-bc02-4c362c1bda39","system_id":"levelo_inurba_marseille","lat":43.293009,"lon":5.374584,"is_reserved":false,"is_disabled":false,"rental_uris":{"android":"levelo://app?vid=e3d999d7-2e11-49d5-bc02-4c362c1bda39","ios":"levelo://app?vid=e3d999d7-2e11-49d5-bc02-4c362c1bda39"},"vehicle_type_id":"4","last_reported":1704877647,"current_range_meters":28400,"station_id":"ce4bgi12rcd13ifvqb70","pricing_plan_id":"free"},{"bike_id":"dc46412d-3d5b-4c49-95f3-2fdbb4c34730","system_id":"levelo_inurba_marseille","lat":43.303,"lon":5.39211,"is_reserved":false,"is_disabled":false,"rental_uris":{"android":"levelo://app?vid=dc46412d-3d5b-4c49-95f3-2fdbb4c34730","ios":"levelo://app?vid=dc46412d-3d5b-4c49-95f3-2fdbb4c34730"},"vehicle_type_id":"4","last_reported":1704877647,"current_range_meters":23200,"station_id":"ce4bgkh2rcd13ifvqbk0","pricing_plan_id":"free"},{"bike_id":"645eaeaf-716e-46d8-97b3-68a8604bd7ce","system_id":"levelo_inurba_marseille","lat":43.292311,"lon":5.360731,"is_reserved":false,"is_disabled":false,"rental_uris":{"android":"levelo://app?vid=645eaeaf-716e-46d8-97b3-68a8604bd7ce","ios":"levelo://app?vid=645eaeaf-716e-46d8-97b3-68a8604bd7ce"},"vehicle_type_id":"4","last_reported":1704877647,"current_range_meters":26400,"station_id":"ce4bhbh2rcd13ifvqeqg","pricing_plan_id":"free"},{"bike_id":"e0c57c64-a878-40eb-8a43-e5f5b69b9cda","system_id":"levelo_inurba_marseille","lat":43.292311,"lon":5.360731,"is_reserved":false,"is_disabled":false,"rental_uris":{"android":"levelo://app?vid=e0c57c64-a878-40eb-8a43-e5f5b69b9cda","ios":"levelo://app?vid=e0c57c64-a878-40eb-8a43-e5f5b69b9cda"},"vehicle_type_id":"4","last_reported":1704877647,"current_range_meters":24000,"station_id":"ce4bhbh2rcd13ifvqeqg","pricing_plan_id":"free"},{"bike_id":"e7b2c729-d6aa-458f-b2be-09d2cbd82727","system_id":"levelo_inurba_marseille","lat":43.292311,"lon":5.360731,"is_reserved":false,"is_disabled":false,"rental_uris":{"android":"levelo://app?vid=e7b2c729-d6aa-458f-b2be-09d2cbd82727","ios":"levelo://app?vid=e7b2c729-d6aa-458f-b2be-09d2cbd82727"},"vehicle_type_id":"4","last_reported":1704877647,"current_range_meters":12400,"station_id":"ce4bhbh2rcd13ifvqeqg","pricing_plan_id":"free"},{"bike_id":"29d1d7e7-d652-479c-a350-11784ab6cb0b","system_id":"levelo_inurba_marseille","lat":43.292311,"lon":5.360731,"is_reserved":false,"is_disabled":false,"rental_uris":{"android":"levelo://app?vid=29d1d7e7-d652-479c-a350-11784ab6cb0b","ios":"levelo://app?vid=29d1d7e7-d652-479c-a350-11784ab6cb0b"},"vehicle_type_id":"4","last_reported":1704877647,"current_range_meters":1600,"station_id":"ce4bhbh2rcd13ifvqeqg","pricing_plan_id":"free"},{"bike_id":"6fd6beb1-1a06-42b5-b311-4abb0403b795","system_id":"levelo_inurba_marseille","lat":43.30085,"lon":5.390856,"is_reserved":false,"is_disabled":false,"rental_uris":{"android":"levelo://app?vid=6fd6beb1-1a06-42b5-b311-4abb0403b795","ios":"levelo://app?vid=6fd6beb1-1a06-42b5-b311-4abb0403b795"},"vehicle_type_id":"4","last_reported":1704877647,"current_range_meters":24400,"station_id":"ce4bh192rcd13ifvqdb0","pricing_plan_id":"free"},{"bike_id":"0f7b07b0-ff98-4220-95da-ad0b409d1b78","system_id":"levelo_inurba_marseille","lat":43.292311,"lon":5.360731,"is_reserved":false,"is_disabled":false,"rental_uris":{"android":"levelo://app?vid=0f7b07b0-ff98-4220-95da-ad0b409d1b78","ios":"levelo://app?vid=0f7b07b0-ff98-4220-95da-ad0b409d1b78"},"vehicle_type_id":"4","last_reported":1704877647,"current_range_meters":0,"station_id":"ce4bhbh2rcd13ifvqeqg","pricing_plan_id":"free"},{"bike_id":"86d24482-954f-4520-8d98-2a4818b3d711","system_id":"levelo_inurba_marseille","lat":43.300852,"lon":5.390859,"is_reserved":false,"is_disabled":false,"rental_uris":{"android":"levelo://app?vid=86d24482-954f-4520-8d98-2a4818b3d711","ios":"levelo://app?vid=86d24482-954f-4520-8d98-2a4818b3d711"},"vehicle_type_id":"4","last_reported":1704877647,"current_range_meters":25200,"station_id":"ce4bh192rcd13ifvqdb0","pricing_plan_id":"free"},{"bike_id":"be0d017a-0781-4d36-a547-f205a329f0fd","system_id":"levelo_inurba_marseille","lat":43.292311,"lon":5.360731,"is_reserved":false,"is_disabled":false,"rental_uris":{"android":"levelo://app?vid=be0d017a-0781-4d36-a547-f205a329f0fd","ios":"levelo://app?vid=be0d017a-0781-4d36-a547-f205a329f0fd"},"vehicle_type_id":"4","last_reported":1704877647,"current_range_meters":21600,"station_id":"ce4bhbh2rcd13ifvqeqg","pricing_plan_id":"free"},{"bike_id":"4899f726-ef10-447b-a918-d84e0769d148","system_id":"levelo_inurba_marseille","lat":43.29219,"lon":5.36043,"is_reserved":false,"is_disabled":false,"rental_uris":{"android":"levelo://app?vid=4899f726-ef10-447b-a918-d84e0769d148","ios":"levelo://app?vid=4899f726-ef10-447b-a918-d84e0769d148"},"vehicle_type_id":"4","last_reported":1704877647,"current_range_meters":19600,"station_id":"ce4bhbh2rcd13ifvqeqg","pricing_plan_id":"free"},{"bike_id":"14bd08e9-6db9-45a0-975b-05e4c42491d3","system_id":"levelo_inurba_marseille","lat":43.292311,"lon":5.360731,"is_reserved":false,"is_disabled":false,"rental_uris":{"android":"levelo://app?vid=14bd08e9-6db9-45a0-975b-05e4c42491d3","ios":"levelo://app?vid=14bd08e9-6db9-45a0-975b-05e4c42491d3"},"vehicle_type_id":"4","last_reported":1704877647,"current_range_meters":8000,"station_id":"ce4bhbh2rcd13ifvqeqg","pricing_plan_id":"free"},{"bike_id":"65a67498-bd1b-42d7-9323-8157eb49c38a","system_id":"levelo_inurba_marseille","lat":43.29176,"lon":5.37154,"is_reserved":false,"is_disabled":false,"rental_uris":{"android":"levelo://app?vid=65a67498-bd1b-42d7-9323-8157eb49c38a","ios":"levelo://app?vid=65a67498-bd1b-42d7-9323-8157eb49c38a"},"vehicle_type_id":"4","last_reported":1704877647,"current_range_meters":16400,"station_id":"ce4bha92rcd13ifvqeh0","pricing_plan_id":"free"},{"bike_id":"cba6f933-2972-41ea-8ea3-fae01191eb0e","system_id":"levelo_inurba_marseille","lat":43.291671,"lon":5.371575,"is_reserved":false,"is_disabled":false,"rental_uris":{"android":"levelo://app?vid=cba6f933-2972-41ea-8ea3-fae01191eb0e","ios":"levelo://app?vid=cba6f933-2972-41ea-8ea3-fae01191eb0e"},"vehicle_type_id":"4","last_reported":1704877647,"current_range_meters":18000,"station_id":"ce4bha92rcd13ifvqeh0","pricing_plan_id":"free"},{"bike_id":"910b6f01-1564-4808-a8e9-320fe51fbd81","system_id":"levelo_inurba_marseille","lat":43.291671,"lon":5.371575,"is_reserved":false,"is_disabled":false,"rental_uris":{"android":"levelo://app?vid=910b6f01-1564-4808-a8e9-320fe51fbd81","ios":"levelo://app?vid=910b6f01-1564-4808-a8e9-320fe51fbd81"},"vehicle_type_id":"4","last_reported":1704877647,"current_range_meters":24800,"station_id":"ce4bha92rcd13ifvqeh0","pricing_plan_id":"free"},{"bike_id":"fd371b48-15d9-4df8-9147-0f99ec28b736","system_id":"levelo_inurba_marseille","lat":43.29166,"lon":5.37143,"is_reserved":false,"is_disabled":false,"rental_uris":{"android":"levelo://app?vid=fd371b48-15d9-4df8-9147-0f99ec28b736","ios":"levelo://app?vid=fd371b48-15d9-4df8-9147-0f99ec28b736"},"vehicle_type_id":"4","last_reported":1704877647,"current_range_meters":15600,"station_id":"","pricing_plan_id":"free"},{"bike_id":"069b8478-0406-47ea-aa27-49b941d7a716","system_id":"levelo_inurba_marseille","lat":43.290779,"lon":5.371482,"is_reserved":false,"is_disabled":false,"rental_uris":{"android":"levelo://app?vid=069b8478-0406-47ea-aa27-49b941d7a716","ios":"levelo://app?vid=069b8478-0406-47ea-aa27-49b941d7a716"},"vehicle_type_id":"4","last_reported":1704877647,"current_range_meters":17600,"station_id":"ce4bh5p2rcd13ifvqe4g","pricing_plan_id":"free"},{"bike_id":"ac1cb66d-4efc-47a9-8ffb-b366229bce49","system_id":"levelo_inurba_marseille","lat":43.303002,"lon":5.392142,"is_reserved":false,"is_disabled":false,"rental_uris":{"android":"levelo://app?vid=ac1cb66d-4efc-47a9-8ffb-b366229bce49","ios":"levelo://app?vid=ac1cb66d-4efc-47a9-8ffb-b366229bce49"},"vehicle_type_id":"4","last_reported":1704877647,"current_range_meters":18000,"station_id":"ce4bgkh2rcd13ifvqbk0","pricing_plan_id":"free"},{"bike_id":"b35991f2-cb72-4742-b812-0c18733f72aa","system_id":"levelo_inurba_marseille","lat":43.302008,"lon":5.394694,"is_reserved":false,"is_disabled":false,"rental_uris":{"android":"levelo://app?vid=b35991f2-cb72-4742-b812-0c18733f72aa","ios":"levelo://app?vid=b35991f2-cb72-4742-b812-0c18733f72aa"},"vehicle_type_id":"4","last_reported":1704877647,"current_range_meters":16800,"station_id":"ce4bh0p2rcd13ifvqd70","pricing_plan_id":"free"},{"bike_id":"e49c5c9b-4fd0-48fd-99de-ec9d2ccaf532","system_id":"levelo_inurba_marseille","lat":43.302008,"lon":5.394694,"is_reserved":false,"is_disabled":false,"rental_uris":{"android":"levelo://app?vid=e49c5c9b-4fd0-48fd-99de-ec9d2ccaf532","ios":"levelo://app?vid=e49c5c9b-4fd0-48fd-99de-ec9d2ccaf532"},"vehicle_type_id":"4","last_reported":1704877647,"current_range_meters":31200,"station_id":"ce4bh0p2rcd13ifvqd70","pricing_plan_id":"free"},{"bike_id":"6a00b293-4f12-4ce8-9e93-b6bde95ae43b","system_id":"levelo_inurba_marseille","lat":43.2916,"lon":5.37911,"is_reserved":false,"is_disabled":false,"rental_uris":{"android":"levelo://app?vid=6a00b293-4f12-4ce8-9e93-b6bde95ae43b","ios":"levelo://app?vid=6a00b293-4f12-4ce8-9e93-b6bde95ae43b"},"vehicle_type_id":"4","last_reported":1704877647,"current_range_meters":2000,"station_id":"","pricing_plan_id":"free"},{"bike_id":"a91f1ce9-323d-4a02-bd2b-6125dbc3822b","system_id":"levelo_inurba_marseille","lat":43.290327,"lon":5.375711,"is_reserved":false,"is_disabled":false,"rental_uris":{"android":"levelo://app?vid=a91f1ce9-323d-4a02-bd2b-6125dbc3822b","ios":"levelo://app?vid=a91f1ce9-323d-4a02-bd2b-6125dbc3822b"},"vehicle_type_id":"4","last_reported":1704877647,"current_range_meters":26800,"station_id":"ce4bh692rcd13ifvqe90","pricing_plan_id":"free"},{"bike_id":"5a07852b-0e92-451a-90f5-0b5f859bbbbe","system_id":"levelo_inurba_marseille","lat":43.290327,"lon":5.375711,"is_reserved":false,"is_disabled":false,"rental_uris":{"android":"levelo://app?vid=5a07852b-0e92-451a-90f5-0b5f859bbbbe","ios":"levelo://app?vid=5a07852b-0e92-451a-90f5-0b5f859bbbbe"},"vehicle_type_id":"4","last_reported":1704877647,"current_range_meters":30400,"station_id":"ce4bh692rcd13ifvqe90","pricing_plan_id":"free"},{"bike_id":"f179536a-a0cb-42fa-b711-62e7205cd0fd","system_id":"levelo_inurba_marseille","lat":43.290327,"lon":5.375711,"is_reserved":false,"is_disabled":false,"rental_uris":{"android":"levelo://app?vid=f179536a-a0cb-42fa-b711-62e7205cd0fd","ios":"levelo://app?vid=f179536a-a0cb-42fa-b711-62e7205cd0fd"},"vehicle_type_id":"4","last_reported":1704877647,"current_range_meters":2400,"station_id":"ce4bh692rcd13ifvqe90","pricing_plan_id":"free"},{"bike_id":"fb5ff702-a0bd-4171-ae8e-88908450c818","system_id":"levelo_inurba_marseille","lat":43.292644,"lon":5.384257,"is_reserved":false,"is_disabled":false,"rental_uris":{"android":"levelo://app?vid=fb5ff702-a0bd-4171-ae8e-88908450c818","ios":"levelo://app?vid=fb5ff702-a0bd-4171-ae8e-88908450c818"},"vehicle_type_id":"4","last_reported":1704877647,"current_range_meters":13600,"station_id":"ce4bh692rcd13ifvqea0","pricing_plan_id":"free"},{"bike_id":"c41d0267-2d78-43d3-9b5d-32b743a15f2b","system_id":"levelo_inurba_marseille","lat":43.29005,"lon":5.35613,"is_reserved":false,"is_disabled":false,"rental_uris":{"android":"levelo://app?vid=c41d0267-2d78-43d3-9b5d-32b743a15f2b","ios":"levelo://app?vid=c41d0267-2d78-43d3-9b5d-32b743a15f2b"},"vehicle_type_id":"4","last_reported":1704877647,"current_range_meters":28400,"station_id":"ce4bhb92rcd13ifvqen0","pricing_plan_id":"free"},{"bike_id":"1f8e476f-ae0f-4cb6-8306-a3357e655b15","system_id":"levelo_inurba_marseille","lat":43.29007,"lon":5.35605,"is_reserved":false,"is_disabled":false,"rental_uris":{"android":"levelo://app?vid=1f8e476f-ae0f-4cb6-8306-a3357e655b15","ios":"levelo://app?vid=1f8e476f-ae0f-4cb6-8306-a3357e655b15"},"vehicle_type_id":"4","last_reported":1704877647,"current_range_meters":6000,"station_id":"ce4bhb92rcd13ifvqen0","pricing_plan_id":"free"},{"bike_id":"0e0e727b-d456-48ba-adba-1e727cb2cd5e","system_id":"levelo_inurba_marseille","lat":43.290104,"lon":5.356111,"is_reserved":false,"is_disabled":false,"rental_uris":{"android":"levelo://app?vid=0e0e727b-d456-48ba-adba-1e727cb2cd5e","ios":"levelo://app?vid=0e0e727b-d456-48ba-adba-1e727cb2cd5e"},"vehicle_type_id":"4","last_reported":1704877647,"current_range_meters":25200,"station_id":"ce4bhb92rcd13ifvqen0","pricing_plan_id":"free"},{"bike_id":"bed6ad54-a99e-47cd-b232-54af6558da6a","system_id":"levelo_inurba_marseille","lat":43.290995,"lon":5.381361,"is_reserved":false,"is_disabled":false,"rental_uris":{"android":"levelo://app?vid=bed6ad54-a99e-47cd-b232-54af6558da6a","ios":"levelo://app?vid=bed6ad54-a99e-47cd-b232-54af6558da6a"},"vehicle_type_id":"4","last_reported":1704877647,"current_range_meters":9200,"station_id":"ce4bh512rcd13ifvqe2g","pricing_plan_id":"free"},{"bike_id":"c2ed570d-fef3-41d4-ab59-6c21c53e30b6","system_id":"levelo_inurba_marseille","lat":43.29102,"lon":5.38148,"is_reserved":false,"is_disabled":false,"rental_uris":{"android":"levelo://app?vid=c2ed570d-fef3-41d4-ab59-6c21c53e30b6","ios":"levelo://app?vid=c2ed570d-fef3-41d4-ab59-6c21c53e30b6"},"vehicle_type_id":"4","last_reported":1704877647,"current_range_meters":0,"station_id":"ce4bh512rcd13ifvqe2g","pricing_plan_id":"free"},{"bike_id":"d000b73e-8ba9-48c7-a5c9-e6832ad395ab","system_id":"levelo_inurba_marseille","lat":43.290995,"lon":5.381361,"is_reserved":false,"is_disabled":false,"rental_uris":{"android":"levelo://app?vid=d000b73e-8ba9-48c7-a5c9-e6832ad395ab","ios":"levelo://app?vid=d000b73e-8ba9-48c7-a5c9-e6832ad395ab"},"vehicle_type_id":"4","last_reported":1704877647,"current_range_meters":8800,"station_id":"ce4bh512rcd13ifvqe2g","pricing_plan_id":"free"},{"bike_id":"87833115-66b2-4068-a781-83dd7964f907","system_id":"levelo_inurba_marseille","lat":43.289743,"lon":5.378304,"is_reserved":false,"is_disabled":false,"rental_uris":{"android":"levelo://app?vid=87833115-66b2-4068-a781-83dd7964f907","ios":"levelo://app?vid=87833115-66b2-4068-a781-83dd7964f907"},"vehicle_type_id":"4","last_reported":1704877647,"current_range_meters":27200,"station_id":"ce4bh9p2rcd13ifvqed0","pricing_plan_id":"free"},{"bike_id":"29877edf-f914-4818-a395-be7aee9e9d72","system_id":"levelo_inurba_marseille","lat":43.33023,"lon":5.39031,"is_reserved":false,"is_disabled":false,"rental_uris":{"android":"levelo://app?vid=29877edf-f914-4818-a395-be7aee9e9d72","ios":"levelo://app?vid=29877edf-f914-4818-a395-be7aee9e9d72"},"vehicle_type_id":"4","last_reported":1704877647,"current_range_meters":26000,"station_id":"","pricing_plan_id":"free"},{"bike_id":"db9bf596-0c62-4137-ac81-8da1abf1a007","system_id":"levelo_inurba_marseille","lat":43.289743,"lon":5.378304,"is_reserved":false,"is_disabled":false,"rental_uris":{"android":"levelo://app?vid=db9bf596-0c62-4137-ac81-8da1abf1a007","ios":"levelo://app?vid=db9bf596-0c62-4137-ac81-8da1abf1a007"},"vehicle_type_id":"4","last_reported":1704877647,"current_range_meters":31200,"station_id":"ce4bh9p2rcd13ifvqed0","pricing_plan_id":"free"},{"bike_id":"87efb1e3-3a04-4a04-8a2c-7950735911ef","system_id":"levelo_inurba_marseille","lat":43.33017,"lon":5.39046,"is_reserved":false,"is_disabled":false,"rental_uris":{"android":"levelo://app?vid=87efb1e3-3a04-4a04-8a2c-7950735911ef","ios":"levelo://app?vid=87efb1e3-3a04-4a04-8a2c-7950735911ef"},"vehicle_type_id":"4","last_reported":1704877647,"current_range_meters":16800,"station_id":"","pricing_plan_id":"free"},{"bike_id":"b4b1d330-9cae-432f-bbe4-7ca5957c66dd","system_id":"levelo_inurba_marseille","lat":43.33026,"lon":5.39036,"is_reserved":false,"is_disabled":false,"rental_uris":{"android":"levelo://app?vid=b4b1d330-9cae-432f-bbe4-7ca5957c66dd","ios":"levelo://app?vid=b4b1d330-9cae-432f-bbe4-7ca5957c66dd"},"vehicle_type_id":"4","last_reported":1704877647,"current_range_meters":19600,"station_id":"","pricing_plan_id":"free"},{"bike_id":"039ab11e-7437-4a85-b28c-98c94d6b6be9","system_id":"levelo_inurba_marseille","lat":43.289743,"lon":5.378304,"is_reserved":false,"is_disabled":false,"rental_uris":{"android":"levelo://app?vid=039ab11e-7437-4a85-b28c-98c94d6b6be9","ios":"levelo://app?vid=039ab11e-7437-4a85-b28c-98c94d6b6be9"},"vehicle_type_id":"4","last_reported":1704877647,"current_range_meters":24400,"station_id":"ce4bh9p2rcd13ifvqed0","pricing_plan_id":"free"},{"bike_id":"ebbf39a5-2b35-48a8-b56a-37d850ea02e7","system_id":"levelo_inurba_marseille","lat":43.289743,"lon":5.378304,"is_reserved":false,"is_disabled":false,"rental_uris":{"android":"levelo://app?vid=ebbf39a5-2b35-48a8-b56a-37d850ea02e7","ios":"levelo://app?vid=ebbf39a5-2b35-48a8-b56a-37d850ea02e7"},"vehicle_type_id":"4","last_reported":1704877647,"current_range_meters":11600,"station_id":"ce4bh9p2rcd13ifvqed0","pricing_plan_id":"free"},{"bike_id":"604d70e1-4bfc-4c1a-ad50-5c45b428d61e","system_id":"levelo_inurba_marseille","lat":43.33027,"lon":5.39051,"is_reserved":false,"is_disabled":false,"rental_uris":{"android":"levelo://app?vid=604d70e1-4bfc-4c1a-ad50-5c45b428d61e","ios":"levelo://app?vid=604d70e1-4bfc-4c1a-ad50-5c45b428d61e"},"vehicle_type_id":"4","last_reported":1704877647,"current_range_meters":29200,"station_id":"ce4bhr92rcd13ifvqhrg","pricing_plan_id":"free"},{"bike_id":"0a6550ee-39af-4dd3-a73f-6bd1437db00d","system_id":"levelo_inurba_marseille","lat":43.2901,"lon":5.381269,"is_reserved":false,"is_disabled":false,"rental_uris":{"android":"levelo://app?vid=0a6550ee-39af-4dd3-a73f-6bd1437db00d","ios":"levelo://app?vid=0a6550ee-39af-4dd3-a73f-6bd1437db00d"},"vehicle_type_id":"4","last_reported":1704877647,"current_range_meters":19600,"station_id":"ce4bh4p2rcd13ifvqe1g","pricing_plan_id":"free"},{"bike_id":"6d80097b-fd2f-44cf-864f-81def91d1518","system_id":"levelo_inurba_marseille","lat":43.2901,"lon":5.381269,"is_reserved":false,"is_disabled":false,"rental_uris":{"android":"levelo://app?vid=6d80097b-fd2f-44cf-864f-81def91d1518","ios":"levelo://app?vid=6d80097b-fd2f-44cf-864f-81def91d1518"},"vehicle_type_id":"4","last_reported":1704877647,"current_range_meters":13600,"station_id":"ce4bh4p2rcd13ifvqe1g","pricing_plan_id":"free"},{"bike_id":"32e1d61c-8415-4d7d-ac10-44223088f58d","system_id":"levelo_inurba_marseille","lat":43.2901,"lon":5.381269,"is_reserved":false,"is_disabled":false,"rental_uris":{"android":"levelo://app?vid=32e1d61c-8415-4d7d-ac10-44223088f58d","ios":"levelo://app?vid=32e1d61c-8415-4d7d-ac10-44223088f58d"},"vehicle_type_id":"4","last_reported":1704877647,"current_range_meters":27200,"station_id":"ce4bh4p2rcd13ifvqe1g","pricing_plan_id":"free"},{"bike_id":"f942869b-ef11-405e-99f7-911cfc949706","system_id":"levelo_inurba_marseille","lat":43.2901,"lon":5.381269,"is_reserved":false,"is_disabled":false,"rental_uris":{"android":"levelo://app?vid=f942869b-ef11-405e-99f7-911cfc949706","ios":"levelo://app?vid=f942869b-ef11-405e-99f7-911cfc949706"},"vehicle_type_id":"4","last_reported":1704877647,"current_range_meters":18000,"station_id":"ce4bh4p2rcd13ifvqe1g","pricing_plan_id":"free"},{"bike_id":"2b37e05b-62d7-447f-897c-f3aabdf0f27a","system_id":"levelo_inurba_marseille","lat":43.290094,"lon":5.381264,"is_reserved":false,"is_disabled":false,"rental_uris":{"android":"levelo://app?vid=2b37e05b-62d7-447f-897c-f3aabdf0f27a","ios":"levelo://app?vid=2b37e05b-62d7-447f-897c-f3aabdf0f27a"},"vehicle_type_id":"4","last_reported":1704877647,"current_range_meters":0,"station_id":"ce4bh4p2rcd13ifvqe1g","pricing_plan_id":"free"},{"bike_id":"50fd9670-6c22-4502-9244-8b710d40ace8","system_id":"levelo_inurba_marseille","lat":43.290094,"lon":5.381264,"is_reserved":false,"is_disabled":false,"rental_uris":{"android":"levelo://app?vid=50fd9670-6c22-4502-9244-8b710d40ace8","ios":"levelo://app?vid=50fd9670-6c22-4502-9244-8b710d40ace8"},"vehicle_type_id":"4","last_reported":1704877647,"current_range_meters":18800,"station_id":"ce4bh4p2rcd13ifvqe1g","pricing_plan_id":"free"},{"bike_id":"1497f6f8-ccaf-48fd-928b-29a94e7f660e","system_id":"levelo_inurba_marseille","lat":43.288508,"lon":5.358623,"is_reserved":false,"is_disabled":false,"rental_uris":{"android":"levelo://app?vid=1497f6f8-ccaf-48fd-928b-29a94e7f660e","ios":"levelo://app?vid=1497f6f8-ccaf-48fd-928b-29a94e7f660e"},