{"last_updated":1745561689,"ttl":60,"version":"2.2","data":{"bikes":[{"bike_id":"642fe753-f8d0-43ea-90ca-a6bd51a76e27","system_id":"levelo_inurba_marseille","lat":43.284914,"lon":5.349973,"is_reserved":false,"is_disabled":false,"rental_uris":{"android":"levelo://app?vid=642fe753-f8d0-43ea-90ca-a6bd51a76e27","ios":"levelo://app?vid=642fe753-f8d0-43ea-90ca-a6bd51a76e27"},"vehicle_type_id":"4","last_reported":1745561689,"current_range_meters":2800,"station_id":"ce4bhh12rcd13ifvqfg0","pricing_plan_id":"cebpf4jnsgd1na2vs0mg"},{"bike_id":"6281b5a4-2857-41d2-a670-8e119f82c913","system_id":"levelo_inurba_marseille","lat":43.279434,"lon":5.410413,"is_reserved":false,"is_disabled":false,"rental_uris":{"android":"levelo://app?vid=6281b5a4-2857-41d2-a670-8e119f82c913","ios":"levelo://app?vid=6281b5a4-2857-41d2-a670-8e119f82c913"},"vehicle_type_id":"4","last_reported":1745561689,"current_range_meters":2800,"station_id":"cjm6bp8fraef2m0cb0m0","pricing_plan_id":"cebpf4jnsgd1na2vs0mg"},{"bike_id":"8b4bac15-47d4-4b48-89ad-d28a545e842f","system_id":"levelo_inurba_marseille","lat":43.22944,"lon":5.35412,"is_reserved":false,"is_disabled":false,"rental_uris":{"android":"levelo://app?vid=8b4bac15-47d4-4b48-89ad-d28a545e842f","ios":"levelo://app?vid=8b4bac15-47d4-4b48-89ad-d28a545e842f"},"vehicle_type_id":"4","last_reported":1745561689,"current_range_meters":2800,"station_id":"cpo3532slgdg3j2ikp40","pricing_plan_id":"cebpf4jnsgd1na2vs0mg"},{"bike_id":"5b2ab53b-4abe-46b9-ac2a-36d1233fdded","system_id":"levelo_inurba_marseille","lat":43.30802,"lon":5.36891,"is_reserved":false,"is_disabled":false,"rental_uris":{"android":"levelo://app?vid=5b2ab53b-4abe-46b9-ac2a-36d1233fdded","ios":"levelo://app?vid=5b2ab53b-4abe-46b9-ac2a-36d1233fdded"},"vehicle_type_id":"4","last_reported":1745561689,"current_range_meters":2800,"station_id":"","pricing_plan_id":"cebpf4jnsgd1na2vs0mg"},{"bike_id":"f2386274-e3fa-40a4-aac7-858d3274ded2","system_id":"levelo_inurba_marseille","lat":43.28689,"lon":5.38669,"is_reserved":false,"is_disabled":false,"rental_uris":{"android":"levelo://app?vid=f2386274-e3fa-40a4-aac7-858d3274ded2","ios":"levelo://app?vid=f2386274-e3fa-40a4-aac7-858d3274ded2"},"vehicle_type_id":"4","last_reported":1745561689,"current_range_meters":3200,"station_id":"ce4bh492rcd13ifvqdug","pricing_plan_id":"cebpf4jnsgd1na2vs0mg"},{"bike_id":"d373d43c-1ec8-4c15-97b7-3808631cf0d5","system_id":"levelo_inurba_marseille","lat":43.306221,"lon":5.380006,"is_reserved":false,"is_disabled":false,"rental_uris":{"android":"levelo://app?vid=d373d43c-1ec8-4c15-97b7-3808631cf0d5","ios":"levelo://app?vid=d373d43c-1ec8-4c15-97b7-3808631cf0d5"},"vehicle_type_id":"4","last_reported":1745561689,"current_range_meters":3200,"station_id":"","pricing_plan_id":"cebpf4jnsgd1na2vs0mg"},{"bike_id":"92f3a277-dac5-437f-931c-bf9d49d61266","system_id":"levelo_inurba_marseille","lat":43.30373,"lon":5.42484,"is_reserved":false,"is_disabled":false,"rental_uris":{"android":"levelo://app?vid=92f3a277-dac5-437f-931c-bf9d49d61266","ios":"levelo://app?vid=92f3a277-dac5-437f-931c-bf9d49d61266"},"vehicle_type_id":"4","last_reported":1745561689,"current_range_meters":3200,"station_id":"ce4bhoh2rcd13ifvqh6g","pricing_plan_id":"cebpf4jnsgd1na2vs0mg"},{"bike_id":"b5feea90-89ce-4ec8-acc7-063b38f68f2a","system_id":"levelo_inurba_marseille","lat":43.3246,"lon":5.36573,"is_reserved":false,"is_disabled":false,"rental_uris":{"android":"levelo://app?vid=b5feea90-89ce-4ec8-acc7-063b38f68f2a","ios":"levelo://app?vid=b5feea90-89ce-4ec8-acc7-063b38f68f2a"},"vehicle_type_id":"4","last_reported":1745561689,"current_range_meters":3200,"station_id":"ce4bhs12rcd13ifvqhvg","pricing_plan_id":"cebpf4jnsgd1na2vs0mg"},{"bike_id":"dd45c763-63da-4d53-a018-3da830c6076a","system_id":"levelo_inurba_marseille","lat":43.30469,"lon":5.37909,"is_reserved":false,"is_disabled":false,"rental_uris":{"android":"levelo://app?vid=dd45c763-63da-4d53-a018-3da830c6076a","ios":"levelo://app?vid=dd45c763-63da-4d53-a018-3da830c6076a"},"vehicle_type_id":"4","last_reported":1745561689,"current_range_meters":3200,"station_id":"ce4bgup2rcd13ifvqcn0","pricing_plan_id":"cebpf4jnsgd1na2vs0mg"},{"bike_id":"c80b4906-338a-43d0-8b2c-1767d2950c18","system_id":"levelo_inurba_marseille","lat":43.241667,"lon":5.397277,"is_reserved":false,"is_disabled":false,"rental_uris":{"android":"levelo://app?vid=c80b4906-338a-43d0-8b2c-1767d2950c18","ios":"levelo://app?vid=c80b4906-338a-43d0-8b2c-1767d2950c18"},"vehicle_type_id":"4","last_reported":1745561689,"current_range_meters":3200,"station_id":"ce4bhn12rcd13ifvqgpg","pricing_plan_id":"cebpf4jnsgd1na2vs0mg"},{"bike_id":"ba98092f-1f95-4d1b-8c2e-943fbb808d72","system_id":"levelo_inurba_marseille","lat":43.24196,"lon":5.39727,"is_reserved":false,"is_disabled":false,"rental_uris":{"android":"levelo://app?vid=ba98092f-1f95-4d1b-8c2e-943fbb808d72","ios":"levelo://app?vid=ba98092f-1f95-4d1b-8c2e-943fbb808d72"},"vehicle_type_id":"4","last_reported":1745561689,"current_range_meters":3200,"station_id":"ce4bhn12rcd13ifvqgpg","pricing_plan_id":"cebpf4jnsgd1na2vs0mg"},{"bike_id":"139f76b3-13bb-4299-b0d3-ccdab5255c3d","system_id":"levelo_inurba_marseille","lat":43.279537,"lon":5.410597,"is_reserved":false,"is_disabled":false,"rental_uris":{"android":"levelo://app?vid=139f76b3-13bb-4299-b0d3-ccdab5255c3d","ios":"levelo://app?vid=139f76b3-13bb-4299-b0d3-ccdab5255c3d"},"vehicle_type_id":"4","last_reported":1745561689,"current_range_meters":3200,"station_id":"ce4bhnp2rcd13ifvqh0g","pricing_plan_id":"cebpf4jnsgd1na2vs0mg"},{"bike_id":"da70d61b-208e-4f5a-8136-fdac79841f35","system_id":"levelo_inurba_marseille","lat":43.280309,"lon":5.369428,"is_reserved":false,"is_disabled":false,"rental_uris":{"android":"levelo://app?vid=da70d61b-208e-4f5a-8136-fdac79841f35","ios":"levelo://app?vid=da70d61b-208e-4f5a-8136-fdac79841f35"},"vehicle_type_id":"4","last_reported":1745561689,"current_range_meters":3600,"station_id":"ce4bha12rcd13ifvqef0","pricing_plan_id":"cebpf4jnsgd1na2vs0mg"},{"bike_id":"89ce44f4-7eaa-4605-a3eb-6f53bf2dfa58","system_id":"levelo_inurba_marseille","lat":43.26554,"lon":5.38976,"is_reserved":false,"is_disabled":false,"rental_uris":{"android":"levelo://app?vid=89ce44f4-7eaa-4605-a3eb-6f53bf2dfa58","ios":"levelo://app?vid=89ce44f4-7eaa-4605-a3eb-6f53bf2dfa58"},"vehicle_type_id":"4","last_reported":1745561689,"current_range_meters":3600,"station_id":"ce4bhe12rcd13ifvqf30","pricing_plan_id":"cebpf4jnsgd1na2vs0mg"},{"bike_id":"cfb25777-f11d-4545-8188-01bbf8202498","system_id":"levelo_inurba_marseille","lat":43.30173,"lon":5.38083,"is_reserved":false,"is_disabled":false,"rental_uris":{"android":"levelo://app?vid=cfb25777-f11d-4545-8188-01bbf8202498","ios":"levelo://app?vid=cfb25777-f11d-4545-8188-01bbf8202498"},"vehicle_type_id":"4","last_reported":1745561689,"current_range_meters":3600,"station_id":"ce4bgjp2rcd13ifvqbh0","pricing_plan_id":"cebpf4jnsgd1na2vs0mg"},{"bike_id":"ab022574-6b84-42ba-aed4-659306abeb16","system_id":"levelo_inurba_marseille","lat":43.25087,"lon":5.39524,"is_reserved":false,"is_disabled":false,"rental_uris":{"android":"levelo://app?vid=ab022574-6b84-42ba-aed4-659306abeb16","ios":"levelo://app?vid=ab022574-6b84-42ba-aed4-659306abeb16"},"vehicle_type_id":"4","last_reported":1745561689,"current_range_meters":3600,"station_id":"ce4bhm12rcd13ifvqgkg","pricing_plan_id":"cebpf4jnsgd1na2vs0mg"},{"bike_id":"ed5e2e18-64d0-491a-970a-f052a5fea769","system_id":"levelo_inurba_marseille","lat":43.23189,"lon":5.40003,"is_reserved":false,"is_disabled":true,"rental_uris":{"android":"levelo://app?vid=ed5e2e18-64d0-491a-970a-f052a5fea769","ios":"levelo://app?vid=ed5e2e18-64d0-491a-970a-f052a5fea769"},"vehicle_type_id":"4","last_reported":1745561689,"current_range_meters":3600,"station_id":"ce4bhn12rcd13ifvqgqg","pricing_plan_id":"cebpf4jnsgd1na2vs0mg"},{"bike_id":"fed3087f-a5cb-449e-a43e-200233532ee8","system_id":"levelo_inurba_marseille","lat":43.28033,"lon":5.36951,"is_reserved":false,"is_disabled":false,"rental_uris":{"android":"levelo://app?vid=fed3087f-a5cb-449e-a43e-200233532ee8","ios":"levelo://app?vid=fed3087f-a5cb-449e-a43e-200233532ee8"},"vehicle_type_id":"4","last_reported":1745561689,"current_range_meters":3600,"station_id":"ce4bha12rcd13ifvqef0","pricing_plan_id":"cebpf4jnsgd1na2vs0mg"},{"bike_id":"2f77f7e3-57f5-4bc3-bc58-be7bc47eb2df","system_id":"levelo_inurba_marseille","lat":43.26777,"lon":5.39418,"is_reserved":false,"is_disabled":false,"rental_uris":{"android":"levelo://app?vid=2f77f7e3-57f5-4bc3-bc58-be7bc47eb2df","ios":"levelo://app?vid=2f77f7e3-57f5-4bc3-bc58-be7bc47eb2df"},"vehicle_type_id":"4","last_reported":1745561689,"current_range_meters":3600,"station_id":"ce4bhh12rcd13ifvqfg0","pricing_plan_id":"cebpf4jnsgd1na2vs0mg"},{"bike_id":"30704823-7a9c-4b12-af5d-93db18bfd3b9","system_id":"levelo_inurba_marseille","lat":43.28828,"lon":5.3995,"is_reserved":false,"is_disabled":false,"rental_uris":{"android":"levelo://app?vid=30704823-7a9c-4b12-af5d-93db18bfd3b9","ios":"levelo://app?vid=30704823-7a9c-4b12-af5d-93db18bfd3b9"},"vehicle_type_id":"4","last_reported":1745561689,"current_range_meters":3600,"station_id":"","pricing_plan_id":"cebpf4jnsgd1na2vs0mg"},{"bike_id":"21df12e5-512f-4d29-a3cb-f589354ceb80","system_id":"levelo_inurba_marseille","lat":43.25592,"lon":5.38256,"is_reserved":false,"is_disabled":false,"rental_uris":{"android":"levelo://app?vid=21df12e5-512f-4d29-a3cb-f589354ceb80","ios":"levelo://app?vid=21df12e5-512f-4d29-a3cb-f589354ceb80"},"vehicle_type_id":"4","last_reported":1745561689,"current_range_meters":4000,"station_id":"ce4bhih2rcd13ifvqfs0","pricing_plan_id":"cebpf4jnsgd1na2vs0mg"},{"bike_id":"92c3b340-d069-4f1c-b55b-44c52f19597b","system_id":"levelo_inurba_marseille","lat":43.282525,"lon":5.377832,"is_reserved":false,"is_disabled":false,"rental_uris":{"android":"levelo://app?vid=92c3b340-d069-4f1c-b55b-44c52f19597b","ios":"levelo://app?vid=92c3b340-d069-4f1c-b55b-44c52f19597b"},"vehicle_type_id":"4","last_reported":1745561689,"current_range_meters":4400,"station_id":"","pricing_plan_id":"cebpf4jnsgd1na2vs0mg"},{"bike_id":"a0efe2ec-9779-47ed-ad4b-e51d57f200a9","system_id":"levelo_inurba_marseille","lat":43.29638,"lon":5.40629,"is_reserved":false,"is_disabled":false,"rental_uris":{"android":"levelo://app?vid=a0efe2ec-9779-47ed-ad4b-e51d57f200a9","ios":"levelo://app?vid=a0efe2ec-9779-47ed-ad4b-e51d57f200a9"},"vehicle_type_id":"4","last_reported":1745561689,"current_range_meters":4400,"station_id":"ce4bh0h2rcd13ifvqd60","pricing_plan_id":"cebpf4jnsgd1na2vs0mg"},{"bike_id":"5b16eb17-ed57-4a23-aac2-2c155ee976fc","system_id":"levelo_inurba_marseille","lat":43.229302,"lon":5.353836,"is_reserved":false,"is_disabled":false,"rental_uris":{"android":"levelo://app?vid=5b16eb17-ed57-4a23-aac2-2c155ee976fc","ios":"levelo://app?vid=5b16eb17-ed57-4a23-aac2-2c155ee976fc"},"vehicle_type_id":"4","last_reported":1745561689,"current_range_meters":4800,"station_id":"cpo3532slgdg3j2ikp40","pricing_plan_id":"cebpf4jnsgd1na2vs0mg"},{"bike_id":"2b542046-6dbc-4838-826a-71ef35a6f7ac","system_id":"levelo_inurba_marseille","lat":43.310593,"lon":5.383493,"is_reserved":false,"is_disabled":true,"rental_uris":{"android":"levelo://app?vid=2b542046-6dbc-4838-826a-71ef35a6f7ac","ios":"levelo://app?vid=2b542046-6dbc-4838-826a-71ef35a6f7ac"},"vehicle_type_id":"4","last_reported":1745561689,"current_range_meters":4800,"station_id":"ce4bgv92rcd13ifvqcr0","pricing_plan_id":"cebpf4jnsgd1na2vs0mg"},{"bike_id":"2bca21d2-4d17-4735-adc6-bb9d64212fba","system_id":"levelo_inurba_marseille","lat":43.2894,"lon":5.36636,"is_reserved":false,"is_disabled":false,"rental_uris":{"android":"levelo://app?vid=2bca21d2-4d17-4735-adc6-bb9d64212fba","ios":"levelo://app?vid=2bca21d2-4d17-4735-adc6-bb9d64212fba"},"vehicle_type_id":"4","last_reported":1745561689,"current_range_meters":5600,"station_id":"ce4bhap2rcd13ifvqek0","pricing_plan_id":"cebpf4jnsgd1na2vs0mg"},{"bike_id":"d11c910e-4423-4aac-8863-cfcebdef5759","system_id":"levelo_inurba_marseille","lat":43.305176,"lon":5.391709,"is_reserved":false,"is_disabled":false,"rental_uris":{"android":"levelo://app?vid=d11c910e-4423-4aac-8863-cfcebdef5759","ios":"levelo://app?vid=d11c910e-4423-4aac-8863-cfcebdef5759"},"vehicle_type_id":"4","last_reported":1745561689,"current_range_meters":5600,"station_id":"","pricing_plan_id":"cebpf4jnsgd1na2vs0mg"},{"bike_id":"8764c801-9cd2-4e78-bbfe-a229706ee676","system_id":"levelo_inurba_marseille","lat":43.29884,"lon":5.38904,"is_reserved":false,"is_disabled":true,"rental_uris":{"android":"levelo://app?vid=8764c801-9cd2-4e78-bbfe-a229706ee676","ios":"levelo://app?vid=8764c801-9cd2-4e78-bbfe-a229706ee676"},"vehicle_type_id":"4","last_reported":1745561689,"current_range_meters":5600,"station_id":"ce4bh392rcd13ifvqdl0","pricing_plan_id":"cebpf4jnsgd1na2vs0mg"},{"bike_id":"60ee52f6-3432-4a14-b3b4-c3acf981d864","system_id":"levelo_inurba_marseille","lat":43.21753,"lon":5.34625,"is_reserved":false,"is_disabled":false,"rental_uris":{"android":"levelo://app?vid=60ee52f6-3432-4a14-b3b4-c3acf981d864","ios":"levelo://app?vid=60ee52f6-3432-4a14-b3b4-c3acf981d864"},"vehicle_type_id":"4","last_reported":1745561689,"current_range_meters":6000,"station_id":"st_cvj6r9ubvosntc0bgbag","pricing_plan_id":"cebpf4jnsgd1na2vs0mg"},{"bike_id":"d8b2681b-6fbd-4d15-bca7-50e17a5e4506","system_id":"levelo_inurba_marseille","lat":43.33598,"lon":5.41033,"is_reserved":false,"is_disabled":false,"rental_uris":{"android":"levelo://app?vid=d8b2681b-6fbd-4d15-bca7-50e17a5e4506","ios":"levelo://app?vid=d8b2681b-6fbd-4d15-bca7-50e17a5e4506"},"vehicle_type_id":"4","last_reported":1745561689,"current_range_meters":5600,"station_id":"ce4bhqh2rcd13ifvqhmg","pricing_plan_id":"cebpf4jnsgd1na2vs0mg"},{"bike_id":"04de76c4-a1ad-45bf-9e28-7c78bfcbb5c0","system_id":"levelo_inurba_marseille","lat":43.25198,"lon":5.37451,"is_reserved":false,"is_disabled":false,"rental_uris":{"android":"levelo://app?vid=04de76c4-a1ad-45bf-9e28-7c78bfcbb5c0","ios":"levelo://app?vid=04de76c4-a1ad-45bf-9e28-7c78bfcbb5c0"},"vehicle_type_id":"4","last_reported":1745561689,"current_range_meters":6000,"station_id":"","pricing_plan_id":"cebpf4jnsgd1na2vs0mg"},{"bike_id":"c7e2fbd4-97ab-45a8-a063-805939e59f3a","system_id":"levelo_inurba_marseille","lat":43.2956,"lon":5.45685,"is_reserved":false,"is_disabled":false,"rental_uris":{"android":"levelo://app?vid=c7e2fbd4-97ab-45a8-a063-805939e59f3a","ios":"levelo://app?vid=c7e2fbd4-97ab-45a8-a063-805939e59f3a"},"vehicle_type_id":"4","last_reported":1745561689,"current_range_meters":6000,"station_id":"","pricing_plan_id":"cebpf4jnsgd1na2vs0mg"},{"bike_id":"48a66b8d-09cc-4b1d-9fd9-f8fefe8540ef","system_id":"levelo_inurba_marseille","lat":43.26562,"lon":5.39035,"is_reserved":false,"is_disabled":false,"rental_uris":{"android":"levelo://app?vid=48a66b8d-09cc-4b1d-9fd9-f8fefe8540ef","ios":"levelo://app?vid=48a66b8d-09cc-4b1d-9fd9-f8fefe8540ef"},"vehicle_type_id":"4","last_reported":1745561689,"current_range_meters":6000,"station_id":"ce4bhe12rcd13ifvqf30","pricing_plan_id":"cebpf4jnsgd1na2vs0mg"},{"bike_id":"527053e2-9aa9-4e0c-851f-aa8cfdcac958","system_id":"levelo_inurba_marseille","lat":43.3205,"lon":5.38184,"is_reserved":false,"is_disabled":false,"rental_uris":{"android":"levelo://app?vid=527053e2-9aa9-4e0c-851f-aa8cfdcac958","ios":"levelo://app?vid=527053e2-9aa9-4e0c-851f-aa8cfdcac958"},"vehicle_type_id":"4","last_reported":1745561689,"current_range_meters":6400,"station_id":"","pricing_plan_id":"cebpf4jnsgd1na2vs0mg"},{"bike_id":"77f21559-ee32-4fe4-927e-b3030a53f1f8","system_id":"levelo_inurba_marseille","lat":43.25105,"lon":5.40311,"is_reserved":false,"is_disabled":false,"rental_uris":{"android":"levelo://app?vid=77f21559-ee32-4fe4-927e-b3030a53f1f8","ios":"levelo://app?vid=77f21559-ee32-4fe4-927e-b3030a53f1f8"},"vehicle_type_id":"4","last_reported":1745561689,"current_range_meters":6400,"station_id":"ce4bhlh2rcd13ifvqgig","pricing_plan_id":"cebpf4jnsgd1na2vs0mg"},{"bike_id":"3c54ad30-19ea-4b3f-b2a4-a4955e71e2d4","system_id":"levelo_inurba_marseille","lat":43.240733,"lon":5.37755,"is_reserved":false,"is_disabled":false,"rental_uris":{"android":"levelo://app?vid=3c54ad30-19ea-4b3f-b2a4-a4955e71e2d4","ios":"levelo://app?vid=3c54ad30-19ea-4b3f-b2a4-a4955e71e2d4"},"vehicle_type_id":"4","last_reported":1745561689,"current_range_meters":6000,"station_id":"ce4bhnp2rcd13ifvqgvg","pricing_plan_id":"cebpf4jnsgd1na2vs0mg"},{"bike_id":"cfb4b89f-0f07-4e66-8d5d-eecea72c556a","system_id":"levelo_inurba_marseille","lat":43.29536,"lon":5.38544,"is_reserved":false,"is_disabled":true,"rental_uris":{"android":"levelo://app?vid=cfb4b89f-0f07-4e66-8d5d-eecea72c556a","ios":"levelo://app?vid=cfb4b89f-0f07-4e66-8d5d-eecea72c556a"},"vehicle_type_id":"4","last_reported":1745561689,"current_range_meters":6400,"station_id":"ce4bgih2rcd13ifvqba0","pricing_plan_id":"cebpf4jnsgd1na2vs0mg"},{"bike_id":"b3094e88-ac74-4f57-b096-b0357aadc63b","system_id":"levelo_inurba_marseille","lat":43.23161,"lon":5.43733,"is_reserved":false,"is_disabled":false,"rental_uris":{"android":"levelo://app?vid=b3094e88-ac74-4f57-b096-b0357aadc63b","ios":"levelo://app?vid=b3094e88-ac74-4f57-b096-b0357aadc63b"},"vehicle_type_id":"4","last_reported":1745561689,"current_range_meters":6400,"station_id":"ce4bhmp2rcd13ifvqgog","pricing_plan_id":"cebpf4jnsgd1na2vs0mg"},{"bike_id":"49dcf3c1-f917-40ce-87e5-97f6f3209a7b","system_id":"levelo_inurba_marseille","lat":43.27495,"lon":5.42455,"is_reserved":false,"is_disabled":false,"rental_uris":{"android":"levelo://app?vid=49dcf3c1-f917-40ce-87e5-97f6f3209a7b","ios":"levelo://app?vid=49dcf3c1-f917-40ce-87e5-97f6f3209a7b"},"vehicle_type_id":"4","last_reported":1745561689,"current_range_meters":6800,"station_id":"ce4bhn92rcd13ifvqgrg","pricing_plan_id":"cebpf4jnsgd1na2vs0mg"},{"bike_id":"fa357e38-a34b-41a0-ba5d-37fc4c23cd55","system_id":"levelo_inurba_marseille","lat":43.30468,"lon":5.37893,"is_reserved":false,"is_disabled":false,"rental_uris":{"android":"levelo://app?vid=fa357e38-a34b-41a0-ba5d-37fc4c23cd55","ios":"levelo://app?vid=fa357e38-a34b-41a0-ba5d-37fc4c23cd55"},"vehicle_type_id":"4","last_reported":1745561689,"current_range_meters":6800,"station_id":"ce4bgup2rcd13ifvqcn0","pricing_plan_id":"cebpf4jnsgd1na2vs0mg"},{"bike_id":"668180c5-985e-4b98-aa5a-a9ae47f8fa4d","system_id":"levelo_inurba_marseille","lat":43.28935,"lon":5.39633,"is_reserved":false,"is_disabled":false,"rental_uris":{"android":"levelo://app?vid=668180c5-985e-4b98-aa5a-a9ae47f8fa4d","ios":"levelo://app?vid=668180c5-985e-4b98-aa5a-a9ae47f8fa4d"},"vehicle_type_id":"4","last_reported":1745561689,"current_range_meters":6800,"station_id":"ce4bh3h2rcd13ifvqdn0","pricing_plan_id":"cebpf4jnsgd1na2vs0mg"},{"bike_id":"e5e6387e-799d-49f8-9caa-4061ff31ee68","system_id":"levelo_inurba_marseille","lat":43.22512,"lon":5.34795,"is_reserved":false,"is_disabled":false,"rental_uris":{"android":"levelo://app?vid=e5e6387e-799d-49f8-9caa-4061ff31ee68","ios":"levelo://app?vid=e5e6387e-799d-49f8-9caa-4061ff31ee68"},"vehicle_type_id":"4","last_reported":1745561689,"current_range_meters":7200,"station_id":"st_cvj5dfep6f1abm77gieg","pricing_plan_id":"cebpf4jnsgd1na2vs0mg"},{"bike_id":"ced12316-3e1a-4b16-be64-7b240d008637","system_id":"levelo_inurba_marseille","lat":43.26955,"lon":5.38634,"is_reserved":false,"is_disabled":false,"rental_uris":{"android":"levelo://app?vid=ced12316-3e1a-4b16-be64-7b240d008637","ios":"levelo://app?vid=ced12316-3e1a-4b16-be64-7b240d008637"},"vehicle_type_id":"4","last_reported":1745561689,"current_range_meters":7200,"station_id":"ce4bhh92rcd13ifvqfh0","pricing_plan_id":"cebpf4jnsgd1na2vs0mg"},{"bike_id":"f19fd7bb-12b2-4e34-a677-b018e16bbe7c","system_id":"levelo_inurba_marseille","lat":43.31221,"lon":5.36866,"is_reserved":false,"is_disabled":false,"rental_uris":{"android":"levelo://app?vid=f19fd7bb-12b2-4e34-a677-b018e16bbe7c","ios":"levelo://app?vid=f19fd7bb-12b2-4e34-a677-b018e16bbe7c"},"vehicle_type_id":"4","last_reported":1745561689,"current_range_meters":7200,"station_id":"ce4bgl92rcd13ifvqbq0","pricing_plan_id":"cebpf4jnsgd1na2vs0mg"},{"bike_id":"7258c5f1-beb2-4c9f-8f52-f09c6b8e693d","system_id":"levelo_inurba_marseille","lat":43.30379,"lon":5.42512,"is_reserved":false,"is_disabled":false,"rental_uris":{"android":"levelo://app?vid=7258c5f1-beb2-4c9f-8f52-f09c6b8e693d","ios":"levelo://app?vid=7258c5f1-beb2-4c9f-8f52-f09c6b8e693d"},"vehicle_type_id":"4","last_reported":1745561689,"current_range_meters":7200,"station_id":"ce4bhoh2rcd13ifvqh6g","pricing_plan_id":"cebpf4jnsgd1na2vs0mg"},{"bike_id":"fa072638-79d4-42b6-a779-d7bc984e3de1","system_id":"levelo_inurba_marseille","lat":43.23188,"lon":5.3999,"is_reserved":false,"is_disabled":false,"rental_uris":{"android":"levelo://app?vid=fa072638-79d4-42b6-a779-d7bc984e3de1","ios":"levelo://app?vid=fa072638-79d4-42b6-a779-d7bc984e3de1"},"vehicle_type_id":"4","last_reported":1745561689,"current_range_meters":7200,"station_id":"ce4bhn12rcd13ifvqgqg","pricing_plan_id":"cebpf4jnsgd1na2vs0mg"},{"bike_id":"4ab6bc02-32cf-4c5b-8e00-93978cd7dbda","system_id":"levelo_inurba_marseille","lat":43.34138,"lon":5.40908,"is_reserved":false,"is_disabled":false,"rental_uris":{"android":"levelo://app?vid=4ab6bc02-32cf-4c5b-8e00-93978cd7dbda","ios":"levelo://app?vid=4ab6bc02-32cf-4c5b-8e00-93978cd7dbda"},"vehicle_type_id":"4","last_reported":1745561689,"current_range_meters":7200,"station_id":"ce4bhqh2rcd13ifvqhlg","pricing_plan_id":"cebpf4jnsgd1na2vs0mg"},{"bike_id":"3d193f16-cbfb-4635-8fcf-1164d62cfc64","system_id":"levelo_inurba_marseille","lat":43.30877,"lon":5.39617,"is_reserved":false,"is_disabled":true,"rental_uris":{"android":"levelo://app?vid=3d193f16-cbfb-4635-8fcf-1164d62cfc64","ios":"levelo://app?vid=3d193f16-cbfb-4635-8fcf-1164d62cfc64"},"vehicle_type_id":"4","last_reported":1745561689,"current_range_meters":7200,"station_id":"ce4bh012rcd13ifvqcv0","pricing_plan_id":"cebpf4jnsgd1na2vs0mg"},{"bike_id":"9d16ad86-9ee6-430b-bde1-d7870d768403","system_id":"levelo_inurba_marseille","lat":43.25938,"lon":5.40909,"is_reserved":false,"is_disabled":false,"rental_uris":{"android":"levelo://app?vid=9d16ad86-9ee6-430b-bde1-d7870d768403","ios":"levelo://app?vid=9d16ad86-9ee6-430b-bde1-d7870d768403"},"vehicle_type_id":"4","last_reported":1745561689,"current_range_meters":7200,"station_id":"ce4bhm92rcd13ifvqglg","pricing_plan_id":"cebpf4jnsgd1na2vs0mg"},{"bike_id":"2490c850-e8ad-49d1-8887-b8f9d6b59f38","system_id":"levelo_inurba_marseille","lat":43.231928,"lon":5.399954,"is_reserved":false,"is_disabled":true,"rental_uris":{"android":"levelo://app?vid=2490c850-e8ad-49d1-8887-b8f9d6b59f38","ios":"levelo://app?vid=2490c850-e8ad-49d1-8887-b8f9d6b59f38"},"vehicle_type_id":"4","last_reported":1745561689,"current_range_meters":7200,"station_id":"ce4bhn12rcd13ifvqgqg","pricing_plan_id":"cebpf4jnsgd1na2vs0mg"},{"bike_id":"99862305-32a2-444d-8334-228f5792e221","system_id":"levelo_inurba_marseille","lat":43.29272,"lon":5.36843,"is_reserved":false,"is_disabled":true,"rental_uris":{"android":"levelo://app?vid=99862305-32a2-444d-8334-228f5792e221","ios":"levelo://app?vid=99862305-32a2-444d-8334-228f5792e221"},"vehicle_type_id":"4","last_reported":1745561689,"current_range_meters":7200,"station_id":"ce4bhbp2rcd13ifvqesg","pricing_plan_id":"cebpf4jnsgd1na2vs0mg"},{"bike_id":"bd0c2e9e-2445-40e7-b282-79b710fbc623","system_id":"levelo_inurba_marseille","lat":43.23179,"lon":5.39965,"is_reserved":false,"is_disabled":false,"rental_uris":{"android":"levelo://app?vid=bd0c2e9e-2445-40e7-b282-79b710fbc623","ios":"levelo://app?vid=bd0c2e9e-2445-40e7-b282-79b710fbc623"},"vehicle_type_id":"4","last_reported":1745561689,"current_range_meters":8000,"station_id":"ce4bhn12rcd13ifvqgqg","pricing_plan_id":"cebpf4jnsgd1na2vs0mg"},{"bike_id":"18321386-6007-41d7-a392-599343c03345","system_id":"levelo_inurba_marseille","lat":43.313581,"lon":5.385006,"is_reserved":false,"is_disabled":true,"rental_uris":{"android":"levelo://app?vid=18321386-6007-41d7-a392-599343c03345","ios":"levelo://app?vid=18321386-6007-41d7-a392-599343c03345"},"vehicle_type_id":"4","last_reported":1745561689,"current_range_meters":8000,"station_id":"ce4bgt92rcd13ifvqcf0","pricing_plan_id":"cebpf4jnsgd1na2vs0mg"},{"bike_id":"9b8ed44c-5e0a-4cb8-a77f-4a79fad05f53","system_id":"levelo_inurba_marseille","lat":43.30145,"lon":5.38077,"is_reserved":false,"is_disabled":false,"rental_uris":{"android":"levelo://app?vid=9b8ed44c-5e0a-4cb8-a77f-4a79fad05f53","ios":"levelo://app?vid=9b8ed44c-5e0a-4cb8-a77f-4a79fad05f53"},"vehicle_type_id":"4","last_reported":1745561689,"current_range_meters":8000,"station_id":"ce4bgjp2rcd13ifvqbh0","pricing_plan_id":"cebpf4jnsgd1na2vs0mg"},{"bike_id":"7c379aec-53b6-4cd7-a0f2-e73a75034457","system_id":"levelo_inurba_marseille","lat":43.24076,"lon":5.37753,"is_reserved":false,"is_disabled":false,"rental_uris":{"android":"levelo://app?vid=7c379aec-53b6-4cd7-a0f2-e73a75034457","ios":"levelo://app?vid=7c379aec-53b6-4cd7-a0f2-e73a75034457"},"vehicle_type_id":"4","last_reported":1745561689,"current_range_meters":8000,"station_id":"ce4bhnp2rcd13ifvqgvg","pricing_plan_id":"cebpf4jnsgd1na2vs0mg"},{"bike_id":"44c0201e-c9f3-4ec8-9f19-45cfbbe2ef08","system_id":"levelo_inurba_marseille","lat":43.25499,"lon":5.37657,"is_reserved":false,"is_disabled":false,"rental_uris":{"android":"levelo://app?vid=44c0201e-c9f3-4ec8-9f19-45cfbbe2ef08","ios":"levelo://app?vid=44c0201e-c9f3-4ec8-9f19-45cfbbe2ef08"},"vehicle_type_id":"4","last_reported":1745561689,"current_range_meters":8000,"station_id":"ce4bhh12rcd13ifvqff0","pricing_plan_id":"cebpf4jnsgd1na2vs0mg"},{"bike_id":"fda222cb-8da0-4ad8-95ab-2868913cd8c6","system_id":"levelo_inurba_marseille","lat":43.23152,"lon":5.43713,"is_reserved":false,"is_disabled":false,"rental_uris":{"android":"levelo://app?vid=fda222cb-8da0-4ad8-95ab-2868913cd8c6","ios":"levelo://app?vid=fda222cb-8da0-4ad8-95ab-2868913cd8c6"},"vehicle_type_id":"4","last_reported":1745561689,"current_range_meters":7200,"station_id":"ce4bhmp2rcd13ifvqgog","pricing_plan_id":"cebpf4jnsgd1na2vs0mg"},{"bike_id":"eb772212-defc-4543-ad57-fa606af571fb","system_id":"levelo_inurba_marseille","lat":43.23209,"lon":5.39979,"is_reserved":false,"is_disabled":false,"rental_uris":{"android":"levelo://app?vid=eb772212-defc-4543-ad57-fa606af571fb","ios":"levelo://app?vid=eb772212-defc-4543-ad57-fa606af571fb"},"vehicle_type_id":"4","last_reported":1745561689,"current_range_meters":8000,"station_id":"ce4bhn12rcd13ifvqgqg","pricing_plan_id":"cebpf4jnsgd1na2vs0mg"},{"bike_id":"8c26355a-df8a-43a7-b3f3-9910f45b19a0","system_id":"levelo_inurba_marseille","lat":43.3054,"lon":5.36527,"is_reserved":false,"is_disabled":false,"rental_uris":{"android":"levelo://app?vid=8c26355a-df8a-43a7-b3f3-9910f45b19a0","ios":"levelo://app?vid=8c26355a-df8a-43a7-b3f3-9910f45b19a0"},"vehicle_type_id":"4","last_reported":1745561689,"current_range_meters":7200,"station_id":"ce4bgs12rcd13ifvqcag","pricing_plan_id":"cebpf4jnsgd1na2vs0mg"},{"bike_id":"f5c69073-50c0-490a-a2e7-837f52ac87fa","system_id":"levelo_inurba_marseille","lat":43.2408,"lon":5.37754,"is_reserved":false,"is_disabled":false,"rental_uris":{"android":"levelo://app?vid=f5c69073-50c0-490a-a2e7-837f52ac87fa","ios":"levelo://app?vid=f5c69073-50c0-490a-a2e7-837f52ac87fa"},"vehicle_type_id":"4","last_reported":1745561689,"current_range_meters":8400,"station_id":"ce4bhnp2rcd13ifvqgvg","pricing_plan_id":"cebpf4jnsgd1na2vs0mg"},{"bike_id":"9796ea84-292a-459d-a85a-07a99c0c9dcb","system_id":"levelo_inurba_marseille","lat":43.3046,"lon":5.37913,"is_reserved":false,"is_disabled":false,"rental_uris":{"android":"levelo://app?vid=9796ea84-292a-459d-a85a-07a99c0c9dcb","ios":"levelo://app?vid=9796ea84-292a-459d-a85a-07a99c0c9dcb"},"vehicle_type_id":"4","last_reported":1745561689,"current_range_meters":8400,"station_id":"ce4bgup2rcd13ifvqcn0","pricing_plan_id":"cebpf4jnsgd1na2vs0mg"},{"bike_id":"46374c49-3adc-4c5a-8966-e00f056c0d57","system_id":"levelo_inurba_marseille","lat":43.27846,"lon":5.35442,"is_reserved":false,"is_disabled":false,"rental_uris":{"android":"levelo://app?vid=46374c49-3adc-4c5a-8966-e00f056c0d57","ios":"levelo://app?vid=46374c49-3adc-4c5a-8966-e00f056c0d57"},"vehicle_type_id":"4","last_reported":1745561689,"current_range_meters":8400,"station_id":"","pricing_plan_id":"cebpf4jnsgd1na2vs0mg"},{"bike_id":"c261c6fe-eb1e-459a-9951-d4092bb66b6f","system_id":"levelo_inurba_marseille","lat":43.29283,"lon":5.40131,"is_reserved":false,"is_disabled":false,"rental_uris":{"android":"levelo://app?vid=c261c6fe-eb1e-459a-9951-d4092bb66b6f","ios":"levelo://app?vid=c261c6fe-eb1e-459a-9951-d4092bb66b6f"},"vehicle_type_id":"4","last_reported":1745561689,"current_range_meters":8400,"station_id":"ce4bh312rcd13ifvqdk0","pricing_plan_id":"cebpf4jnsgd1na2vs0mg"},{"bike_id":"25ea231c-7696-4929-83d6-f455e80883ea","system_id":"levelo_inurba_marseille","lat":43.3229,"lon":5.38277,"is_reserved":false,"is_disabled":false,"rental_uris":{"android":"levelo://app?vid=25ea231c-7696-4929-83d6-f455e80883ea","ios":"levelo://app?vid=25ea231c-7696-4929-83d6-f455e80883ea"},"vehicle_type_id":"4","last_reported":1745561689,"current_range_meters":8400,"station_id":"ce4bhr12rcd13ifvqhqg","pricing_plan_id":"cebpf4jnsgd1na2vs0mg"},{"bike_id":"a34cac34-324e-4070-b1d4-0ed2738f7343","system_id":"levelo_inurba_marseille","lat":43.30274,"lon":5.37726,"is_reserved":false,"is_disabled":false,"rental_uris":{"android":"levelo://app?vid=a34cac34-324e-4070-b1d4-0ed2738f7343","ios":"levelo://app?vid=a34cac34-324e-4070-b1d4-0ed2738f7343"},"vehicle_type_id":"4","last_reported":1745561689,"current_range_meters":8000,"station_id":"ce4bguh2rcd13ifvqcj0","pricing_plan_id":"cebpf4jnsgd1na2vs0mg"},{"bike_id":"127c4389-0310-4456-aaea-f6c99253fa0e","system_id":"levelo_inurba_marseille","lat":43.2794,"lon":5.41048,"is_reserved":false,"is_disabled":false,"rental_uris":{"android":"levelo://app?vid=127c4389-0310-4456-aaea-f6c99253fa0e","ios":"levelo://app?vid=127c4389-0310-4456-aaea-f6c99253fa0e"},"vehicle_type_id":"4","last_reported":1745561689,"current_range_meters":8400,"station_id":"ce4bhnp2rcd13ifvqh0g","pricing_plan_id":"cebpf4jnsgd1na2vs0mg"},{"bike_id":"4959620f-bcf8-47e6-be19-b230de6ed982","system_id":"levelo_inurba_marseille","lat":43.3042,"lon":5.39771,"is_reserved":false,"is_disabled":false,"rental_uris":{"android":"levelo://app?vid=4959620f-bcf8-47e6-be19-b230de6ed982","ios":"levelo://app?vid=4959620f-bcf8-47e6-be19-b230de6ed982"},"vehicle_type_id":"4","last_reported":1745561689,"current_range_meters":8400,"station_id":"ce4bh092rcd13ifvqd20","pricing_plan_id":"cebpf4jnsgd1na2vs0mg"},{"bike_id":"2686948c-9820-4401-8134-ee2a9d1934f7","system_id":"levelo_inurba_marseille","lat":43.24673,"lon":5.38614,"is_reserved":false,"is_disabled":false,"rental_uris":{"android":"levelo://app?vid=2686948c-9820-4401-8134-ee2a9d1934f7","ios":"levelo://app?vid=2686948c-9820-4401-8134-ee2a9d1934f7"},"vehicle_type_id":"4","last_reported":1745561689,"current_range_meters":8400,"station_id":"","pricing_plan_id":"cebpf4jnsgd1na2vs0mg"},{"bike_id":"8bf7bae2-66cf-41b0-94df-d1c78d2e8a1a","system_id":"levelo_inurba_marseille","lat":43.24098,"lon":5.37804,"is_reserved":false,"is_disabled":false,"rental_uris":{"android":"levelo://app?vid=8bf7bae2-66cf-41b0-94df-d1c78d2e8a1a","ios":"levelo://app?vid=8bf7bae2-66cf-41b0-94df-d1c78d2e8a1a"},"vehicle_type_id":"4","last_reported":1745561689,"current_range_meters":8400,"station_id":"ce4bhnp2rcd13ifvqgvg","pricing_plan_id":"cebpf4jnsgd1na2vs0mg"},{"bike_id":"bff055e2-9ae7-4273-8f40-ef2e123f7133","system_id":"levelo_inurba_marseille","lat":43.31082,"lon":5.42429,"is_reserved":false,"is_disabled":false,"rental_uris":{"android":"levelo://app?vid=bff055e2-9ae7-4273-8f40-ef2e123f7133","ios":"levelo://app?vid=bff055e2-9ae7-4273-8f40-ef2e123f7133"},"vehicle_type_id":"4","last_reported":1745561689,"current_range_meters":8800,"station_id":"ce4bhp92rcd13ifvqhag","pricing_plan_id":"cebpf4jnsgd1na2vs0mg"},{"bike_id":"ee6527da-da73-48c4-b537-aec8adf1fba6","system_id":"levelo_inurba_marseille","lat":43.295345,"lon":5.390413,"is_reserved":false,"is_disabled":false,"rental_uris":{"android":"levelo://app?vid=ee6527da-da73-48c4-b537-aec8adf1fba6","ios":"levelo://app?vid=ee6527da-da73-48c4-b537-aec8adf1fba6"},"vehicle_type_id":"4","last_reported":1745561689,"current_range_meters":8800,"station_id":"ce4bh3p2rcd13ifvqdp0","pricing_plan_id":"cebpf4jnsgd1na2vs0mg"},{"bike_id":"76a22161-1fd5-41bc-9b2b-8cee494d4168","system_id":"levelo_inurba_marseille","lat":43.30647,"lon":5.400898,"is_reserved":false,"is_disabled":false,"rental_uris":{"android":"levelo://app?vid=76a22161-1fd5-41bc-9b2b-8cee494d4168","ios":"levelo://app?vid=76a22161-1fd5-41bc-9b2b-8cee494d4168"},"vehicle_type_id":"4","last_reported":1745561689,"current_range_meters":8800,"station_id":"","pricing_plan_id":"cebpf4jnsgd1na2vs0mg"},{"bike_id":"025eb0af-0008-4297-af9b-062f276257b8","system_id":"levelo_inurba_marseille","lat":43.32541,"lon":5.41438,"is_reserved":false,"is_disabled":false,"rental_uris":{"android":"levelo://app?vid=025eb0af-0008-4297-af9b-062f276257b8","ios":"levelo://app?vid=025eb0af-0008-4297-af9b-062f276257b8"},"vehicle_type_id":"4","last_reported":1745561689,"current_range_meters":8800,"station_id":"ce4bhq12rcd13ifvqhhg","pricing_plan_id":"cebpf4jnsgd1na2vs0mg"},{"bike_id":"0013966c-ef97-46fc-a9b6-b1eb056f8ad3","system_id":"levelo_inurba_marseille","lat":43.24072,"lon":5.37724,"is_reserved":false,"is_disabled":false,"rental_uris":{"android":"levelo://app?vid=0013966c-ef97-46fc-a9b6-b1eb056f8ad3","ios":"levelo://app?vid=0013966c-ef97-46fc-a9b6-b1eb056f8ad3"},"vehicle_type_id":"4","last_reported":1745561689,"current_range_meters":9200,"station_id":"ce4bhnp2rcd13ifvqgvg","pricing_plan_id":"cebpf4jnsgd1na2vs0mg"},{"bike_id":"e3184f7c-4dbb-4c21-92dc-4a63d42a75a3","system_id":"levelo_inurba_marseille","lat":43.27498,"lon":5.42449,"is_reserved":false,"is_disabled":false,"rental_uris":{"android":"levelo://app?vid=e3184f7c-4dbb-4c21-92dc-4a63d42a75a3","ios":"levelo://app?vid=e3184f7c-4dbb-4c21-92dc-4a63d42a75a3"},"vehicle_type_id":"4","last_reported":1745561689,"current_range_meters":9200,"station_id":"ce4bhn92rcd13ifvqgrg","pricing_plan_id":"cebpf4jnsgd1na2vs0mg"},{"bike_id":"d5933df8-e3a2-49de-973f-f5752e47c06e","system_id":"levelo_inurba_marseille","lat":43.24994,"lon":5.38939,"is_reserved":false,"is_disabled":false,"rental_uris":{"android":"levelo://app?vid=d5933df8-e3a2-49de-973f-f5752e47c06e","ios":"levelo://app?vid=d5933df8-e3a2-49de-973f-f5752e47c06e"},"vehicle_type_id":"4","last_reported":1745561689,"current_range_meters":9200,"station_id":"ce4bhgp2rcd13ifvqfd0","pricing_plan_id":"cebpf4jnsgd1na2vs0mg"},{"bike_id":"2b78e99c-4810-4d95-83cf-575fcbeb54ef","system_id":"levelo_inurba_marseille","lat":43.3016,"lon":5.38085,"is_reserved":false,"is_disabled":false,"rental_uris":{"android":"levelo://app?vid=2b78e99c-4810-4d95-83cf-575fcbeb54ef","ios":"levelo://app?vid=2b78e99c-4810-4d95-83cf-575fcbeb54ef"},"vehicle_type_id":"4","last_reported":1745561689,"current_range_meters":9200,"station_id":"ce4bgjp2rcd13ifvqbh0","pricing_plan_id":"cebpf4jnsgd1na2vs0mg"},{"bike_id":"3f4fffef-9d06-4513-a8be-a4167b14ccb8","system_id":"levelo_inurba_marseille","lat":43.309661,"lon":5.371754,"is_reserved":false,"is_disabled":false,"rental_uris":{"android":"levelo://app?vid=3f4fffef-9d06-4513-a8be-a4167b14ccb8","ios":"levelo://app?vid=3f4fffef-9d06-4513-a8be-a4167b14ccb8"},"vehicle_type_id":"4","last_reported":1745561689,"current_range_meters":9600,"station_id":"","pricing_plan_id":"cebpf4jnsgd1na2vs0mg"},{"bike_id":"d8840801-a52a-4c7c-9a2d-3e5f8bcef267","system_id":"levelo_inurba_marseille","lat":43.2803,"lon":5.36951,"is_reserved":false,"is_disabled":false,"rental_uris":{"android":"levelo://app?vid=d8840801-a52a-4c7c-9a2d-3e5f8bcef267","ios":"levelo://app?vid=d8840801-a52a-4c7c-9a2d-3e5f8bcef267"},"vehicle_type_id":"4","last_reported":1745561689,"current_range_meters":9600,"station_id":"ce4bha12rcd13ifvqef0","pricing_plan_id":"cebpf4jnsgd1na2vs0mg"},{"bike_id":"2a112877-49f5-46fa-8cde-0cd4528c281e","system_id":"levelo_inurba_marseille","lat":43.2808,"lon":5.39675,"is_reserved":false,"is_disabled":false,"rental_uris":{"android":"levelo://app?vid=2a112877-49f5-46fa-8cde-0cd4528c281e","ios":"levelo://app?vid=2a112877-49f5-46fa-8cde-0cd4528c281e"},"vehicle_type_id":"4","last_reported":1745561689,"current_range_meters":9600,"station_id":"ce4bho12rcd13ifvqh2g","pricing_plan_id":"cebpf4jnsgd1na2vs0mg"},{"bike_id":"391ee3af-ca61-4f95-a151-9bc5c1f6cb8b","system_id":"levelo_inurba_marseille","lat":43.29039,"lon":5.39989,"is_reserved":false,"is_disabled":true,"rental_uris":{"android":"levelo://app?vid=391ee3af-ca61-4f95-a151-9bc5c1f6cb8b","ios":"levelo://app?vid=391ee3af-ca61-4f95-a151-9bc5c1f6cb8b"},"vehicle_type_id":"4","last_reported":1745561689,"current_range_meters":9200,"station_id":"ce4bh392rcd13ifvqdm0","pricing_plan_id":"cebpf4jnsgd1na2vs0mg"},{"bike_id":"3a41a14b-b60d-411c-aa4a-3b7d3df773ad","system_id":"levelo_inurba_marseille","lat":43.30206,"lon":5.36631,"is_reserved":false,"is_disabled":true,"rental_uris":{"android":"levelo://app?vid=3a41a14b-b60d-411c-aa4a-3b7d3df773ad","ios":"levelo://app?vid=3a41a14b-b60d-411c-aa4a-3b7d3df773ad"},"vehicle_type_id":"4","last_reported":1745561689,"current_range_meters":9600,"station_id":"ce4bgrh2rcd13ifvqc8g","pricing_plan_id":"cebpf4jnsgd1na2vs0mg"},{"bike_id":"6b0d1ec6-0d77-4bd1-9dce-9054c2481ed1","system_id":"levelo_inurba_marseille","lat":43.2439,"lon":5.37049,"is_reserved":false,"is_disabled":false,"rental_uris":{"android":"levelo://app?vid=6b0d1ec6-0d77-4bd1-9dce-9054c2481ed1","ios":"levelo://app?vid=6b0d1ec6-0d77-4bd1-9dce-9054c2481ed1"},"vehicle_type_id":"4","last_reported":1745561689,"current_range_meters":9600,"station_id":"ce4bhhh2rcd13ifvqfk0","pricing_plan_id":"cebpf4jnsgd1na2vs0mg"},{"bike_id":"d4a8fafa-88a7-48bf-b5a7-839e5bc03db8","system_id":"levelo_inurba_marseille","lat":43.2503,"lon":5.38925,"is_reserved":false,"is_disabled":true,"rental_uris":{"android":"levelo://app?vid=d4a8fafa-88a7-48bf-b5a7-839e5bc03db8","ios":"levelo://app?vid=d4a8fafa-88a7-48bf-b5a7-839e5bc03db8"},"vehicle_type_id":"4","last_reported":1745561689,"current_range_meters":9600,"station_id":"ce4bhgp2rcd13ifvqfd0","pricing_plan_id":"cebpf4jnsgd1na2vs0mg"},{"bike_id":"02ce4407-a958-420b-9bd3-98b2833b4b3f","system_id":"levelo_inurba_marseille","lat":43.29272,"lon":5.40123,"is_reserved":false,"is_disabled":false,"rental_uris":{"android":"levelo://app?vid=02ce4407-a958-420b-9bd3-98b2833b4b3f","ios":"levelo://app?vid=02ce4407-a958-420b-9bd3-98b2833b4b3f"},"vehicle_type_id":"4","last_reported":1745561689,"current_range_meters":9600,"station_id":"ce4bh312rcd13ifvqdk0","pricing_plan_id":"cebpf4jnsgd1na2vs0mg"},{"bike_id":"2d9c5985-7776-4299-a4d9-7a0b1ba90afd","system_id":"levelo_inurba_marseille","lat":43.27373,"lon":5.36254,"is_reserved":false,"is_disabled":false,"rental_uris":{"android":"levelo://app?vid=2d9c5985-7776-4299-a4d9-7a0b1ba90afd","ios":"levelo://app?vid=2d9c5985-7776-4299-a4d9-7a0b1ba90afd"},"vehicle_type_id":"4","last_reported":1745561689,"current_range_meters":10000,"station_id":"ce4bhbh2rcd13ifvqeo0","pricing_plan_id":"cebpf4jnsgd1na2vs0mg"},{"bike_id":"e0af5b2d-d938-45ab-85ec-6909123e4ef7","system_id":"levelo_inurba_marseille","lat":43.28153,"lon":5.42646,"is_reserved":false,"is_disabled":false,"rental_uris":{"android":"levelo://app?vid=e0af5b2d-d938-45ab-85ec-6909123e4ef7","ios":"levelo://app?vid=e0af5b2d-d938-45ab-85ec-6909123e4ef7"},"vehicle_type_id":"4","last_reported":1745561689,"current_range_meters":10000,"station_id":"ce4bhnh2rcd13ifvqgug","pricing_plan_id":"cebpf4jnsgd1na2vs0mg"},{"bike_id":"c919a48f-345c-4808-9762-e0f23e8a7f77","system_id":"levelo_inurba_marseille","lat":43.28176,"lon":5.42674,"is_reserved":false,"is_disabled":false,"rental_uris":{"android":"levelo://app?vid=c919a48f-345c-4808-9762-e0f23e8a7f77","ios":"levelo://app?vid=c919a48f-345c-4808-9762-e0f23e8a7f77"},"vehicle_type_id":"4","last_reported":1745561689,"current_range_meters":10000,"station_id":"ce4bhnh2rcd13ifvqgug","pricing_plan_id":"cebpf4jnsgd1na2vs0mg"},{"bike_id":"4997f8ed-8f8e-48a1-bef4-4463c81a6efb","system_id":"levelo_inurba_marseille","lat":43.28569,"lon":5.39491,"is_reserved":false,"is_disabled":false,"rental_uris":{"android":"levelo://app?vid=4997f8ed-8f8e-48a1-bef4-4463c81a6efb","ios":"levelo://app?vid=4997f8ed-8f8e-48a1-bef4-4463c81a6efb"},"vehicle_type_id":"4","last_reported":1745561689,"current_range_meters":9600,"station_id":"ce4bh292rcd13ifvqdg0","pricing_plan_id":"cebpf4jnsgd1na2vs0mg"},{"bike_id":"1be0eb9c-f13a-4528-a70c-da833c79b49f","system_id":"levelo_inurba_marseille","lat":43.29431,"lon":5.3861,"is_reserved":false,"is_disabled":true,"rental_uris":{"android":"levelo://app?vid=1be0eb9c-f13a-4528-a70c-da833c79b49f","ios":"levelo://app?vid=1be0eb9c-f13a-4528-a70c-da833c79b49f"},"vehicle_type_id":"4","last_reported":1745561689,"current_range_meters":10800,"station_id":"ce4bh2h2rcd13ifvqdh0","pricing_plan_id":"cebpf4jnsgd1na2vs0mg"},{"bike_id":"84c51a55-47b7-4b91-88f0-0d5a084f2e8f","system_id":"levelo_inurba_marseille","lat":43.280351,"lon":5.369453,"is_reserved":false,"is_disabled":false,"rental_uris":{"android":"levelo://app?vid=84c51a55-47b7-4b91-88f0-0d5a084f2e8f","ios":"levelo://app?vid=84c51a55-47b7-4b91-88f0-0d5a084f2e8f"},"vehicle_type_id":"4","last_reported":1745561689,"current_range_meters":10800,"station_id":"ce4bha12rcd13ifvqef0","pricing_plan_id":"cebpf4jnsgd1na2vs0mg"},{"bike_id":"db16ee33-13b7-42d1-94b9-4aff0843b605","system_id":"levelo_inurba_marseille","lat":43.30274,"lon":5.37721,"is_reserved":false,"is_disabled":false,"rental_uris":{"android":"levelo://app?vid=db16ee33-13b7-42d1-94b9-4aff0843b605","ios":"levelo://app?vid=db16ee33-13b7-42d1-94b9-4aff0843b605"},"vehicle_type_id":"4","last_reported":1745561689,"current_range_meters":10000,"station_id":"ce4bguh2rcd13ifvqcj0","pricing_plan_id":"cebpf4jnsgd1na2vs0mg"},{"bike_id":"0e945859-fa31-40e1-b139-93bf53b136e5","system_id":"levelo_inurba_marseille","lat":43.29023,"lon":5.38662,"is_reserved":false,"is_disabled":true,"rental_uris":{"android":"levelo://app?vid=0e945859-fa31-40e1-b139-93bf53b136e5","ios":"levelo://app?vid=0e945859-fa31-40e1-b139-93bf53b136e5"},"vehicle_type_id":"4","last_reported":1745561689,"current_range_meters":10800,"station_id":"ce4bh4p2rcd13ifvqe0g","pricing_plan_id":"cebpf4jnsgd1na2vs0mg"},{"bike_id":"7242fde6-71be-44fc-a171-eead9671cf0e","system_id":"levelo_inurba_marseille","lat":43.30107,"lon":5.38089,"is_reserved":false,"is_disabled":false,"rental_uris":{"android":"levelo://app?vid=7242fde6-71be-44fc-a171-eead9671cf0e","ios":"levelo://app?vid=7242fde6-71be-44fc-a171-eead9671cf0e"},"vehicle_type_id":"4","last_reported":1745561689,"current_range_meters":10800,"station_id":"ce4bgjp2rcd13ifvqbh0","pricing_plan_id":"cebpf4jnsgd1na2vs0mg"},{"bike_id":"b1288da2-6a65-44a2-b3cb-535de8427b1c","system_id":"levelo_inurba_marseille","lat":43.31364,"lon":5.36744,"is_reserved":false,"is_disabled":false,"rental_uris":{"android":"levelo://app?vid=b1288da2-6a65-44a2-b3cb-535de8427b1c","ios":"levelo://app?vid=b1288da2-6a65-44a2-b3cb-535de8427b1c"},"vehicle_type_id":"4","last_reported":1745561689,"current_range_meters":10800,"station_id":"ce4bgr92rcd13ifvqc6g","pricing_plan_id":"cebpf4jnsgd1na2vs0mg"},{"bike_id":"a599e3d9-5379-4609-8f92-bfd64a20bb9a","system_id":"levelo_inurba_marseille","lat":43.24679,"lon":5.38183,"is_reserved":false,"is_disabled":false,"rental_uris":{"android":"levelo://app?vid=a599e3d9-5379-4609-8f92-bfd64a20bb9a","ios":"levelo://app?vid=a599e3d9-5379-4609-8f92-bfd64a20bb9a"},"vehicle_type_id":"4","last_reported":1745561689,"current_range_meters":10000,"station_id":"ce4bhih2rcd13ifvqfr0","pricing_plan_id":"cebpf4jnsgd1na2vs0mg"},{"bike_id":"7b6f18a6-3b7c-4e85-a917-75795b55ca32","system_id":"levelo_inurba_marseille","lat":43.30528,"lon":5.36695,"is_reserved":false,"is_disabled":false,"rental_uris":{"android":"levelo://app?vid=7b6f18a6-3b7c-4e85-a917-75795b55ca32","ios":"levelo://app?vid=7b6f18a6-3b7c-4e85-a917-75795b55ca32"},"vehicle_type_id":"4","last_reported":1745561689,"current_range_meters":10800,"station_id":"ce4bgrp2rcd13ifvqc9g","pricing_plan_id":"cebpf4jnsgd1na2vs0mg"},{"bike_id":"3a2924ee-1c38-472f-92a9-beb595f78e9b","system_id":"levelo_inurba_marseille","lat":43.33601,"lon":5.41025,"is_reserved":false,"is_disabled":false,"rental_uris":{"android":"levelo://app?vid=3a2924ee-1c38-472f-92a9-beb595f78e9b","ios":"levelo://app?vid=3a2924ee-1c38-472f-92a9-beb595f78e9b"},"vehicle_type_id":"4","last_reported":1745561689,"current_range_meters":11200,"station_id":"ce4bhqh2rcd13ifvqhmg","pricing_plan_id":"cebpf4jnsgd1na2vs0mg"},{"bike_id":"5b5a7c3d-ecf8-4da9-9598-eb8bfbf7e38d","system_id":"levelo_inurba_marseille","lat":43.28466,"lon":5.38437,"is_reserved":false,"is_disabled":false,"rental_uris":{"android":"levelo://app?vid=5b5a7c3d-ecf8-4da9-9598-eb8bfbf7e38d","ios":"levelo://app?vid=5b5a7c3d-ecf8-4da9-9598-eb8bfbf7e38d"},"vehicle_type_id":"4","last_reported":1745561689,"current_range_meters":11200,"station_id":"ce4bh512rcd13ifvqe3g","pricing_plan_id":"cebpf4jnsgd1na2vs0mg"},{"bike_id":"e5035251-2785-4474-91dd-78489b0f33e6","system_id":"levelo_inurba_marseille","lat":43.31498,"lon":5.37314,"is_reserved":false,"is_disabled":false,"rental_uris":{"android":"levelo://app?vid=e5035251-2785-4474-91dd-78489b0f33e6","ios":"levelo://app?vid=e5035251-2785-4474-91dd-78489b0f33e6"},"vehicle_type_id":"4","last_reported":1745561689,"current_range_meters":11200,"station_id":"ce4bgt12rcd13ifvqcd0","pricing_plan_id":"cebpf4jnsgd1na2vs0mg"},{"bike_id":"13a03cf4-d84f-423d-b71b-020922e0c702","system_id":"levelo_inurba_marseille","lat":43.28942,"lon":5.36639,"is_reserved":false,"is_disabled":false,"rental_uris":{"android":"levelo://app?vid=13a03cf4-d84f-423d-b71b-020922e0c702","ios":"levelo://app?vid=13a03cf4-d84f-423d-b71b-020922e0c702"},"vehicle_type_id":"4","last_reported":1745561689,"current_range_meters":11200,"station_id":"ce4bhap2rcd13ifvqek0","pricing_plan_id":"cebpf4jnsgd1na2vs0mg"},{"bike_id":"407859f8-ad6e-4706-b576-c01bcdb7c801","system_id":"levelo_inurba_marseille","lat":43.2987,"lon":5.36309,"is_reserved":false,"is_disabled":true,"rental_uris":{"android":"levelo://app?vid=407859f8-ad6e-4706-b576-c01bcdb7c801","ios":"levelo://app?vid=407859f8-ad6e-4706-b576-c01bcdb7c801"},"vehicle_type_id":"4","last_reported":1745561689,"current_range_meters":11200,"station_id":"ce4bgpp2rcd13ifvqc3g","pricing_plan_id":"cebpf4jnsgd1na2vs0mg"},{"bike_id":"d16edaea-2676-4481-8d1e-b641a62e6de7","system_id":"levelo_inurba_marseille","lat":43.2894,"lon":5.39622,"is_reserved":false,"is_disabled":false,"rental_uris":{"android":"levelo://app?vid=d16edaea-2676-4481-8d1e-b641a62e6de7","ios":"levelo://app?vid=d16edaea-2676-4481-8d1e-b641a62e6de7"},"vehicle_type_id":"4","last_reported":1745561689,"current_range_meters":11200,"station_id":"ce4bh3h2rcd13ifvqdn0","pricing_plan_id":"cebpf4jnsgd1na2vs0mg"},{"bike_id":"6bac9c21-1549-4a36-a290-8b339b1f09d2","system_id":"levelo_inurba_marseille","lat":43.30467,"lon":5.379,"is_reserved":false,"is_disabled":false,"rental_uris":{"android":"levelo://app?vid=6bac9c21-1549-4a36-a290-8b339b1f09d2","ios":"levelo://app?vid=6bac9c21-1549-4a36-a290-8b339b1f09d2"},"vehicle_type_id":"4","last_reported":1745561689,"current_range_meters":11200,"station_id":"ce4bgup2rcd13ifvqcn0","pricing_plan_id":"cebpf4jnsgd1na2vs0mg"},{"bike_id":"c2e4ad7f-6fe0-4345-9d07-c2bd22062952","system_id":"levelo_inurba_marseille","lat":43.27209,"lon":5.39187,"is_reserved":false,"is_disabled":false,"rental_uris":{"android":"levelo://app?vid=c2e4ad7f-6fe0-4345-9d07-c2bd22062952","ios":"levelo://app?vid=c2e4ad7f-6fe0-4345-9d07-c2bd22062952"},"vehicle_type_id":"4","last_reported":1745561689,"current_range_meters":11600,"station_id":"ce4bhhp2rcd13ifvqfm0","pricing_plan_id":"cebpf4jnsgd1na2vs0mg"},{"bike_id":"24d894ab-7267-4b40-99af-b1bffdb7623b","system_id":"levelo_inurba_marseille","lat":43.30405,"lon":5.41266,"is_reserved":false,"is_disabled":false,"rental_uris":{"android":"levelo://app?vid=24d894ab-7267-4b40-99af-b1bffdb7623b","ios":"levelo://app?vid=24d894ab-7267-4b40-99af-b1bffdb7623b"},"vehicle_type_id":"4","last_reported":1745561689,"current_range_meters":11600,"station_id":"ce4bhop2rcd13ifvqh8g","pricing_plan_id":"cebpf4jnsgd1na2vs0mg"},{"bike_id":"5a880c0a-7380-44b3-9851-61d073ab6e0d","system_id":"levelo_inurba_marseille","lat":43.29601,"lon":5.3999,"is_reserved":false,"is_disabled":false,"rental_uris":{"android":"levelo://app?vid=5a880c0a-7380-44b3-9851-61d073ab6e0d","ios":"levelo://app?vid=5a880c0a-7380-44b3-9851-61d073ab6e0d"},"vehicle_type_id":"4","last_reported":1745561689,"current_range_meters":11200,"station_id":"ce4bh312rcd13ifvqdj0","pricing_plan_id":"cebpf4jnsgd1na2vs0mg"},{"bike_id":"dd4cc315-b345-4c31-abe2-ac53fecce285","system_id":"levelo_inurba_marseille","lat":43.26785,"lon":5.39415,"is_reserved":false,"is_disabled":false,"rental_uris":{"android":"levelo://app?vid=dd4cc315-b345-4c31-abe2-ac53fecce285","ios":"levelo://app?vid=dd4cc315-b345-4c31-abe2-ac53fecce285"},"vehicle_type_id":"4","last_reported":1745561689,"current_range_meters":11200,"station_id":"ce4bhh12rcd13ifvqfg0","pricing_plan_id":"cebpf4jnsgd1na2vs0mg"},{"bike_id":"1a9b9ba2-6e5a-4697-beb7-5c65923a8b43","system_id":"levelo_inurba_marseille","lat":43.26797,"lon":5.39453,"is_reserved":false,"is_disabled":true,"rental_uris":{"android":"levelo://app?vid=1a9b9ba2-6e5a-4697-beb7-5c65923a8b43","ios":"levelo://app?vid=1a9b9ba2-6e5a-4697-beb7-5c65923a8b43"},"vehicle_type_id":"4","last_reported":1745561689,"current_range_meters":12000,"station_id":"ce4bhh12rcd13ifvqfg0","pricing_plan_id":"cebpf4jnsgd1na2vs0mg"},{"bike_id":"95f87491-2a5c-4fb6-9af1-a2095e8be377","system_id":"levelo_inurba_marseille","lat":43.26549,"lon":5.37281,"is_reserved":false,"is_disabled":false,"rental_uris":{"android":"levelo://app?vid=95f87491-2a5c-4fb6-9af1-a2095e8be377","ios":"levelo://app?vid=95f87491-2a5c-4fb6-9af1-a2095e8be377"},"vehicle_type_id":"4","last_reported":1745561689,"current_range_meters":12000,"station_id":"ce4bhg12rcd13ifvqf70","pricing_plan_id":"cebpf4jnsgd1na2vs0mg"},{"bike_id":"55c8d26c-3501-4da5-bf3f-06ad5305341b","system_id":"levelo_inurba_marseille","lat":43.28119,"lon":5.37858,"is_reserved":false,"is_disabled":true,"rental_uris":{"android":"levelo://app?vid=55c8d26c-3501-4da5-bf3f-06ad5305341b","ios":"levelo://app?vid=55c8d26c-3501-4da5-bf3f-06ad5305341b"},"vehicle_type_id":"4","last_reported":1745561689,"current_range_meters":12000,"station_id":"ce4bha12rcd13ifvqee0","pricing_plan_id":"cebpf4jnsgd1na2vs0mg"},{"bike_id":"bd95f0bb-c5b1-4d5c-837c-b505e5069d47","system_id":"levelo_inurba_marseille","lat":43.332499,"lon":5.397932,"is_reserved":false,"is_disabled":false,"rental_uris":{"android":"levelo://app?vid=bd95f0bb-c5b1-4d5c-837c-b505e5069d47","ios":"levelo://app?vid=bd95f0bb-c5b1-4d5c-837c-b505e5069d47"},"vehicle_type_id":"4","last_reported":1745561689,"current_range_meters":12000,"station_id":"","pricing_plan_id":"cebpf4jnsgd1na2vs0mg"},{"bike_id":"66848f5e-6513-47ef-8358-b57a57b8cb6c","system_id":"levelo_inurba_marseille","lat":43.272113,"lon":5.391799,"is_reserved":false,"is_disabled":false,"rental_uris":{"android":"levelo://app?vid=66848f5e-6513-47ef-8358-b57a57b8cb6c","ios":"levelo://app?vid=66848f5e-6513-47ef-8358-b57a57b8cb6c"},"vehicle_type_id":"4","last_reported":1745561689,"current_range_meters":12400,"station_id":"ce4bhh92rcd13ifvqfj0","pricing_plan_id":"cebpf4jnsgd1na2vs0mg"},{"bike_id":"27b09eec-8b22-42da-9634-d3904863cd3b","system_id":"levelo_inurba_marseille","lat":43.30875,"lon":5.37203,"is_reserved":false,"is_disabled":false,"rental_uris":{"android":"levelo://app?vid=27b09eec-8b22-42da-9634-d3904863cd3b","ios":"levelo://app?vid=27b09eec-8b22-42da-9634-d3904863cd3b"},"vehicle_type_id":"4","last_reported":1745561689,"current_range_meters":12400,"station_id":"ce4bguh2rcd13ifvqckg","pricing_plan_id":"cebpf4jnsgd1na2vs0mg"},{"bike_id":"2b092481-ace4-473c-9cdd-71f98f8f316f","system_id":"levelo_inurba_marseille","lat":43.314954,"lon":5.373139,"is_reserved":false,"is_disabled":false,"rental_uris":{"android":"levelo://app?vid=2b092481-ace4-473c-9cdd-71f98f8f316f","ios":"levelo://app?vid=2b092481-ace4-473c-9cdd-71f98f8f316f"},"vehicle_type_id":"4","last_reported":1745561689,"current_range_meters":12400,"station_id":"","pricing_plan_id":"cebpf4jnsgd1na2vs0mg"},{"bike_id":"2f9bcd40-e058-46a9-a414-1794700964e9","system_id":"levelo_inurba_marseille","lat":43.24088,"lon":5.37774,"is_reserved":false,"is_disabled":false,"rental_uris":{"android":"levelo://app?vid=2f9bcd40-e058-46a9-a414-1794700964e9","ios":"levelo://app?vid=2f9bcd40-e058-46a9-a414-1794700964e9"},"vehicle_type_id":"4","last_reported":1745561689,"current_range_meters":9200,"station_id":"ce4bhnp2rcd13ifvqgvg","pricing_plan_id":"cebpf4jnsgd1na2vs0mg"},{"bike_id":"5c8dde23-03af-4ec7-8c64-b6a7b95cfa5a","system_id":"levelo_inurba_marseille","lat":43.33709,"lon":5.39175,"is_reserved":false,"is_disabled":false,"rental_uris":{"android":"levelo://app?vid=5c8dde23-03af-4ec7-8c64-b6a7b95cfa5a","ios":"levelo://app?vid=5c8dde23-03af-4ec7-8c64-b6a7b95cfa5a"},"vehicle_type_id":"4","last_reported":1745561689,"current_range_meters":12400,"station_id":"ce4bhr92rcd13ifvqhsg","pricing_plan_id":"cebpf4jnsgd1na2vs0mg"},{"bike_id":"d34ca4e0-a0da-4cfa-9b5a-dc923ae1500d","system_id":"levelo_inurba_marseille","lat":43.28938,"lon":5.39631,"is_reserved":false,"is_disabled":false,"rental_uris":{"android":"levelo://app?vid=d34ca4e0-a0da-4cfa-9b5a-dc923ae1500d","ios":"levelo://app?vid=d34ca4e0-a0da-4cfa-9b5a-dc923ae1500d"},"vehicle_type_id":"4","last_reported":1745561689,"current_range_meters":12800,"station_id":"ce4bh3h2rcd13ifvqdn0","pricing_plan_id":"cebpf4jnsgd1na2vs0mg"},{"bike_id":"34758a2e-7199-4e10-bbe9-554aab520a75","system_id":"levelo_inurba_marseille","lat":43.30892,"lon":5.36876,"is_reserved":false,"is_disabled":false,"rental_uris":{"android":"levelo://app?vid=34758a2e-7199-4e10-bbe9-554aab520a75","ios":"levelo://app?vid=34758a2e-7199-4e10-bbe9-554aab520a75"},"vehicle_type_id":"4","last_reported":1745561689,"current_range_meters":12400,"station_id":"ce4bgn92rcd13ifvqbvg","pricing_plan_id":"cebpf4jnsgd1na2vs0mg"},{"bike_id":"7feecf2a-4573-4f3f-a425-169ad566f843","system_id":"levelo_inurba_marseille","lat":43.291038,"lon":5.381032,"is_reserved":false,"is_disabled":false,"rental_uris":{"android":"levelo://app?vid=7feecf2a-4573-4f3f-a425-169ad566f843","ios":"levelo://app?vid=7feecf2a-4573-4f3f-a425-169ad566f843"},"vehicle_type_id":"4","last_reported":1745561689,"current_range_meters":12800,"station_id":"ce4bh4p2rcd13ifvqe1g","pricing_plan_id":"cebpf4jnsgd1na2vs0mg"},{"bike_id":"19e08526-f560-4a7b-b2c2-0cabfbc54975","system_id":"levelo_inurba_marseille","lat":43.25576,"lon":5.38229,"is_reserved":false,"is_disabled":false,"rental_uris":{"android":"levelo://app?vid=19e08526-f560-4a7b-b2c2-0cabfbc54975","ios":"levelo://app?vid=19e08526-f560-4a7b-b2c2-0cabfbc54975"},"vehicle_type_id":"4","last_reported":1745561689,"current_range_meters":12400,"station_id":"ce4bhih2rcd13ifvqfs0","pricing_plan_id":"cebpf4jnsgd1na2vs0mg"},{"bike_id":"844bea76-b19f-49aa-8faf-017738c4a388","system_id":"levelo_inurba_marseille","lat":43.27916,"lon":5.39583,"is_reserved":false,"is_disabled":false,"rental_uris":{"android":"levelo://app?vid=844bea76-b19f-49aa-8faf-017738c4a388","ios":"levelo://app?vid=844bea76-b19f-49aa-8faf-017738c4a388"},"vehicle_type_id":"4","last_reported":1745561689,"current_range_meters":12800,"station_id":"ce4bhf92rcd13ifvqf40","pricing_plan_id":"cebpf4jnsgd1na2vs0mg"},{"bike_id":"67426bec-1d3c-4292-989f-a44694a33e81","system_id":"levelo_inurba_marseille","lat":43.30106,"lon":5.39099,"is_reserved":false,"is_disabled":true,"rental_uris":{"android":"levelo://app?vid=67426bec-1d3c-4292-989f-a44694a33e81","ios":"levelo://app?vid=67426bec-1d3c-4292-989f-a44694a33e81"},"vehicle_type_id":"4","last_reported":1745561689,"current_range_meters":13600,"station_id":"ce4bh192rcd13ifvqdb0","pricing_plan_id":"cebpf4jnsgd1na2vs0mg"},{"bike_id":"c473fe6a-f496-4551-9b08-0a8fe6864117","system_id":"levelo_inurba_marseille","lat":43.304626,"lon":5.379085,"is_reserved":false,"is_disabled":false,"rental_uris":{"android":"levelo://app?vid=c473fe6a-f496-4551-9b08-0a8fe6864117","ios":"levelo://app?vid=c473fe6a-f496-4551-9b08-0a8fe6864117"},"vehicle_type_id":"4","last_reported":1745561689,"current_range_meters":12800,"station_id":"ce4bh8p2rcd13ifvqeb0","pricing_plan_id":"cebpf4jnsgd1na2vs0mg"},{"bike_id":"73573665-0dab-469e-8b8a-497eaf93fa89","system_id":"levelo_inurba_marseille","lat":43.28925,"lon":5.38417,"is_reserved":false,"is_disabled":false,"rental_uris":{"android":"levelo://app?vid=73573665-0dab-469e-8b8a-497eaf93fa89","ios":"levelo://app?vid=73573665-0dab-469e-8b8a-497eaf93fa89"},"vehicle_type_id":"4","last_reported":1745561689,"current_range_meters":13600,"station_id":"ce4bh612rcd13ifvqe6g","pricing_plan_id":"cebpf4jnsgd1na2vs0mg"},{"bike_id":"a5b807e2-0dcd-4c88-a997-bb37c582102d","system_id":"levelo_inurba_marseille","lat":43.30422,"lon":5.37192,"is_reserved":false,"is_disabled":false,"rental_uris":{"android":"levelo://app?vid=a5b807e2-0dcd-4c88-a997-bb37c582102d","ios":"levelo://app?vid=a5b807e2-0dcd-4c88-a997-bb37c582102d"},"vehicle_type_id":"4","last_reported":1745561689,"current_range_meters":14000,"station_id":"","pricing_plan_id":"cebpf4jnsgd1na2vs0mg"},{"bike_id":"1dff9b55-9191-4010-9662-dbf23dd3eb6e","system_id":"levelo_inurba_marseille","lat":43.265574,"lon":5.372961,"is_reserved":false,"is_disabled":false,"rental_uris":{"android":"levelo://app?vid=1dff9b55-9191-4010-9662-dbf23dd3eb6e","ios":"levelo://app?vid=1dff9b55-9191-4010-9662-dbf23dd3eb6e"},"vehicle_type_id":"4","last_reported":1745561689,"current_range_meters":14000,"station_id":"ce4bhg12rcd13ifvqf70","pricing_plan_id":"cebpf4jnsgd1na2vs0mg"},{"bike_id":"c3721006-7b34-4ca8-be85-027727c3f2af","system_id":"levelo_inurba_marseille","lat":43.284808,"lon":5.384246,"is_reserved":false,"is_disabled":true,"rental_uris":{"android":"levelo://app?vid=c3721006-7b34-4ca8-be85-027727c3f2af","ios":"levelo://app?vid=c3721006-7b34-4ca8-be85-027727c3f2af"},"vehicle_type_id":"4","last_reported":1745561689,"current_range_meters":14000,"station_id":"ce4bh512rcd13ifvqe3g","pricing_plan_id":"cebpf4jnsgd1na2vs0mg"},{"bike_id":"e8f09f07-58fa-44c3-b4e9-943c604d75f1","system_id":"levelo_inurba_marseille","lat":43.31495,"lon":5.37316,"is_reserved":false,"is_disabled":false,"rental_uris":{"android":"levelo://app?vid=e8f09f07-58fa-44c3-b4e9-943c604d75f1","ios":"levelo://app?vid=e8f09f07-58fa-44c3-b4e9-943c604d75f1"},"vehicle_type_id":"4","last_reported":1745561689,"current_range_meters":14400,"station_id":"ce4bgt12rcd13ifvqcd0","pricing_plan_id":"cebpf4jnsgd1na2vs0mg"},{"bike_id":"7fc5ed43-b2c3-4cf7-b081-488a7cbcc12f","system_id":"levelo_inurba_marseille","lat":43.33038,"lon":5.39002,"is_reserved":false,"is_disabled":false,"rental_uris":{"android":"levelo://app?vid=7fc5ed43-b2c3-4cf7-b081-488a7cbcc12f","ios":"levelo://app?vid=7fc5ed43-b2c3-4cf7-b081-488a7cbcc12f"},"vehicle_type_id":"4","last_reported":1745561689,"current_range_meters":14400,"station_id":"ce4bhr92rcd13ifvqhrg","pricing_plan_id":"cebpf4jnsgd1na2vs0mg"},{"bike_id":"f12a9a5e-89bc-4406-8d33-ee6c190982eb","system_id":"levelo_inurba_marseille","lat":43.30318,"lon":5.36911,"is_reserved":false,"is_disabled":false,"rental_uris":{"android":"levelo://app?vid=f12a9a5e-89bc-4406-8d33-ee6c190982eb","ios":"levelo://app?vid=f12a9a5e-89bc-4406-8d33-ee6c190982eb"},"vehicle_type_id":"4","last_reported":1745561689,"current_range_meters":14400,"station_id":"ce4bgqh2rcd13ifvqc5g","pricing_plan_id":"cebpf4jnsgd1na2vs0mg"},{"bike_id":"b7fa553d-7757-490d-adcb-0bafe1169148","system_id":"levelo_inurba_marseille","lat":43.27494,"lon":5.42447,"is_reserved":false,"is_disabled":false,"rental_uris":{"android":"levelo://app?vid=b7fa553d-7757-490d-adcb-0bafe1169148","ios":"levelo://app?vid=b7fa553d-7757-490d-adcb-0bafe1169148"},"vehicle_type_id":"4","last_reported":1745561689,"current_range_meters":14400,"station_id":"ce4bhn92rcd13ifvqgrg","pricing_plan_id":"cebpf4jnsgd1na2vs0mg"},{"bike_id":"7597f9f7-581e-4aa1-9ea0-a72928416a0e","system_id":"levelo_inurba_marseille","lat":43.303066,"lon":5.392019,"is_reserved":false,"is_disabled":true,"rental_uris":{"android":"levelo://app?vid=7597f9f7-581e-4aa1-9ea0-a72928416a0e","ios":"levelo://app?vid=7597f9f7-581e-4aa1-9ea0-a72928416a0e"},"vehicle_type_id":"4","last_reported":1745561689,"current_range_meters":14800,"station_id":"ce4bgkh2rcd13ifvqbk0","pricing_plan_id":"cebpf4jnsgd1na2vs0mg"},{"bike_id":"03ec5728-5a8d-475c-be69-d63e54c8d683","system_id":"levelo_inurba_marseille","lat":43.32442,"lon":5.36712,"is_reserved":false,"is_disabled":false,"rental_uris":{"android":"levelo://app?vid=03ec5728-5a8d-475c-be69-d63e54c8d683","ios":"levelo://app?vid=03ec5728-5a8d-475c-be69-d63e54c8d683"},"vehicle_type_id":"4","last_reported":1745561689,"current_range_meters":14800,"station_id":"","pricing_plan_id":"cebpf4jnsgd1na2vs0mg"},{"bike_id":"24c4e364-e005-4988-8d1c-2e318f3604ce","system_id":"levelo_inurba_marseille","lat":43.24074,"lon":5.37754,"is_reserved":false,"is_disabled":false,"rental_uris":{"android":"levelo://app?vid=24c4e364-e005-4988-8d1c-2e318f3604ce","ios":"levelo://app?vid=24c4e364-e005-4988-8d1c-2e318f3604ce"},"vehicle_type_id":"4","last_reported":1745561689,"current_range_meters":14800,"station_id":"ce4bhnp2rcd13ifvqgvg","pricing_plan_id":"cebpf4jnsgd1na2vs0mg"},{"bike_id":"e2dcabcf-64d8-4394-bb9a-ff877bee611a","system_id":"levelo_inurba_marseille","lat":43.320464,"lon":5.415297,"is_reserved":false,"is_disabled":false,"rental_uris":{"android":"levelo://app?vid=e2dcabcf-64d8-4394-bb9a-ff877bee611a","ios":"levelo://app?vid=e2dcabcf-64d8-4394-bb9a-ff877bee611a"},"vehicle_type_id":"4","last_reported":1745561689,"current_range_meters":14800,"station_id":"ce4bhq92rcd13ifvqhkg","pricing_plan_id":"cebpf4jnsgd1na2vs0mg"},{"bike_id":"35e0752c-afe6-4cae-84a6-d74556a78578","system_id":"levelo_inurba_marseille","lat":43.289503,"lon":5.366667,"is_reserved":false,"is_disabled":false,"rental_uris":{"android":"levelo://app?vid=35e0752c-afe6-4cae-84a6-d74556a78578","ios":"levelo://app?vid=35e0752c-afe6-4cae-84a6-d74556a78578"},"vehicle_type_id":"4","last_reported":1745561689,"current_range_meters":14800,"station_id":"ce4bhap2rcd13ifvqek0","pricing_plan_id":"cebpf4jnsgd1na2vs0mg"},{"bike_id":"230a4b18-f598-423a-928c-a723c4d4cf96","system_id":"levelo_inurba_marseille","lat":43.2738,"lon":5.36276,"is_reserved":false,"is_disabled":false,"rental_uris":{"android":"levelo://app?vid=230a4b18-f598-423a-928c-a723c4d4cf96","ios":"levelo://app?vid=230a4b18-f598-423a-928c-a723c4d4cf96"},"vehicle_type_id":"4","last_reported":1745561689,"current_range_meters":14800,"station_id":"ce4bhbh2rcd13ifvqeo0","pricing_plan_id":"cebpf4jnsgd1na2vs0mg"},{"bike_id":"389081e5-a59f-4bb8-ae5b-d14b07648eda","system_id":"levelo_inurba_marseille","lat":43.25106,"lon":5.40322,"is_reserved":false,"is_disabled":true,"rental_uris":{"android":"levelo://app?vid=389081e5-a59f-4bb8-ae5b-d14b07648eda","ios":"levelo://app?vid=389081e5-a59f-4bb8-ae5b-d14b07648eda"},"vehicle_type_id":"4","last_reported":1745561689,"current_range_meters":14800,"station_id":"ce4bhlh2rcd13ifvqgig","pricing_plan_id":"cebpf4jnsgd1na2vs0mg"},{"bike_id":"bff532e1-58f7-4601-87b6-d6ae8925747c","system_id":"levelo_inurba_marseille","lat":43.25937,"lon":5.40905,"is_reserved":false,"is_disabled":false,"rental_uris":{"android":"levelo://app?vid=bff532e1-58f7-4601-87b6-d6ae8925747c","ios":"levelo://app?vid=bff532e1-58f7-4601-87b6-d6ae8925747c"},"vehicle_type_id":"4","last_reported":1745561689,"current_range_meters":16000,"station_id":"ce4bhm92rcd13ifvqglg","pricing_plan_id":"cebpf4jnsgd1na2vs0mg"},{"bike_id":"dc7e93aa-6a0d-4245-8724-ff18750ddafe","system_id":"levelo_inurba_marseille","lat":43.24071,"lon":5.37765,"is_reserved":false,"is_disabled":false,"rental_uris":{"android":"levelo://app?vid=dc7e93aa-6a0d-4245-8724-ff18750ddafe","ios":"levelo://app?vid=dc7e93aa-6a0d-4245-8724-ff18750ddafe"},"vehicle_type_id":"4","last_reported":1745561689,"current_range_meters":15200,"station_id":"ce4bhnp2rcd13ifvqgvg","pricing_plan_id":"cebpf4jnsgd1na2vs0mg"},{"bike_id":"14b62536-f312-4299-b539-85b007168aa4","system_id":"levelo_inurba_marseille","lat":43.29516,"lon":5.39034,"is_reserved":false,"is_disabled":false,"rental_uris":{"android":"levelo://app?vid=14b62536-f312-4299-b539-85b007168aa4","ios":"levelo://app?vid=14b62536-f312-4299-b539-85b007168aa4"},"vehicle_type_id":"4","last_reported":1745561689,"current_range_meters":15200,"station_id":"ce4bh3p2rcd13ifvqdp0","pricing_plan_id":"cebpf4jnsgd1na2vs0mg"},{"bike_id":"246e4fb0-28d9-4f18-ad4b-1ae212564574","system_id":"levelo_inurba_marseille","lat":43.23151,"lon":5.43717,"is_reserved":false,"is_disabled":false,"rental_uris":{"android":"levelo://app?vid=246e4fb0-28d9-4f18-ad4b-1ae212564574","ios":"levelo://app?vid=246e4fb0-28d9-4f18-ad4b-1ae212564574"},"vehicle_type_id":"4","last_reported":1745561689,"current_range_meters":15200,"station_id":"ce4bhmp2rcd13ifvqgog","pricing_plan_id":"cebpf4jnsgd1na2vs0mg"},{"bike_id":"894577c0-4d19-4f42-8715-ae101fa0bb2f","system_id":"levelo_inurba_marseille","lat":43.2407,"lon":5.37763,"is_reserved":false,"is_disabled":false,"rental_uris":{"android":"levelo://app?vid=894577c0-4d19-4f42-8715-ae101fa0bb2f","ios":"levelo://app?vid=894577c0-4d19-4f42-8715-ae101fa0bb2f"},"vehicle_type_id":"4","last_reported":1745561689,"current_range_meters":15200,"station_id":"ce4bhnp2rcd13ifvqgvg","pricing_plan_id":"cebpf4jnsgd1na2vs0mg"},{"bike_id":"b03b660b-1562-45fe-9ac2-11597e156b66","system_id":"levelo_inurba_marseille","lat":43.30335,"lon":5.36898,"is_reserved":false,"is_disabled":false,"rental_uris":{"android":"levelo://app?vid=b03b660b-1562-45fe-9ac2-11597e156b66","ios":"levelo://app?vid=b03b660b-1562-45fe-9ac2-11597e156b66"},"vehicle_type_id":"4","last_reported":1745561689,"current_range_meters":16000,"station_id":"ce4bgqh2rcd13ifvqc5g","pricing_plan_id":"cebpf4jnsgd1na2vs0mg"},{"bike_id":"e9b40b8c-aa8b-493b-9704-ac204b4fdb74","system_id":"levelo_inurba_marseille","lat":43.22524,"lon":5.34773,"is_reserved":false,"is_disabled":false,"rental_uris":{"android":"levelo://app?vid=e9b40b8c-aa8b-493b-9704-ac204b4fdb74","ios":"levelo://app?vid=e9b40b8c-aa8b-493b-9704-ac204b4fdb74"},"vehicle_type_id":"4","last_reported":1745561689,"current_range_meters":16000,"station_id":"st_cvj5dfep6f1abm77gieg","pricing_plan_id":"cebpf4jnsgd1na2vs0mg"},{"bike_id":"3857c1c5-eeaa-4322-86c6-ca59b85e4a47","system_id":"levelo_inurba_marseille","lat":43.255,"lon":5.37652,"is_reserved":false,"is_disabled":false,"rental_uris":{"android":"levelo://app?vid=3857c1c5-eeaa-4322-86c6-ca59b85e4a47","ios":"levelo://app?vid=3857c1c5-eeaa-4322-86c6-ca59b85e4a47"},"vehicle_type_id":"4","last_reported":1745561689,"current_range_meters":16000,"station_id":"ce4bhh12rcd13ifvqff0","pricing_plan_id":"cebpf4jnsgd1na2vs0mg"},{"bike_id":"f437bbcd-3bc3-4220-9dfe-08d3eac84ba1","system_id":"levelo_inurba_marseille","lat":43.28624,"lon":5.35106,"is_reserved":false,"is_disabled":true,"rental_uris":{"android":"levelo://app?vid=f437bbcd-3bc3-4220-9dfe-08d3eac84ba1","ios":"levelo://app?vid=f437bbcd-3bc3-4220-9dfe-08d3eac84ba1"},"vehicle_type_id":"4","last_reported":1745561689,"current_range_meters":16000,"station_id":"ce4bhch2rcd13ifvqeug","pricing_plan_id":"cebpf4jnsgd1na2vs0mg"},{"bike_id":"0958c055-16ec-4109-a529-bf59919f0de8","system_id":"levelo_inurba_marseille","lat":43.24073,"lon":5.37768,"is_reserved":false,"is_disabled":false,"rental_uris":{"android":"levelo://app?vid=0958c055-16ec-4109-a529-bf59919f0de8","ios":"levelo://app?vid=0958c055-16ec-4109-a529-bf59919f0de8"},"vehicle_type_id":"4","last_reported":1745561689,"current_range_meters":11600,"station_id":"ce4bhnp2rcd13ifvqgvg","pricing_plan_id":"cebpf4jnsgd1na2vs0mg"},{"bike_id":"0bfff189-ec6a-4439-b345-e9dd168ab867","system_id":"levelo_inurba_marseille","lat":43.33732,"lon":5.391797,"is_reserved":false,"is_disabled":false,"rental_uris":{"android":"levelo://app?vid=0bfff189-ec6a-4439-b345-e9dd168ab867","ios":"levelo://app?vid=0bfff189-ec6a-4439-b345-e9dd168ab867"},"vehicle_type_id":"4","last_reported":1745561689,"current_range_meters":16000,"station_id":"ce4bhr92rcd13ifvqhsg","pricing_plan_id":"cebpf4jnsgd1na2vs0mg"},{"bike_id":"6841d3c9-1453-4954-bab2-48b102dd6085","system_id":"levelo_inurba_marseille","lat":43.2794,"lon":5.41035,"is_reserved":false,"is_disabled":false,"rental_uris":{"android":"levelo://app?vid=6841d3c9-1453-4954-bab2-48b102dd6085","ios":"levelo://app?vid=6841d3c9-1453-4954-bab2-48b102dd6085"},"vehicle_type_id":"4","last_reported":1745561689,"current_range_meters":16400,"station_id":"ce4bhnp2rcd13ifvqh0g","pricing_plan_id":"cebpf4jnsgd1na2vs0mg"},{"bike_id":"5cff3207-23ad-406f-a81e-d6e191b09a6b","system_id":"levelo_inurba_marseille","lat":43.26553,"lon":5.37282,"is_reserved":false,"is_disabled":false,"rental_uris":{"android":"levelo://app?vid=5cff3207-23ad-406f-a81e-d6e191b09a6b","ios":"levelo://app?vid=5cff3207-23ad-406f-a81e-d6e191b09a6b"},"vehicle_type_id":"4","last_reported":1745561689,"current_range_meters":16400,"station_id":"ce4bhg12rcd13ifvqf70","pricing_plan_id":"cebpf4jnsgd1na2vs0mg"},{"bike_id":"9a1c0be7-bd1a-4081-ab84-3ef05258b407","system_id":"levelo_inurba_marseille","lat":43.22923,"lon":5.35416,"is_reserved":false,"is_disabled":false,"rental_uris":{"android":"levelo://app?vid=9a1c0be7-bd1a-4081-ab84-3ef05258b407","ios":"levelo://app?vid=9a1c0be7-bd1a-4081-ab84-3ef05258b407"},"vehicle_type_id":"4","last_reported":1745561689,"current_range_meters":16400,"station_id":"cpo3532slgdg3j2ikp40","pricing_plan_id":"cebpf4jnsgd1na2vs0mg"},{"bike_id":"66b82436-7bde-4ba9-8807-cc0d2ad2b396","system_id":"levelo_inurba_marseille","lat":43.330167,"lon":5.390246,"is_reserved":false,"is_disabled":false,"rental_uris":{"android":"levelo://app?vid=66b82436-7bde-4ba9-8807-cc0d2ad2b396","ios":"levelo://app?vid=66b82436-7bde-4ba9-8807-cc0d2ad2b396"},"vehicle_type_id":"4","last_reported":1745561689,"current_range_meters":16400,"station_id":"ce4bhr92rcd13ifvqhrg","pricing_plan_id":"cebpf4jnsgd1na2vs0mg"},{"bike_id":"72f687ee-a694-4c7b-a067-49a1e872f5a4","system_id":"levelo_inurba_marseille","lat":43.30374,"lon":5.42489,"is_reserved":false,"is_disabled":false,"rental_uris":{"android":"levelo://app?vid=72f687ee-a694-4c7b-a067-49a1e872f5a4","ios":"levelo://app?vid=72f687ee-a694-4c7b-a067-49a1e872f5a4"},"vehicle_type_id":"4","last_reported":1745561689,"current_range_meters":16400,"station_id":"ce4bhoh2rcd13ifvqh6g","pricing_plan_id":"cebpf4jnsgd1na2vs0mg"},{"bike_id":"a9784e4d-72f3-45a0-bc5c-6a48517d28d6","system_id":"levelo_inurba_marseille","lat":43.33021,"lon":5.39046,"is_reserved":false,"is_disabled":false,"rental_uris":{"android":"levelo://app?vid=a9784e4d-72f3-45a0-bc5c-6a48517d28d6","ios":"levelo://app?vid=a9784e4d-72f3-45a0-bc5c-6a48517d28d6"},"vehicle_type_id":"4","last_reported":1745561689,"current_range_meters":16400,"station_id":"ce4bhr92rcd13ifvqhrg","pricing_plan_id":"cebpf4jnsgd1na2vs0mg"},{"bike_id":"3e5a5bec-d3d4-45ee-9c95-7c9b8e7a4c49","system_id":"levelo_inurba_marseille","lat":43.32353,"lon":5.36757,"is_reserved":false,"is_disabled":false,"rental_uris":{"android":"levelo://app?vid=3e5a5bec-d3d4-45ee-9c95-7c9b8e7a4c49","ios":"levelo://app?vid=3e5a5bec-d3d4-45ee-9c95-7c9b8e7a4c49"},"vehicle_type_id":"4","last_reported":1745561689,"current_range_meters":16400,"station_id":"ce4bhsh2rcd13ifvqi2g","pricing_plan_id":"cebpf4jnsgd1na2vs0mg"},{"bike_id":"08017c5e-0ebd-49ed-a7d1-dae38f57908c","system_id":"levelo_inurba_marseille","lat":43.32665,"lon":5.41001,"is_reserved":false,"is_disabled":false,"rental_uris":{"android":"levelo://app?vid=08017c5e-0ebd-49ed-a7d1-dae38f57908c","ios":"levelo://app?vid=08017c5e-0ebd-49ed-a7d1-dae38f57908c"},"vehicle_type_id":"4","last_reported":1745561689,"current_range_meters":16400,"station_id":"ce4bhpp2rcd13ifvqhgg","pricing_plan_id":"cebpf4jnsgd1na2vs0mg"},{"bike_id":"c272b255-98fb-45b9-a14f-666f67b31496","system_id":"levelo_inurba_marseille","lat":43.27939,"lon":5.4105,"is_reserved":false,"is_disabled":false,"rental_uris":{"android":"levelo://app?vid=c272b255-98fb-45b9-a14f-666f67b31496","ios":"levelo://app?vid=c272b255-98fb-45b9-a14f-666f67b31496"},"vehicle_type_id":"4","last_reported":1745561689,"current_range_meters":16400,"station_id":"ce4bhnp2rcd13ifvqh0g","pricing_plan_id":"cebpf4jnsgd1na2vs0mg"},{"bike_id":"c626c93a-7b05-43e0-8c99-3e68e87e1d65","system_id":"levelo_inurba_marseille","lat":43.29279,"lon":5.40114,"is_reserved":false,"is_disabled":false,"rental_uris":{"android":"levelo://app?vid=c626c93a-7b05-43e0-8c99-3e68e87e1d65","ios":"levelo://app?vid=c626c93a-7b05-43e0-8c99-3e68e87e1d65"},"vehicle_type_id":"4","last_reported":1745561689,"current_range_meters":16800,"station_id":"ce4bh312rcd13ifvqdk0","pricing_plan_id":"cebpf4jnsgd1na2vs0mg"},{"bike_id":"29370907-743a-4cc1-b631-9f9307b8e888","system_id":"levelo_inurba_marseille","lat":43.24802,"lon":5.37461,"is_reserved":false,"is_disabled":false,"rental_uris":{"android":"levelo://app?vid=29370907-743a-4cc1-b631-9f9307b8e888","ios":"levelo://app?vid=29370907-743a-4cc1-b631-9f9307b8e888"},"vehicle_type_id":"4","last_reported":1745561689,"current_range_meters":16400,"station_id":"ce4bhgh2rcd13ifvqfb0","pricing_plan_id":"cebpf4jnsgd1na2vs0mg"},{"bike_id":"65fea7d8-6551-4802-9e36-2ab2671d2b1c","system_id":"levelo_inurba_marseille","lat":43.27202,"lon":5.39184,"is_reserved":false,"is_disabled":false,"rental_uris":{"android":"levelo://app?vid=65fea7d8-6551-4802-9e36-2ab2671d2b1c","ios":"levelo://app?vid=65fea7d8-6551-4802-9e36-2ab2671d2b1c"},"vehicle_type_id":"4","last_reported":1745561689,"current_range_meters":16800,"station_id":"ce4bhhp2rcd13ifvqfm0","pricing_plan_id":"cebpf4jnsgd1na2vs0mg"},{"bike_id":"9218f560-6f92-4a57-b65d-e8e4b2074015","system_id":"levelo_inurba_marseille","lat":43.30113,"lon":5.39841,"is_reserved":false,"is_disabled":false,"rental_uris":{"android":"levelo://app?vid=9218f560-6f92-4a57-b65d-e8e4b2074015","ios":"levelo://app?vid=9218f560-6f92-4a57-b65d-e8e4b2074015"},"vehicle_type_id":"4","last_reported":1745561689,"current_range_meters":17200,"station_id":"ce4bh0h2rcd13ifvqd40","pricing_plan_id":"cebpf4jnsgd1na2vs0mg"},{"bike_id":"1966cbb8-72e9-4a53-b011-fc63c35f0837","system_id":"levelo_inurba_marseille","lat":43.313443,"lon":5.367324,"is_reserved":false,"is_disabled":false,"rental_uris":{"android":"levelo://app?vid=1966cbb8-72e9-4a53-b011-fc63c35f0837","ios":"levelo://app?vid=1966cbb8-72e9-4a53-b011-fc63c35f0837"},"vehicle_type_id":"4","last_reported":1745561689,"current_range_meters":17200,"station_id":"","pricing_plan_id":"cebpf4jnsgd1na2vs0mg"},{"bike_id":"b04b2867-fbf0-4049-a1be-5593b1ff340a","system_id":"levelo_inurba_marseille","lat":43.241302,"lon":5.376976,"is_reserved":false,"is_disabled":false,"rental_uris":{"android":"levelo://app?vid=b04b2867-fbf0-4049-a1be-5593b1ff340a","ios":"levelo://app?vid=b04b2867-fbf0-4049-a1be-5593b1ff340a"},"vehicle_type_id":"4","last_reported":1745561689,"current_range_meters":17200,"station_id":"ce4bhah2rcd13ifvqei0","pricing_plan_id":"cebpf4jnsgd1na2vs0mg"},{"bike_id":"1abc48dd-efaa-4ca6-9a7a-f6253d85fd51","system_id":"levelo_inurba_marseille","lat":43.30818,"lon":5.43526,"is_reserved":false,"is_disabled":false,"rental_uris":{"android":"levelo://app?vid=1abc48dd-efaa-4ca6-9a7a-f6253d85fd51","ios":"levelo://app?vid=1abc48dd-efaa-4ca6-9a7a-f6253d85fd51"},"vehicle_type_id":"4","last_reported":1745561689,"current_range_meters":17200,"station_id":"ce4bhph2rcd13ifvqheg","pricing_plan_id":"cebpf4jnsgd1na2vs0mg"},{"bike_id":"39a8b4e9-0366-4116-8bf8-242fda1650dc","system_id":"levelo_inurba_marseille","lat":43.28942,"lon":5.36637,"is_reserved":false,"is_disabled":false,"rental_uris":{"android":"levelo://app?vid=39a8b4e9-0366-4116-8bf8-242fda1650dc","ios":"levelo://app?vid=39a8b4e9-0366-4116-8bf8-242fda1650dc"},"vehicle_type_id":"4","last_reported":1745561689,"current_range_meters":17200,"station_id":"ce4bhap2rcd13ifvqek0","pricing_plan_id":"cebpf4jnsgd1na2vs0mg"},{"bike_id":"78df9372-f43c-4c46-acd7-d0f19148dd61","system_id":"levelo_inurba_marseille","lat":43.280762,"lon":5.396653,"is_reserved":false,"is_disabled":false,"rental_uris":{"android":"levelo://app?vid=78df9372-f43c-4c46-acd7-d0f19148dd61","ios":"levelo://app?vid=78df9372-f43c-4c46-acd7-d0f19148dd61"},"vehicle_type_id":"4","last_reported":1745561689,"current_range_meters":17200,"station_id":"ce4bh3h2rcd13ifvqdn0","pricing_plan_id":"cebpf4jnsgd1na2vs0mg"},{"bike_id":"074f3e85-4903-4183-9420-e63836b7115b","system_id":"levelo_inurba_marseille","lat":43.2797,"lon":5.38729,"is_reserved":false,"is_disabled":false,"rental_uris":{"android":"levelo://app?vid=074f3e85-4903-4183-9420-e63836b7115b","ios":"levelo://app?vid=074f3e85-4903-4183-9420-e63836b7115b"},"vehicle_type_id":"4","last_reported":1745561689,"current_range_meters":17200,"station_id":"ce4bhg12rcd13ifvqf80","pricing_plan_id":"cebpf4jnsgd1na2vs0mg"},{"bike_id":"fdf49d97-3969-4fcc-976e-cff080d47231","system_id":"levelo_inurba_marseille","lat":43.23148,"lon":5.43719,"is_reserved":false,"is_disabled":false,"rental_uris":{"android":"levelo://app?vid=fdf49d97-3969-4fcc-976e-cff080d47231","ios":"levelo://app?vid=fdf49d97-3969-4fcc-976e-cff080d47231"},"vehicle_type_id":"4","last_reported":1745561689,"current_range_meters":17200,"station_id":"ce4bhmp2rcd13ifvqgog","pricing_plan_id":"cebpf4jnsgd1na2vs0mg"},{"bike_id":"a74f7875-e8bd-4cc9-9f56-11c66ee4baac","system_id":"levelo_inurba_marseille","lat":43.27491,"lon":5.42447,"is_reserved":false,"is_disabled":false,"rental_uris":{"android":"levelo://app?vid=a74f7875-e8bd-4cc9-9f56-11c66ee4baac","ios":"levelo://app?vid=a74f7875-e8bd-4cc9-9f56-11c66ee4baac"},"vehicle_type_id":"4","last_reported":1745561689,"current_range_meters":17200,"station_id":"ce4bhn92rcd13ifvqgrg","pricing_plan_id":"cebpf4jnsgd1na2vs0mg"},{"bike_id":"829e6027-c98c-4052-9336-7fe801b0bc22","system_id":"levelo_inurba_marseille","lat":43.2315,"lon":5.43698,"is_reserved":false,"is_disabled":true,"rental_uris":{"android":"levelo://app?vid=829e6027-c98c-4052-9336-7fe801b0bc22","ios":"levelo://app?vid=829e6027-c98c-4052-9336-7fe801b0bc22"},"vehicle_type_id":"4","last_reported":1745561689,"current_range_meters":17600,"station_id":"ce4bhmp2rcd13ifvqgog","pricing_plan_id":"cebpf4jnsgd1na2vs0mg"},{"bike_id":"0014c956-478a-4a38-a001-73e542fe95c3","system_id":"levelo_inurba_marseille","lat":43.29315,"lon":5.37177,"is_reserved":false,"is_disabled":false,"rental_uris":{"android":"levelo://app?vid=0014c956-478a-4a38-a001-73e542fe95c3","ios":"levelo://app?vid=0014c956-478a-4a38-a001-73e542fe95c3"},"vehicle_type_id":"4","last_reported":1745561689,"current_range_meters":17600,"station_id":"ce4bgh92rcd13ifvqb40","pricing_plan_id":"cebpf4jnsgd1na2vs0mg"},{"bike_id":"8f1a38c1-df91-4bdf-9e4e-92ef410aba4f","system_id":"levelo_inurba_marseille","lat":43.21189,"lon":5.35074,"is_reserved":false,"is_disabled":false,"rental_uris":{"android":"levelo://app?vid=8f1a38c1-df91-4bdf-9e4e-92ef410aba4f","ios":"levelo://app?vid=8f1a38c1-df91-4bdf-9e4e-92ef410aba4f"},"vehicle_type_id":"4","last_reported":1745561689,"current_range_meters":17600,"station_id":"st_cvj6sg6p6f1abm77japg","pricing_plan_id":"cebpf4jnsgd1na2vs0mg"},{"bike_id":"987d7900-bb2a-45cb-bed7-6d69f6fd4fa3","system_id":"levelo_inurba_marseille","lat":43.28501,"lon":5.38468,"is_reserved":false,"is_disabled":false,"rental_uris":{"android":"levelo://app?vid=987d7900-bb2a-45cb-bed7-6d69f6fd4fa3","ios":"levelo://app?vid=987d7900-bb2a-45cb-bed7-6d69f6fd4fa3"},"vehicle_type_id":"4","last_reported":1745561689,"current_range_meters":17600,"station_id":"","pricing_plan_id":"cebpf4jnsgd1na2vs0mg"},{"bike_id":"2cb915c3-efce-4420-ba97-f7de67fde7a5","system_id":"levelo_inurba_marseille","lat":43.293021,"lon":5.374557,"is_reserved":false,"is_disabled":false,"rental_uris":{"android":"levelo://app?vid=2cb915c3-efce-4420-ba97-f7de67fde7a5","ios":"levelo://app?vid=2cb915c3-efce-4420-ba97-f7de67fde7a5"},"vehicle_type_id":"4","last_reported":1745561689,"current_range_meters":18000,"station_id":"ce4bgi12rcd13ifvqb70","pricing_plan_id":"cebpf4jnsgd1na2vs0mg"},{"bike_id":"078ed479-6034-47b7-b9fe-23dc6bbdb291","system_id":"levelo_inurba_marseille","lat":43.26956,"lon":5.38634,"is_reserved":false,"is_disabled":false,"rental_uris":{"android":"levelo://app?vid=078ed479-6034-47b7-b9fe-23dc6bbdb291","ios":"levelo://app?vid=078ed479-6034-47b7-b9fe-23dc6bbdb291"},"vehicle_type_id":"4","last_reported":1745561689,"current_range_meters":18000,"station_id":"ce4bhh92rcd13ifvqfh0","pricing_plan_id":"cebpf4jnsgd1na2vs0mg"},{"bike_id":"b1f6ff0d-3cb8-4133-80c3-37d47c62ead2","system_id":"levelo_inurba_marseille","lat":43.24062,"lon":5.37745,"is_reserved":false,"is_disabled":false,"rental_uris":{"android":"levelo://app?vid=b1f6ff0d-3cb8-4133-80c3-37d47c62ead2","ios":"levelo://app?vid=b1f6ff0d-3cb8-4133-80c3-37d47c62ead2"},"vehicle_type_id":"4","last_reported":1745561689,"current_range_meters":18000,"station_id":"ce4bhnp2rcd13ifvqgvg","pricing_plan_id":"cebpf4jnsgd1na2vs0mg"},{"bike_id":"b0ada3c7-155a-4153-a298-ac5f2ed22bbe","system_id":"levelo_inurba_marseille","lat":43.25836,"lon":5.39441,"is_reserved":false,"is_disabled":false,"rental_uris":{"android":"levelo://app?vid=b0ada3c7-155a-4153-a298-ac5f2ed22bbe","ios":"levelo://app?vid=b0ada3c7-155a-4153-a298-ac5f2ed22bbe"},"vehicle_type_id":"4","last_reported":1745561689,"current_range_meters":18000,"station_id":"ce4bhip2rcd13ifvqft0","pricing_plan_id":"cebpf4jnsgd1na2vs0mg"},{"bike_id":"0b377734-717a-47f8-86fe-8994c11f50e8","system_id":"levelo_inurba_marseille","lat":43.29082,"lon":5.38146,"is_reserved":false,"is_disabled":false,"rental_uris":{"android":"levelo://app?vid=0b377734-717a-47f8-86fe-8994c11f50e8","ios":"levelo://app?vid=0b377734-717a-47f8-86fe-8994c11f50e8"},"vehicle_type_id":"4","last_reported":1745561689,"current_range_meters":18000,"station_id":"ce4bh512rcd13ifvqe2g","pricing_plan_id":"cebpf4jnsgd1na2vs0mg"},{"bike_id":"d0bffc3a-acbc-4ba5-aca3-dde6aba73fe3","system_id":"levelo_inurba_marseille","lat":43.28672,"lon":5.3866,"is_reserved":false,"is_disabled":true,"rental_uris":{"android":"levelo://app?vid=d0bffc3a-acbc-4ba5-aca3-dde6aba73fe3","ios":"levelo://app?vid=d0bffc3a-acbc-4ba5-aca3-dde6aba73fe3"},"vehicle_type_id":"4","last_reported":1745561689,"current_range_meters":18800,"station_id":"ce4bh492rcd13ifvqdug","pricing_plan_id":"cebpf4jnsgd1na2vs0mg"},{"bike_id":"6b4c020d-6560-4185-921e-1e19d20a312d","system_id":"levelo_inurba_marseille","lat":43.32045,"lon":5.41545,"is_reserved":false,"is_disabled":false,"rental_uris":{"android":"levelo://app?vid=6b4c020d-6560-4185-921e-1e19d20a312d","ios":"levelo://app?vid=6b4c020d-6560-4185-921e-1e19d20a312d"},"vehicle_type_id":"4","last_reported":1745561689,"current_range_meters":18800,"station_id":"ce4bhq92rcd13ifvqhkg","pricing_plan_id":"cebpf4jnsgd1na2vs0mg"},{"bike_id":"32d5e172-8e40-4731-b23a-ee369592d9e3","system_id":"levelo_inurba_marseille","lat":43.290401,"lon":5.364558,"is_reserved":false,"is_disabled":false,"rental_uris":{"android":"levelo://app?vid=32d5e172-8e40-4731-b23a-ee369592d9e3","ios":"levelo://app?vid=32d5e172-8e40-4731-b23a-ee369592d9e3"},"vehicle_type_id":"4","last_reported":1745561689,"current_range_meters":18800,"station_id":"","pricing_plan_id":"cebpf4jnsgd1na2vs0mg"},{"bike_id":"021bb214-1069-45ae-a7df-53cd8288d4a4","system_id":"levelo_inurba_marseille","lat":43.24192,"lon":5.39733,"is_reserved":false,"is_disabled":false,"rental_uris":{"android":"levelo://app?vid=021bb214-1069-45ae-a7df-53cd8288d4a4","ios":"levelo://app?vid=021bb214-1069-45ae-a7df-53cd8288d4a4"},"vehicle_type_id":"4","last_reported":1745561689,"current_range_meters":18800,"station_id":"ce4bhn12rcd13ifvqgpg","pricing_plan_id":"cebpf4jnsgd1na2vs0mg"},{"bike_id":"ee08943a-ea78-49bb-a397-b42b8fb7e862","system_id":"levelo_inurba_marseille","lat":43.28606,"lon":5.37063,"is_reserved":false,"is_disabled":true,"rental_uris":{"android":"levelo://app?vid=ee08943a-ea78-49bb-a397-b42b8fb7e862","ios":"levelo://app?vid=ee08943a-ea78-49bb-a397-b42b8fb7e862"},"vehicle_type_id":"4","last_reported":1745561689,"current_range_meters":18800,"station_id":"ce4bht12rcd13ifvqi60","pricing_plan_id":"cebpf4jnsgd1na2vs0mg"},{"bike_id":"c75b0ecf-2815-46e8-a970-e0609ff997a4","system_id":"levelo_inurba_marseille","lat":43.264877,"lon":5.395703,"is_reserved":false,"is_disabled":true,"rental_uris":{"android":"levelo://app?vid=c75b0ecf-2815-46e8-a970-e0609ff997a4","ios":"levelo://app?vid=c75b0ecf-2815-46e8-a970-e0609ff997a4"},"vehicle_type_id":"4","last_reported":1745561689,"current_range_meters":19200,"station_id":"ce4bhi12rcd13ifvqfq0","pricing_plan_id":"cebpf4jnsgd1na2vs0mg"},{"bike_id":"317be0e3-3f8c-4cc7-bacc-1a4577bba89b","system_id":"levelo_inurba_marseille","lat":43.30585,"lon":5.38442,"is_reserved":false,"is_disabled":false,"rental_uris":{"android":"levelo://app?vid=317be0e3-3f8c-4cc7-bacc-1a4577bba89b","ios":"levelo://app?vid=317be0e3-3f8c-4cc7-bacc-1a4577bba89b"},"vehicle_type_id":"4","last_reported":1745561689,"current_range_meters":19200,"station_id":"","pricing_plan_id":"cebpf4jnsgd1na2vs0mg"},{"bike_id":"0390d0f3-6da8-4b4c-b55e-9bb2cefe45c4","system_id":"levelo_inurba_marseille","lat":43.28553,"lon":5.40082,"is_reserved":false,"is_disabled":false,"rental_uris":{"android":"levelo://app?vid=0390d0f3-6da8-4b4c-b55e-9bb2cefe45c4","ios":"levelo://app?vid=0390d0f3-6da8-4b4c-b55e-9bb2cefe45c4"},"vehicle_type_id":"4","last_reported":1745561689,"current_range_meters":19200,"station_id":"","pricing_plan_id":"cebpf4jnsgd1na2vs0mg"},{"bike_id":"d614a177-0993-4ca7-a203-3e9f7d720d67","system_id":"levelo_inurba_marseille","lat":43.3111,"lon":5.37775,"is_reserved":false,"is_disabled":false,"rental_uris":{"android":"levelo://app?vid=d614a177-0993-4ca7-a203-3e9f7d720d67","ios":"levelo://app?vid=d614a177-0993-4ca7-a203-3e9f7d720d67"},"vehicle_type_id":"4","last_reported":1745561689,"current_range_meters":19200,"station_id":"ce4bgt92rcd13ifvqcg0","pricing_plan_id":"cebpf4jnsgd1na2vs0mg"},{"bike_id":"9ed74c07-edda-4f32-a26d-fe8009bec881","system_id":"levelo_inurba_marseille","lat":43.28971,"lon":5.3663,"is_reserved":false,"is_disabled":false,"rental_uris":{"android":"levelo://app?vid=9ed74c07-edda-4f32-a26d-fe8009bec881","ios":"levelo://app?vid=9ed74c07-edda-4f32-a26d-fe8009bec881"},"vehicle_type_id":"4","last_reported":1745561689,"current_range_meters":19600,"station_id":"","pricing_plan_id":"cebpf4jnsgd1na2vs0mg"},{"bike_id":"cc0c5d01-a754-448a-88cc-e66eb99f246d","system_id":"levelo_inurba_marseille","lat":43.30174,"lon":5.38082,"is_reserved":false,"is_disabled":false,"rental_uris":{"android":"levelo://app?vid=cc0c5d01-a754-448a-88cc-e66eb99f246d","ios":"levelo://app?vid=cc0c5d01-a754-448a-88cc-e66eb99f246d"},"vehicle_type_id":"4","last_reported":1745561689,"current_range_meters":19600,"station_id":"ce4bgjp2rcd13ifvqbh0","pricing_plan_id":"cebpf4jnsgd1na2vs0mg"},{"bike_id":"93f808c0-b2e4-481b-a923-bf7522ea6bdb","system_id":"levelo_inurba_marseille","lat":43.259002,"lon":5.409643,"is_reserved":false,"is_disabled":false,"rental_uris":{"android":"levelo://app?vid=93f808c0-b2e4-481b-a923-bf7522ea6bdb","ios":"levelo://app?vid=93f808c0-b2e4-481b-a923-bf7522ea6bdb"},"vehicle_type_id":"4","last_reported":1745561689,"current_range_meters":19600,"station_id":"ce4bhm92rcd13ifvqglg","pricing_plan_id":"cebpf4jnsgd1na2vs0mg"},{"bike_id":"ccdde928-c416-4dd5-8cd1-83350c83f5c0","system_id":"levelo_inurba_marseille","lat":43.29752,"lon":5.37276,"is_reserved":false,"is_disabled":true,"rental_uris":{"android":"levelo://app?vid=ccdde928-c416-4dd5-8cd1-83350c83f5c0","ios":"levelo://app?vid=ccdde928-c416-4dd5-8cd1-83350c83f5c0"},"vehicle_type_id":"4","last_reported":1745561689,"current_range_meters":19600,"station_id":"","pricing_plan_id":"cebpf4jnsgd1na2vs0mg"},{"bike_id":"244bbfbf-97ed-4a83-b6ae-33a828dedf46","system_id":"levelo_inurba_marseille","lat":43.2295,"lon":5.3539,"is_reserved":false,"is_disabled":false,"rental_uris":{"android":"levelo://app?vid=244bbfbf-97ed-4a83-b6ae-33a828dedf46","ios":"levelo://app?vid=244bbfbf-97ed-4a83-b6ae-33a828dedf46"},"vehicle_type_id":"4","last_reported":1745561689,"current_range_meters":19600,"station_id":"cpo3532slgdg3j2ikp40","pricing_plan_id":"cebpf4jnsgd1na2vs0mg"},{"bike_id":"b23bcadc-33ad-46bf-a0af-4c799940f8a6","system_id":"levelo_inurba_marseille","lat":43.29025,"lon":5.38135,"is_reserved":false,"is_disabled":false,"rental_uris":{"android":"levelo://app?vid=b23bcadc-33ad-46bf-a0af-4c799940f8a6","ios":"levelo://app?vid=b23bcadc-33ad-46bf-a0af-4c799940f8a6"},"vehicle_type_id":"4","last_reported":1745561689,"current_range_meters":19200,"station_id":"ce4bh4p2rcd13ifvqe1g","pricing_plan_id":"cebpf4jnsgd1na2vs0mg"},{"bike_id":"4046a82f-66e8-4b55-bd0a-356edea772d8","system_id":"levelo_inurba_marseille","lat":43.30821,"lon":5.37319,"is_reserved":false,"is_disabled":false,"rental_uris":{"android":"levelo://app?vid=4046a82f-66e8-4b55-bd0a-356edea772d8","ios":"levelo://app?vid=4046a82f-66e8-4b55-bd0a-356edea772d8"},"vehicle_type_id":"4","last_reported":1745561689,"current_range_meters":20000,"station_id":"","pricing_plan_id":"cebpf4jnsgd1na2vs0mg"},{"bike_id":"154e4c88-5334-4fb3-b25d-77c437b29d2e","system_id":"levelo_inurba_marseille","lat":43.29291,"lon":5.37461,"is_reserved":false,"is_disabled":false,"rental_uris":{"android":"levelo://app?vid=154e4c88-5334-4fb3-b25d-77c437b29d2e","ios":"levelo://app?vid=154e4c88-5334-4fb3-b25d-77c437b29d2e"},"vehicle_type_id":"4","last_reported":1745561689,"current_range_meters":19600,"station_id":"ce4bgi12rcd13ifvqb70","pricing_plan_id":"cebpf4jnsgd1na2vs0mg"},{"bike_id":"56dbe445-f0ef-47cd-908b-41f582d90787","system_id":"levelo_inurba_marseille","lat":43.298474,"lon":5.362868,"is_reserved":false,"is_disabled":false,"rental_uris":{"android":"levelo://app?vid=56dbe445-f0ef-47cd-908b-41f582d90787","ios":"levelo://app?vid=56dbe445-f0ef-47cd-908b-41f582d90787"},"vehicle_type_id":"4","last_reported":1745561689,"current_range_meters":20000,"station_id":"ce4bgpp2rcd13ifvqc3g","pricing_plan_id":"cebpf4jnsgd1na2vs0mg"},{"bike_id":"2e36c54c-7658-43d6-a488-f1ef3f003d8b","system_id":"levelo_inurba_marseille","lat":43.27201,"lon":5.39191,"is_reserved":false,"is_disabled":false,"rental_uris":{"android":"levelo://app?vid=2e36c54c-7658-43d6-a488-f1ef3f003d8b","ios":"levelo://app?vid=2e36c54c-7658-43d6-a488-f1ef3f003d8b"},"vehicle_type_id":"4","last_reported":1745561689,"current_range_meters":20000,"station_id":"ce4bhhp2rcd13ifvqfm0","pricing_plan_id":"cebpf4jnsgd1na2vs0mg"},{"bike_id":"f7335486-0e52-44e5-bde8-cb0f17bc3f4d","system_id":"levelo_inurba_marseille","lat":43.28945,"lon":5.36636,"is_reserved":false,"is_disabled":false,"rental_uris":{"android":"levelo://app?vid=f7335486-0e52-44e5-bde8-cb0f17bc3f4d","ios":"levelo://app?vid=f7335486-0e52-44e5-bde8-cb0f17bc3f4d"},"vehicle_type_id":"4","last_reported":1745561689,"current_range_meters":20000,"station_id":"ce4bhap2rcd13ifvqek0","pricing_plan_id":"cebpf4jnsgd1na2vs0mg"},{"bike_id":"0271a3b3-b0c2-423e-8731-d68869d2f55c","system_id":"levelo_inurba_marseille","lat":43.29788,"lon":5.3811,"is_reserved":false,"is_disabled":false,"rental_uris":{"android":"levelo://app?vid=0271a3b3-b0c2-423e-8731-d68869d2f55c","ios":"levelo://app?vid=0271a3b3-b0c2-423e-8731-d68869d2f55c"},"vehicle_type_id":"4","last_reported":1745561689,"current_range_meters":20000,"station_id":"ce4bgip2rcd13ifvqbb0","pricing_plan_id":"cebpf4jnsgd1na2vs0mg"},{"bike_id":"1130a9c2-ab4d-4f56-9970-7314e9599325","system_id":"levelo_inurba_marseille","lat":43.30486,"lon":5.37903,"is_reserved":false,"is_disabled":false,"rental_uris":{"android":"levelo://app?vid=1130a9c2-ab4d-4f56-9970-7314e9599325","ios":"levelo://app?vid=1130a9c2-ab4d-4f56-9970-7314e9599325"},"vehicle_type_id":"4","last_reported":1745561689,"current_range_meters":20000,"station_id":"ce4bgup2rcd13ifvqcn0","pricing_plan_id":"cebpf4jnsgd1na2vs0mg"},{"bike_id":"ae2f9838-53dd-492a-b5ed-aafa76527c59","system_id":"levelo_inurba_marseille","lat":43.29019,"lon":5.3864,"is_reserved":false,"is_disabled":true,"rental_uris":{"android":"levelo://app?vid=ae2f9838-53dd-492a-b5ed-aafa76527c59","ios":"levelo://app?vid=ae2f9838-53dd-492a-b5ed-aafa76527c59"},"vehicle_type_id":"4","last_reported":1745561689,"current_range_meters":20000,"station_id":"ce4bh4p2rcd13ifvqe0g","pricing_plan_id":"cebpf4jnsgd1na2vs0mg"},{"bike_id":"46b2bcc8-cbdc-4e23-b116-f1a4d05b1b89","system_id":"levelo_inurba_marseille","lat":43.30459,"lon":5.37912,"is_reserved":false,"is_disabled":false,"rental_uris":{"android":"levelo://app?vid=46b2bcc8-cbdc-4e23-b116-f1a4d05b1b89","ios":"levelo://app?vid=46b2bcc8-cbdc-4e23-b116-f1a4d05b1b89"},"vehicle_type_id":"4","last_reported":1745561689,"current_range_meters":20400,"station_id":"ce4bgup2rcd13ifvqcn0","pricing_plan_id":"cebpf4jnsgd1na2vs0mg"},{"bike_id":"b8232dec-fee1-4485-b019-441bd927a222","system_id":"levelo_inurba_marseille","lat":43.30906,"lon":5.36844,"is_reserved":false,"is_disabled":false,"rental_uris":{"android":"levelo://app?vid=b8232dec-fee1-4485-b019-441bd927a222","ios":"levelo://app?vid=b8232dec-fee1-4485-b019-441bd927a222"},"vehicle_type_id":"4","last_reported":1745561689,"current_range_meters":20400,"station_id":"ce4bgn92rcd13ifvqbvg","pricing_plan_id":"cebpf4jnsgd1na2vs0mg"},{"bike_id":"8b24118d-e5e2-4375-b4ed-ae47db104921","system_id":"levelo_inurba_marseille","lat":43.29555,"lon":5.39402,"is_reserved":false,"is_disabled":true,"rental_uris":{"android":"levelo://app?vid=8b24118d-e5e2-4375-b4ed-ae47db104921","ios":"levelo://app?vid=8b24118d-e5e2-4375-b4ed-ae47db104921"},"vehicle_type_id":"4","last_reported":1745561689,"current_range_meters":20400,"station_id":"ce4bh292rcd13ifvqdf0","pricing_plan_id":"cebpf4jnsgd1na2vs0mg"},{"bike_id":"9c9c110e-8bcb-46ac-980c-f056c1666c27","system_id":"levelo_inurba_marseille","lat":43.26218,"lon":5.3792,"is_reserved":false,"is_disabled":true,"rental_uris":{"android":"levelo://app?vid=9c9c110e-8bcb-46ac-980c-f056c1666c27","ios":"levelo://app?vid=9c9c110e-8bcb-46ac-980c-f056c1666c27"},"vehicle_type_id":"4","last_reported":1745561689,"current_range_meters":20400,"station_id":"ce4bhjp2rcd13ifvqg90","pricing_plan_id":"cebpf4jnsgd1na2vs0mg"},{"bike_id":"f37485b5-0de5-4eef-9a40-a3ade6332f1c","system_id":"levelo_inurba_marseille","lat":43.29779,"lon":5.37093,"is_reserved":false,"is_disabled":false,"rental_uris":{"android":"levelo://app?vid=f37485b5-0de5-4eef-9a40-a3ade6332f1c","ios":"levelo://app?vid=f37485b5-0de5-4eef-9a40-a3ade6332f1c"},"vehicle_type_id":"4","last_reported":1745561689,"current_range_meters":20400,"station_id":"ce4bgop2rcd13ifvqc1g","pricing_plan_id":"cebpf4jnsgd1na2vs0mg"},{"bike_id":"e8aeb254-6681-4778-ac8c-d7ff643d400e","system_id":"levelo_inurba_marseille","lat":43.29037,"lon":5.39967,"is_reserved":false,"is_disabled":false,"rental_uris":{"android":"levelo://app?vid=e8aeb254-6681-4778-ac8c-d7ff643d400e","ios":"levelo://app?vid=e8aeb254-6681-4778-ac8c-d7ff643d400e"},"vehicle_type_id":"4","last_reported":1745561689,"current_range_meters":20400,"station_id":"ce4bh392rcd13ifvqdm0","pricing_plan_id":"cebpf4jnsgd1na2vs0mg"},{"bike_id":"497ff96a-0dd1-4a31-a970-62a671a3cf71","system_id":"levelo_inurba_marseille","lat":43.29983,"lon":5.38519,"is_reserved":false,"is_disabled":true,"rental_uris":{"android":"levelo://app?vid=497ff96a-0dd1-4a31-a970-62a671a3cf71","ios":"levelo://app?vid=497ff96a-0dd1-4a31-a970-62a671a3cf71"},"vehicle_type_id":"4","last_reported":1745561689,"current_range_meters":20800,"station_id":"ce4bgj92rcd13ifvqbd0","pricing_plan_id":"cebpf4jnsgd1na2vs0mg"},{"bike_id":"fb81db3c-12e2-44b7-8142-2689708da6f1","system_id":"levelo_inurba_marseille","lat":43.30895,"lon":5.37215,"is_reserved":false,"is_disabled":true,"rental_uris":{"android":"levelo://app?vid=fb81db3c-12e2-44b7-8142-2689708da6f1","ios":"levelo://app?vid=fb81db3c-12e2-44b7-8142-2689708da6f1"},"vehicle_type_id":"4","last_reported":1745561689,"current_range_meters":20800,"station_id":"ce4bguh2rcd13ifvqckg","pricing_plan_id":"cebpf4jnsgd1na2vs0mg"},{"bike_id":"8b372fca-2ea3-4aaa-bcd1-856e6951fdbd","system_id":"levelo_inurba_marseille","lat":43.23153,"lon":5.43716,"is_reserved":false,"is_disabled":false,"rental_uris":{"android":"levelo://app?vid=8b372fca-2ea3-4aaa-bcd1-856e6951fdbd","ios":"levelo://app?vid=8b372fca-2ea3-4aaa-bcd1-856e6951fdbd"},"vehicle_type_id":"4","last_reported":1745561689,"current_range_meters":20800,"station_id":"ce4bhmp2rcd13ifvqgog","pricing_plan_id":"cebpf4jnsgd1na2vs0mg"},{"bike_id":"25cd7e57-a836-4bdd-9d75-a65555fcb40c","system_id":"levelo_inurba_marseille","lat":43.270577,"lon":5.392777,"is_reserved":false,"is_disabled":false,"rental_uris":{"android":"levelo://app?vid=25cd7e57-a836-4bdd-9d75-a65555fcb40c","ios":"levelo://app?vid=25cd7e57-a836-4bdd-9d75-a65555fcb40c"},"vehicle_type_id":"4","last_reported":1745561689,"current_range_meters":20800,"station_id":"ce4bhhp2rcd13ifvqfm0","pricing_plan_id":"cebpf4jnsgd1na2vs0mg"},{"bike_id":"5ad491d6-2b58-4908-893f-a68db4138958","system_id":"levelo_inurba_marseille","lat":43.32338,"lon":5.40626,"is_reserved":false,"is_disabled":false,"rental_uris":{"android":"levelo://app?vid=5ad491d6-2b58-4908-893f-a68db4138958","ios":"levelo://app?vid=5ad491d6-2b58-4908-893f-a68db4138958"},"vehicle_type_id":"4","last_reported":1745561689,"current_range_meters":20800,"station_id":"ce4bhq92rcd13ifvqhjg","pricing_plan_id":"cebpf4jnsgd1na2vs0mg"},{"bike_id":"ba7b4ee5-5e38-4f2f-ace3-ec0b24ea7860","system_id":"levelo_inurba_marseille","lat":43.30165,"lon":5.38083,"is_reserved":false,"is_disabled":false,"rental_uris":{"android":"levelo://app?vid=ba7b4ee5-5e38-4f2f-ace3-ec0b24ea7860","ios":"levelo://app?vid=ba7b4ee5-5e38-4f2f-ace3-ec0b24ea7860"},"vehicle_type_id":"4","last_reported":1745561689,"current_range_meters":20800,"station_id":"ce4bgjp2rcd13ifvqbh0","pricing_plan_id":"cebpf4jnsgd1na2vs0mg"},{"bike_id":"9bbfa215-3282-4297-85ce-e122fa145c8b","system_id":"levelo_inurba_marseille","lat":43.29273,"lon":5.40165,"is_reserved":false,"is_disabled":true,"rental_uris":{"android":"levelo://app?vid=9bbfa215-3282-4297-85ce-e122fa145c8b","ios":"levelo://app?vid=9bbfa215-3282-4297-85ce-e122fa145c8b"},"vehicle_type_id":"4","last_reported":1745561689,"current_range_meters":20800,"station_id":"ce4bh312rcd13ifvqdk0","pricing_plan_id":"cebpf4jnsgd1na2vs0mg"},{"bike_id":"e92565b1-0dda-4426-8c0d-cf38ecdda8a2","system_id":"levelo_inurba_marseille","lat":43.21755,"lon":5.3461,"is_reserved":false,"is_disabled":false,"rental_uris":{"android":"levelo://app?vid=e92565b1-0dda-4426-8c0d-cf38ecdda8a2","ios":"levelo://app?vid=e92565b1-0dda-4426-8c0d-cf38ecdda8a2"},"vehicle_type_id":"4","last_reported":1745561689,"current_range_meters":20800,"station_id":"st_cvj6r9ubvosntc0bgbag","pricing_plan_id":"cebpf4jnsgd1na2vs0mg"},{"bike_id":"b9ca454b-d2a7-472f-b30e-1d98b6c3e401","system_id":"levelo_inurba_marseille","lat":43.30588,"lon":5.39357,"is_reserved":false,"is_disabled":false,"rental_uris":{"android":"levelo://app?vid=b9ca454b-d2a7-472f-b30e-1d98b6c3e401","ios":"levelo://app?vid=b9ca454b-d2a7-472f-b30e-1d98b6c3e401"},"vehicle_type_id":"4","last_reported":1745561689,"current_range_meters":21600,"station_id":"ce4bh0p2rcd13ifvqd80","pricing_plan_id":"cebpf4jnsgd1na2vs0mg"},{"bike_id":"2554d707-8aec-4c27-a810-f773649b3cb2","system_id":"levelo_inurba_marseille","lat":43.28944,"lon":5.36396,"is_reserved":false,"is_disabled":false,"rental_uris":{"android":"levelo://app?vid=2554d707-8aec-4c27-a810-f773649b3cb2","ios":"levelo://app?vid=2554d707-8aec-4c27-a810-f773649b3cb2"},"vehicle_type_id":"4","last_reported":1745561689,"current_range_meters":21600,"station_id":"ce4bhc92rcd13ifvqetg","pricing_plan_id":"cebpf4jnsgd1na2vs0mg"},{"bike_id":"d01a556d-bc1d-4838-94cb-d0ee700aa01f","system_id":"levelo_inurba_marseille","lat":43.26959,"lon":5.38639,"is_reserved":false,"is_disabled":false,"rental_uris":{"android":"levelo://app?vid=d01a556d-bc1d-4838-94cb-d0ee700aa01f","ios":"levelo://app?vid=d01a556d-bc1d-4838-94cb-d0ee700aa01f"},