{"last_updated":1766761913,"ttl":60,"version":"2.2","data":{"bikes":[{"bike_id":"3f9cded4-598a-47e1-af3d-d25bc2dda14d","system_id":"levelo_inurba_marseille","lat":43.25006,"lon":5.38934,"is_reserved":false,"is_disabled":false,"rental_uris":{"android":"levelo://app?vid=3f9cded4-598a-47e1-af3d-d25bc2dda14d","ios":"levelo://app?vid=3f9cded4-598a-47e1-af3d-d25bc2dda14d"},"vehicle_type_id":"4","last_reported":1766761913,"current_range_meters":2800,"station_id":"ce4bhgp2rcd13ifvqfd0","pricing_plan_id":"cebpf4jnsgd1na2vs0mg"},{"bike_id":"246f8d00-3cb5-45d2-8b0c-53bf44823927","system_id":"levelo_inurba_marseille","lat":43.33757,"lon":5.37424,"is_reserved":false,"is_disabled":false,"rental_uris":{"android":"levelo://app?vid=246f8d00-3cb5-45d2-8b0c-53bf44823927","ios":"levelo://app?vid=246f8d00-3cb5-45d2-8b0c-53bf44823927"},"vehicle_type_id":"4","last_reported":1766761913,"current_range_meters":3200,"station_id":"","pricing_plan_id":"cebpf4jnsgd1na2vs0mg"},{"bike_id":"04e6a0ca-3fac-40c2-86eb-67963c64e89e","system_id":"levelo_inurba_marseille","lat":43.23563,"lon":5.37923,"is_reserved":false,"is_disabled":false,"rental_uris":{"android":"levelo://app?vid=04e6a0ca-3fac-40c2-86eb-67963c64e89e","ios":"levelo://app?vid=04e6a0ca-3fac-40c2-86eb-67963c64e89e"},"vehicle_type_id":"4","last_reported":1766761913,"current_range_meters":3600,"station_id":"","pricing_plan_id":"cebpf4jnsgd1na2vs0mg"},{"bike_id":"859c4010-ce5a-48c9-99b8-6d3111511fce","system_id":"levelo_inurba_marseille","lat":43.292787,"lon":5.38446,"is_reserved":false,"is_disabled":false,"rental_uris":{"android":"levelo://app?vid=859c4010-ce5a-48c9-99b8-6d3111511fce","ios":"levelo://app?vid=859c4010-ce5a-48c9-99b8-6d3111511fce"},"vehicle_type_id":"4","last_reported":1766761913,"current_range_meters":3600,"station_id":"ce4bh692rcd13ifvqea0","pricing_plan_id":"cebpf4jnsgd1na2vs0mg"},{"bike_id":"603d8639-d5e5-48f3-a4f7-43da3503a819","system_id":"levelo_inurba_marseille","lat":43.26557,"lon":5.37298,"is_reserved":false,"is_disabled":false,"rental_uris":{"android":"levelo://app?vid=603d8639-d5e5-48f3-a4f7-43da3503a819","ios":"levelo://app?vid=603d8639-d5e5-48f3-a4f7-43da3503a819"},"vehicle_type_id":"4","last_reported":1766761913,"current_range_meters":4000,"station_id":"ce4bhg12rcd13ifvqf70","pricing_plan_id":"cebpf4jnsgd1na2vs0mg"},{"bike_id":"f112972f-5368-4d24-b500-793d48f6761f","system_id":"levelo_inurba_marseille","lat":43.21195,"lon":5.35072,"is_reserved":false,"is_disabled":false,"rental_uris":{"android":"levelo://app?vid=f112972f-5368-4d24-b500-793d48f6761f","ios":"levelo://app?vid=f112972f-5368-4d24-b500-793d48f6761f"},"vehicle_type_id":"4","last_reported":1766761913,"current_range_meters":4000,"station_id":"st_cvj6sg6p6f1abm77japg","pricing_plan_id":"cebpf4jnsgd1na2vs0mg"},{"bike_id":"b1598250-6b22-43a8-a256-68194256791b","system_id":"levelo_inurba_marseille","lat":43.30595,"lon":5.39335,"is_reserved":false,"is_disabled":false,"rental_uris":{"android":"levelo://app?vid=b1598250-6b22-43a8-a256-68194256791b","ios":"levelo://app?vid=b1598250-6b22-43a8-a256-68194256791b"},"vehicle_type_id":"4","last_reported":1766761913,"current_range_meters":4000,"station_id":"ce4bh0p2rcd13ifvqd80","pricing_plan_id":"cebpf4jnsgd1na2vs0mg"},{"bike_id":"0129a104-be5c-45e8-b62a-a380a7bc332c","system_id":"levelo_inurba_marseille","lat":43.27677,"lon":5.38895,"is_reserved":false,"is_disabled":false,"rental_uris":{"android":"levelo://app?vid=0129a104-be5c-45e8-b62a-a380a7bc332c","ios":"levelo://app?vid=0129a104-be5c-45e8-b62a-a380a7bc332c"},"vehicle_type_id":"4","last_reported":1766761913,"current_range_meters":4000,"station_id":"ce4bhi12rcd13ifvqfo0","pricing_plan_id":"cebpf4jnsgd1na2vs0mg"},{"bike_id":"ff1ff454-6737-4273-8295-6ab92ec91f04","system_id":"levelo_inurba_marseille","lat":43.31881,"lon":5.38867,"is_reserved":false,"is_disabled":false,"rental_uris":{"android":"levelo://app?vid=ff1ff454-6737-4273-8295-6ab92ec91f04","ios":"levelo://app?vid=ff1ff454-6737-4273-8295-6ab92ec91f04"},"vehicle_type_id":"4","last_reported":1766761913,"current_range_meters":4000,"station_id":"","pricing_plan_id":"cebpf4jnsgd1na2vs0mg"},{"bike_id":"41ff59ac-ef2b-49ab-b5e3-736b1d670e28","system_id":"levelo_inurba_marseille","lat":43.29164,"lon":5.37906,"is_reserved":false,"is_disabled":true,"rental_uris":{"android":"levelo://app?vid=41ff59ac-ef2b-49ab-b5e3-736b1d670e28","ios":"levelo://app?vid=41ff59ac-ef2b-49ab-b5e3-736b1d670e28"},"vehicle_type_id":"4","last_reported":1766761913,"current_range_meters":4400,"station_id":"","pricing_plan_id":"cebpf4jnsgd1na2vs0mg"},{"bike_id":"b25d030b-cb14-4532-a7c0-246eecb7588b","system_id":"levelo_inurba_marseille","lat":43.26847,"lon":5.38528,"is_reserved":false,"is_disabled":false,"rental_uris":{"android":"levelo://app?vid=b25d030b-cb14-4532-a7c0-246eecb7588b","ios":"levelo://app?vid=b25d030b-cb14-4532-a7c0-246eecb7588b"},"vehicle_type_id":"4","last_reported":1766761913,"current_range_meters":4800,"station_id":"","pricing_plan_id":"cebpf4jnsgd1na2vs0mg"},{"bike_id":"a92e4fa8-b1f3-45a7-bf63-44c85b3bb102","system_id":"levelo_inurba_marseille","lat":43.21167,"lon":5.3503,"is_reserved":false,"is_disabled":false,"rental_uris":{"android":"levelo://app?vid=a92e4fa8-b1f3-45a7-bf63-44c85b3bb102","ios":"levelo://app?vid=a92e4fa8-b1f3-45a7-bf63-44c85b3bb102"},"vehicle_type_id":"4","last_reported":1766761913,"current_range_meters":4800,"station_id":"","pricing_plan_id":"cebpf4jnsgd1na2vs0mg"},{"bike_id":"996f0d37-c843-42c5-a038-02ba442b1da7","system_id":"levelo_inurba_marseille","lat":43.28259,"lon":5.35053,"is_reserved":false,"is_disabled":true,"rental_uris":{"android":"levelo://app?vid=996f0d37-c843-42c5-a038-02ba442b1da7","ios":"levelo://app?vid=996f0d37-c843-42c5-a038-02ba442b1da7"},"vehicle_type_id":"4","last_reported":1766761913,"current_range_meters":4800,"station_id":"ce4bhbp2rcd13ifvqerg","pricing_plan_id":"cebpf4jnsgd1na2vs0mg"},{"bike_id":"2309261d-eca2-4d84-b3da-0560f8589d5e","system_id":"levelo_inurba_marseille","lat":43.32514,"lon":5.40888,"is_reserved":false,"is_disabled":false,"rental_uris":{"android":"levelo://app?vid=2309261d-eca2-4d84-b3da-0560f8589d5e","ios":"levelo://app?vid=2309261d-eca2-4d84-b3da-0560f8589d5e"},"vehicle_type_id":"4","last_reported":1766761913,"current_range_meters":6000,"station_id":"","pricing_plan_id":"cebpf4jnsgd1na2vs0mg"},{"bike_id":"16972b46-16f7-4636-ba99-c8cf896c9f73","system_id":"levelo_inurba_marseille","lat":43.34697,"lon":5.34551,"is_reserved":false,"is_disabled":false,"rental_uris":{"android":"levelo://app?vid=16972b46-16f7-4636-ba99-c8cf896c9f73","ios":"levelo://app?vid=16972b46-16f7-4636-ba99-c8cf896c9f73"},"vehicle_type_id":"4","last_reported":1766761913,"current_range_meters":6000,"station_id":"","pricing_plan_id":"cebpf4jnsgd1na2vs0mg"},{"bike_id":"5371a46d-fa00-4039-8758-d62a3010af24","system_id":"levelo_inurba_marseille","lat":43.28161,"lon":5.42646,"is_reserved":false,"is_disabled":false,"rental_uris":{"android":"levelo://app?vid=5371a46d-fa00-4039-8758-d62a3010af24","ios":"levelo://app?vid=5371a46d-fa00-4039-8758-d62a3010af24"},"vehicle_type_id":"4","last_reported":1766761913,"current_range_meters":6000,"station_id":"ce4bhnh2rcd13ifvqgug","pricing_plan_id":"cebpf4jnsgd1na2vs0mg"},{"bike_id":"bed00df6-d661-4640-b4e5-5c4df1e0ced4","system_id":"levelo_inurba_marseille","lat":43.302483,"lon":5.400857,"is_reserved":false,"is_disabled":false,"rental_uris":{"android":"levelo://app?vid=bed00df6-d661-4640-b4e5-5c4df1e0ced4","ios":"levelo://app?vid=bed00df6-d661-4640-b4e5-5c4df1e0ced4"},"vehicle_type_id":"4","last_reported":1766761913,"current_range_meters":6400,"station_id":"","pricing_plan_id":"cebpf4jnsgd1na2vs0mg"},{"bike_id":"8db86c4e-9a6a-4dae-8d74-b15612dbd2c6","system_id":"levelo_inurba_marseille","lat":43.27313,"lon":5.39074,"is_reserved":false,"is_disabled":false,"rental_uris":{"android":"levelo://app?vid=8db86c4e-9a6a-4dae-8d74-b15612dbd2c6","ios":"levelo://app?vid=8db86c4e-9a6a-4dae-8d74-b15612dbd2c6"},"vehicle_type_id":"4","last_reported":1766761913,"current_range_meters":6400,"station_id":"ce4bhgp2rcd13ifvqfe0","pricing_plan_id":"cebpf4jnsgd1na2vs0mg"},{"bike_id":"9e5c653e-bc98-4e46-b74f-e3776666b418","system_id":"levelo_inurba_marseille","lat":43.30089,"lon":5.39075,"is_reserved":false,"is_disabled":false,"rental_uris":{"android":"levelo://app?vid=9e5c653e-bc98-4e46-b74f-e3776666b418","ios":"levelo://app?vid=9e5c653e-bc98-4e46-b74f-e3776666b418"},"vehicle_type_id":"4","last_reported":1766761913,"current_range_meters":6400,"station_id":"ce4bh192rcd13ifvqdb0","pricing_plan_id":"cebpf4jnsgd1na2vs0mg"},{"bike_id":"d75a76d6-336e-4d4a-a014-c23e52e89187","system_id":"levelo_inurba_marseille","lat":43.27815,"lon":5.40714,"is_reserved":false,"is_disabled":false,"rental_uris":{"android":"levelo://app?vid=d75a76d6-336e-4d4a-a014-c23e52e89187","ios":"levelo://app?vid=d75a76d6-336e-4d4a-a014-c23e52e89187"},"vehicle_type_id":"4","last_reported":1766761913,"current_range_meters":6400,"station_id":"ce4bhnh2rcd13ifvqgtg","pricing_plan_id":"cebpf4jnsgd1na2vs0mg"},{"bike_id":"8ed1ea90-b3f2-4de1-a321-1f48fc81c096","system_id":"levelo_inurba_marseille","lat":43.31894,"lon":5.40728,"is_reserved":false,"is_disabled":false,"rental_uris":{"android":"levelo://app?vid=8ed1ea90-b3f2-4de1-a321-1f48fc81c096","ios":"levelo://app?vid=8ed1ea90-b3f2-4de1-a321-1f48fc81c096"},"vehicle_type_id":"4","last_reported":1766761913,"current_range_meters":6400,"station_id":"ce4bhq12rcd13ifvqhig","pricing_plan_id":"cebpf4jnsgd1na2vs0mg"},{"bike_id":"69b325de-dafe-4e22-8c04-6d58cc3c7fbb","system_id":"levelo_inurba_marseille","lat":43.310835,"lon":5.424268,"is_reserved":false,"is_disabled":true,"rental_uris":{"android":"levelo://app?vid=69b325de-dafe-4e22-8c04-6d58cc3c7fbb","ios":"levelo://app?vid=69b325de-dafe-4e22-8c04-6d58cc3c7fbb"},"vehicle_type_id":"4","last_reported":1766761913,"current_range_meters":6400,"station_id":"ce4bhp92rcd13ifvqhag","pricing_plan_id":"cebpf4jnsgd1na2vs0mg"},{"bike_id":"d687cff1-b05f-413c-899e-7dcc2404a58d","system_id":"levelo_inurba_marseille","lat":43.29826,"lon":5.44064,"is_reserved":false,"is_disabled":false,"rental_uris":{"android":"levelo://app?vid=d687cff1-b05f-413c-899e-7dcc2404a58d","ios":"levelo://app?vid=d687cff1-b05f-413c-899e-7dcc2404a58d"},"vehicle_type_id":"4","last_reported":1766761913,"current_range_meters":6400,"station_id":"st_d3jp68qikq2c7381ktn0","pricing_plan_id":"cebpf4jnsgd1na2vs0mg"},{"bike_id":"529b5433-c288-4ac1-9383-5e21a24be179","system_id":"levelo_inurba_marseille","lat":43.32476,"lon":5.36576,"is_reserved":false,"is_disabled":false,"rental_uris":{"android":"levelo://app?vid=529b5433-c288-4ac1-9383-5e21a24be179","ios":"levelo://app?vid=529b5433-c288-4ac1-9383-5e21a24be179"},"vehicle_type_id":"4","last_reported":1766761913,"current_range_meters":6800,"station_id":"ce4bhs12rcd13ifvqhvg","pricing_plan_id":"cebpf4jnsgd1na2vs0mg"},{"bike_id":"e0706769-8d39-44ec-816a-ad5b1e1b67c4","system_id":"levelo_inurba_marseille","lat":43.31766,"lon":5.398797,"is_reserved":false,"is_disabled":false,"rental_uris":{"android":"levelo://app?vid=e0706769-8d39-44ec-816a-ad5b1e1b67c4","ios":"levelo://app?vid=e0706769-8d39-44ec-816a-ad5b1e1b67c4"},"vehicle_type_id":"4","last_reported":1766761913,"current_range_meters":6800,"station_id":"","pricing_plan_id":"cebpf4jnsgd1na2vs0mg"},{"bike_id":"25692b7d-0611-4ec6-920b-3dacb7acc75b","system_id":"levelo_inurba_marseille","lat":43.30735,"lon":5.42436,"is_reserved":false,"is_disabled":true,"rental_uris":{"android":"levelo://app?vid=25692b7d-0611-4ec6-920b-3dacb7acc75b","ios":"levelo://app?vid=25692b7d-0611-4ec6-920b-3dacb7acc75b"},"vehicle_type_id":"4","last_reported":1766761913,"current_range_meters":7200,"station_id":"st_cvj6ca6bvosntc0bfgr0","pricing_plan_id":"cebpf4jnsgd1na2vs0mg"},{"bike_id":"d1c6387e-38d8-48b8-99a8-1fe2d55c271d","system_id":"levelo_inurba_marseille","lat":43.30651,"lon":5.40084,"is_reserved":false,"is_disabled":false,"rental_uris":{"android":"levelo://app?vid=d1c6387e-38d8-48b8-99a8-1fe2d55c271d","ios":"levelo://app?vid=d1c6387e-38d8-48b8-99a8-1fe2d55c271d"},"vehicle_type_id":"4","last_reported":1766761913,"current_range_meters":7200,"station_id":"ce4bh112rcd13ifvqda0","pricing_plan_id":"cebpf4jnsgd1na2vs0mg"},{"bike_id":"41dc2477-7b23-413b-8ee6-ec79c378cb3a","system_id":"levelo_inurba_marseille","lat":43.33664,"lon":5.3748,"is_reserved":false,"is_disabled":false,"rental_uris":{"android":"levelo://app?vid=41dc2477-7b23-413b-8ee6-ec79c378cb3a","ios":"levelo://app?vid=41dc2477-7b23-413b-8ee6-ec79c378cb3a"},"vehicle_type_id":"4","last_reported":1766761913,"current_range_meters":7200,"station_id":"","pricing_plan_id":"cebpf4jnsgd1na2vs0mg"},{"bike_id":"be7a9432-6e0b-4312-8b03-b1b0268b17ca","system_id":"levelo_inurba_marseille","lat":43.29671,"lon":5.36804,"is_reserved":false,"is_disabled":false,"rental_uris":{"android":"levelo://app?vid=be7a9432-6e0b-4312-8b03-b1b0268b17ca","ios":"levelo://app?vid=be7a9432-6e0b-4312-8b03-b1b0268b17ca"},"vehicle_type_id":"4","last_reported":1766761913,"current_range_meters":7200,"station_id":"","pricing_plan_id":"cebpf4jnsgd1na2vs0mg"},{"bike_id":"810e1fac-3433-4833-8834-39cfdf4fd050","system_id":"levelo_inurba_marseille","lat":43.32539,"lon":5.40479,"is_reserved":false,"is_disabled":false,"rental_uris":{"android":"levelo://app?vid=810e1fac-3433-4833-8834-39cfdf4fd050","ios":"levelo://app?vid=810e1fac-3433-4833-8834-39cfdf4fd050"},"vehicle_type_id":"4","last_reported":1766761913,"current_range_meters":7200,"station_id":"","pricing_plan_id":"cebpf4jnsgd1na2vs0mg"},{"bike_id":"e0effb5a-e8c9-4234-ae32-e89cc890b254","system_id":"levelo_inurba_marseille","lat":43.28869,"lon":5.42531,"is_reserved":false,"is_disabled":false,"rental_uris":{"android":"levelo://app?vid=e0effb5a-e8c9-4234-ae32-e89cc890b254","ios":"levelo://app?vid=e0effb5a-e8c9-4234-ae32-e89cc890b254"},"vehicle_type_id":"4","last_reported":1766761913,"current_range_meters":7200,"station_id":"st_d3b462108ojc7389ooeg","pricing_plan_id":"cebpf4jnsgd1na2vs0mg"},{"bike_id":"7d019b1c-0326-459c-a185-c589f7240f94","system_id":"levelo_inurba_marseille","lat":43.285264,"lon":5.441091,"is_reserved":false,"is_disabled":false,"rental_uris":{"android":"levelo://app?vid=7d019b1c-0326-459c-a185-c589f7240f94","ios":"levelo://app?vid=7d019b1c-0326-459c-a185-c589f7240f94"},"vehicle_type_id":"4","last_reported":1766761913,"current_range_meters":7200,"station_id":"st_d3j3df2ikq2c7380ej80","pricing_plan_id":"cebpf4jnsgd1na2vs0mg"},{"bike_id":"6b1bb24c-5465-40a7-a190-cf7862deee8c","system_id":"levelo_inurba_marseille","lat":43.316538,"lon":5.39452,"is_reserved":false,"is_disabled":false,"rental_uris":{"android":"levelo://app?vid=6b1bb24c-5465-40a7-a190-cf7862deee8c","ios":"levelo://app?vid=6b1bb24c-5465-40a7-a190-cf7862deee8c"},"vehicle_type_id":"4","last_reported":1766761913,"current_range_meters":7200,"station_id":"","pricing_plan_id":"cebpf4jnsgd1na2vs0mg"},{"bike_id":"8fcf17e9-6f12-40c5-b477-90499f0bb83c","system_id":"levelo_inurba_marseille","lat":43.337563,"lon":5.374336,"is_reserved":false,"is_disabled":false,"rental_uris":{"android":"levelo://app?vid=8fcf17e9-6f12-40c5-b477-90499f0bb83c","ios":"levelo://app?vid=8fcf17e9-6f12-40c5-b477-90499f0bb83c"},"vehicle_type_id":"4","last_reported":1766761913,"current_range_meters":8000,"station_id":"","pricing_plan_id":"cebpf4jnsgd1na2vs0mg"},{"bike_id":"2b7d16da-f035-4c02-bb90-d235d35a3d08","system_id":"levelo_inurba_marseille","lat":43.26138,"lon":5.40098,"is_reserved":false,"is_disabled":false,"rental_uris":{"android":"levelo://app?vid=2b7d16da-f035-4c02-bb90-d235d35a3d08","ios":"levelo://app?vid=2b7d16da-f035-4c02-bb90-d235d35a3d08"},"vehicle_type_id":"4","last_reported":1766761913,"current_range_meters":8000,"station_id":"","pricing_plan_id":"cebpf4jnsgd1na2vs0mg"},{"bike_id":"e63d9a65-4cde-4906-9735-3200b2d7a155","system_id":"levelo_inurba_marseille","lat":43.29649,"lon":5.38007,"is_reserved":false,"is_disabled":false,"rental_uris":{"android":"levelo://app?vid=e63d9a65-4cde-4906-9735-3200b2d7a155","ios":"levelo://app?vid=e63d9a65-4cde-4906-9735-3200b2d7a155"},"vehicle_type_id":"4","last_reported":1766761913,"current_range_meters":8000,"station_id":"","pricing_plan_id":"cebpf4jnsgd1na2vs0mg"},{"bike_id":"83a5edcb-0806-419a-8bb9-90a4cc1f094d","system_id":"levelo_inurba_marseille","lat":43.33722,"lon":5.40938,"is_reserved":false,"is_disabled":false,"rental_uris":{"android":"levelo://app?vid=83a5edcb-0806-419a-8bb9-90a4cc1f094d","ios":"levelo://app?vid=83a5edcb-0806-419a-8bb9-90a4cc1f094d"},"vehicle_type_id":"4","last_reported":1766761913,"current_range_meters":8000,"station_id":"","pricing_plan_id":"cebpf4jnsgd1na2vs0mg"},{"bike_id":"3e346a2c-c4f8-4d56-8dfe-41e7954cb434","system_id":"levelo_inurba_marseille","lat":43.28902,"lon":5.44978,"is_reserved":false,"is_disabled":false,"rental_uris":{"android":"levelo://app?vid=3e346a2c-c4f8-4d56-8dfe-41e7954cb434","ios":"levelo://app?vid=3e346a2c-c4f8-4d56-8dfe-41e7954cb434"},"vehicle_type_id":"4","last_reported":1766761913,"current_range_meters":8000,"station_id":"","pricing_plan_id":"cebpf4jnsgd1na2vs0mg"},{"bike_id":"9fd79016-67c5-4abf-ab06-d6e5f920a205","system_id":"levelo_inurba_marseille","lat":43.26559,"lon":5.39021,"is_reserved":false,"is_disabled":true,"rental_uris":{"android":"levelo://app?vid=9fd79016-67c5-4abf-ab06-d6e5f920a205","ios":"levelo://app?vid=9fd79016-67c5-4abf-ab06-d6e5f920a205"},"vehicle_type_id":"4","last_reported":1766761913,"current_range_meters":8000,"station_id":"ce4bhe12rcd13ifvqf30","pricing_plan_id":"cebpf4jnsgd1na2vs0mg"},{"bike_id":"5adb93f4-5835-4880-ac04-efe4431c38ed","system_id":"levelo_inurba_marseille","lat":43.25435,"lon":5.42442,"is_reserved":false,"is_disabled":false,"rental_uris":{"android":"levelo://app?vid=5adb93f4-5835-4880-ac04-efe4431c38ed","ios":"levelo://app?vid=5adb93f4-5835-4880-ac04-efe4431c38ed"},"vehicle_type_id":"4","last_reported":1766761913,"current_range_meters":8000,"station_id":"","pricing_plan_id":"cebpf4jnsgd1na2vs0mg"},{"bike_id":"2fad9db5-aa59-4d67-acc6-8a420e8c641e","system_id":"levelo_inurba_marseille","lat":43.28632,"lon":5.39964,"is_reserved":false,"is_disabled":false,"rental_uris":{"android":"levelo://app?vid=2fad9db5-aa59-4d67-acc6-8a420e8c641e","ios":"levelo://app?vid=2fad9db5-aa59-4d67-acc6-8a420e8c641e"},"vehicle_type_id":"4","last_reported":1766761913,"current_range_meters":8000,"station_id":"","pricing_plan_id":"cebpf4jnsgd1na2vs0mg"},{"bike_id":"c2abf5dd-4695-48f1-be77-b5ffd0b59571","system_id":"levelo_inurba_marseille","lat":43.33026,"lon":5.3904,"is_reserved":false,"is_disabled":false,"rental_uris":{"android":"levelo://app?vid=c2abf5dd-4695-48f1-be77-b5ffd0b59571","ios":"levelo://app?vid=c2abf5dd-4695-48f1-be77-b5ffd0b59571"},"vehicle_type_id":"4","last_reported":1766761913,"current_range_meters":8400,"station_id":"ce4bhr92rcd13ifvqhrg","pricing_plan_id":"cebpf4jnsgd1na2vs0mg"},{"bike_id":"98f9d3d5-cf7e-4d1a-a84b-377524c18821","system_id":"levelo_inurba_marseille","lat":43.29633,"lon":5.40588,"is_reserved":false,"is_disabled":false,"rental_uris":{"android":"levelo://app?vid=98f9d3d5-cf7e-4d1a-a84b-377524c18821","ios":"levelo://app?vid=98f9d3d5-cf7e-4d1a-a84b-377524c18821"},"vehicle_type_id":"4","last_reported":1766761913,"current_range_meters":8400,"station_id":"ce4bh0h2rcd13ifvqd60","pricing_plan_id":"cebpf4jnsgd1na2vs0mg"},{"bike_id":"87bee5ba-b9bf-4703-90f8-dac005ba9e2d","system_id":"levelo_inurba_marseille","lat":43.26568,"lon":5.37331,"is_reserved":false,"is_disabled":false,"rental_uris":{"android":"levelo://app?vid=87bee5ba-b9bf-4703-90f8-dac005ba9e2d","ios":"levelo://app?vid=87bee5ba-b9bf-4703-90f8-dac005ba9e2d"},"vehicle_type_id":"4","last_reported":1766761913,"current_range_meters":8400,"station_id":"ce4bhg12rcd13ifvqf70","pricing_plan_id":"cebpf4jnsgd1na2vs0mg"},{"bike_id":"9a08168c-1df4-4159-8da8-fcae5b721280","system_id":"levelo_inurba_marseille","lat":43.27374,"lon":5.36257,"is_reserved":false,"is_disabled":false,"rental_uris":{"android":"levelo://app?vid=9a08168c-1df4-4159-8da8-fcae5b721280","ios":"levelo://app?vid=9a08168c-1df4-4159-8da8-fcae5b721280"},"vehicle_type_id":"4","last_reported":1766761913,"current_range_meters":8400,"station_id":"ce4bhbh2rcd13ifvqeo0","pricing_plan_id":"cebpf4jnsgd1na2vs0mg"},{"bike_id":"6d373430-813a-4ac6-a484-9f4402e994cc","system_id":"levelo_inurba_marseille","lat":43.217445,"lon":5.346039,"is_reserved":false,"is_disabled":false,"rental_uris":{"android":"levelo://app?vid=6d373430-813a-4ac6-a484-9f4402e994cc","ios":"levelo://app?vid=6d373430-813a-4ac6-a484-9f4402e994cc"},"vehicle_type_id":"4","last_reported":1766761913,"current_range_meters":8400,"station_id":"st_cvj6r9ubvosntc0bgbag","pricing_plan_id":"cebpf4jnsgd1na2vs0mg"},{"bike_id":"99d83292-bf4b-48bb-ae23-f91691099dca","system_id":"levelo_inurba_marseille","lat":43.30284,"lon":5.3731,"is_reserved":false,"is_disabled":false,"rental_uris":{"android":"levelo://app?vid=99d83292-bf4b-48bb-ae23-f91691099dca","ios":"levelo://app?vid=99d83292-bf4b-48bb-ae23-f91691099dca"},"vehicle_type_id":"4","last_reported":1766761913,"current_range_meters":8400,"station_id":"","pricing_plan_id":"cebpf4jnsgd1na2vs0mg"},{"bike_id":"7f01de1e-82c5-4abd-a8a0-bd31c8a992fa","system_id":"levelo_inurba_marseille","lat":43.29967,"lon":5.41333,"is_reserved":false,"is_disabled":true,"rental_uris":{"android":"levelo://app?vid=7f01de1e-82c5-4abd-a8a0-bd31c8a992fa","ios":"levelo://app?vid=7f01de1e-82c5-4abd-a8a0-bd31c8a992fa"},"vehicle_type_id":"4","last_reported":1766761913,"current_range_meters":8400,"station_id":"ce4bhp12rcd13ifvqh9g","pricing_plan_id":"cebpf4jnsgd1na2vs0mg"},{"bike_id":"54521975-972b-411d-b9c4-ce6f16ef3aa4","system_id":"levelo_inurba_marseille","lat":43.29739,"lon":5.38524,"is_reserved":false,"is_disabled":false,"rental_uris":{"android":"levelo://app?vid=54521975-972b-411d-b9c4-ce6f16ef3aa4","ios":"levelo://app?vid=54521975-972b-411d-b9c4-ce6f16ef3aa4"},"vehicle_type_id":"4","last_reported":1766761913,"current_range_meters":8800,"station_id":"","pricing_plan_id":"cebpf4jnsgd1na2vs0mg"},{"bike_id":"115b2f8e-404e-4661-b1a9-5ff904791dd7","system_id":"levelo_inurba_marseille","lat":43.29794,"lon":5.38197,"is_reserved":false,"is_disabled":false,"rental_uris":{"android":"levelo://app?vid=115b2f8e-404e-4661-b1a9-5ff904791dd7","ios":"levelo://app?vid=115b2f8e-404e-4661-b1a9-5ff904791dd7"},"vehicle_type_id":"4","last_reported":1766761913,"current_range_meters":8800,"station_id":"","pricing_plan_id":"cebpf4jnsgd1na2vs0mg"},{"bike_id":"c77523a1-9d61-47d4-bde2-33be502221c0","system_id":"levelo_inurba_marseille","lat":43.324766,"lon":5.365644,"is_reserved":false,"is_disabled":true,"rental_uris":{"android":"levelo://app?vid=c77523a1-9d61-47d4-bde2-33be502221c0","ios":"levelo://app?vid=c77523a1-9d61-47d4-bde2-33be502221c0"},"vehicle_type_id":"4","last_reported":1766761913,"current_range_meters":8800,"station_id":"ce4bhs12rcd13ifvqhvg","pricing_plan_id":"cebpf4jnsgd1na2vs0mg"},{"bike_id":"4fd40e38-c95e-4db1-8549-f03c35343081","system_id":"levelo_inurba_marseille","lat":43.24952,"lon":5.40479,"is_reserved":false,"is_disabled":false,"rental_uris":{"android":"levelo://app?vid=4fd40e38-c95e-4db1-8549-f03c35343081","ios":"levelo://app?vid=4fd40e38-c95e-4db1-8549-f03c35343081"},"vehicle_type_id":"4","last_reported":1766761913,"current_range_meters":8800,"station_id":"st_d2ngiaodas8pm72gd1h0","pricing_plan_id":"cebpf4jnsgd1na2vs0mg"},{"bike_id":"a3be4a7c-7544-49a9-8048-28fcde31ea3d","system_id":"levelo_inurba_marseille","lat":43.2929,"lon":5.373448,"is_reserved":false,"is_disabled":false,"rental_uris":{"android":"levelo://app?vid=a3be4a7c-7544-49a9-8048-28fcde31ea3d","ios":"levelo://app?vid=a3be4a7c-7544-49a9-8048-28fcde31ea3d"},"vehicle_type_id":"4","last_reported":1766761913,"current_range_meters":8800,"station_id":"ce4bgi12rcd13ifvqb70","pricing_plan_id":"cebpf4jnsgd1na2vs0mg"},{"bike_id":"0a74135e-6d89-4a51-9a0d-4554c6c5090e","system_id":"levelo_inurba_marseille","lat":43.298536,"lon":5.362766,"is_reserved":false,"is_disabled":false,"rental_uris":{"android":"levelo://app?vid=0a74135e-6d89-4a51-9a0d-4554c6c5090e","ios":"levelo://app?vid=0a74135e-6d89-4a51-9a0d-4554c6c5090e"},"vehicle_type_id":"4","last_reported":1766761913,"current_range_meters":8800,"station_id":"ce4bgpp2rcd13ifvqc3g","pricing_plan_id":"cebpf4jnsgd1na2vs0mg"},{"bike_id":"3e765c7e-a034-4468-bfa7-970b4189b2cc","system_id":"levelo_inurba_marseille","lat":43.29835,"lon":5.44025,"is_reserved":false,"is_disabled":false,"rental_uris":{"android":"levelo://app?vid=3e765c7e-a034-4468-bfa7-970b4189b2cc","ios":"levelo://app?vid=3e765c7e-a034-4468-bfa7-970b4189b2cc"},"vehicle_type_id":"4","last_reported":1766761913,"current_range_meters":9200,"station_id":"st_d3jp68qikq2c7381ktn0","pricing_plan_id":"cebpf4jnsgd1na2vs0mg"},{"bike_id":"3831f388-2b3d-44ff-9a5e-d18620078e79","system_id":"levelo_inurba_marseille","lat":43.29972,"lon":5.38496,"is_reserved":false,"is_disabled":false,"rental_uris":{"android":"levelo://app?vid=3831f388-2b3d-44ff-9a5e-d18620078e79","ios":"levelo://app?vid=3831f388-2b3d-44ff-9a5e-d18620078e79"},"vehicle_type_id":"4","last_reported":1766761913,"current_range_meters":9200,"station_id":"ce4bgj92rcd13ifvqbd0","pricing_plan_id":"cebpf4jnsgd1na2vs0mg"},{"bike_id":"45cb4a88-56d0-4ea5-b85d-33b8d4d652ea","system_id":"levelo_inurba_marseille","lat":43.296096,"lon":5.383431,"is_reserved":false,"is_disabled":false,"rental_uris":{"android":"levelo://app?vid=45cb4a88-56d0-4ea5-b85d-33b8d4d652ea","ios":"levelo://app?vid=45cb4a88-56d0-4ea5-b85d-33b8d4d652ea"},"vehicle_type_id":"4","last_reported":1766761913,"current_range_meters":9200,"station_id":"","pricing_plan_id":"cebpf4jnsgd1na2vs0mg"},{"bike_id":"930566d2-2f61-46bf-9bf8-db6b000638fd","system_id":"levelo_inurba_marseille","lat":43.31407,"lon":5.39822,"is_reserved":false,"is_disabled":false,"rental_uris":{"android":"levelo://app?vid=930566d2-2f61-46bf-9bf8-db6b000638fd","ios":"levelo://app?vid=930566d2-2f61-46bf-9bf8-db6b000638fd"},"vehicle_type_id":"4","last_reported":1766761913,"current_range_meters":9200,"station_id":"","pricing_plan_id":"cebpf4jnsgd1na2vs0mg"},{"bike_id":"ceb020ce-da71-4e09-9d6b-51afe10645f0","system_id":"levelo_inurba_marseille","lat":43.32002,"lon":5.38163,"is_reserved":false,"is_disabled":false,"rental_uris":{"android":"levelo://app?vid=ceb020ce-da71-4e09-9d6b-51afe10645f0","ios":"levelo://app?vid=ceb020ce-da71-4e09-9d6b-51afe10645f0"},"vehicle_type_id":"4","last_reported":1766761913,"current_range_meters":9200,"station_id":"ce4bhr12rcd13ifvqhpg","pricing_plan_id":"cebpf4jnsgd1na2vs0mg"},{"bike_id":"38c28e48-5f61-43ac-b9d5-bc3265b28b77","system_id":"levelo_inurba_marseille","lat":43.312743,"lon":5.401685,"is_reserved":false,"is_disabled":false,"rental_uris":{"android":"levelo://app?vid=38c28e48-5f61-43ac-b9d5-bc3265b28b77","ios":"levelo://app?vid=38c28e48-5f61-43ac-b9d5-bc3265b28b77"},"vehicle_type_id":"4","last_reported":1766761913,"current_range_meters":9200,"station_id":"ce4bh092rcd13ifvqd30","pricing_plan_id":"cebpf4jnsgd1na2vs0mg"},{"bike_id":"f85100e6-f39a-4210-a3d0-9309583b0cb5","system_id":"levelo_inurba_marseille","lat":43.28271,"lon":5.35057,"is_reserved":false,"is_disabled":false,"rental_uris":{"android":"levelo://app?vid=f85100e6-f39a-4210-a3d0-9309583b0cb5","ios":"levelo://app?vid=f85100e6-f39a-4210-a3d0-9309583b0cb5"},"vehicle_type_id":"4","last_reported":1766761913,"current_range_meters":9200,"station_id":"ce4bhbp2rcd13ifvqerg","pricing_plan_id":"cebpf4jnsgd1na2vs0mg"},{"bike_id":"119a66d3-59c1-4eaa-b656-c62237c2eeae","system_id":"levelo_inurba_marseille","lat":43.30862,"lon":5.38263,"is_reserved":false,"is_disabled":false,"rental_uris":{"android":"levelo://app?vid=119a66d3-59c1-4eaa-b656-c62237c2eeae","ios":"levelo://app?vid=119a66d3-59c1-4eaa-b656-c62237c2eeae"},"vehicle_type_id":"4","last_reported":1766761913,"current_range_meters":9200,"station_id":"","pricing_plan_id":"cebpf4jnsgd1na2vs0mg"},{"bike_id":"deea9a7e-4e08-4a0f-968b-13a11242f187","system_id":"levelo_inurba_marseille","lat":43.32288,"lon":5.38273,"is_reserved":false,"is_disabled":false,"rental_uris":{"android":"levelo://app?vid=deea9a7e-4e08-4a0f-968b-13a11242f187","ios":"levelo://app?vid=deea9a7e-4e08-4a0f-968b-13a11242f187"},"vehicle_type_id":"4","last_reported":1766761913,"current_range_meters":9200,"station_id":"ce4bhr12rcd13ifvqhqg","pricing_plan_id":"cebpf4jnsgd1na2vs0mg"},{"bike_id":"64721fec-77b8-4807-9667-cec3c8c1fbd0","system_id":"levelo_inurba_marseille","lat":43.2433,"lon":5.39465,"is_reserved":false,"is_disabled":false,"rental_uris":{"android":"levelo://app?vid=64721fec-77b8-4807-9667-cec3c8c1fbd0","ios":"levelo://app?vid=64721fec-77b8-4807-9667-cec3c8c1fbd0"},"vehicle_type_id":"4","last_reported":1766761913,"current_range_meters":9600,"station_id":"","pricing_plan_id":"cebpf4jnsgd1na2vs0mg"},{"bike_id":"5a9fc56a-1c04-452f-8e76-12ed21aa5973","system_id":"levelo_inurba_marseille","lat":43.2657,"lon":5.40322,"is_reserved":false,"is_disabled":false,"rental_uris":{"android":"levelo://app?vid=5a9fc56a-1c04-452f-8e76-12ed21aa5973","ios":"levelo://app?vid=5a9fc56a-1c04-452f-8e76-12ed21aa5973"},"vehicle_type_id":"4","last_reported":1766761913,"current_range_meters":9600,"station_id":"ce4bhmp2rcd13ifvqgng","pricing_plan_id":"cebpf4jnsgd1na2vs0mg"},{"bike_id":"b9f5bb9a-d9aa-4714-a9ae-ceaed3ab533e","system_id":"levelo_inurba_marseille","lat":43.2964,"lon":5.3813,"is_reserved":false,"is_disabled":false,"rental_uris":{"android":"levelo://app?vid=b9f5bb9a-d9aa-4714-a9ae-ceaed3ab533e","ios":"levelo://app?vid=b9f5bb9a-d9aa-4714-a9ae-ceaed3ab533e"},"vehicle_type_id":"4","last_reported":1766761913,"current_range_meters":9600,"station_id":"ce4bgl12rcd13ifvqbo0","pricing_plan_id":"cebpf4jnsgd1na2vs0mg"},{"bike_id":"ff4e46f7-adc1-4649-aa1f-012ca177c8d4","system_id":"levelo_inurba_marseille","lat":43.285327,"lon":5.44103,"is_reserved":false,"is_disabled":false,"rental_uris":{"android":"levelo://app?vid=ff4e46f7-adc1-4649-aa1f-012ca177c8d4","ios":"levelo://app?vid=ff4e46f7-adc1-4649-aa1f-012ca177c8d4"},"vehicle_type_id":"4","last_reported":1766761913,"current_range_meters":9600,"station_id":"st_d3j3df2ikq2c7380ej80","pricing_plan_id":"cebpf4jnsgd1na2vs0mg"},{"bike_id":"0f25c1aa-e40e-414f-b07d-51888ed8f81e","system_id":"levelo_inurba_marseille","lat":43.25504,"lon":5.37706,"is_reserved":false,"is_disabled":false,"rental_uris":{"android":"levelo://app?vid=0f25c1aa-e40e-414f-b07d-51888ed8f81e","ios":"levelo://app?vid=0f25c1aa-e40e-414f-b07d-51888ed8f81e"},"vehicle_type_id":"4","last_reported":1766761913,"current_range_meters":10000,"station_id":"ce4bhh12rcd13ifvqff0","pricing_plan_id":"cebpf4jnsgd1na2vs0mg"},{"bike_id":"979b5e26-f8b6-49b3-9477-dcf91fe18c0b","system_id":"levelo_inurba_marseille","lat":43.29995,"lon":5.41326,"is_reserved":false,"is_disabled":false,"rental_uris":{"android":"levelo://app?vid=979b5e26-f8b6-49b3-9477-dcf91fe18c0b","ios":"levelo://app?vid=979b5e26-f8b6-49b3-9477-dcf91fe18c0b"},"vehicle_type_id":"4","last_reported":1766761913,"current_range_meters":10000,"station_id":"ce4bhp12rcd13ifvqh9g","pricing_plan_id":"cebpf4jnsgd1na2vs0mg"},{"bike_id":"18a2b9bc-9e8f-4eff-a3c6-418d184074ca","system_id":"levelo_inurba_marseille","lat":43.29815,"lon":5.44059,"is_reserved":false,"is_disabled":false,"rental_uris":{"android":"levelo://app?vid=18a2b9bc-9e8f-4eff-a3c6-418d184074ca","ios":"levelo://app?vid=18a2b9bc-9e8f-4eff-a3c6-418d184074ca"},"vehicle_type_id":"4","last_reported":1766761913,"current_range_meters":10000,"station_id":"st_d3jp68qikq2c7381ktn0","pricing_plan_id":"cebpf4jnsgd1na2vs0mg"},{"bike_id":"14de6e00-2e2a-4431-a82a-20fad4757763","system_id":"levelo_inurba_marseille","lat":43.30139,"lon":5.43115,"is_reserved":false,"is_disabled":false,"rental_uris":{"android":"levelo://app?vid=14de6e00-2e2a-4431-a82a-20fad4757763","ios":"levelo://app?vid=14de6e00-2e2a-4431-a82a-20fad4757763"},"vehicle_type_id":"4","last_reported":1766761913,"current_range_meters":10000,"station_id":"st_d3js3co5814s73ftftug","pricing_plan_id":"cebpf4jnsgd1na2vs0mg"},{"bike_id":"7ee1c09d-a306-4e72-a256-6549ce7578c9","system_id":"levelo_inurba_marseille","lat":43.29164,"lon":5.37294,"is_reserved":false,"is_disabled":false,"rental_uris":{"android":"levelo://app?vid=7ee1c09d-a306-4e72-a256-6549ce7578c9","ios":"levelo://app?vid=7ee1c09d-a306-4e72-a256-6549ce7578c9"},"vehicle_type_id":"4","last_reported":1766761913,"current_range_meters":10000,"station_id":"","pricing_plan_id":"cebpf4jnsgd1na2vs0mg"},{"bike_id":"c6710cdf-d341-4fc7-8dff-171343d7aeff","system_id":"levelo_inurba_marseille","lat":43.301465,"lon":5.39265,"is_reserved":false,"is_disabled":false,"rental_uris":{"android":"levelo://app?vid=c6710cdf-d341-4fc7-8dff-171343d7aeff","ios":"levelo://app?vid=c6710cdf-d341-4fc7-8dff-171343d7aeff"},"vehicle_type_id":"4","last_reported":1766761913,"current_range_meters":10000,"station_id":"","pricing_plan_id":"cebpf4jnsgd1na2vs0mg"},{"bike_id":"87e0eab3-2b64-49f8-95ec-ad91fbb7b57d","system_id":"levelo_inurba_marseille","lat":43.2981,"lon":5.44065,"is_reserved":false,"is_disabled":false,"rental_uris":{"android":"levelo://app?vid=87e0eab3-2b64-49f8-95ec-ad91fbb7b57d","ios":"levelo://app?vid=87e0eab3-2b64-49f8-95ec-ad91fbb7b57d"},"vehicle_type_id":"4","last_reported":1766761913,"current_range_meters":10000,"station_id":"st_d3jp68qikq2c7381ktn0","pricing_plan_id":"cebpf4jnsgd1na2vs0mg"},{"bike_id":"e48135b7-c6b5-4969-b3df-0e90fd7856e0","system_id":"levelo_inurba_marseille","lat":43.31697,"lon":5.40495,"is_reserved":false,"is_disabled":false,"rental_uris":{"android":"levelo://app?vid=e48135b7-c6b5-4969-b3df-0e90fd7856e0","ios":"levelo://app?vid=e48135b7-c6b5-4969-b3df-0e90fd7856e0"},"vehicle_type_id":"4","last_reported":1766761913,"current_range_meters":10000,"station_id":"ce4bh012rcd13ifvqd00","pricing_plan_id":"cebpf4jnsgd1na2vs0mg"},{"bike_id":"29da013e-f676-4033-a45f-8d005e13e759","system_id":"levelo_inurba_marseille","lat":43.21195,"lon":5.35081,"is_reserved":false,"is_disabled":false,"rental_uris":{"android":"levelo://app?vid=29da013e-f676-4033-a45f-8d005e13e759","ios":"levelo://app?vid=29da013e-f676-4033-a45f-8d005e13e759"},"vehicle_type_id":"4","last_reported":1766761913,"current_range_meters":10800,"station_id":"st_cvj6sg6p6f1abm77japg","pricing_plan_id":"cebpf4jnsgd1na2vs0mg"},{"bike_id":"0d93cac9-2fdd-4dbf-b1ad-1c0d8c9236c4","system_id":"levelo_inurba_marseille","lat":43.26634,"lon":5.39386,"is_reserved":false,"is_disabled":false,"rental_uris":{"android":"levelo://app?vid=0d93cac9-2fdd-4dbf-b1ad-1c0d8c9236c4","ios":"levelo://app?vid=0d93cac9-2fdd-4dbf-b1ad-1c0d8c9236c4"},"vehicle_type_id":"4","last_reported":1766761913,"current_range_meters":10800,"station_id":"","pricing_plan_id":"cebpf4jnsgd1na2vs0mg"},{"bike_id":"fd8afc83-ab9c-45aa-872c-f949cfc3d347","system_id":"levelo_inurba_marseille","lat":43.29826,"lon":5.38119,"is_reserved":false,"is_disabled":false,"rental_uris":{"android":"levelo://app?vid=fd8afc83-ab9c-45aa-872c-f949cfc3d347","ios":"levelo://app?vid=fd8afc83-ab9c-45aa-872c-f949cfc3d347"},"vehicle_type_id":"4","last_reported":1766761913,"current_range_meters":10800,"station_id":"ce4bgip2rcd13ifvqbb0","pricing_plan_id":"cebpf4jnsgd1na2vs0mg"},{"bike_id":"e280cdc1-d94f-41da-8c4d-62913f566082","system_id":"levelo_inurba_marseille","lat":43.28089,"lon":5.39659,"is_reserved":false,"is_disabled":false,"rental_uris":{"android":"levelo://app?vid=e280cdc1-d94f-41da-8c4d-62913f566082","ios":"levelo://app?vid=e280cdc1-d94f-41da-8c4d-62913f566082"},"vehicle_type_id":"4","last_reported":1766761913,"current_range_meters":10800,"station_id":"ce4bho12rcd13ifvqh2g","pricing_plan_id":"cebpf4jnsgd1na2vs0mg"},{"bike_id":"f19865c5-a947-4888-ba03-5ff76ba57faf","system_id":"levelo_inurba_marseille","lat":43.28489,"lon":5.48384,"is_reserved":false,"is_disabled":false,"rental_uris":{"android":"levelo://app?vid=f19865c5-a947-4888-ba03-5ff76ba57faf","ios":"levelo://app?vid=f19865c5-a947-4888-ba03-5ff76ba57faf"},"vehicle_type_id":"4","last_reported":1766761913,"current_range_meters":10800,"station_id":"","pricing_plan_id":"cebpf4jnsgd1na2vs0mg"},{"bike_id":"684ac723-940d-48e7-b01e-3c0feeb09984","system_id":"levelo_inurba_marseille","lat":43.2501,"lon":5.38931,"is_reserved":false,"is_disabled":false,"rental_uris":{"android":"levelo://app?vid=684ac723-940d-48e7-b01e-3c0feeb09984","ios":"levelo://app?vid=684ac723-940d-48e7-b01e-3c0feeb09984"},"vehicle_type_id":"4","last_reported":1766761913,"current_range_meters":10800,"station_id":"ce4bhgp2rcd13ifvqfd0","pricing_plan_id":"cebpf4jnsgd1na2vs0mg"},{"bike_id":"08aab02f-4102-499f-a5bb-5d8e2000a0dd","system_id":"levelo_inurba_marseille","lat":43.298186,"lon":5.370734,"is_reserved":false,"is_disabled":false,"rental_uris":{"android":"levelo://app?vid=08aab02f-4102-499f-a5bb-5d8e2000a0dd","ios":"levelo://app?vid=08aab02f-4102-499f-a5bb-5d8e2000a0dd"},"vehicle_type_id":"4","last_reported":1766761913,"current_range_meters":10800,"station_id":"ce4bgop2rcd13ifvqc1g","pricing_plan_id":"cebpf4jnsgd1na2vs0mg"},{"bike_id":"c20fae26-1970-44b4-b66a-6ffb0cf0ac97","system_id":"levelo_inurba_marseille","lat":43.31599,"lon":5.40394,"is_reserved":false,"is_disabled":false,"rental_uris":{"android":"levelo://app?vid=c20fae26-1970-44b4-b66a-6ffb0cf0ac97","ios":"levelo://app?vid=c20fae26-1970-44b4-b66a-6ffb0cf0ac97"},"vehicle_type_id":"4","last_reported":1766761913,"current_range_meters":10800,"station_id":"","pricing_plan_id":"cebpf4jnsgd1na2vs0mg"},{"bike_id":"6af309a2-8f26-4463-a2f8-b68c7d811285","system_id":"levelo_inurba_marseille","lat":43.30905,"lon":5.3745,"is_reserved":false,"is_disabled":false,"rental_uris":{"android":"levelo://app?vid=6af309a2-8f26-4463-a2f8-b68c7d811285","ios":"levelo://app?vid=6af309a2-8f26-4463-a2f8-b68c7d811285"},"vehicle_type_id":"4","last_reported":1766761913,"current_range_meters":11200,"station_id":"","pricing_plan_id":"cebpf4jnsgd1na2vs0mg"},{"bike_id":"bd9763d0-165b-4579-81d7-891eb5f41112","system_id":"levelo_inurba_marseille","lat":43.25496,"lon":5.37646,"is_reserved":false,"is_disabled":false,"rental_uris":{"android":"levelo://app?vid=bd9763d0-165b-4579-81d7-891eb5f41112","ios":"levelo://app?vid=bd9763d0-165b-4579-81d7-891eb5f41112"},"vehicle_type_id":"4","last_reported":1766761913,"current_range_meters":11200,"station_id":"ce4bhh12rcd13ifvqff0","pricing_plan_id":"cebpf4jnsgd1na2vs0mg"},{"bike_id":"7949dd14-7af0-4592-9cce-8e34ef65c2a8","system_id":"levelo_inurba_marseille","lat":43.29753,"lon":5.4279,"is_reserved":false,"is_disabled":false,"rental_uris":{"android":"levelo://app?vid=7949dd14-7af0-4592-9cce-8e34ef65c2a8","ios":"levelo://app?vid=7949dd14-7af0-4592-9cce-8e34ef65c2a8"},"vehicle_type_id":"4","last_reported":1766761913,"current_range_meters":11200,"station_id":"st_d3md5207bmas73dh9klg","pricing_plan_id":"cebpf4jnsgd1na2vs0mg"},{"bike_id":"a2a1337d-ec9d-4b6b-9079-4ec62e407cf1","system_id":"levelo_inurba_marseille","lat":43.29912,"lon":5.37459,"is_reserved":false,"is_disabled":true,"rental_uris":{"android":"levelo://app?vid=a2a1337d-ec9d-4b6b-9079-4ec62e407cf1","ios":"levelo://app?vid=a2a1337d-ec9d-4b6b-9079-4ec62e407cf1"},"vehicle_type_id":"4","last_reported":1766761913,"current_range_meters":11200,"station_id":"","pricing_plan_id":"cebpf4jnsgd1na2vs0mg"},{"bike_id":"217d4159-0a90-4c13-851f-9990a1a93c8b","system_id":"levelo_inurba_marseille","lat":43.24383,"lon":5.37089,"is_reserved":false,"is_disabled":false,"rental_uris":{"android":"levelo://app?vid=217d4159-0a90-4c13-851f-9990a1a93c8b","ios":"levelo://app?vid=217d4159-0a90-4c13-851f-9990a1a93c8b"},"vehicle_type_id":"4","last_reported":1766761913,"current_range_meters":11200,"station_id":"ce4bhhh2rcd13ifvqfk0","pricing_plan_id":"cebpf4jnsgd1na2vs0mg"},{"bike_id":"62a3c90b-6cbc-488b-acb5-68c8eaa204f0","system_id":"levelo_inurba_marseille","lat":43.21188,"lon":5.35083,"is_reserved":false,"is_disabled":false,"rental_uris":{"android":"levelo://app?vid=62a3c90b-6cbc-488b-acb5-68c8eaa204f0","ios":"levelo://app?vid=62a3c90b-6cbc-488b-acb5-68c8eaa204f0"},"vehicle_type_id":"4","last_reported":1766761913,"current_range_meters":11200,"station_id":"st_cvj6sg6p6f1abm77japg","pricing_plan_id":"cebpf4jnsgd1na2vs0mg"},{"bike_id":"7eb03969-e53f-4e68-89ed-76164189db73","system_id":"levelo_inurba_marseille","lat":43.28537,"lon":5.44093,"is_reserved":false,"is_disabled":false,"rental_uris":{"android":"levelo://app?vid=7eb03969-e53f-4e68-89ed-76164189db73","ios":"levelo://app?vid=7eb03969-e53f-4e68-89ed-76164189db73"},"vehicle_type_id":"4","last_reported":1766761913,"current_range_meters":11200,"station_id":"st_d3j3df2ikq2c7380ej80","pricing_plan_id":"cebpf4jnsgd1na2vs0mg"},{"bike_id":"28d36d66-e4d6-4e13-a6c5-33e9d81e47d2","system_id":"levelo_inurba_marseille","lat":43.31696,"lon":5.40458,"is_reserved":false,"is_disabled":false,"rental_uris":{"android":"levelo://app?vid=28d36d66-e4d6-4e13-a6c5-33e9d81e47d2","ios":"levelo://app?vid=28d36d66-e4d6-4e13-a6c5-33e9d81e47d2"},"vehicle_type_id":"4","last_reported":1766761913,"current_range_meters":11600,"station_id":"ce4bh012rcd13ifvqd00","pricing_plan_id":"cebpf4jnsgd1na2vs0mg"},{"bike_id":"2d860b81-0081-47f0-80fb-7e4c62824916","system_id":"levelo_inurba_marseille","lat":43.30134,"lon":5.43128,"is_reserved":false,"is_disabled":false,"rental_uris":{"android":"levelo://app?vid=2d860b81-0081-47f0-80fb-7e4c62824916","ios":"levelo://app?vid=2d860b81-0081-47f0-80fb-7e4c62824916"},"vehicle_type_id":"4","last_reported":1766761913,"current_range_meters":11600,"station_id":"st_d3js3co5814s73ftftug","pricing_plan_id":"cebpf4jnsgd1na2vs0mg"},{"bike_id":"52cafd97-382c-4286-9604-d4c6a4591db2","system_id":"levelo_inurba_marseille","lat":43.30308,"lon":5.39206,"is_reserved":false,"is_disabled":false,"rental_uris":{"android":"levelo://app?vid=52cafd97-382c-4286-9604-d4c6a4591db2","ios":"levelo://app?vid=52cafd97-382c-4286-9604-d4c6a4591db2"},"vehicle_type_id":"4","last_reported":1766761913,"current_range_meters":11600,"station_id":"ce4bgkh2rcd13ifvqbk0","pricing_plan_id":"cebpf4jnsgd1na2vs0mg"},{"bike_id":"a0586164-95f2-42bc-8a8b-b25208eecd29","system_id":"levelo_inurba_marseille","lat":43.28616,"lon":5.35108,"is_reserved":false,"is_disabled":false,"rental_uris":{"android":"levelo://app?vid=a0586164-95f2-42bc-8a8b-b25208eecd29","ios":"levelo://app?vid=a0586164-95f2-42bc-8a8b-b25208eecd29"},"vehicle_type_id":"4","last_reported":1766761913,"current_range_meters":11600,"station_id":"ce4bhch2rcd13ifvqeug","pricing_plan_id":"cebpf4jnsgd1na2vs0mg"},{"bike_id":"ca48d4ad-26ca-4dea-a200-be3e43176f3f","system_id":"levelo_inurba_marseille","lat":43.33192,"lon":5.41325,"is_reserved":false,"is_disabled":false,"rental_uris":{"android":"levelo://app?vid=ca48d4ad-26ca-4dea-a200-be3e43176f3f","ios":"levelo://app?vid=ca48d4ad-26ca-4dea-a200-be3e43176f3f"},"vehicle_type_id":"4","last_reported":1766761913,"current_range_meters":11600,"station_id":"","pricing_plan_id":"cebpf4jnsgd1na2vs0mg"},{"bike_id":"1f45b2b1-d2e0-4187-926d-9979c716f8a5","system_id":"levelo_inurba_marseille","lat":43.25049,"lon":5.40468,"is_reserved":false,"is_disabled":false,"rental_uris":{"android":"levelo://app?vid=1f45b2b1-d2e0-4187-926d-9979c716f8a5","ios":"levelo://app?vid=1f45b2b1-d2e0-4187-926d-9979c716f8a5"},"vehicle_type_id":"4","last_reported":1766761913,"current_range_meters":11600,"station_id":"st_d2ngiaodas8pm72gd1h0","pricing_plan_id":"cebpf4jnsgd1na2vs0mg"},{"bike_id":"e3d32b5a-ba62-4be2-9752-ef74e3c64ca7","system_id":"levelo_inurba_marseille","lat":43.28517,"lon":5.48361,"is_reserved":false,"is_disabled":false,"rental_uris":{"android":"levelo://app?vid=e3d32b5a-ba62-4be2-9752-ef74e3c64ca7","ios":"levelo://app?vid=e3d32b5a-ba62-4be2-9752-ef74e3c64ca7"},"vehicle_type_id":"4","last_reported":1766761913,"current_range_meters":11600,"station_id":"st_d3svhcjqgbts73a3dn0g","pricing_plan_id":"cebpf4jnsgd1na2vs0mg"},{"bike_id":"5bd98b9f-31dd-4bcd-8083-4901f3ead05e","system_id":"levelo_inurba_marseille","lat":43.29494,"lon":5.433081,"is_reserved":false,"is_disabled":false,"rental_uris":{"android":"levelo://app?vid=5bd98b9f-31dd-4bcd-8083-4901f3ead05e","ios":"levelo://app?vid=5bd98b9f-31dd-4bcd-8083-4901f3ead05e"},"vehicle_type_id":"4","last_reported":1766761913,"current_range_meters":12000,"station_id":"st_d3j5ugp08ojc73fj9d10","pricing_plan_id":"cebpf4jnsgd1na2vs0mg"},{"bike_id":"ea8d437e-b5b6-4e37-9ba0-67cc47271d85","system_id":"levelo_inurba_marseille","lat":43.29056,"lon":5.37169,"is_reserved":false,"is_disabled":false,"rental_uris":{"android":"levelo://app?vid=ea8d437e-b5b6-4e37-9ba0-67cc47271d85","ios":"levelo://app?vid=ea8d437e-b5b6-4e37-9ba0-67cc47271d85"},"vehicle_type_id":"4","last_reported":1766761913,"current_range_meters":12000,"station_id":"ce4bh5p2rcd13ifvqe4g","pricing_plan_id":"cebpf4jnsgd1na2vs0mg"},{"bike_id":"e486282f-d5dc-4012-b26a-d96e5d7ae0b7","system_id":"levelo_inurba_marseille","lat":43.32548,"lon":5.4145,"is_reserved":false,"is_disabled":false,"rental_uris":{"android":"levelo://app?vid=e486282f-d5dc-4012-b26a-d96e5d7ae0b7","ios":"levelo://app?vid=e486282f-d5dc-4012-b26a-d96e5d7ae0b7"},"vehicle_type_id":"4","last_reported":1766761913,"current_range_meters":12000,"station_id":"ce4bhq12rcd13ifvqhhg","pricing_plan_id":"cebpf4jnsgd1na2vs0mg"},{"bike_id":"467517c8-ed87-4e02-bef8-4ed63963538d","system_id":"levelo_inurba_marseille","lat":43.27184,"lon":5.40985,"is_reserved":false,"is_disabled":false,"rental_uris":{"android":"levelo://app?vid=467517c8-ed87-4e02-bef8-4ed63963538d","ios":"levelo://app?vid=467517c8-ed87-4e02-bef8-4ed63963538d"},"vehicle_type_id":"4","last_reported":1766761913,"current_range_meters":12000,"station_id":"ce4bhl12rcd13ifvqgf0","pricing_plan_id":"cebpf4jnsgd1na2vs0mg"},{"bike_id":"c4c0a12d-8010-4096-83ea-eb8e103cad23","system_id":"levelo_inurba_marseille","lat":43.27336,"lon":5.39075,"is_reserved":false,"is_disabled":false,"rental_uris":{"android":"levelo://app?vid=c4c0a12d-8010-4096-83ea-eb8e103cad23","ios":"levelo://app?vid=c4c0a12d-8010-4096-83ea-eb8e103cad23"},"vehicle_type_id":"4","last_reported":1766761913,"current_range_meters":12000,"station_id":"ce4bhgp2rcd13ifvqfe0","pricing_plan_id":"cebpf4jnsgd1na2vs0mg"},{"bike_id":"7f2c7147-704a-4c2a-8d1d-b9b95038a8ea","system_id":"levelo_inurba_marseille","lat":43.32116,"lon":5.36775,"is_reserved":false,"is_disabled":false,"rental_uris":{"android":"levelo://app?vid=7f2c7147-704a-4c2a-8d1d-b9b95038a8ea","ios":"levelo://app?vid=7f2c7147-704a-4c2a-8d1d-b9b95038a8ea"},"vehicle_type_id":"4","last_reported":1766761913,"current_range_meters":12000,"station_id":"ce4bhrh2rcd13ifvqhug","pricing_plan_id":"cebpf4jnsgd1na2vs0mg"},{"bike_id":"bdf61926-de40-4a9b-b98a-a989792c537a","system_id":"levelo_inurba_marseille","lat":43.28482,"lon":5.48403,"is_reserved":false,"is_disabled":false,"rental_uris":{"android":"levelo://app?vid=bdf61926-de40-4a9b-b98a-a989792c537a","ios":"levelo://app?vid=bdf61926-de40-4a9b-b98a-a989792c537a"},"vehicle_type_id":"4","last_reported":1766761913,"current_range_meters":12000,"station_id":"st_d3svhcjqgbts73a3dn0g","pricing_plan_id":"cebpf4jnsgd1na2vs0mg"},{"bike_id":"487c638e-4b34-412c-a7ab-c82b1eb209db","system_id":"levelo_inurba_marseille","lat":43.31701,"lon":5.39637,"is_reserved":false,"is_disabled":false,"rental_uris":{"android":"levelo://app?vid=487c638e-4b34-412c-a7ab-c82b1eb209db","ios":"levelo://app?vid=487c638e-4b34-412c-a7ab-c82b1eb209db"},"vehicle_type_id":"4","last_reported":1766761913,"current_range_meters":12000,"station_id":"","pricing_plan_id":"cebpf4jnsgd1na2vs0mg"},{"bike_id":"b98c4bb3-e84f-4703-8006-455cb12ed450","system_id":"levelo_inurba_marseille","lat":43.2883,"lon":5.42624,"is_reserved":false,"is_disabled":false,"rental_uris":{"android":"levelo://app?vid=b98c4bb3-e84f-4703-8006-455cb12ed450","ios":"levelo://app?vid=b98c4bb3-e84f-4703-8006-455cb12ed450"},"vehicle_type_id":"4","last_reported":1766761913,"current_range_meters":12000,"station_id":"","pricing_plan_id":"cebpf4jnsgd1na2vs0mg"},{"bike_id":"1f8985bb-771f-47f2-8a22-198eab5159d6","system_id":"levelo_inurba_marseille","lat":43.27309,"lon":5.39118,"is_reserved":false,"is_disabled":false,"rental_uris":{"android":"levelo://app?vid=1f8985bb-771f-47f2-8a22-198eab5159d6","ios":"levelo://app?vid=1f8985bb-771f-47f2-8a22-198eab5159d6"},"vehicle_type_id":"4","last_reported":1766761913,"current_range_meters":12000,"station_id":"ce4bhgp2rcd13ifvqfe0","pricing_plan_id":"cebpf4jnsgd1na2vs0mg"},{"bike_id":"d3d3222c-acc3-4047-b4eb-5050d8944582","system_id":"levelo_inurba_marseille","lat":43.29576,"lon":5.3752,"is_reserved":false,"is_disabled":false,"rental_uris":{"android":"levelo://app?vid=d3d3222c-acc3-4047-b4eb-5050d8944582","ios":"levelo://app?vid=d3d3222c-acc3-4047-b4eb-5050d8944582"},"vehicle_type_id":"4","last_reported":1766761913,"current_range_meters":12000,"station_id":"ce4bgh92rcd13ifvqb50","pricing_plan_id":"cebpf4jnsgd1na2vs0mg"},{"bike_id":"d98a1114-db86-4658-b8a7-ee10c0382806","system_id":"levelo_inurba_marseille","lat":43.265651,"lon":5.39005,"is_reserved":false,"is_disabled":false,"rental_uris":{"android":"levelo://app?vid=d98a1114-db86-4658-b8a7-ee10c0382806","ios":"levelo://app?vid=d98a1114-db86-4658-b8a7-ee10c0382806"},"vehicle_type_id":"4","last_reported":1766761913,"current_range_meters":12000,"station_id":"ce4bhe12rcd13ifvqf30","pricing_plan_id":"cebpf4jnsgd1na2vs0mg"},{"bike_id":"c025d64d-a0e6-447b-adf7-fc8bb4547a1c","system_id":"levelo_inurba_marseille","lat":43.29389,"lon":5.37613,"is_reserved":false,"is_disabled":false,"rental_uris":{"android":"levelo://app?vid=c025d64d-a0e6-447b-adf7-fc8bb4547a1c","ios":"levelo://app?vid=c025d64d-a0e6-447b-adf7-fc8bb4547a1c"},"vehicle_type_id":"4","last_reported":1766761913,"current_range_meters":12000,"station_id":"","pricing_plan_id":"cebpf4jnsgd1na2vs0mg"},{"bike_id":"5fa756bb-1bdb-4a8b-9603-1cfdc9e444ad","system_id":"levelo_inurba_marseille","lat":43.23188,"lon":5.39991,"is_reserved":false,"is_disabled":false,"rental_uris":{"android":"levelo://app?vid=5fa756bb-1bdb-4a8b-9603-1cfdc9e444ad","ios":"levelo://app?vid=5fa756bb-1bdb-4a8b-9603-1cfdc9e444ad"},"vehicle_type_id":"4","last_reported":1766761913,"current_range_meters":12000,"station_id":"ce4bhn12rcd13ifvqgqg","pricing_plan_id":"cebpf4jnsgd1na2vs0mg"},{"bike_id":"d031320b-e967-449d-99d4-420c8de16ac8","system_id":"levelo_inurba_marseille","lat":43.28945,"lon":5.39637,"is_reserved":false,"is_disabled":false,"rental_uris":{"android":"levelo://app?vid=d031320b-e967-449d-99d4-420c8de16ac8","ios":"levelo://app?vid=d031320b-e967-449d-99d4-420c8de16ac8"},"vehicle_type_id":"4","last_reported":1766761913,"current_range_meters":12400,"station_id":"ce4bh3h2rcd13ifvqdn0","pricing_plan_id":"cebpf4jnsgd1na2vs0mg"},{"bike_id":"0e064ea3-f861-4034-89c2-506f4bcaf660","system_id":"levelo_inurba_marseille","lat":43.297988,"lon":5.380928,"is_reserved":false,"is_disabled":false,"rental_uris":{"android":"levelo://app?vid=0e064ea3-f861-4034-89c2-506f4bcaf660","ios":"levelo://app?vid=0e064ea3-f861-4034-89c2-506f4bcaf660"},"vehicle_type_id":"4","last_reported":1766761913,"current_range_meters":12400,"station_id":"ce4bgip2rcd13ifvqbb0","pricing_plan_id":"cebpf4jnsgd1na2vs0mg"},{"bike_id":"9ab94bd4-911e-4ae8-a279-365da064d715","system_id":"levelo_inurba_marseille","lat":43.276152,"lon":5.361008,"is_reserved":false,"is_disabled":false,"rental_uris":{"android":"levelo://app?vid=9ab94bd4-911e-4ae8-a279-365da064d715","ios":"levelo://app?vid=9ab94bd4-911e-4ae8-a279-365da064d715"},"vehicle_type_id":"4","last_reported":1766761913,"current_range_meters":12400,"station_id":"ce4bgj92rcd13ifvqbe0","pricing_plan_id":"cebpf4jnsgd1na2vs0mg"},{"bike_id":"b0a8d43d-7f70-479d-bf79-42c0d0b373ac","system_id":"levelo_inurba_marseille","lat":43.29745,"lon":5.42777,"is_reserved":false,"is_disabled":false,"rental_uris":{"android":"levelo://app?vid=b0a8d43d-7f70-479d-bf79-42c0d0b373ac","ios":"levelo://app?vid=b0a8d43d-7f70-479d-bf79-42c0d0b373ac"},"vehicle_type_id":"4","last_reported":1766761913,"current_range_meters":12400,"station_id":"st_d3md5207bmas73dh9klg","pricing_plan_id":"cebpf4jnsgd1na2vs0mg"},{"bike_id":"57e3d9ce-46d5-4f07-9918-84c3ea21a43f","system_id":"levelo_inurba_marseille","lat":43.33336,"lon":5.411105,"is_reserved":false,"is_disabled":false,"rental_uris":{"android":"levelo://app?vid=57e3d9ce-46d5-4f07-9918-84c3ea21a43f","ios":"levelo://app?vid=57e3d9ce-46d5-4f07-9918-84c3ea21a43f"},"vehicle_type_id":"4","last_reported":1766761913,"current_range_meters":12400,"station_id":"","pricing_plan_id":"cebpf4jnsgd1na2vs0mg"},{"bike_id":"a7b0ffca-bd19-4593-b42d-f026e5905164","system_id":"levelo_inurba_marseille","lat":43.29299,"lon":5.36947,"is_reserved":false,"is_disabled":false,"rental_uris":{"android":"levelo://app?vid=a7b0ffca-bd19-4593-b42d-f026e5905164","ios":"levelo://app?vid=a7b0ffca-bd19-4593-b42d-f026e5905164"},"vehicle_type_id":"4","last_reported":1766761913,"current_range_meters":12400,"station_id":"","pricing_plan_id":"cebpf4jnsgd1na2vs0mg"},{"bike_id":"126dbf78-233a-47bf-9b76-95c26921003b","system_id":"levelo_inurba_marseille","lat":43.28485,"lon":5.48388,"is_reserved":false,"is_disabled":false,"rental_uris":{"android":"levelo://app?vid=126dbf78-233a-47bf-9b76-95c26921003b","ios":"levelo://app?vid=126dbf78-233a-47bf-9b76-95c26921003b"},"vehicle_type_id":"4","last_reported":1766761913,"current_range_meters":12400,"station_id":"st_d3svhcjqgbts73a3dn0g","pricing_plan_id":"cebpf4jnsgd1na2vs0mg"},{"bike_id":"1c86e37a-8481-4da4-bf05-647d86eb8b04","system_id":"levelo_inurba_marseille","lat":43.309103,"lon":5.416336,"is_reserved":false,"is_disabled":false,"rental_uris":{"android":"levelo://app?vid=1c86e37a-8481-4da4-bf05-647d86eb8b04","ios":"levelo://app?vid=1c86e37a-8481-4da4-bf05-647d86eb8b04"},"vehicle_type_id":"4","last_reported":1766761913,"current_range_meters":12400,"station_id":"","pricing_plan_id":"cebpf4jnsgd1na2vs0mg"},{"bike_id":"c6c751ca-f0d9-4d7d-924c-b26f574b394e","system_id":"levelo_inurba_marseille","lat":43.267478,"lon":5.384578,"is_reserved":false,"is_disabled":false,"rental_uris":{"android":"levelo://app?vid=c6c751ca-f0d9-4d7d-924c-b26f574b394e","ios":"levelo://app?vid=c6c751ca-f0d9-4d7d-924c-b26f574b394e"},"vehicle_type_id":"4","last_reported":1766761913,"current_range_meters":12400,"station_id":"","pricing_plan_id":"cebpf4jnsgd1na2vs0mg"},{"bike_id":"30b4de5e-52da-4654-9315-d4149e8dde1e","system_id":"levelo_inurba_marseille","lat":43.262135,"lon":5.379196,"is_reserved":false,"is_disabled":false,"rental_uris":{"android":"levelo://app?vid=30b4de5e-52da-4654-9315-d4149e8dde1e","ios":"levelo://app?vid=30b4de5e-52da-4654-9315-d4149e8dde1e"},"vehicle_type_id":"4","last_reported":1766761913,"current_range_meters":12800,"station_id":"ce4bhjp2rcd13ifvqg90","pricing_plan_id":"cebpf4jnsgd1na2vs0mg"},{"bike_id":"1f2b55f6-a8e6-45b9-aa40-fe19fa08bde1","system_id":"levelo_inurba_marseille","lat":43.321038,"lon":5.367842,"is_reserved":false,"is_disabled":false,"rental_uris":{"android":"levelo://app?vid=1f2b55f6-a8e6-45b9-aa40-fe19fa08bde1","ios":"levelo://app?vid=1f2b55f6-a8e6-45b9-aa40-fe19fa08bde1"},"vehicle_type_id":"4","last_reported":1766761913,"current_range_meters":12800,"station_id":"ce4bhrh2rcd13ifvqhug","pricing_plan_id":"cebpf4jnsgd1na2vs0mg"},{"bike_id":"d6cdbaa0-f785-4d1c-9fa9-70d9132ef66a","system_id":"levelo_inurba_marseille","lat":43.26409,"lon":5.41077,"is_reserved":false,"is_disabled":false,"rental_uris":{"android":"levelo://app?vid=d6cdbaa0-f785-4d1c-9fa9-70d9132ef66a","ios":"levelo://app?vid=d6cdbaa0-f785-4d1c-9fa9-70d9132ef66a"},"vehicle_type_id":"4","last_reported":1766761913,"current_range_meters":12800,"station_id":"st_d4e5ca6na9uc73bfl5fg","pricing_plan_id":"cebpf4jnsgd1na2vs0mg"},{"bike_id":"bfbac5d5-ee1d-4485-851b-815726cd1e57","system_id":"levelo_inurba_marseille","lat":43.32046,"lon":5.41512,"is_reserved":false,"is_disabled":false,"rental_uris":{"android":"levelo://app?vid=bfbac5d5-ee1d-4485-851b-815726cd1e57","ios":"levelo://app?vid=bfbac5d5-ee1d-4485-851b-815726cd1e57"},"vehicle_type_id":"4","last_reported":1766761913,"current_range_meters":12800,"station_id":"ce4bhq92rcd13ifvqhkg","pricing_plan_id":"cebpf4jnsgd1na2vs0mg"},{"bike_id":"66de7b9e-1a4f-4d86-98ae-eb4a418a2023","system_id":"levelo_inurba_marseille","lat":43.29891,"lon":5.37468,"is_reserved":false,"is_disabled":false,"rental_uris":{"android":"levelo://app?vid=66de7b9e-1a4f-4d86-98ae-eb4a418a2023","ios":"levelo://app?vid=66de7b9e-1a4f-4d86-98ae-eb4a418a2023"},"vehicle_type_id":"4","last_reported":1766761913,"current_range_meters":12800,"station_id":"ce4bgjh2rcd13ifvqbg0","pricing_plan_id":"cebpf4jnsgd1na2vs0mg"},{"bike_id":"f76e4b8e-f0c6-4bb3-96c0-79fd4af4848f","system_id":"levelo_inurba_marseille","lat":43.28686,"lon":5.37927,"is_reserved":false,"is_disabled":false,"rental_uris":{"android":"levelo://app?vid=f76e4b8e-f0c6-4bb3-96c0-79fd4af4848f","ios":"levelo://app?vid=f76e4b8e-f0c6-4bb3-96c0-79fd4af4848f"},"vehicle_type_id":"4","last_reported":1766761913,"current_range_meters":12800,"station_id":"ce4bh9p2rcd13ifvqec0","pricing_plan_id":"cebpf4jnsgd1na2vs0mg"},{"bike_id":"0d4effb5-b7b9-4b22-b0ef-fcc99085e415","system_id":"levelo_inurba_marseille","lat":43.29494,"lon":5.43315,"is_reserved":false,"is_disabled":false,"rental_uris":{"android":"levelo://app?vid=0d4effb5-b7b9-4b22-b0ef-fcc99085e415","ios":"levelo://app?vid=0d4effb5-b7b9-4b22-b0ef-fcc99085e415"},"vehicle_type_id":"4","last_reported":1766761913,"current_range_meters":12800,"station_id":"st_d3j5ugp08ojc73fj9d10","pricing_plan_id":"cebpf4jnsgd1na2vs0mg"},{"bike_id":"d8495e01-0798-43ca-b8bf-f8bb6f993c97","system_id":"levelo_inurba_marseille","lat":43.27371,"lon":5.36255,"is_reserved":false,"is_disabled":false,"rental_uris":{"android":"levelo://app?vid=d8495e01-0798-43ca-b8bf-f8bb6f993c97","ios":"levelo://app?vid=d8495e01-0798-43ca-b8bf-f8bb6f993c97"},"vehicle_type_id":"4","last_reported":1766761913,"current_range_meters":12800,"station_id":"ce4bhbh2rcd13ifvqeo0","pricing_plan_id":"cebpf4jnsgd1na2vs0mg"},{"bike_id":"3df8ba78-e51b-416d-9253-03d76dfb9415","system_id":"levelo_inurba_marseille","lat":43.29756,"lon":5.42792,"is_reserved":false,"is_disabled":false,"rental_uris":{"android":"levelo://app?vid=3df8ba78-e51b-416d-9253-03d76dfb9415","ios":"levelo://app?vid=3df8ba78-e51b-416d-9253-03d76dfb9415"},"vehicle_type_id":"4","last_reported":1766761913,"current_range_meters":12800,"station_id":"st_d3md5207bmas73dh9klg","pricing_plan_id":"cebpf4jnsgd1na2vs0mg"},{"bike_id":"233708d5-17f0-42e7-9992-08485ebfc13d","system_id":"levelo_inurba_marseille","lat":43.30301,"lon":5.3921,"is_reserved":false,"is_disabled":false,"rental_uris":{"android":"levelo://app?vid=233708d5-17f0-42e7-9992-08485ebfc13d","ios":"levelo://app?vid=233708d5-17f0-42e7-9992-08485ebfc13d"},"vehicle_type_id":"4","last_reported":1766761913,"current_range_meters":12800,"station_id":"ce4bgkh2rcd13ifvqbk0","pricing_plan_id":"cebpf4jnsgd1na2vs0mg"},{"bike_id":"c9346feb-2020-4380-a5a9-7be746a8f756","system_id":"levelo_inurba_marseille","lat":43.29679,"lon":5.37287,"is_reserved":false,"is_disabled":false,"rental_uris":{"android":"levelo://app?vid=c9346feb-2020-4380-a5a9-7be746a8f756","ios":"levelo://app?vid=c9346feb-2020-4380-a5a9-7be746a8f756"},"vehicle_type_id":"4","last_reported":1766761913,"current_range_meters":13600,"station_id":"ce4bgk12rcd13ifvqbj0","pricing_plan_id":"cebpf4jnsgd1na2vs0mg"},{"bike_id":"038f5aa1-10f7-4526-9f10-d41344e16fd3","system_id":"levelo_inurba_marseille","lat":43.279845,"lon":5.416629,"is_reserved":false,"is_disabled":false,"rental_uris":{"android":"levelo://app?vid=038f5aa1-10f7-4526-9f10-d41344e16fd3","ios":"levelo://app?vid=038f5aa1-10f7-4526-9f10-d41344e16fd3"},"vehicle_type_id":"4","last_reported":1766761913,"current_range_meters":13600,"station_id":"ce4bho12rcd13ifvqh1g","pricing_plan_id":"cebpf4jnsgd1na2vs0mg"},{"bike_id":"53b0c323-1f2c-4890-898b-18ae97706c5b","system_id":"levelo_inurba_marseille","lat":43.29487,"lon":5.37513,"is_reserved":false,"is_disabled":true,"rental_uris":{"android":"levelo://app?vid=53b0c323-1f2c-4890-898b-18ae97706c5b","ios":"levelo://app?vid=53b0c323-1f2c-4890-898b-18ae97706c5b"},"vehicle_type_id":"4","last_reported":1766761913,"current_range_meters":13600,"station_id":"","pricing_plan_id":"cebpf4jnsgd1na2vs0mg"},{"bike_id":"92d80675-044b-48fa-9aa3-77b4da84f73c","system_id":"levelo_inurba_marseille","lat":43.29208,"lon":5.40406,"is_reserved":false,"is_disabled":false,"rental_uris":{"android":"levelo://app?vid=92d80675-044b-48fa-9aa3-77b4da84f73c","ios":"levelo://app?vid=92d80675-044b-48fa-9aa3-77b4da84f73c"},"vehicle_type_id":"4","last_reported":1766761913,"current_range_meters":13600,"station_id":"","pricing_plan_id":"cebpf4jnsgd1na2vs0mg"},{"bike_id":"9a28fd2f-33dc-47c9-84f8-2e8b1adbfeca","system_id":"levelo_inurba_marseille","lat":43.29759,"lon":5.42793,"is_reserved":false,"is_disabled":false,"rental_uris":{"android":"levelo://app?vid=9a28fd2f-33dc-47c9-84f8-2e8b1adbfeca","ios":"levelo://app?vid=9a28fd2f-33dc-47c9-84f8-2e8b1adbfeca"},"vehicle_type_id":"4","last_reported":1766761913,"current_range_meters":13600,"station_id":"st_d3md5207bmas73dh9klg","pricing_plan_id":"cebpf4jnsgd1na2vs0mg"},{"bike_id":"645729d9-d8d0-4c53-ab8e-ac1cf2890b1b","system_id":"levelo_inurba_marseille","lat":43.26209,"lon":5.37449,"is_reserved":false,"is_disabled":false,"rental_uris":{"android":"levelo://app?vid=645729d9-d8d0-4c53-ab8e-ac1cf2890b1b","ios":"levelo://app?vid=645729d9-d8d0-4c53-ab8e-ac1cf2890b1b"},"vehicle_type_id":"4","last_reported":1766761913,"current_range_meters":13600,"station_id":"ce4bhgp2rcd13ifvqfc0","pricing_plan_id":"cebpf4jnsgd1na2vs0mg"},{"bike_id":"1b152ae5-9ff7-4d57-b381-b6d23a851225","system_id":"levelo_inurba_marseille","lat":43.33545,"lon":5.37456,"is_reserved":false,"is_disabled":false,"rental_uris":{"android":"levelo://app?vid=1b152ae5-9ff7-4d57-b381-b6d23a851225","ios":"levelo://app?vid=1b152ae5-9ff7-4d57-b381-b6d23a851225"},"vehicle_type_id":"4","last_reported":1766761913,"current_range_meters":13600,"station_id":"st_d46tts09ee8s73dlu43g","pricing_plan_id":"cebpf4jnsgd1na2vs0mg"},{"bike_id":"6235fc96-9baf-4585-9358-5f963fefeef2","system_id":"levelo_inurba_marseille","lat":43.30603,"lon":5.39359,"is_reserved":false,"is_disabled":false,"rental_uris":{"android":"levelo://app?vid=6235fc96-9baf-4585-9358-5f963fefeef2","ios":"levelo://app?vid=6235fc96-9baf-4585-9358-5f963fefeef2"},"vehicle_type_id":"4","last_reported":1766761913,"current_range_meters":13600,"station_id":"","pricing_plan_id":"cebpf4jnsgd1na2vs0mg"},{"bike_id":"d67904e3-d432-4bb6-9c59-13ac7cead46a","system_id":"levelo_inurba_marseille","lat":43.323568,"lon":5.367247,"is_reserved":false,"is_disabled":false,"rental_uris":{"android":"levelo://app?vid=d67904e3-d432-4bb6-9c59-13ac7cead46a","ios":"levelo://app?vid=d67904e3-d432-4bb6-9c59-13ac7cead46a"},"vehicle_type_id":"4","last_reported":1766761913,"current_range_meters":13600,"station_id":"ce4bhsh2rcd13ifvqi2g","pricing_plan_id":"cebpf4jnsgd1na2vs0mg"},{"bike_id":"65591961-92f4-4f5f-b0bf-bf37af87d297","system_id":"levelo_inurba_marseille","lat":43.325,"lon":5.38251,"is_reserved":false,"is_disabled":false,"rental_uris":{"android":"levelo://app?vid=65591961-92f4-4f5f-b0bf-bf37af87d297","ios":"levelo://app?vid=65591961-92f4-4f5f-b0bf-bf37af87d297"},"vehicle_type_id":"4","last_reported":1766761913,"current_range_meters":13600,"station_id":"st_d4asgbiv49dc73anf9m0","pricing_plan_id":"cebpf4jnsgd1na2vs0mg"},{"bike_id":"9e1cb312-28c0-4fd0-8afc-7945c66fa276","system_id":"levelo_inurba_marseille","lat":43.33165,"lon":5.37686,"is_reserved":false,"is_disabled":false,"rental_uris":{"android":"levelo://app?vid=9e1cb312-28c0-4fd0-8afc-7945c66fa276","ios":"levelo://app?vid=9e1cb312-28c0-4fd0-8afc-7945c66fa276"},"vehicle_type_id":"4","last_reported":1766761913,"current_range_meters":13600,"station_id":"st_d46cu089ee8s73dldbu0","pricing_plan_id":"cebpf4jnsgd1na2vs0mg"},{"bike_id":"bc568f99-2d83-4e5a-8b80-4c8ab7d8ad1f","system_id":"levelo_inurba_marseille","lat":43.2416,"lon":5.37646,"is_reserved":false,"is_disabled":false,"rental_uris":{"android":"levelo://app?vid=bc568f99-2d83-4e5a-8b80-4c8ab7d8ad1f","ios":"levelo://app?vid=bc568f99-2d83-4e5a-8b80-4c8ab7d8ad1f"},"vehicle_type_id":"4","last_reported":1766761913,"current_range_meters":13600,"station_id":"","pricing_plan_id":"cebpf4jnsgd1na2vs0mg"},{"bike_id":"435155fa-aef2-4471-aacc-11e7a16fcebe","system_id":"levelo_inurba_marseille","lat":43.26501,"lon":5.39534,"is_reserved":false,"is_disabled":false,"rental_uris":{"android":"levelo://app?vid=435155fa-aef2-4471-aacc-11e7a16fcebe","ios":"levelo://app?vid=435155fa-aef2-4471-aacc-11e7a16fcebe"},"vehicle_type_id":"4","last_reported":1766761913,"current_range_meters":13600,"station_id":"ce4bhi12rcd13ifvqfq0","pricing_plan_id":"cebpf4jnsgd1na2vs0mg"},{"bike_id":"d3bb99a6-6aec-4f71-b300-0b4a2d086db4","system_id":"levelo_inurba_marseille","lat":43.27331,"lon":5.39074,"is_reserved":false,"is_disabled":false,"rental_uris":{"android":"levelo://app?vid=d3bb99a6-6aec-4f71-b300-0b4a2d086db4","ios":"levelo://app?vid=d3bb99a6-6aec-4f71-b300-0b4a2d086db4"},"vehicle_type_id":"4","last_reported":1766761913,"current_range_meters":13600,"station_id":"ce4bhgp2rcd13ifvqfe0","pricing_plan_id":"cebpf4jnsgd1na2vs0mg"},{"bike_id":"859e49a6-fc42-445b-b1db-54603ecb439d","system_id":"levelo_inurba_marseille","lat":43.303193,"lon":5.368967,"is_reserved":false,"is_disabled":false,"rental_uris":{"android":"levelo://app?vid=859e49a6-fc42-445b-b1db-54603ecb439d","ios":"levelo://app?vid=859e49a6-fc42-445b-b1db-54603ecb439d"},"vehicle_type_id":"4","last_reported":1766761913,"current_range_meters":14000,"station_id":"ce4bgqh2rcd13ifvqc5g","pricing_plan_id":"cebpf4jnsgd1na2vs0mg"},{"bike_id":"c20e3468-7ee0-441d-a8fd-cedaa65a5b80","system_id":"levelo_inurba_marseille","lat":43.28294,"lon":5.35082,"is_reserved":false,"is_disabled":false,"rental_uris":{"android":"levelo://app?vid=c20e3468-7ee0-441d-a8fd-cedaa65a5b80","ios":"levelo://app?vid=c20e3468-7ee0-441d-a8fd-cedaa65a5b80"},"vehicle_type_id":"4","last_reported":1766761913,"current_range_meters":14000,"station_id":"ce4bhbp2rcd13ifvqerg","pricing_plan_id":"cebpf4jnsgd1na2vs0mg"},{"bike_id":"194f73ad-0b5e-4455-9f8a-be6c7348a771","system_id":"levelo_inurba_marseille","lat":43.331542,"lon":5.376895,"is_reserved":false,"is_disabled":false,"rental_uris":{"android":"levelo://app?vid=194f73ad-0b5e-4455-9f8a-be6c7348a771","ios":"levelo://app?vid=194f73ad-0b5e-4455-9f8a-be6c7348a771"},"vehicle_type_id":"4","last_reported":1766761913,"current_range_meters":14000,"station_id":"st_d46cu089ee8s73dldbu0","pricing_plan_id":"cebpf4jnsgd1na2vs0mg"},{"bike_id":"24fa35f4-c95a-4394-b8e7-d3191ddc30ff","system_id":"levelo_inurba_marseille","lat":43.29735,"lon":5.37702,"is_reserved":false,"is_disabled":false,"rental_uris":{"android":"levelo://app?vid=24fa35f4-c95a-4394-b8e7-d3191ddc30ff","ios":"levelo://app?vid=24fa35f4-c95a-4394-b8e7-d3191ddc30ff"},"vehicle_type_id":"4","last_reported":1766761913,"current_range_meters":14000,"station_id":"ce4bgkh2rcd13ifvqbl0","pricing_plan_id":"cebpf4jnsgd1na2vs0mg"},{"bike_id":"5f28fd39-60b7-400e-8355-9be34e6c13d0","system_id":"levelo_inurba_marseille","lat":43.30558,"lon":5.36537,"is_reserved":false,"is_disabled":false,"rental_uris":{"android":"levelo://app?vid=5f28fd39-60b7-400e-8355-9be34e6c13d0","ios":"levelo://app?vid=5f28fd39-60b7-400e-8355-9be34e6c13d0"},"vehicle_type_id":"4","last_reported":1766761913,"current_range_meters":14000,"station_id":"ce4bgs12rcd13ifvqcag","pricing_plan_id":"cebpf4jnsgd1na2vs0mg"},{"bike_id":"e06e16f6-596f-4677-9ce6-0164b6eff11e","system_id":"levelo_inurba_marseille","lat":43.29272,"lon":5.37699,"is_reserved":false,"is_disabled":false,"rental_uris":{"android":"levelo://app?vid=e06e16f6-596f-4677-9ce6-0164b6eff11e","ios":"levelo://app?vid=e06e16f6-596f-4677-9ce6-0164b6eff11e"},"vehicle_type_id":"4","last_reported":1766761913,"current_range_meters":14000,"station_id":"ce4bgi12rcd13ifvqb80","pricing_plan_id":"cebpf4jnsgd1na2vs0mg"},{"bike_id":"0c95dd9f-c660-4b76-b09f-1fe6a5fcdd5e","system_id":"levelo_inurba_marseille","lat":43.32347,"lon":5.36727,"is_reserved":false,"is_disabled":false,"rental_uris":{"android":"levelo://app?vid=0c95dd9f-c660-4b76-b09f-1fe6a5fcdd5e","ios":"levelo://app?vid=0c95dd9f-c660-4b76-b09f-1fe6a5fcdd5e"},"vehicle_type_id":"4","last_reported":1766761913,"current_range_meters":14000,"station_id":"ce4bhsh2rcd13ifvqi2g","pricing_plan_id":"cebpf4jnsgd1na2vs0mg"},{"bike_id":"0125cf6e-1378-412b-a7dd-03753ddd54e6","system_id":"levelo_inurba_marseille","lat":43.299341,"lon":5.365533,"is_reserved":false,"is_disabled":false,"rental_uris":{"android":"levelo://app?vid=0125cf6e-1378-412b-a7dd-03753ddd54e6","ios":"levelo://app?vid=0125cf6e-1378-412b-a7dd-03753ddd54e6"},"vehicle_type_id":"4","last_reported":1766761913,"current_range_meters":14000,"station_id":"ce4bgm92rcd13ifvqbr0","pricing_plan_id":"cebpf4jnsgd1na2vs0mg"},{"bike_id":"5b0e730c-da97-4939-8816-81125587fcb1","system_id":"levelo_inurba_marseille","lat":43.231804,"lon":5.355679,"is_reserved":false,"is_disabled":false,"rental_uris":{"android":"levelo://app?vid=5b0e730c-da97-4939-8816-81125587fcb1","ios":"levelo://app?vid=5b0e730c-da97-4939-8816-81125587fcb1"},"vehicle_type_id":"4","last_reported":1766761913,"current_range_meters":14000,"station_id":"ce4bhu92rcd13ifvqi70","pricing_plan_id":"cebpf4jnsgd1na2vs0mg"},{"bike_id":"a5478b0c-1f7b-4d18-89db-a0aad831a058","system_id":"levelo_inurba_marseille","lat":43.30282,"lon":5.36904,"is_reserved":false,"is_disabled":false,"rental_uris":{"android":"levelo://app?vid=a5478b0c-1f7b-4d18-89db-a0aad831a058","ios":"levelo://app?vid=a5478b0c-1f7b-4d18-89db-a0aad831a058"},"vehicle_type_id":"4","last_reported":1766761913,"current_range_meters":14000,"station_id":"ce4bgqh2rcd13ifvqc5g","pricing_plan_id":"cebpf4jnsgd1na2vs0mg"},{"bike_id":"ffd01dbf-4e75-4a7f-a0ee-4191a3cc86de","system_id":"levelo_inurba_marseille","lat":43.29207,"lon":5.36932,"is_reserved":false,"is_disabled":false,"rental_uris":{"android":"levelo://app?vid=ffd01dbf-4e75-4a7f-a0ee-4191a3cc86de","ios":"levelo://app?vid=ffd01dbf-4e75-4a7f-a0ee-4191a3cc86de"},"vehicle_type_id":"4","last_reported":1766761913,"current_range_meters":14000,"station_id":"","pricing_plan_id":"cebpf4jnsgd1na2vs0mg"},{"bike_id":"596f9f2e-754a-4bff-95d7-fb2758b09a2e","system_id":"levelo_inurba_marseille","lat":43.3242,"lon":5.36728,"is_reserved":false,"is_disabled":false,"rental_uris":{"android":"levelo://app?vid=596f9f2e-754a-4bff-95d7-fb2758b09a2e","ios":"levelo://app?vid=596f9f2e-754a-4bff-95d7-fb2758b09a2e"},"vehicle_type_id":"4","last_reported":1766761913,"current_range_meters":14000,"station_id":"","pricing_plan_id":"cebpf4jnsgd1na2vs0mg"},{"bike_id":"649334de-4c95-4658-8e7d-e81851856940","system_id":"levelo_inurba_marseille","lat":43.27482,"lon":5.42453,"is_reserved":false,"is_disabled":false,"rental_uris":{"android":"levelo://app?vid=649334de-4c95-4658-8e7d-e81851856940","ios":"levelo://app?vid=649334de-4c95-4658-8e7d-e81851856940"},"vehicle_type_id":"4","last_reported":1766761913,"current_range_meters":14000,"station_id":"ce4bhn92rcd13ifvqgrg","pricing_plan_id":"cebpf4jnsgd1na2vs0mg"},{"bike_id":"81dadd72-9b97-4889-95d7-c595a7fc5908","system_id":"levelo_inurba_marseille","lat":43.299133,"lon":5.381557,"is_reserved":false,"is_disabled":false,"rental_uris":{"android":"levelo://app?vid=81dadd72-9b97-4889-95d7-c595a7fc5908","ios":"levelo://app?vid=81dadd72-9b97-4889-95d7-c595a7fc5908"},"vehicle_type_id":"4","last_reported":1766761913,"current_range_meters":14000,"station_id":"ce4bgj12rcd13ifvqbc0","pricing_plan_id":"cebpf4jnsgd1na2vs0mg"},{"bike_id":"e2b557d8-4bf3-4274-9cd1-1e965e3faec4","system_id":"levelo_inurba_marseille","lat":43.31366,"lon":5.36743,"is_reserved":false,"is_disabled":false,"rental_uris":{"android":"levelo://app?vid=e2b557d8-4bf3-4274-9cd1-1e965e3faec4","ios":"levelo://app?vid=e2b557d8-4bf3-4274-9cd1-1e965e3faec4"},"vehicle_type_id":"4","last_reported":1766761913,"current_range_meters":14000,"station_id":"ce4bgr92rcd13ifvqc6g","pricing_plan_id":"cebpf4jnsgd1na2vs0mg"},{"bike_id":"bac2109d-15df-4d0e-bae2-d33bd1ac452e","system_id":"levelo_inurba_marseille","lat":43.299845,"lon":5.371892,"is_reserved":false,"is_disabled":false,"rental_uris":{"android":"levelo://app?vid=bac2109d-15df-4d0e-bae2-d33bd1ac452e","ios":"levelo://app?vid=bac2109d-15df-4d0e-bae2-d33bd1ac452e"},"vehicle_type_id":"4","last_reported":1766761913,"current_range_meters":14400,"station_id":"ce4bgr92rcd13ifvqc7g","pricing_plan_id":"cebpf4jnsgd1na2vs0mg"},{"bike_id":"8526cb13-c70f-4134-9aed-80c4c9d31e4e","system_id":"levelo_inurba_marseille","lat":43.27904,"lon":5.39197,"is_reserved":false,"is_disabled":false,"rental_uris":{"android":"levelo://app?vid=8526cb13-c70f-4134-9aed-80c4c9d31e4e","ios":"levelo://app?vid=8526cb13-c70f-4134-9aed-80c4c9d31e4e"},"vehicle_type_id":"4","last_reported":1766761913,"current_range_meters":14400,"station_id":"","pricing_plan_id":"cebpf4jnsgd1na2vs0mg"},{"bike_id":"1a55c384-9096-406d-a620-f57a12674f4c","system_id":"levelo_inurba_marseille","lat":43.24987,"lon":5.38925,"is_reserved":false,"is_disabled":false,"rental_uris":{"android":"levelo://app?vid=1a55c384-9096-406d-a620-f57a12674f4c","ios":"levelo://app?vid=1a55c384-9096-406d-a620-f57a12674f4c"},"vehicle_type_id":"4","last_reported":1766761913,"current_range_meters":14400,"station_id":"ce4bhgp2rcd13ifvqfd0","pricing_plan_id":"cebpf4jnsgd1na2vs0mg"},{"bike_id":"31e66d60-a566-49ea-84de-75787b444119","system_id":"levelo_inurba_marseille","lat":43.31297,"lon":5.40164,"is_reserved":false,"is_disabled":false,"rental_uris":{"android":"levelo://app?vid=31e66d60-a566-49ea-84de-75787b444119","ios":"levelo://app?vid=31e66d60-a566-49ea-84de-75787b444119"},"vehicle_type_id":"4","last_reported":1766761913,"current_range_meters":14400,"station_id":"ce4bh092rcd13ifvqd30","pricing_plan_id":"cebpf4jnsgd1na2vs0mg"},{"bike_id":"d4baa944-a92f-4d31-90da-8416303191f4","system_id":"levelo_inurba_marseille","lat":43.32099,"lon":5.368,"is_reserved":false,"is_disabled":false,"rental_uris":{"android":"levelo://app?vid=d4baa944-a92f-4d31-90da-8416303191f4","ios":"levelo://app?vid=d4baa944-a92f-4d31-90da-8416303191f4"},"vehicle_type_id":"4","last_reported":1766761913,"current_range_meters":14400,"station_id":"ce4bhrh2rcd13ifvqhug","pricing_plan_id":"cebpf4jnsgd1na2vs0mg"},{"bike_id":"9ae2a8cd-4b9d-4a82-9ee3-dac503ee0b2e","system_id":"levelo_inurba_marseille","lat":43.300854,"lon":5.376791,"is_reserved":false,"is_disabled":false,"rental_uris":{"android":"levelo://app?vid=9ae2a8cd-4b9d-4a82-9ee3-dac503ee0b2e","ios":"levelo://app?vid=9ae2a8cd-4b9d-4a82-9ee3-dac503ee0b2e"},"vehicle_type_id":"4","last_reported":1766761913,"current_range_meters":14400,"station_id":"","pricing_plan_id":"cebpf4jnsgd1na2vs0mg"},{"bike_id":"0dea2e8a-6059-4d97-ad92-35ab7ce0b843","system_id":"levelo_inurba_marseille","lat":43.29616,"lon":5.37724,"is_reserved":false,"is_disabled":false,"rental_uris":{"android":"levelo://app?vid=0dea2e8a-6059-4d97-ad92-35ab7ce0b843","ios":"levelo://app?vid=0dea2e8a-6059-4d97-ad92-35ab7ce0b843"},"vehicle_type_id":"4","last_reported":1766761913,"current_range_meters":14400,"station_id":"ce4bgi92rcd13ifvqb90","pricing_plan_id":"cebpf4jnsgd1na2vs0mg"},{"bike_id":"dac24c5c-9a42-4fdf-bf17-c0729a4a9a2a","system_id":"levelo_inurba_marseille","lat":43.32511,"lon":5.41219,"is_reserved":false,"is_disabled":false,"rental_uris":{"android":"levelo://app?vid=dac24c5c-9a42-4fdf-bf17-c0729a4a9a2a","ios":"levelo://app?vid=dac24c5c-9a42-4fdf-bf17-c0729a4a9a2a"},"vehicle_type_id":"4","last_reported":1766761913,"current_range_meters":14400,"station_id":"","pricing_plan_id":"cebpf4jnsgd1na2vs0mg"},{"bike_id":"7daf8e03-7bb6-460c-9e70-e8717364d09b","system_id":"levelo_inurba_marseille","lat":43.33554,"lon":5.3753,"is_reserved":false,"is_disabled":false,"rental_uris":{"android":"levelo://app?vid=7daf8e03-7bb6-460c-9e70-e8717364d09b","ios":"levelo://app?vid=7daf8e03-7bb6-460c-9e70-e8717364d09b"},"vehicle_type_id":"4","last_reported":1766761913,"current_range_meters":14400,"station_id":"","pricing_plan_id":"cebpf4jnsgd1na2vs0mg"},{"bike_id":"339a0c71-2a9a-4cfb-a54e-2a5557b4296a","system_id":"levelo_inurba_marseille","lat":43.24169,"lon":5.36399,"is_reserved":false,"is_disabled":false,"rental_uris":{"android":"levelo://app?vid=339a0c71-2a9a-4cfb-a54e-2a5557b4296a","ios":"levelo://app?vid=339a0c71-2a9a-4cfb-a54e-2a5557b4296a"},"vehicle_type_id":"4","last_reported":1766761913,"current_range_meters":14400,"station_id":"cpo36qri1sfpv3e86is0","pricing_plan_id":"cebpf4jnsgd1na2vs0mg"},{"bike_id":"8c38ad49-3dc9-4df2-ad55-281c65b01b8d","system_id":"levelo_inurba_marseille","lat":43.33157,"lon":5.37684,"is_reserved":false,"is_disabled":false,"rental_uris":{"android":"levelo://app?vid=8c38ad49-3dc9-4df2-ad55-281c65b01b8d","ios":"levelo://app?vid=8c38ad49-3dc9-4df2-ad55-281c65b01b8d"},"vehicle_type_id":"4","last_reported":1766761913,"current_range_meters":14400,"station_id":"st_d46cu089ee8s73dldbu0","pricing_plan_id":"cebpf4jnsgd1na2vs0mg"},{"bike_id":"93339257-c64b-41cd-8bbd-6b896e41f365","system_id":"levelo_inurba_marseille","lat":43.32106,"lon":5.36783,"is_reserved":false,"is_disabled":false,"rental_uris":{"android":"levelo://app?vid=93339257-c64b-41cd-8bbd-6b896e41f365","ios":"levelo://app?vid=93339257-c64b-41cd-8bbd-6b896e41f365"},"vehicle_type_id":"4","last_reported":1766761913,"current_range_meters":14400,"station_id":"ce4bhrh2rcd13ifvqhug","pricing_plan_id":"cebpf4jnsgd1na2vs0mg"},{"bike_id":"8580f57b-5aa3-4bcd-953e-6f28ee58972f","system_id":"levelo_inurba_marseille","lat":43.246363,"lon":5.431366,"is_reserved":false,"is_disabled":false,"rental_uris":{"android":"levelo://app?vid=8580f57b-5aa3-4bcd-953e-6f28ee58972f","ios":"levelo://app?vid=8580f57b-5aa3-4bcd-953e-6f28ee58972f"},"vehicle_type_id":"4","last_reported":1766761913,"current_range_meters":14400,"station_id":"st_d2m6c4gdas8pm72e190g","pricing_plan_id":"cebpf4jnsgd1na2vs0mg"},{"bike_id":"9a5c4a08-f238-4923-a485-79f2fc260aba","system_id":"levelo_inurba_marseille","lat":43.21772,"lon":5.34601,"is_reserved":false,"is_disabled":false,"rental_uris":{"android":"levelo://app?vid=9a5c4a08-f238-4923-a485-79f2fc260aba","ios":"levelo://app?vid=9a5c4a08-f238-4923-a485-79f2fc260aba"},"vehicle_type_id":"4","last_reported":1766761913,"current_range_meters":14400,"station_id":"st_cvj6r9ubvosntc0bgbag","pricing_plan_id":"cebpf4jnsgd1na2vs0mg"},{"bike_id":"ee9a3815-8508-4264-9944-ffc32a00cbc7","system_id":"levelo_inurba_marseille","lat":43.217763,"lon":5.346042,"is_reserved":false,"is_disabled":false,"rental_uris":{"android":"levelo://app?vid=ee9a3815-8508-4264-9944-ffc32a00cbc7","ios":"levelo://app?vid=ee9a3815-8508-4264-9944-ffc32a00cbc7"},"vehicle_type_id":"4","last_reported":1766761913,"current_range_meters":14400,"station_id":"st_cvj6r9ubvosntc0bgbag","pricing_plan_id":"cebpf4jnsgd1na2vs0mg"},{"bike_id":"424bc263-7a48-435c-8c85-b10009c8ee56","system_id":"levelo_inurba_marseille","lat":43.3236,"lon":5.36751,"is_reserved":false,"is_disabled":false,"rental_uris":{"android":"levelo://app?vid=424bc263-7a48-435c-8c85-b10009c8ee56","ios":"levelo://app?vid=424bc263-7a48-435c-8c85-b10009c8ee56"},"vehicle_type_id":"4","last_reported":1766761913,"current_range_meters":14400,"station_id":"ce4bhsh2rcd13ifvqi2g","pricing_plan_id":"cebpf4jnsgd1na2vs0mg"},{"bike_id":"02cb24cc-e062-4b73-80fd-141f91a697f7","system_id":"levelo_inurba_marseille","lat":43.31568,"lon":5.37645,"is_reserved":false,"is_disabled":false,"rental_uris":{"android":"levelo://app?vid=02cb24cc-e062-4b73-80fd-141f91a697f7","ios":"levelo://app?vid=02cb24cc-e062-4b73-80fd-141f91a697f7"},"vehicle_type_id":"4","last_reported":1766761913,"current_range_meters":14400,"station_id":"","pricing_plan_id":"cebpf4jnsgd1na2vs0mg"},{"bike_id":"689e1e25-96b9-418c-bbe1-0e8f9558c52f","system_id":"levelo_inurba_marseille","lat":43.31369,"lon":5.37564,"is_reserved":false,"is_disabled":false,"rental_uris":{"android":"levelo://app?vid=689e1e25-96b9-418c-bbe1-0e8f9558c52f","ios":"levelo://app?vid=689e1e25-96b9-418c-bbe1-0e8f9558c52f"},"vehicle_type_id":"4","last_reported":1766761913,"current_range_meters":14400,"station_id":"","pricing_plan_id":"cebpf4jnsgd1na2vs0mg"},{"bike_id":"5921415d-ceee-4f13-958e-b96faf11fe84","system_id":"levelo_inurba_marseille","lat":43.263758,"lon":5.410731,"is_reserved":false,"is_disabled":false,"rental_uris":{"android":"levelo://app?vid=5921415d-ceee-4f13-958e-b96faf11fe84","ios":"levelo://app?vid=5921415d-ceee-4f13-958e-b96faf11fe84"},"vehicle_type_id":"4","last_reported":1766761913,"current_range_meters":14400,"station_id":"st_d4e5ca6na9uc73bfl5fg","pricing_plan_id":"cebpf4jnsgd1na2vs0mg"},{"bike_id":"a60aab28-e45f-4ade-bf06-05ea36f216c0","system_id":"levelo_inurba_marseille","lat":43.30339,"lon":5.36919,"is_reserved":false,"is_disabled":false,"rental_uris":{"android":"levelo://app?vid=a60aab28-e45f-4ade-bf06-05ea36f216c0","ios":"levelo://app?vid=a60aab28-e45f-4ade-bf06-05ea36f216c0"},"vehicle_type_id":"4","last_reported":1766761913,"current_range_meters":14800,"station_id":"ce4bgqh2rcd13ifvqc5g","pricing_plan_id":"cebpf4jnsgd1na2vs0mg"},{"bike_id":"d82042c6-2b6a-49fb-9b35-25ce44be0d80","system_id":"levelo_inurba_marseille","lat":43.25116,"lon":5.40309,"is_reserved":false,"is_disabled":false,"rental_uris":{"android":"levelo://app?vid=d82042c6-2b6a-49fb-9b35-25ce44be0d80","ios":"levelo://app?vid=d82042c6-2b6a-49fb-9b35-25ce44be0d80"},"vehicle_type_id":"4","last_reported":1766761913,"current_range_meters":14800,"station_id":"ce4bhlh2rcd13ifvqgig","pricing_plan_id":"cebpf4jnsgd1na2vs0mg"},{"bike_id":"9c1ff02c-df35-4545-98b6-54b455499ca0","system_id":"levelo_inurba_marseille","lat":43.27216,"lon":5.40976,"is_reserved":false,"is_disabled":true,"rental_uris":{"android":"levelo://app?vid=9c1ff02c-df35-4545-98b6-54b455499ca0","ios":"levelo://app?vid=9c1ff02c-df35-4545-98b6-54b455499ca0"},"vehicle_type_id":"4","last_reported":1766761913,"current_range_meters":14800,"station_id":"ce4bhl12rcd13ifvqgf0","pricing_plan_id":"cebpf4jnsgd1na2vs0mg"},{"bike_id":"56691a51-3f80-4391-9c85-001b7f8f94cd","system_id":"levelo_inurba_marseille","lat":43.29355,"lon":5.39004,"is_reserved":false,"is_disabled":false,"rental_uris":{"android":"levelo://app?vid=56691a51-3f80-4391-9c85-001b7f8f94cd","ios":"levelo://app?vid=56691a51-3f80-4391-9c85-001b7f8f94cd"},"vehicle_type_id":"4","last_reported":1766761913,"current_range_meters":14800,"station_id":"","pricing_plan_id":"cebpf4jnsgd1na2vs0mg"},{"bike_id":"d0fd51c5-0139-4a31-b911-aa96edb4687f","system_id":"levelo_inurba_marseille","lat":43.30634,"lon":5.39307,"is_reserved":false,"is_disabled":false,"rental_uris":{"android":"levelo://app?vid=d0fd51c5-0139-4a31-b911-aa96edb4687f","ios":"levelo://app?vid=d0fd51c5-0139-4a31-b911-aa96edb4687f"},"vehicle_type_id":"4","last_reported":1766761913,"current_range_meters":14800,"station_id":"","pricing_plan_id":"cebpf4jnsgd1na2vs0mg"},{"bike_id":"b8359eb8-309f-4919-a9d8-14bc8a289068","system_id":"levelo_inurba_marseille","lat":43.29906,"lon":5.38134,"is_reserved":false,"is_disabled":false,"rental_uris":{"android":"levelo://app?vid=b8359eb8-309f-4919-a9d8-14bc8a289068","ios":"levelo://app?vid=b8359eb8-309f-4919-a9d8-14bc8a289068"},"vehicle_type_id":"4","last_reported":1766761913,"current_range_meters":14800,"station_id":"ce4bgj12rcd13ifvqbc0","pricing_plan_id":"cebpf4jnsgd1na2vs0mg"},{"bike_id":"4bb5f6b4-9f89-412d-b467-d32169ae36d4","system_id":"levelo_inurba_marseille","lat":43.24173,"lon":5.36379,"is_reserved":false,"is_disabled":false,"rental_uris":{"android":"levelo://app?vid=4bb5f6b4-9f89-412d-b467-d32169ae36d4","ios":"levelo://app?vid=4bb5f6b4-9f89-412d-b467-d32169ae36d4"},"vehicle_type_id":"4","last_reported":1766761913,"current_range_meters":14800,"station_id":"cpo36qri1sfpv3e86is0","pricing_plan_id":"cebpf4jnsgd1na2vs0mg"},{"bike_id":"995ea26f-415d-490e-88c5-93eb58938809","system_id":"levelo_inurba_marseille","lat":43.29065,"lon":5.35909,"is_reserved":false,"is_disabled":false,"rental_uris":{"android":"levelo://app?vid=995ea26f-415d-490e-88c5-93eb58938809","ios":"levelo://app?vid=995ea26f-415d-490e-88c5-93eb58938809"},"vehicle_type_id":"4","last_reported":1766761913,"current_range_meters":14800,"station_id":"ce4bha92rcd13ifvqeg0","pricing_plan_id":"cebpf4jnsgd1na2vs0mg"},{"bike_id":"47bf94fe-fc4b-4bbe-8abd-112be00775fd","system_id":"levelo_inurba_marseille","lat":43.29577,"lon":5.37479,"is_reserved":false,"is_disabled":false,"rental_uris":{"android":"levelo://app?vid=47bf94fe-fc4b-4bbe-8abd-112be00775fd","ios":"levelo://app?vid=47bf94fe-fc4b-4bbe-8abd-112be00775fd"},"vehicle_type_id":"4","last_reported":1766761913,"current_range_meters":14800,"station_id":"ce4bgh92rcd13ifvqb50","pricing_plan_id":"cebpf4jnsgd1na2vs0mg"},{"bike_id":"d0660dff-9e20-4998-9293-9359a48aabfa","system_id":"levelo_inurba_marseille","lat":43.28013,"lon":5.38966,"is_reserved":false,"is_disabled":false,"rental_uris":{"android":"levelo://app?vid=d0660dff-9e20-4998-9293-9359a48aabfa","ios":"levelo://app?vid=d0660dff-9e20-4998-9293-9359a48aabfa"},"vehicle_type_id":"4","last_reported":1766761913,"current_range_meters":14800,"station_id":"","pricing_plan_id":"cebpf4jnsgd1na2vs0mg"},{"bike_id":"92dc9296-3778-4e4f-a2cd-dd368eb28b4a","system_id":"levelo_inurba_marseille","lat":43.30535,"lon":5.36546,"is_reserved":false,"is_disabled":false,"rental_uris":{"android":"levelo://app?vid=92dc9296-3778-4e4f-a2cd-dd368eb28b4a","ios":"levelo://app?vid=92dc9296-3778-4e4f-a2cd-dd368eb28b4a"},"vehicle_type_id":"4","last_reported":1766761913,"current_range_meters":15200,"station_id":"ce4bgs12rcd13ifvqcag","pricing_plan_id":"cebpf4jnsgd1na2vs0mg"},{"bike_id":"07b22faa-f00c-4d7b-8fd0-8f103e849cda","system_id":"levelo_inurba_marseille","lat":43.28016,"lon":5.4166,"is_reserved":false,"is_disabled":false,"rental_uris":{"android":"levelo://app?vid=07b22faa-f00c-4d7b-8fd0-8f103e849cda","ios":"levelo://app?vid=07b22faa-f00c-4d7b-8fd0-8f103e849cda"},"vehicle_type_id":"4","last_reported":1766761913,"current_range_meters":15200,"station_id":"ce4bho12rcd13ifvqh1g","pricing_plan_id":"cebpf4jnsgd1na2vs0mg"},{"bike_id":"b97b9366-c081-4745-90ed-0e833c3a2f7c","system_id":"levelo_inurba_marseille","lat":43.331474,"lon":5.381728,"is_reserved":false,"is_disabled":false,"rental_uris":{"android":"levelo://app?vid=b97b9366-c081-4745-90ed-0e833c3a2f7c","ios":"levelo://app?vid=b97b9366-c081-4745-90ed-0e833c3a2f7c"},"vehicle_type_id":"4","last_reported":1766761913,"current_range_meters":15200,"station_id":"","pricing_plan_id":"cebpf4jnsgd1na2vs0mg"},{"bike_id":"64ee243d-6c71-495e-a41e-554624f9278d","system_id":"levelo_inurba_marseille","lat":43.24396,"lon":5.37059,"is_reserved":false,"is_disabled":false,"rental_uris":{"android":"levelo://app?vid=64ee243d-6c71-495e-a41e-554624f9278d","ios":"levelo://app?vid=64ee243d-6c71-495e-a41e-554624f9278d"},"vehicle_type_id":"4","last_reported":1766761913,"current_range_meters":15200,"station_id":"ce4bhhh2rcd13ifvqfk0","pricing_plan_id":"cebpf4jnsgd1na2vs0mg"},{"bike_id":"31f89d3f-2e88-4a4a-8b6e-204d5d9c1e1b","system_id":"levelo_inurba_marseille","lat":43.279453,"lon":5.410473,"is_reserved":false,"is_disabled":false,"rental_uris":{"android":"levelo://app?vid=31f89d3f-2e88-4a4a-8b6e-204d5d9c1e1b","ios":"levelo://app?vid=31f89d3f-2e88-4a4a-8b6e-204d5d9c1e1b"},"vehicle_type_id":"4","last_reported":1766761913,"current_range_meters":15200,"station_id":"ce4bhnp2rcd13ifvqh0g","pricing_plan_id":"cebpf4jnsgd1na2vs0mg"},{"bike_id":"cd907910-4436-42ae-95ae-248ec2852b93","system_id":"levelo_inurba_marseille","lat":43.26691,"lon":5.38263,"is_reserved":false,"is_disabled":false,"rental_uris":{"android":"levelo://app?vid=cd907910-4436-42ae-95ae-248ec2852b93","ios":"levelo://app?vid=cd907910-4436-42ae-95ae-248ec2852b93"},"vehicle_type_id":"4","last_reported":1766761913,"current_range_meters":15200,"station_id":"ce4bhg92rcd13ifvqf90","pricing_plan_id":"cebpf4jnsgd1na2vs0mg"},{"bike_id":"60a2dc58-693e-42dd-a72f-b3478fe2ee29","system_id":"levelo_inurba_marseille","lat":43.22919,"lon":5.35377,"is_reserved":false,"is_disabled":false,"rental_uris":{"android":"levelo://app?vid=60a2dc58-693e-42dd-a72f-b3478fe2ee29","ios":"levelo://app?vid=60a2dc58-693e-42dd-a72f-b3478fe2ee29"},"vehicle_type_id":"4","last_reported":1766761913,"current_range_meters":15200,"station_id":"cpo3532slgdg3j2ikp40","pricing_plan_id":"cebpf4jnsgd1na2vs0mg"},{"bike_id":"156e61f2-3d75-4260-9924-a8b3ec92c21b","system_id":"levelo_inurba_marseille","lat":43.2256,"lon":5.41613,"is_reserved":false,"is_disabled":true,"rental_uris":{"android":"levelo://app?vid=156e61f2-3d75-4260-9924-a8b3ec92c21b","ios":"levelo://app?vid=156e61f2-3d75-4260-9924-a8b3ec92c21b"},"vehicle_type_id":"4","last_reported":1766761913,"current_range_meters":15200,"station_id":"st_d2o4gvlbi1j2169b742g","pricing_plan_id":"cebpf4jnsgd1na2vs0mg"},{"bike_id":"c9217ff8-2f2b-4d28-9a61-75fb3b1332e8","system_id":"levelo_inurba_marseille","lat":43.301233,"lon":5.431144,"is_reserved":false,"is_disabled":false,"rental_uris":{"android":"levelo://app?vid=c9217ff8-2f2b-4d28-9a61-75fb3b1332e8","ios":"levelo://app?vid=c9217ff8-2f2b-4d28-9a61-75fb3b1332e8"},"vehicle_type_id":"4","last_reported":1766761913,"current_range_meters":15200,"station_id":"st_d3js3co5814s73ftftug","pricing_plan_id":"cebpf4jnsgd1na2vs0mg"},{"bike_id":"38037a8b-e273-42d2-a455-4b2107ee1743","system_id":"levelo_inurba_marseille","lat":43.3013,"lon":5.43134,"is_reserved":false,"is_disabled":false,"rental_uris":{"android":"levelo://app?vid=38037a8b-e273-42d2-a455-4b2107ee1743","ios":"levelo://app?vid=38037a8b-e273-42d2-a455-4b2107ee1743"},"vehicle_type_id":"4","last_reported":1766761913,"current_range_meters":15200,"station_id":"st_d3js3co5814s73ftftug","pricing_plan_id":"cebpf4jnsgd1na2vs0mg"},{"bike_id":"f9e8d59c-cf5f-4182-8bed-78508331ca21","system_id":"levelo_inurba_marseille","lat":43.27989,"lon":5.41663,"is_reserved":false,"is_disabled":true,"rental_uris":{"android":"levelo://app?vid=f9e8d59c-cf5f-4182-8bed-78508331ca21","ios":"levelo://app?vid=f9e8d59c-cf5f-4182-8bed-78508331ca21"},"vehicle_type_id":"4","last_reported":1766761913,"current_range_meters":15200,"station_id":"ce4bho12rcd13ifvqh1g","pricing_plan_id":"cebpf4jnsgd1na2vs0mg"},{"bike_id":"024b9d2f-ad53-4325-8c48-8801464c1c4a","system_id":"levelo_inurba_marseille","lat":43.21194,"lon":5.35068,"is_reserved":false,"is_disabled":false,"rental_uris":{"android":"levelo://app?vid=024b9d2f-ad53-4325-8c48-8801464c1c4a","ios":"levelo://app?vid=024b9d2f-ad53-4325-8c48-8801464c1c4a"},"vehicle_type_id":"4","last_reported":1766761913,"current_range_meters":15200,"station_id":"st_cvj6sg6p6f1abm77japg","pricing_plan_id":"cebpf4jnsgd1na2vs0mg"},{"bike_id":"8919de20-b487-423c-81ed-f5cabe5bd1c0","system_id":"levelo_inurba_marseille","lat":43.2482,"lon":5.37463,"is_reserved":false,"is_disabled":false,"rental_uris":{"android":"levelo://app?vid=8919de20-b487-423c-81ed-f5cabe5bd1c0","ios":"levelo://app?vid=8919de20-b487-423c-81ed-f5cabe5bd1c0"},"vehicle_type_id":"4","last_reported":1766761913,"current_range_meters":16000,"station_id":"ce4bhgh2rcd13ifvqfb0","pricing_plan_id":"cebpf4jnsgd1na2vs0mg"},{"bike_id":"b8e901ee-4c84-47f0-be0f-c317004d0bfa","system_id":"levelo_inurba_marseille","lat":43.296434,"lon":5.374001,"is_reserved":false,"is_disabled":false,"rental_uris":{"android":"levelo://app?vid=b8e901ee-4c84-47f0-be0f-c317004d0bfa","ios":"levelo://app?vid=b8e901ee-4c84-47f0-be0f-c317004d0bfa"},"vehicle_type_id":"4","last_reported":1766761913,"current_range_meters":16000,"station_id":"","pricing_plan_id":"cebpf4jnsgd1na2vs0mg"},{"bike_id":"6c48a90e-9851-4828-a1a8-5dedaf0dcafe","system_id":"levelo_inurba_marseille","lat":43.24631,"lon":5.43139,"is_reserved":false,"is_disabled":false,"rental_uris":{"android":"levelo://app?vid=6c48a90e-9851-4828-a1a8-5dedaf0dcafe","ios":"levelo://app?vid=6c48a90e-9851-4828-a1a8-5dedaf0dcafe"},"vehicle_type_id":"4","last_reported":1766761913,"current_range_meters":16000,"station_id":"st_d2m6c4gdas8pm72e190g","pricing_plan_id":"cebpf4jnsgd1na2vs0mg"},{"bike_id":"663e255d-5f5e-4d65-a6b3-3ad9f08a8e90","system_id":"levelo_inurba_marseille","lat":43.284739,"lon":5.38421,"is_reserved":false,"is_disabled":false,"rental_uris":{"android":"levelo://app?vid=663e255d-5f5e-4d65-a6b3-3ad9f08a8e90","ios":"levelo://app?vid=663e255d-5f5e-4d65-a6b3-3ad9f08a8e90"},"vehicle_type_id":"4","last_reported":1766761913,"current_range_meters":16000,"station_id":"ce4bh512rcd13ifvqe3g","pricing_plan_id":"cebpf4jnsgd1na2vs0mg"},{"bike_id":"08368f9d-912f-4404-b6c0-c6267e11e352","system_id":"levelo_inurba_marseille","lat":43.263724,"lon":5.410828,"is_reserved":false,"is_disabled":false,"rental_uris":{"android":"levelo://app?vid=08368f9d-912f-4404-b6c0-c6267e11e352","ios":"levelo://app?vid=08368f9d-912f-4404-b6c0-c6267e11e352"},"vehicle_type_id":"4","last_reported":1766761913,"current_range_meters":16000,"station_id":"st_d4e5ca6na9uc73bfl5fg","pricing_plan_id":"cebpf4jnsgd1na2vs0mg"},{"bike_id":"96003500-0f12-4eee-a5dc-23e46fdd7f89","system_id":"levelo_inurba_marseille","lat":43.21739,"lon":5.34604,"is_reserved":false,"is_disabled":false,"rental_uris":{"android":"levelo://app?vid=96003500-0f12-4eee-a5dc-23e46fdd7f89","ios":"levelo://app?vid=96003500-0f12-4eee-a5dc-23e46fdd7f89"},"vehicle_type_id":"4","last_reported":1766761913,"current_range_meters":16000,"station_id":"st_cvj6r9ubvosntc0bgbag","pricing_plan_id":"cebpf4jnsgd1na2vs0mg"},{"bike_id":"f51ce5e6-24df-4de6-b01e-3d027efd5b41","system_id":"levelo_inurba_marseille","lat":43.22921,"lon":5.3538,"is_reserved":false,"is_disabled":true,"rental_uris":{"android":"levelo://app?vid=f51ce5e6-24df-4de6-b01e-3d027efd5b41","ios":"levelo://app?vid=f51ce5e6-24df-4de6-b01e-3d027efd5b41"},"vehicle_type_id":"4","last_reported":1766761913,"current_range_meters":16000,"station_id":"cpo3532slgdg3j2ikp40","pricing_plan_id":"cebpf4jnsgd1na2vs0mg"},{"bike_id":"cf42684c-2f83-4795-ab87-4214da43d1fe","system_id":"levelo_inurba_marseille","lat":43.273308,"lon":5.390635,"is_reserved":false,"is_disabled":false,"rental_uris":{"android":"levelo://app?vid=cf42684c-2f83-4795-ab87-4214da43d1fe","ios":"levelo://app?vid=cf42684c-2f83-4795-ab87-4214da43d1fe"},"vehicle_type_id":"4","last_reported":1766761913,"current_range_meters":16000,"station_id":"ce4bhgp2rcd13ifvqfe0","pricing_plan_id":"cebpf4jnsgd1na2vs0mg"},{"bike_id":"de86687a-8317-4441-99ad-5dc7452d11f1","system_id":"levelo_inurba_marseille","lat":43.29832,"lon":5.36288,"is_reserved":false,"is_disabled":false,"rental_uris":{"android":"levelo://app?vid=de86687a-8317-4441-99ad-5dc7452d11f1","ios":"levelo://app?vid=de86687a-8317-4441-99ad-5dc7452d11f1"},"vehicle_type_id":"4","last_reported":1766761913,"current_range_meters":16000,"station_id":"ce4bgpp2rcd13ifvqc3g","pricing_plan_id":"cebpf4jnsgd1na2vs0mg"},{"bike_id":"ced1419c-54e0-4684-8fb9-5b1030e80e20","system_id":"levelo_inurba_marseille","lat":43.284962,"lon":5.484039,"is_reserved":false,"is_disabled":false,"rental_uris":{"android":"levelo://app?vid=ced1419c-54e0-4684-8fb9-5b1030e80e20","ios":"levelo://app?vid=ced1419c-54e0-4684-8fb9-5b1030e80e20"},"vehicle_type_id":"4","last_reported":1766761913,"current_range_meters":16000,"station_id":"st_d3svhcjqgbts73a3dn0g","pricing_plan_id":"cebpf4jnsgd1na2vs0mg"},{"bike_id":"33c6abe7-96e4-430c-bb50-83824ef03caa","system_id":"levelo_inurba_marseille","lat":43.23183,"lon":5.399864,"is_reserved":false,"is_disabled":false,"rental_uris":{"android":"levelo://app?vid=33c6abe7-96e4-430c-bb50-83824ef03caa","ios":"levelo://app?vid=33c6abe7-96e4-430c-bb50-83824ef03caa"},"vehicle_type_id":"4","last_reported":1766761913,"current_range_meters":16000,"station_id":"ce4bhn12rcd13ifvqgqg","pricing_plan_id":"cebpf4jnsgd1na2vs0mg"},{"bike_id":"08f4624a-a23d-4738-b794-a8bd53bfd7e8","system_id":"levelo_inurba_marseille","lat":43.29913,"lon":5.37591,"is_reserved":false,"is_disabled":false,"rental_uris":{"android":"levelo://app?vid=08f4624a-a23d-4738-b794-a8bd53bfd7e8","ios":"levelo://app?vid=08f4624a-a23d-4738-b794-a8bd53bfd7e8"},"vehicle_type_id":"4","last_reported":1766761913,"current_range_meters":16400,"station_id":"","pricing_plan_id":"cebpf4jnsgd1na2vs0mg"},{"bike_id":"7dbf9c28-b0cb-458d-982b-547f639368d9","system_id":"levelo_inurba_marseille","lat":43.28983,"lon":5.37828,"is_reserved":false,"is_disabled":false,"rental_uris":{"android":"levelo://app?vid=7dbf9c28-b0cb-458d-982b-547f639368d9","ios":"levelo://app?vid=7dbf9c28-b0cb-458d-982b-547f639368d9"},"vehicle_type_id":"4","last_reported":1766761913,"current_range_meters":16400,"station_id":"ce4bh9p2rcd13ifvqed0","pricing_plan_id":"cebpf4jnsgd1na2vs0mg"},{"bike_id":"feacf3f4-70c5-4ed2-815c-880ed439d963","system_id":"levelo_inurba_marseille","lat":43.298496,"lon":5.362816,"is_reserved":false,"is_disabled":false,"rental_uris":{"android":"levelo://app?vid=feacf3f4-70c5-4ed2-815c-880ed439d963","ios":"levelo://app?vid=feacf3f4-70c5-4ed2-815c-880ed439d963"},"vehicle_type_id":"4","last_reported":1766761913,"current_range_meters":16400,"station_id":"ce4bgpp2rcd13ifvqc3g","pricing_plan_id":"cebpf4jnsgd1na2vs0mg"},{"bike_id":"d333f5c5-54f8-4cf5-940a-bb6a2ed8e5fd","system_id":"levelo_inurba_marseille","lat":43.30551,"lon":5.37611,"is_reserved":false,"is_disabled":false,"rental_uris":{"android":"levelo://app?vid=d333f5c5-54f8-4cf5-940a-bb6a2ed8e5fd","ios":"levelo://app?vid=d333f5c5-54f8-4cf5-940a-bb6a2ed8e5fd"},"vehicle_type_id":"4","last_reported":1766761913,"current_range_meters":16400,"station_id":"","pricing_plan_id":"cebpf4jnsgd1na2vs0mg"},{"bike_id":"f7fce171-ca89-43a8-8262-6b164177b644","system_id":"levelo_inurba_marseille","lat":43.28295,"lon":5.35055,"is_reserved":false,"is_disabled":true,"rental_uris":{"android":"levelo://app?vid=f7fce171-ca89-43a8-8262-6b164177b644","ios":"levelo://app?vid=f7fce171-ca89-43a8-8262-6b164177b644"},"vehicle_type_id":"4","last_reported":1766761913,"current_range_meters":16400,"station_id":"ce4bhbp2rcd13ifvqerg","pricing_plan_id":"cebpf4jnsgd1na2vs0mg"},{"bike_id":"8dcab304-9a93-473f-a0d5-f515115fd455","system_id":"levelo_inurba_marseille","lat":43.27084,"lon":5.383,"is_reserved":false,"is_disabled":false,"rental_uris":{"android":"levelo://app?vid=8dcab304-9a93-473f-a0d5-f515115fd455","ios":"levelo://app?vid=8dcab304-9a93-473f-a0d5-f515115fd455"},"vehicle_type_id":"4","last_reported":1766761913,"current_range_meters":16400,"station_id":"st_d3n2fo6cfp8s73cte1j0","pricing_plan_id":"cebpf4jnsgd1na2vs0mg"},{"bike_id":"1c99c749-6e4f-4528-8413-178723c603b4","system_id":"levelo_inurba_marseille","lat":43.31271,"lon":5.3684,"is_reserved":false,"is_disabled":false,"rental_uris":{"android":"levelo://app?vid=1c99c749-6e4f-4528-8413-178723c603b4","ios":"levelo://app?vid=1c99c749-6e4f-4528-8413-178723c603b4"},"vehicle_type_id":"4","last_reported":1766761913,"current_range_meters":16400,"station_id":"ce4bgl92rcd13ifvqbq0","pricing_plan_id":"cebpf4jnsgd1na2vs0mg"},{"bike_id":"5deda95f-0f94-4439-bf35-d380903be227","system_id":"levelo_inurba_marseille","lat":43.3171,"lon":5.4047,"is_reserved":false,"is_disabled":false,"rental_uris":{"android":"levelo://app?vid=5deda95f-0f94-4439-bf35-d380903be227","ios":"levelo://app?vid=5deda95f-0f94-4439-bf35-d380903be227"},"vehicle_type_id":"4","last_reported":1766761913,"current_range_meters":16400,"station_id":"ce4bh012rcd13ifvqd00","pricing_plan_id":"cebpf4jnsgd1na2vs0mg"},{"bike_id":"680ad38f-c421-4a2b-a393-fe86f3b99028","system_id":"levelo_inurba_marseille","lat":43.24392,"lon":5.37062,"is_reserved":false,"is_disabled":false,"rental_uris":{"android":"levelo://app?vid=680ad38f-c421-4a2b-a393-fe86f3b99028","ios":"levelo://app?vid=680ad38f-c421-4a2b-a393-fe86f3b99028"},"vehicle_type_id":"4","last_reported":1766761913,"current_range_meters":16400,"station_id":"ce4bhhh2rcd13ifvqfk0","pricing_plan_id":"cebpf4jnsgd1na2vs0mg"},{"bike_id":"66925d0b-0baa-4ba4-8ff6-bf11ebfb4109","system_id":"levelo_inurba_marseille","lat":43.279459,"lon":5.410429,"is_reserved":false,"is_disabled":false,"rental_uris":{"android":"levelo://app?vid=66925d0b-0baa-4ba4-8ff6-bf11ebfb4109","ios":"levelo://app?vid=66925d0b-0baa-4ba4-8ff6-bf11ebfb4109"},"vehicle_type_id":"4","last_reported":1766761913,"current_range_meters":16400,"station_id":"ce4bhnp2rcd13ifvqh0g","pricing_plan_id":"cebpf4jnsgd1na2vs0mg"},