{"last_updated":1719508161,"ttl":30,"version":"2.2","data":{"bikes":[{"bike_id":"bcc3e4e7-49ad-4827-ad72-a8aac5cd29e6","system_id":"levelo_inurba_marseille","lat":43.31509,"lon":5.37089,"is_reserved":false,"is_disabled":false,"rental_uris":{"android":"levelo://app?vid=bcc3e4e7-49ad-4827-ad72-a8aac5cd29e6","ios":"levelo://app?vid=bcc3e4e7-49ad-4827-ad72-a8aac5cd29e6"},"vehicle_type_id":"4","last_reported":1719508161,"current_range_meters":11200,"station_id":"","pricing_plan_id":"cebpf4jnsgd1na2vs0mg"},{"bike_id":"0b974637-2ed3-46ab-bd97-fefdddfaab8f","system_id":"levelo_inurba_marseille","lat":43.30912,"lon":5.36864,"is_reserved":false,"is_disabled":false,"rental_uris":{"android":"levelo://app?vid=0b974637-2ed3-46ab-bd97-fefdddfaab8f","ios":"levelo://app?vid=0b974637-2ed3-46ab-bd97-fefdddfaab8f"},"vehicle_type_id":"4","last_reported":1719508161,"current_range_meters":6400,"station_id":"ce4bgn92rcd13ifvqbvg","pricing_plan_id":"cebpf4jnsgd1na2vs0mg"},{"bike_id":"8d9e016e-bbdd-49ef-8378-dadc16961501","system_id":"levelo_inurba_marseille","lat":43.314811,"lon":5.373103,"is_reserved":false,"is_disabled":false,"rental_uris":{"android":"levelo://app?vid=8d9e016e-bbdd-49ef-8378-dadc16961501","ios":"levelo://app?vid=8d9e016e-bbdd-49ef-8378-dadc16961501"},"vehicle_type_id":"4","last_reported":1719508161,"current_range_meters":2800,"station_id":"ce4bgt12rcd13ifvqcd0","pricing_plan_id":"cebpf4jnsgd1na2vs0mg"},{"bike_id":"d10505ff-d56f-4dde-b2d4-a276a47de63d","system_id":"levelo_inurba_marseille","lat":43.30537,"lon":5.367345,"is_reserved":false,"is_disabled":false,"rental_uris":{"android":"levelo://app?vid=d10505ff-d56f-4dde-b2d4-a276a47de63d","ios":"levelo://app?vid=d10505ff-d56f-4dde-b2d4-a276a47de63d"},"vehicle_type_id":"4","last_reported":1719508161,"current_range_meters":18400,"station_id":"ce4bgrp2rcd13ifvqc9g","pricing_plan_id":"cebpf4jnsgd1na2vs0mg"},{"bike_id":"6d4b91a7-8c12-430c-885e-9db29307fac7","system_id":"levelo_inurba_marseille","lat":43.30546,"lon":5.36656,"is_reserved":false,"is_disabled":false,"rental_uris":{"android":"levelo://app?vid=6d4b91a7-8c12-430c-885e-9db29307fac7","ios":"levelo://app?vid=6d4b91a7-8c12-430c-885e-9db29307fac7"},"vehicle_type_id":"4","last_reported":1719508161,"current_range_meters":28800,"station_id":"","pricing_plan_id":"cebpf4jnsgd1na2vs0mg"},{"bike_id":"80fe93d5-1ab7-4530-8e95-6e4ef6ac10ed","system_id":"levelo_inurba_marseille","lat":43.30545,"lon":5.36645,"is_reserved":false,"is_disabled":false,"rental_uris":{"android":"levelo://app?vid=80fe93d5-1ab7-4530-8e95-6e4ef6ac10ed","ios":"levelo://app?vid=80fe93d5-1ab7-4530-8e95-6e4ef6ac10ed"},"vehicle_type_id":"4","last_reported":1719508161,"current_range_meters":0,"station_id":"","pricing_plan_id":"cebpf4jnsgd1na2vs0mg"},{"bike_id":"057b4d49-f64f-4bfe-8389-33e0797d8c53","system_id":"levelo_inurba_marseille","lat":43.30529,"lon":5.36653,"is_reserved":false,"is_disabled":false,"rental_uris":{"android":"levelo://app?vid=057b4d49-f64f-4bfe-8389-33e0797d8c53","ios":"levelo://app?vid=057b4d49-f64f-4bfe-8389-33e0797d8c53"},"vehicle_type_id":"4","last_reported":1719508161,"current_range_meters":15600,"station_id":"","pricing_plan_id":"cebpf4jnsgd1na2vs0mg"},{"bike_id":"36c140fe-d18f-4ff5-be8f-386de33eddf0","system_id":"levelo_inurba_marseille","lat":43.311178,"lon":5.377647,"is_reserved":false,"is_disabled":false,"rental_uris":{"android":"levelo://app?vid=36c140fe-d18f-4ff5-be8f-386de33eddf0","ios":"levelo://app?vid=36c140fe-d18f-4ff5-be8f-386de33eddf0"},"vehicle_type_id":"4","last_reported":1719508161,"current_range_meters":21200,"station_id":"ce4bgt92rcd13ifvqcg0","pricing_plan_id":"cebpf4jnsgd1na2vs0mg"},{"bike_id":"9c1d3e68-3d88-4fa8-b528-a3277f1b151a","system_id":"levelo_inurba_marseille","lat":43.31506,"lon":5.37801,"is_reserved":false,"is_disabled":false,"rental_uris":{"android":"levelo://app?vid=9c1d3e68-3d88-4fa8-b528-a3277f1b151a","ios":"levelo://app?vid=9c1d3e68-3d88-4fa8-b528-a3277f1b151a"},"vehicle_type_id":"4","last_reported":1719508161,"current_range_meters":28400,"station_id":"","pricing_plan_id":"cebpf4jnsgd1na2vs0mg"},{"bike_id":"618287e4-7454-4ae2-8653-8e1b9a079360","system_id":"levelo_inurba_marseille","lat":43.307945,"lon":5.376487,"is_reserved":false,"is_disabled":false,"rental_uris":{"android":"levelo://app?vid=618287e4-7454-4ae2-8653-8e1b9a079360","ios":"levelo://app?vid=618287e4-7454-4ae2-8653-8e1b9a079360"},"vehicle_type_id":"4","last_reported":1719508161,"current_range_meters":12000,"station_id":"ce4bgv92rcd13ifvqcq0","pricing_plan_id":"cebpf4jnsgd1na2vs0mg"},{"bike_id":"9d7de35d-bf52-4e91-a9df-d988529a72e1","system_id":"levelo_inurba_marseille","lat":43.30787,"lon":5.37659,"is_reserved":false,"is_disabled":false,"rental_uris":{"android":"levelo://app?vid=9d7de35d-bf52-4e91-a9df-d988529a72e1","ios":"levelo://app?vid=9d7de35d-bf52-4e91-a9df-d988529a72e1"},"vehicle_type_id":"4","last_reported":1719508161,"current_range_meters":3200,"station_id":"ce4bgv92rcd13ifvqcq0","pricing_plan_id":"cebpf4jnsgd1na2vs0mg"},{"bike_id":"a0a59f80-837d-4813-95b7-af745f29485a","system_id":"levelo_inurba_marseille","lat":43.317075,"lon":5.377367,"is_reserved":false,"is_disabled":false,"rental_uris":{"android":"levelo://app?vid=a0a59f80-837d-4813-95b7-af745f29485a","ios":"levelo://app?vid=a0a59f80-837d-4813-95b7-af745f29485a"},"vehicle_type_id":"4","last_reported":1719508161,"current_range_meters":800,"station_id":"ce4bgth2rcd13ifvqch0","pricing_plan_id":"cebpf4jnsgd1na2vs0mg"},{"bike_id":"7ff1e1d1-5a55-4f02-b901-026a46125fad","system_id":"levelo_inurba_marseille","lat":43.317075,"lon":5.377367,"is_reserved":false,"is_disabled":false,"rental_uris":{"android":"levelo://app?vid=7ff1e1d1-5a55-4f02-b901-026a46125fad","ios":"levelo://app?vid=7ff1e1d1-5a55-4f02-b901-026a46125fad"},"vehicle_type_id":"4","last_reported":1719508161,"current_range_meters":5200,"station_id":"ce4bgth2rcd13ifvqch0","pricing_plan_id":"cebpf4jnsgd1na2vs0mg"},{"bike_id":"b5d60d21-c9cc-44a2-9321-9ac2c4df6690","system_id":"levelo_inurba_marseille","lat":43.317075,"lon":5.377367,"is_reserved":false,"is_disabled":false,"rental_uris":{"android":"levelo://app?vid=b5d60d21-c9cc-44a2-9321-9ac2c4df6690","ios":"levelo://app?vid=b5d60d21-c9cc-44a2-9321-9ac2c4df6690"},"vehicle_type_id":"4","last_reported":1719508161,"current_range_meters":31600,"station_id":"ce4bgth2rcd13ifvqch0","pricing_plan_id":"cebpf4jnsgd1na2vs0mg"},{"bike_id":"3e3cccb6-cc13-4085-b5b9-f7b9dfe7fa4f","system_id":"levelo_inurba_marseille","lat":43.303046,"lon":5.368981,"is_reserved":false,"is_disabled":false,"rental_uris":{"android":"levelo://app?vid=3e3cccb6-cc13-4085-b5b9-f7b9dfe7fa4f","ios":"levelo://app?vid=3e3cccb6-cc13-4085-b5b9-f7b9dfe7fa4f"},"vehicle_type_id":"4","last_reported":1719508161,"current_range_meters":0,"station_id":"ce4bgqh2rcd13ifvqc5g","pricing_plan_id":"cebpf4jnsgd1na2vs0mg"},{"bike_id":"6d97987a-a3a6-4a76-ab27-dea3022f5a47","system_id":"levelo_inurba_marseille","lat":43.308037,"lon":5.381517,"is_reserved":false,"is_disabled":false,"rental_uris":{"android":"levelo://app?vid=6d97987a-a3a6-4a76-ab27-dea3022f5a47","ios":"levelo://app?vid=6d97987a-a3a6-4a76-ab27-dea3022f5a47"},"vehicle_type_id":"4","last_reported":1719508161,"current_range_meters":0,"station_id":"ce4bgt12rcd13ifvqce0","pricing_plan_id":"cebpf4jnsgd1na2vs0mg"},{"bike_id":"e50e9e08-152c-4550-985e-4880f022fc5c","system_id":"levelo_inurba_marseille","lat":43.308012,"lon":5.381511,"is_reserved":false,"is_disabled":false,"rental_uris":{"android":"levelo://app?vid=e50e9e08-152c-4550-985e-4880f022fc5c","ios":"levelo://app?vid=e50e9e08-152c-4550-985e-4880f022fc5c"},"vehicle_type_id":"4","last_reported":1719508161,"current_range_meters":800,"station_id":"ce4bgt12rcd13ifvqce0","pricing_plan_id":"cebpf4jnsgd1na2vs0mg"},{"bike_id":"1db2ee02-c32f-4e28-82a7-51f42d673c1e","system_id":"levelo_inurba_marseille","lat":43.308012,"lon":5.381511,"is_reserved":false,"is_disabled":false,"rental_uris":{"android":"levelo://app?vid=1db2ee02-c32f-4e28-82a7-51f42d673c1e","ios":"levelo://app?vid=1db2ee02-c32f-4e28-82a7-51f42d673c1e"},"vehicle_type_id":"4","last_reported":1719508161,"current_range_meters":12800,"station_id":"ce4bgt12rcd13ifvqce0","pricing_plan_id":"cebpf4jnsgd1na2vs0mg"},{"bike_id":"38c98abb-4e56-47b1-9093-7fa8de9a3706","system_id":"levelo_inurba_marseille","lat":43.308012,"lon":5.381511,"is_reserved":false,"is_disabled":false,"rental_uris":{"android":"levelo://app?vid=38c98abb-4e56-47b1-9093-7fa8de9a3706","ios":"levelo://app?vid=38c98abb-4e56-47b1-9093-7fa8de9a3706"},"vehicle_type_id":"4","last_reported":1719508161,"current_range_meters":0,"station_id":"ce4bgt12rcd13ifvqce0","pricing_plan_id":"cebpf4jnsgd1na2vs0mg"},{"bike_id":"5e95df2d-b3b8-4c57-be20-7611cbb1b6d6","system_id":"levelo_inurba_marseille","lat":43.304606,"lon":5.379026,"is_reserved":false,"is_disabled":false,"rental_uris":{"android":"levelo://app?vid=5e95df2d-b3b8-4c57-be20-7611cbb1b6d6","ios":"levelo://app?vid=5e95df2d-b3b8-4c57-be20-7611cbb1b6d6"},"vehicle_type_id":"4","last_reported":1719508161,"current_range_meters":0,"station_id":"ce4bgup2rcd13ifvqcn0","pricing_plan_id":"cebpf4jnsgd1na2vs0mg"},{"bike_id":"955ed24d-5d91-4f82-9a74-f6d6dcf371cc","system_id":"levelo_inurba_marseille","lat":43.304606,"lon":5.379026,"is_reserved":false,"is_disabled":false,"rental_uris":{"android":"levelo://app?vid=955ed24d-5d91-4f82-9a74-f6d6dcf371cc","ios":"levelo://app?vid=955ed24d-5d91-4f82-9a74-f6d6dcf371cc"},"vehicle_type_id":"4","last_reported":1719508161,"current_range_meters":13200,"station_id":"ce4bgup2rcd13ifvqcn0","pricing_plan_id":"cebpf4jnsgd1na2vs0mg"},{"bike_id":"d262d170-76a9-41e0-bcbd-ddca53108729","system_id":"levelo_inurba_marseille","lat":43.324771,"lon":5.36557,"is_reserved":false,"is_disabled":false,"rental_uris":{"android":"levelo://app?vid=d262d170-76a9-41e0-bcbd-ddca53108729","ios":"levelo://app?vid=d262d170-76a9-41e0-bcbd-ddca53108729"},"vehicle_type_id":"4","last_reported":1719508161,"current_range_meters":4000,"station_id":"ce4bhs12rcd13ifvqhvg","pricing_plan_id":"cebpf4jnsgd1na2vs0mg"},{"bike_id":"43cb3ed3-94eb-477e-a313-fd20c11a07a9","system_id":"levelo_inurba_marseille","lat":43.310742,"lon":5.383596,"is_reserved":false,"is_disabled":false,"rental_uris":{"android":"levelo://app?vid=43cb3ed3-94eb-477e-a313-fd20c11a07a9","ios":"levelo://app?vid=43cb3ed3-94eb-477e-a313-fd20c11a07a9"},"vehicle_type_id":"4","last_reported":1719508161,"current_range_meters":22400,"station_id":"ce4bgv92rcd13ifvqcr0","pricing_plan_id":"cebpf4jnsgd1na2vs0mg"},{"bike_id":"ab9fbdab-a8ea-45f5-9102-fc33e6c2095b","system_id":"levelo_inurba_marseille","lat":43.310804,"lon":5.38359,"is_reserved":false,"is_disabled":false,"rental_uris":{"android":"levelo://app?vid=ab9fbdab-a8ea-45f5-9102-fc33e6c2095b","ios":"levelo://app?vid=ab9fbdab-a8ea-45f5-9102-fc33e6c2095b"},"vehicle_type_id":"4","last_reported":1719508161,"current_range_meters":0,"station_id":"ce4bgv92rcd13ifvqcr0","pricing_plan_id":"cebpf4jnsgd1na2vs0mg"},{"bike_id":"716f851e-d770-4cae-9abc-4d6b7775a506","system_id":"levelo_inurba_marseille","lat":43.310701,"lon":5.38363,"is_reserved":false,"is_disabled":false,"rental_uris":{"android":"levelo://app?vid=716f851e-d770-4cae-9abc-4d6b7775a506","ios":"levelo://app?vid=716f851e-d770-4cae-9abc-4d6b7775a506"},"vehicle_type_id":"4","last_reported":1719508161,"current_range_meters":0,"station_id":"ce4bgv92rcd13ifvqcr0","pricing_plan_id":"cebpf4jnsgd1na2vs0mg"},{"bike_id":"ee0ec8de-3498-4dc5-be97-eff1bf64f17a","system_id":"levelo_inurba_marseille","lat":43.31066,"lon":5.38364,"is_reserved":false,"is_disabled":false,"rental_uris":{"android":"levelo://app?vid=ee0ec8de-3498-4dc5-be97-eff1bf64f17a","ios":"levelo://app?vid=ee0ec8de-3498-4dc5-be97-eff1bf64f17a"},"vehicle_type_id":"4","last_reported":1719508161,"current_range_meters":13200,"station_id":"ce4bgv92rcd13ifvqcr0","pricing_plan_id":"cebpf4jnsgd1na2vs0mg"},{"bike_id":"2f0e0c11-bc68-4462-b25b-631131512636","system_id":"levelo_inurba_marseille","lat":43.319935,"lon":5.381699,"is_reserved":false,"is_disabled":false,"rental_uris":{"android":"levelo://app?vid=2f0e0c11-bc68-4462-b25b-631131512636","ios":"levelo://app?vid=2f0e0c11-bc68-4462-b25b-631131512636"},"vehicle_type_id":"4","last_reported":1719508161,"current_range_meters":8400,"station_id":"ce4bhr12rcd13ifvqhpg","pricing_plan_id":"cebpf4jnsgd1na2vs0mg"},{"bike_id":"dfb8e16e-5d18-4dca-94f3-56fa22161ea2","system_id":"levelo_inurba_marseille","lat":43.319935,"lon":5.381699,"is_reserved":false,"is_disabled":false,"rental_uris":{"android":"levelo://app?vid=dfb8e16e-5d18-4dca-94f3-56fa22161ea2","ios":"levelo://app?vid=dfb8e16e-5d18-4dca-94f3-56fa22161ea2"},"vehicle_type_id":"4","last_reported":1719508161,"current_range_meters":28400,"station_id":"ce4bhr12rcd13ifvqhpg","pricing_plan_id":"cebpf4jnsgd1na2vs0mg"},{"bike_id":"3d6742c9-8582-4f4b-8e2c-17c090e4cf9c","system_id":"levelo_inurba_marseille","lat":43.31994,"lon":5.38153,"is_reserved":false,"is_disabled":false,"rental_uris":{"android":"levelo://app?vid=3d6742c9-8582-4f4b-8e2c-17c090e4cf9c","ios":"levelo://app?vid=3d6742c9-8582-4f4b-8e2c-17c090e4cf9c"},"vehicle_type_id":"4","last_reported":1719508161,"current_range_meters":23600,"station_id":"ce4bhr12rcd13ifvqhpg","pricing_plan_id":"cebpf4jnsgd1na2vs0mg"},{"bike_id":"477f0ab2-c9fd-4b20-ad1d-9d0062c95811","system_id":"levelo_inurba_marseille","lat":43.319935,"lon":5.381699,"is_reserved":false,"is_disabled":false,"rental_uris":{"android":"levelo://app?vid=477f0ab2-c9fd-4b20-ad1d-9d0062c95811","ios":"levelo://app?vid=477f0ab2-c9fd-4b20-ad1d-9d0062c95811"},"vehicle_type_id":"4","last_reported":1719508161,"current_range_meters":18400,"station_id":"ce4bhr12rcd13ifvqhpg","pricing_plan_id":"cebpf4jnsgd1na2vs0mg"},{"bike_id":"0aa34633-2d60-46b0-9816-30a33bf26896","system_id":"levelo_inurba_marseille","lat":43.313571,"lon":5.384829,"is_reserved":false,"is_disabled":false,"rental_uris":{"android":"levelo://app?vid=0aa34633-2d60-46b0-9816-30a33bf26896","ios":"levelo://app?vid=0aa34633-2d60-46b0-9816-30a33bf26896"},"vehicle_type_id":"4","last_reported":1719508161,"current_range_meters":27600,"station_id":"ce4bgt92rcd13ifvqcf0","pricing_plan_id":"cebpf4jnsgd1na2vs0mg"},{"bike_id":"1b665810-5b62-42b2-a0c6-f6fd3519bb93","system_id":"levelo_inurba_marseille","lat":43.320782,"lon":5.381795,"is_reserved":false,"is_disabled":false,"rental_uris":{"android":"levelo://app?vid=1b665810-5b62-42b2-a0c6-f6fd3519bb93","ios":"levelo://app?vid=1b665810-5b62-42b2-a0c6-f6fd3519bb93"},"vehicle_type_id":"4","last_reported":1719508161,"current_range_meters":22000,"station_id":"","pricing_plan_id":"cebpf4jnsgd1na2vs0mg"},{"bike_id":"b4e90371-b51b-4bb3-9f26-7d543acd8573","system_id":"levelo_inurba_marseille","lat":43.30941,"lon":5.38627,"is_reserved":false,"is_disabled":false,"rental_uris":{"android":"levelo://app?vid=b4e90371-b51b-4bb3-9f26-7d543acd8573","ios":"levelo://app?vid=b4e90371-b51b-4bb3-9f26-7d543acd8573"},"vehicle_type_id":"4","last_reported":1719508161,"current_range_meters":26400,"station_id":"","pricing_plan_id":"cebpf4jnsgd1na2vs0mg"},{"bike_id":"37c67654-9494-4461-bbe7-d18aa8d1c82b","system_id":"levelo_inurba_marseille","lat":43.305364,"lon":5.384119,"is_reserved":false,"is_disabled":false,"rental_uris":{"android":"levelo://app?vid=37c67654-9494-4461-bbe7-d18aa8d1c82b","ios":"levelo://app?vid=37c67654-9494-4461-bbe7-d18aa8d1c82b"},"vehicle_type_id":"4","last_reported":1719508161,"current_range_meters":1200,"station_id":"ce4bgg92rcd13ifvqb30","pricing_plan_id":"cebpf4jnsgd1na2vs0mg"},{"bike_id":"a80b2ac1-faaf-43ea-91f5-4f31467d765a","system_id":"levelo_inurba_marseille","lat":43.299243,"lon":5.37481,"is_reserved":false,"is_disabled":false,"rental_uris":{"android":"levelo://app?vid=a80b2ac1-faaf-43ea-91f5-4f31467d765a","ios":"levelo://app?vid=a80b2ac1-faaf-43ea-91f5-4f31467d765a"},"vehicle_type_id":"4","last_reported":1719508161,"current_range_meters":14800,"station_id":"ce4bgjh2rcd13ifvqbg0","pricing_plan_id":"cebpf4jnsgd1na2vs0mg"},{"bike_id":"0aa84401-6559-4e88-b6ee-65ac6a4f09ed","system_id":"levelo_inurba_marseille","lat":43.311722,"lon":5.387247,"is_reserved":false,"is_disabled":false,"rental_uris":{"android":"levelo://app?vid=0aa84401-6559-4e88-b6ee-65ac6a4f09ed","ios":"levelo://app?vid=0aa84401-6559-4e88-b6ee-65ac6a4f09ed"},"vehicle_type_id":"4","last_reported":1719508161,"current_range_meters":11200,"station_id":"ce4bgv12rcd13ifvqcp0","pricing_plan_id":"cebpf4jnsgd1na2vs0mg"},{"bike_id":"286085ad-eaf1-448a-bd83-655483bf2f74","system_id":"levelo_inurba_marseille","lat":43.29957,"lon":5.37609,"is_reserved":false,"is_disabled":false,"rental_uris":{"android":"levelo://app?vid=286085ad-eaf1-448a-bd83-655483bf2f74","ios":"levelo://app?vid=286085ad-eaf1-448a-bd83-655483bf2f74"},"vehicle_type_id":"4","last_reported":1719508161,"current_range_meters":0,"station_id":"","pricing_plan_id":"cebpf4jnsgd1na2vs0mg"},{"bike_id":"7c87de19-2cf7-4b1b-825d-01ae5f274643","system_id":"levelo_inurba_marseille","lat":43.31167,"lon":5.38719,"is_reserved":false,"is_disabled":false,"rental_uris":{"android":"levelo://app?vid=7c87de19-2cf7-4b1b-825d-01ae5f274643","ios":"levelo://app?vid=7c87de19-2cf7-4b1b-825d-01ae5f274643"},"vehicle_type_id":"0","last_reported":1719508161,"current_range_meters":19600,"station_id":"","pricing_plan_id":"cebpf4jnsgd1na2vs0mg"},{"bike_id":"c5785919-e75b-4223-b2c0-1cb51c182bcf","system_id":"levelo_inurba_marseille","lat":43.297794,"lon":5.370888,"is_reserved":false,"is_disabled":false,"rental_uris":{"android":"levelo://app?vid=c5785919-e75b-4223-b2c0-1cb51c182bcf","ios":"levelo://app?vid=c5785919-e75b-4223-b2c0-1cb51c182bcf"},"vehicle_type_id":"4","last_reported":1719508161,"current_range_meters":1200,"station_id":"ce4bgop2rcd13ifvqc1g","pricing_plan_id":"cebpf4jnsgd1na2vs0mg"},{"bike_id":"fc6ba463-3e3a-457c-91c5-75a37e3af98a","system_id":"levelo_inurba_marseille","lat":43.29783,"lon":5.37106,"is_reserved":false,"is_disabled":false,"rental_uris":{"android":"levelo://app?vid=fc6ba463-3e3a-457c-91c5-75a37e3af98a","ios":"levelo://app?vid=fc6ba463-3e3a-457c-91c5-75a37e3af98a"},"vehicle_type_id":"4","last_reported":1719508161,"current_range_meters":0,"station_id":"ce4bgop2rcd13ifvqc1g","pricing_plan_id":"cebpf4jnsgd1na2vs0mg"},{"bike_id":"f802e080-c746-4fc0-a4c3-5c64272b3b66","system_id":"levelo_inurba_marseille","lat":43.322872,"lon":5.382756,"is_reserved":false,"is_disabled":false,"rental_uris":{"android":"levelo://app?vid=f802e080-c746-4fc0-a4c3-5c64272b3b66","ios":"levelo://app?vid=f802e080-c746-4fc0-a4c3-5c64272b3b66"},"vehicle_type_id":"4","last_reported":1719508161,"current_range_meters":7200,"station_id":"ce4bhr12rcd13ifvqhqg","pricing_plan_id":"cebpf4jnsgd1na2vs0mg"},{"bike_id":"23a7f147-22bd-4b03-ac99-6126caf8aeb0","system_id":"levelo_inurba_marseille","lat":43.322872,"lon":5.382756,"is_reserved":false,"is_disabled":false,"rental_uris":{"android":"levelo://app?vid=23a7f147-22bd-4b03-ac99-6126caf8aeb0","ios":"levelo://app?vid=23a7f147-22bd-4b03-ac99-6126caf8aeb0"},"vehicle_type_id":"4","last_reported":1719508161,"current_range_meters":15200,"station_id":"ce4bhr12rcd13ifvqhqg","pricing_plan_id":"cebpf4jnsgd1na2vs0mg"},{"bike_id":"ac940820-c11d-4935-a766-3f20f9e30268","system_id":"levelo_inurba_marseille","lat":43.29704,"lon":5.3662,"is_reserved":false,"is_disabled":false,"rental_uris":{"android":"levelo://app?vid=ac940820-c11d-4935-a766-3f20f9e30268","ios":"levelo://app?vid=ac940820-c11d-4935-a766-3f20f9e30268"},"vehicle_type_id":"4","last_reported":1719508161,"current_range_meters":23600,"station_id":"ce4bgn12rcd13ifvqbt0","pricing_plan_id":"cebpf4jnsgd1na2vs0mg"},{"bike_id":"37973c19-a7b1-4656-a30a-e6e49fcf45f2","system_id":"levelo_inurba_marseille","lat":43.328939,"lon":5.367372,"is_reserved":false,"is_disabled":false,"rental_uris":{"android":"levelo://app?vid=37973c19-a7b1-4656-a30a-e6e49fcf45f2","ios":"levelo://app?vid=37973c19-a7b1-4656-a30a-e6e49fcf45f2"},"vehicle_type_id":"4","last_reported":1719508161,"current_range_meters":28800,"station_id":"","pricing_plan_id":"cebpf4jnsgd1na2vs0mg"},{"bike_id":"6f9cbebd-43c8-4885-84a4-e071a2c95ae4","system_id":"levelo_inurba_marseille","lat":43.2968,"lon":5.37291,"is_reserved":false,"is_disabled":false,"rental_uris":{"android":"levelo://app?vid=6f9cbebd-43c8-4885-84a4-e071a2c95ae4","ios":"levelo://app?vid=6f9cbebd-43c8-4885-84a4-e071a2c95ae4"},"vehicle_type_id":"4","last_reported":1719508161,"current_range_meters":23200,"station_id":"ce4bgk12rcd13ifvqbj0","pricing_plan_id":"cebpf4jnsgd1na2vs0mg"},{"bike_id":"ce8fed6a-16a7-46e1-b7c8-a4399b008734","system_id":"levelo_inurba_marseille","lat":43.2977,"lon":5.37721,"is_reserved":false,"is_disabled":false,"rental_uris":{"android":"levelo://app?vid=ce8fed6a-16a7-46e1-b7c8-a4399b008734","ios":"levelo://app?vid=ce8fed6a-16a7-46e1-b7c8-a4399b008734"},"vehicle_type_id":"4","last_reported":1719508161,"current_range_meters":22400,"station_id":"","pricing_plan_id":"cebpf4jnsgd1na2vs0mg"},{"bike_id":"4bf6d253-23fa-4468-8eb9-b2419c1332fb","system_id":"levelo_inurba_marseille","lat":43.296131,"lon":5.370791,"is_reserved":false,"is_disabled":false,"rental_uris":{"android":"levelo://app?vid=4bf6d253-23fa-4468-8eb9-b2419c1332fb","ios":"levelo://app?vid=4bf6d253-23fa-4468-8eb9-b2419c1332fb"},"vehicle_type_id":"4","last_reported":1719508161,"current_range_meters":12000,"station_id":"ce4bgnh2rcd13ifvqc0g","pricing_plan_id":"cebpf4jnsgd1na2vs0mg"},{"bike_id":"acee6817-395e-4665-9147-c5c1c6606285","system_id":"levelo_inurba_marseille","lat":43.29576,"lon":5.36744,"is_reserved":false,"is_disabled":false,"rental_uris":{"android":"levelo://app?vid=acee6817-395e-4665-9147-c5c1c6606285","ios":"levelo://app?vid=acee6817-395e-4665-9147-c5c1c6606285"},"vehicle_type_id":"4","last_reported":1719508161,"current_range_meters":23200,"station_id":"","pricing_plan_id":"cebpf4jnsgd1na2vs0mg"},{"bike_id":"bafb078b-c5c3-432b-bc28-f6d27ce247a2","system_id":"levelo_inurba_marseille","lat":43.299028,"lon":5.381509,"is_reserved":false,"is_disabled":false,"rental_uris":{"android":"levelo://app?vid=bafb078b-c5c3-432b-bc28-f6d27ce247a2","ios":"levelo://app?vid=bafb078b-c5c3-432b-bc28-f6d27ce247a2"},"vehicle_type_id":"4","last_reported":1719508161,"current_range_meters":11200,"station_id":"ce4bgj12rcd13ifvqbc0","pricing_plan_id":"cebpf4jnsgd1na2vs0mg"},{"bike_id":"c26ccbb3-4762-430e-911b-38d0b6bf5410","system_id":"levelo_inurba_marseille","lat":43.30952,"lon":5.39027,"is_reserved":false,"is_disabled":false,"rental_uris":{"android":"levelo://app?vid=c26ccbb3-4762-430e-911b-38d0b6bf5410","ios":"levelo://app?vid=c26ccbb3-4762-430e-911b-38d0b6bf5410"},"vehicle_type_id":"4","last_reported":1719508161,"current_range_meters":4400,"station_id":"ce4bgup2rcd13ifvqco0","pricing_plan_id":"cebpf4jnsgd1na2vs0mg"},{"bike_id":"edd8c95b-46c7-471c-85d6-66eeca4a166a","system_id":"levelo_inurba_marseille","lat":43.30949,"lon":5.39038,"is_reserved":false,"is_disabled":false,"rental_uris":{"android":"levelo://app?vid=edd8c95b-46c7-471c-85d6-66eeca4a166a","ios":"levelo://app?vid=edd8c95b-46c7-471c-85d6-66eeca4a166a"},"vehicle_type_id":"4","last_reported":1719508161,"current_range_meters":0,"station_id":"ce4bgup2rcd13ifvqco0","pricing_plan_id":"cebpf4jnsgd1na2vs0mg"},{"bike_id":"2f979e15-8582-4b4d-bcbb-880477aeeeb8","system_id":"levelo_inurba_marseille","lat":43.309521,"lon":5.390419,"is_reserved":false,"is_disabled":false,"rental_uris":{"android":"levelo://app?vid=2f979e15-8582-4b4d-bcbb-880477aeeeb8","ios":"levelo://app?vid=2f979e15-8582-4b4d-bcbb-880477aeeeb8"},"vehicle_type_id":"4","last_reported":1719508161,"current_range_meters":0,"station_id":"ce4bgup2rcd13ifvqco0","pricing_plan_id":"cebpf4jnsgd1na2vs0mg"},{"bike_id":"af752829-244b-4e12-a0af-cd9b1802d14c","system_id":"levelo_inurba_marseille","lat":43.29913,"lon":5.38267,"is_reserved":false,"is_disabled":false,"rental_uris":{"android":"levelo://app?vid=af752829-244b-4e12-a0af-cd9b1802d14c","ios":"levelo://app?vid=af752829-244b-4e12-a0af-cd9b1802d14c"},"vehicle_type_id":"4","last_reported":1719508161,"current_range_meters":20800,"station_id":"","pricing_plan_id":"cebpf4jnsgd1na2vs0mg"},{"bike_id":"aa72e006-1e52-4267-8f3a-bf7380dde86b","system_id":"levelo_inurba_marseille","lat":43.29575,"lon":5.37519,"is_reserved":false,"is_disabled":false,"rental_uris":{"android":"levelo://app?vid=aa72e006-1e52-4267-8f3a-bf7380dde86b","ios":"levelo://app?vid=aa72e006-1e52-4267-8f3a-bf7380dde86b"},"vehicle_type_id":"4","last_reported":1719508161,"current_range_meters":0,"station_id":"ce4bgh92rcd13ifvqb50","pricing_plan_id":"cebpf4jnsgd1na2vs0mg"},{"bike_id":"9b9fec3d-f370-43c5-8404-867ef21f0048","system_id":"levelo_inurba_marseille","lat":43.298037,"lon":5.381066,"is_reserved":false,"is_disabled":false,"rental_uris":{"android":"levelo://app?vid=9b9fec3d-f370-43c5-8404-867ef21f0048","ios":"levelo://app?vid=9b9fec3d-f370-43c5-8404-867ef21f0048"},"vehicle_type_id":"4","last_reported":1719508161,"current_range_meters":5600,"station_id":"ce4bgip2rcd13ifvqbb0","pricing_plan_id":"cebpf4jnsgd1na2vs0mg"},{"bike_id":"aae7a589-492e-42ed-8d5f-4c279b925d6c","system_id":"levelo_inurba_marseille","lat":43.304274,"lon":5.388873,"is_reserved":false,"is_disabled":false,"rental_uris":{"android":"levelo://app?vid=aae7a589-492e-42ed-8d5f-4c279b925d6c","ios":"levelo://app?vid=aae7a589-492e-42ed-8d5f-4c279b925d6c"},"vehicle_type_id":"4","last_reported":1719508161,"current_range_meters":4000,"station_id":"ce4bgk12rcd13ifvqbi0","pricing_plan_id":"cebpf4jnsgd1na2vs0mg"},{"bike_id":"8d8274a8-f93e-444a-a757-2b7c1a56af24","system_id":"levelo_inurba_marseille","lat":43.296277,"lon":5.377108,"is_reserved":false,"is_disabled":false,"rental_uris":{"android":"levelo://app?vid=8d8274a8-f93e-444a-a757-2b7c1a56af24","ios":"levelo://app?vid=8d8274a8-f93e-444a-a757-2b7c1a56af24"},"vehicle_type_id":"4","last_reported":1719508161,"current_range_meters":0,"station_id":"ce4bgi92rcd13ifvqb90","pricing_plan_id":"cebpf4jnsgd1na2vs0mg"},{"bike_id":"ca83ef54-270e-42c0-905c-9dd50aa044a1","system_id":"levelo_inurba_marseille","lat":43.296092,"lon":5.377008,"is_reserved":false,"is_disabled":false,"rental_uris":{"android":"levelo://app?vid=ca83ef54-270e-42c0-905c-9dd50aa044a1","ios":"levelo://app?vid=ca83ef54-270e-42c0-905c-9dd50aa044a1"},"vehicle_type_id":"4","last_reported":1719508161,"current_range_meters":27600,"station_id":"","pricing_plan_id":"cebpf4jnsgd1na2vs0mg"},{"bike_id":"c318e90e-2a36-4fe0-a6dc-2258b7262ee7","system_id":"levelo_inurba_marseille","lat":43.296277,"lon":5.377108,"is_reserved":false,"is_disabled":false,"rental_uris":{"android":"levelo://app?vid=c318e90e-2a36-4fe0-a6dc-2258b7262ee7","ios":"levelo://app?vid=c318e90e-2a36-4fe0-a6dc-2258b7262ee7"},"vehicle_type_id":"4","last_reported":1719508161,"current_range_meters":1600,"station_id":"ce4bgi92rcd13ifvqb90","pricing_plan_id":"cebpf4jnsgd1na2vs0mg"},{"bike_id":"62d4a86e-8bea-43ed-b933-0211fc906992","system_id":"levelo_inurba_marseille","lat":43.296263,"lon":5.377094,"is_reserved":false,"is_disabled":false,"rental_uris":{"android":"levelo://app?vid=62d4a86e-8bea-43ed-b933-0211fc906992","ios":"levelo://app?vid=62d4a86e-8bea-43ed-b933-0211fc906992"},"vehicle_type_id":"4","last_reported":1719508161,"current_range_meters":15600,"station_id":"ce4bgi92rcd13ifvqb90","pricing_plan_id":"cebpf4jnsgd1na2vs0mg"},{"bike_id":"1dd5cfc8-5ece-41b9-b499-3e4d712434ff","system_id":"levelo_inurba_marseille","lat":43.296263,"lon":5.377094,"is_reserved":false,"is_disabled":false,"rental_uris":{"android":"levelo://app?vid=1dd5cfc8-5ece-41b9-b499-3e4d712434ff","ios":"levelo://app?vid=1dd5cfc8-5ece-41b9-b499-3e4d712434ff"},"vehicle_type_id":"4","last_reported":1719508161,"current_range_meters":6400,"station_id":"ce4bgi92rcd13ifvqb90","pricing_plan_id":"cebpf4jnsgd1na2vs0mg"},{"bike_id":"5e936e5c-9c07-4125-89ff-e7f2f78021de","system_id":"levelo_inurba_marseille","lat":43.295279,"lon":5.375048,"is_reserved":false,"is_disabled":false,"rental_uris":{"android":"levelo://app?vid=5e936e5c-9c07-4125-89ff-e7f2f78021de","ios":"levelo://app?vid=5e936e5c-9c07-4125-89ff-e7f2f78021de"},"vehicle_type_id":"4","last_reported":1719508161,"current_range_meters":0,"station_id":"ce4bgkp2rcd13ifvqbmg","pricing_plan_id":"cebpf4jnsgd1na2vs0mg"},{"bike_id":"9b33cdf0-979f-4914-98e5-96e5e5f192e9","system_id":"levelo_inurba_marseille","lat":43.2997,"lon":5.38493,"is_reserved":false,"is_disabled":false,"rental_uris":{"android":"levelo://app?vid=9b33cdf0-979f-4914-98e5-96e5e5f192e9","ios":"levelo://app?vid=9b33cdf0-979f-4914-98e5-96e5e5f192e9"},"vehicle_type_id":"4","last_reported":1719508161,"current_range_meters":30800,"station_id":"ce4bgj92rcd13ifvqbd0","pricing_plan_id":"cebpf4jnsgd1na2vs0mg"},{"bike_id":"43dd7aa5-1172-4822-88bd-8afda98d6a27","system_id":"levelo_inurba_marseille","lat":43.29969,"lon":5.385,"is_reserved":false,"is_disabled":false,"rental_uris":{"android":"levelo://app?vid=43dd7aa5-1172-4822-88bd-8afda98d6a27","ios":"levelo://app?vid=43dd7aa5-1172-4822-88bd-8afda98d6a27"},"vehicle_type_id":"4","last_reported":1719508161,"current_range_meters":31200,"station_id":"ce4bgj92rcd13ifvqbd0","pricing_plan_id":"cebpf4jnsgd1na2vs0mg"},{"bike_id":"690ce407-2d69-4b02-891d-273b2ded0930","system_id":"levelo_inurba_marseille","lat":43.299724,"lon":5.384848,"is_reserved":false,"is_disabled":false,"rental_uris":{"android":"levelo://app?vid=690ce407-2d69-4b02-891d-273b2ded0930","ios":"levelo://app?vid=690ce407-2d69-4b02-891d-273b2ded0930"},"vehicle_type_id":"4","last_reported":1719508161,"current_range_meters":6400,"station_id":"ce4bgj92rcd13ifvqbd0","pricing_plan_id":"cebpf4jnsgd1na2vs0mg"},{"bike_id":"f8741bb7-506c-45a2-adf4-c7203aa9643e","system_id":"levelo_inurba_marseille","lat":43.299717,"lon":5.384845,"is_reserved":false,"is_disabled":false,"rental_uris":{"android":"levelo://app?vid=f8741bb7-506c-45a2-adf4-c7203aa9643e","ios":"levelo://app?vid=f8741bb7-506c-45a2-adf4-c7203aa9643e"},"vehicle_type_id":"4","last_reported":1719508161,"current_range_meters":8400,"station_id":"ce4bgj92rcd13ifvqbd0","pricing_plan_id":"cebpf4jnsgd1na2vs0mg"},{"bike_id":"db92b14e-dca8-4f84-a664-fee1bd503b87","system_id":"levelo_inurba_marseille","lat":43.299724,"lon":5.384848,"is_reserved":false,"is_disabled":false,"rental_uris":{"android":"levelo://app?vid=db92b14e-dca8-4f84-a664-fee1bd503b87","ios":"levelo://app?vid=db92b14e-dca8-4f84-a664-fee1bd503b87"},"vehicle_type_id":"4","last_reported":1719508161,"current_range_meters":30800,"station_id":"ce4bgj92rcd13ifvqbd0","pricing_plan_id":"cebpf4jnsgd1na2vs0mg"},{"bike_id":"e0543bb4-cb63-4ff0-a132-be33f3c17853","system_id":"levelo_inurba_marseille","lat":43.29969,"lon":5.38506,"is_reserved":false,"is_disabled":false,"rental_uris":{"android":"levelo://app?vid=e0543bb4-cb63-4ff0-a132-be33f3c17853","ios":"levelo://app?vid=e0543bb4-cb63-4ff0-a132-be33f3c17853"},"vehicle_type_id":"4","last_reported":1719508161,"current_range_meters":31200,"station_id":"ce4bgj92rcd13ifvqbd0","pricing_plan_id":"cebpf4jnsgd1na2vs0mg"},{"bike_id":"1c977efc-cf5d-4ebc-80e7-2dd7cf774c33","system_id":"levelo_inurba_marseille","lat":43.299724,"lon":5.384848,"is_reserved":false,"is_disabled":false,"rental_uris":{"android":"levelo://app?vid=1c977efc-cf5d-4ebc-80e7-2dd7cf774c33","ios":"levelo://app?vid=1c977efc-cf5d-4ebc-80e7-2dd7cf774c33"},"vehicle_type_id":"4","last_reported":1719508161,"current_range_meters":15600,"station_id":"ce4bgj92rcd13ifvqbd0","pricing_plan_id":"cebpf4jnsgd1na2vs0mg"},{"bike_id":"0cee56bb-2de2-4452-966f-277c40fa29fe","system_id":"levelo_inurba_marseille","lat":43.28856,"lon":5.358371,"is_reserved":false,"is_disabled":false,"rental_uris":{"android":"levelo://app?vid=0cee56bb-2de2-4452-966f-277c40fa29fe","ios":"levelo://app?vid=0cee56bb-2de2-4452-966f-277c40fa29fe"},"vehicle_type_id":"4","last_reported":1719508161,"current_range_meters":1200,"station_id":"ce4bhb12rcd13ifvqem0","pricing_plan_id":"cebpf4jnsgd1na2vs0mg"},{"bike_id":"0f477ff0-3bae-4faf-b7b4-e17c212e3c41","system_id":"levelo_inurba_marseille","lat":43.32367,"lon":5.388836,"is_reserved":false,"is_disabled":false,"rental_uris":{"android":"levelo://app?vid=0f477ff0-3bae-4faf-b7b4-e17c212e3c41","ios":"levelo://app?vid=0f477ff0-3bae-4faf-b7b4-e17c212e3c41"},"vehicle_type_id":"4","last_reported":1719508161,"current_range_meters":0,"station_id":"ce4bhqp2rcd13ifvqhog","pricing_plan_id":"cebpf4jnsgd1na2vs0mg"},{"bike_id":"c5d66b03-e383-466c-997c-38720ee51cfc","system_id":"levelo_inurba_marseille","lat":43.29298,"lon":5.369026,"is_reserved":false,"is_disabled":false,"rental_uris":{"android":"levelo://app?vid=c5d66b03-e383-466c-997c-38720ee51cfc","ios":"levelo://app?vid=c5d66b03-e383-466c-997c-38720ee51cfc"},"vehicle_type_id":"4","last_reported":1719508161,"current_range_meters":2000,"station_id":"","pricing_plan_id":"cebpf4jnsgd1na2vs0mg"},{"bike_id":"0f162109-2905-4e45-9b6d-12dc639b31bc","system_id":"levelo_inurba_marseille","lat":43.29283,"lon":5.36843,"is_reserved":false,"is_disabled":false,"rental_uris":{"android":"levelo://app?vid=0f162109-2905-4e45-9b6d-12dc639b31bc","ios":"levelo://app?vid=0f162109-2905-4e45-9b6d-12dc639b31bc"},"vehicle_type_id":"4","last_reported":1719508161,"current_range_meters":30400,"station_id":"ce4bhbp2rcd13ifvqesg","pricing_plan_id":"cebpf4jnsgd1na2vs0mg"},{"bike_id":"c74145ba-777c-469e-8f6f-9cc87894b6da","system_id":"levelo_inurba_marseille","lat":43.293249,"lon":5.371578,"is_reserved":false,"is_disabled":false,"rental_uris":{"android":"levelo://app?vid=c74145ba-777c-469e-8f6f-9cc87894b6da","ios":"levelo://app?vid=c74145ba-777c-469e-8f6f-9cc87894b6da"},"vehicle_type_id":"4","last_reported":1719508161,"current_range_meters":0,"station_id":"ce4bgh92rcd13ifvqb40","pricing_plan_id":"cebpf4jnsgd1na2vs0mg"},{"bike_id":"e558a073-45bd-49c3-bfae-30309542228e","system_id":"levelo_inurba_marseille","lat":43.292749,"lon":5.368402,"is_reserved":false,"is_disabled":false,"rental_uris":{"android":"levelo://app?vid=e558a073-45bd-49c3-bfae-30309542228e","ios":"levelo://app?vid=e558a073-45bd-49c3-bfae-30309542228e"},"vehicle_type_id":"4","last_reported":1719508161,"current_range_meters":0,"station_id":"ce4bhbp2rcd13ifvqesg","pricing_plan_id":"cebpf4jnsgd1na2vs0mg"},{"bike_id":"6deb38c4-1eed-4e17-8da0-a4644a7375ac","system_id":"levelo_inurba_marseille","lat":43.292767,"lon":5.368386,"is_reserved":false,"is_disabled":false,"rental_uris":{"android":"levelo://app?vid=6deb38c4-1eed-4e17-8da0-a4644a7375ac","ios":"levelo://app?vid=6deb38c4-1eed-4e17-8da0-a4644a7375ac"},"vehicle_type_id":"4","last_reported":1719508161,"current_range_meters":30800,"station_id":"ce4bhbp2rcd13ifvqesg","pricing_plan_id":"cebpf4jnsgd1na2vs0mg"},{"bike_id":"a7b6f97f-60ab-45e6-a16c-2df2b44efc46","system_id":"levelo_inurba_marseille","lat":43.293249,"lon":5.371578,"is_reserved":false,"is_disabled":false,"rental_uris":{"android":"levelo://app?vid=a7b6f97f-60ab-45e6-a16c-2df2b44efc46","ios":"levelo://app?vid=a7b6f97f-60ab-45e6-a16c-2df2b44efc46"},"vehicle_type_id":"4","last_reported":1719508161,"current_range_meters":30000,"station_id":"ce4bgh92rcd13ifvqb40","pricing_plan_id":"cebpf4jnsgd1na2vs0mg"},{"bike_id":"002efbf6-3eeb-4baa-adbe-21a4082723e8","system_id":"levelo_inurba_marseille","lat":43.29276,"lon":5.36842,"is_reserved":false,"is_disabled":false,"rental_uris":{"android":"levelo://app?vid=002efbf6-3eeb-4baa-adbe-21a4082723e8","ios":"levelo://app?vid=002efbf6-3eeb-4baa-adbe-21a4082723e8"},"vehicle_type_id":"4","last_reported":1719508161,"current_range_meters":0,"station_id":"ce4bhbp2rcd13ifvqesg","pricing_plan_id":"cebpf4jnsgd1na2vs0mg"},{"bike_id":"2ec39e1e-ed50-44c7-95c9-7db40a43b9b3","system_id":"levelo_inurba_marseille","lat":43.292749,"lon":5.368402,"is_reserved":false,"is_disabled":false,"rental_uris":{"android":"levelo://app?vid=2ec39e1e-ed50-44c7-95c9-7db40a43b9b3","ios":"levelo://app?vid=2ec39e1e-ed50-44c7-95c9-7db40a43b9b3"},"vehicle_type_id":"4","last_reported":1719508161,"current_range_meters":400,"station_id":"ce4bhbp2rcd13ifvqesg","pricing_plan_id":"cebpf4jnsgd1na2vs0mg"},{"bike_id":"d874d2e6-9f1b-4922-8960-776f2d0061da","system_id":"levelo_inurba_marseille","lat":43.29302,"lon":5.37173,"is_reserved":false,"is_disabled":false,"rental_uris":{"android":"levelo://app?vid=d874d2e6-9f1b-4922-8960-776f2d0061da","ios":"levelo://app?vid=d874d2e6-9f1b-4922-8960-776f2d0061da"},"vehicle_type_id":"4","last_reported":1719508161,"current_range_meters":2800,"station_id":"ce4bgh92rcd13ifvqb40","pricing_plan_id":"cebpf4jnsgd1na2vs0mg"},{"bike_id":"eb9e70c8-326b-4363-b166-fc333387b09e","system_id":"levelo_inurba_marseille","lat":43.292749,"lon":5.368402,"is_reserved":false,"is_disabled":false,"rental_uris":{"android":"levelo://app?vid=eb9e70c8-326b-4363-b166-fc333387b09e","ios":"levelo://app?vid=eb9e70c8-326b-4363-b166-fc333387b09e"},"vehicle_type_id":"4","last_reported":1719508161,"current_range_meters":0,"station_id":"ce4bhbp2rcd13ifvqesg","pricing_plan_id":"cebpf4jnsgd1na2vs0mg"},{"bike_id":"96c3f030-f395-490b-bfba-dcf1c26e7cd4","system_id":"levelo_inurba_marseille","lat":43.292749,"lon":5.368402,"is_reserved":false,"is_disabled":false,"rental_uris":{"android":"levelo://app?vid=96c3f030-f395-490b-bfba-dcf1c26e7cd4","ios":"levelo://app?vid=96c3f030-f395-490b-bfba-dcf1c26e7cd4"},"vehicle_type_id":"4","last_reported":1719508161,"current_range_meters":3200,"station_id":"ce4bhbp2rcd13ifvqesg","pricing_plan_id":"cebpf4jnsgd1na2vs0mg"},{"bike_id":"0eb6fef4-5a38-44c4-8645-010b4b98ba6b","system_id":"levelo_inurba_marseille","lat":43.292749,"lon":5.368402,"is_reserved":false,"is_disabled":false,"rental_uris":{"android":"levelo://app?vid=0eb6fef4-5a38-44c4-8645-010b4b98ba6b","ios":"levelo://app?vid=0eb6fef4-5a38-44c4-8645-010b4b98ba6b"},"vehicle_type_id":"4","last_reported":1719508161,"current_range_meters":0,"station_id":"ce4bhbp2rcd13ifvqesg","pricing_plan_id":"cebpf4jnsgd1na2vs0mg"},{"bike_id":"6e8469aa-bd9e-4e18-ac2a-b34c1a9f46ba","system_id":"levelo_inurba_marseille","lat":43.292749,"lon":5.368402,"is_reserved":false,"is_disabled":false,"rental_uris":{"android":"levelo://app?vid=6e8469aa-bd9e-4e18-ac2a-b34c1a9f46ba","ios":"levelo://app?vid=6e8469aa-bd9e-4e18-ac2a-b34c1a9f46ba"},"vehicle_type_id":"4","last_reported":1719508161,"current_range_meters":4800,"station_id":"ce4bhbp2rcd13ifvqesg","pricing_plan_id":"cebpf4jnsgd1na2vs0mg"},{"bike_id":"c175d5af-f83a-4e13-92a8-01ff0e71b2db","system_id":"levelo_inurba_marseille","lat":43.29308,"lon":5.37451,"is_reserved":false,"is_disabled":false,"rental_uris":{"android":"levelo://app?vid=c175d5af-f83a-4e13-92a8-01ff0e71b2db","ios":"levelo://app?vid=c175d5af-f83a-4e13-92a8-01ff0e71b2db"},"vehicle_type_id":"4","last_reported":1719508161,"current_range_meters":30400,"station_id":"ce4bgi12rcd13ifvqb70","pricing_plan_id":"cebpf4jnsgd1na2vs0mg"},{"bike_id":"32b72cfb-d17f-4f2b-8b47-ef83f2e1b8f9","system_id":"levelo_inurba_marseille","lat":43.293009,"lon":5.374584,"is_reserved":false,"is_disabled":false,"rental_uris":{"android":"levelo://app?vid=32b72cfb-d17f-4f2b-8b47-ef83f2e1b8f9","ios":"levelo://app?vid=32b72cfb-d17f-4f2b-8b47-ef83f2e1b8f9"},"vehicle_type_id":"4","last_reported":1719508161,"current_range_meters":0,"station_id":"ce4bgi12rcd13ifvqb70","pricing_plan_id":"cebpf4jnsgd1na2vs0mg"},{"bike_id":"e2cde776-ecf5-4345-805c-293ca2cc60bf","system_id":"levelo_inurba_marseille","lat":43.293,"lon":5.37456,"is_reserved":false,"is_disabled":false,"rental_uris":{"android":"levelo://app?vid=e2cde776-ecf5-4345-805c-293ca2cc60bf","ios":"levelo://app?vid=e2cde776-ecf5-4345-805c-293ca2cc60bf"},"vehicle_type_id":"4","last_reported":1719508161,"current_range_meters":0,"station_id":"ce4bgi12rcd13ifvqb70","pricing_plan_id":"cebpf4jnsgd1na2vs0mg"},{"bike_id":"42a46dc2-1b69-41e3-a288-dd52c774c076","system_id":"levelo_inurba_marseille","lat":43.292311,"lon":5.360731,"is_reserved":false,"is_disabled":false,"rental_uris":{"android":"levelo://app?vid=42a46dc2-1b69-41e3-a288-dd52c774c076","ios":"levelo://app?vid=42a46dc2-1b69-41e3-a288-dd52c774c076"},"vehicle_type_id":"4","last_reported":1719508161,"current_range_meters":3600,"station_id":"ce4bhbh2rcd13ifvqeqg","pricing_plan_id":"cebpf4jnsgd1na2vs0mg"},{"bike_id":"fff3ef0d-c0fc-4872-84d2-a1fc0bd4a467","system_id":"levelo_inurba_marseille","lat":43.2936,"lon":5.37835,"is_reserved":false,"is_disabled":false,"rental_uris":{"android":"levelo://app?vid=fff3ef0d-c0fc-4872-84d2-a1fc0bd4a467","ios":"levelo://app?vid=fff3ef0d-c0fc-4872-84d2-a1fc0bd4a467"},"vehicle_type_id":"4","last_reported":1719508161,"current_range_meters":18400,"station_id":"ce4bgjh2rcd13ifvqbf0","pricing_plan_id":"cebpf4jnsgd1na2vs0mg"},{"bike_id":"6a6d5e15-f643-40f2-86bb-6e169f834247","system_id":"levelo_inurba_marseille","lat":43.292311,"lon":5.360731,"is_reserved":false,"is_disabled":false,"rental_uris":{"android":"levelo://app?vid=6a6d5e15-f643-40f2-86bb-6e169f834247","ios":"levelo://app?vid=6a6d5e15-f643-40f2-86bb-6e169f834247"},"vehicle_type_id":"4","last_reported":1719508161,"current_range_meters":0,"station_id":"ce4bhbh2rcd13ifvqeqg","pricing_plan_id":"cebpf4jnsgd1na2vs0mg"},{"bike_id":"e87514b6-6c1b-4617-9bf2-01da197a1e7f","system_id":"levelo_inurba_marseille","lat":43.292311,"lon":5.360731,"is_reserved":false,"is_disabled":false,"rental_uris":{"android":"levelo://app?vid=e87514b6-6c1b-4617-9bf2-01da197a1e7f","ios":"levelo://app?vid=e87514b6-6c1b-4617-9bf2-01da197a1e7f"},"vehicle_type_id":"4","last_reported":1719508161,"current_range_meters":16800,"station_id":"ce4bhbh2rcd13ifvqeqg","pricing_plan_id":"cebpf4jnsgd1na2vs0mg"},{"bike_id":"0e715946-6000-4815-85de-432198058d05","system_id":"levelo_inurba_marseille","lat":43.30077,"lon":5.39101,"is_reserved":false,"is_disabled":false,"rental_uris":{"android":"levelo://app?vid=0e715946-6000-4815-85de-432198058d05","ios":"levelo://app?vid=0e715946-6000-4815-85de-432198058d05"},"vehicle_type_id":"4","last_reported":1719508161,"current_range_meters":800,"station_id":"ce4bh192rcd13ifvqdb0","pricing_plan_id":"cebpf4jnsgd1na2vs0mg"},{"bike_id":"9c3b9cb5-9357-45a0-9d65-a4215f2addc8","system_id":"levelo_inurba_marseille","lat":43.298764,"lon":5.388973,"is_reserved":false,"is_disabled":false,"rental_uris":{"android":"levelo://app?vid=9c3b9cb5-9357-45a0-9d65-a4215f2addc8","ios":"levelo://app?vid=9c3b9cb5-9357-45a0-9d65-a4215f2addc8"},"vehicle_type_id":"4","last_reported":1719508161,"current_range_meters":2800,"station_id":"ce4bh392rcd13ifvqdl0","pricing_plan_id":"cebpf4jnsgd1na2vs0mg"},{"bike_id":"8091eaaf-94d4-49a2-9844-886ede1e3d68","system_id":"levelo_inurba_marseille","lat":43.291675,"lon":5.371583,"is_reserved":false,"is_disabled":false,"rental_uris":{"android":"levelo://app?vid=8091eaaf-94d4-49a2-9844-886ede1e3d68","ios":"levelo://app?vid=8091eaaf-94d4-49a2-9844-886ede1e3d68"},"vehicle_type_id":"4","last_reported":1719508161,"current_range_meters":23200,"station_id":"ce4bha92rcd13ifvqeh0","pricing_plan_id":"cebpf4jnsgd1na2vs0mg"},{"bike_id":"76b06b8d-e403-4178-a02b-cab8cfcf58a5","system_id":"levelo_inurba_marseille","lat":43.298764,"lon":5.388973,"is_reserved":false,"is_disabled":false,"rental_uris":{"android":"levelo://app?vid=76b06b8d-e403-4178-a02b-cab8cfcf58a5","ios":"levelo://app?vid=76b06b8d-e403-4178-a02b-cab8cfcf58a5"},"vehicle_type_id":"4","last_reported":1719508161,"current_range_meters":16400,"station_id":"ce4bh392rcd13ifvqdl0","pricing_plan_id":"cebpf4jnsgd1na2vs0mg"},{"bike_id":"b79cbfa3-6e41-465e-bfe6-841aac045843","system_id":"levelo_inurba_marseille","lat":43.291671,"lon":5.371575,"is_reserved":false,"is_disabled":false,"rental_uris":{"android":"levelo://app?vid=b79cbfa3-6e41-465e-bfe6-841aac045843","ios":"levelo://app?vid=b79cbfa3-6e41-465e-bfe6-841aac045843"},"vehicle_type_id":"4","last_reported":1719508161,"current_range_meters":15600,"station_id":"ce4bha92rcd13ifvqeh0","pricing_plan_id":"cebpf4jnsgd1na2vs0mg"},{"bike_id":"2099b09e-c4eb-4bee-88c9-baa8bb0f407d","system_id":"levelo_inurba_marseille","lat":43.298764,"lon":5.388973,"is_reserved":false,"is_disabled":false,"rental_uris":{"android":"levelo://app?vid=2099b09e-c4eb-4bee-88c9-baa8bb0f407d","ios":"levelo://app?vid=2099b09e-c4eb-4bee-88c9-baa8bb0f407d"},"vehicle_type_id":"4","last_reported":1719508161,"current_range_meters":0,"station_id":"ce4bh392rcd13ifvqdl0","pricing_plan_id":"cebpf4jnsgd1na2vs0mg"},{"bike_id":"1cd0bca0-7434-484a-8704-0efdb8f2b11d","system_id":"levelo_inurba_marseille","lat":43.29866,"lon":5.38907,"is_reserved":false,"is_disabled":false,"rental_uris":{"android":"levelo://app?vid=1cd0bca0-7434-484a-8704-0efdb8f2b11d","ios":"levelo://app?vid=1cd0bca0-7434-484a-8704-0efdb8f2b11d"},"vehicle_type_id":"4","last_reported":1719508161,"current_range_meters":0,"station_id":"ce4bh392rcd13ifvqdl0","pricing_plan_id":"cebpf4jnsgd1na2vs0mg"},{"bike_id":"7250e77e-9dda-4a01-92bc-7265aab79931","system_id":"levelo_inurba_marseille","lat":43.298033,"lon":5.388322,"is_reserved":false,"is_disabled":false,"rental_uris":{"android":"levelo://app?vid=7250e77e-9dda-4a01-92bc-7265aab79931","ios":"levelo://app?vid=7250e77e-9dda-4a01-92bc-7265aab79931"},"vehicle_type_id":"4","last_reported":1719508161,"current_range_meters":8800,"station_id":"","pricing_plan_id":"cebpf4jnsgd1na2vs0mg"},{"bike_id":"12fb9241-d1d0-4f50-a032-20c116fc6ad2","system_id":"levelo_inurba_marseille","lat":43.313291,"lon":5.396838,"is_reserved":false,"is_disabled":false,"rental_uris":{"android":"levelo://app?vid=12fb9241-d1d0-4f50-a032-20c116fc6ad2","ios":"levelo://app?vid=12fb9241-d1d0-4f50-a032-20c116fc6ad2"},"vehicle_type_id":"4","last_reported":1719508161,"current_range_meters":17600,"station_id":"ce4bgvp2rcd13ifvqcu0","pricing_plan_id":"cebpf4jnsgd1na2vs0mg"},{"bike_id":"b16f4e74-2892-487a-8b4f-38724e7d7a59","system_id":"levelo_inurba_marseille","lat":43.292005,"lon":5.357875,"is_reserved":false,"is_disabled":false,"rental_uris":{"android":"levelo://app?vid=b16f4e74-2892-487a-8b4f-38724e7d7a59","ios":"levelo://app?vid=b16f4e74-2892-487a-8b4f-38724e7d7a59"},"vehicle_type_id":"4","last_reported":1719508161,"current_range_meters":7200,"station_id":"ce4bhb12rcd13ifvqel0","pricing_plan_id":"cebpf4jnsgd1na2vs0mg"},{"bike_id":"6c2b4128-c03f-45aa-8ccd-de6a8b2cac4f","system_id":"levelo_inurba_marseille","lat":43.292005,"lon":5.357875,"is_reserved":false,"is_disabled":false,"rental_uris":{"android":"levelo://app?vid=6c2b4128-c03f-45aa-8ccd-de6a8b2cac4f","ios":"levelo://app?vid=6c2b4128-c03f-45aa-8ccd-de6a8b2cac4f"},"vehicle_type_id":"4","last_reported":1719508161,"current_range_meters":18000,"station_id":"ce4bhb12rcd13ifvqel0","pricing_plan_id":"cebpf4jnsgd1na2vs0mg"},{"bike_id":"e1ae2f6c-a6d4-443e-9da4-1507ae562900","system_id":"levelo_inurba_marseille","lat":43.313291,"lon":5.396838,"is_reserved":false,"is_disabled":false,"rental_uris":{"android":"levelo://app?vid=e1ae2f6c-a6d4-443e-9da4-1507ae562900","ios":"levelo://app?vid=e1ae2f6c-a6d4-443e-9da4-1507ae562900"},"vehicle_type_id":"4","last_reported":1719508161,"current_range_meters":9200,"station_id":"ce4bgvp2rcd13ifvqcu0","pricing_plan_id":"cebpf4jnsgd1na2vs0mg"},{"bike_id":"bcbb971c-908f-4c0b-9db7-fb6f405fa660","system_id":"levelo_inurba_marseille","lat":43.291994,"lon":5.357886,"is_reserved":false,"is_disabled":false,"rental_uris":{"android":"levelo://app?vid=bcbb971c-908f-4c0b-9db7-fb6f405fa660","ios":"levelo://app?vid=bcbb971c-908f-4c0b-9db7-fb6f405fa660"},"vehicle_type_id":"4","last_reported":1719508161,"current_range_meters":400,"station_id":"ce4bhb12rcd13ifvqel0","pricing_plan_id":"cebpf4jnsgd1na2vs0mg"},{"bike_id":"38ab8348-ea30-4fd0-b2bb-5492b9f65d33","system_id":"levelo_inurba_marseille","lat":43.309038,"lon":5.396546,"is_reserved":false,"is_disabled":false,"rental_uris":{"android":"levelo://app?vid=38ab8348-ea30-4fd0-b2bb-5492b9f65d33","ios":"levelo://app?vid=38ab8348-ea30-4fd0-b2bb-5492b9f65d33"},"vehicle_type_id":"4","last_reported":1719508161,"current_range_meters":0,"station_id":"ce4bh012rcd13ifvqcv0","pricing_plan_id":"cebpf4jnsgd1na2vs0mg"},{"bike_id":"47687dcf-4325-408e-9342-05c676c52eb1","system_id":"levelo_inurba_marseille","lat":43.291994,"lon":5.357886,"is_reserved":false,"is_disabled":false,"rental_uris":{"android":"levelo://app?vid=47687dcf-4325-408e-9342-05c676c52eb1","ios":"levelo://app?vid=47687dcf-4325-408e-9342-05c676c52eb1"},"vehicle_type_id":"4","last_reported":1719508161,"current_range_meters":15200,"station_id":"ce4bhb12rcd13ifvqel0","pricing_plan_id":"cebpf4jnsgd1na2vs0mg"},{"bike_id":"039f911b-cd19-4975-b04c-5c9365d44576","system_id":"levelo_inurba_marseille","lat":43.313291,"lon":5.396838,"is_reserved":false,"is_disabled":false,"rental_uris":{"android":"levelo://app?vid=039f911b-cd19-4975-b04c-5c9365d44576","ios":"levelo://app?vid=039f911b-cd19-4975-b04c-5c9365d44576"},"vehicle_type_id":"4","last_reported":1719508161,"current_range_meters":3200,"station_id":"ce4bgvp2rcd13ifvqcu0","pricing_plan_id":"cebpf4jnsgd1na2vs0mg"},{"bike_id":"5b9e4634-99ba-4cb1-aa03-a16e6d2098db","system_id":"levelo_inurba_marseille","lat":43.309038,"lon":5.396546,"is_reserved":false,"is_disabled":false,"rental_uris":{"android":"levelo://app?vid=5b9e4634-99ba-4cb1-aa03-a16e6d2098db","ios":"levelo://app?vid=5b9e4634-99ba-4cb1-aa03-a16e6d2098db"},"vehicle_type_id":"4","last_reported":1719508161,"current_range_meters":8400,"station_id":"ce4bh012rcd13ifvqcv0","pricing_plan_id":"cebpf4jnsgd1na2vs0mg"},{"bike_id":"7300c321-7232-4add-bb67-3488359cb4d2","system_id":"levelo_inurba_marseille","lat":43.313291,"lon":5.396838,"is_reserved":false,"is_disabled":false,"rental_uris":{"android":"levelo://app?vid=7300c321-7232-4add-bb67-3488359cb4d2","ios":"levelo://app?vid=7300c321-7232-4add-bb67-3488359cb4d2"},"vehicle_type_id":"4","last_reported":1719508161,"current_range_meters":21200,"station_id":"ce4bgvp2rcd13ifvqcu0","pricing_plan_id":"cebpf4jnsgd1na2vs0mg"},{"bike_id":"f0860d1f-2ed8-4821-9339-e8b6b9f7a42b","system_id":"levelo_inurba_marseille","lat":43.313291,"lon":5.396838,"is_reserved":false,"is_disabled":false,"rental_uris":{"android":"levelo://app?vid=f0860d1f-2ed8-4821-9339-e8b6b9f7a42b","ios":"levelo://app?vid=f0860d1f-2ed8-4821-9339-e8b6b9f7a42b"},"vehicle_type_id":"4","last_reported":1719508161,"current_range_meters":9600,"station_id":"ce4bgvp2rcd13ifvqcu0","pricing_plan_id":"cebpf4jnsgd1na2vs0mg"},{"bike_id":"60d0db4f-2ca0-4e93-b93c-958a9880bf5c","system_id":"levelo_inurba_marseille","lat":43.313291,"lon":5.396838,"is_reserved":false,"is_disabled":false,"rental_uris":{"android":"levelo://app?vid=60d0db4f-2ca0-4e93-b93c-958a9880bf5c","ios":"levelo://app?vid=60d0db4f-2ca0-4e93-b93c-958a9880bf5c"},"vehicle_type_id":"4","last_reported":1719508161,"current_range_meters":12800,"station_id":"ce4bgvp2rcd13ifvqcu0","pricing_plan_id":"cebpf4jnsgd1na2vs0mg"},{"bike_id":"d2675995-83b2-4446-9018-1630644ae2e4","system_id":"levelo_inurba_marseille","lat":43.313291,"lon":5.396838,"is_reserved":false,"is_disabled":false,"rental_uris":{"android":"levelo://app?vid=d2675995-83b2-4446-9018-1630644ae2e4","ios":"levelo://app?vid=d2675995-83b2-4446-9018-1630644ae2e4"},"vehicle_type_id":"4","last_reported":1719508161,"current_range_meters":4800,"station_id":"ce4bgvp2rcd13ifvqcu0","pricing_plan_id":"cebpf4jnsgd1na2vs0mg"},{"bike_id":"67c81428-222a-457d-b85c-eeed8ded879c","system_id":"levelo_inurba_marseille","lat":43.309038,"lon":5.396546,"is_reserved":false,"is_disabled":false,"rental_uris":{"android":"levelo://app?vid=67c81428-222a-457d-b85c-eeed8ded879c","ios":"levelo://app?vid=67c81428-222a-457d-b85c-eeed8ded879c"},"vehicle_type_id":"4","last_reported":1719508161,"current_range_meters":18800,"station_id":"ce4bh012rcd13ifvqcv0","pricing_plan_id":"cebpf4jnsgd1na2vs0mg"},{"bike_id":"d2ba8c66-8368-4987-94ef-d8ba10a99b43","system_id":"levelo_inurba_marseille","lat":43.309047,"lon":5.396551,"is_reserved":false,"is_disabled":false,"rental_uris":{"android":"levelo://app?vid=d2ba8c66-8368-4987-94ef-d8ba10a99b43","ios":"levelo://app?vid=d2ba8c66-8368-4987-94ef-d8ba10a99b43"},"vehicle_type_id":"4","last_reported":1719508161,"current_range_meters":5600,"station_id":"ce4bh012rcd13ifvqcv0","pricing_plan_id":"cebpf4jnsgd1na2vs0mg"},{"bike_id":"92921b19-ca1d-4cd1-8dd2-b8a957857417","system_id":"levelo_inurba_marseille","lat":43.29529,"lon":5.385581,"is_reserved":false,"is_disabled":false,"rental_uris":{"android":"levelo://app?vid=92921b19-ca1d-4cd1-8dd2-b8a957857417","ios":"levelo://app?vid=92921b19-ca1d-4cd1-8dd2-b8a957857417"},"vehicle_type_id":"4","last_reported":1719508161,"current_range_meters":8000,"station_id":"ce4bgih2rcd13ifvqba0","pricing_plan_id":"cebpf4jnsgd1na2vs0mg"},{"bike_id":"82210e6d-39c2-4946-b022-38fd7c92db3f","system_id":"levelo_inurba_marseille","lat":43.30152,"lon":5.39299,"is_reserved":false,"is_disabled":false,"rental_uris":{"android":"levelo://app?vid=82210e6d-39c2-4946-b022-38fd7c92db3f","ios":"levelo://app?vid=82210e6d-39c2-4946-b022-38fd7c92db3f"},"vehicle_type_id":"4","last_reported":1719508161,"current_range_meters":4000,"station_id":"","pricing_plan_id":"cebpf4jnsgd1na2vs0mg"},{"bike_id":"0c5a7600-586c-4be3-aa18-6ad11d9b180e","system_id":"levelo_inurba_marseille","lat":43.29527,"lon":5.38547,"is_reserved":false,"is_disabled":false,"rental_uris":{"android":"levelo://app?vid=0c5a7600-586c-4be3-aa18-6ad11d9b180e","ios":"levelo://app?vid=0c5a7600-586c-4be3-aa18-6ad11d9b180e"},"vehicle_type_id":"4","last_reported":1719508161,"current_range_meters":23600,"station_id":"","pricing_plan_id":"cebpf4jnsgd1na2vs0mg"},{"bike_id":"5ff38f9c-573d-411a-a2a8-8f0d2c2ba732","system_id":"levelo_inurba_marseille","lat":43.291165,"lon":5.35844,"is_reserved":false,"is_disabled":false,"rental_uris":{"android":"levelo://app?vid=5ff38f9c-573d-411a-a2a8-8f0d2c2ba732","ios":"levelo://app?vid=5ff38f9c-573d-411a-a2a8-8f0d2c2ba732"},"vehicle_type_id":"4","last_reported":1719508161,"current_range_meters":0,"station_id":"","pricing_plan_id":"cebpf4jnsgd1na2vs0mg"},{"bike_id":"4a94410f-4cd0-41af-95cb-4edeba7e486c","system_id":"levelo_inurba_marseille","lat":43.334989,"lon":5.362271,"is_reserved":false,"is_disabled":false,"rental_uris":{"android":"levelo://app?vid=4a94410f-4cd0-41af-95cb-4edeba7e486c","ios":"levelo://app?vid=4a94410f-4cd0-41af-95cb-4edeba7e486c"},"vehicle_type_id":"4","last_reported":1719508161,"current_range_meters":30800,"station_id":"","pricing_plan_id":"cebpf4jnsgd1na2vs0mg"},{"bike_id":"57a86eca-020d-4366-90c3-b580df9085bf","system_id":"levelo_inurba_marseille","lat":43.294153,"lon":5.386305,"is_reserved":false,"is_disabled":false,"rental_uris":{"android":"levelo://app?vid=57a86eca-020d-4366-90c3-b580df9085bf","ios":"levelo://app?vid=57a86eca-020d-4366-90c3-b580df9085bf"},"vehicle_type_id":"4","last_reported":1719508161,"current_range_meters":20800,"station_id":"ce4bh2h2rcd13ifvqdh0","pricing_plan_id":"cebpf4jnsgd1na2vs0mg"},{"bike_id":"7169ee60-d006-4070-956c-5b7c479289c1","system_id":"levelo_inurba_marseille","lat":43.294153,"lon":5.386305,"is_reserved":false,"is_disabled":false,"rental_uris":{"android":"levelo://app?vid=7169ee60-d006-4070-956c-5b7c479289c1","ios":"levelo://app?vid=7169ee60-d006-4070-956c-5b7c479289c1"},"vehicle_type_id":"4","last_reported":1719508161,"current_range_meters":18000,"station_id":"ce4bh2h2rcd13ifvqdh0","pricing_plan_id":"cebpf4jnsgd1na2vs0mg"},{"bike_id":"21b4ba2e-ffc5-421d-af87-baa6df835853","system_id":"levelo_inurba_marseille","lat":43.290327,"lon":5.375711,"is_reserved":false,"is_disabled":false,"rental_uris":{"android":"levelo://app?vid=21b4ba2e-ffc5-421d-af87-baa6df835853","ios":"levelo://app?vid=21b4ba2e-ffc5-421d-af87-baa6df835853"},"vehicle_type_id":"4","last_reported":1719508161,"current_range_meters":0,"station_id":"ce4bh692rcd13ifvqe90","pricing_plan_id":"cebpf4jnsgd1na2vs0mg"},{"bike_id":"0da9b9e8-e8fd-41b8-9262-4faf5a26c91e","system_id":"levelo_inurba_marseille","lat":43.294162,"lon":5.386292,"is_reserved":false,"is_disabled":false,"rental_uris":{"android":"levelo://app?vid=0da9b9e8-e8fd-41b8-9262-4faf5a26c91e","ios":"levelo://app?vid=0da9b9e8-e8fd-41b8-9262-4faf5a26c91e"},"vehicle_type_id":"4","last_reported":1719508161,"current_range_meters":23200,"station_id":"ce4bh2h2rcd13ifvqdh0","pricing_plan_id":"cebpf4jnsgd1na2vs0mg"},{"bike_id":"efe9ffbb-537a-476c-9638-4bea71a919f9","system_id":"levelo_inurba_marseille","lat":43.289184,"lon":5.366408,"is_reserved":false,"is_disabled":false,"rental_uris":{"android":"levelo://app?vid=efe9ffbb-537a-476c-9638-4bea71a919f9","ios":"levelo://app?vid=efe9ffbb-537a-476c-9638-4bea71a919f9"},"vehicle_type_id":"4","last_reported":1719508161,"current_range_meters":2000,"station_id":"ce4bhap2rcd13ifvqek0","pricing_plan_id":"cebpf4jnsgd1na2vs0mg"},{"bike_id":"ec04daf7-cc69-47b6-b4ca-884e7360ab9e","system_id":"levelo_inurba_marseille","lat":43.289184,"lon":5.366408,"is_reserved":false,"is_disabled":false,"rental_uris":{"android":"levelo://app?vid=ec04daf7-cc69-47b6-b4ca-884e7360ab9e","ios":"levelo://app?vid=ec04daf7-cc69-47b6-b4ca-884e7360ab9e"},"vehicle_type_id":"4","last_reported":1719508161,"current_range_meters":15600,"station_id":"ce4bhap2rcd13ifvqek0","pricing_plan_id":"cebpf4jnsgd1na2vs0mg"},{"bike_id":"428f1f16-88ff-4e71-a54b-71627e53593f","system_id":"levelo_inurba_marseille","lat":43.289184,"lon":5.366408,"is_reserved":false,"is_disabled":false,"rental_uris":{"android":"levelo://app?vid=428f1f16-88ff-4e71-a54b-71627e53593f","ios":"levelo://app?vid=428f1f16-88ff-4e71-a54b-71627e53593f"},"vehicle_type_id":"4","last_reported":1719508161,"current_range_meters":8800,"station_id":"ce4bhap2rcd13ifvqek0","pricing_plan_id":"cebpf4jnsgd1na2vs0mg"},{"bike_id":"60d4a7d8-f8c8-4397-b934-1007ffc65c6b","system_id":"levelo_inurba_marseille","lat":43.289184,"lon":5.366408,"is_reserved":false,"is_disabled":false,"rental_uris":{"android":"levelo://app?vid=60d4a7d8-f8c8-4397-b934-1007ffc65c6b","ios":"levelo://app?vid=60d4a7d8-f8c8-4397-b934-1007ffc65c6b"},"vehicle_type_id":"4","last_reported":1719508161,"current_range_meters":7200,"station_id":"ce4bhap2rcd13ifvqek0","pricing_plan_id":"cebpf4jnsgd1na2vs0mg"},{"bike_id":"8a464fc3-c0ff-4d27-b461-537124e741fc","system_id":"levelo_inurba_marseille","lat":43.289184,"lon":5.366408,"is_reserved":false,"is_disabled":false,"rental_uris":{"android":"levelo://app?vid=8a464fc3-c0ff-4d27-b461-537124e741fc","ios":"levelo://app?vid=8a464fc3-c0ff-4d27-b461-537124e741fc"},"vehicle_type_id":"4","last_reported":1719508161,"current_range_meters":7600,"station_id":"ce4bhap2rcd13ifvqek0","pricing_plan_id":"cebpf4jnsgd1na2vs0mg"},{"bike_id":"a973e679-0d85-447c-b2e8-d45ff59fc674","system_id":"levelo_inurba_marseille","lat":43.289468,"lon":5.363719,"is_reserved":false,"is_disabled":false,"rental_uris":{"android":"levelo://app?vid=a973e679-0d85-447c-b2e8-d45ff59fc674","ios":"levelo://app?vid=a973e679-0d85-447c-b2e8-d45ff59fc674"},"vehicle_type_id":"4","last_reported":1719508161,"current_range_meters":11200,"station_id":"ce4bhc92rcd13ifvqetg","pricing_plan_id":"cebpf4jnsgd1na2vs0mg"},{"bike_id":"baa8e3e7-e579-42b5-b97a-e69b66b32547","system_id":"levelo_inurba_marseille","lat":43.289468,"lon":5.363719,"is_reserved":false,"is_disabled":false,"rental_uris":{"android":"levelo://app?vid=baa8e3e7-e579-42b5-b97a-e69b66b32547","ios":"levelo://app?vid=baa8e3e7-e579-42b5-b97a-e69b66b32547"},"vehicle_type_id":"4","last_reported":1719508161,"current_range_meters":1600,"station_id":"ce4bhc92rcd13ifvqetg","pricing_plan_id":"cebpf4jnsgd1na2vs0mg"},{"bike_id":"005359cb-62ee-441e-afa6-53ba83bbb1f8","system_id":"levelo_inurba_marseille","lat":43.289468,"lon":5.363719,"is_reserved":false,"is_disabled":false,"rental_uris":{"android":"levelo://app?vid=005359cb-62ee-441e-afa6-53ba83bbb1f8","ios":"levelo://app?vid=005359cb-62ee-441e-afa6-53ba83bbb1f8"},"vehicle_type_id":"4","last_reported":1719508161,"current_range_meters":29600,"station_id":"ce4bhc92rcd13ifvqetg","pricing_plan_id":"cebpf4jnsgd1na2vs0mg"},{"bike_id":"6f5d06fe-0176-43c0-8913-131c7cfcd0ff","system_id":"levelo_inurba_marseille","lat":43.292642,"lon":5.384254,"is_reserved":false,"is_disabled":false,"rental_uris":{"android":"levelo://app?vid=6f5d06fe-0176-43c0-8913-131c7cfcd0ff","ios":"levelo://app?vid=6f5d06fe-0176-43c0-8913-131c7cfcd0ff"},"vehicle_type_id":"4","last_reported":1719508161,"current_range_meters":12000,"station_id":"ce4bh692rcd13ifvqea0","pricing_plan_id":"cebpf4jnsgd1na2vs0mg"},{"bike_id":"542a6e51-852a-478a-b727-6833f27e30c5","system_id":"levelo_inurba_marseille","lat":43.29006,"lon":5.35612,"is_reserved":false,"is_disabled":false,"rental_uris":{"android":"levelo://app?vid=542a6e51-852a-478a-b727-6833f27e30c5","ios":"levelo://app?vid=542a6e51-852a-478a-b727-6833f27e30c5"},"vehicle_type_id":"4","last_reported":1719508161,"current_range_meters":0,"station_id":"ce4bhb92rcd13ifvqen0","pricing_plan_id":"cebpf4jnsgd1na2vs0mg"},{"bike_id":"edf404ae-991c-49cd-9f2d-1f0710d2156c","system_id":"levelo_inurba_marseille","lat":43.290104,"lon":5.356111,"is_reserved":false,"is_disabled":false,"rental_uris":{"android":"levelo://app?vid=edf404ae-991c-49cd-9f2d-1f0710d2156c","ios":"levelo://app?vid=edf404ae-991c-49cd-9f2d-1f0710d2156c"},"vehicle_type_id":"4","last_reported":1719508161,"current_range_meters":1200,"station_id":"ce4bhb92rcd13ifvqen0","pricing_plan_id":"cebpf4jnsgd1na2vs0mg"},{"bike_id":"9dd511b3-baae-4bd2-b29b-a58c10d81f42","system_id":"levelo_inurba_marseille","lat":43.290995,"lon":5.381361,"is_reserved":false,"is_disabled":false,"rental_uris":{"android":"levelo://app?vid=9dd511b3-baae-4bd2-b29b-a58c10d81f42","ios":"levelo://app?vid=9dd511b3-baae-4bd2-b29b-a58c10d81f42"},"vehicle_type_id":"4","last_reported":1719508161,"current_range_meters":17600,"station_id":"ce4bh512rcd13ifvqe2g","pricing_plan_id":"cebpf4jnsgd1na2vs0mg"},{"bike_id":"69e0e8e9-1acd-4737-8f30-465cbb820ccb","system_id":"levelo_inurba_marseille","lat":43.295169,"lon":5.390426,"is_reserved":false,"is_disabled":false,"rental_uris":{"android":"levelo://app?vid=69e0e8e9-1acd-4737-8f30-465cbb820ccb","ios":"levelo://app?vid=69e0e8e9-1acd-4737-8f30-465cbb820ccb"},"vehicle_type_id":"4","last_reported":1719508161,"current_range_meters":0,"station_id":"ce4bh3p2rcd13ifvqdp0","pricing_plan_id":"cebpf4jnsgd1na2vs0mg"},{"bike_id":"1defef79-a63f-4c0b-8fd2-d66f400550f4","system_id":"levelo_inurba_marseille","lat":43.289766,"lon":5.37835,"is_reserved":false,"is_disabled":false,"rental_uris":{"android":"levelo://app?vid=1defef79-a63f-4c0b-8fd2-d66f400550f4","ios":"levelo://app?vid=1defef79-a63f-4c0b-8fd2-d66f400550f4"},"vehicle_type_id":"4","last_reported":1719508161,"current_range_meters":0,"station_id":"ce4bh9p2rcd13ifvqed0","pricing_plan_id":"cebpf4jnsgd1na2vs0mg"},{"bike_id":"36b2d5f6-70f6-4e89-8c97-1a85f2805cc0","system_id":"levelo_inurba_marseille","lat":43.295169,"lon":5.390426,"is_reserved":false,"is_disabled":false,"rental_uris":{"android":"levelo://app?vid=36b2d5f6-70f6-4e89-8c97-1a85f2805cc0","ios":"levelo://app?vid=36b2d5f6-70f6-4e89-8c97-1a85f2805cc0"},"vehicle_type_id":"4","last_reported":1719508161,"current_range_meters":0,"station_id":"ce4bh3p2rcd13ifvqdp0","pricing_plan_id":"cebpf4jnsgd1na2vs0mg"},{"bike_id":"9f1bba86-86d0-435c-a224-ccb982e2790e","system_id":"levelo_inurba_marseille","lat":43.330442,"lon":5.389148,"is_reserved":false,"is_disabled":false,"rental_uris":{"android":"levelo://app?vid=9f1bba86-86d0-435c-a224-ccb982e2790e","ios":"levelo://app?vid=9f1bba86-86d0-435c-a224-ccb982e2790e"},"vehicle_type_id":"4","last_reported":1719508161,"current_range_meters":18400,"station_id":"ce4bhr92rcd13ifvqhrg","pricing_plan_id":"cebpf4jnsgd1na2vs0mg"},{"bike_id":"bc5f7cea-b628-41c5-8ef3-b706b612252e","system_id":"levelo_inurba_marseille","lat":43.289741,"lon":5.378306,"is_reserved":false,"is_disabled":false,"rental_uris":{"android":"levelo://app?vid=bc5f7cea-b628-41c5-8ef3-b706b612252e","ios":"levelo://app?vid=bc5f7cea-b628-41c5-8ef3-b706b612252e"},"vehicle_type_id":"4","last_reported":1719508161,"current_range_meters":22000,"station_id":"ce4bh9p2rcd13ifvqed0","pricing_plan_id":"cebpf4jnsgd1na2vs0mg"},{"bike_id":"55ea2357-d072-41e6-b14f-0b9e91e84783","system_id":"levelo_inurba_marseille","lat":43.2901,"lon":5.381269,"is_reserved":false,"is_disabled":false,"rental_uris":{"android":"levelo://app?vid=55ea2357-d072-41e6-b14f-0b9e91e84783","ios":"levelo://app?vid=55ea2357-d072-41e6-b14f-0b9e91e84783"},"vehicle_type_id":"4","last_reported":1719508161,"current_range_meters":5200,"station_id":"ce4bh4p2rcd13ifvqe1g","pricing_plan_id":"cebpf4jnsgd1na2vs0mg"},{"bike_id":"6cb841b1-e3d8-48e6-a5b9-c65a2f18b91e","system_id":"levelo_inurba_marseille","lat":43.31059,"lon":5.40098,"is_reserved":false,"is_disabled":false,"rental_uris":{"android":"levelo://app?vid=6cb841b1-e3d8-48e6-a5b9-c65a2f18b91e","ios":"levelo://app?vid=6cb841b1-e3d8-48e6-a5b9-c65a2f18b91e"},"vehicle_type_id":"4","last_reported":1719508161,"current_range_meters":8800,"station_id":"","pricing_plan_id":"cebpf4jnsgd1na2vs0mg"},{"bike_id":"29caeb6b-00ec-4cea-a2d2-d1e2a1706a58","system_id":"levelo_inurba_marseille","lat":43.2901,"lon":5.381269,"is_reserved":false,"is_disabled":false,"rental_uris":{"android":"levelo://app?vid=29caeb6b-00ec-4cea-a2d2-d1e2a1706a58","ios":"levelo://app?vid=29caeb6b-00ec-4cea-a2d2-d1e2a1706a58"},"vehicle_type_id":"4","last_reported":1719508161,"current_range_meters":4800,"station_id":"ce4bh4p2rcd13ifvqe1g","pricing_plan_id":"cebpf4jnsgd1na2vs0mg"},{"bike_id":"dbec7c12-0fe7-4def-b496-5599a92b3cd7","system_id":"levelo_inurba_marseille","lat":43.28856,"lon":5.358371,"is_reserved":false,"is_disabled":false,"rental_uris":{"android":"levelo://app?vid=dbec7c12-0fe7-4def-b496-5599a92b3cd7","ios":"levelo://app?vid=dbec7c12-0fe7-4def-b496-5599a92b3cd7"},"vehicle_type_id":"4","last_reported":1719508161,"current_range_meters":10400,"station_id":"ce4bhb12rcd13ifvqem0","pricing_plan_id":"cebpf4jnsgd1na2vs0mg"},{"bike_id":"bd9a6c26-2db3-4e30-92c7-c85ae97147aa","system_id":"levelo_inurba_marseille","lat":43.33735,"lon":5.37448,"is_reserved":false,"is_disabled":false,"rental_uris":{"android":"levelo://app?vid=bd9a6c26-2db3-4e30-92c7-c85ae97147aa","ios":"levelo://app?vid=bd9a6c26-2db3-4e30-92c7-c85ae97147aa"},"vehicle_type_id":"0","last_reported":1719508161,"current_range_meters":22400,"station_id":"","pricing_plan_id":"cebpf4jnsgd1na2vs0mg"},{"bike_id":"11da98ef-d0c3-43c2-a7e4-890f2c23ccbc","system_id":"levelo_inurba_marseille","lat":43.337359,"lon":5.374673,"is_reserved":false,"is_disabled":false,"rental_uris":{"android":"levelo://app?vid=11da98ef-d0c3-43c2-a7e4-890f2c23ccbc","ios":"levelo://app?vid=11da98ef-d0c3-43c2-a7e4-890f2c23ccbc"},"vehicle_type_id":"4","last_reported":1719508161,"current_range_meters":10400,"station_id":"","pricing_plan_id":"cebpf4jnsgd1na2vs0mg"},{"bike_id":"bb65fb70-df82-47d8-b27f-438620895501","system_id":"levelo_inurba_marseille","lat":43.33735,"lon":5.37474,"is_reserved":false,"is_disabled":false,"rental_uris":{"android":"levelo://app?vid=bb65fb70-df82-47d8-b27f-438620895501","ios":"levelo://app?vid=bb65fb70-df82-47d8-b27f-438620895501"},"vehicle_type_id":"4","last_reported":1719508161,"current_range_meters":17200,"station_id":"","pricing_plan_id":"cebpf4jnsgd1na2vs0mg"},{"bike_id":"8043cc8a-f702-4e45-9523-d56dfd7ee432","system_id":"levelo_inurba_marseille","lat":43.337383,"lon":5.374716,"is_reserved":false,"is_disabled":false,"rental_uris":{"android":"levelo://app?vid=8043cc8a-f702-4e45-9523-d56dfd7ee432","ios":"levelo://app?vid=8043cc8a-f702-4e45-9523-d56dfd7ee432"},"vehicle_type_id":"0","last_reported":1719508161,"current_range_meters":17600,"station_id":"","pricing_plan_id":"cebpf4jnsgd1na2vs0mg"},{"bike_id":"c25a3696-e1cc-43ba-8656-23d4a118ee2e","system_id":"levelo_inurba_marseille","lat":43.337388,"lon":5.374716,"is_reserved":false,"is_disabled":false,"rental_uris":{"android":"levelo://app?vid=c25a3696-e1cc-43ba-8656-23d4a118ee2e","ios":"levelo://app?vid=c25a3696-e1cc-43ba-8656-23d4a118ee2e"},"vehicle_type_id":"4","last_reported":1719508161,"current_range_meters":14400,"station_id":"","pricing_plan_id":"cebpf4jnsgd1na2vs0mg"},{"bike_id":"bf709b1a-1e81-4c69-a36a-dfef45d67fee","system_id":"levelo_inurba_marseille","lat":43.337391,"lon":5.374707,"is_reserved":false,"is_disabled":false,"rental_uris":{"android":"levelo://app?vid=bf709b1a-1e81-4c69-a36a-dfef45d67fee","ios":"levelo://app?vid=bf709b1a-1e81-4c69-a36a-dfef45d67fee"},"vehicle_type_id":"4","last_reported":1719508161,"current_range_meters":16400,"station_id":"","pricing_plan_id":"cebpf4jnsgd1na2vs0mg"},{"bike_id":"2a0fb516-a307-4861-b129-104556c40f00","system_id":"levelo_inurba_marseille","lat":43.337404,"lon":5.374671,"is_reserved":false,"is_disabled":false,"rental_uris":{"android":"levelo://app?vid=2a0fb516-a307-4861-b129-104556c40f00","ios":"levelo://app?vid=2a0fb516-a307-4861-b129-104556c40f00"},"vehicle_type_id":"0","last_reported":1719508161,"current_range_meters":10400,"station_id":"","pricing_plan_id":"cebpf4jnsgd1na2vs0mg"},{"bike_id":"aa527c2c-31a5-479b-bfbe-daae0d9bb514","system_id":"levelo_inurba_marseille","lat":43.337411,"lon":5.374639,"is_reserved":false,"is_disabled":false,"rental_uris":{"android":"levelo://app?vid=aa527c2c-31a5-479b-bfbe-daae0d9bb514","ios":"levelo://app?vid=aa527c2c-31a5-479b-bfbe-daae0d9bb514"},"vehicle_type_id":"0","last_reported":1719508161,"current_range_meters":8000,"station_id":"","pricing_plan_id":"cebpf4jnsgd1na2vs0mg"},{"bike_id":"e61d8a31-fec8-4b67-8f66-3c1f14f95991","system_id":"levelo_inurba_marseille","lat":43.312609,"lon":5.401662,"is_reserved":false,"is_disabled":false,"rental_uris":{"android":"levelo://app?vid=e61d8a31-fec8-4b67-8f66-3c1f14f95991","ios":"levelo://app?vid=e61d8a31-fec8-4b67-8f66-3c1f14f95991"},"vehicle_type_id":"4","last_reported":1719508161,"current_range_meters":8800,"station_id":"ce4bh092rcd13ifvqd30","pricing_plan_id":"cebpf4jnsgd1na2vs0mg"},{"bike_id":"9b81675f-44cd-4cbe-9733-2d36a516d8f7","system_id":"levelo_inurba_marseille","lat":43.337416,"lon":5.374689,"is_reserved":false,"is_disabled":false,"rental_uris":{"android":"levelo://app?vid=9b81675f-44cd-4cbe-9733-2d36a516d8f7","ios":"levelo://app?vid=9b81675f-44cd-4cbe-9733-2d36a516d8f7"},"vehicle_type_id":"0","last_reported":1719508161,"current_range_meters":20400,"station_id":"","pricing_plan_id":"cebpf4jnsgd1na2vs0mg"},{"bike_id":"70df0eff-7892-4d64-8b33-f9b25d3cdb77","system_id":"levelo_inurba_marseille","lat":43.337426,"lon":5.374672,"is_reserved":false,"is_disabled":false,"rental_uris":{"android":"levelo://app?vid=70df0eff-7892-4d64-8b33-f9b25d3cdb77","ios":"levelo://app?vid=70df0eff-7892-4d64-8b33-f9b25d3cdb77"},"vehicle_type_id":"4","last_reported":1719508161,"current_range_meters":16400,"station_id":"","pricing_plan_id":"cebpf4jnsgd1na2vs0mg"},{"bike_id":"cbff8e2e-87ad-4d9e-a09d-9b1fba1c0aeb","system_id":"levelo_inurba_marseille","lat":43.337424,"lon":5.374709,"is_reserved":false,"is_disabled":false,"rental_uris":{"android":"levelo://app?vid=cbff8e2e-87ad-4d9e-a09d-9b1fba1c0aeb","ios":"levelo://app?vid=cbff8e2e-87ad-4d9e-a09d-9b1fba1c0aeb"},"vehicle_type_id":"0","last_reported":1719508161,"current_range_meters":18400,"station_id":"","pricing_plan_id":"cebpf4jnsgd1na2vs0mg"},{"bike_id":"985eda3a-8205-4c72-8b0d-a44593dd15b5","system_id":"levelo_inurba_marseille","lat":43.337444,"lon":5.374693,"is_reserved":false,"is_disabled":false,"rental_uris":{"android":"levelo://app?vid=985eda3a-8205-4c72-8b0d-a44593dd15b5","ios":"levelo://app?vid=985eda3a-8205-4c72-8b0d-a44593dd15b5"},"vehicle_type_id":"0","last_reported":1719508161,"current_range_meters":11600,"station_id":"","pricing_plan_id":"cebpf4jnsgd1na2vs0mg"},{"bike_id":"1d41fc78-05c6-49e8-acfe-f5da3549588c","system_id":"levelo_inurba_marseille","lat":43.309371,"lon":5.401449,"is_reserved":false,"is_disabled":false,"rental_uris":{"android":"levelo://app?vid=1d41fc78-05c6-49e8-acfe-f5da3549588c","ios":"levelo://app?vid=1d41fc78-05c6-49e8-acfe-f5da3549588c"},"vehicle_type_id":"4","last_reported":1719508161,"current_range_meters":0,"station_id":"ce4bgvp2rcd13ifvqct0","pricing_plan_id":"cebpf4jnsgd1na2vs0mg"},{"bike_id":"1183a5e5-db69-472b-9a4d-23412cb432b2","system_id":"levelo_inurba_marseille","lat":43.309371,"lon":5.401449,"is_reserved":false,"is_disabled":false,"rental_uris":{"android":"levelo://app?vid=1183a5e5-db69-472b-9a4d-23412cb432b2","ios":"levelo://app?vid=1183a5e5-db69-472b-9a4d-23412cb432b2"},"vehicle_type_id":"4","last_reported":1719508161,"current_range_meters":11200,"station_id":"ce4bgvp2rcd13ifvqct0","pricing_plan_id":"cebpf4jnsgd1na2vs0mg"},{"bike_id":"cfc48aa0-5492-4032-a849-2f4f91e0679f","system_id":"levelo_inurba_marseille","lat":43.300758,"lon":5.397718,"is_reserved":false,"is_disabled":false,"rental_uris":{"android":"levelo://app?vid=cfc48aa0-5492-4032-a849-2f4f91e0679f","ios":"levelo://app?vid=cfc48aa0-5492-4032-a849-2f4f91e0679f"},"vehicle_type_id":"4","last_reported":1719508161,"current_range_meters":26800,"station_id":"","pricing_plan_id":"cebpf4jnsgd1na2vs0mg"},{"bike_id":"adf017bd-ddef-44c2-9487-88156f976d75","system_id":"levelo_inurba_marseille","lat":43.30648,"lon":5.40078,"is_reserved":false,"is_disabled":false,"rental_uris":{"android":"levelo://app?vid=adf017bd-ddef-44c2-9487-88156f976d75","ios":"levelo://app?vid=adf017bd-ddef-44c2-9487-88156f976d75"},"vehicle_type_id":"4","last_reported":1719508161,"current_range_meters":3600,"station_id":"ce4bh112rcd13ifvqda0","pricing_plan_id":"cebpf4jnsgd1na2vs0mg"},{"bike_id":"77e24bbd-542e-4bbc-b4c6-7dff57d180db","system_id":"levelo_inurba_marseille","lat":43.33758,"lon":5.37442,"is_reserved":false,"is_disabled":false,"rental_uris":{"android":"levelo://app?vid=77e24bbd-542e-4bbc-b4c6-7dff57d180db","ios":"levelo://app?vid=77e24bbd-542e-4bbc-b4c6-7dff57d180db"},"vehicle_type_id":"4","last_reported":1719508161,"current_range_meters":26800,"station_id":"","pricing_plan_id":"cebpf4jnsgd1na2vs0mg"},{"bike_id":"e88d5ce1-a90b-4a3b-b93e-0eb48e700802","system_id":"levelo_inurba_marseille","lat":43.33757,"lon":5.37452,"is_reserved":false,"is_disabled":false,"rental_uris":{"android":"levelo://app?vid=e88d5ce1-a90b-4a3b-b93e-0eb48e700802","ios":"levelo://app?vid=e88d5ce1-a90b-4a3b-b93e-0eb48e700802"},"vehicle_type_id":"4","last_reported":1719508161,"current_range_meters":14000,"station_id":"","pricing_plan_id":"cebpf4jnsgd1na2vs0mg"},{"bike_id":"5700f193-5542-4664-9a5f-f13fa3c25c07","system_id":"levelo_inurba_marseille","lat":43.30642,"lon":5.4009,"is_reserved":false,"is_disabled":false,"rental_uris":{"android":"levelo://app?vid=5700f193-5542-4664-9a5f-f13fa3c25c07","ios":"levelo://app?vid=5700f193-5542-4664-9a5f-f13fa3c25c07"},"vehicle_type_id":"4","last_reported":1719508161,"current_range_meters":2800,"station_id":"ce4bh112rcd13ifvqda0","pricing_plan_id":"cebpf4jnsgd1na2vs0mg"},{"bike_id":"77cf21f0-be7b-4051-9308-4215ad8866aa","system_id":"levelo_inurba_marseille","lat":43.306412,"lon":5.401035,"is_reserved":false,"is_disabled":false,"rental_uris":{"android":"levelo://app?vid=77cf21f0-be7b-4051-9308-4215ad8866aa","ios":"levelo://app?vid=77cf21f0-be7b-4051-9308-4215ad8866aa"},"vehicle_type_id":"4","last_reported":1719508161,"current_range_meters":12400,"station_id":"ce4bh112rcd13ifvqda0","pricing_plan_id":"cebpf4jnsgd1na2vs0mg"},{"bike_id":"04cd1157-b989-4ae2-8428-5ac436e4efad","system_id":"levelo_inurba_marseille","lat":43.30651,"lon":5.40102,"is_reserved":false,"is_disabled":false,"rental_uris":{"android":"levelo://app?vid=04cd1157-b989-4ae2-8428-5ac436e4efad","ios":"levelo://app?vid=04cd1157-b989-4ae2-8428-5ac436e4efad"},"vehicle_type_id":"4","last_reported":1719508161,"current_range_meters":24000,"station_id":"ce4bh112rcd13ifvqda0","pricing_plan_id":"cebpf4jnsgd1na2vs0mg"},{"bike_id":"e1d7ba16-f6fb-4688-aafe-193eae825b47","system_id":"levelo_inurba_marseille","lat":43.30642,"lon":5.401031,"is_reserved":false,"is_disabled":false,"rental_uris":{"android":"levelo://app?vid=e1d7ba16-f6fb-4688-aafe-193eae825b47","ios":"levelo://app?vid=e1d7ba16-f6fb-4688-aafe-193eae825b47"},"vehicle_type_id":"4","last_reported":1719508161,"current_range_meters":9600,"station_id":"ce4bh112rcd13ifvqda0","pricing_plan_id":"cebpf4jnsgd1na2vs0mg"},{"bike_id":"3081b37d-dc76-439f-91c0-8b2ab48f8401","system_id":"levelo_inurba_marseille","lat":43.28704,"lon":5.37395,"is_reserved":false,"is_disabled":false,"rental_uris":{"android":"levelo://app?vid=3081b37d-dc76-439f-91c0-8b2ab48f8401","ios":"levelo://app?vid=3081b37d-dc76-439f-91c0-8b2ab48f8401"},"vehicle_type_id":"4","last_reported":1719508161,"current_range_meters":0,"station_id":"ce4bh3p2rcd13ifvqdq0","pricing_plan_id":"cebpf4jnsgd1na2vs0mg"},{"bike_id":"1f453f24-ab61-42ba-8174-b1c72f35e7b4","system_id":"levelo_inurba_marseille","lat":43.286591,"lon":5.363346,"is_reserved":false,"is_disabled":false,"rental_uris":{"android":"levelo://app?vid=1f453f24-ab61-42ba-8174-b1c72f35e7b4","ios":"levelo://app?vid=1f453f24-ab61-42ba-8174-b1c72f35e7b4"},"vehicle_type_id":"4","last_reported":1719508161,"current_range_meters":2000,"station_id":"ce4bhah2rcd13ifvqej0","pricing_plan_id":"cebpf4jnsgd1na2vs0mg"},{"bike_id":"b2062c08-36e2-49df-8b05-8348c2387b3f","system_id":"levelo_inurba_marseille","lat":43.295196,"lon":5.39397,"is_reserved":false,"is_disabled":false,"rental_uris":{"android":"levelo://app?vid=b2062c08-36e2-49df-8b05-8348c2387b3f","ios":"levelo://app?vid=b2062c08-36e2-49df-8b05-8348c2387b3f"},"vehicle_type_id":"4","last_reported":1719508161,"current_range_meters":6000,"station_id":"ce4bh292rcd13ifvqdf0","pricing_plan_id":"cebpf4jnsgd1na2vs0mg"},{"bike_id":"693b9113-d5b4-4541-8d2c-b094e5b20035","system_id":"levelo_inurba_marseille","lat":43.28696,"lon":5.37399,"is_reserved":false,"is_disabled":false,"rental_uris":{"android":"levelo://app?vid=693b9113-d5b4-4541-8d2c-b094e5b20035","ios":"levelo://app?vid=693b9113-d5b4-4541-8d2c-b094e5b20035"},"vehicle_type_id":"4","last_reported":1719508161,"current_range_meters":24000,"station_id":"ce4bh3p2rcd13ifvqdq0","pricing_plan_id":"cebpf4jnsgd1na2vs0mg"},{"bike_id":"52f6d169-c7ab-49c2-9690-4a8a2e925a05","system_id":"levelo_inurba_marseille","lat":43.289349,"lon":5.38395,"is_reserved":false,"is_disabled":false,"rental_uris":{"android":"levelo://app?vid=52f6d169-c7ab-49c2-9690-4a8a2e925a05","ios":"levelo://app?vid=52f6d169-c7ab-49c2-9690-4a8a2e925a05"},"vehicle_type_id":"4","last_reported":1719508161,"current_range_meters":31200,"station_id":"ce4bh612rcd13ifvqe6g","pricing_plan_id":"cebpf4jnsgd1na2vs0mg"},{"bike_id":"b63fe38c-b6b8-4231-97c6-c9a45e656f61","system_id":"levelo_inurba_marseille","lat":43.290336,"lon":5.386425,"is_reserved":false,"is_disabled":false,"rental_uris":{"android":"levelo://app?vid=b63fe38c-b6b8-4231-97c6-c9a45e656f61","ios":"levelo://app?vid=b63fe38c-b6b8-4231-97c6-c9a45e656f61"},"vehicle_type_id":"4","last_reported":1719508161,"current_range_meters":18800,"station_id":"ce4bh4p2rcd13ifvqe0g","pricing_plan_id":"cebpf4jnsgd1na2vs0mg"},{"bike_id":"10eafa4d-944e-49be-ade8-068ded63078e","system_id":"levelo_inurba_marseille","lat":43.302759,"lon":5.400793,"is_reserved":false,"is_disabled":false,"rental_uris":{"android":"levelo://app?vid=10eafa4d-944e-49be-ade8-068ded63078e","ios":"levelo://app?vid=10eafa4d-944e-49be-ade8-068ded63078e"},"vehicle_type_id":"4","last_reported":1719508161,"current_range_meters":22000,"station_id":"ce4bgvh2rcd13ifvqcs0","pricing_plan_id":"cebpf4jnsgd1na2vs0mg"},{"bike_id":"33cb1593-0fcc-4c7b-8c72-1f76ce3ef65d","system_id":"levelo_inurba_marseille","lat":43.286039,"lon":5.370681,"is_reserved":false,"is_disabled":false,"rental_uris":{"android":"levelo://app?vid=33cb1593-0fcc-4c7b-8c72-1f76ce3ef65d","ios":"levelo://app?vid=33cb1593-0fcc-4c7b-8c72-1f76ce3ef65d"},"vehicle_type_id":"4","last_reported":1719508161,"current_range_meters":12800,"station_id":"ce4bht12rcd13ifvqi60","pricing_plan_id":"cebpf4jnsgd1na2vs0mg"},{"bike_id":"c97e0dd0-536d-47dc-a5c2-091d8794df4f","system_id":"levelo_inurba_marseille","lat":43.286039,"lon":5.370681,"is_reserved":false,"is_disabled":false,"rental_uris":{"android":"levelo://app?vid=c97e0dd0-536d-47dc-a5c2-091d8794df4f","ios":"levelo://app?vid=c97e0dd0-536d-47dc-a5c2-091d8794df4f"},"vehicle_type_id":"4","last_reported":1719508161,"current_range_meters":2400,"station_id":"ce4bht12rcd13ifvqi60","pricing_plan_id":"cebpf4jnsgd1na2vs0mg"},{"bike_id":"16631fe1-6e78-4a9c-8b1c-e28838c8b465","system_id":"levelo_inurba_marseille","lat":43.28581,"lon":5.37027,"is_reserved":false,"is_disabled":false,"rental_uris":{"android":"levelo://app?vid=16631fe1-6e78-4a9c-8b1c-e28838c8b465","ios":"levelo://app?vid=16631fe1-6e78-4a9c-8b1c-e28838c8b465"},"vehicle_type_id":"4","last_reported":1719508161,"current_range_meters":16800,"station_id":"ce4bht12rcd13ifvqi60","pricing_plan_id":"cebpf4jnsgd1na2vs0mg"},{"bike_id":"73bcb1f0-23c1-4f23-b651-5f4239a05187","system_id":"levelo_inurba_marseille","lat":43.315619,"lon":5.403894,"is_reserved":false,"is_disabled":false,"rental_uris":{"android":"levelo://app?vid=73bcb1f0-23c1-4f23-b651-5f4239a05187","ios":"levelo://app?vid=73bcb1f0-23c1-4f23-b651-5f4239a05187"},"vehicle_type_id":"4","last_reported":1719508161,"current_range_meters":22400,"station_id":"","pricing_plan_id":"cebpf4jnsgd1na2vs0mg"},{"bike_id":"391c4cb3-ee08-4cac-93f9-a1dfb96489f6","system_id":"levelo_inurba_marseille","lat":43.287184,"lon":5.37937,"is_reserved":false,"is_disabled":false,"rental_uris":{"android":"levelo://app?vid=391c4cb3-ee08-4cac-93f9-a1dfb96489f6","ios":"levelo://app?vid=391c4cb3-ee08-4cac-93f9-a1dfb96489f6"},"vehicle_type_id":"4","last_reported":1719508161,"current_range_meters":4800,"station_id":"ce4bh9p2rcd13ifvqec0","pricing_plan_id":"cebpf4jnsgd1na2vs0mg"},{"bike_id":"1c96b1b5-69f0-4216-b1c1-c0796b2e795c","system_id":"levelo_inurba_marseille","lat":43.287184,"lon":5.37937,"is_reserved":false,"is_disabled":false,"rental_uris":{"android":"levelo://app?vid=1c96b1b5-69f0-4216-b1c1-c0796b2e795c","ios":"levelo://app?vid=1c96b1b5-69f0-4216-b1c1-c0796b2e795c"},"vehicle_type_id":"4","last_reported":1719508161,"current_range_meters":0,"station_id":"ce4bh9p2rcd13ifvqec0","pricing_plan_id":"cebpf4jnsgd1na2vs0mg"},{"bike_id":"fb957360-8c17-4db3-bc19-bc03d5c28c5c","system_id":"levelo_inurba_marseille","lat":43.316821,"lon":5.404737,"is_reserved":false,"is_disabled":false,"rental_uris":{"android":"levelo://app?vid=fb957360-8c17-4db3-bc19-bc03d5c28c5c","ios":"levelo://app?vid=fb957360-8c17-4db3-bc19-bc03d5c28c5c"},"vehicle_type_id":"4","last_reported":1719508161,"current_range_meters":14800,"station_id":"ce4bh012rcd13ifvqd00","pricing_plan_id":"cebpf4jnsgd1na2vs0mg"},{"bike_id":"429dcffd-a908-4275-9634-c848f7384a81","system_id":"levelo_inurba_marseille","lat":43.291994,"lon":5.392907,"is_reserved":false,"is_disabled":false,"rental_uris":{"android":"levelo://app?vid=429dcffd-a908-4275-9634-c848f7384a81","ios":"levelo://app?vid=429dcffd-a908-4275-9634-c848f7384a81"},"vehicle_type_id":"4","last_reported":1719508161,"current_range_meters":5200,"station_id":"ce4bh192rcd13ifvqdd0","pricing_plan_id":"cebpf4jnsgd1na2vs0mg"},{"bike_id":"26dd29ec-4c02-45f3-af0c-5c8b3f3bc2ce","system_id":"levelo_inurba_marseille","lat":43.291994,"lon":5.392907,"is_reserved":false,"is_disabled":false,"rental_uris":{"android":"levelo://app?vid=26dd29ec-4c02-45f3-af0c-5c8b3f3bc2ce","ios":"levelo://app?vid=26dd29ec-4c02-45f3-af0c-5c8b3f3bc2ce"},"vehicle_type_id":"4","last_reported":1719508161,"current_range_meters":17600,"station_id":"ce4bh192rcd13ifvqdd0","pricing_plan_id":"cebpf4jnsgd1na2vs0mg"},{"bike_id":"4b1c54ed-0e61-4b10-ba56-1c2722576546","system_id":"levelo_inurba_marseille","lat":43.284534,"lon":5.358662,"is_reserved":false,"is_disabled":false,"rental_uris":{"android":"levelo://app?vid=4b1c54ed-0e61-4b10-ba56-1c2722576546","ios":"levelo://app?vid=4b1c54ed-0e61-4b10-ba56-1c2722576546"},"vehicle_type_id":"4","last_reported":1719508161,"current_range_meters":8800,"station_id":"ce4bhah2rcd13ifvqei0","pricing_plan_id":"cebpf4jnsgd1na2vs0mg"},{"bike_id":"04032f83-8132-4adf-a507-972bb72d1c3e","system_id":"levelo_inurba_marseille","lat":43.2845,"lon":5.35887,"is_reserved":false,"is_disabled":false,"rental_uris":{"android":"levelo://app?vid=04032f83-8132-4adf-a507-972bb72d1c3e","ios":"levelo://app?vid=04032f83-8132-4adf-a507-972bb72d1c3e"},"vehicle_type_id":"4","last_reported":1719508161,"current_range_meters":0,"station_id":"ce4bhah2rcd13ifvqei0","pricing_plan_id":"cebpf4jnsgd1na2vs0mg"},{"bike_id":"17c78e77-6206-4f53-90db-305d598f4555","system_id":"levelo_inurba_marseille","lat":43.294314,"lon":5.397498,"is_reserved":false,"is_disabled":false,"rental_uris":{"android":"levelo://app?vid=17c78e77-6206-4f53-90db-305d598f4555","ios":"levelo://app?vid=17c78e77-6206-4f53-90db-305d598f4555"},"vehicle_type_id":"4","last_reported":1719508161,"current_range_meters":4800,"station_id":"ce4bh3h2rcd13ifvqdo0","pricing_plan_id":"cebpf4jnsgd1na2vs0mg"},{"bike_id":"39502617-cb78-47b3-beb0-f7b0009a40cc","system_id":"levelo_inurba_marseille","lat":43.294314,"lon":5.397498,"is_reserved":false,"is_disabled":false,"rental_uris":{"android":"levelo://app?vid=39502617-cb78-47b3-beb0-f7b0009a40cc","ios":"levelo://app?vid=39502617-cb78-47b3-beb0-f7b0009a40cc"},"vehicle_type_id":"4","last_reported":1719508161,"current_range_meters":13200,"station_id":"ce4bh3h2rcd13ifvqdo0","pricing_plan_id":"cebpf4jnsgd1na2vs0mg"},{"bike_id":"6d8b008a-eae0-4589-b4a4-1bfab10a871d","system_id":"levelo_inurba_marseille","lat":43.285856,"lon":5.350771,"is_reserved":false,"is_disabled":false,"rental_uris":{"android":"levelo://app?vid=6d8b008a-eae0-4589-b4a4-1bfab10a871d","ios":"levelo://app?vid=6d8b008a-eae0-4589-b4a4-1bfab10a871d"},"vehicle_type_id":"4","last_reported":1719508161,"current_range_meters":4800,"station_id":"ce4bhch2rcd13ifvqeug","pricing_plan_id":"cebpf4jnsgd1na2vs0mg"},{"bike_id":"8989f547-bd36-43fd-8ddb-92d63e05d493","system_id":"levelo_inurba_marseille","lat":43.2862,"lon":5.3511,"is_reserved":false,"is_disabled":false,"rental_uris":{"android":"levelo://app?vid=8989f547-bd36-43fd-8ddb-92d63e05d493","ios":"levelo://app?vid=8989f547-bd36-43fd-8ddb-92d63e05d493"},"vehicle_type_id":"4","last_reported":1719508161,"current_range_meters":22800,"station_id":"ce4bhch2rcd13ifvqeug","pricing_plan_id":"cebpf4jnsgd1na2vs0mg"},{"bike_id":"e8d8e92a-2d4a-49a4-9b5e-2a45d4dfd270","system_id":"levelo_inurba_marseille","lat":43.2862,"lon":5.3511,"is_reserved":false,"is_disabled":false,"rental_uris":{"android":"levelo://app?vid=e8d8e92a-2d4a-49a4-9b5e-2a45d4dfd270","ios":"levelo://app?vid=e8d8e92a-2d4a-49a4-9b5e-2a45d4dfd270"},"vehicle_type_id":"4","last_reported":1719508161,"current_range_meters":19600,"station_id":"ce4bhch2rcd13ifvqeug","pricing_plan_id":"cebpf4jnsgd1na2vs0mg"},{"bike_id":"259525e8-7f85-4392-aaa3-de6901fcfdf4","system_id":"levelo_inurba_marseille","lat":43.285856,"lon":5.350771,"is_reserved":false,"is_disabled":false,"rental_uris":{"android":"levelo://app?vid=259525e8-7f85-4392-aaa3-de6901fcfdf4","ios":"levelo://app?vid=259525e8-7f85-4392-aaa3-de6901fcfdf4"},"vehicle_type_id":"4","last_reported":1719508161,"current_range_meters":30400,"station_id":"ce4bhch2rcd13ifvqeug","pricing_plan_id":"cebpf4jnsgd1na2vs0mg"},{"bike_id":"338f75ca-3518-4089-993c-c0d99cefc61c","system_id":"levelo_inurba_marseille","lat":43.28619,"lon":5.3511,"is_reserved":false,"is_disabled":false,"rental_uris":{"android":"levelo://app?vid=338f75ca-3518-4089-993c-c0d99cefc61c","ios":"levelo://app?vid=338f75ca-3518-4089-993c-c0d99cefc61c"},"vehicle_type_id":"4","last_reported":1719508161,"current_range_meters":31200,"station_id":"ce4bhch2rcd13ifvqeug","pricing_plan_id":"cebpf4jnsgd1na2vs0mg"},{"bike_id":"a4a1ed08-9443-4b94-905d-d069ef6cd2f4","system_id":"levelo_inurba_marseille","lat":43.286207,"lon":5.351047,"is_reserved":false,"is_disabled":false,"rental_uris":{"android":"levelo://app?vid=a4a1ed08-9443-4b94-905d-d069ef6cd2f4","ios":"levelo://app?vid=a4a1ed08-9443-4b94-905d-d069ef6cd2f4"},"vehicle_type_id":"4","last_reported":1719508161,"current_range_meters":3600,"station_id":"ce4bhch2rcd13ifvqeug","pricing_plan_id":"cebpf4jnsgd1na2vs0mg"},{"bike_id":"898a3e68-8b2b-413a-b177-896233feabda","system_id":"levelo_inurba_marseille","lat":43.294314,"lon":5.397498,"is_reserved":false,"is_disabled":false,"rental_uris":{"android":"levelo://app?vid=898a3e68-8b2b-413a-b177-896233feabda","ios":"levelo://app?vid=898a3e68-8b2b-413a-b177-896233feabda"},"vehicle_type_id":"4","last_reported":1719508161,"current_range_meters":11200,"station_id":"ce4bh3h2rcd13ifvqdo0","pricing_plan_id":"cebpf4jnsgd1na2vs0mg"},{"bike_id":"fc479002-18de-4acf-a879-c04f23713e62","system_id":"levelo_inurba_marseille","lat":43.28619,"lon":5.35109,"is_reserved":false,"is_disabled":false,"rental_uris":{"android":"levelo://app?vid=fc479002-18de-4acf-a879-c04f23713e62","ios":"levelo://app?vid=fc479002-18de-4acf-a879-c04f23713e62"},"vehicle_type_id":"4","last_reported":1719508161,"current_range_meters":4000,"station_id":"ce4bhch2rcd13ifvqeug","pricing_plan_id":"cebpf4jnsgd1na2vs0mg"},{"bike_id":"a8588227-3b61-450b-b25c-cffc1e88698f","system_id":"levelo_inurba_marseille","lat":43.285856,"lon":5.350771,"is_reserved":false,"is_disabled":false,"rental_uris":{"android":"levelo://app?vid=a8588227-3b61-450b-b25c-cffc1e88698f","ios":"levelo://app?vid=a8588227-3b61-450b-b25c-cffc1e88698f"},"vehicle_type_id":"4","last_reported":1719508161,"current_range_meters":26400,"station_id":"ce4bhch2rcd13ifvqeug","pricing_plan_id":"cebpf4jnsgd1na2vs0mg"},{"bike_id":"bfc998cc-0e3b-444e-a245-743784ffb2bf","system_id":"levelo_inurba_marseille","lat":43.28618,"lon":5.35109,"is_reserved":false,"is_disabled":false,"rental_uris":{"android":"levelo://app?vid=bfc998cc-0e3b-444e-a245-743784ffb2bf","ios":"levelo://app?vid=bfc998cc-0e3b-444e-a245-743784ffb2bf"},"vehicle_type_id":"4","last_reported":1719508161,"current_range_meters":0,"station_id":"ce4bhch2rcd13ifvqeug","pricing_plan_id":"cebpf4jnsgd1na2vs0mg"},{"bike_id":"f4170fa3-f209-471c-a04a-24f9f5d03705","system_id":"levelo_inurba_marseille","lat":43.28617,"lon":5.35111,"is_reserved":false,"is_disabled":false,"rental_uris":{"android":"levelo://app?vid=f4170fa3-f209-471c-a04a-24f9f5d03705","ios":"levelo://app?vid=f4170fa3-f209-471c-a04a-24f9f5d03705"},"vehicle_type_id":"4","last_reported":1719508161,"current_range_meters":13600,"station_id":"ce4bhch2rcd13ifvqeug","pricing_plan_id":"cebpf4jnsgd1na2vs0mg"},{"bike_id":"cc878a66-3a38-4323-a02c-0777e895a1a9","system_id":"levelo_inurba_marseille","lat":43.28618,"lon":5.35107,"is_reserved":false,"is_disabled":false,"rental_uris":{"android":"levelo://app?vid=cc878a66-3a38-4323-a02c-0777e895a1a9","ios":"levelo://app?vid=cc878a66-3a38-4323-a02c-0777e895a1a9"},"vehicle_type_id":"4","last_reported":1719508161,"current_range_meters":24400,"station_id":"ce4bhch2rcd13ifvqeug","pricing_plan_id":"cebpf4jnsgd1na2vs0mg"},{"bike_id":"8709e8d0-c106-4aaf-bf2f-b6eb1c1f621a","system_id":"levelo_inurba_marseille","lat":43.286169,"lon":5.351102,"is_reserved":false,"is_disabled":false,"rental_uris":{"android":"levelo://app?vid=8709e8d0-c106-4aaf-bf2f-b6eb1c1f621a","ios":"levelo://app?vid=8709e8d0-c106-4aaf-bf2f-b6eb1c1f621a"},"vehicle_type_id":"4","last_reported":1719508161,"current_range_meters":24400,"station_id":"ce4bhch2rcd13ifvqeug","pricing_plan_id":"cebpf4jnsgd1na2vs0mg"},{"bike_id":"ff4758d1-7911-4608-9294-c78bd4978d31","system_id":"levelo_inurba_marseille","lat":43.28619,"lon":5.35103,"is_reserved":false,"is_disabled":false,"rental_uris":{"android":"levelo://app?vid=ff4758d1-7911-4608-9294-c78bd4978d31","ios":"levelo://app?vid=ff4758d1-7911-4608-9294-c78bd4978d31"},"vehicle_type_id":"4","last_reported":1719508161,"current_range_meters":21600,"station_id":"ce4bhch2rcd13ifvqeug","pricing_plan_id":"cebpf4jnsgd1na2vs0mg"},{"bike_id":"4e824511-dfc0-4c67-9631-6923828fe619","system_id":"levelo_inurba_marseille","lat":43.285856,"lon":5.350771,"is_reserved":false,"is_disabled":false,"rental_uris":{"android":"levelo://app?vid=4e824511-dfc0-4c67-9631-6923828fe619","ios":"levelo://app?vid=4e824511-dfc0-4c67-9631-6923828fe619"},"vehicle_type_id":"4","last_reported":1719508161,"current_range_meters":31200,"station_id":"ce4bhch2rcd13ifvqeug","pricing_plan_id":"cebpf4jnsgd1na2vs0mg"},{"bike_id":"ef1c960b-bba6-475f-8e35-259b959c3dee","system_id":"levelo_inurba_marseille","lat":43.28617,"lon":5.35109,"is_reserved":false,"is_disabled":false,"rental_uris":{"android":"levelo://app?vid=ef1c960b-bba6-475f-8e35-259b959c3dee","ios":"levelo://app?vid=ef1c960b-bba6-475f-8e35-259b959c3dee"},"vehicle_type_id":"4","last_reported":1719508161,"current_range_meters":24000,"station_id":"ce4bhch2rcd13ifvqeug","pricing_plan_id":"cebpf4jnsgd1na2vs0mg"},{"bike_id":"871fcfe3-c943-4440-9c5a-6ba8b7a8821d","system_id":"levelo_inurba_marseille","lat":43.285856,"lon":5.350771,"is_reserved":false,"is_disabled":false,"rental_uris":{"android":"levelo://app?vid=871fcfe3-c943-4440-9c5a-6ba8b7a8821d","ios":"levelo://app?vid=871fcfe3-c943-4440-9c5a-6ba8b7a8821d"},"vehicle_type_id":"4","last_reported":1719508161,"current_range_meters":31200,"station_id":"ce4bhch2rcd13ifvqeug","pricing_plan_id":"cebpf4jnsgd1na2vs0mg"},{"bike_id":"0a282936-8688-43a3-ab04-72421e075d8f","system_id":"levelo_inurba_marseille","lat":43.28615,"lon":5.35114,"is_reserved":false,"is_disabled":false,"rental_uris":{"android":"levelo://app?vid=0a282936-8688-43a3-ab04-72421e075d8f","ios":"levelo://app?vid=0a282936-8688-43a3-ab04-72421e075d8f"},"vehicle_type_id":"4","last_reported":1719508161,"current_range_meters":2400,"station_id":"ce4bhch2rcd13ifvqeug","pricing_plan_id":"cebpf4jnsgd1na2vs0mg"},{"bike_id":"8d38679f-7813-4d82-8e08-b1927a28291a","system_id":"levelo_inurba_marseille","lat":43.28614,"lon":5.35117,"is_reserved":false,"is_disabled":false,"rental_uris":{"android":"levelo://app?vid=8d38679f-7813-4d82-8e08-b1927a28291a","ios":"levelo://app?vid=8d38679f-7813-4d82-8e08-b1927a28291a"},"vehicle_type_id":"4","last_reported":1719508161,"current_range_meters":2000,"station_id":"ce4bhch2rcd13ifvqeug","pricing_plan_id":"cebpf4jnsgd1na2vs0mg"},{"bike_id":"3a24a34b-e0c4-4cb1-a9f3-72cc408cfa25","system_id":"levelo_inurba_marseille","lat":43.28617,"lon":5.35106,"is_reserved":false,"is_disabled":false,"rental_uris":{"android":"levelo://app?vid=3a24a34b-e0c4-4cb1-a9f3-72cc408cfa25","ios":"levelo://app?vid=3a24a34b-e0c4-4cb1-a9f3-72cc408cfa25"},"vehicle_type_id":"4","last_reported":1719508161,"current_range_meters":31200,"station_id":"ce4bhch2rcd13ifvqeug","pricing_plan_id":"cebpf4jnsgd1na2vs0mg"},{"bike_id":"c2bcd45d-66db-42e2-9425-eceae0cb400e","system_id":"levelo_inurba_marseille","lat":43.28614,"lon":5.35114,"is_reserved":false,"is_disabled":false,"rental_uris":{"android":"levelo://app?vid=c2bcd45d-66db-42e2-9425-eceae0cb400e","ios":"levelo://app?vid=c2bcd45d-66db-42e2-9425-eceae0cb400e"},"vehicle_type_id":"4","last_reported":1719508161,"current_range_meters":14800,"station_id":"ce4bhch2rcd13ifvqeug","pricing_plan_id":"cebpf4jnsgd1na2vs0mg"},{"bike_id":"dda72ca0-63f9-46a2-975a-e5e097e71009","system_id":"levelo_inurba_marseille","lat":43.286164,"lon":5.351063,"is_reserved":false,"is_disabled":false,"rental_uris":{"android":"levelo://app?vid=dda72ca0-63f9-46a2-975a-e5e097e71009","ios":"levelo://app?vid=dda72ca0-63f9-46a2-975a-e5e097e71009"},"vehicle_type_id":"4","last_reported":1719508161,"current_range_meters":27600,"station_id":"ce4bhch2rcd13ifvqeug","pricing_plan_id":"cebpf4jnsgd1na2vs0mg"},{"bike_id":"f048efb4-ebac-4a9f-81f4-1bdd8420ae1b","system_id":"levelo_inurba_marseille","lat":43.285856,"lon":5.350771,"is_reserved":false,"is_disabled":false,"rental_uris":{"android":"levelo://app?vid=f048efb4-ebac-4a9f-81f4-1bdd8420ae1b","ios":"levelo://app?vid=f048efb4-ebac-4a9f-81f4-1bdd8420ae1b"},"vehicle_type_id":"4","last_reported":1719508161,"current_range_meters":14400,"station_id":"ce4bhch2rcd13ifvqeug","pricing_plan_id":"cebpf4jnsgd1na2vs0mg"},{"bike_id":"3437be90-3143-4de6-8f3f-4c28d20cfaee","system_id":"levelo_inurba_marseille","lat":43.28613,"lon":5.35113,"is_reserved":false,"is_disabled":false,"rental_uris":{"android":"levelo://app?vid=3437be90-3143-4de6-8f3f-4c28d20cfaee","ios":"levelo://app?vid=3437be90-3143-4de6-8f3f-4c28d20cfaee"},"vehicle_type_id":"4","last_reported":1719508161,"current_range_meters":18800,"station_id":"ce4bhch2rcd13ifvqeug","pricing_plan_id":"cebpf4jnsgd1na2vs0mg"},{"bike_id":"fdb98c11-f94d-445e-99d1-a01e82c779d7","system_id":"levelo_inurba_marseille","lat":43.285856,"lon":5.350771,"is_reserved":false,"is_disabled":false,"rental_uris":{"android":"levelo://app?vid=fdb98c11-f94d-445e-99d1-a01e82c779d7","ios":"levelo://app?vid=fdb98c11-f94d-445e-99d1-a01e82c779d7"},"vehicle_type_id":"4","last_reported":1719508161,"current_range_meters":25200,"station_id":"ce4bhch2rcd13ifvqeug","pricing_plan_id":"cebpf4jnsgd1na2vs0mg"},{"bike_id":"ee577d28-7d13-45c2-b484-dd8e4002f57f","system_id":"levelo_inurba_marseille","lat":43.285848,"lon":5.350787,"is_reserved":false,"is_disabled":false,"rental_uris":{"android":"levelo://app?vid=ee577d28-7d13-45c2-b484-dd8e4002f57f","ios":"levelo://app?vid=ee577d28-7d13-45c2-b484-dd8e4002f57f"},"vehicle_type_id":"4","last_reported":1719508161,"current_range_meters":29600,"station_id":"ce4bhch2rcd13ifvqeug","pricing_plan_id":"cebpf4jnsgd1na2vs0mg"},{"bike_id":"813b41fa-452a-4679-b2f4-c80153d0e8f0","system_id":"levelo_inurba_marseille","lat":43.28616,"lon":5.35103,"is_reserved":false,"is_disabled":false,"rental_uris":{"android":"levelo://app?vid=813b41fa-452a-4679-b2f4-c80153d0e8f0","ios":"levelo://app?vid=813b41fa-452a-4679-b2f4-c80153d0e8f0"},"vehicle_type_id":"4","last_reported":1719508161,"current_range_meters":24800,"station_id":"ce4bhch2rcd13ifvqeug","pricing_plan_id":"cebpf4jnsgd1na2vs0mg"},{"bike_id":"346ed40c-c39d-40ea-a358-96beb0fb6ed1","system_id":"levelo_inurba_marseille","lat":43.28614,"lon":5.35108,"is_reserved":false,"is_disabled":false,"rental_uris":{"android":"levelo://app?vid=346ed40c-c39d-40ea-a358-96beb0fb6ed1","ios":"levelo://app?vid=346ed40c-c39d-40ea-a358-96beb0fb6ed1"},"vehicle_type_id":"4","last_reported":1719508161,"current_range_meters":4400,"station_id":"ce4bhch2rcd13ifvqeug","pricing_plan_id":"cebpf4jnsgd1na2vs0mg"},{"bike_id":"243eb848-7b79-4c3e-8b50-1f2eeb741b62","system_id":"levelo_inurba_marseille","lat":43.28615,"lon":5.35104,"is_reserved":false,"is_disabled":false,"rental_uris":{"android":"levelo://app?vid=243eb848-7b79-4c3e-8b50-1f2eeb741b62","ios":"levelo://app?vid=243eb848-7b79-4c3e-8b50-1f2eeb741b62"},"vehicle_type_id":"4","last_reported":1719508161,"current_range_meters":30400,"station_id":"ce4bhch2rcd13ifvqeug","pricing_plan_id":"cebpf4jnsgd1na2vs0mg"},{"bike_id":"ad7a2ae8-547a-4791-8bf7-a882eeb50a71","system_id":"levelo_inurba_marseille","lat":43.28612,"lon":5.35111,"is_reserved":false,"is_disabled":false,"rental_uris":{"android":"levelo://app?vid=ad7a2ae8-547a-4791-8bf7-a882eeb50a71","ios":"levelo://app?vid=ad7a2ae8-547a-4791-8bf7-a882eeb50a71"},"vehicle_type_id":"4","last_reported":1719508161,"current_range_meters":27600,"station_id":"ce4bhch2rcd13ifvqeug","pricing_plan_id":"cebpf4jnsgd1na2vs0mg"},{"bike_id":"604ebc9d-ec24-4a93-be94-0ed856433080","system_id":"levelo_inurba_marseille","lat":43.28615,"lon":5.35101,"is_reserved":false,"is_disabled":false,"rental_uris":{"android":"levelo://app?vid=604ebc9d-ec24-4a93-be94-0ed856433080","ios":"levelo://app?vid=604ebc9d-ec24-4a93-be94-0ed856433080"},"vehicle_type_id":"4","last_reported":1719508161,"current_range_meters":14400,"station_id":"ce4bhch2rcd13ifvqeug","pricing_plan_id":"cebpf4jnsgd1na2vs0mg"},{"bike_id":"61e4fd55-4699-439d-85eb-d83f4382d875","system_id":"levelo_inurba_marseille","lat":43.285848,"lon":5.350787,"is_reserved":false,"is_disabled":false,"rental_uris":{"android":"levelo://app?vid=61e4fd55-4699-439d-85eb-d83f4382d875","ios":"levelo://app?vid=61e4fd55-4699-439d-85eb-d83f4382d875"},"vehicle_type_id":"4","last_reported":1719508161,"current_range_meters":31200,"station_id":"ce4bhch2rcd13ifvqeug","pricing_plan_id":"cebpf4jnsgd1na2vs0mg"},{"bike_id":"f30fb9c3-b4d6-47f5-85bb-d2b9bc57635d","system_id":"levelo_inurba_marseille","lat":43.28615,"lon":5.35099,"is_reserved":false,"is_disabled":false,"rental_uris":{"android":"levelo://app?vid=f30fb9c3-b4d6-47f5-85bb-d2b9bc57635d","ios":"levelo://app?vid=f30fb9c3-b4d6-47f5-85bb-d2b9bc57635d"},"vehicle_type_id":"4","last_reported":1719508161,"current_range_meters":27200,"station_id":"ce4bhch2rcd13ifvqeug","pricing_plan_id":"cebpf4jnsgd1na2vs0mg"},