{"last_updated":1762013443,"ttl":60,"version":"2.2","data":{"bikes":[{"bike_id":"98c69ce9-b776-4a35-8190-c3322227776a","system_id":"levelo_inurba_marseille","lat":43.29356,"lon":5.39258,"is_reserved":false,"is_disabled":false,"rental_uris":{"android":"levelo://app?vid=98c69ce9-b776-4a35-8190-c3322227776a","ios":"levelo://app?vid=98c69ce9-b776-4a35-8190-c3322227776a"},"vehicle_type_id":"4","last_reported":1762013443,"current_range_meters":2800,"station_id":"","pricing_plan_id":"cebpf4jnsgd1na2vs0mg"},{"bike_id":"0b4529e3-789f-4ae6-8951-d586e7444a30","system_id":"levelo_inurba_marseille","lat":43.23147,"lon":5.43707,"is_reserved":false,"is_disabled":false,"rental_uris":{"android":"levelo://app?vid=0b4529e3-789f-4ae6-8951-d586e7444a30","ios":"levelo://app?vid=0b4529e3-789f-4ae6-8951-d586e7444a30"},"vehicle_type_id":"4","last_reported":1762013443,"current_range_meters":3200,"station_id":"ce4bhmp2rcd13ifvqgog","pricing_plan_id":"cebpf4jnsgd1na2vs0mg"},{"bike_id":"dbe5a017-5f48-48a9-a30c-d753021d6208","system_id":"levelo_inurba_marseille","lat":43.297285,"lon":5.396631,"is_reserved":false,"is_disabled":false,"rental_uris":{"android":"levelo://app?vid=dbe5a017-5f48-48a9-a30c-d753021d6208","ios":"levelo://app?vid=dbe5a017-5f48-48a9-a30c-d753021d6208"},"vehicle_type_id":"4","last_reported":1762013443,"current_range_meters":3600,"station_id":"","pricing_plan_id":"cebpf4jnsgd1na2vs0mg"},{"bike_id":"2d47ab8a-1aef-4936-a4a8-5aec1a1c41a7","system_id":"levelo_inurba_marseille","lat":43.25594,"lon":5.38237,"is_reserved":false,"is_disabled":false,"rental_uris":{"android":"levelo://app?vid=2d47ab8a-1aef-4936-a4a8-5aec1a1c41a7","ios":"levelo://app?vid=2d47ab8a-1aef-4936-a4a8-5aec1a1c41a7"},"vehicle_type_id":"4","last_reported":1762013443,"current_range_meters":3600,"station_id":"ce4bhih2rcd13ifvqfs0","pricing_plan_id":"cebpf4jnsgd1na2vs0mg"},{"bike_id":"9bb59204-c6c1-480e-a747-a3af4d18c252","system_id":"levelo_inurba_marseille","lat":43.25335,"lon":5.42175,"is_reserved":false,"is_disabled":false,"rental_uris":{"android":"levelo://app?vid=9bb59204-c6c1-480e-a747-a3af4d18c252","ios":"levelo://app?vid=9bb59204-c6c1-480e-a747-a3af4d18c252"},"vehicle_type_id":"4","last_reported":1762013443,"current_range_meters":4000,"station_id":"st_d2m65c5bi1j21697t3ng","pricing_plan_id":"cebpf4jnsgd1na2vs0mg"},{"bike_id":"688e0991-23bb-4f67-a97d-b9bb7704a66a","system_id":"levelo_inurba_marseille","lat":43.29255,"lon":5.39101,"is_reserved":false,"is_disabled":false,"rental_uris":{"android":"levelo://app?vid=688e0991-23bb-4f67-a97d-b9bb7704a66a","ios":"levelo://app?vid=688e0991-23bb-4f67-a97d-b9bb7704a66a"},"vehicle_type_id":"4","last_reported":1762013443,"current_range_meters":4000,"station_id":"","pricing_plan_id":"cebpf4jnsgd1na2vs0mg"},{"bike_id":"0a9876f0-482e-4adb-b9ad-878f69948576","system_id":"levelo_inurba_marseille","lat":43.30133,"lon":5.39866,"is_reserved":false,"is_disabled":false,"rental_uris":{"android":"levelo://app?vid=0a9876f0-482e-4adb-b9ad-878f69948576","ios":"levelo://app?vid=0a9876f0-482e-4adb-b9ad-878f69948576"},"vehicle_type_id":"4","last_reported":1762013443,"current_range_meters":4000,"station_id":"ce4bh0h2rcd13ifvqd40","pricing_plan_id":"cebpf4jnsgd1na2vs0mg"},{"bike_id":"bdea5495-d775-49b1-b02b-a09a4cf922fc","system_id":"levelo_inurba_marseille","lat":43.25343,"lon":5.421837,"is_reserved":false,"is_disabled":false,"rental_uris":{"android":"levelo://app?vid=bdea5495-d775-49b1-b02b-a09a4cf922fc","ios":"levelo://app?vid=bdea5495-d775-49b1-b02b-a09a4cf922fc"},"vehicle_type_id":"4","last_reported":1762013443,"current_range_meters":4400,"station_id":"","pricing_plan_id":"cebpf4jnsgd1na2vs0mg"},{"bike_id":"8c99db40-fe81-4e37-915e-76aea1ef5f61","system_id":"levelo_inurba_marseille","lat":43.30805,"lon":5.38156,"is_reserved":false,"is_disabled":false,"rental_uris":{"android":"levelo://app?vid=8c99db40-fe81-4e37-915e-76aea1ef5f61","ios":"levelo://app?vid=8c99db40-fe81-4e37-915e-76aea1ef5f61"},"vehicle_type_id":"4","last_reported":1762013443,"current_range_meters":4400,"station_id":"ce4bgt12rcd13ifvqce0","pricing_plan_id":"cebpf4jnsgd1na2vs0mg"},{"bike_id":"f2287fbd-65b0-4975-b44b-578b0e69e1ef","system_id":"levelo_inurba_marseille","lat":43.30216,"lon":5.36425,"is_reserved":false,"is_disabled":false,"rental_uris":{"android":"levelo://app?vid=f2287fbd-65b0-4975-b44b-578b0e69e1ef","ios":"levelo://app?vid=f2287fbd-65b0-4975-b44b-578b0e69e1ef"},"vehicle_type_id":"4","last_reported":1762013443,"current_range_meters":4800,"station_id":"","pricing_plan_id":"cebpf4jnsgd1na2vs0mg"},{"bike_id":"6650acee-d020-450d-a0c9-27342204e019","system_id":"levelo_inurba_marseille","lat":43.28867,"lon":5.42513,"is_reserved":false,"is_disabled":false,"rental_uris":{"android":"levelo://app?vid=6650acee-d020-450d-a0c9-27342204e019","ios":"levelo://app?vid=6650acee-d020-450d-a0c9-27342204e019"},"vehicle_type_id":"4","last_reported":1762013443,"current_range_meters":4800,"station_id":"st_d3b462108ojc7389ooeg","pricing_plan_id":"cebpf4jnsgd1na2vs0mg"},{"bike_id":"0cf3a15a-17c2-43a5-ac1b-79ce0d88707b","system_id":"levelo_inurba_marseille","lat":43.27384,"lon":5.36259,"is_reserved":false,"is_disabled":false,"rental_uris":{"android":"levelo://app?vid=0cf3a15a-17c2-43a5-ac1b-79ce0d88707b","ios":"levelo://app?vid=0cf3a15a-17c2-43a5-ac1b-79ce0d88707b"},"vehicle_type_id":"4","last_reported":1762013443,"current_range_meters":4800,"station_id":"ce4bhbh2rcd13ifvqeo0","pricing_plan_id":"cebpf4jnsgd1na2vs0mg"},{"bike_id":"82a1362f-b61a-46be-a663-3fcb37750770","system_id":"levelo_inurba_marseille","lat":43.28483,"lon":5.48409,"is_reserved":false,"is_disabled":false,"rental_uris":{"android":"levelo://app?vid=82a1362f-b61a-46be-a663-3fcb37750770","ios":"levelo://app?vid=82a1362f-b61a-46be-a663-3fcb37750770"},"vehicle_type_id":"4","last_reported":1762013443,"current_range_meters":4800,"station_id":"st_d3svhcjqgbts73a3dn0g","pricing_plan_id":"cebpf4jnsgd1na2vs0mg"},{"bike_id":"a18dbf48-2c4d-4fa4-a4c5-c9871d73c9a0","system_id":"levelo_inurba_marseille","lat":43.301994,"lon":5.383462,"is_reserved":false,"is_disabled":false,"rental_uris":{"android":"levelo://app?vid=a18dbf48-2c4d-4fa4-a4c5-c9871d73c9a0","ios":"levelo://app?vid=a18dbf48-2c4d-4fa4-a4c5-c9871d73c9a0"},"vehicle_type_id":"4","last_reported":1762013443,"current_range_meters":5600,"station_id":"ce4bgup2rcd13ifvqcn0","pricing_plan_id":"cebpf4jnsgd1na2vs0mg"},{"bike_id":"834150b6-2c69-4d5d-9575-9ac25bed8d18","system_id":"levelo_inurba_marseille","lat":43.29625,"lon":5.37723,"is_reserved":false,"is_disabled":false,"rental_uris":{"android":"levelo://app?vid=834150b6-2c69-4d5d-9575-9ac25bed8d18","ios":"levelo://app?vid=834150b6-2c69-4d5d-9575-9ac25bed8d18"},"vehicle_type_id":"4","last_reported":1762013443,"current_range_meters":5600,"station_id":"ce4bgi92rcd13ifvqb90","pricing_plan_id":"cebpf4jnsgd1na2vs0mg"},{"bike_id":"2edabf29-55c1-4367-884c-ea4df1970a78","system_id":"levelo_inurba_marseille","lat":43.29523,"lon":5.39044,"is_reserved":false,"is_disabled":false,"rental_uris":{"android":"levelo://app?vid=2edabf29-55c1-4367-884c-ea4df1970a78","ios":"levelo://app?vid=2edabf29-55c1-4367-884c-ea4df1970a78"},"vehicle_type_id":"4","last_reported":1762013443,"current_range_meters":5600,"station_id":"ce4bh3p2rcd13ifvqdp0","pricing_plan_id":"cebpf4jnsgd1na2vs0mg"},{"bike_id":"d62a4e30-2a8a-47de-9d7a-fd92f829db09","system_id":"levelo_inurba_marseille","lat":43.31193,"lon":5.37952,"is_reserved":false,"is_disabled":false,"rental_uris":{"android":"levelo://app?vid=d62a4e30-2a8a-47de-9d7a-fd92f829db09","ios":"levelo://app?vid=d62a4e30-2a8a-47de-9d7a-fd92f829db09"},"vehicle_type_id":"4","last_reported":1762013443,"current_range_meters":5600,"station_id":"","pricing_plan_id":"cebpf4jnsgd1na2vs0mg"},{"bike_id":"20ed4b29-b870-4029-a8e9-ad83b20f2db4","system_id":"levelo_inurba_marseille","lat":43.31086,"lon":5.37867,"is_reserved":false,"is_disabled":false,"rental_uris":{"android":"levelo://app?vid=20ed4b29-b870-4029-a8e9-ad83b20f2db4","ios":"levelo://app?vid=20ed4b29-b870-4029-a8e9-ad83b20f2db4"},"vehicle_type_id":"4","last_reported":1762013443,"current_range_meters":5600,"station_id":"","pricing_plan_id":"cebpf4jnsgd1na2vs0mg"},{"bike_id":"2ac29bbe-f50b-430d-889c-b076d26a6aeb","system_id":"levelo_inurba_marseille","lat":43.2847,"lon":5.38417,"is_reserved":false,"is_disabled":false,"rental_uris":{"android":"levelo://app?vid=2ac29bbe-f50b-430d-889c-b076d26a6aeb","ios":"levelo://app?vid=2ac29bbe-f50b-430d-889c-b076d26a6aeb"},"vehicle_type_id":"4","last_reported":1762013443,"current_range_meters":6000,"station_id":"ce4bh512rcd13ifvqe3g","pricing_plan_id":"cebpf4jnsgd1na2vs0mg"},{"bike_id":"d1311481-3a07-4834-996f-5229084d4b23","system_id":"levelo_inurba_marseille","lat":43.3074,"lon":5.424443,"is_reserved":false,"is_disabled":false,"rental_uris":{"android":"levelo://app?vid=d1311481-3a07-4834-996f-5229084d4b23","ios":"levelo://app?vid=d1311481-3a07-4834-996f-5229084d4b23"},"vehicle_type_id":"4","last_reported":1762013443,"current_range_meters":6000,"station_id":"st_cvj6ca6bvosntc0bfgr0","pricing_plan_id":"cebpf4jnsgd1na2vs0mg"},{"bike_id":"7334caab-6e65-45e0-b630-30d8074562bf","system_id":"levelo_inurba_marseille","lat":43.27322,"lon":5.39082,"is_reserved":false,"is_disabled":false,"rental_uris":{"android":"levelo://app?vid=7334caab-6e65-45e0-b630-30d8074562bf","ios":"levelo://app?vid=7334caab-6e65-45e0-b630-30d8074562bf"},"vehicle_type_id":"4","last_reported":1762013443,"current_range_meters":6000,"station_id":"ce4bhgp2rcd13ifvqfe0","pricing_plan_id":"cebpf4jnsgd1na2vs0mg"},{"bike_id":"aaab4a9a-80f1-4420-84d5-f4de562a16e2","system_id":"levelo_inurba_marseille","lat":43.27972,"lon":5.38735,"is_reserved":false,"is_disabled":false,"rental_uris":{"android":"levelo://app?vid=aaab4a9a-80f1-4420-84d5-f4de562a16e2","ios":"levelo://app?vid=aaab4a9a-80f1-4420-84d5-f4de562a16e2"},"vehicle_type_id":"4","last_reported":1762013443,"current_range_meters":6000,"station_id":"ce4bhg12rcd13ifvqf80","pricing_plan_id":"cebpf4jnsgd1na2vs0mg"},{"bike_id":"e8f02d14-6174-4122-a827-ba278bc36fb9","system_id":"levelo_inurba_marseille","lat":43.29963,"lon":5.38503,"is_reserved":false,"is_disabled":false,"rental_uris":{"android":"levelo://app?vid=e8f02d14-6174-4122-a827-ba278bc36fb9","ios":"levelo://app?vid=e8f02d14-6174-4122-a827-ba278bc36fb9"},"vehicle_type_id":"4","last_reported":1762013443,"current_range_meters":6000,"station_id":"ce4bgj92rcd13ifvqbd0","pricing_plan_id":"cebpf4jnsgd1na2vs0mg"},{"bike_id":"cf84f8dd-93d8-47fa-a5dd-fa3a5761bf25","system_id":"levelo_inurba_marseille","lat":43.27902,"lon":5.38014,"is_reserved":false,"is_disabled":false,"rental_uris":{"android":"levelo://app?vid=cf84f8dd-93d8-47fa-a5dd-fa3a5761bf25","ios":"levelo://app?vid=cf84f8dd-93d8-47fa-a5dd-fa3a5761bf25"},"vehicle_type_id":"4","last_reported":1762013443,"current_range_meters":6000,"station_id":"ce4bhf92rcd13ifvqf50","pricing_plan_id":"cebpf4jnsgd1na2vs0mg"},{"bike_id":"9b93b5e1-c939-4745-bf85-2d21945442dc","system_id":"levelo_inurba_marseille","lat":43.299889,"lon":5.364039,"is_reserved":false,"is_disabled":false,"rental_uris":{"android":"levelo://app?vid=9b93b5e1-c939-4745-bf85-2d21945442dc","ios":"levelo://app?vid=9b93b5e1-c939-4745-bf85-2d21945442dc"},"vehicle_type_id":"4","last_reported":1762013443,"current_range_meters":6400,"station_id":"","pricing_plan_id":"cebpf4jnsgd1na2vs0mg"},{"bike_id":"4e257b92-93aa-4b25-a2ef-f02648040ae9","system_id":"levelo_inurba_marseille","lat":43.284929,"lon":5.385594,"is_reserved":false,"is_disabled":false,"rental_uris":{"android":"levelo://app?vid=4e257b92-93aa-4b25-a2ef-f02648040ae9","ios":"levelo://app?vid=4e257b92-93aa-4b25-a2ef-f02648040ae9"},"vehicle_type_id":"4","last_reported":1762013443,"current_range_meters":6400,"station_id":"","pricing_plan_id":"cebpf4jnsgd1na2vs0mg"},{"bike_id":"e9eec46a-7d24-474f-beb3-1656893452dd","system_id":"levelo_inurba_marseille","lat":43.26195,"lon":5.3745,"is_reserved":false,"is_disabled":false,"rental_uris":{"android":"levelo://app?vid=e9eec46a-7d24-474f-beb3-1656893452dd","ios":"levelo://app?vid=e9eec46a-7d24-474f-beb3-1656893452dd"},"vehicle_type_id":"4","last_reported":1762013443,"current_range_meters":6400,"station_id":"ce4bhgp2rcd13ifvqfc0","pricing_plan_id":"cebpf4jnsgd1na2vs0mg"},{"bike_id":"ce062449-8813-4cad-b9e3-856e6e3a8c6d","system_id":"levelo_inurba_marseille","lat":43.25587,"lon":5.38242,"is_reserved":false,"is_disabled":false,"rental_uris":{"android":"levelo://app?vid=ce062449-8813-4cad-b9e3-856e6e3a8c6d","ios":"levelo://app?vid=ce062449-8813-4cad-b9e3-856e6e3a8c6d"},"vehicle_type_id":"4","last_reported":1762013443,"current_range_meters":6400,"station_id":"ce4bhih2rcd13ifvqfs0","pricing_plan_id":"cebpf4jnsgd1na2vs0mg"},{"bike_id":"c021eee5-91a1-40aa-8f94-af0ea54307ea","system_id":"levelo_inurba_marseille","lat":43.280401,"lon":5.369471,"is_reserved":false,"is_disabled":false,"rental_uris":{"android":"levelo://app?vid=c021eee5-91a1-40aa-8f94-af0ea54307ea","ios":"levelo://app?vid=c021eee5-91a1-40aa-8f94-af0ea54307ea"},"vehicle_type_id":"4","last_reported":1762013443,"current_range_meters":6400,"station_id":"ce4bha12rcd13ifvqef0","pricing_plan_id":"cebpf4jnsgd1na2vs0mg"},{"bike_id":"fb6377d8-0aa6-488f-aa43-68a99eb38d8e","system_id":"levelo_inurba_marseille","lat":43.276196,"lon":5.361062,"is_reserved":false,"is_disabled":false,"rental_uris":{"android":"levelo://app?vid=fb6377d8-0aa6-488f-aa43-68a99eb38d8e","ios":"levelo://app?vid=fb6377d8-0aa6-488f-aa43-68a99eb38d8e"},"vehicle_type_id":"4","last_reported":1762013443,"current_range_meters":6400,"station_id":"ce4bhbh2rcd13ifvqeo0","pricing_plan_id":"cebpf4jnsgd1na2vs0mg"},{"bike_id":"ccce690a-d0fa-4afa-9518-7dc8f61f8019","system_id":"levelo_inurba_marseille","lat":43.268068,"lon":5.402734,"is_reserved":false,"is_disabled":false,"rental_uris":{"android":"levelo://app?vid=ccce690a-d0fa-4afa-9518-7dc8f61f8019","ios":"levelo://app?vid=ccce690a-d0fa-4afa-9518-7dc8f61f8019"},"vehicle_type_id":"4","last_reported":1762013443,"current_range_meters":6800,"station_id":"ce501612rcd8frsf0b60","pricing_plan_id":"cebpf4jnsgd1na2vs0mg"},{"bike_id":"f643c35b-c5a7-43c4-92a7-c4e52bde8db9","system_id":"levelo_inurba_marseille","lat":43.2817,"lon":5.42644,"is_reserved":false,"is_disabled":false,"rental_uris":{"android":"levelo://app?vid=f643c35b-c5a7-43c4-92a7-c4e52bde8db9","ios":"levelo://app?vid=f643c35b-c5a7-43c4-92a7-c4e52bde8db9"},"vehicle_type_id":"4","last_reported":1762013443,"current_range_meters":6800,"station_id":"ce4bhnh2rcd13ifvqgug","pricing_plan_id":"cebpf4jnsgd1na2vs0mg"},{"bike_id":"79207242-ee3f-4ec1-a3ff-73f53d771358","system_id":"levelo_inurba_marseille","lat":43.289435,"lon":5.396361,"is_reserved":false,"is_disabled":false,"rental_uris":{"android":"levelo://app?vid=79207242-ee3f-4ec1-a3ff-73f53d771358","ios":"levelo://app?vid=79207242-ee3f-4ec1-a3ff-73f53d771358"},"vehicle_type_id":"4","last_reported":1762013443,"current_range_meters":6800,"station_id":"ce4bh3h2rcd13ifvqdn0","pricing_plan_id":"cebpf4jnsgd1na2vs0mg"},{"bike_id":"7c18d7f9-9267-4833-9196-cad4d9a80323","system_id":"levelo_inurba_marseille","lat":43.2835,"lon":5.3751,"is_reserved":false,"is_disabled":false,"rental_uris":{"android":"levelo://app?vid=7c18d7f9-9267-4833-9196-cad4d9a80323","ios":"levelo://app?vid=7c18d7f9-9267-4833-9196-cad4d9a80323"},"vehicle_type_id":"4","last_reported":1762013443,"current_range_meters":7200,"station_id":"","pricing_plan_id":"cebpf4jnsgd1na2vs0mg"},{"bike_id":"421898f5-6c6d-4850-a304-3c0cc5951bee","system_id":"levelo_inurba_marseille","lat":43.28494,"lon":5.42197,"is_reserved":false,"is_disabled":false,"rental_uris":{"android":"levelo://app?vid=421898f5-6c6d-4850-a304-3c0cc5951bee","ios":"levelo://app?vid=421898f5-6c6d-4850-a304-3c0cc5951bee"},"vehicle_type_id":"4","last_reported":1762013443,"current_range_meters":7200,"station_id":"","pricing_plan_id":"cebpf4jnsgd1na2vs0mg"},{"bike_id":"3d101700-d25f-4eb8-b740-50ab75b38fc6","system_id":"levelo_inurba_marseille","lat":43.25346,"lon":5.42177,"is_reserved":false,"is_disabled":false,"rental_uris":{"android":"levelo://app?vid=3d101700-d25f-4eb8-b740-50ab75b38fc6","ios":"levelo://app?vid=3d101700-d25f-4eb8-b740-50ab75b38fc6"},"vehicle_type_id":"4","last_reported":1762013443,"current_range_meters":7200,"station_id":"st_d2m65c5bi1j21697t3ng","pricing_plan_id":"cebpf4jnsgd1na2vs0mg"},{"bike_id":"5fb987d7-0fd0-4ae4-b81e-29cf312b29a5","system_id":"levelo_inurba_marseille","lat":43.28956,"lon":5.3903,"is_reserved":false,"is_disabled":false,"rental_uris":{"android":"levelo://app?vid=5fb987d7-0fd0-4ae4-b81e-29cf312b29a5","ios":"levelo://app?vid=5fb987d7-0fd0-4ae4-b81e-29cf312b29a5"},"vehicle_type_id":"4","last_reported":1762013443,"current_range_meters":8000,"station_id":"","pricing_plan_id":"cebpf4jnsgd1na2vs0mg"},{"bike_id":"3a8851b0-bea2-4b80-afc7-0c6751111e32","system_id":"levelo_inurba_marseille","lat":43.28876,"lon":5.42531,"is_reserved":false,"is_disabled":false,"rental_uris":{"android":"levelo://app?vid=3a8851b0-bea2-4b80-afc7-0c6751111e32","ios":"levelo://app?vid=3a8851b0-bea2-4b80-afc7-0c6751111e32"},"vehicle_type_id":"4","last_reported":1762013443,"current_range_meters":8000,"station_id":"st_d3b462108ojc7389ooeg","pricing_plan_id":"cebpf4jnsgd1na2vs0mg"},{"bike_id":"70b7527d-67eb-4818-84c6-51aae343ca97","system_id":"levelo_inurba_marseille","lat":43.28474,"lon":5.48407,"is_reserved":false,"is_disabled":false,"rental_uris":{"android":"levelo://app?vid=70b7527d-67eb-4818-84c6-51aae343ca97","ios":"levelo://app?vid=70b7527d-67eb-4818-84c6-51aae343ca97"},"vehicle_type_id":"4","last_reported":1762013443,"current_range_meters":8000,"station_id":"st_d3svhcjqgbts73a3dn0g","pricing_plan_id":"cebpf4jnsgd1na2vs0mg"},{"bike_id":"5b2fa7e3-eb6c-45be-9093-a740803cd6aa","system_id":"levelo_inurba_marseille","lat":43.286145,"lon":5.351066,"is_reserved":false,"is_disabled":false,"rental_uris":{"android":"levelo://app?vid=5b2fa7e3-eb6c-45be-9093-a740803cd6aa","ios":"levelo://app?vid=5b2fa7e3-eb6c-45be-9093-a740803cd6aa"},"vehicle_type_id":"4","last_reported":1762013443,"current_range_meters":8000,"station_id":"ce4bhi12rcd13ifvqfp0","pricing_plan_id":"cebpf4jnsgd1na2vs0mg"},{"bike_id":"dcb5f4d6-a57a-45ea-b185-de3fe952058c","system_id":"levelo_inurba_marseille","lat":43.28101,"lon":5.378309,"is_reserved":false,"is_disabled":true,"rental_uris":{"android":"levelo://app?vid=dcb5f4d6-a57a-45ea-b185-de3fe952058c","ios":"levelo://app?vid=dcb5f4d6-a57a-45ea-b185-de3fe952058c"},"vehicle_type_id":"4","last_reported":1762013443,"current_range_meters":8000,"station_id":"","pricing_plan_id":"cebpf4jnsgd1na2vs0mg"},{"bike_id":"6d591f57-3682-42cb-8d38-61479f39e098","system_id":"levelo_inurba_marseille","lat":43.243859,"lon":5.370596,"is_reserved":false,"is_disabled":false,"rental_uris":{"android":"levelo://app?vid=6d591f57-3682-42cb-8d38-61479f39e098","ios":"levelo://app?vid=6d591f57-3682-42cb-8d38-61479f39e098"},"vehicle_type_id":"4","last_reported":1762013443,"current_range_meters":8000,"station_id":"","pricing_plan_id":"cebpf4jnsgd1na2vs0mg"},{"bike_id":"56396283-09e4-4127-9f67-8f80a76af6ad","system_id":"levelo_inurba_marseille","lat":43.2811,"lon":5.37842,"is_reserved":false,"is_disabled":false,"rental_uris":{"android":"levelo://app?vid=56396283-09e4-4127-9f67-8f80a76af6ad","ios":"levelo://app?vid=56396283-09e4-4127-9f67-8f80a76af6ad"},"vehicle_type_id":"4","last_reported":1762013443,"current_range_meters":8400,"station_id":"ce4bha12rcd13ifvqee0","pricing_plan_id":"cebpf4jnsgd1na2vs0mg"},{"bike_id":"8eeb0c8f-9f40-4733-bc78-a599f875a914","system_id":"levelo_inurba_marseille","lat":43.27938,"lon":5.410474,"is_reserved":false,"is_disabled":false,"rental_uris":{"android":"levelo://app?vid=8eeb0c8f-9f40-4733-bc78-a599f875a914","ios":"levelo://app?vid=8eeb0c8f-9f40-4733-bc78-a599f875a914"},"vehicle_type_id":"4","last_reported":1762013443,"current_range_meters":8400,"station_id":"ce4bhnp2rcd13ifvqh0g","pricing_plan_id":"cebpf4jnsgd1na2vs0mg"},{"bike_id":"a4dac4fa-66e6-48be-a654-6e17cdc7ca0b","system_id":"levelo_inurba_marseille","lat":43.337571,"lon":5.374323,"is_reserved":false,"is_disabled":false,"rental_uris":{"android":"levelo://app?vid=a4dac4fa-66e6-48be-a654-6e17cdc7ca0b","ios":"levelo://app?vid=a4dac4fa-66e6-48be-a654-6e17cdc7ca0b"},"vehicle_type_id":"4","last_reported":1762013443,"current_range_meters":8800,"station_id":"","pricing_plan_id":"cebpf4jnsgd1na2vs0mg"},{"bike_id":"27abc7d1-dd85-495f-9415-aa00cef4846e","system_id":"levelo_inurba_marseille","lat":43.27792,"lon":5.39544,"is_reserved":false,"is_disabled":false,"rental_uris":{"android":"levelo://app?vid=27abc7d1-dd85-495f-9415-aa00cef4846e","ios":"levelo://app?vid=27abc7d1-dd85-495f-9415-aa00cef4846e"},"vehicle_type_id":"4","last_reported":1762013443,"current_range_meters":8800,"station_id":"","pricing_plan_id":"cebpf4jnsgd1na2vs0mg"},{"bike_id":"4cdc4de7-d402-4c00-8423-073abe2c0612","system_id":"levelo_inurba_marseille","lat":43.272466,"lon":5.365825,"is_reserved":false,"is_disabled":false,"rental_uris":{"android":"levelo://app?vid=4cdc4de7-d402-4c00-8423-073abe2c0612","ios":"levelo://app?vid=4cdc4de7-d402-4c00-8423-073abe2c0612"},"vehicle_type_id":"4","last_reported":1762013443,"current_range_meters":9200,"station_id":"","pricing_plan_id":"cebpf4jnsgd1na2vs0mg"},{"bike_id":"d9901fe4-789e-4992-91d7-456d641f9f2e","system_id":"levelo_inurba_marseille","lat":43.26946,"lon":5.40255,"is_reserved":false,"is_disabled":false,"rental_uris":{"android":"levelo://app?vid=d9901fe4-789e-4992-91d7-456d641f9f2e","ios":"levelo://app?vid=d9901fe4-789e-4992-91d7-456d641f9f2e"},"vehicle_type_id":"4","last_reported":1762013443,"current_range_meters":9200,"station_id":"cjm6bp8fraef2m0cb0m0","pricing_plan_id":"cebpf4jnsgd1na2vs0mg"},{"bike_id":"611b6f87-415f-4da3-bd16-f49b25e8775d","system_id":"levelo_inurba_marseille","lat":43.24391,"lon":5.37055,"is_reserved":false,"is_disabled":false,"rental_uris":{"android":"levelo://app?vid=611b6f87-415f-4da3-bd16-f49b25e8775d","ios":"levelo://app?vid=611b6f87-415f-4da3-bd16-f49b25e8775d"},"vehicle_type_id":"4","last_reported":1762013443,"current_range_meters":9200,"station_id":"ce4bhhh2rcd13ifvqfk0","pricing_plan_id":"cebpf4jnsgd1na2vs0mg"},{"bike_id":"1f4649a1-97d1-4cce-8080-fd6d0e33ba14","system_id":"levelo_inurba_marseille","lat":43.257155,"lon":5.411153,"is_reserved":false,"is_disabled":false,"rental_uris":{"android":"levelo://app?vid=1f4649a1-97d1-4cce-8080-fd6d0e33ba14","ios":"levelo://app?vid=1f4649a1-97d1-4cce-8080-fd6d0e33ba14"},"vehicle_type_id":"4","last_reported":1762013443,"current_range_meters":9600,"station_id":"ce4bhkp2rcd13ifvqgd0","pricing_plan_id":"cebpf4jnsgd1na2vs0mg"},{"bike_id":"4df4ed8e-e2b2-43a3-bd6e-3ff2ef176a94","system_id":"levelo_inurba_marseille","lat":43.26222,"lon":5.37917,"is_reserved":false,"is_disabled":false,"rental_uris":{"android":"levelo://app?vid=4df4ed8e-e2b2-43a3-bd6e-3ff2ef176a94","ios":"levelo://app?vid=4df4ed8e-e2b2-43a3-bd6e-3ff2ef176a94"},"vehicle_type_id":"4","last_reported":1762013443,"current_range_meters":9600,"station_id":"ce4bhjp2rcd13ifvqg90","pricing_plan_id":"cebpf4jnsgd1na2vs0mg"},{"bike_id":"52b117f2-4c01-4f66-887d-006722496528","system_id":"levelo_inurba_marseille","lat":43.30862,"lon":5.3716,"is_reserved":false,"is_disabled":false,"rental_uris":{"android":"levelo://app?vid=52b117f2-4c01-4f66-887d-006722496528","ios":"levelo://app?vid=52b117f2-4c01-4f66-887d-006722496528"},"vehicle_type_id":"4","last_reported":1762013443,"current_range_meters":9600,"station_id":"","pricing_plan_id":"cebpf4jnsgd1na2vs0mg"},{"bike_id":"838ff85f-e9ed-4843-a7b2-690c3e4d8fc6","system_id":"levelo_inurba_marseille","lat":43.21757,"lon":5.34599,"is_reserved":false,"is_disabled":false,"rental_uris":{"android":"levelo://app?vid=838ff85f-e9ed-4843-a7b2-690c3e4d8fc6","ios":"levelo://app?vid=838ff85f-e9ed-4843-a7b2-690c3e4d8fc6"},"vehicle_type_id":"4","last_reported":1762013443,"current_range_meters":9600,"station_id":"st_cvj6r9ubvosntc0bgbag","pricing_plan_id":"cebpf4jnsgd1na2vs0mg"},{"bike_id":"6cd59db7-cb12-4301-8385-22b87d7a5cfd","system_id":"levelo_inurba_marseille","lat":43.28541,"lon":5.44096,"is_reserved":false,"is_disabled":false,"rental_uris":{"android":"levelo://app?vid=6cd59db7-cb12-4301-8385-22b87d7a5cfd","ios":"levelo://app?vid=6cd59db7-cb12-4301-8385-22b87d7a5cfd"},"vehicle_type_id":"4","last_reported":1762013443,"current_range_meters":10000,"station_id":"st_d3j3df2ikq2c7380ej80","pricing_plan_id":"cebpf4jnsgd1na2vs0mg"},{"bike_id":"07d9cad5-27e5-45b1-8100-dec66cdbf239","system_id":"levelo_inurba_marseille","lat":43.321151,"lon":5.367514,"is_reserved":false,"is_disabled":false,"rental_uris":{"android":"levelo://app?vid=07d9cad5-27e5-45b1-8100-dec66cdbf239","ios":"levelo://app?vid=07d9cad5-27e5-45b1-8100-dec66cdbf239"},"vehicle_type_id":"4","last_reported":1762013443,"current_range_meters":10000,"station_id":"ce4bhrh2rcd13ifvqhug","pricing_plan_id":"cebpf4jnsgd1na2vs0mg"},{"bike_id":"f34db612-7437-4eb6-b622-d7f6824be59a","system_id":"levelo_inurba_marseille","lat":43.28538,"lon":5.44101,"is_reserved":false,"is_disabled":false,"rental_uris":{"android":"levelo://app?vid=f34db612-7437-4eb6-b622-d7f6824be59a","ios":"levelo://app?vid=f34db612-7437-4eb6-b622-d7f6824be59a"},"vehicle_type_id":"4","last_reported":1762013443,"current_range_meters":10000,"station_id":"st_d3j3df2ikq2c7380ej80","pricing_plan_id":"cebpf4jnsgd1na2vs0mg"},{"bike_id":"3e0ee96b-8fbf-40c7-b23e-bbfbbf69c224","system_id":"levelo_inurba_marseille","lat":43.28533,"lon":5.44114,"is_reserved":false,"is_disabled":false,"rental_uris":{"android":"levelo://app?vid=3e0ee96b-8fbf-40c7-b23e-bbfbbf69c224","ios":"levelo://app?vid=3e0ee96b-8fbf-40c7-b23e-bbfbbf69c224"},"vehicle_type_id":"4","last_reported":1762013443,"current_range_meters":10000,"station_id":"st_d3j3df2ikq2c7380ej80","pricing_plan_id":"cebpf4jnsgd1na2vs0mg"},{"bike_id":"ae0fc63e-c4a9-4c6c-bfad-bc00bbda9cc0","system_id":"levelo_inurba_marseille","lat":43.23148,"lon":5.4373,"is_reserved":false,"is_disabled":false,"rental_uris":{"android":"levelo://app?vid=ae0fc63e-c4a9-4c6c-bfad-bc00bbda9cc0","ios":"levelo://app?vid=ae0fc63e-c4a9-4c6c-bfad-bc00bbda9cc0"},"vehicle_type_id":"4","last_reported":1762013443,"current_range_meters":10800,"station_id":"ce4bhmp2rcd13ifvqgog","pricing_plan_id":"cebpf4jnsgd1na2vs0mg"},{"bike_id":"ef3c599f-c4ca-4eb8-aa71-b3f4816507b8","system_id":"levelo_inurba_marseille","lat":43.29487,"lon":5.433188,"is_reserved":false,"is_disabled":false,"rental_uris":{"android":"levelo://app?vid=ef3c599f-c4ca-4eb8-aa71-b3f4816507b8","ios":"levelo://app?vid=ef3c599f-c4ca-4eb8-aa71-b3f4816507b8"},"vehicle_type_id":"4","last_reported":1762013443,"current_range_meters":10800,"station_id":"st_d3j5ugp08ojc73fj9d10","pricing_plan_id":"cebpf4jnsgd1na2vs0mg"},{"bike_id":"9332a87c-d76e-4236-8d1a-66684f5623ae","system_id":"levelo_inurba_marseille","lat":43.248181,"lon":5.374751,"is_reserved":false,"is_disabled":false,"rental_uris":{"android":"levelo://app?vid=9332a87c-d76e-4236-8d1a-66684f5623ae","ios":"levelo://app?vid=9332a87c-d76e-4236-8d1a-66684f5623ae"},"vehicle_type_id":"4","last_reported":1762013443,"current_range_meters":10800,"station_id":"ce4bhgh2rcd13ifvqfb0","pricing_plan_id":"cebpf4jnsgd1na2vs0mg"},{"bike_id":"74b15735-564b-4f09-952a-ba8cccb96884","system_id":"levelo_inurba_marseille","lat":43.29823,"lon":5.44067,"is_reserved":false,"is_disabled":false,"rental_uris":{"android":"levelo://app?vid=74b15735-564b-4f09-952a-ba8cccb96884","ios":"levelo://app?vid=74b15735-564b-4f09-952a-ba8cccb96884"},"vehicle_type_id":"4","last_reported":1762013443,"current_range_meters":10800,"station_id":"st_d3jp68qikq2c7381ktn0","pricing_plan_id":"cebpf4jnsgd1na2vs0mg"},{"bike_id":"3025fb81-f393-4f89-840e-bdde71df658a","system_id":"levelo_inurba_marseille","lat":43.265109,"lon":5.395333,"is_reserved":false,"is_disabled":false,"rental_uris":{"android":"levelo://app?vid=3025fb81-f393-4f89-840e-bdde71df658a","ios":"levelo://app?vid=3025fb81-f393-4f89-840e-bdde71df658a"},"vehicle_type_id":"4","last_reported":1762013443,"current_range_meters":11200,"station_id":"ce4bhi12rcd13ifvqfq0","pricing_plan_id":"cebpf4jnsgd1na2vs0mg"},{"bike_id":"e04f332d-b41c-47fd-b12f-6fdc7d63f429","system_id":"levelo_inurba_marseille","lat":43.30853,"lon":5.38302,"is_reserved":false,"is_disabled":false,"rental_uris":{"android":"levelo://app?vid=e04f332d-b41c-47fd-b12f-6fdc7d63f429","ios":"levelo://app?vid=e04f332d-b41c-47fd-b12f-6fdc7d63f429"},"vehicle_type_id":"4","last_reported":1762013443,"current_range_meters":11200,"station_id":"","pricing_plan_id":"cebpf4jnsgd1na2vs0mg"},{"bike_id":"c61cf0f6-2956-40ef-9574-5cc46ccb7b1b","system_id":"levelo_inurba_marseille","lat":43.29077,"lon":5.37169,"is_reserved":false,"is_disabled":false,"rental_uris":{"android":"levelo://app?vid=c61cf0f6-2956-40ef-9574-5cc46ccb7b1b","ios":"levelo://app?vid=c61cf0f6-2956-40ef-9574-5cc46ccb7b1b"},"vehicle_type_id":"4","last_reported":1762013443,"current_range_meters":11200,"station_id":"ce4bh5p2rcd13ifvqe4g","pricing_plan_id":"cebpf4jnsgd1na2vs0mg"},{"bike_id":"9e60f900-ab71-4e68-a0dc-facfeda34371","system_id":"levelo_inurba_marseille","lat":43.29375,"lon":5.3783,"is_reserved":false,"is_disabled":false,"rental_uris":{"android":"levelo://app?vid=9e60f900-ab71-4e68-a0dc-facfeda34371","ios":"levelo://app?vid=9e60f900-ab71-4e68-a0dc-facfeda34371"},"vehicle_type_id":"4","last_reported":1762013443,"current_range_meters":11600,"station_id":"ce4bgjh2rcd13ifvqbf0","pricing_plan_id":"cebpf4jnsgd1na2vs0mg"},{"bike_id":"b1e81361-2b17-4ef1-8a58-6def5753471b","system_id":"levelo_inurba_marseille","lat":43.33753,"lon":5.37484,"is_reserved":false,"is_disabled":false,"rental_uris":{"android":"levelo://app?vid=b1e81361-2b17-4ef1-8a58-6def5753471b","ios":"levelo://app?vid=b1e81361-2b17-4ef1-8a58-6def5753471b"},"vehicle_type_id":"4","last_reported":1762013443,"current_range_meters":11600,"station_id":"","pricing_plan_id":"cebpf4jnsgd1na2vs0mg"},{"bike_id":"c2807477-fd8d-44ed-9bdc-b3f90f0cbde0","system_id":"levelo_inurba_marseille","lat":43.3188,"lon":5.39975,"is_reserved":false,"is_disabled":false,"rental_uris":{"android":"levelo://app?vid=c2807477-fd8d-44ed-9bdc-b3f90f0cbde0","ios":"levelo://app?vid=c2807477-fd8d-44ed-9bdc-b3f90f0cbde0"},"vehicle_type_id":"4","last_reported":1762013443,"current_range_meters":11600,"station_id":"","pricing_plan_id":"cebpf4jnsgd1na2vs0mg"},{"bike_id":"b3677075-235d-410b-bfa9-38d8f2858226","system_id":"levelo_inurba_marseille","lat":43.28623,"lon":5.35109,"is_reserved":false,"is_disabled":false,"rental_uris":{"android":"levelo://app?vid=b3677075-235d-410b-bfa9-38d8f2858226","ios":"levelo://app?vid=b3677075-235d-410b-bfa9-38d8f2858226"},"vehicle_type_id":"4","last_reported":1762013443,"current_range_meters":11600,"station_id":"ce4bhch2rcd13ifvqeug","pricing_plan_id":"cebpf4jnsgd1na2vs0mg"},{"bike_id":"6ed18ccb-8383-425a-b26b-ef2216ccd140","system_id":"levelo_inurba_marseille","lat":43.24389,"lon":5.37055,"is_reserved":false,"is_disabled":false,"rental_uris":{"android":"levelo://app?vid=6ed18ccb-8383-425a-b26b-ef2216ccd140","ios":"levelo://app?vid=6ed18ccb-8383-425a-b26b-ef2216ccd140"},"vehicle_type_id":"4","last_reported":1762013443,"current_range_meters":11600,"station_id":"ce4bhhh2rcd13ifvqfk0","pricing_plan_id":"cebpf4jnsgd1na2vs0mg"},{"bike_id":"30c1e790-cfac-4559-a35a-ab45c35527ee","system_id":"levelo_inurba_marseille","lat":43.288147,"lon":5.391652,"is_reserved":false,"is_disabled":false,"rental_uris":{"android":"levelo://app?vid=30c1e790-cfac-4559-a35a-ab45c35527ee","ios":"levelo://app?vid=30c1e790-cfac-4559-a35a-ab45c35527ee"},"vehicle_type_id":"4","last_reported":1762013443,"current_range_meters":12000,"station_id":"","pricing_plan_id":"cebpf4jnsgd1na2vs0mg"},{"bike_id":"9769b5a9-f9c1-46a3-8b9b-b0b7df2a8585","system_id":"levelo_inurba_marseille","lat":43.288069,"lon":5.379483,"is_reserved":false,"is_disabled":false,"rental_uris":{"android":"levelo://app?vid=9769b5a9-f9c1-46a3-8b9b-b0b7df2a8585","ios":"levelo://app?vid=9769b5a9-f9c1-46a3-8b9b-b0b7df2a8585"},"vehicle_type_id":"4","last_reported":1762013443,"current_range_meters":12000,"station_id":"ce4bh9p2rcd13ifvqec0","pricing_plan_id":"cebpf4jnsgd1na2vs0mg"},{"bike_id":"1a2efa1a-bf57-4041-a313-428fa4179c7e","system_id":"levelo_inurba_marseille","lat":43.22933,"lon":5.35376,"is_reserved":false,"is_disabled":false,"rental_uris":{"android":"levelo://app?vid=1a2efa1a-bf57-4041-a313-428fa4179c7e","ios":"levelo://app?vid=1a2efa1a-bf57-4041-a313-428fa4179c7e"},"vehicle_type_id":"4","last_reported":1762013443,"current_range_meters":12000,"station_id":"cpo3532slgdg3j2ikp40","pricing_plan_id":"cebpf4jnsgd1na2vs0mg"},{"bike_id":"5c1c0f2e-c364-4c6d-acee-b2dfe1d030f5","system_id":"levelo_inurba_marseille","lat":43.33033,"lon":5.39049,"is_reserved":false,"is_disabled":false,"rental_uris":{"android":"levelo://app?vid=5c1c0f2e-c364-4c6d-acee-b2dfe1d030f5","ios":"levelo://app?vid=5c1c0f2e-c364-4c6d-acee-b2dfe1d030f5"},"vehicle_type_id":"4","last_reported":1762013443,"current_range_meters":12000,"station_id":"ce4bhr92rcd13ifvqhrg","pricing_plan_id":"cebpf4jnsgd1na2vs0mg"},{"bike_id":"eb963996-3758-4ccd-a28f-bd02793fe600","system_id":"levelo_inurba_marseille","lat":43.27621,"lon":5.36109,"is_reserved":false,"is_disabled":false,"rental_uris":{"android":"levelo://app?vid=eb963996-3758-4ccd-a28f-bd02793fe600","ios":"levelo://app?vid=eb963996-3758-4ccd-a28f-bd02793fe600"},"vehicle_type_id":"4","last_reported":1762013443,"current_range_meters":12000,"station_id":"ce4bgj92rcd13ifvqbe0","pricing_plan_id":"cebpf4jnsgd1na2vs0mg"},{"bike_id":"18acad6a-8a37-4f81-8ff7-cab440b86595","system_id":"levelo_inurba_marseille","lat":43.29974,"lon":5.37176,"is_reserved":false,"is_disabled":false,"rental_uris":{"android":"levelo://app?vid=18acad6a-8a37-4f81-8ff7-cab440b86595","ios":"levelo://app?vid=18acad6a-8a37-4f81-8ff7-cab440b86595"},"vehicle_type_id":"4","last_reported":1762013443,"current_range_meters":12400,"station_id":"ce4bgr92rcd13ifvqc7g","pricing_plan_id":"cebpf4jnsgd1na2vs0mg"},{"bike_id":"ae3598c3-d5d8-4133-922b-9187802cb4d8","system_id":"levelo_inurba_marseille","lat":43.321057,"lon":5.368014,"is_reserved":false,"is_disabled":false,"rental_uris":{"android":"levelo://app?vid=ae3598c3-d5d8-4133-922b-9187802cb4d8","ios":"levelo://app?vid=ae3598c3-d5d8-4133-922b-9187802cb4d8"},"vehicle_type_id":"4","last_reported":1762013443,"current_range_meters":12400,"station_id":"ce4bhrh2rcd13ifvqhug","pricing_plan_id":"cebpf4jnsgd1na2vs0mg"},{"bike_id":"c04ea6ec-c85d-4b9a-aa74-f0de2415a6d2","system_id":"levelo_inurba_marseille","lat":43.31569,"lon":5.38379,"is_reserved":false,"is_disabled":false,"rental_uris":{"android":"levelo://app?vid=c04ea6ec-c85d-4b9a-aa74-f0de2415a6d2","ios":"levelo://app?vid=c04ea6ec-c85d-4b9a-aa74-f0de2415a6d2"},"vehicle_type_id":"4","last_reported":1762013443,"current_range_meters":12400,"station_id":"","pricing_plan_id":"cebpf4jnsgd1na2vs0mg"},{"bike_id":"712b7649-f440-4e95-bc0a-6525a9259dc8","system_id":"levelo_inurba_marseille","lat":43.29168,"lon":5.40193,"is_reserved":false,"is_disabled":false,"rental_uris":{"android":"levelo://app?vid=712b7649-f440-4e95-bc0a-6525a9259dc8","ios":"levelo://app?vid=712b7649-f440-4e95-bc0a-6525a9259dc8"},"vehicle_type_id":"4","last_reported":1762013443,"current_range_meters":12400,"station_id":"","pricing_plan_id":"cebpf4jnsgd1na2vs0mg"},{"bike_id":"fd26b8bd-a398-45ff-9b0d-f3f792368007","system_id":"levelo_inurba_marseille","lat":43.28575,"lon":5.39494,"is_reserved":false,"is_disabled":false,"rental_uris":{"android":"levelo://app?vid=fd26b8bd-a398-45ff-9b0d-f3f792368007","ios":"levelo://app?vid=fd26b8bd-a398-45ff-9b0d-f3f792368007"},"vehicle_type_id":"4","last_reported":1762013443,"current_range_meters":12400,"station_id":"ce4bh292rcd13ifvqdg0","pricing_plan_id":"cebpf4jnsgd1na2vs0mg"},{"bike_id":"68dfe5bf-96d8-40ed-a701-d1cafa21ceb7","system_id":"levelo_inurba_marseille","lat":43.30583,"lon":5.38966,"is_reserved":false,"is_disabled":false,"rental_uris":{"android":"levelo://app?vid=68dfe5bf-96d8-40ed-a701-d1cafa21ceb7","ios":"levelo://app?vid=68dfe5bf-96d8-40ed-a701-d1cafa21ceb7"},"vehicle_type_id":"4","last_reported":1762013443,"current_range_meters":12800,"station_id":"ce4bgk12rcd13ifvqbi0","pricing_plan_id":"cebpf4jnsgd1na2vs0mg"},{"bike_id":"71ea6660-844e-4ffa-bc1d-4c7d59c906bf","system_id":"levelo_inurba_marseille","lat":43.250417,"lon":5.404646,"is_reserved":false,"is_disabled":false,"rental_uris":{"android":"levelo://app?vid=71ea6660-844e-4ffa-bc1d-4c7d59c906bf","ios":"levelo://app?vid=71ea6660-844e-4ffa-bc1d-4c7d59c906bf"},"vehicle_type_id":"4","last_reported":1762013443,"current_range_meters":12800,"station_id":"st_d2ngiaodas8pm72gd1h0","pricing_plan_id":"cebpf4jnsgd1na2vs0mg"},{"bike_id":"c2806245-b13c-44dc-b093-f303d3e74255","system_id":"levelo_inurba_marseille","lat":43.23159,"lon":5.43701,"is_reserved":false,"is_disabled":false,"rental_uris":{"android":"levelo://app?vid=c2806245-b13c-44dc-b093-f303d3e74255","ios":"levelo://app?vid=c2806245-b13c-44dc-b093-f303d3e74255"},"vehicle_type_id":"4","last_reported":1762013443,"current_range_meters":12800,"station_id":"ce4bhmp2rcd13ifvqgog","pricing_plan_id":"cebpf4jnsgd1na2vs0mg"},{"bike_id":"40dbcc84-27d6-48a1-8858-f771cdc7b40d","system_id":"levelo_inurba_marseille","lat":43.301123,"lon":5.431238,"is_reserved":false,"is_disabled":false,"rental_uris":{"android":"levelo://app?vid=40dbcc84-27d6-48a1-8858-f771cdc7b40d","ios":"levelo://app?vid=40dbcc84-27d6-48a1-8858-f771cdc7b40d"},"vehicle_type_id":"4","last_reported":1762013443,"current_range_meters":13600,"station_id":"st_d3js3co5814s73ftftug","pricing_plan_id":"cebpf4jnsgd1na2vs0mg"},{"bike_id":"7a9e1e86-52dc-42e4-a53b-236a591ba00d","system_id":"levelo_inurba_marseille","lat":43.28819,"lon":5.36382,"is_reserved":false,"is_disabled":false,"rental_uris":{"android":"levelo://app?vid=7a9e1e86-52dc-42e4-a53b-236a591ba00d","ios":"levelo://app?vid=7a9e1e86-52dc-42e4-a53b-236a591ba00d"},"vehicle_type_id":"4","last_reported":1762013443,"current_range_meters":13600,"station_id":"","pricing_plan_id":"cebpf4jnsgd1na2vs0mg"},{"bike_id":"f4c38a56-4a35-49a9-bdea-5d14ae1ba768","system_id":"levelo_inurba_marseille","lat":43.29749,"lon":5.4279,"is_reserved":false,"is_disabled":false,"rental_uris":{"android":"levelo://app?vid=f4c38a56-4a35-49a9-bdea-5d14ae1ba768","ios":"levelo://app?vid=f4c38a56-4a35-49a9-bdea-5d14ae1ba768"},"vehicle_type_id":"4","last_reported":1762013443,"current_range_meters":13600,"station_id":"st_d3md5207bmas73dh9klg","pricing_plan_id":"cebpf4jnsgd1na2vs0mg"},{"bike_id":"e6cb7c33-4e1d-444a-93dc-f44007b0546c","system_id":"levelo_inurba_marseille","lat":43.28642,"lon":5.35145,"is_reserved":false,"is_disabled":false,"rental_uris":{"android":"levelo://app?vid=e6cb7c33-4e1d-444a-93dc-f44007b0546c","ios":"levelo://app?vid=e6cb7c33-4e1d-444a-93dc-f44007b0546c"},"vehicle_type_id":"4","last_reported":1762013443,"current_range_meters":13600,"station_id":"ce4bhch2rcd13ifvqeug","pricing_plan_id":"cebpf4jnsgd1na2vs0mg"},{"bike_id":"24d20744-77d9-44b0-a51a-bee3fdce2bbf","system_id":"levelo_inurba_marseille","lat":43.29083,"lon":5.37177,"is_reserved":false,"is_disabled":false,"rental_uris":{"android":"levelo://app?vid=24d20744-77d9-44b0-a51a-bee3fdce2bbf","ios":"levelo://app?vid=24d20744-77d9-44b0-a51a-bee3fdce2bbf"},"vehicle_type_id":"4","last_reported":1762013443,"current_range_meters":13600,"station_id":"ce4bh5p2rcd13ifvqe4g","pricing_plan_id":"cebpf4jnsgd1na2vs0mg"},{"bike_id":"050a0b1e-5031-460e-9b87-649c79a8fe71","system_id":"levelo_inurba_marseille","lat":43.28412,"lon":5.34993,"is_reserved":false,"is_disabled":false,"rental_uris":{"android":"levelo://app?vid=050a0b1e-5031-460e-9b87-649c79a8fe71","ios":"levelo://app?vid=050a0b1e-5031-460e-9b87-649c79a8fe71"},"vehicle_type_id":"4","last_reported":1762013443,"current_range_meters":13600,"station_id":"ce4bhbh2rcd13ifvqepg","pricing_plan_id":"cebpf4jnsgd1na2vs0mg"},{"bike_id":"77fb0526-f6c6-4c08-9694-a94c4dccfa28","system_id":"levelo_inurba_marseille","lat":43.26067,"lon":5.39404,"is_reserved":false,"is_disabled":false,"rental_uris":{"android":"levelo://app?vid=77fb0526-f6c6-4c08-9694-a94c4dccfa28","ios":"levelo://app?vid=77fb0526-f6c6-4c08-9694-a94c4dccfa28"},"vehicle_type_id":"4","last_reported":1762013443,"current_range_meters":13600,"station_id":"ce4bhh92rcd13ifvqfj0","pricing_plan_id":"cebpf4jnsgd1na2vs0mg"},{"bike_id":"1da464de-a87c-49fb-939a-9732a97a4ebd","system_id":"levelo_inurba_marseille","lat":43.32096,"lon":5.36801,"is_reserved":false,"is_disabled":false,"rental_uris":{"android":"levelo://app?vid=1da464de-a87c-49fb-939a-9732a97a4ebd","ios":"levelo://app?vid=1da464de-a87c-49fb-939a-9732a97a4ebd"},"vehicle_type_id":"4","last_reported":1762013443,"current_range_meters":14000,"station_id":"ce4bhrh2rcd13ifvqhug","pricing_plan_id":"cebpf4jnsgd1na2vs0mg"},{"bike_id":"9b528f9a-4ac4-4796-aeb5-0bae3ddc60ae","system_id":"levelo_inurba_marseille","lat":43.260307,"lon":5.375476,"is_reserved":false,"is_disabled":false,"rental_uris":{"android":"levelo://app?vid=9b528f9a-4ac4-4796-aeb5-0bae3ddc60ae","ios":"levelo://app?vid=9b528f9a-4ac4-4796-aeb5-0bae3ddc60ae"},"vehicle_type_id":"4","last_reported":1762013443,"current_range_meters":14000,"station_id":"ce4bhgh2rcd13ifvqfa0","pricing_plan_id":"cebpf4jnsgd1na2vs0mg"},{"bike_id":"769e9f08-d61c-4253-b1a4-ec58f411020c","system_id":"levelo_inurba_marseille","lat":43.24814,"lon":5.3746,"is_reserved":false,"is_disabled":false,"rental_uris":{"android":"levelo://app?vid=769e9f08-d61c-4253-b1a4-ec58f411020c","ios":"levelo://app?vid=769e9f08-d61c-4253-b1a4-ec58f411020c"},"vehicle_type_id":"4","last_reported":1762013443,"current_range_meters":14000,"station_id":"ce4bhgh2rcd13ifvqfb0","pricing_plan_id":"cebpf4jnsgd1na2vs0mg"},{"bike_id":"96cbfedc-d9e0-46b4-9278-ed5bad333296","system_id":"levelo_inurba_marseille","lat":43.29269,"lon":5.36854,"is_reserved":false,"is_disabled":false,"rental_uris":{"android":"levelo://app?vid=96cbfedc-d9e0-46b4-9278-ed5bad333296","ios":"levelo://app?vid=96cbfedc-d9e0-46b4-9278-ed5bad333296"},"vehicle_type_id":"4","last_reported":1762013443,"current_range_meters":14000,"station_id":"ce4bhbp2rcd13ifvqesg","pricing_plan_id":"cebpf4jnsgd1na2vs0mg"},{"bike_id":"0089665c-d050-4f0d-8d27-e9a6af9208fc","system_id":"levelo_inurba_marseille","lat":43.30176,"lon":5.38039,"is_reserved":false,"is_disabled":false,"rental_uris":{"android":"levelo://app?vid=0089665c-d050-4f0d-8d27-e9a6af9208fc","ios":"levelo://app?vid=0089665c-d050-4f0d-8d27-e9a6af9208fc"},"vehicle_type_id":"4","last_reported":1762013443,"current_range_meters":14000,"station_id":"","pricing_plan_id":"cebpf4jnsgd1na2vs0mg"},{"bike_id":"0c3bfe72-1bfa-4fe4-8ec1-abc531b0b6c5","system_id":"levelo_inurba_marseille","lat":43.26543,"lon":5.37287,"is_reserved":false,"is_disabled":true,"rental_uris":{"android":"levelo://app?vid=0c3bfe72-1bfa-4fe4-8ec1-abc531b0b6c5","ios":"levelo://app?vid=0c3bfe72-1bfa-4fe4-8ec1-abc531b0b6c5"},"vehicle_type_id":"4","last_reported":1762013443,"current_range_meters":14000,"station_id":"ce4bhg12rcd13ifvqf70","pricing_plan_id":"cebpf4jnsgd1na2vs0mg"},{"bike_id":"5842e399-deb5-4df3-9b11-e52a12f30de6","system_id":"levelo_inurba_marseille","lat":43.30131,"lon":5.39868,"is_reserved":false,"is_disabled":false,"rental_uris":{"android":"levelo://app?vid=5842e399-deb5-4df3-9b11-e52a12f30de6","ios":"levelo://app?vid=5842e399-deb5-4df3-9b11-e52a12f30de6"},"vehicle_type_id":"4","last_reported":1762013443,"current_range_meters":14000,"station_id":"ce4bh0h2rcd13ifvqd40","pricing_plan_id":"cebpf4jnsgd1na2vs0mg"},{"bike_id":"60431129-87c3-4862-bb1f-ac78fc84a5c1","system_id":"levelo_inurba_marseille","lat":43.27422,"lon":5.39419,"is_reserved":false,"is_disabled":false,"rental_uris":{"android":"levelo://app?vid=60431129-87c3-4862-bb1f-ac78fc84a5c1","ios":"levelo://app?vid=60431129-87c3-4862-bb1f-ac78fc84a5c1"},"vehicle_type_id":"4","last_reported":1762013443,"current_range_meters":14400,"station_id":"ce4bhdp2rcd13ifvqf20","pricing_plan_id":"cebpf4jnsgd1na2vs0mg"},{"bike_id":"5224dfc5-e8f6-493a-a7c3-4cc676f55caf","system_id":"levelo_inurba_marseille","lat":43.23969,"lon":5.36626,"is_reserved":false,"is_disabled":false,"rental_uris":{"android":"levelo://app?vid=5224dfc5-e8f6-493a-a7c3-4cc676f55caf","ios":"levelo://app?vid=5224dfc5-e8f6-493a-a7c3-4cc676f55caf"},"vehicle_type_id":"4","last_reported":1762013443,"current_range_meters":14400,"station_id":"ce4bhi12rcd13ifvqfp0","pricing_plan_id":"cebpf4jnsgd1na2vs0mg"},{"bike_id":"ba8ef064-133d-4571-afc3-08420fc9e50e","system_id":"levelo_inurba_marseille","lat":43.29212,"lon":5.36067,"is_reserved":false,"is_disabled":false,"rental_uris":{"android":"levelo://app?vid=ba8ef064-133d-4571-afc3-08420fc9e50e","ios":"levelo://app?vid=ba8ef064-133d-4571-afc3-08420fc9e50e"},"vehicle_type_id":"4","last_reported":1762013443,"current_range_meters":14400,"station_id":"ce4bhbh2rcd13ifvqeqg","pricing_plan_id":"cebpf4jnsgd1na2vs0mg"},{"bike_id":"19412cdc-731c-45d1-87c0-edba597c7c62","system_id":"levelo_inurba_marseille","lat":43.29622,"lon":5.37728,"is_reserved":false,"is_disabled":false,"rental_uris":{"android":"levelo://app?vid=19412cdc-731c-45d1-87c0-edba597c7c62","ios":"levelo://app?vid=19412cdc-731c-45d1-87c0-edba597c7c62"},"vehicle_type_id":"4","last_reported":1762013443,"current_range_meters":14400,"station_id":"ce4bgi92rcd13ifvqb90","pricing_plan_id":"cebpf4jnsgd1na2vs0mg"},{"bike_id":"25b8b9c6-92a5-43d3-8767-0700e7c7de1c","system_id":"levelo_inurba_marseille","lat":43.33818,"lon":5.37405,"is_reserved":false,"is_disabled":false,"rental_uris":{"android":"levelo://app?vid=25b8b9c6-92a5-43d3-8767-0700e7c7de1c","ios":"levelo://app?vid=25b8b9c6-92a5-43d3-8767-0700e7c7de1c"},"vehicle_type_id":"4","last_reported":1762013443,"current_range_meters":14400,"station_id":"","pricing_plan_id":"cebpf4jnsgd1na2vs0mg"},{"bike_id":"4a648c60-137b-4e22-9f5b-b31cfb889a62","system_id":"levelo_inurba_marseille","lat":43.25345,"lon":5.4217,"is_reserved":false,"is_disabled":false,"rental_uris":{"android":"levelo://app?vid=4a648c60-137b-4e22-9f5b-b31cfb889a62","ios":"levelo://app?vid=4a648c60-137b-4e22-9f5b-b31cfb889a62"},"vehicle_type_id":"4","last_reported":1762013443,"current_range_meters":14400,"station_id":"st_d2m65c5bi1j21697t3ng","pricing_plan_id":"cebpf4jnsgd1na2vs0mg"},{"bike_id":"35c5eff1-6c48-49f5-b44e-1b2d21fe3798","system_id":"levelo_inurba_marseille","lat":43.321031,"lon":5.367784,"is_reserved":false,"is_disabled":false,"rental_uris":{"android":"levelo://app?vid=35c5eff1-6c48-49f5-b44e-1b2d21fe3798","ios":"levelo://app?vid=35c5eff1-6c48-49f5-b44e-1b2d21fe3798"},"vehicle_type_id":"4","last_reported":1762013443,"current_range_meters":14400,"station_id":"ce4bhrh2rcd13ifvqhug","pricing_plan_id":"cebpf4jnsgd1na2vs0mg"},{"bike_id":"6f55c2df-5461-4f13-8308-6d7dd6f86eb4","system_id":"levelo_inurba_marseille","lat":43.22929,"lon":5.35375,"is_reserved":false,"is_disabled":false,"rental_uris":{"android":"levelo://app?vid=6f55c2df-5461-4f13-8308-6d7dd6f86eb4","ios":"levelo://app?vid=6f55c2df-5461-4f13-8308-6d7dd6f86eb4"},"vehicle_type_id":"4","last_reported":1762013443,"current_range_meters":14800,"station_id":"cpo3532slgdg3j2ikp40","pricing_plan_id":"cebpf4jnsgd1na2vs0mg"},{"bike_id":"bd81e728-96f5-42d5-a60b-8dcd5e10c0f5","system_id":"levelo_inurba_marseille","lat":43.229313,"lon":5.353769,"is_reserved":false,"is_disabled":false,"rental_uris":{"android":"levelo://app?vid=bd81e728-96f5-42d5-a60b-8dcd5e10c0f5","ios":"levelo://app?vid=bd81e728-96f5-42d5-a60b-8dcd5e10c0f5"},"vehicle_type_id":"4","last_reported":1762013443,"current_range_meters":14800,"station_id":"cpo3532slgdg3j2ikp40","pricing_plan_id":"cebpf4jnsgd1na2vs0mg"},{"bike_id":"92c4ecea-a870-4734-96b0-1c8b639bde58","system_id":"levelo_inurba_marseille","lat":43.253272,"lon":5.421708,"is_reserved":false,"is_disabled":false,"rental_uris":{"android":"levelo://app?vid=92c4ecea-a870-4734-96b0-1c8b639bde58","ios":"levelo://app?vid=92c4ecea-a870-4734-96b0-1c8b639bde58"},"vehicle_type_id":"4","last_reported":1762013443,"current_range_meters":14800,"station_id":"st_d2m65c5bi1j21697t3ng","pricing_plan_id":"cebpf4jnsgd1na2vs0mg"},{"bike_id":"33ae0dab-3749-43ff-9793-2b7dc4ecf75d","system_id":"levelo_inurba_marseille","lat":43.25334,"lon":5.42181,"is_reserved":false,"is_disabled":false,"rental_uris":{"android":"levelo://app?vid=33ae0dab-3749-43ff-9793-2b7dc4ecf75d","ios":"levelo://app?vid=33ae0dab-3749-43ff-9793-2b7dc4ecf75d"},"vehicle_type_id":"4","last_reported":1762013443,"current_range_meters":14800,"station_id":"st_d2m65c5bi1j21697t3ng","pricing_plan_id":"cebpf4jnsgd1na2vs0mg"},{"bike_id":"87f35eb6-fdd4-48cb-aac4-3bc58afdac22","system_id":"levelo_inurba_marseille","lat":43.24816,"lon":5.37472,"is_reserved":false,"is_disabled":false,"rental_uris":{"android":"levelo://app?vid=87f35eb6-fdd4-48cb-aac4-3bc58afdac22","ios":"levelo://app?vid=87f35eb6-fdd4-48cb-aac4-3bc58afdac22"},"vehicle_type_id":"4","last_reported":1762013443,"current_range_meters":14800,"station_id":"ce4bhgh2rcd13ifvqfb0","pricing_plan_id":"cebpf4jnsgd1na2vs0mg"},{"bike_id":"6eddb280-42c7-4a50-ae2d-ed01c8eee3ee","system_id":"levelo_inurba_marseille","lat":43.28927,"lon":5.38393,"is_reserved":false,"is_disabled":false,"rental_uris":{"android":"levelo://app?vid=6eddb280-42c7-4a50-ae2d-ed01c8eee3ee","ios":"levelo://app?vid=6eddb280-42c7-4a50-ae2d-ed01c8eee3ee"},"vehicle_type_id":"4","last_reported":1762013443,"current_range_meters":14800,"station_id":"ce4bh612rcd13ifvqe6g","pricing_plan_id":"cebpf4jnsgd1na2vs0mg"},{"bike_id":"02081b4a-675c-4eef-b1f5-bc1dbbb11a7b","system_id":"levelo_inurba_marseille","lat":43.29784,"lon":5.37101,"is_reserved":false,"is_disabled":false,"rental_uris":{"android":"levelo://app?vid=02081b4a-675c-4eef-b1f5-bc1dbbb11a7b","ios":"levelo://app?vid=02081b4a-675c-4eef-b1f5-bc1dbbb11a7b"},"vehicle_type_id":"4","last_reported":1762013443,"current_range_meters":15200,"station_id":"ce4bgop2rcd13ifvqc1g","pricing_plan_id":"cebpf4jnsgd1na2vs0mg"},{"bike_id":"41598790-345d-414f-9e87-720cb432f278","system_id":"levelo_inurba_marseille","lat":43.29477,"lon":5.36227,"is_reserved":false,"is_disabled":false,"rental_uris":{"android":"levelo://app?vid=41598790-345d-414f-9e87-720cb432f278","ios":"levelo://app?vid=41598790-345d-414f-9e87-720cb432f278"},"vehicle_type_id":"4","last_reported":1762013443,"current_range_meters":15200,"station_id":"","pricing_plan_id":"cebpf4jnsgd1na2vs0mg"},{"bike_id":"269b302d-3c48-4bb6-a063-2ab24423c89a","system_id":"levelo_inurba_marseille","lat":43.22559,"lon":5.4163,"is_reserved":false,"is_disabled":false,"rental_uris":{"android":"levelo://app?vid=269b302d-3c48-4bb6-a063-2ab24423c89a","ios":"levelo://app?vid=269b302d-3c48-4bb6-a063-2ab24423c89a"},"vehicle_type_id":"4","last_reported":1762013443,"current_range_meters":15200,"station_id":"st_d2o4gvlbi1j2169b742g","pricing_plan_id":"cebpf4jnsgd1na2vs0mg"},{"bike_id":"2ea8b295-6a13-47c7-8965-8106cf796d7e","system_id":"levelo_inurba_marseille","lat":43.31349,"lon":5.37671,"is_reserved":false,"is_disabled":false,"rental_uris":{"android":"levelo://app?vid=2ea8b295-6a13-47c7-8965-8106cf796d7e","ios":"levelo://app?vid=2ea8b295-6a13-47c7-8965-8106cf796d7e"},"vehicle_type_id":"4","last_reported":1762013443,"current_range_meters":16000,"station_id":"","pricing_plan_id":"cebpf4jnsgd1na2vs0mg"},{"bike_id":"172151c4-e669-49b5-8368-301dba99bca9","system_id":"levelo_inurba_marseille","lat":43.27425,"lon":5.39426,"is_reserved":false,"is_disabled":false,"rental_uris":{"android":"levelo://app?vid=172151c4-e669-49b5-8368-301dba99bca9","ios":"levelo://app?vid=172151c4-e669-49b5-8368-301dba99bca9"},"vehicle_type_id":"4","last_reported":1762013443,"current_range_meters":16000,"station_id":"ce4bhdp2rcd13ifvqf20","pricing_plan_id":"cebpf4jnsgd1na2vs0mg"},{"bike_id":"5ff8df92-ea92-48c9-9c8b-7c47ea8450c7","system_id":"levelo_inurba_marseille","lat":43.28572,"lon":5.39502,"is_reserved":false,"is_disabled":false,"rental_uris":{"android":"levelo://app?vid=5ff8df92-ea92-48c9-9c8b-7c47ea8450c7","ios":"levelo://app?vid=5ff8df92-ea92-48c9-9c8b-7c47ea8450c7"},"vehicle_type_id":"4","last_reported":1762013443,"current_range_meters":16000,"station_id":"ce4bh292rcd13ifvqdg0","pricing_plan_id":"cebpf4jnsgd1na2vs0mg"},{"bike_id":"aad6a064-c048-4ba9-a156-1745b89548aa","system_id":"levelo_inurba_marseille","lat":43.28305,"lon":5.41107,"is_reserved":false,"is_disabled":false,"rental_uris":{"android":"levelo://app?vid=aad6a064-c048-4ba9-a156-1745b89548aa","ios":"levelo://app?vid=aad6a064-c048-4ba9-a156-1745b89548aa"},"vehicle_type_id":"4","last_reported":1762013443,"current_range_meters":16000,"station_id":"","pricing_plan_id":"cebpf4jnsgd1na2vs0mg"},{"bike_id":"c011b06f-431c-485c-9e79-2626977d254d","system_id":"levelo_inurba_marseille","lat":43.3015,"lon":5.38081,"is_reserved":false,"is_disabled":false,"rental_uris":{"android":"levelo://app?vid=c011b06f-431c-485c-9e79-2626977d254d","ios":"levelo://app?vid=c011b06f-431c-485c-9e79-2626977d254d"},"vehicle_type_id":"4","last_reported":1762013443,"current_range_meters":16000,"station_id":"ce4bgjp2rcd13ifvqbh0","pricing_plan_id":"cebpf4jnsgd1na2vs0mg"},{"bike_id":"50c2c89c-4a9b-41f6-af05-b4e430e07029","system_id":"levelo_inurba_marseille","lat":43.24634,"lon":5.43155,"is_reserved":false,"is_disabled":false,"rental_uris":{"android":"levelo://app?vid=50c2c89c-4a9b-41f6-af05-b4e430e07029","ios":"levelo://app?vid=50c2c89c-4a9b-41f6-af05-b4e430e07029"},"vehicle_type_id":"4","last_reported":1762013443,"current_range_meters":16000,"station_id":"st_d2m6c4gdas8pm72e190g","pricing_plan_id":"cebpf4jnsgd1na2vs0mg"},{"bike_id":"1d29646a-da1f-4f66-b008-0838ffb2fa84","system_id":"levelo_inurba_marseille","lat":43.30019,"lon":5.37236,"is_reserved":false,"is_disabled":false,"rental_uris":{"android":"levelo://app?vid=1d29646a-da1f-4f66-b008-0838ffb2fa84","ios":"levelo://app?vid=1d29646a-da1f-4f66-b008-0838ffb2fa84"},"vehicle_type_id":"4","last_reported":1762013443,"current_range_meters":16000,"station_id":"","pricing_plan_id":"cebpf4jnsgd1na2vs0mg"},{"bike_id":"b3a4a5e0-a789-48ed-9b02-f8377ee6ed2e","system_id":"levelo_inurba_marseille","lat":43.304183,"lon":5.412807,"is_reserved":false,"is_disabled":false,"rental_uris":{"android":"levelo://app?vid=b3a4a5e0-a789-48ed-9b02-f8377ee6ed2e","ios":"levelo://app?vid=b3a4a5e0-a789-48ed-9b02-f8377ee6ed2e"},"vehicle_type_id":"4","last_reported":1762013443,"current_range_meters":16000,"station_id":"ce4bhop2rcd13ifvqh8g","pricing_plan_id":"cebpf4jnsgd1na2vs0mg"},{"bike_id":"52b04612-cd38-411f-a68e-6bb9cb24a90a","system_id":"levelo_inurba_marseille","lat":43.24178,"lon":5.36406,"is_reserved":false,"is_disabled":false,"rental_uris":{"android":"levelo://app?vid=52b04612-cd38-411f-a68e-6bb9cb24a90a","ios":"levelo://app?vid=52b04612-cd38-411f-a68e-6bb9cb24a90a"},"vehicle_type_id":"4","last_reported":1762013443,"current_range_meters":16400,"station_id":"cpo36qri1sfpv3e86is0","pricing_plan_id":"cebpf4jnsgd1na2vs0mg"},{"bike_id":"528e3c88-b623-43f9-a15b-cba9eb4d6f1a","system_id":"levelo_inurba_marseille","lat":43.28461,"lon":5.48384,"is_reserved":false,"is_disabled":false,"rental_uris":{"android":"levelo://app?vid=528e3c88-b623-43f9-a15b-cba9eb4d6f1a","ios":"levelo://app?vid=528e3c88-b623-43f9-a15b-cba9eb4d6f1a"},"vehicle_type_id":"4","last_reported":1762013443,"current_range_meters":16400,"station_id":"st_d3svhcjqgbts73a3dn0g","pricing_plan_id":"cebpf4jnsgd1na2vs0mg"},{"bike_id":"565cc599-e2e4-4d0e-aef3-effc6ee3ffe7","system_id":"levelo_inurba_marseille","lat":43.27951,"lon":5.41045,"is_reserved":false,"is_disabled":false,"rental_uris":{"android":"levelo://app?vid=565cc599-e2e4-4d0e-aef3-effc6ee3ffe7","ios":"levelo://app?vid=565cc599-e2e4-4d0e-aef3-effc6ee3ffe7"},"vehicle_type_id":"4","last_reported":1762013443,"current_range_meters":16400,"station_id":"ce4bhnp2rcd13ifvqh0g","pricing_plan_id":"cebpf4jnsgd1na2vs0mg"},{"bike_id":"a599ea86-16bb-4d79-89fe-01c4b3b42dc5","system_id":"levelo_inurba_marseille","lat":43.321142,"lon":5.36779,"is_reserved":false,"is_disabled":false,"rental_uris":{"android":"levelo://app?vid=a599ea86-16bb-4d79-89fe-01c4b3b42dc5","ios":"levelo://app?vid=a599ea86-16bb-4d79-89fe-01c4b3b42dc5"},"vehicle_type_id":"4","last_reported":1762013443,"current_range_meters":16400,"station_id":"ce4bhrh2rcd13ifvqhug","pricing_plan_id":"cebpf4jnsgd1na2vs0mg"},{"bike_id":"f31466ab-ff26-4d0b-af96-64b3f4c8ede2","system_id":"levelo_inurba_marseille","lat":43.27947,"lon":5.41056,"is_reserved":false,"is_disabled":false,"rental_uris":{"android":"levelo://app?vid=f31466ab-ff26-4d0b-af96-64b3f4c8ede2","ios":"levelo://app?vid=f31466ab-ff26-4d0b-af96-64b3f4c8ede2"},"vehicle_type_id":"4","last_reported":1762013443,"current_range_meters":16400,"station_id":"ce4bhnp2rcd13ifvqh0g","pricing_plan_id":"cebpf4jnsgd1na2vs0mg"},{"bike_id":"994aada5-785c-472c-97b4-12a7f6257931","system_id":"levelo_inurba_marseille","lat":43.2955,"lon":5.37523,"is_reserved":false,"is_disabled":false,"rental_uris":{"android":"levelo://app?vid=994aada5-785c-472c-97b4-12a7f6257931","ios":"levelo://app?vid=994aada5-785c-472c-97b4-12a7f6257931"},"vehicle_type_id":"4","last_reported":1762013443,"current_range_meters":16800,"station_id":"ce4bgh92rcd13ifvqb50","pricing_plan_id":"cebpf4jnsgd1na2vs0mg"},{"bike_id":"559dd85a-7aa9-44d9-a59a-779baf8c5c22","system_id":"levelo_inurba_marseille","lat":43.2949,"lon":5.43305,"is_reserved":false,"is_disabled":false,"rental_uris":{"android":"levelo://app?vid=559dd85a-7aa9-44d9-a59a-779baf8c5c22","ios":"levelo://app?vid=559dd85a-7aa9-44d9-a59a-779baf8c5c22"},"vehicle_type_id":"4","last_reported":1762013443,"current_range_meters":16800,"station_id":"st_d3j5ugp08ojc73fj9d10","pricing_plan_id":"cebpf4jnsgd1na2vs0mg"},{"bike_id":"137b611e-0d30-42e5-bd0e-4ca1b1f19b3a","system_id":"levelo_inurba_marseille","lat":43.2801,"lon":5.40002,"is_reserved":false,"is_disabled":false,"rental_uris":{"android":"levelo://app?vid=137b611e-0d30-42e5-bd0e-4ca1b1f19b3a","ios":"levelo://app?vid=137b611e-0d30-42e5-bd0e-4ca1b1f19b3a"},"vehicle_type_id":"4","last_reported":1762013443,"current_range_meters":16800,"station_id":"ce4bho92rcd13ifvqh4g","pricing_plan_id":"cebpf4jnsgd1na2vs0mg"},{"bike_id":"45833a00-bb86-4c87-99c2-814a719ac317","system_id":"levelo_inurba_marseille","lat":43.22946,"lon":5.35383,"is_reserved":false,"is_disabled":false,"rental_uris":{"android":"levelo://app?vid=45833a00-bb86-4c87-99c2-814a719ac317","ios":"levelo://app?vid=45833a00-bb86-4c87-99c2-814a719ac317"},"vehicle_type_id":"4","last_reported":1762013443,"current_range_meters":16800,"station_id":"cpo3532slgdg3j2ikp40","pricing_plan_id":"cebpf4jnsgd1na2vs0mg"},{"bike_id":"aece0d93-f34d-44bc-a360-3250b39dd52e","system_id":"levelo_inurba_marseille","lat":43.2623,"lon":5.40449,"is_reserved":false,"is_disabled":false,"rental_uris":{"android":"levelo://app?vid=aece0d93-f34d-44bc-a360-3250b39dd52e","ios":"levelo://app?vid=aece0d93-f34d-44bc-a360-3250b39dd52e"},"vehicle_type_id":"4","last_reported":1762013443,"current_range_meters":16800,"station_id":"ce4bhmh2rcd13ifvqgmg","pricing_plan_id":"cebpf4jnsgd1na2vs0mg"},{"bike_id":"ba541a52-7e4e-4241-9791-ae6f1fb03dcd","system_id":"levelo_inurba_marseille","lat":43.31991,"lon":5.41599,"is_reserved":false,"is_disabled":false,"rental_uris":{"android":"levelo://app?vid=ba541a52-7e4e-4241-9791-ae6f1fb03dcd","ios":"levelo://app?vid=ba541a52-7e4e-4241-9791-ae6f1fb03dcd"},"vehicle_type_id":"4","last_reported":1762013443,"current_range_meters":16800,"station_id":"","pricing_plan_id":"cebpf4jnsgd1na2vs0mg"},{"bike_id":"c0c3bbca-7767-4fad-8cf9-3cb00a9700a8","system_id":"levelo_inurba_marseille","lat":43.29697,"lon":5.36595,"is_reserved":false,"is_disabled":false,"rental_uris":{"android":"levelo://app?vid=c0c3bbca-7767-4fad-8cf9-3cb00a9700a8","ios":"levelo://app?vid=c0c3bbca-7767-4fad-8cf9-3cb00a9700a8"},"vehicle_type_id":"4","last_reported":1762013443,"current_range_meters":17200,"station_id":"ce4bgn12rcd13ifvqbt0","pricing_plan_id":"cebpf4jnsgd1na2vs0mg"},{"bike_id":"c7d57f9b-8ba9-4435-ac3b-54d333c0b4c7","system_id":"levelo_inurba_marseille","lat":43.32357,"lon":5.36702,"is_reserved":false,"is_disabled":false,"rental_uris":{"android":"levelo://app?vid=c7d57f9b-8ba9-4435-ac3b-54d333c0b4c7","ios":"levelo://app?vid=c7d57f9b-8ba9-4435-ac3b-54d333c0b4c7"},"vehicle_type_id":"4","last_reported":1762013443,"current_range_meters":17200,"station_id":"","pricing_plan_id":"cebpf4jnsgd1na2vs0mg"},{"bike_id":"7b0eaa70-7657-4098-8e47-f6fae1ad1d21","system_id":"levelo_inurba_marseille","lat":43.258625,"lon":5.39903,"is_reserved":false,"is_disabled":false,"rental_uris":{"android":"levelo://app?vid=7b0eaa70-7657-4098-8e47-f6fae1ad1d21","ios":"levelo://app?vid=7b0eaa70-7657-4098-8e47-f6fae1ad1d21"},"vehicle_type_id":"4","last_reported":1762013443,"current_range_meters":17200,"station_id":"ce4bhl92rcd13ifvqghg","pricing_plan_id":"cebpf4jnsgd1na2vs0mg"},{"bike_id":"f2c10afa-fa1c-4b07-974d-71e05682e2da","system_id":"levelo_inurba_marseille","lat":43.30557,"lon":5.36558,"is_reserved":false,"is_disabled":false,"rental_uris":{"android":"levelo://app?vid=f2c10afa-fa1c-4b07-974d-71e05682e2da","ios":"levelo://app?vid=f2c10afa-fa1c-4b07-974d-71e05682e2da"},"vehicle_type_id":"4","last_reported":1762013443,"current_range_meters":17200,"station_id":"ce4bgs12rcd13ifvqcag","pricing_plan_id":"cebpf4jnsgd1na2vs0mg"},{"bike_id":"2a32e756-8076-4328-a472-196c9c9d4e25","system_id":"levelo_inurba_marseille","lat":43.28613,"lon":5.37064,"is_reserved":false,"is_disabled":false,"rental_uris":{"android":"levelo://app?vid=2a32e756-8076-4328-a472-196c9c9d4e25","ios":"levelo://app?vid=2a32e756-8076-4328-a472-196c9c9d4e25"},"vehicle_type_id":"4","last_reported":1762013443,"current_range_meters":17200,"station_id":"ce4bht12rcd13ifvqi60","pricing_plan_id":"cebpf4jnsgd1na2vs0mg"},{"bike_id":"cdcfa7af-5c53-4a1e-bd12-22de38b14978","system_id":"levelo_inurba_marseille","lat":43.24609,"lon":5.43134,"is_reserved":false,"is_disabled":false,"rental_uris":{"android":"levelo://app?vid=cdcfa7af-5c53-4a1e-bd12-22de38b14978","ios":"levelo://app?vid=cdcfa7af-5c53-4a1e-bd12-22de38b14978"},"vehicle_type_id":"4","last_reported":1762013443,"current_range_meters":17600,"station_id":"st_d2m6c4gdas8pm72e190g","pricing_plan_id":"cebpf4jnsgd1na2vs0mg"},{"bike_id":"12a18d4a-7b67-4876-88d1-1820554fc400","system_id":"levelo_inurba_marseille","lat":43.297354,"lon":5.380987,"is_reserved":false,"is_disabled":false,"rental_uris":{"android":"levelo://app?vid=12a18d4a-7b67-4876-88d1-1820554fc400","ios":"levelo://app?vid=12a18d4a-7b67-4876-88d1-1820554fc400"},"vehicle_type_id":"4","last_reported":1762013443,"current_range_meters":17600,"station_id":"","pricing_plan_id":"cebpf4jnsgd1na2vs0mg"},{"bike_id":"e24f2027-65e3-4d25-862d-8589d132b0a9","system_id":"levelo_inurba_marseille","lat":43.279361,"lon":5.410566,"is_reserved":false,"is_disabled":false,"rental_uris":{"android":"levelo://app?vid=e24f2027-65e3-4d25-862d-8589d132b0a9","ios":"levelo://app?vid=e24f2027-65e3-4d25-862d-8589d132b0a9"},"vehicle_type_id":"4","last_reported":1762013443,"current_range_meters":17600,"station_id":"ce4bhnp2rcd13ifvqh0g","pricing_plan_id":"cebpf4jnsgd1na2vs0mg"},{"bike_id":"84f1bfac-8d21-499b-b8e1-fdc8049e10ac","system_id":"levelo_inurba_marseille","lat":43.31281,"lon":5.37756,"is_reserved":false,"is_disabled":false,"rental_uris":{"android":"levelo://app?vid=84f1bfac-8d21-499b-b8e1-fdc8049e10ac","ios":"levelo://app?vid=84f1bfac-8d21-499b-b8e1-fdc8049e10ac"},"vehicle_type_id":"4","last_reported":1762013443,"current_range_meters":17600,"station_id":"","pricing_plan_id":"cebpf4jnsgd1na2vs0mg"},{"bike_id":"214aae98-88cf-4dfa-b97e-ce54aeafc01e","system_id":"levelo_inurba_marseille","lat":43.2792,"lon":5.39574,"is_reserved":false,"is_disabled":false,"rental_uris":{"android":"levelo://app?vid=214aae98-88cf-4dfa-b97e-ce54aeafc01e","ios":"levelo://app?vid=214aae98-88cf-4dfa-b97e-ce54aeafc01e"},"vehicle_type_id":"4","last_reported":1762013443,"current_range_meters":17600,"station_id":"ce4bhf92rcd13ifvqf40","pricing_plan_id":"cebpf4jnsgd1na2vs0mg"},{"bike_id":"e304397e-4499-4dfe-b16e-ccda5896dc00","system_id":"levelo_inurba_marseille","lat":43.25488,"lon":5.37649,"is_reserved":false,"is_disabled":false,"rental_uris":{"android":"levelo://app?vid=e304397e-4499-4dfe-b16e-ccda5896dc00","ios":"levelo://app?vid=e304397e-4499-4dfe-b16e-ccda5896dc00"},"vehicle_type_id":"4","last_reported":1762013443,"current_range_meters":17600,"station_id":"ce4bhh12rcd13ifvqff0","pricing_plan_id":"cebpf4jnsgd1na2vs0mg"},{"bike_id":"13f692d1-95f0-468a-808d-ecb42dc0d2f0","system_id":"levelo_inurba_marseille","lat":43.28869,"lon":5.35851,"is_reserved":false,"is_disabled":false,"rental_uris":{"android":"levelo://app?vid=13f692d1-95f0-468a-808d-ecb42dc0d2f0","ios":"levelo://app?vid=13f692d1-95f0-468a-808d-ecb42dc0d2f0"},"vehicle_type_id":"4","last_reported":1762013443,"current_range_meters":17600,"station_id":"ce4bhb12rcd13ifvqem0","pricing_plan_id":"cebpf4jnsgd1na2vs0mg"},{"bike_id":"fbc899d2-8c60-432e-a054-080f9183e9de","system_id":"levelo_inurba_marseille","lat":43.25339,"lon":5.42177,"is_reserved":false,"is_disabled":false,"rental_uris":{"android":"levelo://app?vid=fbc899d2-8c60-432e-a054-080f9183e9de","ios":"levelo://app?vid=fbc899d2-8c60-432e-a054-080f9183e9de"},"vehicle_type_id":"4","last_reported":1762013443,"current_range_meters":18000,"station_id":"st_d2m65c5bi1j21697t3ng","pricing_plan_id":"cebpf4jnsgd1na2vs0mg"},{"bike_id":"1dff0eba-7b24-4e9e-b26e-371189c08022","system_id":"levelo_inurba_marseille","lat":43.248133,"lon":5.374566,"is_reserved":false,"is_disabled":false,"rental_uris":{"android":"levelo://app?vid=1dff0eba-7b24-4e9e-b26e-371189c08022","ios":"levelo://app?vid=1dff0eba-7b24-4e9e-b26e-371189c08022"},"vehicle_type_id":"4","last_reported":1762013443,"current_range_meters":18000,"station_id":"ce4bhgh2rcd13ifvqfb0","pricing_plan_id":"cebpf4jnsgd1na2vs0mg"},{"bike_id":"fd2a3e15-d6ed-4064-b7e2-d83799925ad0","system_id":"levelo_inurba_marseille","lat":43.297497,"lon":5.4278,"is_reserved":false,"is_disabled":false,"rental_uris":{"android":"levelo://app?vid=fd2a3e15-d6ed-4064-b7e2-d83799925ad0","ios":"levelo://app?vid=fd2a3e15-d6ed-4064-b7e2-d83799925ad0"},"vehicle_type_id":"4","last_reported":1762013443,"current_range_meters":18000,"station_id":"st_d3md5207bmas73dh9klg","pricing_plan_id":"cebpf4jnsgd1na2vs0mg"},{"bike_id":"9b0d9e28-79a3-4616-8e57-580f61942c1e","system_id":"levelo_inurba_marseille","lat":43.28746,"lon":5.38551,"is_reserved":false,"is_disabled":false,"rental_uris":{"android":"levelo://app?vid=9b0d9e28-79a3-4616-8e57-580f61942c1e","ios":"levelo://app?vid=9b0d9e28-79a3-4616-8e57-580f61942c1e"},"vehicle_type_id":"4","last_reported":1762013443,"current_range_meters":18000,"station_id":"","pricing_plan_id":"cebpf4jnsgd1na2vs0mg"},{"bike_id":"3a94f032-382f-4e78-a618-f9c45b332dd8","system_id":"levelo_inurba_marseille","lat":43.25584,"lon":5.38235,"is_reserved":false,"is_disabled":false,"rental_uris":{"android":"levelo://app?vid=3a94f032-382f-4e78-a618-f9c45b332dd8","ios":"levelo://app?vid=3a94f032-382f-4e78-a618-f9c45b332dd8"},"vehicle_type_id":"4","last_reported":1762013443,"current_range_meters":18000,"station_id":"ce4bhih2rcd13ifvqfs0","pricing_plan_id":"cebpf4jnsgd1na2vs0mg"},{"bike_id":"304070dc-e8fc-4960-a367-727ab81ebe32","system_id":"levelo_inurba_marseille","lat":43.29574,"lon":5.37527,"is_reserved":false,"is_disabled":false,"rental_uris":{"android":"levelo://app?vid=304070dc-e8fc-4960-a367-727ab81ebe32","ios":"levelo://app?vid=304070dc-e8fc-4960-a367-727ab81ebe32"},"vehicle_type_id":"4","last_reported":1762013443,"current_range_meters":18000,"station_id":"ce4bgh92rcd13ifvqb50","pricing_plan_id":"cebpf4jnsgd1na2vs0mg"},{"bike_id":"332a465d-df9d-450a-852f-5469133be4e7","system_id":"levelo_inurba_marseille","lat":43.31078,"lon":5.38358,"is_reserved":false,"is_disabled":false,"rental_uris":{"android":"levelo://app?vid=332a465d-df9d-450a-852f-5469133be4e7","ios":"levelo://app?vid=332a465d-df9d-450a-852f-5469133be4e7"},"vehicle_type_id":"4","last_reported":1762013443,"current_range_meters":18000,"station_id":"ce4bgv92rcd13ifvqcr0","pricing_plan_id":"cebpf4jnsgd1na2vs0mg"},{"bike_id":"e866eab0-536f-4780-83bd-9243ac25a752","system_id":"levelo_inurba_marseille","lat":43.24724,"lon":5.37393,"is_reserved":false,"is_disabled":false,"rental_uris":{"android":"levelo://app?vid=e866eab0-536f-4780-83bd-9243ac25a752","ios":"levelo://app?vid=e866eab0-536f-4780-83bd-9243ac25a752"},"vehicle_type_id":"4","last_reported":1762013443,"current_range_meters":18000,"station_id":"","pricing_plan_id":"cebpf4jnsgd1na2vs0mg"},{"bike_id":"cfd5e1a6-b56b-4280-b6b6-7059d0503240","system_id":"levelo_inurba_marseille","lat":43.24184,"lon":5.39728,"is_reserved":false,"is_disabled":false,"rental_uris":{"android":"levelo://app?vid=cfd5e1a6-b56b-4280-b6b6-7059d0503240","ios":"levelo://app?vid=cfd5e1a6-b56b-4280-b6b6-7059d0503240"},"vehicle_type_id":"4","last_reported":1762013443,"current_range_meters":18800,"station_id":"ce4bhn12rcd13ifvqgpg","pricing_plan_id":"cebpf4jnsgd1na2vs0mg"},{"bike_id":"3f8391f5-8aec-40ac-b583-a7bfe1c28b07","system_id":"levelo_inurba_marseille","lat":43.27573,"lon":5.38429,"is_reserved":false,"is_disabled":false,"rental_uris":{"android":"levelo://app?vid=3f8391f5-8aec-40ac-b583-a7bfe1c28b07","ios":"levelo://app?vid=3f8391f5-8aec-40ac-b583-a7bfe1c28b07"},"vehicle_type_id":"4","last_reported":1762013443,"current_range_meters":18800,"station_id":"ce4bhh92rcd13ifvqfi0","pricing_plan_id":"cebpf4jnsgd1na2vs0mg"},{"bike_id":"ebf85bdb-1a2b-49af-a88d-03e90d4c31b8","system_id":"levelo_inurba_marseille","lat":43.239635,"lon":5.366297,"is_reserved":false,"is_disabled":true,"rental_uris":{"android":"levelo://app?vid=ebf85bdb-1a2b-49af-a88d-03e90d4c31b8","ios":"levelo://app?vid=ebf85bdb-1a2b-49af-a88d-03e90d4c31b8"},"vehicle_type_id":"4","last_reported":1762013443,"current_range_meters":18800,"station_id":"ce4bhi12rcd13ifvqfp0","pricing_plan_id":"cebpf4jnsgd1na2vs0mg"},{"bike_id":"62a42713-f41d-4a52-8f7f-c2b8865497ac","system_id":"levelo_inurba_marseille","lat":43.27946,"lon":5.41057,"is_reserved":false,"is_disabled":false,"rental_uris":{"android":"levelo://app?vid=62a42713-f41d-4a52-8f7f-c2b8865497ac","ios":"levelo://app?vid=62a42713-f41d-4a52-8f7f-c2b8865497ac"},"vehicle_type_id":"4","last_reported":1762013443,"current_range_meters":18800,"station_id":"ce4bhnp2rcd13ifvqh0g","pricing_plan_id":"cebpf4jnsgd1na2vs0mg"},{"bike_id":"de0ca7a8-116a-46c8-8c50-6b445a473423","system_id":"levelo_inurba_marseille","lat":43.28875,"lon":5.42543,"is_reserved":false,"is_disabled":false,"rental_uris":{"android":"levelo://app?vid=de0ca7a8-116a-46c8-8c50-6b445a473423","ios":"levelo://app?vid=de0ca7a8-116a-46c8-8c50-6b445a473423"},"vehicle_type_id":"4","last_reported":1762013443,"current_range_meters":18800,"station_id":"st_d3b462108ojc7389ooeg","pricing_plan_id":"cebpf4jnsgd1na2vs0mg"},{"bike_id":"8adef542-af60-4b61-8a5b-4b604c3bcfe4","system_id":"levelo_inurba_marseille","lat":43.24677,"lon":5.4316,"is_reserved":false,"is_disabled":false,"rental_uris":{"android":"levelo://app?vid=8adef542-af60-4b61-8a5b-4b604c3bcfe4","ios":"levelo://app?vid=8adef542-af60-4b61-8a5b-4b604c3bcfe4"},"vehicle_type_id":"4","last_reported":1762013443,"current_range_meters":18800,"station_id":"st_d2m6c4gdas8pm72e190g","pricing_plan_id":"cebpf4jnsgd1na2vs0mg"},{"bike_id":"23964231-9294-40d2-9d81-16e99ab01d5b","system_id":"levelo_inurba_marseille","lat":43.253322,"lon":5.421548,"is_reserved":false,"is_disabled":false,"rental_uris":{"android":"levelo://app?vid=23964231-9294-40d2-9d81-16e99ab01d5b","ios":"levelo://app?vid=23964231-9294-40d2-9d81-16e99ab01d5b"},"vehicle_type_id":"4","last_reported":1762013443,"current_range_meters":18800,"station_id":"st_d2m65c5bi1j21697t3ng","pricing_plan_id":"cebpf4jnsgd1na2vs0mg"},{"bike_id":"ed10d960-56f1-490f-af53-b645baed0816","system_id":"levelo_inurba_marseille","lat":43.2961,"lon":5.37726,"is_reserved":false,"is_disabled":false,"rental_uris":{"android":"levelo://app?vid=ed10d960-56f1-490f-af53-b645baed0816","ios":"levelo://app?vid=ed10d960-56f1-490f-af53-b645baed0816"},"vehicle_type_id":"4","last_reported":1762013443,"current_range_meters":18800,"station_id":"ce4bgi92rcd13ifvqb90","pricing_plan_id":"cebpf4jnsgd1na2vs0mg"},{"bike_id":"72667045-b816-48de-95ee-6e55de9900ca","system_id":"levelo_inurba_marseille","lat":43.25107,"lon":5.40326,"is_reserved":false,"is_disabled":false,"rental_uris":{"android":"levelo://app?vid=72667045-b816-48de-95ee-6e55de9900ca","ios":"levelo://app?vid=72667045-b816-48de-95ee-6e55de9900ca"},"vehicle_type_id":"4","last_reported":1762013443,"current_range_meters":18800,"station_id":"ce4bhlh2rcd13ifvqgig","pricing_plan_id":"cebpf4jnsgd1na2vs0mg"},{"bike_id":"6fccd274-252d-4eeb-acba-716bc0711a35","system_id":"levelo_inurba_marseille","lat":43.246554,"lon":5.381714,"is_reserved":false,"is_disabled":false,"rental_uris":{"android":"levelo://app?vid=6fccd274-252d-4eeb-acba-716bc0711a35","ios":"levelo://app?vid=6fccd274-252d-4eeb-acba-716bc0711a35"},"vehicle_type_id":"4","last_reported":1762013443,"current_range_meters":18800,"station_id":"ce4bgjp2rcd13ifvqbh0","pricing_plan_id":"cebpf4jnsgd1na2vs0mg"},{"bike_id":"93febffd-e079-4175-ba40-58afd2373fc6","system_id":"levelo_inurba_marseille","lat":43.305508,"lon":5.365553,"is_reserved":false,"is_disabled":false,"rental_uris":{"android":"levelo://app?vid=93febffd-e079-4175-ba40-58afd2373fc6","ios":"levelo://app?vid=93febffd-e079-4175-ba40-58afd2373fc6"},"vehicle_type_id":"4","last_reported":1762013443,"current_range_meters":18800,"station_id":"ce4bgs12rcd13ifvqcag","pricing_plan_id":"cebpf4jnsgd1na2vs0mg"},{"bike_id":"c44b2f85-9c30-4a8d-8ef8-c639f6202004","system_id":"levelo_inurba_marseille","lat":43.30311,"lon":5.39212,"is_reserved":false,"is_disabled":false,"rental_uris":{"android":"levelo://app?vid=c44b2f85-9c30-4a8d-8ef8-c639f6202004","ios":"levelo://app?vid=c44b2f85-9c30-4a8d-8ef8-c639f6202004"},"vehicle_type_id":"4","last_reported":1762013443,"current_range_meters":18800,"station_id":"ce4bgkh2rcd13ifvqbk0","pricing_plan_id":"cebpf4jnsgd1na2vs0mg"},{"bike_id":"aa35cae5-6605-40df-87c8-0535c3d0e8d6","system_id":"levelo_inurba_marseille","lat":43.282161,"lon":5.351012,"is_reserved":false,"is_disabled":false,"rental_uris":{"android":"levelo://app?vid=aa35cae5-6605-40df-87c8-0535c3d0e8d6","ios":"levelo://app?vid=aa35cae5-6605-40df-87c8-0535c3d0e8d6"},"vehicle_type_id":"4","last_reported":1762013443,"current_range_meters":18800,"station_id":"ce4bhbp2rcd13ifvqerg","pricing_plan_id":"cebpf4jnsgd1na2vs0mg"},{"bike_id":"b5e49cce-4c50-4c05-8029-916464358c9e","system_id":"levelo_inurba_marseille","lat":43.229304,"lon":5.353814,"is_reserved":false,"is_disabled":false,"rental_uris":{"android":"levelo://app?vid=b5e49cce-4c50-4c05-8029-916464358c9e","ios":"levelo://app?vid=b5e49cce-4c50-4c05-8029-916464358c9e"},"vehicle_type_id":"4","last_reported":1762013443,"current_range_meters":18800,"station_id":"cpo3532slgdg3j2ikp40","pricing_plan_id":"cebpf4jnsgd1na2vs0mg"},{"bike_id":"dd70bcc2-2e6b-447f-adc2-e0826cf93554","system_id":"levelo_inurba_marseille","lat":43.319062,"lon":5.401562,"is_reserved":false,"is_disabled":false,"rental_uris":{"android":"levelo://app?vid=dd70bcc2-2e6b-447f-adc2-e0826cf93554","ios":"levelo://app?vid=dd70bcc2-2e6b-447f-adc2-e0826cf93554"},"vehicle_type_id":"4","last_reported":1762013443,"current_range_meters":18800,"station_id":"","pricing_plan_id":"cebpf4jnsgd1na2vs0mg"},{"bike_id":"99c7d5ea-c391-4d09-bb3b-13cd76650fe0","system_id":"levelo_inurba_marseille","lat":43.2315,"lon":5.43726,"is_reserved":false,"is_disabled":false,"rental_uris":{"android":"levelo://app?vid=99c7d5ea-c391-4d09-bb3b-13cd76650fe0","ios":"levelo://app?vid=99c7d5ea-c391-4d09-bb3b-13cd76650fe0"},"vehicle_type_id":"4","last_reported":1762013443,"current_range_meters":18800,"station_id":"ce4bhmp2rcd13ifvqgog","pricing_plan_id":"cebpf4jnsgd1na2vs0mg"},{"bike_id":"6fc863ad-4c5a-4ea7-83e6-e4ba16af1c79","system_id":"levelo_inurba_marseille","lat":43.2863,"lon":5.35132,"is_reserved":false,"is_disabled":false,"rental_uris":{"android":"levelo://app?vid=6fc863ad-4c5a-4ea7-83e6-e4ba16af1c79","ios":"levelo://app?vid=6fc863ad-4c5a-4ea7-83e6-e4ba16af1c79"},"vehicle_type_id":"4","last_reported":1762013443,"current_range_meters":18800,"station_id":"ce4bhch2rcd13ifvqeug","pricing_plan_id":"cebpf4jnsgd1na2vs0mg"},{"bike_id":"3344facc-1a5d-49f2-93a8-c735a673675c","system_id":"levelo_inurba_marseille","lat":43.31169,"lon":5.38725,"is_reserved":false,"is_disabled":false,"rental_uris":{"android":"levelo://app?vid=3344facc-1a5d-49f2-93a8-c735a673675c","ios":"levelo://app?vid=3344facc-1a5d-49f2-93a8-c735a673675c"},"vehicle_type_id":"4","last_reported":1762013443,"current_range_meters":18800,"station_id":"ce4bgv12rcd13ifvqcp0","pricing_plan_id":"cebpf4jnsgd1na2vs0mg"},{"bike_id":"a3168735-9f36-436a-8fdb-61308f58900f","system_id":"levelo_inurba_marseille","lat":43.29284,"lon":5.40129,"is_reserved":false,"is_disabled":false,"rental_uris":{"android":"levelo://app?vid=a3168735-9f36-436a-8fdb-61308f58900f","ios":"levelo://app?vid=a3168735-9f36-436a-8fdb-61308f58900f"},"vehicle_type_id":"4","last_reported":1762013443,"current_range_meters":18800,"station_id":"ce4bh312rcd13ifvqdk0","pricing_plan_id":"cebpf4jnsgd1na2vs0mg"},{"bike_id":"423802bb-722e-4533-9018-c0f75cce34a6","system_id":"levelo_inurba_marseille","lat":43.30667,"lon":5.38177,"is_reserved":false,"is_disabled":false,"rental_uris":{"android":"levelo://app?vid=423802bb-722e-4533-9018-c0f75cce34a6","ios":"levelo://app?vid=423802bb-722e-4533-9018-c0f75cce34a6"},"vehicle_type_id":"4","last_reported":1762013443,"current_range_meters":19200,"station_id":"","pricing_plan_id":"cebpf4jnsgd1na2vs0mg"},{"bike_id":"e6d7b950-f107-4150-96c9-469b4723c1ae","system_id":"levelo_inurba_marseille","lat":43.290803,"lon":5.381004,"is_reserved":false,"is_disabled":false,"rental_uris":{"android":"levelo://app?vid=e6d7b950-f107-4150-96c9-469b4723c1ae","ios":"levelo://app?vid=e6d7b950-f107-4150-96c9-469b4723c1ae"},"vehicle_type_id":"4","last_reported":1762013443,"current_range_meters":19200,"station_id":"ce4bh512rcd13ifvqe2g","pricing_plan_id":"cebpf4jnsgd1na2vs0mg"},{"bike_id":"094499f6-32e3-4d90-8dc1-9681c61dab61","system_id":"levelo_inurba_marseille","lat":43.30255,"lon":5.40073,"is_reserved":false,"is_disabled":false,"rental_uris":{"android":"levelo://app?vid=094499f6-32e3-4d90-8dc1-9681c61dab61","ios":"levelo://app?vid=094499f6-32e3-4d90-8dc1-9681c61dab61"},"vehicle_type_id":"4","last_reported":1762013443,"current_range_meters":19200,"station_id":"ce4bgvh2rcd13ifvqcs0","pricing_plan_id":"cebpf4jnsgd1na2vs0mg"},{"bike_id":"4d4dfcc3-4cc7-48dd-b631-294e5c32095e","system_id":"levelo_inurba_marseille","lat":43.2842,"lon":5.34995,"is_reserved":false,"is_disabled":false,"rental_uris":{"android":"levelo://app?vid=4d4dfcc3-4cc7-48dd-b631-294e5c32095e","ios":"levelo://app?vid=4d4dfcc3-4cc7-48dd-b631-294e5c32095e"},"vehicle_type_id":"4","last_reported":1762013443,"current_range_meters":19200,"station_id":"ce4bhbh2rcd13ifvqepg","pricing_plan_id":"cebpf4jnsgd1na2vs0mg"},{"bike_id":"c42ffe46-b913-493b-b884-420903bb865b","system_id":"levelo_inurba_marseille","lat":43.30204,"lon":5.36608,"is_reserved":false,"is_disabled":false,"rental_uris":{"android":"levelo://app?vid=c42ffe46-b913-493b-b884-420903bb865b","ios":"levelo://app?vid=c42ffe46-b913-493b-b884-420903bb865b"},"vehicle_type_id":"4","last_reported":1762013443,"current_range_meters":19200,"station_id":"ce4bgrh2rcd13ifvqc8g","pricing_plan_id":"cebpf4jnsgd1na2vs0mg"},{"bike_id":"f293f808-061e-4b82-a8bd-50be982836f9","system_id":"levelo_inurba_marseille","lat":43.25495,"lon":5.37652,"is_reserved":false,"is_disabled":false,"rental_uris":{"android":"levelo://app?vid=f293f808-061e-4b82-a8bd-50be982836f9","ios":"levelo://app?vid=f293f808-061e-4b82-a8bd-50be982836f9"},"vehicle_type_id":"4","last_reported":1762013443,"current_range_meters":19200,"station_id":"ce4bhh12rcd13ifvqff0","pricing_plan_id":"cebpf4jnsgd1na2vs0mg"},{"bike_id":"d4aa9896-a8e4-4460-b933-b42226612648","system_id":"levelo_inurba_marseille","lat":43.301224,"lon":5.431179,"is_reserved":false,"is_disabled":false,"rental_uris":{"android":"levelo://app?vid=d4aa9896-a8e4-4460-b933-b42226612648","ios":"levelo://app?vid=d4aa9896-a8e4-4460-b933-b42226612648"},"vehicle_type_id":"4","last_reported":1762013443,"current_range_meters":19600,"station_id":"st_d3js3co5814s73ftftug","pricing_plan_id":"cebpf4jnsgd1na2vs0mg"},{"bike_id":"641244de-664d-454b-8dd1-5d15c61abe65","system_id":"levelo_inurba_marseille","lat":43.2928,"lon":5.36845,"is_reserved":false,"is_disabled":false,"rental_uris":{"android":"levelo://app?vid=641244de-664d-454b-8dd1-5d15c61abe65","ios":"levelo://app?vid=641244de-664d-454b-8dd1-5d15c61abe65"},"vehicle_type_id":"4","last_reported":1762013443,"current_range_meters":19600,"station_id":"ce4bhbp2rcd13ifvqesg","pricing_plan_id":"cebpf4jnsgd1na2vs0mg"},{"bike_id":"14b92a7a-0805-475a-abfd-8c979184b42b","system_id":"levelo_inurba_marseille","lat":43.30991,"lon":5.37028,"is_reserved":false,"is_disabled":false,"rental_uris":{"android":"levelo://app?vid=14b92a7a-0805-475a-abfd-8c979184b42b","ios":"levelo://app?vid=14b92a7a-0805-475a-abfd-8c979184b42b"},"vehicle_type_id":"4","last_reported":1762013443,"current_range_meters":19600,"station_id":"","pricing_plan_id":"cebpf4jnsgd1na2vs0mg"},{"bike_id":"41ecc14c-6b68-4eca-90ce-56e652a5716d","system_id":"levelo_inurba_marseille","lat":43.30543,"lon":5.36542,"is_reserved":false,"is_disabled":false,"rental_uris":{"android":"levelo://app?vid=41ecc14c-6b68-4eca-90ce-56e652a5716d","ios":"levelo://app?vid=41ecc14c-6b68-4eca-90ce-56e652a5716d"},"vehicle_type_id":"4","last_reported":1762013443,"current_range_meters":19600,"station_id":"ce4bgs12rcd13ifvqcag","pricing_plan_id":"cebpf4jnsgd1na2vs0mg"},{"bike_id":"54fc613e-6387-455d-88a8-3304a7216832","system_id":"levelo_inurba_marseille","lat":43.30168,"lon":5.38094,"is_reserved":false,"is_disabled":false,"rental_uris":{"android":"levelo://app?vid=54fc613e-6387-455d-88a8-3304a7216832","ios":"levelo://app?vid=54fc613e-6387-455d-88a8-3304a7216832"},"vehicle_type_id":"4","last_reported":1762013443,"current_range_meters":19600,"station_id":"ce4bgjp2rcd13ifvqbh0","pricing_plan_id":"cebpf4jnsgd1na2vs0mg"},{"bike_id":"6eb523a4-350d-4959-ac5e-1335d8f70954","system_id":"levelo_inurba_marseille","lat":43.315717,"lon":5.406423,"is_reserved":false,"is_disabled":false,"rental_uris":{"android":"levelo://app?vid=6eb523a4-350d-4959-ac5e-1335d8f70954","ios":"levelo://app?vid=6eb523a4-350d-4959-ac5e-1335d8f70954"},"vehicle_type_id":"4","last_reported":1762013443,"current_range_meters":19600,"station_id":"","pricing_plan_id":"cebpf4jnsgd1na2vs0mg"},{"bike_id":"2f7784f4-e69d-4145-b07f-78c8a7d32358","system_id":"levelo_inurba_marseille","lat":43.290057,"lon":5.35617,"is_reserved":false,"is_disabled":false,"rental_uris":{"android":"levelo://app?vid=2f7784f4-e69d-4145-b07f-78c8a7d32358","ios":"levelo://app?vid=2f7784f4-e69d-4145-b07f-78c8a7d32358"},"vehicle_type_id":"4","last_reported":1762013443,"current_range_meters":19600,"station_id":"ce4bhb92rcd13ifvqen0","pricing_plan_id":"cebpf4jnsgd1na2vs0mg"},{"bike_id":"066ede02-47a2-4c83-bcb1-7eb633a370fb","system_id":"levelo_inurba_marseille","lat":43.31286,"lon":5.37759,"is_reserved":false,"is_disabled":false,"rental_uris":{"android":"levelo://app?vid=066ede02-47a2-4c83-bcb1-7eb633a370fb","ios":"levelo://app?vid=066ede02-47a2-4c83-bcb1-7eb633a370fb"},"vehicle_type_id":"4","last_reported":1762013443,"current_range_meters":20000,"station_id":"","pricing_plan_id":"cebpf4jnsgd1na2vs0mg"},{"bike_id":"ff0e81dc-2e08-46cb-b993-9e823a1da595","system_id":"levelo_inurba_marseille","lat":43.291939,"lon":5.358077,"is_reserved":false,"is_disabled":false,"rental_uris":{"android":"levelo://app?vid=ff0e81dc-2e08-46cb-b993-9e823a1da595","ios":"levelo://app?vid=ff0e81dc-2e08-46cb-b993-9e823a1da595"},"vehicle_type_id":"4","last_reported":1762013443,"current_range_meters":20000,"station_id":"ce4bhb12rcd13ifvqel0","pricing_plan_id":"cebpf4jnsgd1na2vs0mg"},{"bike_id":"b2514755-0f11-4833-b225-7d1f8289efa4","system_id":"levelo_inurba_marseille","lat":43.229312,"lon":5.353754,"is_reserved":false,"is_disabled":false,"rental_uris":{"android":"levelo://app?vid=b2514755-0f11-4833-b225-7d1f8289efa4","ios":"levelo://app?vid=b2514755-0f11-4833-b225-7d1f8289efa4"},"vehicle_type_id":"4","last_reported":1762013443,"current_range_meters":20000,"station_id":"cpo3532slgdg3j2ikp40","pricing_plan_id":"cebpf4jnsgd1na2vs0mg"},{"bike_id":"721ab431-2f82-4c09-9790-7574aed85a53","system_id":"levelo_inurba_marseille","lat":43.30869,"lon":5.37198,"is_reserved":false,"is_disabled":false,"rental_uris":{"android":"levelo://app?vid=721ab431-2f82-4c09-9790-7574aed85a53","ios":"levelo://app?vid=721ab431-2f82-4c09-9790-7574aed85a53"},"vehicle_type_id":"4","last_reported":1762013443,"current_range_meters":20000,"station_id":"ce4bguh2rcd13ifvqckg","pricing_plan_id":"cebpf4jnsgd1na2vs0mg"},{"bike_id":"c512099e-8861-4b66-abf5-28d410fc5fb6","system_id":"levelo_inurba_marseille","lat":43.30142,"lon":5.38784,"is_reserved":false,"is_disabled":true,"rental_uris":{"android":"levelo://app?vid=c512099e-8861-4b66-abf5-28d410fc5fb6","ios":"levelo://app?vid=c512099e-8861-4b66-abf5-28d410fc5fb6"},"vehicle_type_id":"4","last_reported":1762013443,"current_range_meters":20000,"station_id":"ce4bghh2rcd13ifvqb60","pricing_plan_id":"cebpf4jnsgd1na2vs0mg"},{"bike_id":"ea981441-de44-4e91-a60f-0f3605343256","system_id":"levelo_inurba_marseille","lat":43.32375,"lon":5.3676,"is_reserved":false,"is_disabled":false,"rental_uris":{"android":"levelo://app?vid=ea981441-de44-4e91-a60f-0f3605343256","ios":"levelo://app?vid=ea981441-de44-4e91-a60f-0f3605343256"},"vehicle_type_id":"4","last_reported":1762013443,"current_range_meters":20000,"station_id":"ce4bhsh2rcd13ifvqi2g","pricing_plan_id":"cebpf4jnsgd1na2vs0mg"},{"bike_id":"f12cda4c-f18d-49c7-808c-3a750cd25b47","system_id":"levelo_inurba_marseille","lat":43.255027,"lon":5.376686,"is_reserved":false,"is_disabled":false,"rental_uris":{"android":"levelo://app?vid=f12cda4c-f18d-49c7-808c-3a750cd25b47","ios":"levelo://app?vid=f12cda4c-f18d-49c7-808c-3a750cd25b47"},"vehicle_type_id":"4","last_reported":1762013443,"current_range_meters":20000,"station_id":"ce4bhh12rcd13ifvqff0","pricing_plan_id":"cebpf4jnsgd1na2vs0mg"},{"bike_id":"07f840c9-6d51-4515-9e0d-231625520ebd","system_id":"levelo_inurba_marseille","lat":43.27558,"lon":5.38433,"is_reserved":false,"is_disabled":false,"rental_uris":{"android":"levelo://app?vid=07f840c9-6d51-4515-9e0d-231625520ebd","ios":"levelo://app?vid=07f840c9-6d51-4515-9e0d-231625520ebd"},"vehicle_type_id":"4","last_reported":1762013443,"current_range_meters":20000,"station_id":"ce4bhh92rcd13ifvqfi0","pricing_plan_id":"cebpf4jnsgd1na2vs0mg"},{"bike_id":"8031bb5d-6e8c-48ab-941a-eb7b0c5063db","system_id":"levelo_inurba_marseille","lat":43.278412,"lon":5.392028,"is_reserved":false,"is_disabled":false,"rental_uris":{"android":"levelo://app?vid=8031bb5d-6e8c-48ab-941a-eb7b0c5063db","ios":"levelo://app?vid=8031bb5d-6e8c-48ab-941a-eb7b0c5063db"},"vehicle_type_id":"4","last_reported":1762013443,"current_range_meters":20000,"station_id":"ce4bhjp2rcd13ifvqga0","pricing_plan_id":"cebpf4jnsgd1na2vs0mg"},{"bike_id":"fcc7a5b9-eb88-45bf-aebf-cf96cca8c3ef","system_id":"levelo_inurba_marseille","lat":43.24686,"lon":5.38171,"is_reserved":false,"is_disabled":false,"rental_uris":{"android":"levelo://app?vid=fcc7a5b9-eb88-45bf-aebf-cf96cca8c3ef","ios":"levelo://app?vid=fcc7a5b9-eb88-45bf-aebf-cf96cca8c3ef"},"vehicle_type_id":"4","last_reported":1762013443,"current_range_meters":20400,"station_id":"ce4bhih2rcd13ifvqfr0","pricing_plan_id":"cebpf4jnsgd1na2vs0mg"},{"bike_id":"fe2272ea-7316-4280-b90c-d8c4db7bc73e","system_id":"levelo_inurba_marseille","lat":43.27966,"lon":5.39295,"is_reserved":false,"is_disabled":false,"rental_uris":{"android":"levelo://app?vid=fe2272ea-7316-4280-b90c-d8c4db7bc73e","ios":"levelo://app?vid=fe2272ea-7316-4280-b90c-d8c4db7bc73e"},"vehicle_type_id":"4","last_reported":1762013443,"current_range_meters":20400,"station_id":"","pricing_plan_id":"cebpf4jnsgd1na2vs0mg"},{"bike_id":"e53e30cd-2a1c-47b2-a58f-47c395ea8d44","system_id":"levelo_inurba_marseille","lat":43.246433,"lon":5.388948,"is_reserved":false,"is_disabled":false,"rental_uris":{"android":"levelo://app?vid=e53e30cd-2a1c-47b2-a58f-47c395ea8d44","ios":"levelo://app?vid=e53e30cd-2a1c-47b2-a58f-47c395ea8d44"},"vehicle_type_id":"4","last_reported":1762013443,"current_range_meters":20400,"station_id":"ce4bhg12rcd13ifvqf60","pricing_plan_id":"cebpf4jnsgd1na2vs0mg"},{"bike_id":"cc475582-0cc3-4b14-a66c-6041b0d2e976","system_id":"levelo_inurba_marseille","lat":43.29339,"lon":5.41178,"is_reserved":false,"is_disabled":false,"rental_uris":{"android":"levelo://app?vid=cc475582-0cc3-4b14-a66c-6041b0d2e976","ios":"levelo://app?vid=cc475582-0cc3-4b14-a66c-6041b0d2e976"},"vehicle_type_id":"4","last_reported":1762013443,"current_range_meters":20400,"station_id":"","pricing_plan_id":"cebpf4jnsgd1na2vs0mg"},{"bike_id":"aa56963e-5f6a-4043-b1c7-23e4d9f05d8c","system_id":"levelo_inurba_marseille","lat":43.313499,"lon":5.379119,"is_reserved":false,"is_disabled":false,"rental_uris":{"android":"levelo://app?vid=aa56963e-5f6a-4043-b1c7-23e4d9f05d8c","ios":"levelo://app?vid=aa56963e-5f6a-4043-b1c7-23e4d9f05d8c"},"vehicle_type_id":"4","last_reported":1762013443,"current_range_meters":20400,"station_id":"","pricing_plan_id":"cebpf4jnsgd1na2vs0mg"},{"bike_id":"c695b713-3bc3-411d-b98f-7753f873ef56","system_id":"levelo_inurba_marseille","lat":43.285998,"lon":5.370599,"is_reserved":false,"is_disabled":false,"rental_uris":{"android":"levelo://app?vid=c695b713-3bc3-411d-b98f-7753f873ef56","ios":"levelo://app?vid=c695b713-3bc3-411d-b98f-7753f873ef56"},"vehicle_type_id":"4","last_reported":1762013443,"current_range_meters":20400,"station_id":"ce4bht12rcd13ifvqi60","pricing_plan_id":"cebpf4jnsgd1na2vs0mg"},{"bike_id":"fee51c61-b72d-43e2-b628-1b27ee009aec","system_id":"levelo_inurba_marseille","lat":43.296261,"lon":5.377099,"is_reserved":false,"is_disabled":false,"rental_uris":{"android":"levelo://app?vid=fee51c61-b72d-43e2-b628-1b27ee009aec","ios":"levelo://app?vid=fee51c61-b72d-43e2-b628-1b27ee009aec"},"vehicle_type_id":"4","last_reported":1762013443,"current_range_meters":20400,"station_id":"ce4bgi92rcd13ifvqb90","pricing_plan_id":"cebpf4jnsgd1na2vs0mg"},{"bike_id":"8ac0f96f-3915-4624-84c9-33cdff7c8328","system_id":"levelo_inurba_marseille","lat":43.31483,"lon":5.37298,"is_reserved":false,"is_disabled":false,"rental_uris":{"android":"levelo://app?vid=8ac0f96f-3915-4624-84c9-33cdff7c8328","ios":"levelo://app?vid=8ac0f96f-3915-4624-84c9-33cdff7c8328"},"vehicle_type_id":"4","last_reported":1762013443,"current_range_meters":20400,"station_id":"ce4bgt12rcd13ifvqcd0","pricing_plan_id":"cebpf4jnsgd1na2vs0mg"},{"bike_id":"f556ad88-b0ef-4d15-8048-f36fbe8e026c","system_id":"levelo_inurba_marseille","lat":43.28535,"lon":5.44106,"is_reserved":false,"is_disabled":false,"rental_uris":{"android":"levelo://app?vid=f556ad88-b0ef-4d15-8048-f36fbe8e026c","ios":"levelo://app?vid=f556ad88-b0ef-4d15-8048-f36fbe8e026c"},"vehicle_type_id":"4","last_reported":1762013443,"current_range_meters":20800,"station_id":"st_d3j3df2ikq2c7380ej80","pricing_plan_id":"cebpf4jnsgd1na2vs0mg"},{"bike_id":"b2f38cd3-d5e4-43b8-b86e-d0ff732cd0ba","system_id":"levelo_inurba_marseille","lat":43.25509,"lon":5.37652,"is_reserved":false,"is_disabled":false,"rental_uris":{"android":"levelo://app?vid=b2f38cd3-d5e4-43b8-b86e-d0ff732cd0ba","ios":"levelo://app?vid=b2f38cd3-d5e4-43b8-b86e-d0ff732cd0ba"},"vehicle_type_id":"4","last_reported":1762013443,"current_range_meters":20800,"station_id":"ce4bhh12rcd13ifvqff0","pricing_plan_id":"cebpf4jnsgd1na2vs0mg"},{"bike_id":"65959e76-2dec-43d3-b15c-b4e7433182fd","system_id":"levelo_inurba_marseille","lat":43.293631,"lon":5.371955,"is_reserved":false,"is_disabled":false,"rental_uris":{"android":"levelo://app?vid=65959e76-2dec-43d3-b15c-b4e7433182fd","ios":"levelo://app?vid=65959e76-2dec-43d3-b15c-b4e7433182fd"},"vehicle_type_id":"4","last_reported":1762013443,"current_range_meters":20800,"station_id":"","pricing_plan_id":"cebpf4jnsgd1na2vs0mg"},{"bike_id":"6dbae8fb-b558-4de5-931e-260b80081062","system_id":"levelo_inurba_marseille","lat":43.29898,"lon":5.43655,"is_reserved":false,"is_disabled":false,"rental_uris":{"android":"levelo://app?vid=6dbae8fb-b558-4de5-931e-260b80081062","ios":"levelo://app?vid=6dbae8fb-b558-4de5-931e-260b80081062"},"vehicle_type_id":"4","last_reported":1762013443,"current_range_meters":20800,"station_id":"ce4bhpp2rcd13ifvqhfg","pricing_plan_id":"cebpf4jnsgd1na2vs0mg"},{"bike_id":"123ec047-d6a2-4308-aee4-8ec0b2bea538","system_id":"levelo_inurba_marseille","lat":43.23191,"lon":5.3558,"is_reserved":false,"is_disabled":false,"rental_uris":{"android":"levelo://app?vid=123ec047-d6a2-4308-aee4-8ec0b2bea538","ios":"levelo://app?vid=123ec047-d6a2-4308-aee4-8ec0b2bea538"},"vehicle_type_id":"4","last_reported":1762013443,"current_range_meters":20800,"station_id":"ce4bhu92rcd13ifvqi70","pricing_plan_id":"cebpf4jnsgd1na2vs0mg"},{"bike_id":"f010a61e-1526-4e6b-91d6-dfa47624f251","system_id":"levelo_inurba_marseille","lat":43.22934,"lon":5.35382,"is_reserved":false,"is_disabled":false,"rental_uris":{"android":"levelo://app?vid=f010a61e-1526-4e6b-91d6-dfa47624f251","ios":"levelo://app?vid=f010a61e-1526-4e6b-91d6-dfa47624f251"},"vehicle_type_id":"4","last_reported":1762013443,"current_range_meters":20800,"station_id":"cpo3532slgdg3j2ikp40","pricing_plan_id":"cebpf4jnsgd1na2vs0mg"},{"bike_id":"3073fd5d-387b-4013-a2a8-a554b773b537","system_id":"levelo_inurba_marseille","lat":43.24077,"lon":5.37765,"is_reserved":false,"is_disabled":false,"rental_uris":{"android":"levelo://app?vid=3073fd5d-387b-4013-a2a8-a554b773b537","ios":"levelo://app?vid=3073fd5d-387b-4013-a2a8-a554b773b537"},"vehicle_type_id":"4","last_reported":1762013443,"current_range_meters":20800,"station_id":"ce4bhnp2rcd13ifvqgvg","pricing_plan_id":"cebpf4jnsgd1na2vs0mg"},{"bike_id":"c8e2dcf3-ba81-422a-a288-b30340fb828f","system_id":"levelo_inurba_marseille","lat":43.25,"lon":5.38926,"is_reserved":false,"is_disabled":false,"rental_uris":{"android":"levelo://app?vid=c8e2dcf3-ba81-422a-a288-b30340fb828f","ios":"levelo://app?vid=c8e2dcf3-ba81-422a-a288-b30340fb828f"},"vehicle_type_id":"4","last_reported":1762013443,"current_range_meters":20800,"station_id":"ce4bhgp2rcd13ifvqfd0","pricing_plan_id":"cebpf4jnsgd1na2vs0mg"},{"bike_id":"c133196f-e99a-4397-9ba3-09b5d94f6c09","system_id":"levelo_inurba_marseille","lat":43.29689,"lon":5.37298,"is_reserved":false,"is_disabled":false,"rental_uris":{"android":"levelo://app?vid=c133196f-e99a-4397-9ba3-09b5d94f6c09","ios":"levelo://app?vid=c133196f-e99a-4397-9ba3-09b5d94f6c09"},"vehicle_type_id":"4","last_reported":1762013443,"current_range_meters":20800,"station_id":"ce4bgk12rcd13ifvqbj0","pricing_plan_id":"cebpf4jnsgd1na2vs0mg"},{"bike_id":"82e39cb7-0f6b-4cd1-a73f-d88800a3dc46","system_id":"levelo_inurba_marseille","lat":43.28936,"lon":5.36638,"is_reserved":false,"is_disabled":false,"rental_uris":{"android":"levelo://app?vid=82e39cb7-0f6b-4cd1-a73f-d88800a3dc46","ios":"levelo://app?vid=82e39cb7-0f6b-4cd1-a73f-d88800a3dc46"},"vehicle_type_id":"4","last_reported":1762013443,"current_range_meters":20800,"station_id":"ce4bhap2rcd13ifvqek0","pricing_plan_id":"cebpf4jnsgd1na2vs0mg"},{"bike_id":"fd8d76ee-a758-411a-bd8e-65c031bc9d17","system_id":"levelo_inurba_marseille","lat":43.22925,"lon":5.35386,"is_reserved":false,"is_disabled":false,"rental_uris":{"android":"levelo://app?vid=fd8d76ee-a758-411a-bd8e-65c031bc9d17","ios":"levelo://app?vid=fd8d76ee-a758-411a-bd8e-65c031bc9d17"},"vehicle_type_id":"4","last_reported":1762013443,"current_range_meters":20800,"station_id":"cpo3532slgdg3j2ikp40","pricing_plan_id":"cebpf4jnsgd1na2vs0mg"},{"bike_id":"0e88d370-3d0e-41ea-afc4-fc0d44c51307","system_id":"levelo_inurba_marseille","lat":43.22928,"lon":5.35387,"is_reserved":false,"is_disabled":false,"rental_uris":{"android":"levelo://app?vid=0e88d370-3d0e-41ea-afc4-fc0d44c51307","ios":"levelo://app?vid=0e88d370-3d0e-41ea-afc4-fc0d44c51307"},"vehicle_type_id":"4","last_reported":1762013443,"current_range_meters":20800,"station_id":"cpo3532slgdg3j2ikp40","pricing_plan_id":"cebpf4jnsgd1na2vs0mg"},{"bike_id":"4668435e-bcae-4775-b1ba-0c729cc77a71","system_id":"levelo_inurba_marseille","lat":43.284801,"lon":5.484009,"is_reserved":false,"is_disabled":false,"rental_uris":{"android":"levelo://app?vid=4668435e-bcae-4775-b1ba-0c729cc77a71","ios":"levelo://app?vid=4668435e-bcae-4775-b1ba-0c729cc77a71"},"vehicle_type_id":"4","last_reported":1762013443,"current_range_meters":20800,"station_id":"st_d3svhcjqgbts73a3dn0g","pricing_plan_id":"cebpf4jnsgd1na2vs0mg"},{"bike_id":"6e819e26-a032-4642-8817-4c750e34905b","system_id":"levelo_inurba_marseille","lat":43.273155,"lon":5.39058,"is_reserved":false,"is_disabled":false,"rental_uris":{"android":"levelo://app?vid=6e819e26-a032-4642-8817-4c750e34905b","ios":"levelo://app?vid=6e819e26-a032-4642-8817-4c750e34905b"},"vehicle_type_id":"4","last_reported":1762013443,"current_range_meters":21600,"station_id":"ce4bhi12rcd13ifvqfo0","pricing_plan_id":"cebpf4jnsgd1na2vs0mg"},{"bike_id":"75d22462-e54d-48ca-8bba-30c7de3454fb","system_id":"levelo_inurba_marseille","lat":43.25346,"lon":5.42202,"is_reserved":false,"is_disabled":false,"rental_uris":{"android":"levelo://app?vid=75d22462-e54d-48ca-8bba-30c7de3454fb","ios":"levelo://app?vid=75d22462-e54d-48ca-8bba-30c7de3454fb"},"vehicle_type_id":"4","last_reported":1762013443,"current_range_meters":21600,"station_id":"st_d2m65c5bi1j21697t3ng","pricing_plan_id":"cebpf4jnsgd1na2vs0mg"},{"bike_id":"27219d3d-5a8c-4c3d-b30c-9a4180e6fda5","system_id":"levelo_inurba_marseille","lat":43.278126,"lon":5.407158,"is_reserved":false,"is_disabled":false,"rental_uris":{"android":"levelo://app?vid=27219d3d-5a8c-4c3d-b30c-9a4180e6fda5","ios":"levelo://app?vid=27219d3d-5a8c-4c3d-b30c-9a4180e6fda5"},"vehicle_type_id":"4","last_reported":1762013443,"current_range_meters":21600,"station_id":"ce4bhnh2rcd13ifvqgtg","pricing_plan_id":"cebpf4jnsgd1na2vs0mg"},{"bike_id":"b6a9b3eb-c37a-44bb-bd08-5a8b8c5e140f","system_id":"levelo_inurba_marseille","lat":43.255019,"lon":5.376549,"is_reserved":false,"is_disabled":false,"rental_uris":{"android":"levelo://app?vid=b6a9b3eb-c37a-44bb-bd08-5a8b8c5e140f","ios":"levelo://app?vid=b6a9b3eb-c37a-44bb-bd08-5a8b8c5e140f"},"vehicle_type_id":"4","last_reported":1762013443,"current_range_meters":21600,"station_id":"","pricing_plan_id":"cebpf4jnsgd1na2vs0mg"},{"bike_id":"5e7f1291-468d-45bd-baef-a283df9c0744","system_id":"levelo_inurba_marseille","lat":43.30434,"lon":5.39758,"is_reserved":false,"is_disabled":false,"rental_uris":{"android":"levelo://app?vid=5e7f1291-468d-45bd-baef-a283df9c0744","ios":"levelo://app?vid=5e7f1291-468d-45bd-baef-a283df9c0744"},"vehicle_type_id":"4","last_reported":1762013443,"current_range_meters":22000,"station_id":"ce4bh092rcd13ifvqd20","pricing_plan_id":"cebpf4jnsgd1na2vs0mg"},{"bike_id":"9d5b90c2-0cb3-4c3a-9a10-9589ee89a210","system_id":"levelo_inurba_marseille","lat":43.307361,"lon":5.424437,"is_reserved":false,"is_disabled":false,"rental_uris":{"android":"levelo://app?vid=9d5b90c2-0cb3-4c3a-9a10-9589ee89a210","ios":"levelo://app?vid=9d5b90c2-0cb3-4c3a-9a10-9589ee89a210"},"vehicle_type_id":"4","last_reported":1762013443,"current_range_meters":22000,"station_id":"st_cvj6ca6bvosntc0bfgr0","pricing_plan_id":"cebpf4jnsgd1na2vs0mg"},{"bike_id":"3e805f00-393a-42c3-abb1-55e6d8c1c99e","system_id":"levelo_inurba_marseille","lat":43.29533,"lon":5.38545,"is_reserved":false,"is_disabled":false,"rental_uris":{"android":"levelo://app?vid=3e805f00-393a-42c3-abb1-55e6d8c1c99e","ios":"levelo://app?vid=3e805f00-393a-42c3-abb1-55e6d8c1c99e"},"vehicle_type_id":"4","last_reported":1762013443,"current_range_meters":22000,"station_id":"ce4bgih2rcd13ifvqba0","pricing_plan_id":"cebpf4jnsgd1na2vs0mg"},