{"last_updated":1728627219,"ttl":60,"version":"2.2","data":{"bikes":[{"bike_id":"37fe6a66-449f-4cb1-94ad-6886238966cb","system_id":"levelo_inurba_marseille","lat":43.29031,"lon":5.38645,"is_reserved":false,"is_disabled":false,"rental_uris":{"android":"levelo://app?vid=37fe6a66-449f-4cb1-94ad-6886238966cb","ios":"levelo://app?vid=37fe6a66-449f-4cb1-94ad-6886238966cb"},"vehicle_type_id":"4","last_reported":1728627219,"current_range_meters":38800,"station_id":"ce4bh4p2rcd13ifvqe0g","pricing_plan_id":"cebpf4jnsgd1na2vs0mg"},{"bike_id":"9a007cc9-2849-4cb6-8c4e-99fc29fddaff","system_id":"levelo_inurba_marseille","lat":43.29906,"lon":5.38142,"is_reserved":false,"is_disabled":false,"rental_uris":{"android":"levelo://app?vid=9a007cc9-2849-4cb6-8c4e-99fc29fddaff","ios":"levelo://app?vid=9a007cc9-2849-4cb6-8c4e-99fc29fddaff"},"vehicle_type_id":"4","last_reported":1728627219,"current_range_meters":30000,"station_id":"ce4bgj12rcd13ifvqbc0","pricing_plan_id":"cebpf4jnsgd1na2vs0mg"},{"bike_id":"ac1dfeb4-c883-41c3-af04-6d97c3a3e53c","system_id":"levelo_inurba_marseille","lat":43.29782,"lon":5.37107,"is_reserved":false,"is_disabled":false,"rental_uris":{"android":"levelo://app?vid=ac1dfeb4-c883-41c3-af04-6d97c3a3e53c","ios":"levelo://app?vid=ac1dfeb4-c883-41c3-af04-6d97c3a3e53c"},"vehicle_type_id":"4","last_reported":1728627219,"current_range_meters":16800,"station_id":"ce4bgop2rcd13ifvqc1g","pricing_plan_id":"cebpf4jnsgd1na2vs0mg"},{"bike_id":"c083e83a-922f-44d7-a1e9-8eabcc2ade9d","system_id":"levelo_inurba_marseille","lat":43.27051,"lon":5.40262,"is_reserved":false,"is_disabled":false,"rental_uris":{"android":"levelo://app?vid=c083e83a-922f-44d7-a1e9-8eabcc2ade9d","ios":"levelo://app?vid=c083e83a-922f-44d7-a1e9-8eabcc2ade9d"},"vehicle_type_id":"4","last_reported":1728627219,"current_range_meters":33600,"station_id":"ce4bhk92rcd13ifvqgc0","pricing_plan_id":"cebpf4jnsgd1na2vs0mg"},{"bike_id":"46e41d5a-f5a5-4cac-88d8-0888a53a6168","system_id":"levelo_inurba_marseille","lat":43.29327,"lon":5.38563,"is_reserved":false,"is_disabled":false,"rental_uris":{"android":"levelo://app?vid=46e41d5a-f5a5-4cac-88d8-0888a53a6168","ios":"levelo://app?vid=46e41d5a-f5a5-4cac-88d8-0888a53a6168"},"vehicle_type_id":"4","last_reported":1728627219,"current_range_meters":5600,"station_id":"ce4bhb12rcd13ifvqel0","pricing_plan_id":"cebpf4jnsgd1na2vs0mg"},{"bike_id":"c2be05d6-1113-4849-b3d2-f27066ad22d1","system_id":"levelo_inurba_marseille","lat":43.30304,"lon":5.39216,"is_reserved":false,"is_disabled":false,"rental_uris":{"android":"levelo://app?vid=c2be05d6-1113-4849-b3d2-f27066ad22d1","ios":"levelo://app?vid=c2be05d6-1113-4849-b3d2-f27066ad22d1"},"vehicle_type_id":"4","last_reported":1728627219,"current_range_meters":18800,"station_id":"ce4bgkh2rcd13ifvqbk0","pricing_plan_id":"cebpf4jnsgd1na2vs0mg"},{"bike_id":"e9991f05-be23-4e53-96ab-60131cef4a3e","system_id":"levelo_inurba_marseille","lat":43.265574,"lon":5.372862,"is_reserved":false,"is_disabled":false,"rental_uris":{"android":"levelo://app?vid=e9991f05-be23-4e53-96ab-60131cef4a3e","ios":"levelo://app?vid=e9991f05-be23-4e53-96ab-60131cef4a3e"},"vehicle_type_id":"4","last_reported":1728627219,"current_range_meters":30800,"station_id":"ce4bhg12rcd13ifvqf70","pricing_plan_id":"cebpf4jnsgd1na2vs0mg"},{"bike_id":"81a94aa0-1345-4656-900c-180819b6bae9","system_id":"levelo_inurba_marseille","lat":43.33612,"lon":5.41034,"is_reserved":false,"is_disabled":false,"rental_uris":{"android":"levelo://app?vid=81a94aa0-1345-4656-900c-180819b6bae9","ios":"levelo://app?vid=81a94aa0-1345-4656-900c-180819b6bae9"},"vehicle_type_id":"4","last_reported":1728627219,"current_range_meters":36400,"station_id":"ce4bhqh2rcd13ifvqhmg","pricing_plan_id":"cebpf4jnsgd1na2vs0mg"},{"bike_id":"ab464d2d-f093-4b5c-a8b4-bed0458d6c0e","system_id":"levelo_inurba_marseille","lat":43.30606,"lon":5.3937,"is_reserved":false,"is_disabled":false,"rental_uris":{"android":"levelo://app?vid=ab464d2d-f093-4b5c-a8b4-bed0458d6c0e","ios":"levelo://app?vid=ab464d2d-f093-4b5c-a8b4-bed0458d6c0e"},"vehicle_type_id":"4","last_reported":1728627219,"current_range_meters":38000,"station_id":"ce4bh0p2rcd13ifvqd80","pricing_plan_id":"cebpf4jnsgd1na2vs0mg"},{"bike_id":"d3ec245f-0a3f-416b-a911-c82b4c789946","system_id":"levelo_inurba_marseille","lat":43.25579,"lon":5.38226,"is_reserved":false,"is_disabled":false,"rental_uris":{"android":"levelo://app?vid=d3ec245f-0a3f-416b-a911-c82b4c789946","ios":"levelo://app?vid=d3ec245f-0a3f-416b-a911-c82b4c789946"},"vehicle_type_id":"4","last_reported":1728627219,"current_range_meters":28000,"station_id":"ce4bhih2rcd13ifvqfs0","pricing_plan_id":"cebpf4jnsgd1na2vs0mg"},{"bike_id":"0183368c-96d7-4f89-82c5-74922cac2536","system_id":"levelo_inurba_marseille","lat":43.24075,"lon":5.37763,"is_reserved":false,"is_disabled":false,"rental_uris":{"android":"levelo://app?vid=0183368c-96d7-4f89-82c5-74922cac2536","ios":"levelo://app?vid=0183368c-96d7-4f89-82c5-74922cac2536"},"vehicle_type_id":"4","last_reported":1728627219,"current_range_meters":22800,"station_id":"ce4bhnp2rcd13ifvqgvg","pricing_plan_id":"cebpf4jnsgd1na2vs0mg"},{"bike_id":"74a04404-37f0-4396-bd85-52a6b0da26d9","system_id":"levelo_inurba_marseille","lat":43.28939,"lon":5.39637,"is_reserved":false,"is_disabled":false,"rental_uris":{"android":"levelo://app?vid=74a04404-37f0-4396-bd85-52a6b0da26d9","ios":"levelo://app?vid=74a04404-37f0-4396-bd85-52a6b0da26d9"},"vehicle_type_id":"4","last_reported":1728627219,"current_range_meters":26000,"station_id":"ce4bh3h2rcd13ifvqdn0","pricing_plan_id":"cebpf4jnsgd1na2vs0mg"},{"bike_id":"85cf2ae9-9474-4a4e-b0a1-a14e92ed8e06","system_id":"levelo_inurba_marseille","lat":43.27498,"lon":5.42449,"is_reserved":false,"is_disabled":false,"rental_uris":{"android":"levelo://app?vid=85cf2ae9-9474-4a4e-b0a1-a14e92ed8e06","ios":"levelo://app?vid=85cf2ae9-9474-4a4e-b0a1-a14e92ed8e06"},"vehicle_type_id":"4","last_reported":1728627219,"current_range_meters":12400,"station_id":"ce4bhn92rcd13ifvqgrg","pricing_plan_id":"cebpf4jnsgd1na2vs0mg"},{"bike_id":"78545a56-8c6d-4801-87b8-fc882a3cb7a0","system_id":"levelo_inurba_marseille","lat":43.25007,"lon":5.38193,"is_reserved":false,"is_disabled":false,"rental_uris":{"android":"levelo://app?vid=78545a56-8c6d-4801-87b8-fc882a3cb7a0","ios":"levelo://app?vid=78545a56-8c6d-4801-87b8-fc882a3cb7a0"},"vehicle_type_id":"4","last_reported":1728627219,"current_range_meters":26800,"station_id":"","pricing_plan_id":"cebpf4jnsgd1na2vs0mg"},{"bike_id":"58714ee7-544a-4419-b22f-d7e363d45639","system_id":"levelo_inurba_marseille","lat":43.24084,"lon":5.37753,"is_reserved":false,"is_disabled":false,"rental_uris":{"android":"levelo://app?vid=58714ee7-544a-4419-b22f-d7e363d45639","ios":"levelo://app?vid=58714ee7-544a-4419-b22f-d7e363d45639"},"vehicle_type_id":"4","last_reported":1728627219,"current_range_meters":20400,"station_id":"ce4bhnp2rcd13ifvqgvg","pricing_plan_id":"cebpf4jnsgd1na2vs0mg"},{"bike_id":"20bd7a3b-28cc-485d-90a7-30373aba5faa","system_id":"levelo_inurba_marseille","lat":43.30154,"lon":5.38083,"is_reserved":false,"is_disabled":false,"rental_uris":{"android":"levelo://app?vid=20bd7a3b-28cc-485d-90a7-30373aba5faa","ios":"levelo://app?vid=20bd7a3b-28cc-485d-90a7-30373aba5faa"},"vehicle_type_id":"4","last_reported":1728627219,"current_range_meters":38000,"station_id":"ce4bgjp2rcd13ifvqbh0","pricing_plan_id":"cebpf4jnsgd1na2vs0mg"},{"bike_id":"5ce2a66a-b949-4239-ae17-6ee1644fc5f2","system_id":"levelo_inurba_marseille","lat":43.25492,"lon":5.37648,"is_reserved":false,"is_disabled":false,"rental_uris":{"android":"levelo://app?vid=5ce2a66a-b949-4239-ae17-6ee1644fc5f2","ios":"levelo://app?vid=5ce2a66a-b949-4239-ae17-6ee1644fc5f2"},"vehicle_type_id":"4","last_reported":1728627219,"current_range_meters":16000,"station_id":"ce4bhh12rcd13ifvqff0","pricing_plan_id":"cebpf4jnsgd1na2vs0mg"},{"bike_id":"6cb2fd54-0aca-4f7d-aadb-bc057dc4fb59","system_id":"levelo_inurba_marseille","lat":43.23067,"lon":5.35491,"is_reserved":false,"is_disabled":false,"rental_uris":{"android":"levelo://app?vid=6cb2fd54-0aca-4f7d-aadb-bc057dc4fb59","ios":"levelo://app?vid=6cb2fd54-0aca-4f7d-aadb-bc057dc4fb59"},"vehicle_type_id":"4","last_reported":1728627219,"current_range_meters":29600,"station_id":"cpo3342slgdg3j2ifvpg","pricing_plan_id":"cebpf4jnsgd1na2vs0mg"},{"bike_id":"3a4fbdab-073a-40fa-b9db-aced87fff26e","system_id":"levelo_inurba_marseille","lat":43.26952,"lon":5.38624,"is_reserved":false,"is_disabled":false,"rental_uris":{"android":"levelo://app?vid=3a4fbdab-073a-40fa-b9db-aced87fff26e","ios":"levelo://app?vid=3a4fbdab-073a-40fa-b9db-aced87fff26e"},"vehicle_type_id":"4","last_reported":1728627219,"current_range_meters":34800,"station_id":"ce4bhh92rcd13ifvqfh0","pricing_plan_id":"cebpf4jnsgd1na2vs0mg"},{"bike_id":"2ba4d36d-bf1d-42c3-a80a-44373380b91a","system_id":"levelo_inurba_marseille","lat":43.27496,"lon":5.42452,"is_reserved":false,"is_disabled":false,"rental_uris":{"android":"levelo://app?vid=2ba4d36d-bf1d-42c3-a80a-44373380b91a","ios":"levelo://app?vid=2ba4d36d-bf1d-42c3-a80a-44373380b91a"},"vehicle_type_id":"4","last_reported":1728627219,"current_range_meters":33200,"station_id":"ce4bhn92rcd13ifvqgrg","pricing_plan_id":"cebpf4jnsgd1na2vs0mg"},{"bike_id":"976dc33d-4f90-4788-ac00-33c358d3c2e8","system_id":"levelo_inurba_marseille","lat":43.30479,"lon":5.379,"is_reserved":false,"is_disabled":false,"rental_uris":{"android":"levelo://app?vid=976dc33d-4f90-4788-ac00-33c358d3c2e8","ios":"levelo://app?vid=976dc33d-4f90-4788-ac00-33c358d3c2e8"},"vehicle_type_id":"4","last_reported":1728627219,"current_range_meters":30800,"station_id":"ce4bgup2rcd13ifvqcn0","pricing_plan_id":"cebpf4jnsgd1na2vs0mg"},{"bike_id":"7ae79265-a4f3-408c-9c9a-ba4aa51d6423","system_id":"levelo_inurba_marseille","lat":43.24666,"lon":5.38152,"is_reserved":false,"is_disabled":false,"rental_uris":{"android":"levelo://app?vid=7ae79265-a4f3-408c-9c9a-ba4aa51d6423","ios":"levelo://app?vid=7ae79265-a4f3-408c-9c9a-ba4aa51d6423"},"vehicle_type_id":"4","last_reported":1728627219,"current_range_meters":36000,"station_id":"ce4bhih2rcd13ifvqfr0","pricing_plan_id":"cebpf4jnsgd1na2vs0mg"},{"bike_id":"37d6595f-7d34-4a01-9632-d1a475d94c65","system_id":"levelo_inurba_marseille","lat":43.29796,"lon":5.38124,"is_reserved":false,"is_disabled":false,"rental_uris":{"android":"levelo://app?vid=37d6595f-7d34-4a01-9632-d1a475d94c65","ios":"levelo://app?vid=37d6595f-7d34-4a01-9632-d1a475d94c65"},"vehicle_type_id":"4","last_reported":1728627219,"current_range_meters":9600,"station_id":"ce4bgip2rcd13ifvqbb0","pricing_plan_id":"cebpf4jnsgd1na2vs0mg"},{"bike_id":"7f5ac9d4-ec5b-49e8-bd91-1a9cf6d738b6","system_id":"levelo_inurba_marseille","lat":43.28156,"lon":5.42642,"is_reserved":false,"is_disabled":false,"rental_uris":{"android":"levelo://app?vid=7f5ac9d4-ec5b-49e8-bd91-1a9cf6d738b6","ios":"levelo://app?vid=7f5ac9d4-ec5b-49e8-bd91-1a9cf6d738b6"},"vehicle_type_id":"4","last_reported":1728627219,"current_range_meters":38000,"station_id":"ce4bhnh2rcd13ifvqgug","pricing_plan_id":"cebpf4jnsgd1na2vs0mg"},{"bike_id":"4aaa707a-926d-472b-8b28-09f7911afeae","system_id":"levelo_inurba_marseille","lat":43.28853,"lon":5.35852,"is_reserved":false,"is_disabled":false,"rental_uris":{"android":"levelo://app?vid=4aaa707a-926d-472b-8b28-09f7911afeae","ios":"levelo://app?vid=4aaa707a-926d-472b-8b28-09f7911afeae"},"vehicle_type_id":"4","last_reported":1728627219,"current_range_meters":38400,"station_id":"ce4bhb12rcd13ifvqem0","pricing_plan_id":"cebpf4jnsgd1na2vs0mg"},{"bike_id":"7eed28d6-4f16-4402-b429-cf0a3d86af87","system_id":"levelo_inurba_marseille","lat":43.25813,"lon":5.39437,"is_reserved":false,"is_disabled":false,"rental_uris":{"android":"levelo://app?vid=7eed28d6-4f16-4402-b429-cf0a3d86af87","ios":"levelo://app?vid=7eed28d6-4f16-4402-b429-cf0a3d86af87"},"vehicle_type_id":"4","last_reported":1728627219,"current_range_meters":34800,"station_id":"ce4bhip2rcd13ifvqft0","pricing_plan_id":"cebpf4jnsgd1na2vs0mg"},{"bike_id":"0187423b-1007-4577-ba76-46b5a1b4833b","system_id":"levelo_inurba_marseille","lat":43.30463,"lon":5.37894,"is_reserved":false,"is_disabled":false,"rental_uris":{"android":"levelo://app?vid=0187423b-1007-4577-ba76-46b5a1b4833b","ios":"levelo://app?vid=0187423b-1007-4577-ba76-46b5a1b4833b"},"vehicle_type_id":"4","last_reported":1728627219,"current_range_meters":24800,"station_id":"ce4bgup2rcd13ifvqcn0","pricing_plan_id":"cebpf4jnsgd1na2vs0mg"},{"bike_id":"dd0540e5-c848-4c76-a06c-4c4eb83460c9","system_id":"levelo_inurba_marseille","lat":43.28452,"lon":5.358751,"is_reserved":false,"is_disabled":false,"rental_uris":{"android":"levelo://app?vid=dd0540e5-c848-4c76-a06c-4c4eb83460c9","ios":"levelo://app?vid=dd0540e5-c848-4c76-a06c-4c4eb83460c9"},"vehicle_type_id":"4","last_reported":1728627219,"current_range_meters":4000,"station_id":"ce4bh692rcd13ifvqea0","pricing_plan_id":"cebpf4jnsgd1na2vs0mg"},{"bike_id":"7d0ca2b9-222a-41c6-877b-cb24f395b5ad","system_id":"levelo_inurba_marseille","lat":43.32107,"lon":5.36782,"is_reserved":false,"is_disabled":false,"rental_uris":{"android":"levelo://app?vid=7d0ca2b9-222a-41c6-877b-cb24f395b5ad","ios":"levelo://app?vid=7d0ca2b9-222a-41c6-877b-cb24f395b5ad"},"vehicle_type_id":"4","last_reported":1728627219,"current_range_meters":36000,"station_id":"ce4bhrh2rcd13ifvqhug","pricing_plan_id":"cebpf4jnsgd1na2vs0mg"},{"bike_id":"f21ff7cf-a5e7-4036-9a78-a2aa83b6340b","system_id":"levelo_inurba_marseille","lat":43.23196,"lon":5.35547,"is_reserved":false,"is_disabled":false,"rental_uris":{"android":"levelo://app?vid=f21ff7cf-a5e7-4036-9a78-a2aa83b6340b","ios":"levelo://app?vid=f21ff7cf-a5e7-4036-9a78-a2aa83b6340b"},"vehicle_type_id":"4","last_reported":1728627219,"current_range_meters":37600,"station_id":"ce4bhu92rcd13ifvqi70","pricing_plan_id":"cebpf4jnsgd1na2vs0mg"},{"bike_id":"c845342c-f710-496e-bebd-f01432eb55eb","system_id":"levelo_inurba_marseille","lat":43.28161,"lon":5.42642,"is_reserved":false,"is_disabled":false,"rental_uris":{"android":"levelo://app?vid=c845342c-f710-496e-bebd-f01432eb55eb","ios":"levelo://app?vid=c845342c-f710-496e-bebd-f01432eb55eb"},"vehicle_type_id":"4","last_reported":1728627219,"current_range_meters":30000,"station_id":"ce4bhnh2rcd13ifvqgug","pricing_plan_id":"cebpf4jnsgd1na2vs0mg"},{"bike_id":"128684c8-a24d-4e86-b999-fc47fbedfff3","system_id":"levelo_inurba_marseille","lat":43.2768,"lon":5.38882,"is_reserved":false,"is_disabled":false,"rental_uris":{"android":"levelo://app?vid=128684c8-a24d-4e86-b999-fc47fbedfff3","ios":"levelo://app?vid=128684c8-a24d-4e86-b999-fc47fbedfff3"},"vehicle_type_id":"4","last_reported":1728627219,"current_range_meters":38800,"station_id":"ce4bhi12rcd13ifvqfo0","pricing_plan_id":"cebpf4jnsgd1na2vs0mg"},{"bike_id":"adfd7f85-794c-4718-a11c-cb39b184cb10","system_id":"levelo_inurba_marseille","lat":43.30603,"lon":5.39368,"is_reserved":false,"is_disabled":false,"rental_uris":{"android":"levelo://app?vid=adfd7f85-794c-4718-a11c-cb39b184cb10","ios":"levelo://app?vid=adfd7f85-794c-4718-a11c-cb39b184cb10"},"vehicle_type_id":"4","last_reported":1728627219,"current_range_meters":37600,"station_id":"ce4bh0p2rcd13ifvqd80","pricing_plan_id":"cebpf4jnsgd1na2vs0mg"},{"bike_id":"266f1642-5d7d-42e8-9ab6-f7a8971f9d23","system_id":"levelo_inurba_marseille","lat":43.30148,"lon":5.37427,"is_reserved":false,"is_disabled":false,"rental_uris":{"android":"levelo://app?vid=266f1642-5d7d-42e8-9ab6-f7a8971f9d23","ios":"levelo://app?vid=266f1642-5d7d-42e8-9ab6-f7a8971f9d23"},"vehicle_type_id":"4","last_reported":1728627219,"current_range_meters":31200,"station_id":"ce4bgs92rcd13ifvqcc0","pricing_plan_id":"cebpf4jnsgd1na2vs0mg"},{"bike_id":"ab63c838-e8df-4886-9daf-09b2355d97a6","system_id":"levelo_inurba_marseille","lat":43.29181,"lon":5.3717,"is_reserved":false,"is_disabled":false,"rental_uris":{"android":"levelo://app?vid=ab63c838-e8df-4886-9daf-09b2355d97a6","ios":"levelo://app?vid=ab63c838-e8df-4886-9daf-09b2355d97a6"},"vehicle_type_id":"4","last_reported":1728627219,"current_range_meters":22000,"station_id":"ce4bha92rcd13ifvqeh0","pricing_plan_id":"cebpf4jnsgd1na2vs0mg"},{"bike_id":"eb9025d4-a2c0-4c66-8bf6-7e3d76cccf1a","system_id":"levelo_inurba_marseille","lat":43.29787,"lon":5.38111,"is_reserved":false,"is_disabled":false,"rental_uris":{"android":"levelo://app?vid=eb9025d4-a2c0-4c66-8bf6-7e3d76cccf1a","ios":"levelo://app?vid=eb9025d4-a2c0-4c66-8bf6-7e3d76cccf1a"},"vehicle_type_id":"4","last_reported":1728627219,"current_range_meters":38400,"station_id":"ce4bgip2rcd13ifvqbb0","pricing_plan_id":"cebpf4jnsgd1na2vs0mg"},{"bike_id":"db8b05a0-3cd8-457c-9b3e-a9525e27d8be","system_id":"levelo_inurba_marseille","lat":43.30472,"lon":5.3791,"is_reserved":false,"is_disabled":false,"rental_uris":{"android":"levelo://app?vid=db8b05a0-3cd8-457c-9b3e-a9525e27d8be","ios":"levelo://app?vid=db8b05a0-3cd8-457c-9b3e-a9525e27d8be"},"vehicle_type_id":"4","last_reported":1728627219,"current_range_meters":37600,"station_id":"ce4bgup2rcd13ifvqcn0","pricing_plan_id":"cebpf4jnsgd1na2vs0mg"},{"bike_id":"9a89a0b2-06fd-4d2d-b793-e9b68a4b61d2","system_id":"levelo_inurba_marseille","lat":43.289323,"lon":5.366354,"is_reserved":false,"is_disabled":false,"rental_uris":{"android":"levelo://app?vid=9a89a0b2-06fd-4d2d-b793-e9b68a4b61d2","ios":"levelo://app?vid=9a89a0b2-06fd-4d2d-b793-e9b68a4b61d2"},"vehicle_type_id":"4","last_reported":1728627219,"current_range_meters":23200,"station_id":"ce4bhap2rcd13ifvqek0","pricing_plan_id":"cebpf4jnsgd1na2vs0mg"},{"bike_id":"0555b5e4-8802-4733-8989-ff00fb61ea3e","system_id":"levelo_inurba_marseille","lat":43.27369,"lon":5.36253,"is_reserved":false,"is_disabled":false,"rental_uris":{"android":"levelo://app?vid=0555b5e4-8802-4733-8989-ff00fb61ea3e","ios":"levelo://app?vid=0555b5e4-8802-4733-8989-ff00fb61ea3e"},"vehicle_type_id":"4","last_reported":1728627219,"current_range_meters":24800,"station_id":"ce4bhbh2rcd13ifvqeo0","pricing_plan_id":"cebpf4jnsgd1na2vs0mg"},{"bike_id":"57add596-5b6d-4189-8e90-4c3eff7a193a","system_id":"levelo_inurba_marseille","lat":43.31363,"lon":5.38497,"is_reserved":false,"is_disabled":false,"rental_uris":{"android":"levelo://app?vid=57add596-5b6d-4189-8e90-4c3eff7a193a","ios":"levelo://app?vid=57add596-5b6d-4189-8e90-4c3eff7a193a"},"vehicle_type_id":"4","last_reported":1728627219,"current_range_meters":6400,"station_id":"ce4bgt92rcd13ifvqcf0","pricing_plan_id":"cebpf4jnsgd1na2vs0mg"},{"bike_id":"e1992700-0980-4cec-a5b7-a335bfc99b7d","system_id":"levelo_inurba_marseille","lat":43.28356,"lon":5.38112,"is_reserved":false,"is_disabled":false,"rental_uris":{"android":"levelo://app?vid=e1992700-0980-4cec-a5b7-a335bfc99b7d","ios":"levelo://app?vid=e1992700-0980-4cec-a5b7-a335bfc99b7d"},"vehicle_type_id":"4","last_reported":1728627219,"current_range_meters":32400,"station_id":"ce4bh412rcd13ifvqdr0","pricing_plan_id":"cebpf4jnsgd1na2vs0mg"},{"bike_id":"9db4d985-7949-4b7f-b898-6a0ca7ba3693","system_id":"levelo_inurba_marseille","lat":43.33763,"lon":5.3745,"is_reserved":false,"is_disabled":false,"rental_uris":{"android":"levelo://app?vid=9db4d985-7949-4b7f-b898-6a0ca7ba3693","ios":"levelo://app?vid=9db4d985-7949-4b7f-b898-6a0ca7ba3693"},"vehicle_type_id":"4","last_reported":1728627219,"current_range_meters":30800,"station_id":"ce4rr2p2rcd13i802rgg","pricing_plan_id":"cebpf4jnsgd1na2vs0mg"},{"bike_id":"12652581-c4cb-4189-a886-f151197dcf3f","system_id":"levelo_inurba_marseille","lat":43.25825,"lon":5.39437,"is_reserved":false,"is_disabled":false,"rental_uris":{"android":"levelo://app?vid=12652581-c4cb-4189-a886-f151197dcf3f","ios":"levelo://app?vid=12652581-c4cb-4189-a886-f151197dcf3f"},"vehicle_type_id":"4","last_reported":1728627219,"current_range_meters":26000,"station_id":"ce4bhip2rcd13ifvqft0","pricing_plan_id":"cebpf4jnsgd1na2vs0mg"},{"bike_id":"d131c709-fe7c-4bc2-a2c4-b884c151934a","system_id":"levelo_inurba_marseille","lat":43.29938,"lon":5.38083,"is_reserved":false,"is_disabled":false,"rental_uris":{"android":"levelo://app?vid=d131c709-fe7c-4bc2-a2c4-b884c151934a","ios":"levelo://app?vid=d131c709-fe7c-4bc2-a2c4-b884c151934a"},"vehicle_type_id":"4","last_reported":1728627219,"current_range_meters":27200,"station_id":"ce4bgj12rcd13ifvqbc0","pricing_plan_id":"cebpf4jnsgd1na2vs0mg"},{"bike_id":"ef0d16b8-564e-45e2-a1f3-7472d4f15ee0","system_id":"levelo_inurba_marseille","lat":43.29525,"lon":5.3905,"is_reserved":false,"is_disabled":false,"rental_uris":{"android":"levelo://app?vid=ef0d16b8-564e-45e2-a1f3-7472d4f15ee0","ios":"levelo://app?vid=ef0d16b8-564e-45e2-a1f3-7472d4f15ee0"},"vehicle_type_id":"4","last_reported":1728627219,"current_range_meters":38400,"station_id":"ce4bh3p2rcd13ifvqdp0","pricing_plan_id":"cebpf4jnsgd1na2vs0mg"},{"bike_id":"efaeca4a-6799-413c-9dfa-9f56be9b4d5c","system_id":"levelo_inurba_marseille","lat":43.302307,"lon":5.379653,"is_reserved":false,"is_disabled":false,"rental_uris":{"android":"levelo://app?vid=efaeca4a-6799-413c-9dfa-9f56be9b4d5c","ios":"levelo://app?vid=efaeca4a-6799-413c-9dfa-9f56be9b4d5c"},"vehicle_type_id":"4","last_reported":1728627219,"current_range_meters":38000,"station_id":"ce4bgjp2rcd13ifvqbh0","pricing_plan_id":"cebpf4jnsgd1na2vs0mg"},{"bike_id":"25b1fb8d-043b-40f4-aa3f-c415f5d84a10","system_id":"levelo_inurba_marseille","lat":43.313539,"lon":5.367149,"is_reserved":false,"is_disabled":false,"rental_uris":{"android":"levelo://app?vid=25b1fb8d-043b-40f4-aa3f-c415f5d84a10","ios":"levelo://app?vid=25b1fb8d-043b-40f4-aa3f-c415f5d84a10"},"vehicle_type_id":"4","last_reported":1728627219,"current_range_meters":38800,"station_id":"ce4bgr92rcd13ifvqc6g","pricing_plan_id":"cebpf4jnsgd1na2vs0mg"},{"bike_id":"c2709d8c-182c-4c66-9678-32143d413767","system_id":"levelo_inurba_marseille","lat":43.22934,"lon":5.35381,"is_reserved":false,"is_disabled":false,"rental_uris":{"android":"levelo://app?vid=c2709d8c-182c-4c66-9678-32143d413767","ios":"levelo://app?vid=c2709d8c-182c-4c66-9678-32143d413767"},"vehicle_type_id":"4","last_reported":1728627219,"current_range_meters":32800,"station_id":"cpo3532slgdg3j2ikp40","pricing_plan_id":"cebpf4jnsgd1na2vs0mg"},{"bike_id":"9a7d337d-46a9-4a3e-ac0e-e31480127a4d","system_id":"levelo_inurba_marseille","lat":43.31541,"lon":5.38036,"is_reserved":false,"is_disabled":false,"rental_uris":{"android":"levelo://app?vid=9a7d337d-46a9-4a3e-ac0e-e31480127a4d","ios":"levelo://app?vid=9a7d337d-46a9-4a3e-ac0e-e31480127a4d"},"vehicle_type_id":"4","last_reported":1728627219,"current_range_meters":36400,"station_id":"ce4bhsp2rcd13ifvqi50","pricing_plan_id":"cebpf4jnsgd1na2vs0mg"},{"bike_id":"06d1f44d-bb6c-4374-8db9-6c0fc6ef35d8","system_id":"levelo_inurba_marseille","lat":43.31693,"lon":5.40461,"is_reserved":false,"is_disabled":false,"rental_uris":{"android":"levelo://app?vid=06d1f44d-bb6c-4374-8db9-6c0fc6ef35d8","ios":"levelo://app?vid=06d1f44d-bb6c-4374-8db9-6c0fc6ef35d8"},"vehicle_type_id":"4","last_reported":1728627219,"current_range_meters":36400,"station_id":"ce4bh012rcd13ifvqd00","pricing_plan_id":"cebpf4jnsgd1na2vs0mg"},{"bike_id":"a825bcf0-ceff-4a6b-a6e6-84e51226452a","system_id":"levelo_inurba_marseille","lat":43.30152,"lon":5.38074,"is_reserved":false,"is_disabled":false,"rental_uris":{"android":"levelo://app?vid=a825bcf0-ceff-4a6b-a6e6-84e51226452a","ios":"levelo://app?vid=a825bcf0-ceff-4a6b-a6e6-84e51226452a"},"vehicle_type_id":"4","last_reported":1728627219,"current_range_meters":33600,"station_id":"ce4bgjp2rcd13ifvqbh0","pricing_plan_id":"cebpf4jnsgd1na2vs0mg"},{"bike_id":"72fc0f9d-3ae6-4c25-9f46-d936a2911609","system_id":"levelo_inurba_marseille","lat":43.32537,"lon":5.41427,"is_reserved":false,"is_disabled":false,"rental_uris":{"android":"levelo://app?vid=72fc0f9d-3ae6-4c25-9f46-d936a2911609","ios":"levelo://app?vid=72fc0f9d-3ae6-4c25-9f46-d936a2911609"},"vehicle_type_id":"4","last_reported":1728627219,"current_range_meters":37600,"station_id":"ce4bhq12rcd13ifvqhhg","pricing_plan_id":"cebpf4jnsgd1na2vs0mg"},{"bike_id":"38d52082-b908-42b8-914a-c175f583ccd4","system_id":"levelo_inurba_marseille","lat":43.31487,"lon":5.37307,"is_reserved":false,"is_disabled":false,"rental_uris":{"android":"levelo://app?vid=38d52082-b908-42b8-914a-c175f583ccd4","ios":"levelo://app?vid=38d52082-b908-42b8-914a-c175f583ccd4"},"vehicle_type_id":"4","last_reported":1728627219,"current_range_meters":38000,"station_id":"ce4bgt12rcd13ifvqcd0","pricing_plan_id":"cebpf4jnsgd1na2vs0mg"},{"bike_id":"14b07fed-aacd-4f67-bc2e-4b35e6570c46","system_id":"levelo_inurba_marseille","lat":43.29214,"lon":5.39994,"is_reserved":false,"is_disabled":false,"rental_uris":{"android":"levelo://app?vid=14b07fed-aacd-4f67-bc2e-4b35e6570c46","ios":"levelo://app?vid=14b07fed-aacd-4f67-bc2e-4b35e6570c46"},"vehicle_type_id":"4","last_reported":1728627219,"current_range_meters":9200,"station_id":"","pricing_plan_id":"cebpf4jnsgd1na2vs0mg"},{"bike_id":"480aee4b-d516-4b03-874e-995df5f32160","system_id":"levelo_inurba_marseille","lat":43.28351,"lon":5.38108,"is_reserved":false,"is_disabled":false,"rental_uris":{"android":"levelo://app?vid=480aee4b-d516-4b03-874e-995df5f32160","ios":"levelo://app?vid=480aee4b-d516-4b03-874e-995df5f32160"},"vehicle_type_id":"4","last_reported":1728627219,"current_range_meters":38800,"station_id":"ce4bh412rcd13ifvqdr0","pricing_plan_id":"cebpf4jnsgd1na2vs0mg"},{"bike_id":"afe95db5-8a3b-4c30-a8c8-cd5076e2c0b5","system_id":"levelo_inurba_marseille","lat":43.29013,"lon":5.38122,"is_reserved":false,"is_disabled":false,"rental_uris":{"android":"levelo://app?vid=afe95db5-8a3b-4c30-a8c8-cd5076e2c0b5","ios":"levelo://app?vid=afe95db5-8a3b-4c30-a8c8-cd5076e2c0b5"},"vehicle_type_id":"4","last_reported":1728627219,"current_range_meters":10000,"station_id":"ce4bh4p2rcd13ifvqe1g","pricing_plan_id":"cebpf4jnsgd1na2vs0mg"},{"bike_id":"2ff77181-16e1-4173-bb2b-a7c52612f8d5","system_id":"levelo_inurba_marseille","lat":43.29618,"lon":5.37152,"is_reserved":false,"is_disabled":false,"rental_uris":{"android":"levelo://app?vid=2ff77181-16e1-4173-bb2b-a7c52612f8d5","ios":"levelo://app?vid=2ff77181-16e1-4173-bb2b-a7c52612f8d5"},"vehicle_type_id":"4","last_reported":1728627219,"current_range_meters":33200,"station_id":"ce4bgnh2rcd13ifvqc0g","pricing_plan_id":"cebpf4jnsgd1na2vs0mg"},{"bike_id":"2f76ab57-87e1-483d-925d-2ea1cbc31ffc","system_id":"levelo_inurba_marseille","lat":43.29965,"lon":5.385,"is_reserved":false,"is_disabled":false,"rental_uris":{"android":"levelo://app?vid=2f76ab57-87e1-483d-925d-2ea1cbc31ffc","ios":"levelo://app?vid=2f76ab57-87e1-483d-925d-2ea1cbc31ffc"},"vehicle_type_id":"4","last_reported":1728627219,"current_range_meters":34800,"station_id":"ce4bgj92rcd13ifvqbd0","pricing_plan_id":"cebpf4jnsgd1na2vs0mg"},{"bike_id":"f92a9fb8-9f73-4cf9-bc9b-2bdf5b520248","system_id":"levelo_inurba_marseille","lat":43.3254,"lon":5.4144,"is_reserved":false,"is_disabled":false,"rental_uris":{"android":"levelo://app?vid=f92a9fb8-9f73-4cf9-bc9b-2bdf5b520248","ios":"levelo://app?vid=f92a9fb8-9f73-4cf9-bc9b-2bdf5b520248"},"vehicle_type_id":"4","last_reported":1728627219,"current_range_meters":38000,"station_id":"ce4bhq12rcd13ifvqhhg","pricing_plan_id":"cebpf4jnsgd1na2vs0mg"},{"bike_id":"2f5f3f97-7515-4583-a368-fc4adf2cf4d5","system_id":"levelo_inurba_marseille","lat":43.34144,"lon":5.40904,"is_reserved":false,"is_disabled":false,"rental_uris":{"android":"levelo://app?vid=2f5f3f97-7515-4583-a368-fc4adf2cf4d5","ios":"levelo://app?vid=2f5f3f97-7515-4583-a368-fc4adf2cf4d5"},"vehicle_type_id":"4","last_reported":1728627219,"current_range_meters":28400,"station_id":"ce4bhqh2rcd13ifvqhlg","pricing_plan_id":"cebpf4jnsgd1na2vs0mg"},{"bike_id":"4a7b00ec-f9e3-4ff1-b915-6769cbd25ea6","system_id":"levelo_inurba_marseille","lat":43.28349,"lon":5.38105,"is_reserved":false,"is_disabled":false,"rental_uris":{"android":"levelo://app?vid=4a7b00ec-f9e3-4ff1-b915-6769cbd25ea6","ios":"levelo://app?vid=4a7b00ec-f9e3-4ff1-b915-6769cbd25ea6"},"vehicle_type_id":"4","last_reported":1728627219,"current_range_meters":22000,"station_id":"ce4bh412rcd13ifvqdr0","pricing_plan_id":"cebpf4jnsgd1na2vs0mg"},{"bike_id":"a12253a9-751c-4f18-9a20-da6dc257c40e","system_id":"levelo_inurba_marseille","lat":43.30555,"lon":5.36559,"is_reserved":false,"is_disabled":false,"rental_uris":{"android":"levelo://app?vid=a12253a9-751c-4f18-9a20-da6dc257c40e","ios":"levelo://app?vid=a12253a9-751c-4f18-9a20-da6dc257c40e"},"vehicle_type_id":"4","last_reported":1728627219,"current_range_meters":8400,"station_id":"ce4bgs12rcd13ifvqcag","pricing_plan_id":"cebpf4jnsgd1na2vs0mg"},{"bike_id":"66e15261-b982-4dbf-a8a5-76a158a9c1bd","system_id":"levelo_inurba_marseille","lat":43.34146,"lon":5.4091,"is_reserved":false,"is_disabled":false,"rental_uris":{"android":"levelo://app?vid=66e15261-b982-4dbf-a8a5-76a158a9c1bd","ios":"levelo://app?vid=66e15261-b982-4dbf-a8a5-76a158a9c1bd"},"vehicle_type_id":"4","last_reported":1728627219,"current_range_meters":12000,"station_id":"ce4bhqh2rcd13ifvqhlg","pricing_plan_id":"cebpf4jnsgd1na2vs0mg"},{"bike_id":"80677734-11a2-41a7-a505-8921ecf5a230","system_id":"levelo_inurba_marseille","lat":43.283518,"lon":5.381041,"is_reserved":false,"is_disabled":false,"rental_uris":{"android":"levelo://app?vid=80677734-11a2-41a7-a505-8921ecf5a230","ios":"levelo://app?vid=80677734-11a2-41a7-a505-8921ecf5a230"},"vehicle_type_id":"4","last_reported":1728627219,"current_range_meters":36400,"station_id":"ce4bh412rcd13ifvqdr0","pricing_plan_id":"cebpf4jnsgd1na2vs0mg"},{"bike_id":"50aa4af7-94b4-48c9-959d-eeec3eaec001","system_id":"levelo_inurba_marseille","lat":43.23193,"lon":5.35543,"is_reserved":false,"is_disabled":false,"rental_uris":{"android":"levelo://app?vid=50aa4af7-94b4-48c9-959d-eeec3eaec001","ios":"levelo://app?vid=50aa4af7-94b4-48c9-959d-eeec3eaec001"},"vehicle_type_id":"4","last_reported":1728627219,"current_range_meters":37600,"station_id":"ce4bhu92rcd13ifvqi70","pricing_plan_id":"cebpf4jnsgd1na2vs0mg"},{"bike_id":"810cfbaa-d5e1-49ba-8fea-64436fec5dc1","system_id":"levelo_inurba_marseille","lat":43.27908,"lon":5.39548,"is_reserved":false,"is_disabled":false,"rental_uris":{"android":"levelo://app?vid=810cfbaa-d5e1-49ba-8fea-64436fec5dc1","ios":"levelo://app?vid=810cfbaa-d5e1-49ba-8fea-64436fec5dc1"},"vehicle_type_id":"4","last_reported":1728627219,"current_range_meters":33600,"station_id":"","pricing_plan_id":"cebpf4jnsgd1na2vs0mg"},{"bike_id":"e42a8306-f74a-4ebc-8af2-bc275e711b45","system_id":"levelo_inurba_marseille","lat":43.30213,"lon":5.39481,"is_reserved":false,"is_disabled":false,"rental_uris":{"android":"levelo://app?vid=e42a8306-f74a-4ebc-8af2-bc275e711b45","ios":"levelo://app?vid=e42a8306-f74a-4ebc-8af2-bc275e711b45"},"vehicle_type_id":"4","last_reported":1728627219,"current_range_meters":38000,"station_id":"","pricing_plan_id":"cebpf4jnsgd1na2vs0mg"},{"bike_id":"dade3d2f-3f22-4b1e-92c9-4504fc72033e","system_id":"levelo_inurba_marseille","lat":43.26948,"lon":5.38623,"is_reserved":false,"is_disabled":false,"rental_uris":{"android":"levelo://app?vid=dade3d2f-3f22-4b1e-92c9-4504fc72033e","ios":"levelo://app?vid=dade3d2f-3f22-4b1e-92c9-4504fc72033e"},"vehicle_type_id":"4","last_reported":1728627219,"current_range_meters":28000,"station_id":"ce4bhh92rcd13ifvqfh0","pricing_plan_id":"cebpf4jnsgd1na2vs0mg"},{"bike_id":"38811800-990c-4b4f-93b0-519c6d818a43","system_id":"levelo_inurba_marseille","lat":43.33601,"lon":5.41028,"is_reserved":false,"is_disabled":false,"rental_uris":{"android":"levelo://app?vid=38811800-990c-4b4f-93b0-519c6d818a43","ios":"levelo://app?vid=38811800-990c-4b4f-93b0-519c6d818a43"},"vehicle_type_id":"4","last_reported":1728627219,"current_range_meters":38000,"station_id":"ce4bhqh2rcd13ifvqhmg","pricing_plan_id":"cebpf4jnsgd1na2vs0mg"},{"bike_id":"3d87e0dc-3d63-43ca-9ddf-6a3190926bb1","system_id":"levelo_inurba_marseille","lat":43.2961,"lon":5.38109,"is_reserved":false,"is_disabled":false,"rental_uris":{"android":"levelo://app?vid=3d87e0dc-3d63-43ca-9ddf-6a3190926bb1","ios":"levelo://app?vid=3d87e0dc-3d63-43ca-9ddf-6a3190926bb1"},"vehicle_type_id":"4","last_reported":1728627219,"current_range_meters":38800,"station_id":"ce4bgl12rcd13ifvqbo0","pricing_plan_id":"cebpf4jnsgd1na2vs0mg"},{"bike_id":"84c30ed3-60f2-43c6-a6ef-72b2abd8f6b1","system_id":"levelo_inurba_marseille","lat":43.26685,"lon":5.38277,"is_reserved":false,"is_disabled":false,"rental_uris":{"android":"levelo://app?vid=84c30ed3-60f2-43c6-a6ef-72b2abd8f6b1","ios":"levelo://app?vid=84c30ed3-60f2-43c6-a6ef-72b2abd8f6b1"},"vehicle_type_id":"4","last_reported":1728627219,"current_range_meters":34800,"station_id":"ce4bhg92rcd13ifvqf90","pricing_plan_id":"cebpf4jnsgd1na2vs0mg"},{"bike_id":"3d819519-2feb-41f9-9ba5-7980c2cc54aa","system_id":"levelo_inurba_marseille","lat":43.30539,"lon":5.36529,"is_reserved":false,"is_disabled":false,"rental_uris":{"android":"levelo://app?vid=3d819519-2feb-41f9-9ba5-7980c2cc54aa","ios":"levelo://app?vid=3d819519-2feb-41f9-9ba5-7980c2cc54aa"},"vehicle_type_id":"4","last_reported":1728627219,"current_range_meters":38800,"station_id":"ce4bgs12rcd13ifvqcag","pricing_plan_id":"cebpf4jnsgd1na2vs0mg"},{"bike_id":"f5b618b9-95bd-4142-8fc7-f2716d4901be","system_id":"levelo_inurba_marseille","lat":43.29896,"lon":5.4366,"is_reserved":false,"is_disabled":false,"rental_uris":{"android":"levelo://app?vid=f5b618b9-95bd-4142-8fc7-f2716d4901be","ios":"levelo://app?vid=f5b618b9-95bd-4142-8fc7-f2716d4901be"},"vehicle_type_id":"4","last_reported":1728627219,"current_range_meters":38800,"station_id":"ce4bhpp2rcd13ifvqhfg","pricing_plan_id":"cebpf4jnsgd1na2vs0mg"},{"bike_id":"4ac33578-6c96-4c75-84fa-c28c1d99d3a8","system_id":"levelo_inurba_marseille","lat":43.275,"lon":5.42464,"is_reserved":false,"is_disabled":false,"rental_uris":{"android":"levelo://app?vid=4ac33578-6c96-4c75-84fa-c28c1d99d3a8","ios":"levelo://app?vid=4ac33578-6c96-4c75-84fa-c28c1d99d3a8"},"vehicle_type_id":"4","last_reported":1728627219,"current_range_meters":20800,"station_id":"ce4bhn92rcd13ifvqgrg","pricing_plan_id":"cebpf4jnsgd1na2vs0mg"},{"bike_id":"255093a8-c98a-4773-851f-60ca2d6fabdf","system_id":"levelo_inurba_marseille","lat":43.33277,"lon":5.3678,"is_reserved":false,"is_disabled":false,"rental_uris":{"android":"levelo://app?vid=255093a8-c98a-4773-851f-60ca2d6fabdf","ios":"levelo://app?vid=255093a8-c98a-4773-851f-60ca2d6fabdf"},"vehicle_type_id":"4","last_reported":1728627219,"current_range_meters":34800,"station_id":"","pricing_plan_id":"cebpf4jnsgd1na2vs0mg"},{"bike_id":"536a50c8-63d4-40cf-aa16-728a969f5121","system_id":"levelo_inurba_marseille","lat":43.27493,"lon":5.42453,"is_reserved":false,"is_disabled":false,"rental_uris":{"android":"levelo://app?vid=536a50c8-63d4-40cf-aa16-728a969f5121","ios":"levelo://app?vid=536a50c8-63d4-40cf-aa16-728a969f5121"},"vehicle_type_id":"4","last_reported":1728627219,"current_range_meters":36800,"station_id":"ce4bhn92rcd13ifvqgrg","pricing_plan_id":"cebpf4jnsgd1na2vs0mg"},{"bike_id":"b1ccd07a-c9c4-4851-9071-2d92bd300502","system_id":"levelo_inurba_marseille","lat":43.29573,"lon":5.39969,"is_reserved":false,"is_disabled":false,"rental_uris":{"android":"levelo://app?vid=b1ccd07a-c9c4-4851-9071-2d92bd300502","ios":"levelo://app?vid=b1ccd07a-c9c4-4851-9071-2d92bd300502"},"vehicle_type_id":"4","last_reported":1728627219,"current_range_meters":35200,"station_id":"ce4bh312rcd13ifvqdj0","pricing_plan_id":"cebpf4jnsgd1na2vs0mg"},{"bike_id":"0a04cf5b-6d15-41ad-b327-ea771935f481","system_id":"levelo_inurba_marseille","lat":43.25821,"lon":5.39435,"is_reserved":false,"is_disabled":false,"rental_uris":{"android":"levelo://app?vid=0a04cf5b-6d15-41ad-b327-ea771935f481","ios":"levelo://app?vid=0a04cf5b-6d15-41ad-b327-ea771935f481"},"vehicle_type_id":"4","last_reported":1728627219,"current_range_meters":18000,"station_id":"ce4bhip2rcd13ifvqft0","pricing_plan_id":"cebpf4jnsgd1na2vs0mg"},{"bike_id":"bdd13584-5919-4377-a956-063b652d6283","system_id":"levelo_inurba_marseille","lat":43.296234,"lon":5.371548,"is_reserved":false,"is_disabled":false,"rental_uris":{"android":"levelo://app?vid=bdd13584-5919-4377-a956-063b652d6283","ios":"levelo://app?vid=bdd13584-5919-4377-a956-063b652d6283"},"vehicle_type_id":"4","last_reported":1728627219,"current_range_meters":9200,"station_id":"ce4bgnh2rcd13ifvqc0g","pricing_plan_id":"cebpf4jnsgd1na2vs0mg"},{"bike_id":"060680ed-978c-423e-9fa8-1b8b664fd692","system_id":"levelo_inurba_marseille","lat":43.26567,"lon":5.39004,"is_reserved":false,"is_disabled":false,"rental_uris":{"android":"levelo://app?vid=060680ed-978c-423e-9fa8-1b8b664fd692","ios":"levelo://app?vid=060680ed-978c-423e-9fa8-1b8b664fd692"},"vehicle_type_id":"4","last_reported":1728627219,"current_range_meters":10800,"station_id":"ce4bhe12rcd13ifvqf30","pricing_plan_id":"cebpf4jnsgd1na2vs0mg"},{"bike_id":"97cf73ea-7360-4151-8a90-62bb77c261ab","system_id":"levelo_inurba_marseille","lat":43.31495,"lon":5.37312,"is_reserved":false,"is_disabled":false,"rental_uris":{"android":"levelo://app?vid=97cf73ea-7360-4151-8a90-62bb77c261ab","ios":"levelo://app?vid=97cf73ea-7360-4151-8a90-62bb77c261ab"},"vehicle_type_id":"4","last_reported":1728627219,"current_range_meters":38000,"station_id":"ce4bgt12rcd13ifvqcd0","pricing_plan_id":"cebpf4jnsgd1na2vs0mg"},{"bike_id":"1ba68fe4-fca1-4e19-8f03-1de89203351c","system_id":"levelo_inurba_marseille","lat":43.29611,"lon":5.38105,"is_reserved":false,"is_disabled":false,"rental_uris":{"android":"levelo://app?vid=1ba68fe4-fca1-4e19-8f03-1de89203351c","ios":"levelo://app?vid=1ba68fe4-fca1-4e19-8f03-1de89203351c"},"vehicle_type_id":"4","last_reported":1728627219,"current_range_meters":19600,"station_id":"ce4bgl12rcd13ifvqbo0","pricing_plan_id":"cebpf4jnsgd1na2vs0mg"},{"bike_id":"ff68b789-7173-415f-860f-fb58c1b9d01d","system_id":"levelo_inurba_marseille","lat":43.22929,"lon":5.3538,"is_reserved":false,"is_disabled":false,"rental_uris":{"android":"levelo://app?vid=ff68b789-7173-415f-860f-fb58c1b9d01d","ios":"levelo://app?vid=ff68b789-7173-415f-860f-fb58c1b9d01d"},"vehicle_type_id":"4","last_reported":1728627219,"current_range_meters":32400,"station_id":"cpo3532slgdg3j2ikp40","pricing_plan_id":"cebpf4jnsgd1na2vs0mg"},{"bike_id":"cab964bc-e57f-4882-9c3b-4fe78f7ac2ed","system_id":"levelo_inurba_marseille","lat":43.26951,"lon":5.38626,"is_reserved":false,"is_disabled":false,"rental_uris":{"android":"levelo://app?vid=cab964bc-e57f-4882-9c3b-4fe78f7ac2ed","ios":"levelo://app?vid=cab964bc-e57f-4882-9c3b-4fe78f7ac2ed"},"vehicle_type_id":"4","last_reported":1728627219,"current_range_meters":38800,"station_id":"ce4bhh92rcd13ifvqfh0","pricing_plan_id":"cebpf4jnsgd1na2vs0mg"},{"bike_id":"074f5f8a-9e90-43bd-b3a8-81f6a7f1962d","system_id":"levelo_inurba_marseille","lat":43.27494,"lon":5.42456,"is_reserved":false,"is_disabled":false,"rental_uris":{"android":"levelo://app?vid=074f5f8a-9e90-43bd-b3a8-81f6a7f1962d","ios":"levelo://app?vid=074f5f8a-9e90-43bd-b3a8-81f6a7f1962d"},"vehicle_type_id":"4","last_reported":1728627219,"current_range_meters":36800,"station_id":"ce4bhn92rcd13ifvqgrg","pricing_plan_id":"cebpf4jnsgd1na2vs0mg"},{"bike_id":"6bdd4e00-8834-4802-b257-516c74179753","system_id":"levelo_inurba_marseille","lat":43.30476,"lon":5.37906,"is_reserved":false,"is_disabled":false,"rental_uris":{"android":"levelo://app?vid=6bdd4e00-8834-4802-b257-516c74179753","ios":"levelo://app?vid=6bdd4e00-8834-4802-b257-516c74179753"},"vehicle_type_id":"4","last_reported":1728627219,"current_range_meters":34800,"station_id":"ce4bgup2rcd13ifvqcn0","pricing_plan_id":"cebpf4jnsgd1na2vs0mg"},{"bike_id":"6cb5b02c-2401-484a-8b7d-b4d2106d6b08","system_id":"levelo_inurba_marseille","lat":43.23191,"lon":5.35554,"is_reserved":false,"is_disabled":false,"rental_uris":{"android":"levelo://app?vid=6cb5b02c-2401-484a-8b7d-b4d2106d6b08","ios":"levelo://app?vid=6cb5b02c-2401-484a-8b7d-b4d2106d6b08"},"vehicle_type_id":"4","last_reported":1728627219,"current_range_meters":36800,"station_id":"ce4bhu92rcd13ifvqi70","pricing_plan_id":"cebpf4jnsgd1na2vs0mg"},{"bike_id":"3e2c18e7-bb0f-4bbf-8008-cf0a6d0900ff","system_id":"levelo_inurba_marseille","lat":43.30184,"lon":5.38085,"is_reserved":false,"is_disabled":false,"rental_uris":{"android":"levelo://app?vid=3e2c18e7-bb0f-4bbf-8008-cf0a6d0900ff","ios":"levelo://app?vid=3e2c18e7-bb0f-4bbf-8008-cf0a6d0900ff"},"vehicle_type_id":"4","last_reported":1728627219,"current_range_meters":30000,"station_id":"ce4bgjp2rcd13ifvqbh0","pricing_plan_id":"cebpf4jnsgd1na2vs0mg"},{"bike_id":"44f15e4f-bcec-4cd2-8c1c-3ebf9fc6ffff","system_id":"levelo_inurba_marseille","lat":43.30157,"lon":5.38088,"is_reserved":false,"is_disabled":false,"rental_uris":{"android":"levelo://app?vid=44f15e4f-bcec-4cd2-8c1c-3ebf9fc6ffff","ios":"levelo://app?vid=44f15e4f-bcec-4cd2-8c1c-3ebf9fc6ffff"},"vehicle_type_id":"4","last_reported":1728627219,"current_range_meters":36000,"station_id":"ce4bgjp2rcd13ifvqbh0","pricing_plan_id":"cebpf4jnsgd1na2vs0mg"},{"bike_id":"91260ca4-e27f-45c6-a790-b736af6f451e","system_id":"levelo_inurba_marseille","lat":43.30474,"lon":5.37895,"is_reserved":false,"is_disabled":false,"rental_uris":{"android":"levelo://app?vid=91260ca4-e27f-45c6-a790-b736af6f451e","ios":"levelo://app?vid=91260ca4-e27f-45c6-a790-b736af6f451e"},"vehicle_type_id":"4","last_reported":1728627219,"current_range_meters":22000,"station_id":"ce4bgup2rcd13ifvqcn0","pricing_plan_id":"cebpf4jnsgd1na2vs0mg"},{"bike_id":"7616902b-9416-4113-bd10-13fa2258f15b","system_id":"levelo_inurba_marseille","lat":43.28942,"lon":5.39638,"is_reserved":false,"is_disabled":false,"rental_uris":{"android":"levelo://app?vid=7616902b-9416-4113-bd10-13fa2258f15b","ios":"levelo://app?vid=7616902b-9416-4113-bd10-13fa2258f15b"},"vehicle_type_id":"4","last_reported":1728627219,"current_range_meters":33200,"station_id":"ce4bh3h2rcd13ifvqdn0","pricing_plan_id":"cebpf4jnsgd1na2vs0mg"},{"bike_id":"0fc4e72e-1f8d-4ca0-9b9b-2825c06b0ce4","system_id":"levelo_inurba_marseille","lat":43.29607,"lon":5.38094,"is_reserved":false,"is_disabled":false,"rental_uris":{"android":"levelo://app?vid=0fc4e72e-1f8d-4ca0-9b9b-2825c06b0ce4","ios":"levelo://app?vid=0fc4e72e-1f8d-4ca0-9b9b-2825c06b0ce4"},"vehicle_type_id":"4","last_reported":1728627219,"current_range_meters":30800,"station_id":"ce4bgl12rcd13ifvqbo0","pricing_plan_id":"cebpf4jnsgd1na2vs0mg"},{"bike_id":"70e8d9e5-8396-4d7d-be39-1fc17a440db7","system_id":"levelo_inurba_marseille","lat":43.33619,"lon":5.4103,"is_reserved":false,"is_disabled":false,"rental_uris":{"android":"levelo://app?vid=70e8d9e5-8396-4d7d-be39-1fc17a440db7","ios":"levelo://app?vid=70e8d9e5-8396-4d7d-be39-1fc17a440db7"},"vehicle_type_id":"4","last_reported":1728627219,"current_range_meters":39200,"station_id":"ce4bhqh2rcd13ifvqhmg","pricing_plan_id":"cebpf4jnsgd1na2vs0mg"},{"bike_id":"0afad8db-dcc1-4e68-aa40-75e764e0ec4f","system_id":"levelo_inurba_marseille","lat":43.30155,"lon":5.38097,"is_reserved":false,"is_disabled":false,"rental_uris":{"android":"levelo://app?vid=0afad8db-dcc1-4e68-aa40-75e764e0ec4f","ios":"levelo://app?vid=0afad8db-dcc1-4e68-aa40-75e764e0ec4f"},"vehicle_type_id":"4","last_reported":1728627219,"current_range_meters":4000,"station_id":"ce4bgjp2rcd13ifvqbh0","pricing_plan_id":"cebpf4jnsgd1na2vs0mg"},{"bike_id":"7feda03c-1689-4827-a0fb-310bf8a90726","system_id":"levelo_inurba_marseille","lat":43.25005,"lon":5.38924,"is_reserved":false,"is_disabled":false,"rental_uris":{"android":"levelo://app?vid=7feda03c-1689-4827-a0fb-310bf8a90726","ios":"levelo://app?vid=7feda03c-1689-4827-a0fb-310bf8a90726"},"vehicle_type_id":"4","last_reported":1728627219,"current_range_meters":38800,"station_id":"ce4bhgp2rcd13ifvqfd0","pricing_plan_id":"cebpf4jnsgd1na2vs0mg"},{"bike_id":"9bab9d3e-37a4-49a5-a75a-86966f750570","system_id":"levelo_inurba_marseille","lat":43.32113,"lon":5.36774,"is_reserved":false,"is_disabled":false,"rental_uris":{"android":"levelo://app?vid=9bab9d3e-37a4-49a5-a75a-86966f750570","ios":"levelo://app?vid=9bab9d3e-37a4-49a5-a75a-86966f750570"},"vehicle_type_id":"4","last_reported":1728627219,"current_range_meters":6400,"station_id":"ce4bhrh2rcd13ifvqhug","pricing_plan_id":"cebpf4jnsgd1na2vs0mg"},{"bike_id":"3537b8e4-820a-4a31-ae24-373b5cb07e65","system_id":"levelo_inurba_marseille","lat":43.29609,"lon":5.38111,"is_reserved":false,"is_disabled":false,"rental_uris":{"android":"levelo://app?vid=3537b8e4-820a-4a31-ae24-373b5cb07e65","ios":"levelo://app?vid=3537b8e4-820a-4a31-ae24-373b5cb07e65"},"vehicle_type_id":"4","last_reported":1728627219,"current_range_meters":37600,"station_id":"ce4bgl12rcd13ifvqbo0","pricing_plan_id":"cebpf4jnsgd1na2vs0mg"},{"bike_id":"c0fa442b-8066-4ddb-a113-21e760726cdb","system_id":"levelo_inurba_marseille","lat":43.30475,"lon":5.37921,"is_reserved":false,"is_disabled":false,"rental_uris":{"android":"levelo://app?vid=c0fa442b-8066-4ddb-a113-21e760726cdb","ios":"levelo://app?vid=c0fa442b-8066-4ddb-a113-21e760726cdb"},"vehicle_type_id":"4","last_reported":1728627219,"current_range_meters":27600,"station_id":"ce4bgup2rcd13ifvqcn0","pricing_plan_id":"cebpf4jnsgd1na2vs0mg"},{"bike_id":"094f27a8-0ae0-45f6-a946-b4e9fed288f7","system_id":"levelo_inurba_marseille","lat":43.26948,"lon":5.38637,"is_reserved":false,"is_disabled":false,"rental_uris":{"android":"levelo://app?vid=094f27a8-0ae0-45f6-a946-b4e9fed288f7","ios":"levelo://app?vid=094f27a8-0ae0-45f6-a946-b4e9fed288f7"},"vehicle_type_id":"4","last_reported":1728627219,"current_range_meters":33200,"station_id":"ce4bhh92rcd13ifvqfh0","pricing_plan_id":"cebpf4jnsgd1na2vs0mg"},{"bike_id":"9a3ef8f3-8740-4e39-9c24-cf98b0108ac8","system_id":"levelo_inurba_marseille","lat":43.2804,"lon":5.36936,"is_reserved":false,"is_disabled":false,"rental_uris":{"android":"levelo://app?vid=9a3ef8f3-8740-4e39-9c24-cf98b0108ac8","ios":"levelo://app?vid=9a3ef8f3-8740-4e39-9c24-cf98b0108ac8"},"vehicle_type_id":"4","last_reported":1728627219,"current_range_meters":11600,"station_id":"ce4bha12rcd13ifvqef0","pricing_plan_id":"cebpf4jnsgd1na2vs0mg"},{"bike_id":"9f224ecd-f528-4499-a04c-2c14df455d5a","system_id":"levelo_inurba_marseille","lat":43.30475,"lon":5.37913,"is_reserved":false,"is_disabled":false,"rental_uris":{"android":"levelo://app?vid=9f224ecd-f528-4499-a04c-2c14df455d5a","ios":"levelo://app?vid=9f224ecd-f528-4499-a04c-2c14df455d5a"},"vehicle_type_id":"4","last_reported":1728627219,"current_range_meters":12000,"station_id":"ce4bgup2rcd13ifvqcn0","pricing_plan_id":"cebpf4jnsgd1na2vs0mg"},{"bike_id":"dfe080d2-bee7-41ea-b3ce-ff54821988df","system_id":"levelo_inurba_marseille","lat":43.30148,"lon":5.3808,"is_reserved":false,"is_disabled":false,"rental_uris":{"android":"levelo://app?vid=dfe080d2-bee7-41ea-b3ce-ff54821988df","ios":"levelo://app?vid=dfe080d2-bee7-41ea-b3ce-ff54821988df"},"vehicle_type_id":"4","last_reported":1728627219,"current_range_meters":30000,"station_id":"ce4bgjp2rcd13ifvqbh0","pricing_plan_id":"cebpf4jnsgd1na2vs0mg"},{"bike_id":"f5025c91-10ce-417c-b0cc-aa63fb454c26","system_id":"levelo_inurba_marseille","lat":43.24654,"lon":5.38894,"is_reserved":false,"is_disabled":false,"rental_uris":{"android":"levelo://app?vid=f5025c91-10ce-417c-b0cc-aa63fb454c26","ios":"levelo://app?vid=f5025c91-10ce-417c-b0cc-aa63fb454c26"},"vehicle_type_id":"4","last_reported":1728627219,"current_range_meters":36000,"station_id":"ce4bhg12rcd13ifvqf60","pricing_plan_id":"cebpf4jnsgd1na2vs0mg"},{"bike_id":"413e5204-4d14-4eff-b91f-42f09aa166a8","system_id":"levelo_inurba_marseille","lat":43.30243,"lon":5.40054,"is_reserved":false,"is_disabled":false,"rental_uris":{"android":"levelo://app?vid=413e5204-4d14-4eff-b91f-42f09aa166a8","ios":"levelo://app?vid=413e5204-4d14-4eff-b91f-42f09aa166a8"},"vehicle_type_id":"4","last_reported":1728627219,"current_range_meters":35600,"station_id":"ce4bgvh2rcd13ifvqcs0","pricing_plan_id":"cebpf4jnsgd1na2vs0mg"},{"bike_id":"1bf39129-7013-4caa-8d33-ef279b792ee7","system_id":"levelo_inurba_marseille","lat":43.25578,"lon":5.38228,"is_reserved":false,"is_disabled":false,"rental_uris":{"android":"levelo://app?vid=1bf39129-7013-4caa-8d33-ef279b792ee7","ios":"levelo://app?vid=1bf39129-7013-4caa-8d33-ef279b792ee7"},"vehicle_type_id":"4","last_reported":1728627219,"current_range_meters":8000,"station_id":"ce4bhih2rcd13ifvqfs0","pricing_plan_id":"cebpf4jnsgd1na2vs0mg"},{"bike_id":"28a7463e-dd0f-46a9-9ccb-679488d33b6c","system_id":"levelo_inurba_marseille","lat":43.30355,"lon":5.41877,"is_reserved":false,"is_disabled":false,"rental_uris":{"android":"levelo://app?vid=28a7463e-dd0f-46a9-9ccb-679488d33b6c","ios":"levelo://app?vid=28a7463e-dd0f-46a9-9ccb-679488d33b6c"},"vehicle_type_id":"4","last_reported":1728627219,"current_range_meters":38000,"station_id":"ce4bhop2rcd13ifvqh7g","pricing_plan_id":"cebpf4jnsgd1na2vs0mg"},{"bike_id":"fed32808-7677-4c05-9d69-18205840a43b","system_id":"levelo_inurba_marseille","lat":43.30143,"lon":5.37407,"is_reserved":false,"is_disabled":false,"rental_uris":{"android":"levelo://app?vid=fed32808-7677-4c05-9d69-18205840a43b","ios":"levelo://app?vid=fed32808-7677-4c05-9d69-18205840a43b"},"vehicle_type_id":"4","last_reported":1728627219,"current_range_meters":38800,"station_id":"ce4bgs92rcd13ifvqcc0","pricing_plan_id":"cebpf4jnsgd1na2vs0mg"},{"bike_id":"31a7ad63-dd0d-46bb-8650-17b0e172ecd3","system_id":"levelo_inurba_marseille","lat":43.27493,"lon":5.42453,"is_reserved":false,"is_disabled":false,"rental_uris":{"android":"levelo://app?vid=31a7ad63-dd0d-46bb-8650-17b0e172ecd3","ios":"levelo://app?vid=31a7ad63-dd0d-46bb-8650-17b0e172ecd3"},"vehicle_type_id":"4","last_reported":1728627219,"current_range_meters":9200,"station_id":"ce4bhn92rcd13ifvqgrg","pricing_plan_id":"cebpf4jnsgd1na2vs0mg"},{"bike_id":"2b6db7cf-4d0a-416f-bebd-099fb2ac8dfd","system_id":"levelo_inurba_marseille","lat":43.28938,"lon":5.36643,"is_reserved":false,"is_disabled":false,"rental_uris":{"android":"levelo://app?vid=2b6db7cf-4d0a-416f-bebd-099fb2ac8dfd","ios":"levelo://app?vid=2b6db7cf-4d0a-416f-bebd-099fb2ac8dfd"},"vehicle_type_id":"4","last_reported":1728627219,"current_range_meters":16400,"station_id":"ce4bhap2rcd13ifvqek0","pricing_plan_id":"cebpf4jnsgd1na2vs0mg"},{"bike_id":"0b326781-6a80-460a-a32f-195ea80a69ee","system_id":"levelo_inurba_marseille","lat":43.27499,"lon":5.42458,"is_reserved":false,"is_disabled":false,"rental_uris":{"android":"levelo://app?vid=0b326781-6a80-460a-a32f-195ea80a69ee","ios":"levelo://app?vid=0b326781-6a80-460a-a32f-195ea80a69ee"},"vehicle_type_id":"4","last_reported":1728627219,"current_range_meters":31200,"station_id":"ce4bhn92rcd13ifvqgrg","pricing_plan_id":"cebpf4jnsgd1na2vs0mg"},{"bike_id":"814ef43a-cb9e-434d-ba46-8edd132367e6","system_id":"levelo_inurba_marseille","lat":43.30475,"lon":5.379,"is_reserved":false,"is_disabled":false,"rental_uris":{"android":"levelo://app?vid=814ef43a-cb9e-434d-ba46-8edd132367e6","ios":"levelo://app?vid=814ef43a-cb9e-434d-ba46-8edd132367e6"},"vehicle_type_id":"4","last_reported":1728627219,"current_range_meters":36800,"station_id":"ce4bgup2rcd13ifvqcn0","pricing_plan_id":"cebpf4jnsgd1na2vs0mg"},{"bike_id":"a5681568-20c6-4b77-8f5f-fc354c198357","system_id":"levelo_inurba_marseille","lat":43.25499,"lon":5.37647,"is_reserved":false,"is_disabled":false,"rental_uris":{"android":"levelo://app?vid=a5681568-20c6-4b77-8f5f-fc354c198357","ios":"levelo://app?vid=a5681568-20c6-4b77-8f5f-fc354c198357"},"vehicle_type_id":"4","last_reported":1728627219,"current_range_meters":38000,"station_id":"ce4bhh12rcd13ifvqff0","pricing_plan_id":"cebpf4jnsgd1na2vs0mg"},{"bike_id":"7947c8ad-d6b0-4809-9e25-79956b73c1cf","system_id":"levelo_inurba_marseille","lat":43.30417,"lon":5.4128,"is_reserved":false,"is_disabled":false,"rental_uris":{"android":"levelo://app?vid=7947c8ad-d6b0-4809-9e25-79956b73c1cf","ios":"levelo://app?vid=7947c8ad-d6b0-4809-9e25-79956b73c1cf"},"vehicle_type_id":"4","last_reported":1728627219,"current_range_meters":31200,"station_id":"ce4bhph2rcd13ifvqhdg","pricing_plan_id":"cebpf4jnsgd1na2vs0mg"},{"bike_id":"1430f6f2-73dd-42ca-8307-5f209eb4a512","system_id":"levelo_inurba_marseille","lat":43.29461,"lon":5.37626,"is_reserved":false,"is_disabled":false,"rental_uris":{"android":"levelo://app?vid=1430f6f2-73dd-42ca-8307-5f209eb4a512","ios":"levelo://app?vid=1430f6f2-73dd-42ca-8307-5f209eb4a512"},"vehicle_type_id":"4","last_reported":1728627219,"current_range_meters":8000,"station_id":"","pricing_plan_id":"cebpf4jnsgd1na2vs0mg"},{"bike_id":"870736e6-a322-43c3-b847-6fa5ca9f78d2","system_id":"levelo_inurba_marseille","lat":43.29726,"lon":5.37702,"is_reserved":false,"is_disabled":false,"rental_uris":{"android":"levelo://app?vid=870736e6-a322-43c3-b847-6fa5ca9f78d2","ios":"levelo://app?vid=870736e6-a322-43c3-b847-6fa5ca9f78d2"},"vehicle_type_id":"4","last_reported":1728627219,"current_range_meters":16400,"station_id":"ce4bgkh2rcd13ifvqbl0","pricing_plan_id":"cebpf4jnsgd1na2vs0mg"},{"bike_id":"1aedeaea-7831-419d-b347-2cf652591a45","system_id":"levelo_inurba_marseille","lat":43.28443,"lon":5.39195,"is_reserved":false,"is_disabled":false,"rental_uris":{"android":"levelo://app?vid=1aedeaea-7831-419d-b347-2cf652591a45","ios":"levelo://app?vid=1aedeaea-7831-419d-b347-2cf652591a45"},"vehicle_type_id":"4","last_reported":1728627219,"current_range_meters":38400,"station_id":"ce4bhoh2rcd13ifvqh5g","pricing_plan_id":"cebpf4jnsgd1na2vs0mg"},{"bike_id":"3d5e27f9-ef3a-4476-b7ee-b68af97fb34a","system_id":"levelo_inurba_marseille","lat":43.28986,"lon":5.37838,"is_reserved":false,"is_disabled":false,"rental_uris":{"android":"levelo://app?vid=3d5e27f9-ef3a-4476-b7ee-b68af97fb34a","ios":"levelo://app?vid=3d5e27f9-ef3a-4476-b7ee-b68af97fb34a"},"vehicle_type_id":"4","last_reported":1728627219,"current_range_meters":38800,"station_id":"ce4bh9p2rcd13ifvqed0","pricing_plan_id":"cebpf4jnsgd1na2vs0mg"},{"bike_id":"484a4c63-4ef1-4433-b27a-9a9ca5ad2f9a","system_id":"levelo_inurba_marseille","lat":43.22932,"lon":5.35371,"is_reserved":false,"is_disabled":false,"rental_uris":{"android":"levelo://app?vid=484a4c63-4ef1-4433-b27a-9a9ca5ad2f9a","ios":"levelo://app?vid=484a4c63-4ef1-4433-b27a-9a9ca5ad2f9a"},"vehicle_type_id":"4","last_reported":1728627219,"current_range_meters":17600,"station_id":"cpo3532slgdg3j2ikp40","pricing_plan_id":"cebpf4jnsgd1na2vs0mg"},{"bike_id":"bf9a8dbd-a3ff-4226-a25b-1015d3103cd4","system_id":"levelo_inurba_marseille","lat":43.30357,"lon":5.4188,"is_reserved":false,"is_disabled":false,"rental_uris":{"android":"levelo://app?vid=bf9a8dbd-a3ff-4226-a25b-1015d3103cd4","ios":"levelo://app?vid=bf9a8dbd-a3ff-4226-a25b-1015d3103cd4"},"vehicle_type_id":"4","last_reported":1728627219,"current_range_meters":2800,"station_id":"ce4bhop2rcd13ifvqh7g","pricing_plan_id":"cebpf4jnsgd1na2vs0mg"},{"bike_id":"1a74429e-c098-42a2-806d-2bdd634ea0d0","system_id":"levelo_inurba_marseille","lat":43.28355,"lon":5.38107,"is_reserved":false,"is_disabled":false,"rental_uris":{"android":"levelo://app?vid=1a74429e-c098-42a2-806d-2bdd634ea0d0","ios":"levelo://app?vid=1a74429e-c098-42a2-806d-2bdd634ea0d0"},"vehicle_type_id":"4","last_reported":1728627219,"current_range_meters":29600,"station_id":"ce4bh412rcd13ifvqdr0","pricing_plan_id":"cebpf4jnsgd1na2vs0mg"},{"bike_id":"edd58c07-95cf-4adb-8e2d-c1fc37b21419","system_id":"levelo_inurba_marseille","lat":43.30474,"lon":5.3791,"is_reserved":false,"is_disabled":false,"rental_uris":{"android":"levelo://app?vid=edd58c07-95cf-4adb-8e2d-c1fc37b21419","ios":"levelo://app?vid=edd58c07-95cf-4adb-8e2d-c1fc37b21419"},"vehicle_type_id":"4","last_reported":1728627219,"current_range_meters":38800,"station_id":"ce4bgup2rcd13ifvqcn0","pricing_plan_id":"cebpf4jnsgd1na2vs0mg"},{"bike_id":"83a0fd67-342f-4c86-b41a-275c6cb03d41","system_id":"levelo_inurba_marseille","lat":43.29865,"lon":5.37228,"is_reserved":false,"is_disabled":false,"rental_uris":{"android":"levelo://app?vid=83a0fd67-342f-4c86-b41a-275c6cb03d41","ios":"levelo://app?vid=83a0fd67-342f-4c86-b41a-275c6cb03d41"},"vehicle_type_id":"4","last_reported":1728627219,"current_range_meters":5600,"station_id":"","pricing_plan_id":"cebpf4jnsgd1na2vs0mg"},{"bike_id":"a01b9b20-6fd0-46eb-8da3-4fb4c78ddb44","system_id":"levelo_inurba_marseille","lat":43.29803,"lon":5.38091,"is_reserved":false,"is_disabled":false,"rental_uris":{"android":"levelo://app?vid=a01b9b20-6fd0-46eb-8da3-4fb4c78ddb44","ios":"levelo://app?vid=a01b9b20-6fd0-46eb-8da3-4fb4c78ddb44"},"vehicle_type_id":"4","last_reported":1728627219,"current_range_meters":14000,"station_id":"ce4bgip2rcd13ifvqbb0","pricing_plan_id":"cebpf4jnsgd1na2vs0mg"},{"bike_id":"029fe7f9-f9e3-4c51-8c3e-8e185cc4f4d7","system_id":"levelo_inurba_marseille","lat":43.29606,"lon":5.38118,"is_reserved":false,"is_disabled":false,"rental_uris":{"android":"levelo://app?vid=029fe7f9-f9e3-4c51-8c3e-8e185cc4f4d7","ios":"levelo://app?vid=029fe7f9-f9e3-4c51-8c3e-8e185cc4f4d7"},"vehicle_type_id":"4","last_reported":1728627219,"current_range_meters":36000,"station_id":"ce4bgl12rcd13ifvqbo0","pricing_plan_id":"cebpf4jnsgd1na2vs0mg"},{"bike_id":"fd000c3b-a9c4-4fcf-a95a-000a7fb3c7bd","system_id":"levelo_inurba_marseille","lat":43.29558,"lon":5.42293,"is_reserved":false,"is_disabled":false,"rental_uris":{"android":"levelo://app?vid=fd000c3b-a9c4-4fcf-a95a-000a7fb3c7bd","ios":"levelo://app?vid=fd000c3b-a9c4-4fcf-a95a-000a7fb3c7bd"},"vehicle_type_id":"4","last_reported":1728627219,"current_range_meters":3600,"station_id":"ce4bhph2rcd13ifvqhdg","pricing_plan_id":"cebpf4jnsgd1na2vs0mg"},{"bike_id":"a096e2a8-13ba-49dd-95c6-a5a8569d1151","system_id":"levelo_inurba_marseille","lat":43.26569,"lon":5.39005,"is_reserved":false,"is_disabled":false,"rental_uris":{"android":"levelo://app?vid=a096e2a8-13ba-49dd-95c6-a5a8569d1151","ios":"levelo://app?vid=a096e2a8-13ba-49dd-95c6-a5a8569d1151"},"vehicle_type_id":"4","last_reported":1728627219,"current_range_meters":24400,"station_id":"ce4bhe12rcd13ifvqf30","pricing_plan_id":"cebpf4jnsgd1na2vs0mg"},{"bike_id":"65987b29-aa2c-4733-be91-82374c8ff43b","system_id":"levelo_inurba_marseille","lat":43.27495,"lon":5.42453,"is_reserved":false,"is_disabled":false,"rental_uris":{"android":"levelo://app?vid=65987b29-aa2c-4733-be91-82374c8ff43b","ios":"levelo://app?vid=65987b29-aa2c-4733-be91-82374c8ff43b"},"vehicle_type_id":"4","last_reported":1728627219,"current_range_meters":6000,"station_id":"ce4bhn92rcd13ifvqgrg","pricing_plan_id":"cebpf4jnsgd1na2vs0mg"},{"bike_id":"7608acb2-d3ab-4ba2-b867-6b4a59822a20","system_id":"levelo_inurba_marseille","lat":43.2923,"lon":5.36071,"is_reserved":false,"is_disabled":false,"rental_uris":{"android":"levelo://app?vid=7608acb2-d3ab-4ba2-b867-6b4a59822a20","ios":"levelo://app?vid=7608acb2-d3ab-4ba2-b867-6b4a59822a20"},"vehicle_type_id":"4","last_reported":1728627219,"current_range_meters":30400,"station_id":"ce4bhbh2rcd13ifvqeqg","pricing_plan_id":"cebpf4jnsgd1na2vs0mg"},{"bike_id":"8d954371-59b1-42d7-8073-9746c7be500a","system_id":"levelo_inurba_marseille","lat":43.28968,"lon":5.37838,"is_reserved":false,"is_disabled":false,"rental_uris":{"android":"levelo://app?vid=8d954371-59b1-42d7-8073-9746c7be500a","ios":"levelo://app?vid=8d954371-59b1-42d7-8073-9746c7be500a"},"vehicle_type_id":"4","last_reported":1728627219,"current_range_meters":38000,"station_id":"ce4bh9p2rcd13ifvqed0","pricing_plan_id":"cebpf4jnsgd1na2vs0mg"},{"bike_id":"1a77e98a-356c-44c1-a180-5d2a812667a3","system_id":"levelo_inurba_marseille","lat":43.29844,"lon":5.38101,"is_reserved":false,"is_disabled":false,"rental_uris":{"android":"levelo://app?vid=1a77e98a-356c-44c1-a180-5d2a812667a3","ios":"levelo://app?vid=1a77e98a-356c-44c1-a180-5d2a812667a3"},"vehicle_type_id":"4","last_reported":1728627219,"current_range_meters":32400,"station_id":"ce4bgip2rcd13ifvqbb0","pricing_plan_id":"cebpf4jnsgd1na2vs0mg"},{"bike_id":"c92fba34-aea6-4d2c-b710-21b825d7faaa","system_id":"levelo_inurba_marseille","lat":43.29043,"lon":5.36978,"is_reserved":false,"is_disabled":false,"rental_uris":{"android":"levelo://app?vid=c92fba34-aea6-4d2c-b710-21b825d7faaa","ios":"levelo://app?vid=c92fba34-aea6-4d2c-b710-21b825d7faaa"},"vehicle_type_id":"4","last_reported":1728627219,"current_range_meters":33200,"station_id":"ce4bgrp2rcd13ifvqc9g","pricing_plan_id":"cebpf4jnsgd1na2vs0mg"},{"bike_id":"3372ba1c-93af-4ac9-8ffa-34868b7baae2","system_id":"levelo_inurba_marseille","lat":43.31758,"lon":5.3902,"is_reserved":false,"is_disabled":false,"rental_uris":{"android":"levelo://app?vid=3372ba1c-93af-4ac9-8ffa-34868b7baae2","ios":"levelo://app?vid=3372ba1c-93af-4ac9-8ffa-34868b7baae2"},"vehicle_type_id":"4","last_reported":1728627219,"current_range_meters":12800,"station_id":"ce4bhqp2rcd13ifvqhng","pricing_plan_id":"cebpf4jnsgd1na2vs0mg"},{"bike_id":"ea79b829-1cf6-46a7-8302-4db9118220a2","system_id":"levelo_inurba_marseille","lat":43.30469,"lon":5.37894,"is_reserved":false,"is_disabled":false,"rental_uris":{"android":"levelo://app?vid=ea79b829-1cf6-46a7-8302-4db9118220a2","ios":"levelo://app?vid=ea79b829-1cf6-46a7-8302-4db9118220a2"},"vehicle_type_id":"4","last_reported":1728627219,"current_range_meters":31200,"station_id":"ce4bgup2rcd13ifvqcn0","pricing_plan_id":"cebpf4jnsgd1na2vs0mg"},{"bike_id":"0e393ed9-fc49-4a70-9f58-72a4b7ecfe8f","system_id":"levelo_inurba_marseille","lat":43.31189,"lon":5.402582,"is_reserved":false,"is_disabled":false,"rental_uris":{"android":"levelo://app?vid=0e393ed9-fc49-4a70-9f58-72a4b7ecfe8f","ios":"levelo://app?vid=0e393ed9-fc49-4a70-9f58-72a4b7ecfe8f"},"vehicle_type_id":"4","last_reported":1728627219,"current_range_meters":26000,"station_id":"ce4bh092rcd13ifvqd30","pricing_plan_id":"cebpf4jnsgd1na2vs0mg"},{"bike_id":"5a5649e8-a9bc-4d0f-be41-ed6fc56a9baf","system_id":"levelo_inurba_marseille","lat":43.22925,"lon":5.35374,"is_reserved":false,"is_disabled":false,"rental_uris":{"android":"levelo://app?vid=5a5649e8-a9bc-4d0f-be41-ed6fc56a9baf","ios":"levelo://app?vid=5a5649e8-a9bc-4d0f-be41-ed6fc56a9baf"},"vehicle_type_id":"4","last_reported":1728627219,"current_range_meters":37600,"station_id":"cpo3532slgdg3j2ikp40","pricing_plan_id":"cebpf4jnsgd1na2vs0mg"},{"bike_id":"104dce3b-2862-44f7-bb64-f1cb1800c635","system_id":"levelo_inurba_marseille","lat":43.33602,"lon":5.41019,"is_reserved":false,"is_disabled":false,"rental_uris":{"android":"levelo://app?vid=104dce3b-2862-44f7-bb64-f1cb1800c635","ios":"levelo://app?vid=104dce3b-2862-44f7-bb64-f1cb1800c635"},"vehicle_type_id":"4","last_reported":1728627219,"current_range_meters":39200,"station_id":"ce4bhqh2rcd13ifvqhmg","pricing_plan_id":"cebpf4jnsgd1na2vs0mg"},{"bike_id":"52ba39b7-b52f-491a-ba65-25e180de383f","system_id":"levelo_inurba_marseille","lat":43.27816,"lon":5.40719,"is_reserved":false,"is_disabled":false,"rental_uris":{"android":"levelo://app?vid=52ba39b7-b52f-491a-ba65-25e180de383f","ios":"levelo://app?vid=52ba39b7-b52f-491a-ba65-25e180de383f"},"vehicle_type_id":"4","last_reported":1728627219,"current_range_meters":36000,"station_id":"ce4bhnh2rcd13ifvqgtg","pricing_plan_id":"cebpf4jnsgd1na2vs0mg"},{"bike_id":"a15cb93a-bcea-44d8-bf83-c38a29a4a489","system_id":"levelo_inurba_marseille","lat":43.25492,"lon":5.37644,"is_reserved":false,"is_disabled":false,"rental_uris":{"android":"levelo://app?vid=a15cb93a-bcea-44d8-bf83-c38a29a4a489","ios":"levelo://app?vid=a15cb93a-bcea-44d8-bf83-c38a29a4a489"},"vehicle_type_id":"4","last_reported":1728627219,"current_range_meters":39200,"station_id":"ce4bhh12rcd13ifvqff0","pricing_plan_id":"cebpf4jnsgd1na2vs0mg"},{"bike_id":"df97f6ce-50ef-4e46-9e5e-930330d7e696","system_id":"levelo_inurba_marseille","lat":43.2593,"lon":5.40907,"is_reserved":false,"is_disabled":false,"rental_uris":{"android":"levelo://app?vid=df97f6ce-50ef-4e46-9e5e-930330d7e696","ios":"levelo://app?vid=df97f6ce-50ef-4e46-9e5e-930330d7e696"},"vehicle_type_id":"4","last_reported":1728627219,"current_range_meters":17200,"station_id":"ce4bhm92rcd13ifvqglg","pricing_plan_id":"cebpf4jnsgd1na2vs0mg"},{"bike_id":"a1c3b4d7-0d0f-4c5c-8791-a6ad145da069","system_id":"levelo_inurba_marseille","lat":43.32658,"lon":5.40998,"is_reserved":false,"is_disabled":false,"rental_uris":{"android":"levelo://app?vid=a1c3b4d7-0d0f-4c5c-8791-a6ad145da069","ios":"levelo://app?vid=a1c3b4d7-0d0f-4c5c-8791-a6ad145da069"},"vehicle_type_id":"4","last_reported":1728627219,"current_range_meters":29600,"station_id":"ce4bhpp2rcd13ifvqhgg","pricing_plan_id":"cebpf4jnsgd1na2vs0mg"},{"bike_id":"f02f7de8-46fc-456a-a316-ca30edbfa7e9","system_id":"levelo_inurba_marseille","lat":43.25579,"lon":5.38227,"is_reserved":false,"is_disabled":false,"rental_uris":{"android":"levelo://app?vid=f02f7de8-46fc-456a-a316-ca30edbfa7e9","ios":"levelo://app?vid=f02f7de8-46fc-456a-a316-ca30edbfa7e9"},"vehicle_type_id":"4","last_reported":1728627219,"current_range_meters":38800,"station_id":"ce4bhih2rcd13ifvqfs0","pricing_plan_id":"cebpf4jnsgd1na2vs0mg"},{"bike_id":"7fd860ed-0939-400f-8cda-f725f519c2a4","system_id":"levelo_inurba_marseille","lat":43.297834,"lon":5.370972,"is_reserved":false,"is_disabled":false,"rental_uris":{"android":"levelo://app?vid=7fd860ed-0939-400f-8cda-f725f519c2a4","ios":"levelo://app?vid=7fd860ed-0939-400f-8cda-f725f519c2a4"},"vehicle_type_id":"4","last_reported":1728627219,"current_range_meters":38000,"station_id":"ce4bgop2rcd13ifvqc1g","pricing_plan_id":"cebpf4jnsgd1na2vs0mg"},{"bike_id":"8fb2b431-bcb9-46ba-80fb-e26e84592fc5","system_id":"levelo_inurba_marseille","lat":43.231889,"lon":5.355571,"is_reserved":false,"is_disabled":false,"rental_uris":{"android":"levelo://app?vid=8fb2b431-bcb9-46ba-80fb-e26e84592fc5","ios":"levelo://app?vid=8fb2b431-bcb9-46ba-80fb-e26e84592fc5"},"vehicle_type_id":"4","last_reported":1728627219,"current_range_meters":37600,"station_id":"ce4bhu92rcd13ifvqi70","pricing_plan_id":"cebpf4jnsgd1na2vs0mg"},{"bike_id":"0505e1cf-8f9b-4c0d-af15-071b9742f141","system_id":"levelo_inurba_marseille","lat":43.24084,"lon":5.37752,"is_reserved":false,"is_disabled":false,"rental_uris":{"android":"levelo://app?vid=0505e1cf-8f9b-4c0d-af15-071b9742f141","ios":"levelo://app?vid=0505e1cf-8f9b-4c0d-af15-071b9742f141"},"vehicle_type_id":"4","last_reported":1728627219,"current_range_meters":38400,"station_id":"ce4bhnp2rcd13ifvqgvg","pricing_plan_id":"cebpf4jnsgd1na2vs0mg"},{"bike_id":"844636f7-bed9-4d8b-960b-bb6a2dd30219","system_id":"levelo_inurba_marseille","lat":43.2903,"lon":5.38646,"is_reserved":false,"is_disabled":false,"rental_uris":{"android":"levelo://app?vid=844636f7-bed9-4d8b-960b-bb6a2dd30219","ios":"levelo://app?vid=844636f7-bed9-4d8b-960b-bb6a2dd30219"},"vehicle_type_id":"4","last_reported":1728627219,"current_range_meters":20800,"station_id":"ce4bh4p2rcd13ifvqe0g","pricing_plan_id":"cebpf4jnsgd1na2vs0mg"},{"bike_id":"9d7ed1cc-c333-491e-a46d-24f7fd8f2a0f","system_id":"levelo_inurba_marseille","lat":43.30471,"lon":5.37909,"is_reserved":false,"is_disabled":false,"rental_uris":{"android":"levelo://app?vid=9d7ed1cc-c333-491e-a46d-24f7fd8f2a0f","ios":"levelo://app?vid=9d7ed1cc-c333-491e-a46d-24f7fd8f2a0f"},"vehicle_type_id":"4","last_reported":1728627219,"current_range_meters":28800,"station_id":"ce4bgup2rcd13ifvqcn0","pricing_plan_id":"cebpf4jnsgd1na2vs0mg"},{"bike_id":"bb071bcd-2f53-415d-94b0-d7c42ca3770b","system_id":"levelo_inurba_marseille","lat":43.30906,"lon":5.36845,"is_reserved":false,"is_disabled":false,"rental_uris":{"android":"levelo://app?vid=bb071bcd-2f53-415d-94b0-d7c42ca3770b","ios":"levelo://app?vid=bb071bcd-2f53-415d-94b0-d7c42ca3770b"},"vehicle_type_id":"4","last_reported":1728627219,"current_range_meters":12000,"station_id":"ce4bgn92rcd13ifvqbvg","pricing_plan_id":"cebpf4jnsgd1na2vs0mg"},{"bike_id":"5167ceb0-39da-4ee2-86c9-e5de78016b46","system_id":"levelo_inurba_marseille","lat":43.25934,"lon":5.409184,"is_reserved":false,"is_disabled":false,"rental_uris":{"android":"levelo://app?vid=5167ceb0-39da-4ee2-86c9-e5de78016b46","ios":"levelo://app?vid=5167ceb0-39da-4ee2-86c9-e5de78016b46"},"vehicle_type_id":"4","last_reported":1728627219,"current_range_meters":8400,"station_id":"ce4bhm92rcd13ifvqglg","pricing_plan_id":"cebpf4jnsgd1na2vs0mg"},{"bike_id":"8403956e-e2fb-4fff-b6a5-94fc1ee1d7af","system_id":"levelo_inurba_marseille","lat":43.26854,"lon":5.40528,"is_reserved":false,"is_disabled":false,"rental_uris":{"android":"levelo://app?vid=8403956e-e2fb-4fff-b6a5-94fc1ee1d7af","ios":"levelo://app?vid=8403956e-e2fb-4fff-b6a5-94fc1ee1d7af"},"vehicle_type_id":"4","last_reported":1728627219,"current_range_meters":21600,"station_id":"ce4bhh92rcd13ifvqfh0","pricing_plan_id":"cebpf4jnsgd1na2vs0mg"},{"bike_id":"43e314d8-3e24-4bd6-bc29-f4a2aff1f491","system_id":"levelo_inurba_marseille","lat":43.28934,"lon":5.36635,"is_reserved":false,"is_disabled":false,"rental_uris":{"android":"levelo://app?vid=43e314d8-3e24-4bd6-bc29-f4a2aff1f491","ios":"levelo://app?vid=43e314d8-3e24-4bd6-bc29-f4a2aff1f491"},"vehicle_type_id":"4","last_reported":1728627219,"current_range_meters":28000,"station_id":"ce4bhap2rcd13ifvqek0","pricing_plan_id":"cebpf4jnsgd1na2vs0mg"},{"bike_id":"2e57e480-a324-489b-8946-f7d9d9edcf00","system_id":"levelo_inurba_marseille","lat":43.33612,"lon":5.41015,"is_reserved":false,"is_disabled":false,"rental_uris":{"android":"levelo://app?vid=2e57e480-a324-489b-8946-f7d9d9edcf00","ios":"levelo://app?vid=2e57e480-a324-489b-8946-f7d9d9edcf00"},"vehicle_type_id":"4","last_reported":1728627219,"current_range_meters":39200,"station_id":"ce4bhqh2rcd13ifvqhmg","pricing_plan_id":"cebpf4jnsgd1na2vs0mg"},{"bike_id":"fdd79d87-dcd5-4f2e-8d2e-035006594798","system_id":"levelo_inurba_marseille","lat":43.24391,"lon":5.37051,"is_reserved":false,"is_disabled":false,"rental_uris":{"android":"levelo://app?vid=fdd79d87-dcd5-4f2e-8d2e-035006594798","ios":"levelo://app?vid=fdd79d87-dcd5-4f2e-8d2e-035006594798"},"vehicle_type_id":"4","last_reported":1728627219,"current_range_meters":8400,"station_id":"ce4bhhh2rcd13ifvqfk0","pricing_plan_id":"cebpf4jnsgd1na2vs0mg"},{"bike_id":"d7904d32-0362-484b-a63a-cf15dc9c6117","system_id":"levelo_inurba_marseille","lat":43.28223,"lon":5.37906,"is_reserved":false,"is_disabled":false,"rental_uris":{"android":"levelo://app?vid=d7904d32-0362-484b-a63a-cf15dc9c6117","ios":"levelo://app?vid=d7904d32-0362-484b-a63a-cf15dc9c6117"},"vehicle_type_id":"4","last_reported":1728627219,"current_range_meters":3200,"station_id":"","pricing_plan_id":"cebpf4jnsgd1na2vs0mg"},{"bike_id":"af45acc8-ecb1-498a-afcf-c469adaee684","system_id":"levelo_inurba_marseille","lat":43.293,"lon":5.37465,"is_reserved":false,"is_disabled":false,"rental_uris":{"android":"levelo://app?vid=af45acc8-ecb1-498a-afcf-c469adaee684","ios":"levelo://app?vid=af45acc8-ecb1-498a-afcf-c469adaee684"},"vehicle_type_id":"4","last_reported":1728627219,"current_range_meters":36800,"station_id":"ce4bgi12rcd13ifvqb70","pricing_plan_id":"cebpf4jnsgd1na2vs0mg"},{"bike_id":"bb693aec-e596-4cbe-9107-6a4434cbe1c6","system_id":"levelo_inurba_marseille","lat":43.28566,"lon":5.39509,"is_reserved":false,"is_disabled":false,"rental_uris":{"android":"levelo://app?vid=bb693aec-e596-4cbe-9107-6a4434cbe1c6","ios":"levelo://app?vid=bb693aec-e596-4cbe-9107-6a4434cbe1c6"},"vehicle_type_id":"4","last_reported":1728627219,"current_range_meters":38800,"station_id":"ce4bh292rcd13ifvqdg0","pricing_plan_id":"cebpf4jnsgd1na2vs0mg"},{"bike_id":"95490037-6391-468d-a13d-8c142f48b66b","system_id":"levelo_inurba_marseille","lat":43.29616,"lon":5.3811,"is_reserved":false,"is_disabled":false,"rental_uris":{"android":"levelo://app?vid=95490037-6391-468d-a13d-8c142f48b66b","ios":"levelo://app?vid=95490037-6391-468d-a13d-8c142f48b66b"},"vehicle_type_id":"4","last_reported":1728627219,"current_range_meters":6800,"station_id":"ce4bgl12rcd13ifvqbo0","pricing_plan_id":"cebpf4jnsgd1na2vs0mg"},{"bike_id":"ead90337-bd04-4723-84d7-3c938f85e2b4","system_id":"levelo_inurba_marseille","lat":43.28855,"lon":5.3933,"is_reserved":false,"is_disabled":false,"rental_uris":{"android":"levelo://app?vid=ead90337-bd04-4723-84d7-3c938f85e2b4","ios":"levelo://app?vid=ead90337-bd04-4723-84d7-3c938f85e2b4"},"vehicle_type_id":"4","last_reported":1728627219,"current_range_meters":38400,"station_id":"ce4bh2p2rcd13ifvqdi0","pricing_plan_id":"cebpf4jnsgd1na2vs0mg"},{"bike_id":"723b0c37-547a-4ad0-b7f9-6540f8447b35","system_id":"levelo_inurba_marseille","lat":43.28483,"lon":5.38418,"is_reserved":false,"is_disabled":false,"rental_uris":{"android":"levelo://app?vid=723b0c37-547a-4ad0-b7f9-6540f8447b35","ios":"levelo://app?vid=723b0c37-547a-4ad0-b7f9-6540f8447b35"},"vehicle_type_id":"4","last_reported":1728627219,"current_range_meters":33200,"station_id":"ce4bh512rcd13ifvqe3g","pricing_plan_id":"cebpf4jnsgd1na2vs0mg"},{"bike_id":"3d714baa-3f71-40d2-84e2-73337d8e0ac3","system_id":"levelo_inurba_marseille","lat":43.2827,"lon":5.35062,"is_reserved":false,"is_disabled":false,"rental_uris":{"android":"levelo://app?vid=3d714baa-3f71-40d2-84e2-73337d8e0ac3","ios":"levelo://app?vid=3d714baa-3f71-40d2-84e2-73337d8e0ac3"},"vehicle_type_id":"4","last_reported":1728627219,"current_range_meters":24000,"station_id":"ce4bhbp2rcd13ifvqerg","pricing_plan_id":"cebpf4jnsgd1na2vs0mg"},{"bike_id":"eea68882-5fdc-4014-8178-33e091658260","system_id":"levelo_inurba_marseille","lat":43.28336,"lon":5.38101,"is_reserved":false,"is_disabled":false,"rental_uris":{"android":"levelo://app?vid=eea68882-5fdc-4014-8178-33e091658260","ios":"levelo://app?vid=eea68882-5fdc-4014-8178-33e091658260"},"vehicle_type_id":"4","last_reported":1728627219,"current_range_meters":38800,"station_id":"ce4bh412rcd13ifvqdr0","pricing_plan_id":"cebpf4jnsgd1na2vs0mg"},{"bike_id":"c9c5ec7c-ffe8-456e-b492-19d3196fb776","system_id":"levelo_inurba_marseille","lat":43.30146,"lon":5.38073,"is_reserved":false,"is_disabled":false,"rental_uris":{"android":"levelo://app?vid=c9c5ec7c-ffe8-456e-b492-19d3196fb776","ios":"levelo://app?vid=c9c5ec7c-ffe8-456e-b492-19d3196fb776"},"vehicle_type_id":"4","last_reported":1728627219,"current_range_meters":16400,"station_id":"ce4bgjp2rcd13ifvqbh0","pricing_plan_id":"cebpf4jnsgd1na2vs0mg"},{"bike_id":"a16567ee-8663-415e-88a2-3a019332e0dc","system_id":"levelo_inurba_marseille","lat":43.25582,"lon":5.38232,"is_reserved":false,"is_disabled":false,"rental_uris":{"android":"levelo://app?vid=a16567ee-8663-415e-88a2-3a019332e0dc","ios":"levelo://app?vid=a16567ee-8663-415e-88a2-3a019332e0dc"},"vehicle_type_id":"4","last_reported":1728627219,"current_range_meters":29600,"station_id":"ce4bhih2rcd13ifvqfs0","pricing_plan_id":"cebpf4jnsgd1na2vs0mg"},{"bike_id":"da1ccf5a-0e25-468b-b944-945a47e982c5","system_id":"levelo_inurba_marseille","lat":43.2721,"lon":5.39177,"is_reserved":false,"is_disabled":false,"rental_uris":{"android":"levelo://app?vid=da1ccf5a-0e25-468b-b944-945a47e982c5","ios":"levelo://app?vid=da1ccf5a-0e25-468b-b944-945a47e982c5"},"vehicle_type_id":"4","last_reported":1728627219,"current_range_meters":32000,"station_id":"ce4bhhp2rcd13ifvqfm0","pricing_plan_id":"cebpf4jnsgd1na2vs0mg"},{"bike_id":"3d6fde7a-2dbc-4211-8635-538e39a59e28","system_id":"levelo_inurba_marseille","lat":43.27673,"lon":5.38911,"is_reserved":false,"is_disabled":false,"rental_uris":{"android":"levelo://app?vid=3d6fde7a-2dbc-4211-8635-538e39a59e28","ios":"levelo://app?vid=3d6fde7a-2dbc-4211-8635-538e39a59e28"},"vehicle_type_id":"4","last_reported":1728627219,"current_range_meters":38800,"station_id":"ce4bhi12rcd13ifvqfo0","pricing_plan_id":"cebpf4jnsgd1na2vs0mg"},{"bike_id":"a486d943-bca3-4153-b3f9-032cfa69543b","system_id":"levelo_inurba_marseille","lat":43.313159,"lon":5.367496,"is_reserved":false,"is_disabled":false,"rental_uris":{"android":"levelo://app?vid=a486d943-bca3-4153-b3f9-032cfa69543b","ios":"levelo://app?vid=a486d943-bca3-4153-b3f9-032cfa69543b"},"vehicle_type_id":"4","last_reported":1728627219,"current_range_meters":20800,"station_id":"","pricing_plan_id":"cebpf4jnsgd1na2vs0mg"},{"bike_id":"81b8c591-c1fa-42fc-a53a-15fe63658162","system_id":"levelo_inurba_marseille","lat":43.28984,"lon":5.37848,"is_reserved":false,"is_disabled":false,"rental_uris":{"android":"levelo://app?vid=81b8c591-c1fa-42fc-a53a-15fe63658162","ios":"levelo://app?vid=81b8c591-c1fa-42fc-a53a-15fe63658162"},"vehicle_type_id":"4","last_reported":1728627219,"current_range_meters":28400,"station_id":"ce4bh9p2rcd13ifvqed0","pricing_plan_id":"cebpf4jnsgd1na2vs0mg"},{"bike_id":"27482599-6ac1-4451-896d-9d27077a44e3","system_id":"levelo_inurba_marseille","lat":43.26028,"lon":5.3755,"is_reserved":false,"is_disabled":false,"rental_uris":{"android":"levelo://app?vid=27482599-6ac1-4451-896d-9d27077a44e3","ios":"levelo://app?vid=27482599-6ac1-4451-896d-9d27077a44e3"},"vehicle_type_id":"4","last_reported":1728627219,"current_range_meters":29600,"station_id":"ce4bhgh2rcd13ifvqfa0","pricing_plan_id":"cebpf4jnsgd1na2vs0mg"},{"bike_id":"aa75c41c-1391-4d5a-b0ad-fb29c317877d","system_id":"levelo_inurba_marseille","lat":43.23071,"lon":5.35495,"is_reserved":false,"is_disabled":false,"rental_uris":{"android":"levelo://app?vid=aa75c41c-1391-4d5a-b0ad-fb29c317877d","ios":"levelo://app?vid=aa75c41c-1391-4d5a-b0ad-fb29c317877d"},"vehicle_type_id":"4","last_reported":1728627219,"current_range_meters":8000,"station_id":"cpo3342slgdg3j2ifvpg","pricing_plan_id":"cebpf4jnsgd1na2vs0mg"},{"bike_id":"773b10cd-4140-4e1a-af4b-72bc0c858471","system_id":"levelo_inurba_marseille","lat":43.3136,"lon":5.36726,"is_reserved":false,"is_disabled":false,"rental_uris":{"android":"levelo://app?vid=773b10cd-4140-4e1a-af4b-72bc0c858471","ios":"levelo://app?vid=773b10cd-4140-4e1a-af4b-72bc0c858471"},"vehicle_type_id":"4","last_reported":1728627219,"current_range_meters":37600,"station_id":"ce4bgr92rcd13ifvqc6g","pricing_plan_id":"cebpf4jnsgd1na2vs0mg"},{"bike_id":"ef6a73bc-7842-4596-9598-c50487ee8a80","system_id":"levelo_inurba_marseille","lat":43.29033,"lon":5.38654,"is_reserved":false,"is_disabled":false,"rental_uris":{"android":"levelo://app?vid=ef6a73bc-7842-4596-9598-c50487ee8a80","ios":"levelo://app?vid=ef6a73bc-7842-4596-9598-c50487ee8a80"},"vehicle_type_id":"4","last_reported":1728627219,"current_range_meters":38000,"station_id":"ce4bh4p2rcd13ifvqe0g","pricing_plan_id":"cebpf4jnsgd1na2vs0mg"},{"bike_id":"5afdb8c9-d96d-4c0e-b591-d8ec4a6bd3ae","system_id":"levelo_inurba_marseille","lat":43.26955,"lon":5.3863,"is_reserved":false,"is_disabled":false,"rental_uris":{"android":"levelo://app?vid=5afdb8c9-d96d-4c0e-b591-d8ec4a6bd3ae","ios":"levelo://app?vid=5afdb8c9-d96d-4c0e-b591-d8ec4a6bd3ae"},"vehicle_type_id":"4","last_reported":1728627219,"current_range_meters":31200,"station_id":"ce4bhh92rcd13ifvqfh0","pricing_plan_id":"cebpf4jnsgd1na2vs0mg"},{"bike_id":"a6144df5-4781-4c25-be51-b8e6ae72ebc8","system_id":"levelo_inurba_marseille","lat":43.30477,"lon":5.37902,"is_reserved":false,"is_disabled":false,"rental_uris":{"android":"levelo://app?vid=a6144df5-4781-4c25-be51-b8e6ae72ebc8","ios":"levelo://app?vid=a6144df5-4781-4c25-be51-b8e6ae72ebc8"},"vehicle_type_id":"4","last_reported":1728627219,"current_range_meters":15200,"station_id":"ce4bgup2rcd13ifvqcn0","pricing_plan_id":"cebpf4jnsgd1na2vs0mg"},{"bike_id":"b623f1ce-b7d9-4ba1-8cfa-d6bac22b388d","system_id":"levelo_inurba_marseille","lat":43.30139,"lon":5.37414,"is_reserved":false,"is_disabled":false,"rental_uris":{"android":"levelo://app?vid=b623f1ce-b7d9-4ba1-8cfa-d6bac22b388d","ios":"levelo://app?vid=b623f1ce-b7d9-4ba1-8cfa-d6bac22b388d"},"vehicle_type_id":"4","last_reported":1728627219,"current_range_meters":3600,"station_id":"ce4bgs92rcd13ifvqcc0","pricing_plan_id":"cebpf4jnsgd1na2vs0mg"},{"bike_id":"8951881c-1844-4191-93f4-b5f46119ae77","system_id":"levelo_inurba_marseille","lat":43.30153,"lon":5.38076,"is_reserved":false,"is_disabled":false,"rental_uris":{"android":"levelo://app?vid=8951881c-1844-4191-93f4-b5f46119ae77","ios":"levelo://app?vid=8951881c-1844-4191-93f4-b5f46119ae77"},"vehicle_type_id":"4","last_reported":1728627219,"current_range_meters":8000,"station_id":"ce4bgjp2rcd13ifvqbh0","pricing_plan_id":"cebpf4jnsgd1na2vs0mg"},{"bike_id":"75f1fd93-3fd8-468d-8eee-6eb32bebf085","system_id":"levelo_inurba_marseille","lat":43.284437,"lon":5.391906,"is_reserved":false,"is_disabled":false,"rental_uris":{"android":"levelo://app?vid=75f1fd93-3fd8-468d-8eee-6eb32bebf085","ios":"levelo://app?vid=75f1fd93-3fd8-468d-8eee-6eb32bebf085"},"vehicle_type_id":"4","last_reported":1728627219,"current_range_meters":36400,"station_id":"ce4bhoh2rcd13ifvqh5g","pricing_plan_id":"cebpf4jnsgd1na2vs0mg"},{"bike_id":"2e65de3c-c319-4a32-a469-94890224d538","system_id":"levelo_inurba_marseille","lat":43.26551,"lon":5.37274,"is_reserved":false,"is_disabled":false,"rental_uris":{"android":"levelo://app?vid=2e65de3c-c319-4a32-a469-94890224d538","ios":"levelo://app?vid=2e65de3c-c319-4a32-a469-94890224d538"},"vehicle_type_id":"4","last_reported":1728627219,"current_range_meters":4400,"station_id":"ce4bhg12rcd13ifvqf70","pricing_plan_id":"cebpf4jnsgd1na2vs0mg"},{"bike_id":"4121bd79-c8af-44a3-8797-db6f961103cf","system_id":"levelo_inurba_marseille","lat":43.29569,"lon":5.39646,"is_reserved":false,"is_disabled":false,"rental_uris":{"android":"levelo://app?vid=4121bd79-c8af-44a3-8797-db6f961103cf","ios":"levelo://app?vid=4121bd79-c8af-44a3-8797-db6f961103cf"},"vehicle_type_id":"4","last_reported":1728627219,"current_range_meters":33600,"station_id":"","pricing_plan_id":"cebpf4jnsgd1na2vs0mg"},{"bike_id":"f724ee69-c9ae-4fb6-bfa9-7e350f159353","system_id":"levelo_inurba_marseille","lat":43.311854,"lon":5.387066,"is_reserved":false,"is_disabled":false,"rental_uris":{"android":"levelo://app?vid=f724ee69-c9ae-4fb6-bfa9-7e350f159353","ios":"levelo://app?vid=f724ee69-c9ae-4fb6-bfa9-7e350f159353"},"vehicle_type_id":"4","last_reported":1728627219,"current_range_meters":36000,"station_id":"ce4bgv12rcd13ifvqcp0","pricing_plan_id":"cebpf4jnsgd1na2vs0mg"},{"bike_id":"d4e7c199-5b07-4cc4-b4e1-e0fc91d98728","system_id":"levelo_inurba_marseille","lat":43.25583,"lon":5.38228,"is_reserved":false,"is_disabled":false,"rental_uris":{"android":"levelo://app?vid=d4e7c199-5b07-4cc4-b4e1-e0fc91d98728","ios":"levelo://app?vid=d4e7c199-5b07-4cc4-b4e1-e0fc91d98728"},"vehicle_type_id":"4","last_reported":1728627219,"current_range_meters":38400,"station_id":"ce4bhih2rcd13ifvqfs0","pricing_plan_id":"cebpf4jnsgd1na2vs0mg"},{"bike_id":"b1009450-6152-462c-a724-90df51eeb6db","system_id":"levelo_inurba_marseille","lat":43.32382,"lon":5.38917,"is_reserved":false,"is_disabled":false,"rental_uris":{"android":"levelo://app?vid=b1009450-6152-462c-a724-90df51eeb6db","ios":"levelo://app?vid=b1009450-6152-462c-a724-90df51eeb6db"},"vehicle_type_id":"4","last_reported":1728627219,"current_range_meters":6800,"station_id":"ce4bhqp2rcd13ifvqhog","pricing_plan_id":"cebpf4jnsgd1na2vs0mg"},{"bike_id":"e5674877-15f9-4fc9-8db0-07e3c1d0d239","system_id":"levelo_inurba_marseille","lat":43.3372,"lon":5.39188,"is_reserved":false,"is_disabled":false,"rental_uris":{"android":"levelo://app?vid=e5674877-15f9-4fc9-8db0-07e3c1d0d239","ios":"levelo://app?vid=e5674877-15f9-4fc9-8db0-07e3c1d0d239"},"vehicle_type_id":"4","last_reported":1728627219,"current_range_meters":24800,"station_id":"ce4bhr92rcd13ifvqhsg","pricing_plan_id":"cebpf4jnsgd1na2vs0mg"},{"bike_id":"a39ed9db-1fea-4428-92e3-620eb4b5ad40","system_id":"levelo_inurba_marseille","lat":43.27994,"lon":5.41655,"is_reserved":false,"is_disabled":false,"rental_uris":{"android":"levelo://app?vid=a39ed9db-1fea-4428-92e3-620eb4b5ad40","ios":"levelo://app?vid=a39ed9db-1fea-4428-92e3-620eb4b5ad40"},"vehicle_type_id":"4","last_reported":1728627219,"current_range_meters":28400,"station_id":"ce4bho12rcd13ifvqh1g","pricing_plan_id":"cebpf4jnsgd1na2vs0mg"},{"bike_id":"3a118c4b-fd62-476e-8485-ac2c33d4f61c","system_id":"levelo_inurba_marseille","lat":43.27496,"lon":5.42454,"is_reserved":false,"is_disabled":false,"rental_uris":{"android":"levelo://app?vid=3a118c4b-fd62-476e-8485-ac2c33d4f61c","ios":"levelo://app?vid=3a118c4b-fd62-476e-8485-ac2c33d4f61c"},"vehicle_type_id":"4","last_reported":1728627219,"current_range_meters":38800,"station_id":"ce4bhn92rcd13ifvqgrg","pricing_plan_id":"cebpf4jnsgd1na2vs0mg"},{"bike_id":"3c4b6950-ffb5-4a8f-b25e-7fec20953e13","system_id":"levelo_inurba_marseille","lat":43.27209,"lon":5.39178,"is_reserved":false,"is_disabled":false,"rental_uris":{"android":"levelo://app?vid=3c4b6950-ffb5-4a8f-b25e-7fec20953e13","ios":"levelo://app?vid=3c4b6950-ffb5-4a8f-b25e-7fec20953e13"},"vehicle_type_id":"4","last_reported":1728627219,"current_range_meters":38800,"station_id":"ce4bhhp2rcd13ifvqfm0","pricing_plan_id":"cebpf4jnsgd1na2vs0mg"},{"bike_id":"980338e1-fc6f-426a-a1ae-2070a2be68d3","system_id":"levelo_inurba_marseille","lat":43.28274,"lon":5.35081,"is_reserved":false,"is_disabled":false,"rental_uris":{"android":"levelo://app?vid=980338e1-fc6f-426a-a1ae-2070a2be68d3","ios":"levelo://app?vid=980338e1-fc6f-426a-a1ae-2070a2be68d3"},"vehicle_type_id":"4","last_reported":1728627219,"current_range_meters":4800,"station_id":"ce4bhbp2rcd13ifvqerg","pricing_plan_id":"cebpf4jnsgd1na2vs0mg"},{"bike_id":"34bf6053-a9fb-4609-b749-3989eae46476","system_id":"levelo_inurba_marseille","lat":43.2963,"lon":5.40604,"is_reserved":false,"is_disabled":false,"rental_uris":{"android":"levelo://app?vid=34bf6053-a9fb-4609-b749-3989eae46476","ios":"levelo://app?vid=34bf6053-a9fb-4609-b749-3989eae46476"},"vehicle_type_id":"4","last_reported":1728627219,"current_range_meters":30800,"station_id":"ce4bh0h2rcd13ifvqd60","pricing_plan_id":"cebpf4jnsgd1na2vs0mg"},{"bike_id":"a1f9acd4-c2e4-45fc-b38b-0e0aceb1d442","system_id":"levelo_inurba_marseille","lat":43.24663,"lon":5.38161,"is_reserved":false,"is_disabled":false,"rental_uris":{"android":"levelo://app?vid=a1f9acd4-c2e4-45fc-b38b-0e0aceb1d442","ios":"levelo://app?vid=a1f9acd4-c2e4-45fc-b38b-0e0aceb1d442"},"vehicle_type_id":"4","last_reported":1728627219,"current_range_meters":9200,"station_id":"ce4bhih2rcd13ifvqfr0","pricing_plan_id":"cebpf4jnsgd1na2vs0mg"},{"bike_id":"d34eaccd-ef02-4dbc-bc70-f4d7fb64a518","system_id":"levelo_inurba_marseille","lat":43.29795,"lon":5.3809,"is_reserved":false,"is_disabled":false,"rental_uris":{"android":"levelo://app?vid=d34eaccd-ef02-4dbc-bc70-f4d7fb64a518","ios":"levelo://app?vid=d34eaccd-ef02-4dbc-bc70-f4d7fb64a518"},"vehicle_type_id":"4","last_reported":1728627219,"current_range_meters":3600,"station_id":"ce4bgip2rcd13ifvqbb0","pricing_plan_id":"cebpf4jnsgd1na2vs0mg"},{"bike_id":"82457e32-49e7-4edf-af74-bfa9e151fb00","system_id":"levelo_inurba_marseille","lat":43.27495,"lon":5.42456,"is_reserved":false,"is_disabled":false,"rental_uris":{"android":"levelo://app?vid=82457e32-49e7-4edf-af74-bfa9e151fb00","ios":"levelo://app?vid=82457e32-49e7-4edf-af74-bfa9e151fb00"},"vehicle_type_id":"4","last_reported":1728627219,"current_range_meters":21600,"station_id":"ce4bhn92rcd13ifvqgrg","pricing_plan_id":"cebpf4jnsgd1na2vs0mg"},{"bike_id":"41668484-5402-4801-8dbc-dc927890f218","system_id":"levelo_inurba_marseille","lat":43.27494,"lon":5.42455,"is_reserved":false,"is_disabled":false,"rental_uris":{"android":"levelo://app?vid=41668484-5402-4801-8dbc-dc927890f218","ios":"levelo://app?vid=41668484-5402-4801-8dbc-dc927890f218"},"vehicle_type_id":"4","last_reported":1728627219,"current_range_meters":24000,"station_id":"ce4bhn92rcd13ifvqgrg","pricing_plan_id":"cebpf4jnsgd1na2vs0mg"},{"bike_id":"4044eba1-043b-4c6e-9875-81e278b1c931","system_id":"levelo_inurba_marseille","lat":43.28948,"lon":5.39629,"is_reserved":false,"is_disabled":false,"rental_uris":{"android":"levelo://app?vid=4044eba1-043b-4c6e-9875-81e278b1c931","ios":"levelo://app?vid=4044eba1-043b-4c6e-9875-81e278b1c931"},"vehicle_type_id":"4","last_reported":1728627219,"current_range_meters":30800,"station_id":"ce4bh3h2rcd13ifvqdn0","pricing_plan_id":"cebpf4jnsgd1na2vs0mg"},{"bike_id":"acc74367-2f98-47f2-9934-d446ad14e8f6","system_id":"levelo_inurba_marseille","lat":43.29574,"lon":5.39968,"is_reserved":false,"is_disabled":false,"rental_uris":{"android":"levelo://app?vid=acc74367-2f98-47f2-9934-d446ad14e8f6","ios":"levelo://app?vid=acc74367-2f98-47f2-9934-d446ad14e8f6"},"vehicle_type_id":"4","last_reported":1728627219,"current_range_meters":30000,"station_id":"ce4bh312rcd13ifvqdj0","pricing_plan_id":"cebpf4jnsgd1na2vs0mg"},{"bike_id":"f067f1c2-4c2c-45a8-873d-45919df56b88","system_id":"levelo_inurba_marseille","lat":43.25578,"lon":5.3823,"is_reserved":false,"is_disabled":false,"rental_uris":{"android":"levelo://app?vid=f067f1c2-4c2c-45a8-873d-45919df56b88","ios":"levelo://app?vid=f067f1c2-4c2c-45a8-873d-45919df56b88"},"vehicle_type_id":"4","last_reported":1728627219,"current_range_meters":38400,"station_id":"ce4bhih2rcd13ifvqfs0","pricing_plan_id":"cebpf4jnsgd1na2vs0mg"},{"bike_id":"eef292b3-5b49-46e7-9f48-0517510c4134","system_id":"levelo_inurba_marseille","lat":43.30952,"lon":5.39034,"is_reserved":false,"is_disabled":false,"rental_uris":{"android":"levelo://app?vid=eef292b3-5b49-46e7-9f48-0517510c4134","ios":"levelo://app?vid=eef292b3-5b49-46e7-9f48-0517510c4134"},"vehicle_type_id":"4","last_reported":1728627219,"current_range_meters":27200,"station_id":"ce4bgup2rcd13ifvqco0","pricing_plan_id":"cebpf4jnsgd1na2vs0mg"},{"bike_id":"28d648a4-6d40-4cf0-8079-90e059ef95a1","system_id":"levelo_inurba_marseille","lat":43.304657,"lon":5.379104,"is_reserved":false,"is_disabled":false,"rental_uris":{"android":"levelo://app?vid=28d648a4-6d40-4cf0-8079-90e059ef95a1","ios":"levelo://app?vid=28d648a4-6d40-4cf0-8079-90e059ef95a1"},"vehicle_type_id":"4","last_reported":1728627219,"current_range_meters":27600,"station_id":"ce4bgup2rcd13ifvqcn0","pricing_plan_id":"cebpf4jnsgd1na2vs0mg"},{"bike_id":"eabaafd4-ab60-47f8-89ce-ef0e72c20579","system_id":"levelo_inurba_marseille","lat":43.33722,"lon":5.39184,"is_reserved":false,"is_disabled":false,"rental_uris":{"android":"levelo://app?vid=eabaafd4-ab60-47f8-89ce-ef0e72c20579","ios":"levelo://app?vid=eabaafd4-ab60-47f8-89ce-ef0e72c20579"},"vehicle_type_id":"4","last_reported":1728627219,"current_range_meters":40000,"station_id":"ce4bhr92rcd13ifvqhsg","pricing_plan_id":"cebpf4jnsgd1na2vs0mg"},{"bike_id":"08fc8c91-d2c9-499e-808b-81e455f4e3b3","system_id":"levelo_inurba_marseille","lat":43.2407,"lon":5.37768,"is_reserved":false,"is_disabled":false,"rental_uris":{"android":"levelo://app?vid=08fc8c91-d2c9-499e-808b-81e455f4e3b3","ios":"levelo://app?vid=08fc8c91-d2c9-499e-808b-81e455f4e3b3"},"vehicle_type_id":"4","last_reported":1728627219,"current_range_meters":37600,"station_id":"ce4bhnp2rcd13ifvqgvg","pricing_plan_id":"cebpf4jnsgd1na2vs0mg"},{"bike_id":"ce04f614-a320-42df-8776-6146f8ec634d","system_id":"levelo_inurba_marseille","lat":43.25579,"lon":5.38223,"is_reserved":false,"is_disabled":false,"rental_uris":{"android":"levelo://app?vid=ce04f614-a320-42df-8776-6146f8ec634d","ios":"levelo://app?vid=ce04f614-a320-42df-8776-6146f8ec634d"},"vehicle_type_id":"4","last_reported":1728627219,"current_range_meters":37600,"station_id":"ce4bhih2rcd13ifvqfs0","pricing_plan_id":"cebpf4jnsgd1na2vs0mg"},{"bike_id":"c8bdebac-160a-4434-a65c-500647d26e05","system_id":"levelo_inurba_marseille","lat":43.30222,"lon":5.39472,"is_reserved":false,"is_disabled":false,"rental_uris":{"android":"levelo://app?vid=c8bdebac-160a-4434-a65c-500647d26e05","ios":"levelo://app?vid=c8bdebac-160a-4434-a65c-500647d26e05"},"vehicle_type_id":"4","last_reported":1728627219,"current_range_meters":36800,"station_id":"ce4bh0p2rcd13ifvqd70","pricing_plan_id":"cebpf4jnsgd1na2vs0mg"},{"bike_id":"1802d23a-3912-4359-bd32-33d49614a9ff","system_id":"levelo_inurba_marseille","lat":43.30474,"lon":5.37908,"is_reserved":false,"is_disabled":false,"rental_uris":{"android":"levelo://app?vid=1802d23a-3912-4359-bd32-33d49614a9ff","ios":"levelo://app?vid=1802d23a-3912-4359-bd32-33d49614a9ff"},"vehicle_type_id":"4","last_reported":1728627219,"current_range_meters":24400,"station_id":"ce4bgup2rcd13ifvqcn0","pricing_plan_id":"cebpf4jnsgd1na2vs0mg"},{"bike_id":"e26eee39-8618-47b2-971b-e5a660d1c348","system_id":"levelo_inurba_marseille","lat":43.30137,"lon":5.3989,"is_reserved":false,"is_disabled":false,"rental_uris":{"android":"levelo://app?vid=e26eee39-8618-47b2-971b-e5a660d1c348","ios":"levelo://app?vid=e26eee39-8618-47b2-971b-e5a660d1c348"},"vehicle_type_id":"4","last_reported":1728627219,"current_range_meters":25600,"station_id":"ce4bh0h2rcd13ifvqd40","pricing_plan_id":"cebpf4jnsgd1na2vs0mg"},{"bike_id":"d3ff0d1e-0602-460e-a6ac-f922034d10ae","system_id":"levelo_inurba_marseille","lat":43.27496,"lon":5.4245,"is_reserved":false,"is_disabled":false,"rental_uris":{"android":"levelo://app?vid=d3ff0d1e-0602-460e-a6ac-f922034d10ae","ios":"levelo://app?vid=d3ff0d1e-0602-460e-a6ac-f922034d10ae"},"vehicle_type_id":"4","last_reported":1728627219,"current_range_meters":22400,"station_id":"ce4bhn92rcd13ifvqgrg","pricing_plan_id":"cebpf4jnsgd1na2vs0mg"},{"bike_id":"c198aa29-8019-4b39-9fd2-fc4dbf5016db","system_id":"levelo_inurba_marseille","lat":43.28847,"lon":5.358374,"is_reserved":false,"is_disabled":false,"rental_uris":{"android":"levelo://app?vid=c198aa29-8019-4b39-9fd2-fc4dbf5016db","ios":"levelo://app?vid=c198aa29-8019-4b39-9fd2-fc4dbf5016db"},"vehicle_type_id":"4","last_reported":1728627219,"current_range_meters":36800,"station_id":"ce4bhb12rcd13ifvqem0","pricing_plan_id":"cebpf4jnsgd1na2vs0mg"},{"bike_id":"89389244-3408-4399-88ba-053c7003f62b","system_id":"levelo_inurba_marseille","lat":43.31995,"lon":5.38148,"is_reserved":false,"is_disabled":false,"rental_uris":{"android":"levelo://app?vid=89389244-3408-4399-88ba-053c7003f62b","ios":"levelo://app?vid=89389244-3408-4399-88ba-053c7003f62b"},"vehicle_type_id":"4","last_reported":1728627219,"current_range_meters":17200,"station_id":"ce4bhr12rcd13ifvqhpg","pricing_plan_id":"cebpf4jnsgd1na2vs0mg"},{"bike_id":"387a5dca-e189-4145-81f4-ad1175c8e38d","system_id":"levelo_inurba_marseille","lat":43.29436,"lon":5.39761,"is_reserved":false,"is_disabled":false,"rental_uris":{"android":"levelo://app?vid=387a5dca-e189-4145-81f4-ad1175c8e38d","ios":"levelo://app?vid=387a5dca-e189-4145-81f4-ad1175c8e38d"},"vehicle_type_id":"4","last_reported":1728627219,"current_range_meters":16800,"station_id":"ce4bh3h2rcd13ifvqdo0","pricing_plan_id":"cebpf4jnsgd1na2vs0mg"},{"bike_id":"bddabd11-ca19-4f46-9a6a-c5c059e44818","system_id":"levelo_inurba_marseille","lat":43.232,"lon":5.35548,"is_reserved":false,"is_disabled":false,"rental_uris":{"android":"levelo://app?vid=bddabd11-ca19-4f46-9a6a-c5c059e44818","ios":"levelo://app?vid=bddabd11-ca19-4f46-9a6a-c5c059e44818"},"vehicle_type_id":"4","last_reported":1728627219,"current_range_meters":38000,"station_id":"ce4bhu92rcd13ifvqi70","pricing_plan_id":"cebpf4jnsgd1na2vs0mg"},{"bike_id":"65530935-a85d-44b3-b68a-844670361075","system_id":"levelo_inurba_marseille","lat":43.30144,"lon":5.37416,"is_reserved":false,"is_disabled":false,"rental_uris":{"android":"levelo://app?vid=65530935-a85d-44b3-b68a-844670361075","ios":"levelo://app?vid=65530935-a85d-44b3-b68a-844670361075"},"vehicle_type_id":"4","last_reported":1728627219,"current_range_meters":38400,"station_id":"ce4bgs92rcd13ifvqcc0","pricing_plan_id":"cebpf4jnsgd1na2vs0mg"},{"bike_id":"354305b5-44da-4ef1-ad08-c495f24f9908","system_id":"levelo_inurba_marseille","lat":43.337616,"lon":5.374775,"is_reserved":false,"is_disabled":false,"rental_uris":{"android":"levelo://app?vid=354305b5-44da-4ef1-ad08-c495f24f9908","ios":"levelo://app?vid=354305b5-44da-4ef1-ad08-c495f24f9908"},"vehicle_type_id":"4","last_reported":1728627219,"current_range_meters":38800,"station_id":"","pricing_plan_id":"cebpf4jnsgd1na2vs0mg"},{"bike_id":"3ae18fed-f345-4ef0-8ed2-3540202f3e73","system_id":"levelo_inurba_marseille","lat":43.33743,"lon":5.37454,"is_reserved":false,"is_disabled":false,"rental_uris":{"android":"levelo://app?vid=3ae18fed-f345-4ef0-8ed2-3540202f3e73","ios":"levelo://app?vid=3ae18fed-f345-4ef0-8ed2-3540202f3e73"},"vehicle_type_id":"4","last_reported":1728627219,"current_range_meters":28800,"station_id":"","pricing_plan_id":"cebpf4jnsgd1na2vs0mg"},{"bike_id":"f0ceeb22-2631-46d7-9616-2a63c9b20dd7","system_id":"levelo_inurba_marseille","lat":43.245292,"lon":5.395505,"is_reserved":false,"is_disabled":false,"rental_uris":{"android":"levelo://app?vid=f0ceeb22-2631-46d7-9616-2a63c9b20dd7","ios":"levelo://app?vid=f0ceeb22-2631-46d7-9616-2a63c9b20dd7"},"vehicle_type_id":"4","last_reported":1728627219,"current_range_meters":36400,"station_id":"ce4bhlp2rcd13ifvqgjg","pricing_plan_id":"cebpf4jnsgd1na2vs0mg"},{"bike_id":"3c2f6cce-6573-410e-8417-1784931cfcb2","system_id":"levelo_inurba_marseille","lat":43.28719,"lon":5.37948,"is_reserved":false,"is_disabled":false,"rental_uris":{"android":"levelo://app?vid=3c2f6cce-6573-410e-8417-1784931cfcb2","ios":"levelo://app?vid=3c2f6cce-6573-410e-8417-1784931cfcb2"},"vehicle_type_id":"4","last_reported":1728627219,"current_range_meters":28000,"station_id":"ce4bh9p2rcd13ifvqec0","pricing_plan_id":"cebpf4jnsgd1na2vs0mg"},{"bike_id":"c4646047-a1c3-41dc-8960-10cf2ebc97f1","system_id":"levelo_inurba_marseille","lat":43.30172,"lon":5.36977,"is_reserved":false,"is_disabled":false,"rental_uris":{"android":"levelo://app?vid=c4646047-a1c3-41dc-8960-10cf2ebc97f1","ios":"levelo://app?vid=c4646047-a1c3-41dc-8960-10cf2ebc97f1"},"vehicle_type_id":"4","last_reported":1728627219,"current_range_meters":9600,"station_id":"ce4bgrp2rcd13ifvqc9g","pricing_plan_id":"cebpf4jnsgd1na2vs0mg"},{"bike_id":"84e032f5-8f6f-4d75-845b-406f603f8b91","system_id":"levelo_inurba_marseille","lat":43.30584,"lon":5.39357,"is_reserved":false,"is_disabled":false,"rental_uris":{"android":"levelo://app?vid=84e032f5-8f6f-4d75-845b-406f603f8b91","ios":"levelo://app?vid=84e032f5-8f6f-4d75-845b-406f603f8b91"},"vehicle_type_id":"4","last_reported":1728627219,"current_range_meters":20800,"station_id":"ce4bh0p2rcd13ifvqd80","pricing_plan_id":"cebpf4jnsgd1na2vs0mg"},{"bike_id":"d5a11cf1-4306-46e2-97c4-f19a5de18bd6","system_id":"levelo_inurba_marseille","lat":43.27991,"lon":5.41653,"is_reserved":false,"is_disabled":false,"rental_uris":{"android":"levelo://app?vid=d5a11cf1-4306-46e2-97c4-f19a5de18bd6","ios":"levelo://app?vid=d5a11cf1-4306-46e2-97c4-f19a5de18bd6"},"vehicle_type_id":"4","last_reported":1728627219,"current_range_meters":27600,"station_id":"ce4bho12rcd13ifvqh1g","pricing_plan_id":"cebpf4jnsgd1na2vs0mg"},{"bike_id":"5a8608c4-3dd2-4689-abc1-ef7e80c35ca9","system_id":"levelo_inurba_marseille","lat":43.31368,"lon":5.36696,"is_reserved":false,"is_disabled":false,"rental_uris":{"android":"levelo://app?vid=5a8608c4-3dd2-4689-abc1-ef7e80c35ca9","ios":"levelo://app?vid=5a8608c4-3dd2-4689-abc1-ef7e80c35ca9"},"vehicle_type_id":"4","last_reported":1728627219,"current_range_meters":38800,"station_id":"ce4bgr92rcd13ifvqc6g","pricing_plan_id":"cebpf4jnsgd1na2vs0mg"},{"bike_id":"f2fc0b58-2ea4-4f08-9531-c07e172088b1","system_id":"levelo_inurba_marseille","lat":43.33607,"lon":5.41017,"is_reserved":false,"is_disabled":false,"rental_uris":{"android":"levelo://app?vid=f2fc0b58-2ea4-4f08-9531-c07e172088b1","ios":"levelo://app?vid=f2fc0b58-2ea4-4f08-9531-c07e172088b1"},"vehicle_type_id":"4","last_reported":1728627219,"current_range_meters":9600,"station_id":"ce4bhqh2rcd13ifvqhmg","pricing_plan_id":"cebpf4jnsgd1na2vs0mg"},{"bike_id":"d3515cc2-9931-4d17-a2b9-231072d9e4d2","system_id":"levelo_inurba_marseille","lat":43.232,"lon":5.35549,"is_reserved":false,"is_disabled":false,"rental_uris":{"android":"levelo://app?vid=d3515cc2-9931-4d17-a2b9-231072d9e4d2","ios":"levelo://app?vid=d3515cc2-9931-4d17-a2b9-231072d9e4d2"},"vehicle_type_id":"4","last_reported":1728627219,"current_range_meters":24800,"station_id":"ce4bhu92rcd13ifvqi70","pricing_plan_id":"cebpf4jnsgd1na2vs0mg"},{"bike_id":"4bcfd83b-7973-49dd-8aec-edcef5efdd29","system_id":"levelo_inurba_marseille","lat":43.27839,"lon":5.38316,"is_reserved":false,"is_disabled":false,"rental_uris":{"android":"levelo://app?vid=4bcfd83b-7973-49dd-8aec-edcef5efdd29","ios":"levelo://app?vid=4bcfd83b-7973-49dd-8aec-edcef5efdd29"},"vehicle_type_id":"4","last_reported":1728627219,"current_range_meters":30400,"station_id":"ce4bh9p2rcd13ifvqec0","pricing_plan_id":"cebpf4jnsgd1na2vs0mg"},{"bike_id":"28f789bc-a2b8-4233-a0d3-1af8cd7431c7","system_id":"levelo_inurba_marseille","lat":43.27812,"lon":5.40712,"is_reserved":false,"is_disabled":false,"rental_uris":{"android":"levelo://app?vid=28f789bc-a2b8-4233-a0d3-1af8cd7431c7","ios":"levelo://app?vid=28f789bc-a2b8-4233-a0d3-1af8cd7431c7"},"vehicle_type_id":"4","last_reported":1728627219,"current_range_meters":38400,"station_id":"ce4bhnh2rcd13ifvqgtg","pricing_plan_id":"cebpf4jnsgd1na2vs0mg"},