{"last_updated":1678518384,"ttl":30,"version":"2.2","data":{"bikes":[{"bike_id":"d0737950-90ef-444e-8136-90126181dcfa","system_id":"levelo_inurba_marseille","lat":43.312239,"lon":5.368562,"is_reserved":false,"is_disabled":false,"rental_uris":{"android":"levelo://app?vid=d0737950-90ef-444e-8136-90126181dcfa","ios":"levelo://app?vid=d0737950-90ef-444e-8136-90126181dcfa"},"vehicle_type_id":"4","last_reported":1678518384,"current_range_meters":31200,"station_id":"ce4bgl92rcd13ifvqbq0","pricing_plan_id":"free"},{"bike_id":"f707a4b3-aacd-4953-9b5f-b1f35ee41275","system_id":"levelo_inurba_marseille","lat":43.312239,"lon":5.368562,"is_reserved":false,"is_disabled":false,"rental_uris":{"android":"levelo://app?vid=f707a4b3-aacd-4953-9b5f-b1f35ee41275","ios":"levelo://app?vid=f707a4b3-aacd-4953-9b5f-b1f35ee41275"},"vehicle_type_id":"4","last_reported":1678518384,"current_range_meters":24000,"station_id":"ce4bgl92rcd13ifvqbq0","pricing_plan_id":"free"},{"bike_id":"1c64c75a-c4f6-4ab6-ab46-31e613f15330","system_id":"levelo_inurba_marseille","lat":43.312239,"lon":5.368562,"is_reserved":false,"is_disabled":false,"rental_uris":{"android":"levelo://app?vid=1c64c75a-c4f6-4ab6-ab46-31e613f15330","ios":"levelo://app?vid=1c64c75a-c4f6-4ab6-ab46-31e613f15330"},"vehicle_type_id":"4","last_reported":1678518384,"current_range_meters":28800,"station_id":"ce4bgl92rcd13ifvqbq0","pricing_plan_id":"free"},{"bike_id":"209d1147-70eb-4e09-8ddf-7e5fca6f4a12","system_id":"levelo_inurba_marseille","lat":43.312239,"lon":5.368562,"is_reserved":false,"is_disabled":false,"rental_uris":{"android":"levelo://app?vid=209d1147-70eb-4e09-8ddf-7e5fca6f4a12","ios":"levelo://app?vid=209d1147-70eb-4e09-8ddf-7e5fca6f4a12"},"vehicle_type_id":"4","last_reported":1678518384,"current_range_meters":31200,"station_id":"ce4bgl92rcd13ifvqbq0","pricing_plan_id":"free"},{"bike_id":"38e45496-8953-4d11-a58d-751f296a241f","system_id":"levelo_inurba_marseille","lat":43.312214,"lon":5.368543,"is_reserved":false,"is_disabled":false,"rental_uris":{"android":"levelo://app?vid=38e45496-8953-4d11-a58d-751f296a241f","ios":"levelo://app?vid=38e45496-8953-4d11-a58d-751f296a241f"},"vehicle_type_id":"4","last_reported":1678518384,"current_range_meters":28000,"station_id":"ce4bgl92rcd13ifvqbq0","pricing_plan_id":"free"},{"bike_id":"0f36200e-0632-4e19-b249-45f3bcdcc2e7","system_id":"levelo_inurba_marseille","lat":43.30904,"lon":5.36846,"is_reserved":false,"is_disabled":false,"rental_uris":{"android":"levelo://app?vid=0f36200e-0632-4e19-b249-45f3bcdcc2e7","ios":"levelo://app?vid=0f36200e-0632-4e19-b249-45f3bcdcc2e7"},"vehicle_type_id":"4","last_reported":1678518384,"current_range_meters":13200,"station_id":"ce4bgn92rcd13ifvqbvg","pricing_plan_id":"free"},{"bike_id":"79e696dd-6abb-46d0-a9fb-be12eef7e9a7","system_id":"levelo_inurba_marseille","lat":43.30899,"lon":5.3685,"is_reserved":false,"is_disabled":false,"rental_uris":{"android":"levelo://app?vid=79e696dd-6abb-46d0-a9fb-be12eef7e9a7","ios":"levelo://app?vid=79e696dd-6abb-46d0-a9fb-be12eef7e9a7"},"vehicle_type_id":"4","last_reported":1678518384,"current_range_meters":10000,"station_id":"ce4bgn92rcd13ifvqbvg","pricing_plan_id":"free"},{"bike_id":"bcec6925-9f9a-401f-913b-35fe6ceb88d9","system_id":"levelo_inurba_marseille","lat":43.314811,"lon":5.373103,"is_reserved":false,"is_disabled":false,"rental_uris":{"android":"levelo://app?vid=bcec6925-9f9a-401f-913b-35fe6ceb88d9","ios":"levelo://app?vid=bcec6925-9f9a-401f-913b-35fe6ceb88d9"},"vehicle_type_id":"4","last_reported":1678518384,"current_range_meters":31600,"station_id":"ce4bgt12rcd13ifvqcd0","pricing_plan_id":"free"},{"bike_id":"f8edda47-84ea-4677-97c7-2e2456aed61d","system_id":"levelo_inurba_marseille","lat":43.314811,"lon":5.373103,"is_reserved":false,"is_disabled":false,"rental_uris":{"android":"levelo://app?vid=f8edda47-84ea-4677-97c7-2e2456aed61d","ios":"levelo://app?vid=f8edda47-84ea-4677-97c7-2e2456aed61d"},"vehicle_type_id":"4","last_reported":1678518384,"current_range_meters":31600,"station_id":"ce4bgt12rcd13ifvqcd0","pricing_plan_id":"free"},{"bike_id":"6e8cdd63-9c9a-455e-8641-70bfbf96ceef","system_id":"levelo_inurba_marseille","lat":43.314811,"lon":5.373103,"is_reserved":false,"is_disabled":false,"rental_uris":{"android":"levelo://app?vid=6e8cdd63-9c9a-455e-8641-70bfbf96ceef","ios":"levelo://app?vid=6e8cdd63-9c9a-455e-8641-70bfbf96ceef"},"vehicle_type_id":"4","last_reported":1678518384,"current_range_meters":16800,"station_id":"ce4bgt12rcd13ifvqcd0","pricing_plan_id":"free"},{"bike_id":"baea4cdd-5e52-41c3-84ee-0a893c60634f","system_id":"levelo_inurba_marseille","lat":43.315028,"lon":5.372963,"is_reserved":false,"is_disabled":false,"rental_uris":{"android":"levelo://app?vid=baea4cdd-5e52-41c3-84ee-0a893c60634f","ios":"levelo://app?vid=baea4cdd-5e52-41c3-84ee-0a893c60634f"},"vehicle_type_id":"4","last_reported":1678518384,"current_range_meters":29600,"station_id":"","pricing_plan_id":"free"},{"bike_id":"4e12d16d-d9ce-490a-af15-9b3135bb93ac","system_id":"levelo_inurba_marseille","lat":43.314811,"lon":5.373103,"is_reserved":false,"is_disabled":false,"rental_uris":{"android":"levelo://app?vid=4e12d16d-d9ce-490a-af15-9b3135bb93ac","ios":"levelo://app?vid=4e12d16d-d9ce-490a-af15-9b3135bb93ac"},"vehicle_type_id":"4","last_reported":1678518384,"current_range_meters":31600,"station_id":"ce4bgt12rcd13ifvqcd0","pricing_plan_id":"free"},{"bike_id":"6bc2c41e-242d-425e-81a6-1d46493fd316","system_id":"levelo_inurba_marseille","lat":43.314811,"lon":5.373103,"is_reserved":false,"is_disabled":false,"rental_uris":{"android":"levelo://app?vid=6bc2c41e-242d-425e-81a6-1d46493fd316","ios":"levelo://app?vid=6bc2c41e-242d-425e-81a6-1d46493fd316"},"vehicle_type_id":"4","last_reported":1678518384,"current_range_meters":31600,"station_id":"ce4bgt12rcd13ifvqcd0","pricing_plan_id":"free"},{"bike_id":"c2fd4386-9e0f-4885-bb79-5f43a74af3b1","system_id":"levelo_inurba_marseille","lat":43.314811,"lon":5.373103,"is_reserved":false,"is_disabled":false,"rental_uris":{"android":"levelo://app?vid=c2fd4386-9e0f-4885-bb79-5f43a74af3b1","ios":"levelo://app?vid=c2fd4386-9e0f-4885-bb79-5f43a74af3b1"},"vehicle_type_id":"4","last_reported":1678518384,"current_range_meters":28000,"station_id":"ce4bgt12rcd13ifvqcd0","pricing_plan_id":"free"},{"bike_id":"4b318eb4-5ac1-4b68-8c58-d418ec5c6103","system_id":"levelo_inurba_marseille","lat":43.317939,"lon":5.368119,"is_reserved":false,"is_disabled":false,"rental_uris":{"android":"levelo://app?vid=4b318eb4-5ac1-4b68-8c58-d418ec5c6103","ios":"levelo://app?vid=4b318eb4-5ac1-4b68-8c58-d418ec5c6103"},"vehicle_type_id":"4","last_reported":1678518384,"current_range_meters":15600,"station_id":"","pricing_plan_id":"free"},{"bike_id":"b0196122-c627-478f-8e65-143c5c97a186","system_id":"levelo_inurba_marseille","lat":43.308614,"lon":5.372098,"is_reserved":false,"is_disabled":false,"rental_uris":{"android":"levelo://app?vid=b0196122-c627-478f-8e65-143c5c97a186","ios":"levelo://app?vid=b0196122-c627-478f-8e65-143c5c97a186"},"vehicle_type_id":"4","last_reported":1678518384,"current_range_meters":25600,"station_id":"ce4bguh2rcd13ifvqckg","pricing_plan_id":"free"},{"bike_id":"c2b2adec-74c4-4047-9d15-b71cdf8970f7","system_id":"levelo_inurba_marseille","lat":43.308614,"lon":5.372098,"is_reserved":false,"is_disabled":false,"rental_uris":{"android":"levelo://app?vid=c2b2adec-74c4-4047-9d15-b71cdf8970f7","ios":"levelo://app?vid=c2b2adec-74c4-4047-9d15-b71cdf8970f7"},"vehicle_type_id":"4","last_reported":1678518384,"current_range_meters":25200,"station_id":"ce4bguh2rcd13ifvqckg","pricing_plan_id":"free"},{"bike_id":"62f04c21-43c8-42c7-ad1d-bd479497b0c6","system_id":"levelo_inurba_marseille","lat":43.308867,"lon":5.37199,"is_reserved":false,"is_disabled":false,"rental_uris":{"android":"levelo://app?vid=62f04c21-43c8-42c7-ad1d-bd479497b0c6","ios":"levelo://app?vid=62f04c21-43c8-42c7-ad1d-bd479497b0c6"},"vehicle_type_id":"4","last_reported":1678518384,"current_range_meters":29200,"station_id":"","pricing_plan_id":"free"},{"bike_id":"9328b4c2-1297-470b-83f0-a72aea412653","system_id":"levelo_inurba_marseille","lat":43.317075,"lon":5.377367,"is_reserved":false,"is_disabled":false,"rental_uris":{"android":"levelo://app?vid=9328b4c2-1297-470b-83f0-a72aea412653","ios":"levelo://app?vid=9328b4c2-1297-470b-83f0-a72aea412653"},"vehicle_type_id":"4","last_reported":1678518384,"current_range_meters":26400,"station_id":"ce4bgth2rcd13ifvqch0","pricing_plan_id":"free"},{"bike_id":"64270dce-9b59-4a87-acf0-856299de31f3","system_id":"levelo_inurba_marseille","lat":43.317075,"lon":5.377367,"is_reserved":false,"is_disabled":false,"rental_uris":{"android":"levelo://app?vid=64270dce-9b59-4a87-acf0-856299de31f3","ios":"levelo://app?vid=64270dce-9b59-4a87-acf0-856299de31f3"},"vehicle_type_id":"4","last_reported":1678518384,"current_range_meters":16400,"station_id":"ce4bgth2rcd13ifvqch0","pricing_plan_id":"free"},{"bike_id":"cc386935-c204-4174-bafd-acc1d24e4fa9","system_id":"levelo_inurba_marseille","lat":43.30342,"lon":5.37255,"is_reserved":false,"is_disabled":false,"rental_uris":{"android":"levelo://app?vid=cc386935-c204-4174-bafd-acc1d24e4fa9","ios":"levelo://app?vid=cc386935-c204-4174-bafd-acc1d24e4fa9"},"vehicle_type_id":"4","last_reported":1678518384,"current_range_meters":2400,"station_id":"","pricing_plan_id":"free"},{"bike_id":"c2ec578e-6d5c-4213-8ba8-e1747498cae5","system_id":"levelo_inurba_marseille","lat":43.301939,"lon":5.366286,"is_reserved":false,"is_disabled":false,"rental_uris":{"android":"levelo://app?vid=c2ec578e-6d5c-4213-8ba8-e1747498cae5","ios":"levelo://app?vid=c2ec578e-6d5c-4213-8ba8-e1747498cae5"},"vehicle_type_id":"4","last_reported":1678518384,"current_range_meters":26400,"station_id":"ce4bgrh2rcd13ifvqc8g","pricing_plan_id":"free"},{"bike_id":"6b6d0dc5-ce5f-4962-a36f-34474a90c1c0","system_id":"levelo_inurba_marseille","lat":43.304606,"lon":5.379026,"is_reserved":false,"is_disabled":false,"rental_uris":{"android":"levelo://app?vid=6b6d0dc5-ce5f-4962-a36f-34474a90c1c0","ios":"levelo://app?vid=6b6d0dc5-ce5f-4962-a36f-34474a90c1c0"},"vehicle_type_id":"4","last_reported":1678518384,"current_range_meters":30800,"station_id":"ce4bgup2rcd13ifvqcn0","pricing_plan_id":"free"},{"bike_id":"43c86b82-f39f-472a-9b82-e5cca2872737","system_id":"levelo_inurba_marseille","lat":43.304606,"lon":5.379026,"is_reserved":false,"is_disabled":false,"rental_uris":{"android":"levelo://app?vid=43c86b82-f39f-472a-9b82-e5cca2872737","ios":"levelo://app?vid=43c86b82-f39f-472a-9b82-e5cca2872737"},"vehicle_type_id":"4","last_reported":1678518384,"current_range_meters":27200,"station_id":"ce4bgup2rcd13ifvqcn0","pricing_plan_id":"free"},{"bike_id":"dfa53992-1766-4cde-ae7c-3b8e73bbff46","system_id":"levelo_inurba_marseille","lat":43.304606,"lon":5.379026,"is_reserved":false,"is_disabled":false,"rental_uris":{"android":"levelo://app?vid=dfa53992-1766-4cde-ae7c-3b8e73bbff46","ios":"levelo://app?vid=dfa53992-1766-4cde-ae7c-3b8e73bbff46"},"vehicle_type_id":"4","last_reported":1678518384,"current_range_meters":26000,"station_id":"ce4bgup2rcd13ifvqcn0","pricing_plan_id":"free"},{"bike_id":"6a74c7d4-5268-4adf-ba52-7c47c3e8b699","system_id":"levelo_inurba_marseille","lat":43.304606,"lon":5.379026,"is_reserved":false,"is_disabled":false,"rental_uris":{"android":"levelo://app?vid=6a74c7d4-5268-4adf-ba52-7c47c3e8b699","ios":"levelo://app?vid=6a74c7d4-5268-4adf-ba52-7c47c3e8b699"},"vehicle_type_id":"4","last_reported":1678518384,"current_range_meters":16800,"station_id":"ce4bgup2rcd13ifvqcn0","pricing_plan_id":"free"},{"bike_id":"0dd5fd81-9bc5-4a19-a53d-0a395414fee1","system_id":"levelo_inurba_marseille","lat":43.30462,"lon":5.37908,"is_reserved":false,"is_disabled":false,"rental_uris":{"android":"levelo://app?vid=0dd5fd81-9bc5-4a19-a53d-0a395414fee1","ios":"levelo://app?vid=0dd5fd81-9bc5-4a19-a53d-0a395414fee1"},"vehicle_type_id":"4","last_reported":1678518384,"current_range_meters":6800,"station_id":"ce4bgup2rcd13ifvqcn0","pricing_plan_id":"free"},{"bike_id":"c60bed40-ff6b-46ef-b6e2-c680ff11cce7","system_id":"levelo_inurba_marseille","lat":43.304606,"lon":5.379026,"is_reserved":false,"is_disabled":false,"rental_uris":{"android":"levelo://app?vid=c60bed40-ff6b-46ef-b6e2-c680ff11cce7","ios":"levelo://app?vid=c60bed40-ff6b-46ef-b6e2-c680ff11cce7"},"vehicle_type_id":"4","last_reported":1678518384,"current_range_meters":30000,"station_id":"ce4bgup2rcd13ifvqcn0","pricing_plan_id":"free"},{"bike_id":"37d329f3-57c6-4925-ae60-89b032797733","system_id":"levelo_inurba_marseille","lat":43.31364,"lon":5.38491,"is_reserved":false,"is_disabled":false,"rental_uris":{"android":"levelo://app?vid=37d329f3-57c6-4925-ae60-89b032797733","ios":"levelo://app?vid=37d329f3-57c6-4925-ae60-89b032797733"},"vehicle_type_id":"4","last_reported":1678518384,"current_range_meters":20800,"station_id":"ce4bgt92rcd13ifvqcf0","pricing_plan_id":"free"},{"bike_id":"25498c2e-6495-4089-b559-432fc6913ce8","system_id":"levelo_inurba_marseille","lat":43.29855,"lon":5.36289,"is_reserved":false,"is_disabled":false,"rental_uris":{"android":"levelo://app?vid=25498c2e-6495-4089-b559-432fc6913ce8","ios":"levelo://app?vid=25498c2e-6495-4089-b559-432fc6913ce8"},"vehicle_type_id":"4","last_reported":1678518384,"current_range_meters":7600,"station_id":"ce4bgpp2rcd13ifvqc3g","pricing_plan_id":"free"},{"bike_id":"d997b518-ab36-4c69-917e-d414b558a55d","system_id":"levelo_inurba_marseille","lat":43.305364,"lon":5.384119,"is_reserved":false,"is_disabled":false,"rental_uris":{"android":"levelo://app?vid=d997b518-ab36-4c69-917e-d414b558a55d","ios":"levelo://app?vid=d997b518-ab36-4c69-917e-d414b558a55d"},"vehicle_type_id":"4","last_reported":1678518384,"current_range_meters":24800,"station_id":"ce4bgg92rcd13ifvqb30","pricing_plan_id":"free"},{"bike_id":"b7d589a8-c029-47f6-9fc1-93680202c2ca","system_id":"levelo_inurba_marseille","lat":43.305364,"lon":5.384119,"is_reserved":false,"is_disabled":false,"rental_uris":{"android":"levelo://app?vid=b7d589a8-c029-47f6-9fc1-93680202c2ca","ios":"levelo://app?vid=b7d589a8-c029-47f6-9fc1-93680202c2ca"},"vehicle_type_id":"4","last_reported":1678518384,"current_range_meters":31200,"station_id":"ce4bgg92rcd13ifvqb30","pricing_plan_id":"free"},{"bike_id":"0eb28556-d687-44e1-919e-5fb003b6be92","system_id":"levelo_inurba_marseille","lat":43.298433,"lon":5.362774,"is_reserved":false,"is_disabled":false,"rental_uris":{"android":"levelo://app?vid=0eb28556-d687-44e1-919e-5fb003b6be92","ios":"levelo://app?vid=0eb28556-d687-44e1-919e-5fb003b6be92"},"vehicle_type_id":"4","last_reported":1678518384,"current_range_meters":29600,"station_id":"ce4bgpp2rcd13ifvqc3g","pricing_plan_id":"free"},{"bike_id":"92d33cbc-6f2c-4112-a2f9-2f6f8f949ea2","system_id":"levelo_inurba_marseille","lat":43.305364,"lon":5.384119,"is_reserved":false,"is_disabled":false,"rental_uris":{"android":"levelo://app?vid=92d33cbc-6f2c-4112-a2f9-2f6f8f949ea2","ios":"levelo://app?vid=92d33cbc-6f2c-4112-a2f9-2f6f8f949ea2"},"vehicle_type_id":"4","last_reported":1678518384,"current_range_meters":23600,"station_id":"ce4bgg92rcd13ifvqb30","pricing_plan_id":"free"},{"bike_id":"a9252139-834f-439a-94a7-2faca44e5f7f","system_id":"levelo_inurba_marseille","lat":43.29844,"lon":5.36275,"is_reserved":false,"is_disabled":false,"rental_uris":{"android":"levelo://app?vid=a9252139-834f-439a-94a7-2faca44e5f7f","ios":"levelo://app?vid=a9252139-834f-439a-94a7-2faca44e5f7f"},"vehicle_type_id":"4","last_reported":1678518384,"current_range_meters":22000,"station_id":"ce4bgpp2rcd13ifvqc3g","pricing_plan_id":"free"},{"bike_id":"f0bce95b-3e50-4e6a-afa1-2a31aec36fc9","system_id":"levelo_inurba_marseille","lat":43.305364,"lon":5.384119,"is_reserved":false,"is_disabled":false,"rental_uris":{"android":"levelo://app?vid=f0bce95b-3e50-4e6a-afa1-2a31aec36fc9","ios":"levelo://app?vid=f0bce95b-3e50-4e6a-afa1-2a31aec36fc9"},"vehicle_type_id":"4","last_reported":1678518384,"current_range_meters":25600,"station_id":"ce4bgg92rcd13ifvqb30","pricing_plan_id":"free"},{"bike_id":"6bff1cc9-2dcd-4085-ae18-a28b3a87cfa6","system_id":"levelo_inurba_marseille","lat":43.311722,"lon":5.387247,"is_reserved":false,"is_disabled":false,"rental_uris":{"android":"levelo://app?vid=6bff1cc9-2dcd-4085-ae18-a28b3a87cfa6","ios":"levelo://app?vid=6bff1cc9-2dcd-4085-ae18-a28b3a87cfa6"},"vehicle_type_id":"4","last_reported":1678518384,"current_range_meters":26800,"station_id":"ce4bgv12rcd13ifvqcp0","pricing_plan_id":"free"},{"bike_id":"b77571b9-3ddd-4625-818c-d3737487cc32","system_id":"levelo_inurba_marseille","lat":43.31166,"lon":5.38716,"is_reserved":false,"is_disabled":false,"rental_uris":{"android":"levelo://app?vid=b77571b9-3ddd-4625-818c-d3737487cc32","ios":"levelo://app?vid=b77571b9-3ddd-4625-818c-d3737487cc32"},"vehicle_type_id":"4","last_reported":1678518384,"current_range_meters":11600,"station_id":"ce4bgv12rcd13ifvqcp0","pricing_plan_id":"free"},{"bike_id":"7718c0d8-a5a3-4718-afdc-b5dfb54c87e1","system_id":"levelo_inurba_marseille","lat":43.328371,"lon":5.366909,"is_reserved":false,"is_disabled":false,"rental_uris":{"android":"levelo://app?vid=7718c0d8-a5a3-4718-afdc-b5dfb54c87e1","ios":"levelo://app?vid=7718c0d8-a5a3-4718-afdc-b5dfb54c87e1"},"vehicle_type_id":"4","last_reported":1678518384,"current_range_meters":29600,"station_id":"ce4bhs92rcd13ifvqi0g","pricing_plan_id":"free"},{"bike_id":"c461ea74-97bf-4b08-8c33-8ce312bbe742","system_id":"levelo_inurba_marseille","lat":43.328371,"lon":5.366909,"is_reserved":false,"is_disabled":false,"rental_uris":{"android":"levelo://app?vid=c461ea74-97bf-4b08-8c33-8ce312bbe742","ios":"levelo://app?vid=c461ea74-97bf-4b08-8c33-8ce312bbe742"},"vehicle_type_id":"4","last_reported":1678518384,"current_range_meters":30400,"station_id":"ce4bhs92rcd13ifvqi0g","pricing_plan_id":"free"},{"bike_id":"38ac62c5-1121-4e03-8039-215141469d6d","system_id":"levelo_inurba_marseille","lat":43.328371,"lon":5.366912,"is_reserved":false,"is_disabled":false,"rental_uris":{"android":"levelo://app?vid=38ac62c5-1121-4e03-8039-215141469d6d","ios":"levelo://app?vid=38ac62c5-1121-4e03-8039-215141469d6d"},"vehicle_type_id":"4","last_reported":1678518384,"current_range_meters":31600,"station_id":"ce4bhs92rcd13ifvqi0g","pricing_plan_id":"free"},{"bike_id":"fefff64e-d41d-44a2-9f0f-3c756f096689","system_id":"levelo_inurba_marseille","lat":43.328371,"lon":5.366912,"is_reserved":false,"is_disabled":false,"rental_uris":{"android":"levelo://app?vid=fefff64e-d41d-44a2-9f0f-3c756f096689","ios":"levelo://app?vid=fefff64e-d41d-44a2-9f0f-3c756f096689"},"vehicle_type_id":"4","last_reported":1678518384,"current_range_meters":31600,"station_id":"ce4bhs92rcd13ifvqi0g","pricing_plan_id":"free"},{"bike_id":"6205b889-d970-4d61-a886-a7f3181f65c8","system_id":"levelo_inurba_marseille","lat":43.328371,"lon":5.366912,"is_reserved":false,"is_disabled":false,"rental_uris":{"android":"levelo://app?vid=6205b889-d970-4d61-a886-a7f3181f65c8","ios":"levelo://app?vid=6205b889-d970-4d61-a886-a7f3181f65c8"},"vehicle_type_id":"4","last_reported":1678518384,"current_range_meters":31600,"station_id":"ce4bhs92rcd13ifvqi0g","pricing_plan_id":"free"},{"bike_id":"e559e30d-10be-4be0-b67a-3d0b565ffa7e","system_id":"levelo_inurba_marseille","lat":43.328371,"lon":5.366909,"is_reserved":false,"is_disabled":false,"rental_uris":{"android":"levelo://app?vid=e559e30d-10be-4be0-b67a-3d0b565ffa7e","ios":"levelo://app?vid=e559e30d-10be-4be0-b67a-3d0b565ffa7e"},"vehicle_type_id":"4","last_reported":1678518384,"current_range_meters":31200,"station_id":"ce4bhs92rcd13ifvqi0g","pricing_plan_id":"free"},{"bike_id":"cbeb4ab6-fc4b-45a6-be91-76b7e0b54803","system_id":"levelo_inurba_marseille","lat":43.328371,"lon":5.366909,"is_reserved":false,"is_disabled":false,"rental_uris":{"android":"levelo://app?vid=cbeb4ab6-fc4b-45a6-be91-76b7e0b54803","ios":"levelo://app?vid=cbeb4ab6-fc4b-45a6-be91-76b7e0b54803"},"vehicle_type_id":"4","last_reported":1678518384,"current_range_meters":31600,"station_id":"ce4bhs92rcd13ifvqi0g","pricing_plan_id":"free"},{"bike_id":"f8fff29f-bcef-4b1d-a9e5-259bf970ccc4","system_id":"levelo_inurba_marseille","lat":43.328371,"lon":5.366912,"is_reserved":false,"is_disabled":false,"rental_uris":{"android":"levelo://app?vid=f8fff29f-bcef-4b1d-a9e5-259bf970ccc4","ios":"levelo://app?vid=f8fff29f-bcef-4b1d-a9e5-259bf970ccc4"},"vehicle_type_id":"4","last_reported":1678518384,"current_range_meters":20000,"station_id":"ce4bhs92rcd13ifvqi0g","pricing_plan_id":"free"},{"bike_id":"71b735e7-470d-425a-acdc-1029a0c810f5","system_id":"levelo_inurba_marseille","lat":43.32828,"lon":5.36685,"is_reserved":false,"is_disabled":false,"rental_uris":{"android":"levelo://app?vid=71b735e7-470d-425a-acdc-1029a0c810f5","ios":"levelo://app?vid=71b735e7-470d-425a-acdc-1029a0c810f5"},"vehicle_type_id":"4","last_reported":1678518384,"current_range_meters":16800,"station_id":"ce4bhs92rcd13ifvqi0g","pricing_plan_id":"free"},{"bike_id":"61e59f65-571d-4bd8-9c02-d46720e2b725","system_id":"levelo_inurba_marseille","lat":43.328371,"lon":5.366909,"is_reserved":false,"is_disabled":false,"rental_uris":{"android":"levelo://app?vid=61e59f65-571d-4bd8-9c02-d46720e2b725","ios":"levelo://app?vid=61e59f65-571d-4bd8-9c02-d46720e2b725"},"vehicle_type_id":"4","last_reported":1678518384,"current_range_meters":30800,"station_id":"ce4bhs92rcd13ifvqi0g","pricing_plan_id":"free"},{"bike_id":"625cbb79-6f67-45f7-a76c-a58a0262f4cc","system_id":"levelo_inurba_marseille","lat":43.32828,"lon":5.36679,"is_reserved":false,"is_disabled":false,"rental_uris":{"android":"levelo://app?vid=625cbb79-6f67-45f7-a76c-a58a0262f4cc","ios":"levelo://app?vid=625cbb79-6f67-45f7-a76c-a58a0262f4cc"},"vehicle_type_id":"4","last_reported":1678518384,"current_range_meters":26400,"station_id":"ce4bhs92rcd13ifvqi0g","pricing_plan_id":"free"},{"bike_id":"7ef93d62-e27b-48ca-a3cd-1d1f94410daf","system_id":"levelo_inurba_marseille","lat":43.328371,"lon":5.366912,"is_reserved":false,"is_disabled":false,"rental_uris":{"android":"levelo://app?vid=7ef93d62-e27b-48ca-a3cd-1d1f94410daf","ios":"levelo://app?vid=7ef93d62-e27b-48ca-a3cd-1d1f94410daf"},"vehicle_type_id":"4","last_reported":1678518384,"current_range_meters":25600,"station_id":"ce4bhs92rcd13ifvqi0g","pricing_plan_id":"free"},{"bike_id":"84370daf-a9d8-46ae-9f74-bb49748464ed","system_id":"levelo_inurba_marseille","lat":43.328371,"lon":5.366912,"is_reserved":false,"is_disabled":false,"rental_uris":{"android":"levelo://app?vid=84370daf-a9d8-46ae-9f74-bb49748464ed","ios":"levelo://app?vid=84370daf-a9d8-46ae-9f74-bb49748464ed"},"vehicle_type_id":"4","last_reported":1678518384,"current_range_meters":24400,"station_id":"ce4bhs92rcd13ifvqi0g","pricing_plan_id":"free"},{"bike_id":"1940c0a4-6908-4353-b766-358c397d2a49","system_id":"levelo_inurba_marseille","lat":43.328371,"lon":5.366912,"is_reserved":false,"is_disabled":false,"rental_uris":{"android":"levelo://app?vid=1940c0a4-6908-4353-b766-358c397d2a49","ios":"levelo://app?vid=1940c0a4-6908-4353-b766-358c397d2a49"},"vehicle_type_id":"4","last_reported":1678518384,"current_range_meters":30000,"station_id":"ce4bhs92rcd13ifvqi0g","pricing_plan_id":"free"},{"bike_id":"8849f3d3-6a23-4466-8919-b1479b5a3911","system_id":"levelo_inurba_marseille","lat":43.328297,"lon":5.36689,"is_reserved":false,"is_disabled":false,"rental_uris":{"android":"levelo://app?vid=8849f3d3-6a23-4466-8919-b1479b5a3911","ios":"levelo://app?vid=8849f3d3-6a23-4466-8919-b1479b5a3911"},"vehicle_type_id":"4","last_reported":1678518384,"current_range_meters":31600,"station_id":"ce4bhs92rcd13ifvqi0g","pricing_plan_id":"free"},{"bike_id":"c44dd717-4c25-4a47-97a8-1d3fbee39e2a","system_id":"levelo_inurba_marseille","lat":43.328371,"lon":5.366912,"is_reserved":false,"is_disabled":false,"rental_uris":{"android":"levelo://app?vid=c44dd717-4c25-4a47-97a8-1d3fbee39e2a","ios":"levelo://app?vid=c44dd717-4c25-4a47-97a8-1d3fbee39e2a"},"vehicle_type_id":"4","last_reported":1678518384,"current_range_meters":31600,"station_id":"ce4bhs92rcd13ifvqi0g","pricing_plan_id":"free"},{"bike_id":"0b012e63-7b16-425f-9dc0-3c2470d3ee78","system_id":"levelo_inurba_marseille","lat":43.328371,"lon":5.366909,"is_reserved":false,"is_disabled":false,"rental_uris":{"android":"levelo://app?vid=0b012e63-7b16-425f-9dc0-3c2470d3ee78","ios":"levelo://app?vid=0b012e63-7b16-425f-9dc0-3c2470d3ee78"},"vehicle_type_id":"4","last_reported":1678518384,"current_range_meters":31600,"station_id":"ce4bhs92rcd13ifvqi0g","pricing_plan_id":"free"},{"bike_id":"66c9f54d-b66b-4bfb-bdb9-99e719be1bc9","system_id":"levelo_inurba_marseille","lat":43.328371,"lon":5.366909,"is_reserved":false,"is_disabled":false,"rental_uris":{"android":"levelo://app?vid=66c9f54d-b66b-4bfb-bdb9-99e719be1bc9","ios":"levelo://app?vid=66c9f54d-b66b-4bfb-bdb9-99e719be1bc9"},"vehicle_type_id":"4","last_reported":1678518384,"current_range_meters":31600,"station_id":"ce4bhs92rcd13ifvqi0g","pricing_plan_id":"free"},{"bike_id":"d643d077-1c05-489c-9fd4-f388cb48123f","system_id":"levelo_inurba_marseille","lat":43.328371,"lon":5.366912,"is_reserved":false,"is_disabled":false,"rental_uris":{"android":"levelo://app?vid=d643d077-1c05-489c-9fd4-f388cb48123f","ios":"levelo://app?vid=d643d077-1c05-489c-9fd4-f388cb48123f"},"vehicle_type_id":"4","last_reported":1678518384,"current_range_meters":31600,"station_id":"ce4bhs92rcd13ifvqi0g","pricing_plan_id":"free"},{"bike_id":"f2571945-374b-42a8-ae7e-8e29368d9e34","system_id":"levelo_inurba_marseille","lat":43.328371,"lon":5.366909,"is_reserved":false,"is_disabled":false,"rental_uris":{"android":"levelo://app?vid=f2571945-374b-42a8-ae7e-8e29368d9e34","ios":"levelo://app?vid=f2571945-374b-42a8-ae7e-8e29368d9e34"},"vehicle_type_id":"4","last_reported":1678518384,"current_range_meters":31600,"station_id":"ce4bhs92rcd13ifvqi0g","pricing_plan_id":"free"},{"bike_id":"7728a15b-dc8d-48f8-9b80-c356a814f315","system_id":"levelo_inurba_marseille","lat":43.328371,"lon":5.366912,"is_reserved":false,"is_disabled":false,"rental_uris":{"android":"levelo://app?vid=7728a15b-dc8d-48f8-9b80-c356a814f315","ios":"levelo://app?vid=7728a15b-dc8d-48f8-9b80-c356a814f315"},"vehicle_type_id":"4","last_reported":1678518384,"current_range_meters":17200,"station_id":"ce4bhs92rcd13ifvqi0g","pricing_plan_id":"free"},{"bike_id":"d7d7a8e5-a5e9-422c-9d23-849209d16512","system_id":"levelo_inurba_marseille","lat":43.328371,"lon":5.366912,"is_reserved":false,"is_disabled":false,"rental_uris":{"android":"levelo://app?vid=d7d7a8e5-a5e9-422c-9d23-849209d16512","ios":"levelo://app?vid=d7d7a8e5-a5e9-422c-9d23-849209d16512"},"vehicle_type_id":"4","last_reported":1678518384,"current_range_meters":8400,"station_id":"ce4bhs92rcd13ifvqi0g","pricing_plan_id":"free"},{"bike_id":"deec41dd-aa06-4d0b-a20b-23427af89093","system_id":"levelo_inurba_marseille","lat":43.328371,"lon":5.366912,"is_reserved":false,"is_disabled":false,"rental_uris":{"android":"levelo://app?vid=deec41dd-aa06-4d0b-a20b-23427af89093","ios":"levelo://app?vid=deec41dd-aa06-4d0b-a20b-23427af89093"},"vehicle_type_id":"4","last_reported":1678518384,"current_range_meters":19200,"station_id":"ce4bhs92rcd13ifvqi0g","pricing_plan_id":"free"},{"bike_id":"da8287f9-ab85-4b25-84bf-2f07d8c9f712","system_id":"levelo_inurba_marseille","lat":43.328371,"lon":5.366912,"is_reserved":false,"is_disabled":false,"rental_uris":{"android":"levelo://app?vid=da8287f9-ab85-4b25-84bf-2f07d8c9f712","ios":"levelo://app?vid=da8287f9-ab85-4b25-84bf-2f07d8c9f712"},"vehicle_type_id":"4","last_reported":1678518384,"current_range_meters":30400,"station_id":"ce4bhs92rcd13ifvqi0g","pricing_plan_id":"free"},{"bike_id":"4e4a8092-efb5-4e9f-9056-e037cea8b200","system_id":"levelo_inurba_marseille","lat":43.328371,"lon":5.366912,"is_reserved":false,"is_disabled":false,"rental_uris":{"android":"levelo://app?vid=4e4a8092-efb5-4e9f-9056-e037cea8b200","ios":"levelo://app?vid=4e4a8092-efb5-4e9f-9056-e037cea8b200"},"vehicle_type_id":"4","last_reported":1678518384,"current_range_meters":31600,"station_id":"ce4bhs92rcd13ifvqi0g","pricing_plan_id":"free"},{"bike_id":"95cbf81a-20d0-46c6-8719-f9b04d191e4c","system_id":"levelo_inurba_marseille","lat":43.328371,"lon":5.366909,"is_reserved":false,"is_disabled":false,"rental_uris":{"android":"levelo://app?vid=95cbf81a-20d0-46c6-8719-f9b04d191e4c","ios":"levelo://app?vid=95cbf81a-20d0-46c6-8719-f9b04d191e4c"},"vehicle_type_id":"4","last_reported":1678518384,"current_range_meters":30800,"station_id":"ce4bhs92rcd13ifvqi0g","pricing_plan_id":"free"},{"bike_id":"8b98e011-4a3c-4f8a-a509-832ce7cd1416","system_id":"levelo_inurba_marseille","lat":43.328371,"lon":5.366912,"is_reserved":false,"is_disabled":false,"rental_uris":{"android":"levelo://app?vid=8b98e011-4a3c-4f8a-a509-832ce7cd1416","ios":"levelo://app?vid=8b98e011-4a3c-4f8a-a509-832ce7cd1416"},"vehicle_type_id":"4","last_reported":1678518384,"current_range_meters":6800,"station_id":"ce4bhs92rcd13ifvqi0g","pricing_plan_id":"free"},{"bike_id":"e5edf7f1-07bd-4a24-bdff-5a5f047911c2","system_id":"levelo_inurba_marseille","lat":43.296131,"lon":5.370791,"is_reserved":false,"is_disabled":false,"rental_uris":{"android":"levelo://app?vid=e5edf7f1-07bd-4a24-bdff-5a5f047911c2","ios":"levelo://app?vid=e5edf7f1-07bd-4a24-bdff-5a5f047911c2"},"vehicle_type_id":"4","last_reported":1678518384,"current_range_meters":10000,"station_id":"ce4bgnh2rcd13ifvqc0g","pricing_plan_id":"free"},{"bike_id":"a597b5af-d962-4fe5-bb48-bfcf6400ee8b","system_id":"levelo_inurba_marseille","lat":43.29573,"lon":5.367355,"is_reserved":false,"is_disabled":false,"rental_uris":{"android":"levelo://app?vid=a597b5af-d962-4fe5-bb48-bfcf6400ee8b","ios":"levelo://app?vid=a597b5af-d962-4fe5-bb48-bfcf6400ee8b"},"vehicle_type_id":"4","last_reported":1678518384,"current_range_meters":8000,"station_id":"ce4bgph2rcd13ifvqc2g","pricing_plan_id":"free"},{"bike_id":"7fb65a36-7ff0-475d-8eb5-7f2174ce21d0","system_id":"levelo_inurba_marseille","lat":43.296277,"lon":5.377108,"is_reserved":false,"is_disabled":false,"rental_uris":{"android":"levelo://app?vid=7fb65a36-7ff0-475d-8eb5-7f2174ce21d0","ios":"levelo://app?vid=7fb65a36-7ff0-475d-8eb5-7f2174ce21d0"},"vehicle_type_id":"4","last_reported":1678518384,"current_range_meters":10800,"station_id":"ce4bgi92rcd13ifvqb90","pricing_plan_id":"free"},{"bike_id":"1fc896fa-d613-453a-9578-d7e0613257bb","system_id":"levelo_inurba_marseille","lat":43.296277,"lon":5.377108,"is_reserved":false,"is_disabled":false,"rental_uris":{"android":"levelo://app?vid=1fc896fa-d613-453a-9578-d7e0613257bb","ios":"levelo://app?vid=1fc896fa-d613-453a-9578-d7e0613257bb"},"vehicle_type_id":"4","last_reported":1678518384,"current_range_meters":6400,"station_id":"ce4bgi92rcd13ifvqb90","pricing_plan_id":"free"},{"bike_id":"a24f0e0d-9424-428a-a6c7-46b8925355d0","system_id":"levelo_inurba_marseille","lat":43.317515,"lon":5.390125,"is_reserved":false,"is_disabled":false,"rental_uris":{"android":"levelo://app?vid=a24f0e0d-9424-428a-a6c7-46b8925355d0","ios":"levelo://app?vid=a24f0e0d-9424-428a-a6c7-46b8925355d0"},"vehicle_type_id":"4","last_reported":1678518384,"current_range_meters":12400,"station_id":"ce4bhqp2rcd13ifvqhng","pricing_plan_id":"free"},{"bike_id":"79d84336-b1ee-42bb-a0cc-9e229ad0927b","system_id":"levelo_inurba_marseille","lat":43.317557,"lon":5.390173,"is_reserved":false,"is_disabled":false,"rental_uris":{"android":"levelo://app?vid=79d84336-b1ee-42bb-a0cc-9e229ad0927b","ios":"levelo://app?vid=79d84336-b1ee-42bb-a0cc-9e229ad0927b"},"vehicle_type_id":"4","last_reported":1678518384,"current_range_meters":30800,"station_id":"ce4bhqp2rcd13ifvqhng","pricing_plan_id":"free"},{"bike_id":"dab551d3-6300-4d10-9510-9ea2ccfa7d8e","system_id":"levelo_inurba_marseille","lat":43.31757,"lon":5.390198,"is_reserved":false,"is_disabled":false,"rental_uris":{"android":"levelo://app?vid=dab551d3-6300-4d10-9510-9ea2ccfa7d8e","ios":"levelo://app?vid=dab551d3-6300-4d10-9510-9ea2ccfa7d8e"},"vehicle_type_id":"4","last_reported":1678518384,"current_range_meters":30800,"station_id":"ce4bhqp2rcd13ifvqhng","pricing_plan_id":"free"},{"bike_id":"67ecba48-cbe0-45d2-a604-3d22d6e6eded","system_id":"levelo_inurba_marseille","lat":43.317583,"lon":5.390213,"is_reserved":false,"is_disabled":false,"rental_uris":{"android":"levelo://app?vid=67ecba48-cbe0-45d2-a604-3d22d6e6eded","ios":"levelo://app?vid=67ecba48-cbe0-45d2-a604-3d22d6e6eded"},"vehicle_type_id":"4","last_reported":1678518384,"current_range_meters":400,"station_id":"ce4bhqp2rcd13ifvqhng","pricing_plan_id":"free"},{"bike_id":"5480a0b5-d185-4dd4-8821-54090040ce7f","system_id":"levelo_inurba_marseille","lat":43.317543,"lon":5.390263,"is_reserved":false,"is_disabled":false,"rental_uris":{"android":"levelo://app?vid=5480a0b5-d185-4dd4-8821-54090040ce7f","ios":"levelo://app?vid=5480a0b5-d185-4dd4-8821-54090040ce7f"},"vehicle_type_id":"4","last_reported":1678518384,"current_range_meters":0,"station_id":"ce4bhqp2rcd13ifvqhng","pricing_plan_id":"free"},{"bike_id":"f80216c8-0478-4a79-b965-7a362aec1290","system_id":"levelo_inurba_marseille","lat":43.298037,"lon":5.381066,"is_reserved":false,"is_disabled":false,"rental_uris":{"android":"levelo://app?vid=f80216c8-0478-4a79-b965-7a362aec1290","ios":"levelo://app?vid=f80216c8-0478-4a79-b965-7a362aec1290"},"vehicle_type_id":"4","last_reported":1678518384,"current_range_meters":10400,"station_id":"ce4bgip2rcd13ifvqbb0","pricing_plan_id":"free"},{"bike_id":"989512bd-9f46-438e-bd2a-95e355668e34","system_id":"levelo_inurba_marseille","lat":43.298037,"lon":5.381066,"is_reserved":false,"is_disabled":false,"rental_uris":{"android":"levelo://app?vid=989512bd-9f46-438e-bd2a-95e355668e34","ios":"levelo://app?vid=989512bd-9f46-438e-bd2a-95e355668e34"},"vehicle_type_id":"4","last_reported":1678518384,"current_range_meters":22000,"station_id":"ce4bgip2rcd13ifvqbb0","pricing_plan_id":"free"},{"bike_id":"d5f910ff-79d3-476f-8626-a77572bfc2d8","system_id":"levelo_inurba_marseille","lat":43.298037,"lon":5.381066,"is_reserved":false,"is_disabled":false,"rental_uris":{"android":"levelo://app?vid=d5f910ff-79d3-476f-8626-a77572bfc2d8","ios":"levelo://app?vid=d5f910ff-79d3-476f-8626-a77572bfc2d8"},"vehicle_type_id":"4","last_reported":1678518384,"current_range_meters":30000,"station_id":"ce4bgip2rcd13ifvqbb0","pricing_plan_id":"free"},{"bike_id":"5b4f779f-b2a6-4b35-9ae4-d6627c8b9ead","system_id":"levelo_inurba_marseille","lat":43.298037,"lon":5.381066,"is_reserved":false,"is_disabled":false,"rental_uris":{"android":"levelo://app?vid=5b4f779f-b2a6-4b35-9ae4-d6627c8b9ead","ios":"levelo://app?vid=5b4f779f-b2a6-4b35-9ae4-d6627c8b9ead"},"vehicle_type_id":"4","last_reported":1678518384,"current_range_meters":26400,"station_id":"ce4bgip2rcd13ifvqbb0","pricing_plan_id":"free"},{"bike_id":"b3d7f0c5-190f-4fc8-a47a-e56ae6dbb1d4","system_id":"levelo_inurba_marseille","lat":43.304359,"lon":5.388942,"is_reserved":false,"is_disabled":false,"rental_uris":{"android":"levelo://app?vid=b3d7f0c5-190f-4fc8-a47a-e56ae6dbb1d4","ios":"levelo://app?vid=b3d7f0c5-190f-4fc8-a47a-e56ae6dbb1d4"},"vehicle_type_id":"4","last_reported":1678518384,"current_range_meters":23200,"station_id":"ce4bgk12rcd13ifvqbi0","pricing_plan_id":"free"},{"bike_id":"fd41111b-9fb0-46ae-a78c-2560e26bb39d","system_id":"levelo_inurba_marseille","lat":43.304278,"lon":5.388868,"is_reserved":false,"is_disabled":false,"rental_uris":{"android":"levelo://app?vid=fd41111b-9fb0-46ae-a78c-2560e26bb39d","ios":"levelo://app?vid=fd41111b-9fb0-46ae-a78c-2560e26bb39d"},"vehicle_type_id":"4","last_reported":1678518384,"current_range_meters":20800,"station_id":"ce4bgk12rcd13ifvqbi0","pricing_plan_id":"free"},{"bike_id":"0786652a-01db-4823-928c-f2ddc43276f3","system_id":"levelo_inurba_marseille","lat":43.296103,"lon":5.377159,"is_reserved":false,"is_disabled":false,"rental_uris":{"android":"levelo://app?vid=0786652a-01db-4823-928c-f2ddc43276f3","ios":"levelo://app?vid=0786652a-01db-4823-928c-f2ddc43276f3"},"vehicle_type_id":"4","last_reported":1678518384,"current_range_meters":0,"station_id":"","pricing_plan_id":"free"},{"bike_id":"3759fa28-b6d1-4c56-9cab-db589011ca28","system_id":"levelo_inurba_marseille","lat":43.299733,"lon":5.385008,"is_reserved":false,"is_disabled":false,"rental_uris":{"android":"levelo://app?vid=3759fa28-b6d1-4c56-9cab-db589011ca28","ios":"levelo://app?vid=3759fa28-b6d1-4c56-9cab-db589011ca28"},"vehicle_type_id":"4","last_reported":1678518384,"current_range_meters":0,"station_id":"","pricing_plan_id":"free"},{"bike_id":"0a9cde33-2105-48d5-8e81-f1bb2f6b1203","system_id":"levelo_inurba_marseille","lat":43.32367,"lon":5.388836,"is_reserved":false,"is_disabled":false,"rental_uris":{"android":"levelo://app?vid=0a9cde33-2105-48d5-8e81-f1bb2f6b1203","ios":"levelo://app?vid=0a9cde33-2105-48d5-8e81-f1bb2f6b1203"},"vehicle_type_id":"4","last_reported":1678518384,"current_range_meters":2800,"station_id":"ce4bhqp2rcd13ifvqhog","pricing_plan_id":"free"},{"bike_id":"f837d9ce-e2c9-43b5-a86f-0d0ca5fbda3e","system_id":"levelo_inurba_marseille","lat":43.32367,"lon":5.388836,"is_reserved":false,"is_disabled":false,"rental_uris":{"android":"levelo://app?vid=f837d9ce-e2c9-43b5-a86f-0d0ca5fbda3e","ios":"levelo://app?vid=f837d9ce-e2c9-43b5-a86f-0d0ca5fbda3e"},"vehicle_type_id":"4","last_reported":1678518384,"current_range_meters":8000,"station_id":"ce4bhqp2rcd13ifvqhog","pricing_plan_id":"free"},{"bike_id":"aa7b2c7c-1453-4f13-aaa0-5108ce9c5969","system_id":"levelo_inurba_marseille","lat":43.323655,"lon":5.388834,"is_reserved":false,"is_disabled":false,"rental_uris":{"android":"levelo://app?vid=aa7b2c7c-1453-4f13-aaa0-5108ce9c5969","ios":"levelo://app?vid=aa7b2c7c-1453-4f13-aaa0-5108ce9c5969"},"vehicle_type_id":"4","last_reported":1678518384,"current_range_meters":28000,"station_id":"ce4bhqp2rcd13ifvqhog","pricing_plan_id":"free"},{"bike_id":"8d7b4ab4-03e3-49f7-bbad-b06e81a998a8","system_id":"levelo_inurba_marseille","lat":43.32366,"lon":5.388856,"is_reserved":false,"is_disabled":false,"rental_uris":{"android":"levelo://app?vid=8d7b4ab4-03e3-49f7-bbad-b06e81a998a8","ios":"levelo://app?vid=8d7b4ab4-03e3-49f7-bbad-b06e81a998a8"},"vehicle_type_id":"4","last_reported":1678518384,"current_range_meters":27200,"station_id":"ce4bhqp2rcd13ifvqhog","pricing_plan_id":"free"},{"bike_id":"67329fa4-4e2e-45d8-bd87-598da0f72818","system_id":"levelo_inurba_marseille","lat":43.31282,"lon":5.39423,"is_reserved":false,"is_disabled":false,"rental_uris":{"android":"levelo://app?vid=67329fa4-4e2e-45d8-bd87-598da0f72818","ios":"levelo://app?vid=67329fa4-4e2e-45d8-bd87-598da0f72818"},"vehicle_type_id":"4","last_reported":1678518384,"current_range_meters":400,"station_id":"","pricing_plan_id":"free"},{"bike_id":"95105821-d3ce-49be-8d44-04fffd405094","system_id":"levelo_inurba_marseille","lat":43.293011,"lon":5.371792,"is_reserved":false,"is_disabled":false,"rental_uris":{"android":"levelo://app?vid=95105821-d3ce-49be-8d44-04fffd405094","ios":"levelo://app?vid=95105821-d3ce-49be-8d44-04fffd405094"},"vehicle_type_id":"4","last_reported":1678518384,"current_range_meters":23600,"station_id":"ce4bha92rcd13ifvqeh0","pricing_plan_id":"free"},{"bike_id":"85677ee8-ebc2-404b-92f6-eb5e00de8453","system_id":"levelo_inurba_marseille","lat":43.305994,"lon":5.393687,"is_reserved":false,"is_disabled":false,"rental_uris":{"android":"levelo://app?vid=85677ee8-ebc2-404b-92f6-eb5e00de8453","ios":"levelo://app?vid=85677ee8-ebc2-404b-92f6-eb5e00de8453"},"vehicle_type_id":"4","last_reported":1678518384,"current_range_meters":29200,"station_id":"ce4bh0p2rcd13ifvqd80","pricing_plan_id":"free"},{"bike_id":"69fad45d-4f36-4306-a69f-7493e2b9d34a","system_id":"levelo_inurba_marseille","lat":43.305994,"lon":5.393687,"is_reserved":false,"is_disabled":false,"rental_uris":{"android":"levelo://app?vid=69fad45d-4f36-4306-a69f-7493e2b9d34a","ios":"levelo://app?vid=69fad45d-4f36-4306-a69f-7493e2b9d34a"},"vehicle_type_id":"4","last_reported":1678518384,"current_range_meters":21600,"station_id":"ce4bh0p2rcd13ifvqd80","pricing_plan_id":"free"},{"bike_id":"38f0d299-4f95-4bff-b1aa-3f838ce1dfe9","system_id":"levelo_inurba_marseille","lat":43.293671,"lon":5.378356,"is_reserved":false,"is_disabled":false,"rental_uris":{"android":"levelo://app?vid=38f0d299-4f95-4bff-b1aa-3f838ce1dfe9","ios":"levelo://app?vid=38f0d299-4f95-4bff-b1aa-3f838ce1dfe9"},"vehicle_type_id":"4","last_reported":1678518384,"current_range_meters":0,"station_id":"ce4bgjh2rcd13ifvqbf0","pricing_plan_id":"free"},{"bike_id":"b71ed2ef-e3c1-4adf-b60f-e8d6ae944974","system_id":"levelo_inurba_marseille","lat":43.2936,"lon":5.37835,"is_reserved":false,"is_disabled":false,"rental_uris":{"android":"levelo://app?vid=b71ed2ef-e3c1-4adf-b60f-e8d6ae944974","ios":"levelo://app?vid=b71ed2ef-e3c1-4adf-b60f-e8d6ae944974"},"vehicle_type_id":"4","last_reported":1678518384,"current_range_meters":6400,"station_id":"ce4bgjh2rcd13ifvqbf0","pricing_plan_id":"free"},{"bike_id":"81278642-a920-45e8-85b5-8e1e844dc87f","system_id":"levelo_inurba_marseille","lat":43.300948,"lon":5.390766,"is_reserved":false,"is_disabled":false,"rental_uris":{"android":"levelo://app?vid=81278642-a920-45e8-85b5-8e1e844dc87f","ios":"levelo://app?vid=81278642-a920-45e8-85b5-8e1e844dc87f"},"vehicle_type_id":"4","last_reported":1678518384,"current_range_meters":0,"station_id":"","pricing_plan_id":"free"},{"bike_id":"df72e23b-1f39-4ed5-a368-af40c8ebd3fe","system_id":"levelo_inurba_marseille","lat":43.292311,"lon":5.360731,"is_reserved":false,"is_disabled":false,"rental_uris":{"android":"levelo://app?vid=df72e23b-1f39-4ed5-a368-af40c8ebd3fe","ios":"levelo://app?vid=df72e23b-1f39-4ed5-a368-af40c8ebd3fe"},"vehicle_type_id":"4","last_reported":1678518384,"current_range_meters":24400,"station_id":"ce4bhbh2rcd13ifvqeqg","pricing_plan_id":"free"},{"bike_id":"fcc6b810-c9ab-4c90-b9e5-83e62d1f7090","system_id":"levelo_inurba_marseille","lat":43.292311,"lon":5.360731,"is_reserved":false,"is_disabled":false,"rental_uris":{"android":"levelo://app?vid=fcc6b810-c9ab-4c90-b9e5-83e62d1f7090","ios":"levelo://app?vid=fcc6b810-c9ab-4c90-b9e5-83e62d1f7090"},"vehicle_type_id":"4","last_reported":1678518384,"current_range_meters":25200,"station_id":"ce4bhbh2rcd13ifvqeqg","pricing_plan_id":"free"},{"bike_id":"8cf4983b-2724-4498-b790-d914e9aaa54a","system_id":"levelo_inurba_marseille","lat":43.313291,"lon":5.396838,"is_reserved":false,"is_disabled":false,"rental_uris":{"android":"levelo://app?vid=8cf4983b-2724-4498-b790-d914e9aaa54a","ios":"levelo://app?vid=8cf4983b-2724-4498-b790-d914e9aaa54a"},"vehicle_type_id":"4","last_reported":1678518384,"current_range_meters":16800,"station_id":"ce4bgvp2rcd13ifvqcu0","pricing_plan_id":"free"},{"bike_id":"22315384-46c4-4cc6-b844-3daa32b38295","system_id":"levelo_inurba_marseille","lat":43.313291,"lon":5.396838,"is_reserved":false,"is_disabled":false,"rental_uris":{"android":"levelo://app?vid=22315384-46c4-4cc6-b844-3daa32b38295","ios":"levelo://app?vid=22315384-46c4-4cc6-b844-3daa32b38295"},"vehicle_type_id":"4","last_reported":1678518384,"current_range_meters":12800,"station_id":"ce4bgvp2rcd13ifvqcu0","pricing_plan_id":"free"},{"bike_id":"8fccd644-54f2-4e78-bf91-9d949d39dcc2","system_id":"levelo_inurba_marseille","lat":43.32255,"lon":5.394744,"is_reserved":false,"is_disabled":false,"rental_uris":{"android":"levelo://app?vid=8fccd644-54f2-4e78-bf91-9d949d39dcc2","ios":"levelo://app?vid=8fccd644-54f2-4e78-bf91-9d949d39dcc2"},"vehicle_type_id":"4","last_reported":1678518384,"current_range_meters":800,"station_id":"","pricing_plan_id":"free"},{"bike_id":"495291f1-127b-45f9-9da7-399d5c4f6c7f","system_id":"levelo_inurba_marseille","lat":43.302008,"lon":5.394694,"is_reserved":false,"is_disabled":false,"rental_uris":{"android":"levelo://app?vid=495291f1-127b-45f9-9da7-399d5c4f6c7f","ios":"levelo://app?vid=495291f1-127b-45f9-9da7-399d5c4f6c7f"},"vehicle_type_id":"4","last_reported":1678518384,"current_range_meters":30400,"station_id":"ce4bh0p2rcd13ifvqd70","pricing_plan_id":"free"},{"bike_id":"1c83dd2e-b589-4ad8-b2e1-9474a8e72516","system_id":"levelo_inurba_marseille","lat":43.290624,"lon":5.359245,"is_reserved":false,"is_disabled":false,"rental_uris":{"android":"levelo://app?vid=1c83dd2e-b589-4ad8-b2e1-9474a8e72516","ios":"levelo://app?vid=1c83dd2e-b589-4ad8-b2e1-9474a8e72516"},"vehicle_type_id":"4","last_reported":1678518384,"current_range_meters":0,"station_id":"ce4bha92rcd13ifvqeg0","pricing_plan_id":"free"},{"bike_id":"7121d424-3b5b-4513-9f52-53f801e83ef5","system_id":"levelo_inurba_marseille","lat":43.290624,"lon":5.359245,"is_reserved":false,"is_disabled":false,"rental_uris":{"android":"levelo://app?vid=7121d424-3b5b-4513-9f52-53f801e83ef5","ios":"levelo://app?vid=7121d424-3b5b-4513-9f52-53f801e83ef5"},"vehicle_type_id":"4","last_reported":1678518384,"current_range_meters":5200,"station_id":"ce4bha92rcd13ifvqeg0","pricing_plan_id":"free"},{"bike_id":"04a63fe4-0ff5-451e-ab02-36fde5643757","system_id":"levelo_inurba_marseille","lat":43.294162,"lon":5.386292,"is_reserved":false,"is_disabled":false,"rental_uris":{"android":"levelo://app?vid=04a63fe4-0ff5-451e-ab02-36fde5643757","ios":"levelo://app?vid=04a63fe4-0ff5-451e-ab02-36fde5643757"},"vehicle_type_id":"4","last_reported":1678518384,"current_range_meters":0,"station_id":"ce4bh2h2rcd13ifvqdh0","pricing_plan_id":"free"},{"bike_id":"4b73eaa3-0c3e-4fb4-a6c3-ec9987120461","system_id":"levelo_inurba_marseille","lat":43.28937,"lon":5.36684,"is_reserved":false,"is_disabled":false,"rental_uris":{"android":"levelo://app?vid=4b73eaa3-0c3e-4fb4-a6c3-ec9987120461","ios":"levelo://app?vid=4b73eaa3-0c3e-4fb4-a6c3-ec9987120461"},"vehicle_type_id":"4","last_reported":1678518384,"current_range_meters":0,"station_id":"ce4bhap2rcd13ifvqek0","pricing_plan_id":"free"},{"bike_id":"f088487d-61da-49b0-bac0-ed8388b07c94","system_id":"levelo_inurba_marseille","lat":43.28936,"lon":5.36632,"is_reserved":false,"is_disabled":false,"rental_uris":{"android":"levelo://app?vid=f088487d-61da-49b0-bac0-ed8388b07c94","ios":"levelo://app?vid=f088487d-61da-49b0-bac0-ed8388b07c94"},"vehicle_type_id":"4","last_reported":1678518384,"current_range_meters":2400,"station_id":"ce4bhap2rcd13ifvqek0","pricing_plan_id":"free"},{"bike_id":"37f2853d-9018-47cb-be3d-af36dfb0ca9f","system_id":"levelo_inurba_marseille","lat":43.28934,"lon":5.36627,"is_reserved":false,"is_disabled":false,"rental_uris":{"android":"levelo://app?vid=37f2853d-9018-47cb-be3d-af36dfb0ca9f","ios":"levelo://app?vid=37f2853d-9018-47cb-be3d-af36dfb0ca9f"},"vehicle_type_id":"4","last_reported":1678518384,"current_range_meters":1200,"station_id":"ce4bhap2rcd13ifvqek0","pricing_plan_id":"free"},{"bike_id":"569ce7ca-b165-4b1d-9311-a327396d2e05","system_id":"levelo_inurba_marseille","lat":43.289573,"lon":5.371737,"is_reserved":false,"is_disabled":false,"rental_uris":{"android":"levelo://app?vid=569ce7ca-b165-4b1d-9311-a327396d2e05","ios":"levelo://app?vid=569ce7ca-b165-4b1d-9311-a327396d2e05"},"vehicle_type_id":"4","last_reported":1678518384,"current_range_meters":8000,"station_id":"","pricing_plan_id":"free"},{"bike_id":"5312c5fb-6189-462c-987a-32c289bf8a4d","system_id":"levelo_inurba_marseille","lat":43.290583,"lon":5.356034,"is_reserved":false,"is_disabled":false,"rental_uris":{"android":"levelo://app?vid=5312c5fb-6189-462c-987a-32c289bf8a4d","ios":"levelo://app?vid=5312c5fb-6189-462c-987a-32c289bf8a4d"},"vehicle_type_id":"4","last_reported":1678518384,"current_range_meters":0,"station_id":"ce4bhb92rcd13ifvqen0","pricing_plan_id":"free"},{"bike_id":"07bb8bf1-a9fb-42ef-9101-12f911b0e7eb","system_id":"levelo_inurba_marseille","lat":43.292644,"lon":5.384257,"is_reserved":false,"is_disabled":false,"rental_uris":{"android":"levelo://app?vid=07bb8bf1-a9fb-42ef-9101-12f911b0e7eb","ios":"levelo://app?vid=07bb8bf1-a9fb-42ef-9101-12f911b0e7eb"},"vehicle_type_id":"4","last_reported":1678518384,"current_range_meters":0,"station_id":"ce4bh692rcd13ifvqea0","pricing_plan_id":"free"},{"bike_id":"8db267ca-1acc-43fc-a364-b85c09fca0b8","system_id":"levelo_inurba_marseille","lat":43.292616,"lon":5.384486,"is_reserved":false,"is_disabled":false,"rental_uris":{"android":"levelo://app?vid=8db267ca-1acc-43fc-a364-b85c09fca0b8","ios":"levelo://app?vid=8db267ca-1acc-43fc-a364-b85c09fca0b8"},"vehicle_type_id":"4","last_reported":1678518384,"current_range_meters":0,"station_id":"ce4bh692rcd13ifvqea0","pricing_plan_id":"free"},{"bike_id":"87b129da-7b2d-49fa-94bc-29b2b162babe","system_id":"levelo_inurba_marseille","lat":43.330442,"lon":5.389148,"is_reserved":false,"is_disabled":false,"rental_uris":{"android":"levelo://app?vid=87b129da-7b2d-49fa-94bc-29b2b162babe","ios":"levelo://app?vid=87b129da-7b2d-49fa-94bc-29b2b162babe"},"vehicle_type_id":"4","last_reported":1678518384,"current_range_meters":24000,"station_id":"ce4bhr92rcd13ifvqhrg","pricing_plan_id":"free"},{"bike_id":"6aa4d43d-d3cb-44c3-b8ca-d718d20e335b","system_id":"levelo_inurba_marseille","lat":43.330442,"lon":5.389148,"is_reserved":false,"is_disabled":false,"rental_uris":{"android":"levelo://app?vid=6aa4d43d-d3cb-44c3-b8ca-d718d20e335b","ios":"levelo://app?vid=6aa4d43d-d3cb-44c3-b8ca-d718d20e335b"},"vehicle_type_id":"4","last_reported":1678518384,"current_range_meters":20000,"station_id":"ce4bhr92rcd13ifvqhrg","pricing_plan_id":"free"},{"bike_id":"153c5ef8-3ec2-4ed2-94f0-25591d281d8e","system_id":"levelo_inurba_marseille","lat":43.33046,"lon":5.38909,"is_reserved":false,"is_disabled":false,"rental_uris":{"android":"levelo://app?vid=153c5ef8-3ec2-4ed2-94f0-25591d281d8e","ios":"levelo://app?vid=153c5ef8-3ec2-4ed2-94f0-25591d281d8e"},"vehicle_type_id":"4","last_reported":1678518384,"current_range_meters":24000,"station_id":"","pricing_plan_id":"free"},{"bike_id":"0037ae0a-6165-4289-8c3e-49ef67b6b3ea","system_id":"levelo_inurba_marseille","lat":43.330383,"lon":5.389217,"is_reserved":false,"is_disabled":false,"rental_uris":{"android":"levelo://app?vid=0037ae0a-6165-4289-8c3e-49ef67b6b3ea","ios":"levelo://app?vid=0037ae0a-6165-4289-8c3e-49ef67b6b3ea"},"vehicle_type_id":"4","last_reported":1678518384,"current_range_meters":15600,"station_id":"ce4bhr92rcd13ifvqhrg","pricing_plan_id":"free"},{"bike_id":"693499c9-c39b-44af-9f35-2c590bd87c81","system_id":"levelo_inurba_marseille","lat":43.330442,"lon":5.389148,"is_reserved":false,"is_disabled":false,"rental_uris":{"android":"levelo://app?vid=693499c9-c39b-44af-9f35-2c590bd87c81","ios":"levelo://app?vid=693499c9-c39b-44af-9f35-2c590bd87c81"},"vehicle_type_id":"4","last_reported":1678518384,"current_range_meters":8800,"station_id":"ce4bhr92rcd13ifvqhrg","pricing_plan_id":"free"},{"bike_id":"aa206919-e247-4f55-aaa4-91ee5b1e7373","system_id":"levelo_inurba_marseille","lat":43.33042,"lon":5.38918,"is_reserved":false,"is_disabled":false,"rental_uris":{"android":"levelo://app?vid=aa206919-e247-4f55-aaa4-91ee5b1e7373","ios":"levelo://app?vid=aa206919-e247-4f55-aaa4-91ee5b1e7373"},"vehicle_type_id":"4","last_reported":1678518384,"current_range_meters":14800,"station_id":"ce4bhr92rcd13ifvqhrg","pricing_plan_id":"free"},{"bike_id":"d1b48164-49c0-49c5-afad-93b319d98d9a","system_id":"levelo_inurba_marseille","lat":43.33041,"lon":5.38921,"is_reserved":false,"is_disabled":false,"rental_uris":{"android":"levelo://app?vid=d1b48164-49c0-49c5-afad-93b319d98d9a","ios":"levelo://app?vid=d1b48164-49c0-49c5-afad-93b319d98d9a"},"vehicle_type_id":"4","last_reported":1678518384,"current_range_meters":18000,"station_id":"ce4bhr92rcd13ifvqhrg","pricing_plan_id":"free"},{"bike_id":"b2c84c7b-6edf-4e2e-8760-4def01da6594","system_id":"levelo_inurba_marseille","lat":43.33042,"lon":5.3892,"is_reserved":false,"is_disabled":false,"rental_uris":{"android":"levelo://app?vid=b2c84c7b-6edf-4e2e-8760-4def01da6594","ios":"levelo://app?vid=b2c84c7b-6edf-4e2e-8760-4def01da6594"},"vehicle_type_id":"4","last_reported":1678518384,"current_range_meters":28400,"station_id":"ce4bhr92rcd13ifvqhrg","pricing_plan_id":"free"},{"bike_id":"427a5da5-2804-4106-b83c-1684b0002f43","system_id":"levelo_inurba_marseille","lat":43.330442,"lon":5.389148,"is_reserved":false,"is_disabled":false,"rental_uris":{"android":"levelo://app?vid=427a5da5-2804-4106-b83c-1684b0002f43","ios":"levelo://app?vid=427a5da5-2804-4106-b83c-1684b0002f43"},"vehicle_type_id":"4","last_reported":1678518384,"current_range_meters":25200,"station_id":"ce4bhr92rcd13ifvqhrg","pricing_plan_id":"free"},{"bike_id":"dfa3acba-d41d-423d-a7de-2dfc2e123dc8","system_id":"levelo_inurba_marseille","lat":43.33042,"lon":5.38921,"is_reserved":false,"is_disabled":false,"rental_uris":{"android":"levelo://app?vid=dfa3acba-d41d-423d-a7de-2dfc2e123dc8","ios":"levelo://app?vid=dfa3acba-d41d-423d-a7de-2dfc2e123dc8"},"vehicle_type_id":"4","last_reported":1678518384,"current_range_meters":7200,"station_id":"ce4bhr92rcd13ifvqhrg","pricing_plan_id":"free"},{"bike_id":"32bab2d7-fc00-4769-a759-afa0281bfd61","system_id":"levelo_inurba_marseille","lat":43.33042,"lon":5.38921,"is_reserved":false,"is_disabled":false,"rental_uris":{"android":"levelo://app?vid=32bab2d7-fc00-4769-a759-afa0281bfd61","ios":"levelo://app?vid=32bab2d7-fc00-4769-a759-afa0281bfd61"},"vehicle_type_id":"4","last_reported":1678518384,"current_range_meters":23200,"station_id":"","pricing_plan_id":"free"},{"bike_id":"a0b5a7a5-ed90-4867-ab18-7101a63f568b","system_id":"levelo_inurba_marseille","lat":43.330442,"lon":5.389148,"is_reserved":false,"is_disabled":false,"rental_uris":{"android":"levelo://app?vid=a0b5a7a5-ed90-4867-ab18-7101a63f568b","ios":"levelo://app?vid=a0b5a7a5-ed90-4867-ab18-7101a63f568b"},"vehicle_type_id":"4","last_reported":1678518384,"current_range_meters":30400,"station_id":"ce4bhr92rcd13ifvqhrg","pricing_plan_id":"free"},{"bike_id":"8c8eb10b-e9fb-4f65-ab68-a33fe156a3a0","system_id":"levelo_inurba_marseille","lat":43.330462,"lon":5.389175,"is_reserved":false,"is_disabled":false,"rental_uris":{"android":"levelo://app?vid=8c8eb10b-e9fb-4f65-ab68-a33fe156a3a0","ios":"levelo://app?vid=8c8eb10b-e9fb-4f65-ab68-a33fe156a3a0"},"vehicle_type_id":"4","last_reported":1678518384,"current_range_meters":23600,"station_id":"ce4bhr92rcd13ifvqhrg","pricing_plan_id":"free"},{"bike_id":"a0ffc563-0060-4e12-a276-f5254af4f18e","system_id":"levelo_inurba_marseille","lat":43.290104,"lon":5.356111,"is_reserved":false,"is_disabled":false,"rental_uris":{"android":"levelo://app?vid=a0ffc563-0060-4e12-a276-f5254af4f18e","ios":"levelo://app?vid=a0ffc563-0060-4e12-a276-f5254af4f18e"},"vehicle_type_id":"4","last_reported":1678518384,"current_range_meters":29200,"station_id":"ce4bhb92rcd13ifvqen0","pricing_plan_id":"free"},{"bike_id":"c69d6939-70c3-41a5-8dfd-6279d4d6a7f9","system_id":"levelo_inurba_marseille","lat":43.289959,"lon":5.356108,"is_reserved":false,"is_disabled":false,"rental_uris":{"android":"levelo://app?vid=c69d6939-70c3-41a5-8dfd-6279d4d6a7f9","ios":"levelo://app?vid=c69d6939-70c3-41a5-8dfd-6279d4d6a7f9"},"vehicle_type_id":"4","last_reported":1678518384,"current_range_meters":0,"station_id":"ce4bhb92rcd13ifvqen0","pricing_plan_id":"free"},{"bike_id":"70f45305-15c8-4b7e-a76c-9e2c1674bfb9","system_id":"levelo_inurba_marseille","lat":43.288568,"lon":5.358472,"is_reserved":false,"is_disabled":false,"rental_uris":{"android":"levelo://app?vid=70f45305-15c8-4b7e-a76c-9e2c1674bfb9","ios":"levelo://app?vid=70f45305-15c8-4b7e-a76c-9e2c1674bfb9"},"vehicle_type_id":"4","last_reported":1678518384,"current_range_meters":24000,"station_id":"","pricing_plan_id":"free"},{"bike_id":"894d2861-e10e-460e-9162-dade06c2220a","system_id":"levelo_inurba_marseille","lat":43.306454,"lon":5.400711,"is_reserved":false,"is_disabled":false,"rental_uris":{"android":"levelo://app?vid=894d2861-e10e-460e-9162-dade06c2220a","ios":"levelo://app?vid=894d2861-e10e-460e-9162-dade06c2220a"},"vehicle_type_id":"4","last_reported":1678518384,"current_range_meters":2800,"station_id":"ce4bh112rcd13ifvqda0","pricing_plan_id":"free"},{"bike_id":"af3cf7c2-ad69-4d2f-bfa8-ae5920a788ea","system_id":"levelo_inurba_marseille","lat":43.30638,"lon":5.400699,"is_reserved":false,"is_disabled":false,"rental_uris":{"android":"levelo://app?vid=af3cf7c2-ad69-4d2f-bfa8-ae5920a788ea","ios":"levelo://app?vid=af3cf7c2-ad69-4d2f-bfa8-ae5920a788ea"},"vehicle_type_id":"4","last_reported":1678518384,"current_range_meters":25600,"station_id":"","pricing_plan_id":"free"},{"bike_id":"5f0b3dbc-cf79-4396-83b6-4ba47d2bdeba","system_id":"levelo_inurba_marseille","lat":43.30645,"lon":5.40075,"is_reserved":false,"is_disabled":false,"rental_uris":{"android":"levelo://app?vid=5f0b3dbc-cf79-4396-83b6-4ba47d2bdeba","ios":"levelo://app?vid=5f0b3dbc-cf79-4396-83b6-4ba47d2bdeba"},"vehicle_type_id":"4","last_reported":1678518384,"current_range_meters":14000,"station_id":"","pricing_plan_id":"free"},{"bike_id":"8ef203f4-f76d-4b36-b651-5b2b735a1c5b","system_id":"levelo_inurba_marseille","lat":43.306485,"lon":5.40089,"is_reserved":false,"is_disabled":false,"rental_uris":{"android":"levelo://app?vid=8ef203f4-f76d-4b36-b651-5b2b735a1c5b","ios":"levelo://app?vid=8ef203f4-f76d-4b36-b651-5b2b735a1c5b"},"vehicle_type_id":"4","last_reported":1678518384,"current_range_meters":0,"station_id":"","pricing_plan_id":"free"},{"bike_id":"1fa5ded3-1636-43fa-832c-c81b40897678","system_id":"levelo_inurba_marseille","lat":43.306482,"lon":5.401033,"is_reserved":false,"is_disabled":false,"rental_uris":{"android":"levelo://app?vid=1fa5ded3-1636-43fa-832c-c81b40897678","ios":"levelo://app?vid=1fa5ded3-1636-43fa-832c-c81b40897678"},"vehicle_type_id":"4","last_reported":1678518384,"current_range_meters":0,"station_id":"","pricing_plan_id":"free"},{"bike_id":"0daa5d7a-9031-43c7-b981-043ace7a26ff","system_id":"levelo_inurba_marseille","lat":43.286666,"lon":5.363562,"is_reserved":false,"is_disabled":false,"rental_uris":{"android":"levelo://app?vid=0daa5d7a-9031-43c7-b981-043ace7a26ff","ios":"levelo://app?vid=0daa5d7a-9031-43c7-b981-043ace7a26ff"},"vehicle_type_id":"4","last_reported":1678518384,"current_range_meters":0,"station_id":"","pricing_plan_id":"free"},{"bike_id":"fcc8ebd5-0391-4915-a9aa-fe6be958bd68","system_id":"levelo_inurba_marseille","lat":43.29516,"lon":5.394007,"is_reserved":false,"is_disabled":false,"rental_uris":{"android":"levelo://app?vid=fcc8ebd5-0391-4915-a9aa-fe6be958bd68","ios":"levelo://app?vid=fcc8ebd5-0391-4915-a9aa-fe6be958bd68"},"vehicle_type_id":"4","last_reported":1678518384,"current_range_meters":0,"station_id":"","pricing_plan_id":"free"},{"bike_id":"bc258451-d6f7-4d4d-8132-2d6d8035d2f7","system_id":"levelo_inurba_marseille","lat":43.29524,"lon":5.394111,"is_reserved":false,"is_disabled":false,"rental_uris":{"android":"levelo://app?vid=bc258451-d6f7-4d4d-8132-2d6d8035d2f7","ios":"levelo://app?vid=bc258451-d6f7-4d4d-8132-2d6d8035d2f7"},"vehicle_type_id":"4","last_reported":1678518384,"current_range_meters":25200,"station_id":"ce4bh292rcd13ifvqdf0","pricing_plan_id":"free"},{"bike_id":"f30a8a96-0432-4f18-9043-87c93dda4b6c","system_id":"levelo_inurba_marseille","lat":43.29516,"lon":5.39409,"is_reserved":false,"is_disabled":false,"rental_uris":{"android":"levelo://app?vid=f30a8a96-0432-4f18-9043-87c93dda4b6c","ios":"levelo://app?vid=f30a8a96-0432-4f18-9043-87c93dda4b6c"},"vehicle_type_id":"4","last_reported":1678518384,"current_range_meters":24400,"station_id":"ce4bh212rcd13ifvqde0","pricing_plan_id":"free"},{"bike_id":"2bc6a461-1818-4519-9dd2-03ca041b97d9","system_id":"levelo_inurba_marseille","lat":43.290328,"lon":5.386371,"is_reserved":false,"is_disabled":false,"rental_uris":{"android":"levelo://app?vid=2bc6a461-1818-4519-9dd2-03ca041b97d9","ios":"levelo://app?vid=2bc6a461-1818-4519-9dd2-03ca041b97d9"},"vehicle_type_id":"4","last_reported":1678518384,"current_range_meters":0,"station_id":"ce4bh4p2rcd13ifvqe0g","pricing_plan_id":"free"},{"bike_id":"746d902c-a499-4dc0-81e2-e4606e2512d5","system_id":"levelo_inurba_marseille","lat":43.286039,"lon":5.370679,"is_reserved":false,"is_disabled":false,"rental_uris":{"android":"levelo://app?vid=746d902c-a499-4dc0-81e2-e4606e2512d5","ios":"levelo://app?vid=746d902c-a499-4dc0-81e2-e4606e2512d5"},"vehicle_type_id":"4","last_reported":1678518384,"current_range_meters":20400,"station_id":"ce4bht12rcd13ifvqi60","pricing_plan_id":"free"},{"bike_id":"c5bacce0-7826-4436-b838-4aa9295f94a5","system_id":"levelo_inurba_marseille","lat":43.28609,"lon":5.370655,"is_reserved":false,"is_disabled":false,"rental_uris":{"android":"levelo://app?vid=c5bacce0-7826-4436-b838-4aa9295f94a5","ios":"levelo://app?vid=c5bacce0-7826-4436-b838-4aa9295f94a5"},"vehicle_type_id":"4","last_reported":1678518384,"current_range_meters":20000,"station_id":"ce4bht12rcd13ifvqi60","pricing_plan_id":"free"},{"bike_id":"fc59079e-5199-4fd5-ba77-f84ed1d5976f","system_id":"levelo_inurba_marseille","lat":43.316517,"lon":5.404375,"is_reserved":false,"is_disabled":false,"rental_uris":{"android":"levelo://app?vid=fc59079e-5199-4fd5-ba77-f84ed1d5976f","ios":"levelo://app?vid=fc59079e-5199-4fd5-ba77-f84ed1d5976f"},"vehicle_type_id":"4","last_reported":1678518384,"current_range_meters":7200,"station_id":"ce4bh012rcd13ifvqd00","pricing_plan_id":"free"},{"bike_id":"47e5cddd-ec01-4410-9768-35ffa5e6144a","system_id":"levelo_inurba_marseille","lat":43.284534,"lon":5.358662,"is_reserved":false,"is_disabled":false,"rental_uris":{"android":"levelo://app?vid=47e5cddd-ec01-4410-9768-35ffa5e6144a","ios":"levelo://app?vid=47e5cddd-ec01-4410-9768-35ffa5e6144a"},"vehicle_type_id":"4","last_reported":1678518384,"current_range_meters":22800,"station_id":"ce4bhah2rcd13ifvqei0","pricing_plan_id":"free"},{"bike_id":"1bc146f2-9f4f-4dd0-b898-fb0fd61bcd25","system_id":"levelo_inurba_marseille","lat":43.286722,"lon":5.386647,"is_reserved":false,"is_disabled":false,"rental_uris":{"android":"levelo://app?vid=1bc146f2-9f4f-4dd0-b898-fb0fd61bcd25","ios":"levelo://app?vid=1bc146f2-9f4f-4dd0-b898-fb0fd61bcd25"},"vehicle_type_id":"4","last_reported":1678518384,"current_range_meters":0,"station_id":"","pricing_plan_id":"free"},{"bike_id":"34db8165-18fd-4d84-8ac6-2508d299276d","system_id":"levelo_inurba_marseille","lat":43.32232,"lon":5.40635,"is_reserved":false,"is_disabled":false,"rental_uris":{"android":"levelo://app?vid=34db8165-18fd-4d84-8ac6-2508d299276d","ios":"levelo://app?vid=34db8165-18fd-4d84-8ac6-2508d299276d"},"vehicle_type_id":"4","last_reported":1678518384,"current_range_meters":0,"station_id":"","pricing_plan_id":"free"},{"bike_id":"855f6a2d-ee69-481f-9bb7-ffde94010762","system_id":"levelo_inurba_marseille","lat":43.336837,"lon":5.392117,"is_reserved":false,"is_disabled":false,"rental_uris":{"android":"levelo://app?vid=855f6a2d-ee69-481f-9bb7-ffde94010762","ios":"levelo://app?vid=855f6a2d-ee69-481f-9bb7-ffde94010762"},"vehicle_type_id":"4","last_reported":1678518384,"current_range_meters":22000,"station_id":"","pricing_plan_id":"free"},{"bike_id":"5653e0aa-0ad5-4ace-b52b-0e96b57ad81c","system_id":"levelo_inurba_marseille","lat":43.337168,"lon":5.391825,"is_reserved":false,"is_disabled":false,"rental_uris":{"android":"levelo://app?vid=5653e0aa-0ad5-4ace-b52b-0e96b57ad81c","ios":"levelo://app?vid=5653e0aa-0ad5-4ace-b52b-0e96b57ad81c"},"vehicle_type_id":"4","last_reported":1678518384,"current_range_meters":5600,"station_id":"ce4bhr92rcd13ifvqhsg","pricing_plan_id":"free"},{"bike_id":"76847b6d-11ba-4923-bbdd-3a1229493e58","system_id":"levelo_inurba_marseille","lat":43.337168,"lon":5.391825,"is_reserved":false,"is_disabled":false,"rental_uris":{"android":"levelo://app?vid=76847b6d-11ba-4923-bbdd-3a1229493e58","ios":"levelo://app?vid=76847b6d-11ba-4923-bbdd-3a1229493e58"},"vehicle_type_id":"4","last_reported":1678518384,"current_range_meters":24800,"station_id":"ce4bhr92rcd13ifvqhsg","pricing_plan_id":"free"},{"bike_id":"212360a1-057e-42ae-85fb-8bd672ebdeea","system_id":"levelo_inurba_marseille","lat":43.33717,"lon":5.391857,"is_reserved":false,"is_disabled":false,"rental_uris":{"android":"levelo://app?vid=212360a1-057e-42ae-85fb-8bd672ebdeea","ios":"levelo://app?vid=212360a1-057e-42ae-85fb-8bd672ebdeea"},"vehicle_type_id":"4","last_reported":1678518384,"current_range_meters":26400,"station_id":"ce4bhr92rcd13ifvqhsg","pricing_plan_id":"free"},{"bike_id":"7fe7ded2-595f-4c37-a50b-7f9a866a9b94","system_id":"levelo_inurba_marseille","lat":43.32338,"lon":5.4062,"is_reserved":false,"is_disabled":false,"rental_uris":{"android":"levelo://app?vid=7fe7ded2-595f-4c37-a50b-7f9a866a9b94","ios":"levelo://app?vid=7fe7ded2-595f-4c37-a50b-7f9a866a9b94"},"vehicle_type_id":"4","last_reported":1678518384,"current_range_meters":9600,"station_id":"","pricing_plan_id":"free"},{"bike_id":"2f587577-e724-4d6c-b766-df0c92c3d293","system_id":"levelo_inurba_marseille","lat":43.323417,"lon":5.406201,"is_reserved":false,"is_disabled":false,"rental_uris":{"android":"levelo://app?vid=2f587577-e724-4d6c-b766-df0c92c3d293","ios":"levelo://app?vid=2f587577-e724-4d6c-b766-df0c92c3d293"},"vehicle_type_id":"4","last_reported":1678518384,"current_range_meters":0,"station_id":"ce4bhq92rcd13ifvqhjg","pricing_plan_id":"free"},{"bike_id":"5a028cab-55c5-4177-95ec-493669e3c30d","system_id":"levelo_inurba_marseille","lat":43.323343,"lon":5.40624,"is_reserved":false,"is_disabled":false,"rental_uris":{"android":"levelo://app?vid=5a028cab-55c5-4177-95ec-493669e3c30d","ios":"levelo://app?vid=5a028cab-55c5-4177-95ec-493669e3c30d"},"vehicle_type_id":"4","last_reported":1678518384,"current_range_meters":20000,"station_id":"ce4bhq92rcd13ifvqhjg","pricing_plan_id":"free"},{"bike_id":"9f00a16a-14f0-41e0-b020-55e96a55cc34","system_id":"levelo_inurba_marseille","lat":43.323406,"lon":5.406213,"is_reserved":false,"is_disabled":false,"rental_uris":{"android":"levelo://app?vid=9f00a16a-14f0-41e0-b020-55e96a55cc34","ios":"levelo://app?vid=9f00a16a-14f0-41e0-b020-55e96a55cc34"},"vehicle_type_id":"4","last_reported":1678518384,"current_range_meters":0,"station_id":"","pricing_plan_id":"free"},{"bike_id":"83576488-5cf5-4240-ace4-45d28f16adbc","system_id":"levelo_inurba_marseille","lat":43.33717,"lon":5.391857,"is_reserved":false,"is_disabled":false,"rental_uris":{"android":"levelo://app?vid=83576488-5cf5-4240-ace4-45d28f16adbc","ios":"levelo://app?vid=83576488-5cf5-4240-ace4-45d28f16adbc"},"vehicle_type_id":"4","last_reported":1678518384,"current_range_meters":13600,"station_id":"ce4bhr92rcd13ifvqhsg","pricing_plan_id":"free"},{"bike_id":"99d42e2f-1279-49e5-a569-52cda2cf6225","system_id":"levelo_inurba_marseille","lat":43.284784,"lon":5.384073,"is_reserved":false,"is_disabled":false,"rental_uris":{"android":"levelo://app?vid=99d42e2f-1279-49e5-a569-52cda2cf6225","ios":"levelo://app?vid=99d42e2f-1279-49e5-a569-52cda2cf6225"},"vehicle_type_id":"4","last_reported":1678518384,"current_range_meters":0,"station_id":"","pricing_plan_id":"free"},{"bike_id":"4bf0ee98-7e42-46e5-b67c-0fcc3509f320","system_id":"levelo_inurba_marseille","lat":43.28479,"lon":5.38421,"is_reserved":false,"is_disabled":false,"rental_uris":{"android":"levelo://app?vid=4bf0ee98-7e42-46e5-b67c-0fcc3509f320","ios":"levelo://app?vid=4bf0ee98-7e42-46e5-b67c-0fcc3509f320"},"vehicle_type_id":"4","last_reported":1678518384,"current_range_meters":0,"station_id":"ce4bh512rcd13ifvqe3g","pricing_plan_id":"free"},{"bike_id":"e6f5dfa3-c39b-4e3d-b675-63203dfa2e88","system_id":"levelo_inurba_marseille","lat":43.284215,"lon":5.349865,"is_reserved":false,"is_disabled":false,"rental_uris":{"android":"levelo://app?vid=e6f5dfa3-c39b-4e3d-b675-63203dfa2e88","ios":"levelo://app?vid=e6f5dfa3-c39b-4e3d-b675-63203dfa2e88"},"vehicle_type_id":"4","last_reported":1678518384,"current_range_meters":17600,"station_id":"ce4bhbh2rcd13ifvqepg","pricing_plan_id":"free"},{"bike_id":"b4238959-3a09-4895-b423-5773306c3b9d","system_id":"levelo_inurba_marseille","lat":43.33935,"lon":5.39097,"is_reserved":false,"is_disabled":false,"rental_uris":{"android":"levelo://app?vid=b4238959-3a09-4895-b423-5773306c3b9d","ios":"levelo://app?vid=b4238959-3a09-4895-b423-5773306c3b9d"},"vehicle_type_id":"4","last_reported":1678518384,"current_range_meters":0,"station_id":"","pricing_plan_id":"free"},{"bike_id":"f6d9b3da-2c23-4af4-b2ac-a5dcad82b1d8","system_id":"levelo_inurba_marseille","lat":43.292745,"lon":5.401288,"is_reserved":false,"is_disabled":false,"rental_uris":{"android":"levelo://app?vid=f6d9b3da-2c23-4af4-b2ac-a5dcad82b1d8","ios":"levelo://app?vid=f6d9b3da-2c23-4af4-b2ac-a5dcad82b1d8"},"vehicle_type_id":"4","last_reported":1678518384,"current_range_meters":0,"station_id":"ce4bh312rcd13ifvqdk0","pricing_plan_id":"free"},{"bike_id":"f0468949-7d7d-4f10-b654-18e596612e65","system_id":"levelo_inurba_marseille","lat":43.28274,"lon":5.35071,"is_reserved":false,"is_disabled":false,"rental_uris":{"android":"levelo://app?vid=f0468949-7d7d-4f10-b654-18e596612e65","ios":"levelo://app?vid=f0468949-7d7d-4f10-b654-18e596612e65"},"vehicle_type_id":"4","last_reported":1678518384,"current_range_meters":5600,"station_id":"ce4bhbp2rcd13ifvqerg","pricing_plan_id":"free"},{"bike_id":"fe7f1471-c91b-403e-9da6-6d380f9dd521","system_id":"levelo_inurba_marseille","lat":43.282675,"lon":5.350695,"is_reserved":false,"is_disabled":false,"rental_uris":{"android":"levelo://app?vid=fe7f1471-c91b-403e-9da6-6d380f9dd521","ios":"levelo://app?vid=fe7f1471-c91b-403e-9da6-6d380f9dd521"},"vehicle_type_id":"4","last_reported":1678518384,"current_range_meters":25200,"station_id":"ce4bhbp2rcd13ifvqerg","pricing_plan_id":"free"},{"bike_id":"4800e604-5311-44cb-8fcd-bdc598ce6e1c","system_id":"levelo_inurba_marseille","lat":43.29041,"lon":5.399634,"is_reserved":false,"is_disabled":false,"rental_uris":{"android":"levelo://app?vid=4800e604-5311-44cb-8fcd-bdc598ce6e1c","ios":"levelo://app?vid=4800e604-5311-44cb-8fcd-bdc598ce6e1c"},"vehicle_type_id":"4","last_reported":1678518384,"current_range_meters":25200,"station_id":"ce4bh392rcd13ifvqdm0","pricing_plan_id":"free"},{"bike_id":"0616eb3c-6309-43fb-8747-979e80305e6e","system_id":"levelo_inurba_marseille","lat":43.29041,"lon":5.399634,"is_reserved":false,"is_disabled":false,"rental_uris":{"android":"levelo://app?vid=0616eb3c-6309-43fb-8747-979e80305e6e","ios":"levelo://app?vid=0616eb3c-6309-43fb-8747-979e80305e6e"},"vehicle_type_id":"4","last_reported":1678518384,"current_range_meters":27200,"station_id":"ce4bh392rcd13ifvqdm0","pricing_plan_id":"free"},{"bike_id":"05836b75-698b-443c-9981-0cd429b7e6e8","system_id":"levelo_inurba_marseille","lat":43.281044,"lon":5.378308,"is_reserved":false,"is_disabled":false,"rental_uris":{"android":"levelo://app?vid=05836b75-698b-443c-9981-0cd429b7e6e8","ios":"levelo://app?vid=05836b75-698b-443c-9981-0cd429b7e6e8"},"vehicle_type_id":"4","last_reported":1678518384,"current_range_meters":21200,"station_id":"ce4bha12rcd13ifvqee0","pricing_plan_id":"free"},{"bike_id":"5cc598de-02d4-4a86-839a-e4495669f057","system_id":"levelo_inurba_marseille","lat":43.296263,"lon":5.40601,"is_reserved":false,"is_disabled":false,"rental_uris":{"android":"levelo://app?vid=5cc598de-02d4-4a86-839a-e4495669f057","ios":"levelo://app?vid=5cc598de-02d4-4a86-839a-e4495669f057"},"vehicle_type_id":"4","last_reported":1678518384,"current_range_meters":27200,"station_id":"ce4bh0h2rcd13ifvqd60","pricing_plan_id":"free"},{"bike_id":"dd009eab-93ac-4c41-951b-45c78eb95178","system_id":"levelo_inurba_marseille","lat":43.296342,"lon":5.405987,"is_reserved":false,"is_disabled":false,"rental_uris":{"android":"levelo://app?vid=dd009eab-93ac-4c41-951b-45c78eb95178","ios":"levelo://app?vid=dd009eab-93ac-4c41-951b-45c78eb95178"},"vehicle_type_id":"4","last_reported":1678518384,"current_range_meters":0,"station_id":"ce4bh0h2rcd13ifvqd60","pricing_plan_id":"free"},{"bike_id":"750dd95e-6ccd-4d4d-a56c-cbf4f19e574e","system_id":"levelo_inurba_marseille","lat":43.284462,"lon":5.392121,"is_reserved":false,"is_disabled":false,"rental_uris":{"android":"levelo://app?vid=750dd95e-6ccd-4d4d-a56c-cbf4f19e574e","ios":"levelo://app?vid=750dd95e-6ccd-4d4d-a56c-cbf4f19e574e"},"vehicle_type_id":"4","last_reported":1678518384,"current_range_meters":27200,"station_id":"ce4bhoh2rcd13ifvqh5g","pricing_plan_id":"free"},{"bike_id":"25aa8396-5aa4-4bb4-bccc-7770ab528d5a","system_id":"levelo_inurba_marseille","lat":43.284462,"lon":5.392121,"is_reserved":false,"is_disabled":false,"rental_uris":{"android":"levelo://app?vid=25aa8396-5aa4-4bb4-bccc-7770ab528d5a","ios":"levelo://app?vid=25aa8396-5aa4-4bb4-bccc-7770ab528d5a"},"vehicle_type_id":"4","last_reported":1678518384,"current_range_meters":24400,"station_id":"ce4bhoh2rcd13ifvqh5g","pricing_plan_id":"free"},{"bike_id":"869c97d5-c695-42ea-bba4-3f7d1af10af4","system_id":"levelo_inurba_marseille","lat":43.304188,"lon":5.412904,"is_reserved":false,"is_disabled":false,"rental_uris":{"android":"levelo://app?vid=869c97d5-c695-42ea-bba4-3f7d1af10af4","ios":"levelo://app?vid=869c97d5-c695-42ea-bba4-3f7d1af10af4"},"vehicle_type_id":"4","last_reported":1678518384,"current_range_meters":7200,"station_id":"ce4bhop2rcd13ifvqh8g","pricing_plan_id":"free"},{"bike_id":"56622679-4aa5-4c3b-880e-9f05510d3a85","system_id":"levelo_inurba_marseille","lat":43.287154,"lon":5.399979,"is_reserved":false,"is_disabled":false,"rental_uris":{"android":"levelo://app?vid=56622679-4aa5-4c3b-880e-9f05510d3a85","ios":"levelo://app?vid=56622679-4aa5-4c3b-880e-9f05510d3a85"},"vehicle_type_id":"4","last_reported":1678518384,"current_range_meters":12400,"station_id":"ce4bho92rcd13ifvqh3g","pricing_plan_id":"free"},{"bike_id":"cebe5a59-83b1-4d10-97c4-028082486beb","system_id":"levelo_inurba_marseille","lat":43.287154,"lon":5.399979,"is_reserved":false,"is_disabled":false,"rental_uris":{"android":"levelo://app?vid=cebe5a59-83b1-4d10-97c4-028082486beb","ios":"levelo://app?vid=cebe5a59-83b1-4d10-97c4-028082486beb"},"vehicle_type_id":"4","last_reported":1678518384,"current_range_meters":31600,"station_id":"ce4bho92rcd13ifvqh3g","pricing_plan_id":"free"},{"bike_id":"a256a991-6761-4a24-917f-1585d6ba6f4b","system_id":"levelo_inurba_marseille","lat":43.286789,"lon":5.399988,"is_reserved":false,"is_disabled":false,"rental_uris":{"android":"levelo://app?vid=a256a991-6761-4a24-917f-1585d6ba6f4b","ios":"levelo://app?vid=a256a991-6761-4a24-917f-1585d6ba6f4b"},"vehicle_type_id":"4","last_reported":1678518384,"current_range_meters":4400,"station_id":"","pricing_plan_id":"free"},{"bike_id":"e736322b-db1a-4bd8-bea1-662a7464c523","system_id":"levelo_inurba_marseille","lat":43.286416,"lon":5.399555,"is_reserved":false,"is_disabled":false,"rental_uris":{"android":"levelo://app?vid=e736322b-db1a-4bd8-bea1-662a7464c523","ios":"levelo://app?vid=e736322b-db1a-4bd8-bea1-662a7464c523"},"vehicle_type_id":"4","last_reported":1678518384,"current_range_meters":0,"station_id":"","pricing_plan_id":"free"},{"bike_id":"9398ed13-19f9-4818-8990-e991eea7c425","system_id":"levelo_inurba_marseille","lat":43.32536,"lon":5.41256,"is_reserved":false,"is_disabled":false,"rental_uris":{"android":"levelo://app?vid=9398ed13-19f9-4818-8990-e991eea7c425","ios":"levelo://app?vid=9398ed13-19f9-4818-8990-e991eea7c425"},"vehicle_type_id":"4","last_reported":1678518384,"current_range_meters":0,"station_id":"","pricing_plan_id":"free"},{"bike_id":"384738c8-15f4-4cd6-9823-dd993f723780","system_id":"levelo_inurba_marseille","lat":43.320473,"lon":5.415557,"is_reserved":false,"is_disabled":false,"rental_uris":{"android":"levelo://app?vid=384738c8-15f4-4cd6-9823-dd993f723780","ios":"levelo://app?vid=384738c8-15f4-4cd6-9823-dd993f723780"},"vehicle_type_id":"4","last_reported":1678518384,"current_range_meters":0,"station_id":"","pricing_plan_id":"free"},{"bike_id":"59c46839-dd24-4ebe-94c6-061050f55faa","system_id":"levelo_inurba_marseille","lat":43.292569,"lon":5.409107,"is_reserved":false,"is_disabled":false,"rental_uris":{"android":"levelo://app?vid=59c46839-dd24-4ebe-94c6-061050f55faa","ios":"levelo://app?vid=59c46839-dd24-4ebe-94c6-061050f55faa"},"vehicle_type_id":"4","last_reported":1678518384,"current_range_meters":5600,"station_id":"ce4bh192rcd13ifvqdc0","pricing_plan_id":"free"},{"bike_id":"c6d56050-88c0-4bd7-9c4f-0d27b66c6541","system_id":"levelo_inurba_marseille","lat":43.292569,"lon":5.409107,"is_reserved":false,"is_disabled":false,"rental_uris":{"android":"levelo://app?vid=c6d56050-88c0-4bd7-9c4f-0d27b66c6541","ios":"levelo://app?vid=c6d56050-88c0-4bd7-9c4f-0d27b66c6541"},"vehicle_type_id":"4","last_reported":1678518384,"current_range_meters":26400,"station_id":"ce4bh192rcd13ifvqdc0","pricing_plan_id":"free"},{"bike_id":"ebe3df30-7bf7-424d-be83-3d62590e7c14","system_id":"levelo_inurba_marseille","lat":43.292569,"lon":5.409107,"is_reserved":false,"is_disabled":false,"rental_uris":{"android":"levelo://app?vid=ebe3df30-7bf7-424d-be83-3d62590e7c14","ios":"levelo://app?vid=ebe3df30-7bf7-424d-be83-3d62590e7c14"},"vehicle_type_id":"4","last_reported":1678518384,"current_range_meters":14400,"station_id":"ce4bh192rcd13ifvqdc0","pricing_plan_id":"free"},{"bike_id":"f449bbbd-bfc1-4b96-909e-560210d0a9b3","system_id":"levelo_inurba_marseille","lat":43.27618,"lon":5.361009,"is_reserved":false,"is_disabled":false,"rental_uris":{"android":"levelo://app?vid=f449bbbd-bfc1-4b96-909e-560210d0a9b3","ios":"levelo://app?vid=f449bbbd-bfc1-4b96-909e-560210d0a9b3"},"vehicle_type_id":"4","last_reported":1678518384,"current_range_meters":12400,"station_id":"ce4bgj92rcd13ifvqbe0","pricing_plan_id":"free"},{"bike_id":"b148287a-8782-42ac-bd38-a943485090f5","system_id":"levelo_inurba_marseille","lat":43.27618,"lon":5.361009,"is_reserved":false,"is_disabled":false,"rental_uris":{"android":"levelo://app?vid=b148287a-8782-42ac-bd38-a943485090f5","ios":"levelo://app?vid=b148287a-8782-42ac-bd38-a943485090f5"},"vehicle_type_id":"4","last_reported":1678518384,"current_range_meters":4400,"station_id":"ce4bgj92rcd13ifvqbe0","pricing_plan_id":"free"},{"bike_id":"76c009d3-d68d-40ef-9f50-72c3556e8400","system_id":"levelo_inurba_marseille","lat":43.33612,"lon":5.410321,"is_reserved":false,"is_disabled":false,"rental_uris":{"android":"levelo://app?vid=76c009d3-d68d-40ef-9f50-72c3556e8400","ios":"levelo://app?vid=76c009d3-d68d-40ef-9f50-72c3556e8400"},"vehicle_type_id":"4","last_reported":1678518384,"current_range_meters":27600,"station_id":"ce4bhqh2rcd13ifvqhmg","pricing_plan_id":"free"},{"bike_id":"d15870ce-a9d9-4e00-9bf4-acf0ebdfe9c7","system_id":"levelo_inurba_marseille","lat":43.33612,"lon":5.410321,"is_reserved":false,"is_disabled":false,"rental_uris":{"android":"levelo://app?vid=d15870ce-a9d9-4e00-9bf4-acf0ebdfe9c7","ios":"levelo://app?vid=d15870ce-a9d9-4e00-9bf4-acf0ebdfe9c7"},"vehicle_type_id":"4","last_reported":1678518384,"current_range_meters":13200,"station_id":"ce4bhqh2rcd13ifvqhmg","pricing_plan_id":"free"},{"bike_id":"4cb86ed4-a9ae-400a-ad0e-144ba0300a80","system_id":"levelo_inurba_marseille","lat":43.33612,"lon":5.410321,"is_reserved":false,"is_disabled":false,"rental_uris":{"android":"levelo://app?vid=4cb86ed4-a9ae-400a-ad0e-144ba0300a80","ios":"levelo://app?vid=4cb86ed4-a9ae-400a-ad0e-144ba0300a80"},"vehicle_type_id":"4","last_reported":1678518384,"current_range_meters":27600,"station_id":"ce4bhqh2rcd13ifvqhmg","pricing_plan_id":"free"},{"bike_id":"4693c25b-9b18-491c-9945-8d9b6180ae9f","system_id":"levelo_inurba_marseille","lat":43.33612,"lon":5.410321,"is_reserved":false,"is_disabled":false,"rental_uris":{"android":"levelo://app?vid=4693c25b-9b18-491c-9945-8d9b6180ae9f","ios":"levelo://app?vid=4693c25b-9b18-491c-9945-8d9b6180ae9f"},"vehicle_type_id":"4","last_reported":1678518384,"current_range_meters":26000,"station_id":"ce4bhqh2rcd13ifvqhmg","pricing_plan_id":"free"},{"bike_id":"d8ee8fb5-0f04-44b2-a85e-67decd8c0010","system_id":"levelo_inurba_marseille","lat":43.33612,"lon":5.410321,"is_reserved":false,"is_disabled":false,"rental_uris":{"android":"levelo://app?vid=d8ee8fb5-0f04-44b2-a85e-67decd8c0010","ios":"levelo://app?vid=d8ee8fb5-0f04-44b2-a85e-67decd8c0010"},"vehicle_type_id":"4","last_reported":1678518384,"current_range_meters":20800,"station_id":"ce4bhqh2rcd13ifvqhmg","pricing_plan_id":"free"},{"bike_id":"7e286d1f-b858-419e-b0c3-adef1b4d895d","system_id":"levelo_inurba_marseille","lat":43.273613,"lon":5.362705,"is_reserved":false,"is_disabled":false,"rental_uris":{"android":"levelo://app?vid=7e286d1f-b858-419e-b0c3-adef1b4d895d","ios":"levelo://app?vid=7e286d1f-b858-419e-b0c3-adef1b4d895d"},"vehicle_type_id":"4","last_reported":1678518384,"current_range_meters":19200,"station_id":"ce4bhbh2rcd13ifvqeo0","pricing_plan_id":"free"},{"bike_id":"7d3a1e4b-58a6-4494-a80c-8c4f4ef04af8","system_id":"levelo_inurba_marseille","lat":43.33612,"lon":5.410321,"is_reserved":false,"is_disabled":false,"rental_uris":{"android":"levelo://app?vid=7d3a1e4b-58a6-4494-a80c-8c4f4ef04af8","ios":"levelo://app?vid=7d3a1e4b-58a6-4494-a80c-8c4f4ef04af8"},"vehicle_type_id":"4","last_reported":1678518384,"current_range_meters":27200,"station_id":"ce4bhqh2rcd13ifvqhmg","pricing_plan_id":"free"},{"bike_id":"cc25412d-692f-472d-8dc6-c0bdca783751","system_id":"levelo_inurba_marseille","lat":43.336148,"lon":5.410349,"is_reserved":false,"is_disabled":false,"rental_uris":{"android":"levelo://app?vid=cc25412d-692f-472d-8dc6-c0bdca783751","ios":"levelo://app?vid=cc25412d-692f-472d-8dc6-c0bdca783751"},"vehicle_type_id":"4","last_reported":1678518384,"current_range_meters":22000,"station_id":"ce4bhqh2rcd13ifvqhmg","pricing_plan_id":"free"},{"bike_id":"15c09e9d-7e57-486f-8afa-2a479ff732d2","system_id":"levelo_inurba_marseille","lat":43.336134,"lon":5.410341,"is_reserved":false,"is_disabled":false,"rental_uris":{"android":"levelo://app?vid=15c09e9d-7e57-486f-8afa-2a479ff732d2","ios":"levelo://app?vid=15c09e9d-7e57-486f-8afa-2a479ff732d2"},"vehicle_type_id":"4","last_reported":1678518384,"current_range_meters":27200,"station_id":"ce4bhqh2rcd13ifvqhmg","pricing_plan_id":"free"},{"bike_id":"4321ece3-93bb-430d-a40d-c8319fcf3b50","system_id":"levelo_inurba_marseille","lat":43.336148,"lon":5.410349,"is_reserved":false,"is_disabled":false,"rental_uris":{"android":"levelo://app?vid=4321ece3-93bb-430d-a40d-c8319fcf3b50","ios":"levelo://app?vid=4321ece3-93bb-430d-a40d-c8319fcf3b50"},"vehicle_type_id":"4","last_reported":1678518384,"current_range_meters":22400,"station_id":"ce4bhqh2rcd13ifvqhmg","pricing_plan_id":"free"},{"bike_id":"d0dbd069-bf22-4df8-b15c-1f2f60538f33","system_id":"levelo_inurba_marseille","lat":43.33612,"lon":5.410321,"is_reserved":false,"is_disabled":false,"rental_uris":{"android":"levelo://app?vid=d0dbd069-bf22-4df8-b15c-1f2f60538f33","ios":"levelo://app?vid=d0dbd069-bf22-4df8-b15c-1f2f60538f33"},"vehicle_type_id":"4","last_reported":1678518384,"current_range_meters":18000,"station_id":"ce4bhqh2rcd13ifvqhmg","pricing_plan_id":"free"},{"bike_id":"a28aa652-2fd7-4c75-81e1-9e734eb8c0d3","system_id":"levelo_inurba_marseille","lat":43.33612,"lon":5.410321,"is_reserved":false,"is_disabled":false,"rental_uris":{"android":"levelo://app?vid=a28aa652-2fd7-4c75-81e1-9e734eb8c0d3","ios":"levelo://app?vid=a28aa652-2fd7-4c75-81e1-9e734eb8c0d3"},"vehicle_type_id":"4","last_reported":1678518384,"current_range_meters":21600,"station_id":"ce4bhqh2rcd13ifvqhmg","pricing_plan_id":"free"},{"bike_id":"9125830e-f968-4976-a4a0-cbfa76a7fd96","system_id":"levelo_inurba_marseille","lat":43.33612,"lon":5.410321,"is_reserved":false,"is_disabled":false,"rental_uris":{"android":"levelo://app?vid=9125830e-f968-4976-a4a0-cbfa76a7fd96","ios":"levelo://app?vid=9125830e-f968-4976-a4a0-cbfa76a7fd96"},"vehicle_type_id":"4","last_reported":1678518384,"current_range_meters":5200,"station_id":"ce4bhqh2rcd13ifvqhmg","pricing_plan_id":"free"},{"bike_id":"79a6d6f7-9848-4c28-9755-9126a2d1ef53","system_id":"levelo_inurba_marseille","lat":43.336032,"lon":5.410354,"is_reserved":false,"is_disabled":false,"rental_uris":{"android":"levelo://app?vid=79a6d6f7-9848-4c28-9755-9126a2d1ef53","ios":"levelo://app?vid=79a6d6f7-9848-4c28-9755-9126a2d1ef53"},"vehicle_type_id":"4","last_reported":1678518384,"current_range_meters":24800,"station_id":"","pricing_plan_id":"free"},{"bike_id":"be6321f3-6439-48bc-b19b-90a05fe235b7","system_id":"levelo_inurba_marseille","lat":43.33612,"lon":5.410321,"is_reserved":false,"is_disabled":false,"rental_uris":{"android":"levelo://app?vid=be6321f3-6439-48bc-b19b-90a05fe235b7","ios":"levelo://app?vid=be6321f3-6439-48bc-b19b-90a05fe235b7"},"vehicle_type_id":"4","last_reported":1678518384,"current_range_meters":31600,"station_id":"ce4bhqh2rcd13ifvqhmg","pricing_plan_id":"free"},{"bike_id":"ea9082ca-9453-4eee-ba32-5187a8e8d3c2","system_id":"levelo_inurba_marseille","lat":43.336148,"lon":5.410349,"is_reserved":false,"is_disabled":false,"rental_uris":{"android":"levelo://app?vid=ea9082ca-9453-4eee-ba32-5187a8e8d3c2","ios":"levelo://app?vid=ea9082ca-9453-4eee-ba32-5187a8e8d3c2"},"vehicle_type_id":"4","last_reported":1678518384,"current_range_meters":28000,"station_id":"ce4bhqh2rcd13ifvqhmg","pricing_plan_id":"free"},{"bike_id":"58988db0-4fd6-420e-b2e5-e4ccdf258bc5","system_id":"levelo_inurba_marseille","lat":43.336134,"lon":5.410341,"is_reserved":false,"is_disabled":false,"rental_uris":{"android":"levelo://app?vid=58988db0-4fd6-420e-b2e5-e4ccdf258bc5","ios":"levelo://app?vid=58988db0-4fd6-420e-b2e5-e4ccdf258bc5"},"vehicle_type_id":"4","last_reported":1678518384,"current_range_meters":12800,"station_id":"ce4bhqh2rcd13ifvqhmg","pricing_plan_id":"free"},{"bike_id":"39244527-13b0-4387-881a-0b995a7a76b4","system_id":"levelo_inurba_marseille","lat":43.33612,"lon":5.410321,"is_reserved":false,"is_disabled":false,"rental_uris":{"android":"levelo://app?vid=39244527-13b0-4387-881a-0b995a7a76b4","ios":"levelo://app?vid=39244527-13b0-4387-881a-0b995a7a76b4"},"vehicle_type_id":"4","last_reported":1678518384,"current_range_meters":31600,"station_id":"ce4bhqh2rcd13ifvqhmg","pricing_plan_id":"free"},{"bike_id":"720320c0-03db-40f5-8299-6481008059a9","system_id":"levelo_inurba_marseille","lat":43.336049,"lon":5.410374,"is_reserved":false,"is_disabled":false,"rental_uris":{"android":"levelo://app?vid=720320c0-03db-40f5-8299-6481008059a9","ios":"levelo://app?vid=720320c0-03db-40f5-8299-6481008059a9"},"vehicle_type_id":"4","last_reported":1678518384,"current_range_meters":20000,"station_id":"","pricing_plan_id":"free"},{"bike_id":"a048064c-fef9-4616-af3e-1124450e4e07","system_id":"levelo_inurba_marseille","lat":43.336134,"lon":5.410341,"is_reserved":false,"is_disabled":false,"rental_uris":{"android":"levelo://app?vid=a048064c-fef9-4616-af3e-1124450e4e07","ios":"levelo://app?vid=a048064c-fef9-4616-af3e-1124450e4e07"},"vehicle_type_id":"4","last_reported":1678518384,"current_range_meters":6400,"station_id":"ce4bhqh2rcd13ifvqhmg","pricing_plan_id":"free"},{"bike_id":"533e0495-8be8-4a76-b1bd-d50c4070bd86","system_id":"levelo_inurba_marseille","lat":43.336148,"lon":5.410349,"is_reserved":false,"is_disabled":false,"rental_uris":{"android":"levelo://app?vid=533e0495-8be8-4a76-b1bd-d50c4070bd86","ios":"levelo://app?vid=533e0495-8be8-4a76-b1bd-d50c4070bd86"},"vehicle_type_id":"4","last_reported":1678518384,"current_range_meters":22800,"station_id":"ce4bhqh2rcd13ifvqhmg","pricing_plan_id":"free"},{"bike_id":"e8a41a3d-de80-47e0-91a9-bf7b54906bd7","system_id":"levelo_inurba_marseille","lat":43.336134,"lon":5.410341,"is_reserved":false,"is_disabled":false,"rental_uris":{"android":"levelo://app?vid=e8a41a3d-de80-47e0-91a9-bf7b54906bd7","ios":"levelo://app?vid=e8a41a3d-de80-47e0-91a9-bf7b54906bd7"},"vehicle_type_id":"4","last_reported":1678518384,"current_range_meters":29200,"station_id":"ce4bhqh2rcd13ifvqhmg","pricing_plan_id":"free"},{"bike_id":"0f279910-81ea-459b-9d8b-0e275b1faea5","system_id":"levelo_inurba_marseille","lat":43.336148,"lon":5.410349,"is_reserved":false,"is_disabled":false,"rental_uris":{"android":"levelo://app?vid=0f279910-81ea-459b-9d8b-0e275b1faea5","ios":"levelo://app?vid=0f279910-81ea-459b-9d8b-0e275b1faea5"},"vehicle_type_id":"4","last_reported":1678518384,"current_range_meters":28400,"station_id":"ce4bhqh2rcd13ifvqhmg","pricing_plan_id":"free"},{"bike_id":"488f2244-24b5-439d-bc48-012149bf92a7","system_id":"levelo_inurba_marseille","lat":43.276771,"lon":5.388799,"is_reserved":false,"is_disabled":false,"rental_uris":{"android":"levelo://app?vid=488f2244-24b5-439d-bc48-012149bf92a7","ios":"levelo://app?vid=488f2244-24b5-439d-bc48-012149bf92a7"},"vehicle_type_id":"4","last_reported":1678518384,"current_range_meters":26400,"station_id":"ce4bhi12rcd13ifvqfo0","pricing_plan_id":"free"},{"bike_id":"c2afb409-944d-4e1b-9337-120f19d4c18a","system_id":"levelo_inurba_marseille","lat":43.336148,"lon":5.410349,"is_reserved":false,"is_disabled":false,"rental_uris":{"android":"levelo://app?vid=c2afb409-944d-4e1b-9337-120f19d4c18a","ios":"levelo://app?vid=c2afb409-944d-4e1b-9337-120f19d4c18a"},"vehicle_type_id":"4","last_reported":1678518384,"current_range_meters":31600,"station_id":"ce4bhqh2rcd13ifvqhmg","pricing_plan_id":"free"},{"bike_id":"108cf4da-c9b3-4fa5-b1fa-f26a91083459","system_id":"levelo_inurba_marseille","lat":43.284127,"lon":5.404777,"is_reserved":false,"is_disabled":false,"rental_uris":{"android":"levelo://app?vid=108cf4da-c9b3-4fa5-b1fa-f26a91083459","ios":"levelo://app?vid=108cf4da-c9b3-4fa5-b1fa-f26a91083459"},"vehicle_type_id":"4","last_reported":1678518384,"current_range_meters":0,"station_id":"","pricing_plan_id":"free"},{"bike_id":"a6f4d4aa-b86b-4a82-959f-f638bb04222e","system_id":"levelo_inurba_marseille","lat":43.317121,"lon":5.423936,"is_reserved":false,"is_disabled":false,"rental_uris":{"android":"levelo://app?vid=a6f4d4aa-b86b-4a82-959f-f638bb04222e","ios":"levelo://app?vid=a6f4d4aa-b86b-4a82-959f-f638bb04222e"},"vehicle_type_id":"4","last_reported":1678518384,"current_range_meters":28400,"station_id":"ce4bhp92rcd13ifvqhbg","pricing_plan_id":"free"},{"bike_id":"9ac8d4da-2756-4d73-8e59-8a17440fc647","system_id":"levelo_inurba_marseille","lat":43.310785,"lon":5.424305,"is_reserved":false,"is_disabled":false,"rental_uris":{"android":"levelo://app?vid=9ac8d4da-2756-4d73-8e59-8a17440fc647","ios":"levelo://app?vid=9ac8d4da-2756-4d73-8e59-8a17440fc647"},"vehicle_type_id":"4","last_reported":1678518384,"current_range_meters":28000,"station_id":"ce4bhp92rcd13ifvqhag","pricing_plan_id":"free"},{"bike_id":"acd36f05-faa5-41e4-9b31-8e070f99f479","system_id":"levelo_inurba_marseille","lat":43.273196,"lon":5.390966,"is_reserved":false,"is_disabled":false,"rental_uris":{"android":"levelo://app?vid=acd36f05-faa5-41e4-9b31-8e070f99f479","ios":"levelo://app?vid=acd36f05-faa5-41e4-9b31-8e070f99f479"},"vehicle_type_id":"4","last_reported":1678518384,"current_range_meters":0,"station_id":"ce4bhgp2rcd13ifvqfe0","pricing_plan_id":"free"},{"bike_id":"020eba2f-d1a4-4d45-824e-0f34fcc7b33f","system_id":"levelo_inurba_marseille","lat":43.304212,"lon":5.425682,"is_reserved":false,"is_disabled":false,"rental_uris":{"android":"levelo://app?vid=020eba2f-d1a4-4d45-824e-0f34fcc7b33f","ios":"levelo://app?vid=020eba2f-d1a4-4d45-824e-0f34fcc7b33f"},"vehicle_type_id":"4","last_reported":1678518384,"current_range_meters":0,"station_id":"","pricing_plan_id":"free"},{"bike_id":"051167c5-ba34-4bb2-b82a-ee76985d3c8f","system_id":"levelo_inurba_marseille","lat":43.295523,"lon":5.422926,"is_reserved":false,"is_disabled":false,"rental_uris":{"android":"levelo://app?vid=051167c5-ba34-4bb2-b82a-ee76985d3c8f","ios":"levelo://app?vid=051167c5-ba34-4bb2-b82a-ee76985d3c8f"},"vehicle_type_id":"4","last_reported":1678518384,"current_range_meters":800,"station_id":"ce4bhph2rcd13ifvqhdg","pricing_plan_id":"free"},{"bike_id":"a1ce4b81-c91f-45f7-a836-a256a3bd9e6c","system_id":"levelo_inurba_marseille","lat":43.29554,"lon":5.42293,"is_reserved":false,"is_disabled":false,"rental_uris":{"android":"levelo://app?vid=a1ce4b81-c91f-45f7-a836-a256a3bd9e6c","ios":"levelo://app?vid=a1ce4b81-c91f-45f7-a836-a256a3bd9e6c"},"vehicle_type_id":"4","last_reported":1678518384,"current_range_meters":15200,"station_id":"","pricing_plan_id":"free"},{"bike_id":"39337329-b7a4-4c94-a7e8-2cc23da4b715","system_id":"levelo_inurba_marseille","lat":43.2721,"lon":5.391904,"is_reserved":false,"is_disabled":false,"rental_uris":{"android":"levelo://app?vid=39337329-b7a4-4c94-a7e8-2cc23da4b715","ios":"levelo://app?vid=39337329-b7a4-4c94-a7e8-2cc23da4b715"},"vehicle_type_id":"4","last_reported":1678518384,"current_range_meters":0,"station_id":"ce4bhhp2rcd13ifvqfm0","pricing_plan_id":"free"},{"bike_id":"d516144e-50bc-4d1c-bdfe-5bbff6a49ff2","system_id":"levelo_inurba_marseille","lat":43.278128,"lon":5.407195,"is_reserved":false,"is_disabled":false,"rental_uris":{"android":"levelo://app?vid=d516144e-50bc-4d1c-bdfe-5bbff6a49ff2","ios":"levelo://app?vid=d516144e-50bc-4d1c-bdfe-5bbff6a49ff2"},"vehicle_type_id":"4","last_reported":1678518384,"current_range_meters":14400,"station_id":"ce4bhnh2rcd13ifvqgtg","pricing_plan_id":"free"},{"bike_id":"0cff9179-d54c-4313-a179-9c551bfc4242","system_id":"levelo_inurba_marseille","lat":43.278128,"lon":5.407195,"is_reserved":false,"is_disabled":false,"rental_uris":{"android":"levelo://app?vid=0cff9179-d54c-4313-a179-9c551bfc4242","ios":"levelo://app?vid=0cff9179-d54c-4313-a179-9c551bfc4242"},"vehicle_type_id":"4","last_reported":1678518384,"current_range_meters":20000,"station_id":"ce4bhnh2rcd13ifvqgtg","pricing_plan_id":"free"},{"bike_id":"74a32209-f9e1-4fe4-9802-4f88b77f2749","system_id":"levelo_inurba_marseille","lat":43.269483,"lon":5.386303,"is_reserved":false,"is_disabled":false,"rental_uris":{"android":"levelo://app?vid=74a32209-f9e1-4fe4-9802-4f88b77f2749","ios":"levelo://app?vid=74a32209-f9e1-4fe4-9802-4f88b77f2749"},"vehicle_type_id":"4","last_reported":1678518384,"current_range_meters":0,"station_id":"ce4bhh92rcd13ifvqfh0","pricing_plan_id":"free"},{"bike_id":"341ccb8e-86ee-4505-9039-a2d702693ff5","system_id":"levelo_inurba_marseille","lat":43.26681,"lon":5.382694,"is_reserved":false,"is_disabled":false,"rental_uris":{"android":"levelo://app?vid=341ccb8e-86ee-4505-9039-a2d702693ff5","ios":"levelo://app?vid=341ccb8e-86ee-4505-9039-a2d702693ff5"},"vehicle_type_id":"4","last_reported":1678518384,"current_range_meters":24800,"station_id":"ce4bhg92rcd13ifvqf90","pricing_plan_id":"free"},{"bike_id":"318b2021-f329-4ffd-b700-38187619351e","system_id":"levelo_inurba_marseille","lat":43.265714,"lon":5.372891,"is_reserved":false,"is_disabled":false,"rental_uris":{"android":"levelo://app?vid=318b2021-f329-4ffd-b700-38187619351e","ios":"levelo://app?vid=318b2021-f329-4ffd-b700-38187619351e"},"vehicle_type_id":"4","last_reported":1678518384,"current_range_meters":14800,"station_id":"ce4bhg12rcd13ifvqf70","pricing_plan_id":"free"},{"bike_id":"bb40a4f5-af35-4129-8ad3-0e5efec2a217","system_id":"levelo_inurba_marseille","lat":43.27998,"lon":5.41659,"is_reserved":false,"is_disabled":false,"rental_uris":{"android":"levelo://app?vid=bb40a4f5-af35-4129-8ad3-0e5efec2a217","ios":"levelo://app?vid=bb40a4f5-af35-4129-8ad3-0e5efec2a217"},"vehicle_type_id":"4","last_reported":1678518384,"current_range_meters":0,"station_id":"ce4bho12rcd13ifvqh1g","pricing_plan_id":"free"},{"bike_id":"0a5db62a-c574-425b-8813-955522bed17f","system_id":"levelo_inurba_marseille","lat":43.27996,"lon":5.416624,"is_reserved":false,"is_disabled":false,"rental_uris":{"android":"levelo://app?vid=0a5db62a-c574-425b-8813-955522bed17f","ios":"levelo://app?vid=0a5db62a-c574-425b-8813-955522bed17f"},"vehicle_type_id":"4","last_reported":1678518384,"current_range_meters":16800,"station_id":"ce4bho12rcd13ifvqh1g","pricing_plan_id":"free"},{"bike_id":"a692bc2d-0ca2-42f8-b395-96eb1eee9d24","system_id":"levelo_inurba_marseille","lat":43.267966,"lon":5.393976,"is_reserved":false,"is_disabled":false,"rental_uris":{"android":"levelo://app?vid=a692bc2d-0ca2-42f8-b395-96eb1eee9d24","ios":"levelo://app?vid=a692bc2d-0ca2-42f8-b395-96eb1eee9d24"},"vehicle_type_id":"4","last_reported":1678518384,"current_range_meters":400,"station_id":"ce4bhh12rcd13ifvqfg0","pricing_plan_id":"free"},{"bike_id":"0ab93931-c38c-443b-9bc6-ef7e0b99f074","system_id":"levelo_inurba_marseille","lat":43.26784,"lon":5.39415,"is_reserved":false,"is_disabled":false,"rental_uris":{"android":"levelo://app?vid=0ab93931-c38c-443b-9bc6-ef7e0b99f074","ios":"levelo://app?vid=0ab93931-c38c-443b-9bc6-ef7e0b99f074"},"vehicle_type_id":"4","last_reported":1678518384,"current_range_meters":28000,"station_id":"ce4bhh12rcd13ifvqfg0","pricing_plan_id":"free"},{"bike_id":"6b78e286-d9d3-4b66-aae3-7bdbd0be0fe2","system_id":"levelo_inurba_marseille","lat":43.267966,"lon":5.393976,"is_reserved":false,"is_disabled":false,"rental_uris":{"android":"levelo://app?vid=6b78e286-d9d3-4b66-aae3-7bdbd0be0fe2","ios":"levelo://app?vid=6b78e286-d9d3-4b66-aae3-7bdbd0be0fe2"},"vehicle_type_id":"4","last_reported":1678518384,"current_range_meters":27600,"station_id":"ce4bhh12rcd13ifvqfg0","pricing_plan_id":"free"},{"bike_id":"5b85d3a6-477e-41f6-b110-c4821528c650","system_id":"levelo_inurba_marseille","lat":43.265571,"lon":5.390032,"is_reserved":false,"is_disabled":false,"rental_uris":{"android":"levelo://app?vid=5b85d3a6-477e-41f6-b110-c4821528c650","ios":"levelo://app?vid=5b85d3a6-477e-41f6-b110-c4821528c650"},"vehicle_type_id":"4","last_reported":1678518384,"current_range_meters":26000,"station_id":"ce4bhe12rcd13ifvqf30","pricing_plan_id":"free"},{"bike_id":"3176b8ac-1430-43db-91ed-175287cfdca7","system_id":"levelo_inurba_marseille","lat":43.255756,"lon":5.382303,"is_reserved":false,"is_disabled":false,"rental_uris":{"android":"levelo://app?vid=3176b8ac-1430-43db-91ed-175287cfdca7","ios":"levelo://app?vid=3176b8ac-1430-43db-91ed-175287cfdca7"},"vehicle_type_id":"4","last_reported":1678518384,"current_range_meters":29600,"station_id":"ce4bhih2rcd13ifvqfs0","pricing_plan_id":"free"},{"bike_id":"87acb91e-c072-43d9-91ff-7378a77455be","system_id":"levelo_inurba_marseille","lat":43.261782,"lon":5.374515,"is_reserved":false,"is_disabled":false,"rental_uris":{"android":"levelo://app?vid=87acb91e-c072-43d9-91ff-7378a77455be","ios":"levelo://app?vid=87acb91e-c072-43d9-91ff-7378a77455be"},"vehicle_type_id":"4","last_reported":1678518384,"current_range_meters":27200,"station_id":"ce4bhgp2rcd13ifvqfc0","pricing_plan_id":"free"},{"bike_id":"baef7425-0320-41d5-b13e-3593090530e3","system_id":"levelo_inurba_marseille","lat":43.317104,"lon":5.436818,"is_reserved":false,"is_disabled":false,"rental_uris":{"android":"levelo://app?vid=baef7425-0320-41d5-b13e-3593090530e3","ios":"levelo://app?vid=baef7425-0320-41d5-b13e-3593090530e3"},"vehicle_type_id":"4","last_reported":1678518384,"current_range_meters":7600,"station_id":"ce4bhp92rcd13ifvqhcg","pricing_plan_id":"free"},{"bike_id":"006c90bb-c507-462a-8593-8a0b6f92db1a","system_id":"levelo_inurba_marseille","lat":43.262032,"lon":5.379247,"is_reserved":false,"is_disabled":false,"rental_uris":{"android":"levelo://app?vid=006c90bb-c507-462a-8593-8a0b6f92db1a","ios":"levelo://app?vid=006c90bb-c507-462a-8593-8a0b6f92db1a"},"vehicle_type_id":"4","last_reported":1678518384,"current_range_meters":0,"station_id":"ce4bhjp2rcd13ifvqg90","pricing_plan_id":"free"},{"bike_id":"2631181a-c916-4d83-9a1b-770562d2f14b","system_id":"levelo_inurba_marseille","lat":43.268104,"lon":5.402621,"is_reserved":false,"is_disabled":false,"rental_uris":{"android":"levelo://app?vid=2631181a-c916-4d83-9a1b-770562d2f14b","ios":"levelo://app?vid=2631181a-c916-4d83-9a1b-770562d2f14b"},"vehicle_type_id":"4","last_reported":1678518384,"current_range_meters":21200,"station_id":"ce501612rcd8frsf0b60","pricing_plan_id":"free"},{"bike_id":"3af7c201-b203-4084-a985-379f8a14fcb7","system_id":"levelo_inurba_marseille","lat":43.31571,"lon":5.4378,"is_reserved":false,"is_disabled":false,"rental_uris":{"android":"levelo://app?vid=3af7c201-b203-4084-a985-379f8a14fcb7","ios":"levelo://app?vid=3af7c201-b203-4084-a985-379f8a14fcb7"},"vehicle_type_id":"4","last_reported":1678518384,"current_range_meters":0,"station_id":"","pricing_plan_id":"free"},{"bike_id":"22794cb9-7240-43a4-ae86-8c739f127966","system_id":"levelo_inurba_marseille","lat":43.268083,"lon":5.402617,"is_reserved":false,"is_disabled":false,"rental_uris":{"android":"levelo://app?vid=22794cb9-7240-43a4-ae86-8c739f127966","ios":"levelo://app?vid=22794cb9-7240-43a4-ae86-8c739f127966"},"vehicle_type_id":"4","last_reported":1678518384,"current_range_meters":10000,"station_id":"ce501612rcd8frsf0b60","pricing_plan_id":"free"},{"bike_id":"cb99e19e-0f56-4f5f-8f60-1eb106af3d87","system_id":"levelo_inurba_marseille","lat":43.267959,"lon":5.402687,"is_reserved":false,"is_disabled":false,"rental_uris":{"android":"levelo://app?vid=cb99e19e-0f56-4f5f-8f60-1eb106af3d87","ios":"levelo://app?vid=cb99e19e-0f56-4f5f-8f60-1eb106af3d87"},