{"last_updated":1687104460,"ttl":30,"version":"2.2","data":{"bikes":[{"bike_id":"a88e865f-24f9-4ff4-8b32-e37f2709c22a","system_id":"levelo_inurba_marseille","lat":43.31485,"lon":5.3731,"is_reserved":false,"is_disabled":false,"rental_uris":{"android":"levelo://app?vid=a88e865f-24f9-4ff4-8b32-e37f2709c22a","ios":"levelo://app?vid=a88e865f-24f9-4ff4-8b32-e37f2709c22a"},"vehicle_type_id":"4","last_reported":1687104461,"current_range_meters":24000,"station_id":"ce4bgt12rcd13ifvqcd0","pricing_plan_id":"free"},{"bike_id":"951dd2bd-069a-4407-aafe-22c96da0e074","system_id":"levelo_inurba_marseille","lat":43.30552,"lon":5.3654,"is_reserved":false,"is_disabled":false,"rental_uris":{"android":"levelo://app?vid=951dd2bd-069a-4407-aafe-22c96da0e074","ios":"levelo://app?vid=951dd2bd-069a-4407-aafe-22c96da0e074"},"vehicle_type_id":"4","last_reported":1687104461,"current_range_meters":18400,"station_id":"ce4bgs12rcd13ifvqcag","pricing_plan_id":"free"},{"bike_id":"4ca7f845-b43c-4e43-9568-89c8abe9cc6b","system_id":"levelo_inurba_marseille","lat":43.305368,"lon":5.367343,"is_reserved":false,"is_disabled":false,"rental_uris":{"android":"levelo://app?vid=4ca7f845-b43c-4e43-9568-89c8abe9cc6b","ios":"levelo://app?vid=4ca7f845-b43c-4e43-9568-89c8abe9cc6b"},"vehicle_type_id":"4","last_reported":1687104461,"current_range_meters":800,"station_id":"ce4bgrp2rcd13ifvqc9g","pricing_plan_id":"free"},{"bike_id":"2424216c-0462-4ad0-b127-d0366c91b61c","system_id":"levelo_inurba_marseille","lat":43.31699,"lon":5.37674,"is_reserved":false,"is_disabled":false,"rental_uris":{"android":"levelo://app?vid=2424216c-0462-4ad0-b127-d0366c91b61c","ios":"levelo://app?vid=2424216c-0462-4ad0-b127-d0366c91b61c"},"vehicle_type_id":"4","last_reported":1687104461,"current_range_meters":28000,"station_id":"","pricing_plan_id":"free"},{"bike_id":"03c63a22-5af4-4731-b58c-68faf2f7a292","system_id":"levelo_inurba_marseille","lat":43.31856,"lon":5.37568,"is_reserved":false,"is_disabled":false,"rental_uris":{"android":"levelo://app?vid=03c63a22-5af4-4731-b58c-68faf2f7a292","ios":"levelo://app?vid=03c63a22-5af4-4731-b58c-68faf2f7a292"},"vehicle_type_id":"4","last_reported":1687104461,"current_range_meters":28400,"station_id":"","pricing_plan_id":"free"},{"bike_id":"3d134815-7892-44b1-ad92-2056818ca615","system_id":"levelo_inurba_marseille","lat":43.317075,"lon":5.377367,"is_reserved":false,"is_disabled":false,"rental_uris":{"android":"levelo://app?vid=3d134815-7892-44b1-ad92-2056818ca615","ios":"levelo://app?vid=3d134815-7892-44b1-ad92-2056818ca615"},"vehicle_type_id":"4","last_reported":1687104461,"current_range_meters":18800,"station_id":"ce4bgth2rcd13ifvqch0","pricing_plan_id":"free"},{"bike_id":"1e7f34c0-6b6a-4604-b77c-211ec7910ecb","system_id":"levelo_inurba_marseille","lat":43.303046,"lon":5.368981,"is_reserved":false,"is_disabled":false,"rental_uris":{"android":"levelo://app?vid=1e7f34c0-6b6a-4604-b77c-211ec7910ecb","ios":"levelo://app?vid=1e7f34c0-6b6a-4604-b77c-211ec7910ecb"},"vehicle_type_id":"4","last_reported":1687104461,"current_range_meters":23600,"station_id":"ce4bgqh2rcd13ifvqc5g","pricing_plan_id":"free"},{"bike_id":"8d51db3c-ddf0-4868-a42f-0868b9c8ed86","system_id":"levelo_inurba_marseille","lat":43.31526,"lon":5.38046,"is_reserved":false,"is_disabled":false,"rental_uris":{"android":"levelo://app?vid=8d51db3c-ddf0-4868-a42f-0868b9c8ed86","ios":"levelo://app?vid=8d51db3c-ddf0-4868-a42f-0868b9c8ed86"},"vehicle_type_id":"4","last_reported":1687104461,"current_range_meters":29200,"station_id":"ce4bhsp2rcd13ifvqi50","pricing_plan_id":"free"},{"bike_id":"cada2054-cd0b-4ffd-b35d-70e3683fc5a7","system_id":"levelo_inurba_marseille","lat":43.31534,"lon":5.38045,"is_reserved":false,"is_disabled":false,"rental_uris":{"android":"levelo://app?vid=cada2054-cd0b-4ffd-b35d-70e3683fc5a7","ios":"levelo://app?vid=cada2054-cd0b-4ffd-b35d-70e3683fc5a7"},"vehicle_type_id":"4","last_reported":1687104461,"current_range_meters":28800,"station_id":"ce4bhsp2rcd13ifvqi50","pricing_plan_id":"free"},{"bike_id":"ae33307b-fcd5-479b-9ae1-9002ed226c6e","system_id":"levelo_inurba_marseille","lat":43.308012,"lon":5.381511,"is_reserved":false,"is_disabled":false,"rental_uris":{"android":"levelo://app?vid=ae33307b-fcd5-479b-9ae1-9002ed226c6e","ios":"levelo://app?vid=ae33307b-fcd5-479b-9ae1-9002ed226c6e"},"vehicle_type_id":"4","last_reported":1687104461,"current_range_meters":29200,"station_id":"ce4bgt12rcd13ifvqce0","pricing_plan_id":"free"},{"bike_id":"43fc693e-f2a9-4aec-8fd9-d094bb02cb70","system_id":"levelo_inurba_marseille","lat":43.304606,"lon":5.379026,"is_reserved":false,"is_disabled":false,"rental_uris":{"android":"levelo://app?vid=43fc693e-f2a9-4aec-8fd9-d094bb02cb70","ios":"levelo://app?vid=43fc693e-f2a9-4aec-8fd9-d094bb02cb70"},"vehicle_type_id":"4","last_reported":1687104461,"current_range_meters":16800,"station_id":"ce4bgup2rcd13ifvqcn0","pricing_plan_id":"free"},{"bike_id":"cf39030c-13cd-4234-8fe4-4c1cb2929f23","system_id":"levelo_inurba_marseille","lat":43.313571,"lon":5.384829,"is_reserved":false,"is_disabled":false,"rental_uris":{"android":"levelo://app?vid=cf39030c-13cd-4234-8fe4-4c1cb2929f23","ios":"levelo://app?vid=cf39030c-13cd-4234-8fe4-4c1cb2929f23"},"vehicle_type_id":"4","last_reported":1687104461,"current_range_meters":20400,"station_id":"ce4bgt92rcd13ifvqcf0","pricing_plan_id":"free"},{"bike_id":"fc023601-dfb9-4698-b8f4-545de98d6829","system_id":"levelo_inurba_marseille","lat":43.313571,"lon":5.384829,"is_reserved":false,"is_disabled":false,"rental_uris":{"android":"levelo://app?vid=fc023601-dfb9-4698-b8f4-545de98d6829","ios":"levelo://app?vid=fc023601-dfb9-4698-b8f4-545de98d6829"},"vehicle_type_id":"4","last_reported":1687104461,"current_range_meters":24000,"station_id":"ce4bgt92rcd13ifvqcf0","pricing_plan_id":"free"},{"bike_id":"1d47b2e2-b6b2-467e-89b2-30c2b3dd988b","system_id":"levelo_inurba_marseille","lat":43.31369,"lon":5.38519,"is_reserved":false,"is_disabled":false,"rental_uris":{"android":"levelo://app?vid=1d47b2e2-b6b2-467e-89b2-30c2b3dd988b","ios":"levelo://app?vid=1d47b2e2-b6b2-467e-89b2-30c2b3dd988b"},"vehicle_type_id":"4","last_reported":1687104461,"current_range_meters":11200,"station_id":"","pricing_plan_id":"free"},{"bike_id":"330412da-b9eb-49fa-9ba0-9288ee9ddd31","system_id":"levelo_inurba_marseille","lat":43.3005,"lon":5.37526,"is_reserved":false,"is_disabled":false,"rental_uris":{"android":"levelo://app?vid=330412da-b9eb-49fa-9ba0-9288ee9ddd31","ios":"levelo://app?vid=330412da-b9eb-49fa-9ba0-9288ee9ddd31"},"vehicle_type_id":"4","last_reported":1687104461,"current_range_meters":14400,"station_id":"","pricing_plan_id":"free"},{"bike_id":"26de6171-9838-47bd-824f-0ba55469082e","system_id":"levelo_inurba_marseille","lat":43.328371,"lon":5.366909,"is_reserved":false,"is_disabled":false,"rental_uris":{"android":"levelo://app?vid=26de6171-9838-47bd-824f-0ba55469082e","ios":"levelo://app?vid=26de6171-9838-47bd-824f-0ba55469082e"},"vehicle_type_id":"4","last_reported":1687104461,"current_range_meters":22000,"station_id":"ce4bhs92rcd13ifvqi0g","pricing_plan_id":"free"},{"bike_id":"3b343a5c-8423-476a-a7c8-83278a85a66d","system_id":"levelo_inurba_marseille","lat":43.328371,"lon":5.366909,"is_reserved":false,"is_disabled":false,"rental_uris":{"android":"levelo://app?vid=3b343a5c-8423-476a-a7c8-83278a85a66d","ios":"levelo://app?vid=3b343a5c-8423-476a-a7c8-83278a85a66d"},"vehicle_type_id":"4","last_reported":1687104461,"current_range_meters":29600,"station_id":"ce4bhs92rcd13ifvqi0g","pricing_plan_id":"free"},{"bike_id":"6d5ccf33-759a-4c7a-af82-9f67388b4177","system_id":"levelo_inurba_marseille","lat":43.328371,"lon":5.366909,"is_reserved":false,"is_disabled":false,"rental_uris":{"android":"levelo://app?vid=6d5ccf33-759a-4c7a-af82-9f67388b4177","ios":"levelo://app?vid=6d5ccf33-759a-4c7a-af82-9f67388b4177"},"vehicle_type_id":"4","last_reported":1687104461,"current_range_meters":30400,"station_id":"ce4bhs92rcd13ifvqi0g","pricing_plan_id":"free"},{"bike_id":"c4c82479-60a6-4390-8970-3229e3eebb9c","system_id":"levelo_inurba_marseille","lat":43.328371,"lon":5.366909,"is_reserved":false,"is_disabled":false,"rental_uris":{"android":"levelo://app?vid=c4c82479-60a6-4390-8970-3229e3eebb9c","ios":"levelo://app?vid=c4c82479-60a6-4390-8970-3229e3eebb9c"},"vehicle_type_id":"4","last_reported":1687104461,"current_range_meters":18800,"station_id":"ce4bhs92rcd13ifvqi0g","pricing_plan_id":"free"},{"bike_id":"69bf5c29-7e5d-45c7-b1b2-514d42707ee7","system_id":"levelo_inurba_marseille","lat":43.328371,"lon":5.366909,"is_reserved":false,"is_disabled":false,"rental_uris":{"android":"levelo://app?vid=69bf5c29-7e5d-45c7-b1b2-514d42707ee7","ios":"levelo://app?vid=69bf5c29-7e5d-45c7-b1b2-514d42707ee7"},"vehicle_type_id":"4","last_reported":1687104461,"current_range_meters":30400,"station_id":"ce4bhs92rcd13ifvqi0g","pricing_plan_id":"free"},{"bike_id":"78911849-321a-41c5-b67b-eefecdab885b","system_id":"levelo_inurba_marseille","lat":43.328371,"lon":5.366909,"is_reserved":false,"is_disabled":false,"rental_uris":{"android":"levelo://app?vid=78911849-321a-41c5-b67b-eefecdab885b","ios":"levelo://app?vid=78911849-321a-41c5-b67b-eefecdab885b"},"vehicle_type_id":"4","last_reported":1687104461,"current_range_meters":12800,"station_id":"ce4bhs92rcd13ifvqi0g","pricing_plan_id":"free"},{"bike_id":"01003604-ca83-4a0f-a050-81143b6da389","system_id":"levelo_inurba_marseille","lat":43.32831,"lon":5.36673,"is_reserved":false,"is_disabled":false,"rental_uris":{"android":"levelo://app?vid=01003604-ca83-4a0f-a050-81143b6da389","ios":"levelo://app?vid=01003604-ca83-4a0f-a050-81143b6da389"},"vehicle_type_id":"4","last_reported":1687104461,"current_range_meters":31200,"station_id":"ce4bhs92rcd13ifvqi0g","pricing_plan_id":"free"},{"bike_id":"eb463cab-b54c-4ed2-a710-d6d777606789","system_id":"levelo_inurba_marseille","lat":43.32832,"lon":5.36685,"is_reserved":false,"is_disabled":false,"rental_uris":{"android":"levelo://app?vid=eb463cab-b54c-4ed2-a710-d6d777606789","ios":"levelo://app?vid=eb463cab-b54c-4ed2-a710-d6d777606789"},"vehicle_type_id":"4","last_reported":1687104461,"current_range_meters":17200,"station_id":"ce4bhs92rcd13ifvqi0g","pricing_plan_id":"free"},{"bike_id":"9e60ff88-fe04-4b70-9af4-05a83fe316c7","system_id":"levelo_inurba_marseille","lat":43.32833,"lon":5.36683,"is_reserved":false,"is_disabled":false,"rental_uris":{"android":"levelo://app?vid=9e60ff88-fe04-4b70-9af4-05a83fe316c7","ios":"levelo://app?vid=9e60ff88-fe04-4b70-9af4-05a83fe316c7"},"vehicle_type_id":"4","last_reported":1687104461,"current_range_meters":28800,"station_id":"ce4bhs92rcd13ifvqi0g","pricing_plan_id":"free"},{"bike_id":"27e857a0-6074-435d-85c0-7fc3761f1cbb","system_id":"levelo_inurba_marseille","lat":43.328371,"lon":5.366909,"is_reserved":false,"is_disabled":false,"rental_uris":{"android":"levelo://app?vid=27e857a0-6074-435d-85c0-7fc3761f1cbb","ios":"levelo://app?vid=27e857a0-6074-435d-85c0-7fc3761f1cbb"},"vehicle_type_id":"4","last_reported":1687104461,"current_range_meters":30000,"station_id":"ce4bhs92rcd13ifvqi0g","pricing_plan_id":"free"},{"bike_id":"731cce5d-c725-402d-b941-54910a08f036","system_id":"levelo_inurba_marseille","lat":43.32834,"lon":5.36688,"is_reserved":false,"is_disabled":false,"rental_uris":{"android":"levelo://app?vid=731cce5d-c725-402d-b941-54910a08f036","ios":"levelo://app?vid=731cce5d-c725-402d-b941-54910a08f036"},"vehicle_type_id":"4","last_reported":1687104461,"current_range_meters":29600,"station_id":"ce4bhs92rcd13ifvqi0g","pricing_plan_id":"free"},{"bike_id":"7305d8d9-7d56-41c2-ae77-869303774f4d","system_id":"levelo_inurba_marseille","lat":43.328371,"lon":5.366909,"is_reserved":false,"is_disabled":false,"rental_uris":{"android":"levelo://app?vid=7305d8d9-7d56-41c2-ae77-869303774f4d","ios":"levelo://app?vid=7305d8d9-7d56-41c2-ae77-869303774f4d"},"vehicle_type_id":"4","last_reported":1687104461,"current_range_meters":15200,"station_id":"ce4bhs92rcd13ifvqi0g","pricing_plan_id":"free"},{"bike_id":"dba9e30e-a749-43fa-a75b-51b691339771","system_id":"levelo_inurba_marseille","lat":43.328371,"lon":5.366909,"is_reserved":false,"is_disabled":false,"rental_uris":{"android":"levelo://app?vid=dba9e30e-a749-43fa-a75b-51b691339771","ios":"levelo://app?vid=dba9e30e-a749-43fa-a75b-51b691339771"},"vehicle_type_id":"4","last_reported":1687104461,"current_range_meters":30400,"station_id":"ce4bhs92rcd13ifvqi0g","pricing_plan_id":"free"},{"bike_id":"176f4894-d7fc-460e-aa5d-7c8c1e206dc3","system_id":"levelo_inurba_marseille","lat":43.297163,"lon":5.365866,"is_reserved":false,"is_disabled":false,"rental_uris":{"android":"levelo://app?vid=176f4894-d7fc-460e-aa5d-7c8c1e206dc3","ios":"levelo://app?vid=176f4894-d7fc-460e-aa5d-7c8c1e206dc3"},"vehicle_type_id":"4","last_reported":1687104461,"current_range_meters":10400,"station_id":"ce4bgn12rcd13ifvqbt0","pricing_plan_id":"free"},{"bike_id":"88d0330c-5bb0-4a19-9b65-d4683b42e015","system_id":"levelo_inurba_marseille","lat":43.29683,"lon":5.36046,"is_reserved":false,"is_disabled":false,"rental_uris":{"android":"levelo://app?vid=88d0330c-5bb0-4a19-9b65-d4683b42e015","ios":"levelo://app?vid=88d0330c-5bb0-4a19-9b65-d4683b42e015"},"vehicle_type_id":"4","last_reported":1687104461,"current_range_meters":2000,"station_id":"","pricing_plan_id":"free"},{"bike_id":"24f41ca5-b432-4feb-a0c8-a15026b97306","system_id":"levelo_inurba_marseille","lat":43.296131,"lon":5.370773,"is_reserved":false,"is_disabled":false,"rental_uris":{"android":"levelo://app?vid=24f41ca5-b432-4feb-a0c8-a15026b97306","ios":"levelo://app?vid=24f41ca5-b432-4feb-a0c8-a15026b97306"},"vehicle_type_id":"4","last_reported":1687104461,"current_range_meters":11600,"station_id":"ce4bgnh2rcd13ifvqc0g","pricing_plan_id":"free"},{"bike_id":"3deab824-2039-4505-b4de-e7ac2a16f104","system_id":"levelo_inurba_marseille","lat":43.309589,"lon":5.390258,"is_reserved":false,"is_disabled":false,"rental_uris":{"android":"levelo://app?vid=3deab824-2039-4505-b4de-e7ac2a16f104","ios":"levelo://app?vid=3deab824-2039-4505-b4de-e7ac2a16f104"},"vehicle_type_id":"4","last_reported":1687104461,"current_range_meters":14000,"station_id":"ce4bgup2rcd13ifvqco0","pricing_plan_id":"free"},{"bike_id":"5dae0913-090d-4c79-bcdb-c036d1ec191a","system_id":"levelo_inurba_marseille","lat":43.317557,"lon":5.390173,"is_reserved":false,"is_disabled":false,"rental_uris":{"android":"levelo://app?vid=5dae0913-090d-4c79-bcdb-c036d1ec191a","ios":"levelo://app?vid=5dae0913-090d-4c79-bcdb-c036d1ec191a"},"vehicle_type_id":"4","last_reported":1687104461,"current_range_meters":4800,"station_id":"ce4bhqp2rcd13ifvqhng","pricing_plan_id":"free"},{"bike_id":"dab115bf-1cab-4b8d-ad6a-67fda1d71234","system_id":"levelo_inurba_marseille","lat":43.317557,"lon":5.390173,"is_reserved":false,"is_disabled":false,"rental_uris":{"android":"levelo://app?vid=dab115bf-1cab-4b8d-ad6a-67fda1d71234","ios":"levelo://app?vid=dab115bf-1cab-4b8d-ad6a-67fda1d71234"},"vehicle_type_id":"4","last_reported":1687104461,"current_range_meters":23600,"station_id":"ce4bhqp2rcd13ifvqhng","pricing_plan_id":"free"},{"bike_id":"83f6075d-3e24-4cf1-a7cb-da5638440d94","system_id":"levelo_inurba_marseille","lat":43.31756,"lon":5.39022,"is_reserved":false,"is_disabled":false,"rental_uris":{"android":"levelo://app?vid=83f6075d-3e24-4cf1-a7cb-da5638440d94","ios":"levelo://app?vid=83f6075d-3e24-4cf1-a7cb-da5638440d94"},"vehicle_type_id":"4","last_reported":1687104461,"current_range_meters":19200,"station_id":"ce4bhqp2rcd13ifvqhng","pricing_plan_id":"free"},{"bike_id":"4a10882c-7152-4233-bc08-3e7673adbd38","system_id":"levelo_inurba_marseille","lat":43.31757,"lon":5.39026,"is_reserved":false,"is_disabled":false,"rental_uris":{"android":"levelo://app?vid=4a10882c-7152-4233-bc08-3e7673adbd38","ios":"levelo://app?vid=4a10882c-7152-4233-bc08-3e7673adbd38"},"vehicle_type_id":"4","last_reported":1687104461,"current_range_meters":24000,"station_id":"ce4bhqp2rcd13ifvqhng","pricing_plan_id":"free"},{"bike_id":"d89a6111-594c-4044-bab7-fa8ad5f81068","system_id":"levelo_inurba_marseille","lat":43.31756,"lon":5.39029,"is_reserved":false,"is_disabled":false,"rental_uris":{"android":"levelo://app?vid=d89a6111-594c-4044-bab7-fa8ad5f81068","ios":"levelo://app?vid=d89a6111-594c-4044-bab7-fa8ad5f81068"},"vehicle_type_id":"4","last_reported":1687104461,"current_range_meters":30000,"station_id":"ce4bhqp2rcd13ifvqhng","pricing_plan_id":"free"},{"bike_id":"250c8a96-8498-4211-b8f3-1b00a8d1fbaf","system_id":"levelo_inurba_marseille","lat":43.296477,"lon":5.37768,"is_reserved":false,"is_disabled":false,"rental_uris":{"android":"levelo://app?vid=250c8a96-8498-4211-b8f3-1b00a8d1fbaf","ios":"levelo://app?vid=250c8a96-8498-4211-b8f3-1b00a8d1fbaf"},"vehicle_type_id":"4","last_reported":1687104461,"current_range_meters":12400,"station_id":"","pricing_plan_id":"free"},{"bike_id":"eb56f040-d7e3-440c-9d05-82afe187dd21","system_id":"levelo_inurba_marseille","lat":43.299707,"lon":5.384859,"is_reserved":false,"is_disabled":false,"rental_uris":{"android":"levelo://app?vid=eb56f040-d7e3-440c-9d05-82afe187dd21","ios":"levelo://app?vid=eb56f040-d7e3-440c-9d05-82afe187dd21"},"vehicle_type_id":"4","last_reported":1687104461,"current_range_meters":28000,"station_id":"ce4bgj92rcd13ifvqbd0","pricing_plan_id":"free"},{"bike_id":"bb335696-9086-470f-9c5f-1244bc2e0b8f","system_id":"levelo_inurba_marseille","lat":43.299724,"lon":5.384848,"is_reserved":false,"is_disabled":false,"rental_uris":{"android":"levelo://app?vid=bb335696-9086-470f-9c5f-1244bc2e0b8f","ios":"levelo://app?vid=bb335696-9086-470f-9c5f-1244bc2e0b8f"},"vehicle_type_id":"4","last_reported":1687104461,"current_range_meters":27600,"station_id":"ce4bgj92rcd13ifvqbd0","pricing_plan_id":"free"},{"bike_id":"c25bbca6-334a-48c9-b2aa-c69eb97c9d81","system_id":"levelo_inurba_marseille","lat":43.32367,"lon":5.388836,"is_reserved":false,"is_disabled":false,"rental_uris":{"android":"levelo://app?vid=c25bbca6-334a-48c9-b2aa-c69eb97c9d81","ios":"levelo://app?vid=c25bbca6-334a-48c9-b2aa-c69eb97c9d81"},"vehicle_type_id":"4","last_reported":1687104461,"current_range_meters":29200,"station_id":"ce4bhqp2rcd13ifvqhog","pricing_plan_id":"free"},{"bike_id":"c93a17ef-3a68-4b2f-aed7-00c1fe88b00e","system_id":"levelo_inurba_marseille","lat":43.29276,"lon":5.3684,"is_reserved":false,"is_disabled":false,"rental_uris":{"android":"levelo://app?vid=c93a17ef-3a68-4b2f-aed7-00c1fe88b00e","ios":"levelo://app?vid=c93a17ef-3a68-4b2f-aed7-00c1fe88b00e"},"vehicle_type_id":"4","last_reported":1687104461,"current_range_meters":16000,"station_id":"ce4bhbp2rcd13ifvqesg","pricing_plan_id":"free"},{"bike_id":"5ac41e0f-9b23-4fe2-a938-4081ad7d5705","system_id":"levelo_inurba_marseille","lat":43.305994,"lon":5.393687,"is_reserved":false,"is_disabled":false,"rental_uris":{"android":"levelo://app?vid=5ac41e0f-9b23-4fe2-a938-4081ad7d5705","ios":"levelo://app?vid=5ac41e0f-9b23-4fe2-a938-4081ad7d5705"},"vehicle_type_id":"4","last_reported":1687104461,"current_range_meters":1600,"station_id":"ce4bh0p2rcd13ifvqd80","pricing_plan_id":"free"},{"bike_id":"b34a1332-00df-4cbd-ab61-8186ddce0fbd","system_id":"levelo_inurba_marseille","lat":43.292595,"lon":5.376369,"is_reserved":false,"is_disabled":false,"rental_uris":{"android":"levelo://app?vid=b34a1332-00df-4cbd-ab61-8186ddce0fbd","ios":"levelo://app?vid=b34a1332-00df-4cbd-ab61-8186ddce0fbd"},"vehicle_type_id":"4","last_reported":1687104461,"current_range_meters":18800,"station_id":"ce4bgi12rcd13ifvqb70","pricing_plan_id":"free"},{"bike_id":"da0597d0-f406-4aa6-9268-76d42b3b61fa","system_id":"levelo_inurba_marseille","lat":43.291675,"lon":5.371583,"is_reserved":false,"is_disabled":false,"rental_uris":{"android":"levelo://app?vid=da0597d0-f406-4aa6-9268-76d42b3b61fa","ios":"levelo://app?vid=da0597d0-f406-4aa6-9268-76d42b3b61fa"},"vehicle_type_id":"4","last_reported":1687104461,"current_range_meters":13600,"station_id":"ce4bha92rcd13ifvqeh0","pricing_plan_id":"free"},{"bike_id":"b6392973-7c29-4fd4-ac9f-871c507c4855","system_id":"levelo_inurba_marseille","lat":43.309038,"lon":5.396546,"is_reserved":false,"is_disabled":false,"rental_uris":{"android":"levelo://app?vid=b6392973-7c29-4fd4-ac9f-871c507c4855","ios":"levelo://app?vid=b6392973-7c29-4fd4-ac9f-871c507c4855"},"vehicle_type_id":"4","last_reported":1687104461,"current_range_meters":2400,"station_id":"ce4bh012rcd13ifvqcv0","pricing_plan_id":"free"},{"bike_id":"1378b5be-2f3b-42c7-8429-6a2cd520a381","system_id":"levelo_inurba_marseille","lat":43.290327,"lon":5.375711,"is_reserved":false,"is_disabled":false,"rental_uris":{"android":"levelo://app?vid=1378b5be-2f3b-42c7-8429-6a2cd520a381","ios":"levelo://app?vid=1378b5be-2f3b-42c7-8429-6a2cd520a381"},"vehicle_type_id":"4","last_reported":1687104461,"current_range_meters":25600,"station_id":"ce4bh692rcd13ifvqe90","pricing_plan_id":"free"},{"bike_id":"24407dea-b793-455c-9c56-6b20f6c9c2a1","system_id":"levelo_inurba_marseille","lat":43.29043,"lon":5.37583,"is_reserved":false,"is_disabled":false,"rental_uris":{"android":"levelo://app?vid=24407dea-b793-455c-9c56-6b20f6c9c2a1","ios":"levelo://app?vid=24407dea-b793-455c-9c56-6b20f6c9c2a1"},"vehicle_type_id":"4","last_reported":1687104461,"current_range_meters":1200,"station_id":"ce4bh692rcd13ifvqe90","pricing_plan_id":"free"},{"bike_id":"e395d320-e022-4b2a-a3be-03b415e0eafd","system_id":"levelo_inurba_marseille","lat":43.294162,"lon":5.386292,"is_reserved":false,"is_disabled":false,"rental_uris":{"android":"levelo://app?vid=e395d320-e022-4b2a-a3be-03b415e0eafd","ios":"levelo://app?vid=e395d320-e022-4b2a-a3be-03b415e0eafd"},"vehicle_type_id":"4","last_reported":1687104461,"current_range_meters":0,"station_id":"ce4bh2h2rcd13ifvqdh0","pricing_plan_id":"free"},{"bike_id":"6111b5b1-ba66-4943-bb84-233414ca6c2e","system_id":"levelo_inurba_marseille","lat":43.289468,"lon":5.363719,"is_reserved":false,"is_disabled":false,"rental_uris":{"android":"levelo://app?vid=6111b5b1-ba66-4943-bb84-233414ca6c2e","ios":"levelo://app?vid=6111b5b1-ba66-4943-bb84-233414ca6c2e"},"vehicle_type_id":"4","last_reported":1687104461,"current_range_meters":2000,"station_id":"ce4bhc92rcd13ifvqetg","pricing_plan_id":"free"},{"bike_id":"5bd93762-5af7-44c0-90c0-cb57721fa5bc","system_id":"levelo_inurba_marseille","lat":43.28935,"lon":5.36381,"is_reserved":false,"is_disabled":false,"rental_uris":{"android":"levelo://app?vid=5bd93762-5af7-44c0-90c0-cb57721fa5bc","ios":"levelo://app?vid=5bd93762-5af7-44c0-90c0-cb57721fa5bc"},"vehicle_type_id":"4","last_reported":1687104461,"current_range_meters":2400,"station_id":"ce4bhc92rcd13ifvqetg","pricing_plan_id":"free"},{"bike_id":"38eb09af-7166-42b9-865e-84246929498f","system_id":"levelo_inurba_marseille","lat":43.292644,"lon":5.384257,"is_reserved":false,"is_disabled":false,"rental_uris":{"android":"levelo://app?vid=38eb09af-7166-42b9-865e-84246929498f","ios":"levelo://app?vid=38eb09af-7166-42b9-865e-84246929498f"},"vehicle_type_id":"4","last_reported":1687104461,"current_range_meters":31200,"station_id":"ce4bh692rcd13ifvqea0","pricing_plan_id":"free"},{"bike_id":"bac68dd4-51b6-4825-b47e-4c6674cbfca8","system_id":"levelo_inurba_marseille","lat":43.292644,"lon":5.384257,"is_reserved":false,"is_disabled":false,"rental_uris":{"android":"levelo://app?vid=bac68dd4-51b6-4825-b47e-4c6674cbfca8","ios":"levelo://app?vid=bac68dd4-51b6-4825-b47e-4c6674cbfca8"},"vehicle_type_id":"4","last_reported":1687104461,"current_range_meters":28000,"station_id":"ce4bh692rcd13ifvqea0","pricing_plan_id":"free"},{"bike_id":"b9b44b37-7edf-4ab6-8685-17eb58a26dbc","system_id":"levelo_inurba_marseille","lat":43.295169,"lon":5.390426,"is_reserved":false,"is_disabled":false,"rental_uris":{"android":"levelo://app?vid=b9b44b37-7edf-4ab6-8685-17eb58a26dbc","ios":"levelo://app?vid=b9b44b37-7edf-4ab6-8685-17eb58a26dbc"},"vehicle_type_id":"4","last_reported":1687104461,"current_range_meters":30400,"station_id":"ce4bh3p2rcd13ifvqdp0","pricing_plan_id":"free"},{"bike_id":"d6dcd688-7162-438b-9b90-d51a3940c309","system_id":"levelo_inurba_marseille","lat":43.29023,"lon":5.38135,"is_reserved":false,"is_disabled":false,"rental_uris":{"android":"levelo://app?vid=d6dcd688-7162-438b-9b90-d51a3940c309","ios":"levelo://app?vid=d6dcd688-7162-438b-9b90-d51a3940c309"},"vehicle_type_id":"4","last_reported":1687104461,"current_range_meters":18000,"station_id":"ce4bh4p2rcd13ifvqe1g","pricing_plan_id":"free"},{"bike_id":"b9955f62-bfef-435b-bbd3-12cb62ebb18f","system_id":"levelo_inurba_marseille","lat":43.2901,"lon":5.381269,"is_reserved":false,"is_disabled":false,"rental_uris":{"android":"levelo://app?vid=b9955f62-bfef-435b-bbd3-12cb62ebb18f","ios":"levelo://app?vid=b9955f62-bfef-435b-bbd3-12cb62ebb18f"},"vehicle_type_id":"4","last_reported":1687104461,"current_range_meters":19200,"station_id":"ce4bh4p2rcd13ifvqe1g","pricing_plan_id":"free"},{"bike_id":"c0fb8083-e02d-4dec-b1b9-fa095e6c5b75","system_id":"levelo_inurba_marseille","lat":43.337396,"lon":5.374526,"is_reserved":false,"is_disabled":false,"rental_uris":{"android":"levelo://app?vid=c0fb8083-e02d-4dec-b1b9-fa095e6c5b75","ios":"levelo://app?vid=c0fb8083-e02d-4dec-b1b9-fa095e6c5b75"},"vehicle_type_id":"4","last_reported":1687104461,"current_range_meters":0,"station_id":"ce4bhp92rcd13ifvqhag","pricing_plan_id":"free"},{"bike_id":"41a8749b-6d93-4d1b-8e52-c5f60f65ae7c","system_id":"levelo_inurba_marseille","lat":43.33752,"lon":5.37443,"is_reserved":false,"is_disabled":false,"rental_uris":{"android":"levelo://app?vid=41a8749b-6d93-4d1b-8e52-c5f60f65ae7c","ios":"levelo://app?vid=41a8749b-6d93-4d1b-8e52-c5f60f65ae7c"},"vehicle_type_id":"4","last_reported":1687104461,"current_range_meters":26400,"station_id":"","pricing_plan_id":"free"},{"bike_id":"741b8a53-f4d5-43cd-959c-616cd6716127","system_id":"levelo_inurba_marseille","lat":43.286591,"lon":5.363346,"is_reserved":false,"is_disabled":false,"rental_uris":{"android":"levelo://app?vid=741b8a53-f4d5-43cd-959c-616cd6716127","ios":"levelo://app?vid=741b8a53-f4d5-43cd-959c-616cd6716127"},"vehicle_type_id":"4","last_reported":1687104461,"current_range_meters":14000,"station_id":"ce4bhah2rcd13ifvqej0","pricing_plan_id":"free"},{"bike_id":"aaebff4b-d708-4532-925e-fea60b3ed826","system_id":"levelo_inurba_marseille","lat":43.302759,"lon":5.400793,"is_reserved":false,"is_disabled":false,"rental_uris":{"android":"levelo://app?vid=aaebff4b-d708-4532-925e-fea60b3ed826","ios":"levelo://app?vid=aaebff4b-d708-4532-925e-fea60b3ed826"},"vehicle_type_id":"4","last_reported":1687104461,"current_range_meters":10800,"station_id":"ce4bgvh2rcd13ifvqcs0","pricing_plan_id":"free"},{"bike_id":"cc563f55-0707-4beb-ba02-588ef0da71a2","system_id":"levelo_inurba_marseille","lat":43.28599,"lon":5.37064,"is_reserved":false,"is_disabled":false,"rental_uris":{"android":"levelo://app?vid=cc563f55-0707-4beb-ba02-588ef0da71a2","ios":"levelo://app?vid=cc563f55-0707-4beb-ba02-588ef0da71a2"},"vehicle_type_id":"4","last_reported":1687104461,"current_range_meters":29600,"station_id":"","pricing_plan_id":"free"},{"bike_id":"fa434747-2702-48ef-9019-be635c63933c","system_id":"levelo_inurba_marseille","lat":43.284534,"lon":5.358662,"is_reserved":false,"is_disabled":false,"rental_uris":{"android":"levelo://app?vid=fa434747-2702-48ef-9019-be635c63933c","ios":"levelo://app?vid=fa434747-2702-48ef-9019-be635c63933c"},"vehicle_type_id":"4","last_reported":1687104461,"current_range_meters":19200,"station_id":"ce4bhah2rcd13ifvqei0","pricing_plan_id":"free"},{"bike_id":"988e9088-9827-484e-a8e0-ed74904b5243","system_id":"levelo_inurba_marseille","lat":43.284534,"lon":5.358662,"is_reserved":false,"is_disabled":false,"rental_uris":{"android":"levelo://app?vid=988e9088-9827-484e-a8e0-ed74904b5243","ios":"levelo://app?vid=988e9088-9827-484e-a8e0-ed74904b5243"},"vehicle_type_id":"4","last_reported":1687104461,"current_range_meters":11200,"station_id":"ce4bhah2rcd13ifvqei0","pricing_plan_id":"free"},{"bike_id":"5f57c087-2b97-41b0-a710-33b10025b4b6","system_id":"levelo_inurba_marseille","lat":43.295713,"lon":5.399639,"is_reserved":false,"is_disabled":false,"rental_uris":{"android":"levelo://app?vid=5f57c087-2b97-41b0-a710-33b10025b4b6","ios":"levelo://app?vid=5f57c087-2b97-41b0-a710-33b10025b4b6"},"vehicle_type_id":"4","last_reported":1687104461,"current_range_meters":0,"station_id":"ce4bh312rcd13ifvqdj0","pricing_plan_id":"free"},{"bike_id":"33ce8d24-bba0-40eb-9fbf-689857d3c3ab","system_id":"levelo_inurba_marseille","lat":43.28674,"lon":5.38652,"is_reserved":false,"is_disabled":false,"rental_uris":{"android":"levelo://app?vid=33ce8d24-bba0-40eb-9fbf-689857d3c3ab","ios":"levelo://app?vid=33ce8d24-bba0-40eb-9fbf-689857d3c3ab"},"vehicle_type_id":"4","last_reported":1687104461,"current_range_meters":6800,"station_id":"","pricing_plan_id":"free"},{"bike_id":"efb40321-0dec-4d28-a12d-e50abb941ae2","system_id":"levelo_inurba_marseille","lat":43.286595,"lon":5.386795,"is_reserved":false,"is_disabled":false,"rental_uris":{"android":"levelo://app?vid=efb40321-0dec-4d28-a12d-e50abb941ae2","ios":"levelo://app?vid=efb40321-0dec-4d28-a12d-e50abb941ae2"},"vehicle_type_id":"4","last_reported":1687104461,"current_range_meters":4400,"station_id":"ce4bh492rcd13ifvqdug","pricing_plan_id":"free"},{"bike_id":"8ccd7c34-8984-46c7-a9f8-1e799f46af09","system_id":"levelo_inurba_marseille","lat":43.2851,"lon":5.35093,"is_reserved":false,"is_disabled":false,"rental_uris":{"android":"levelo://app?vid=8ccd7c34-8984-46c7-a9f8-1e799f46af09","ios":"levelo://app?vid=8ccd7c34-8984-46c7-a9f8-1e799f46af09"},"vehicle_type_id":"4","last_reported":1687104461,"current_range_meters":4800,"station_id":"","pricing_plan_id":"free"},{"bike_id":"43275ef6-770c-4f0e-926c-1c3aecd7abec","system_id":"levelo_inurba_marseille","lat":43.287909,"lon":5.390554,"is_reserved":false,"is_disabled":false,"rental_uris":{"android":"levelo://app?vid=43275ef6-770c-4f0e-926c-1c3aecd7abec","ios":"levelo://app?vid=43275ef6-770c-4f0e-926c-1c3aecd7abec"},"vehicle_type_id":"4","last_reported":1687104461,"current_range_meters":12000,"station_id":"","pricing_plan_id":"free"},{"bike_id":"536b47a7-25f9-49cb-9608-1b3c49b68cf4","system_id":"levelo_inurba_marseille","lat":43.33727,"lon":5.39192,"is_reserved":false,"is_disabled":false,"rental_uris":{"android":"levelo://app?vid=536b47a7-25f9-49cb-9608-1b3c49b68cf4","ios":"levelo://app?vid=536b47a7-25f9-49cb-9608-1b3c49b68cf4"},"vehicle_type_id":"4","last_reported":1687104461,"current_range_meters":9600,"station_id":"","pricing_plan_id":"free"},{"bike_id":"b27d04d7-1a1c-4456-9ef9-feb04881e621","system_id":"levelo_inurba_marseille","lat":43.284793,"lon":5.384113,"is_reserved":false,"is_disabled":false,"rental_uris":{"android":"levelo://app?vid=b27d04d7-1a1c-4456-9ef9-feb04881e621","ios":"levelo://app?vid=b27d04d7-1a1c-4456-9ef9-feb04881e621"},"vehicle_type_id":"4","last_reported":1687104461,"current_range_meters":2000,"station_id":"ce4bh512rcd13ifvqe3g","pricing_plan_id":"free"},{"bike_id":"4c7bb745-bc5b-4e15-ab18-6954b71e42f4","system_id":"levelo_inurba_marseille","lat":43.32266,"lon":5.40682,"is_reserved":false,"is_disabled":false,"rental_uris":{"android":"levelo://app?vid=4c7bb745-bc5b-4e15-ab18-6954b71e42f4","ios":"levelo://app?vid=4c7bb745-bc5b-4e15-ab18-6954b71e42f4"},"vehicle_type_id":"4","last_reported":1687104461,"current_range_meters":22800,"station_id":"","pricing_plan_id":"free"},{"bike_id":"331afa81-242b-4262-8c1b-bbdc6c98c7d1","system_id":"levelo_inurba_marseille","lat":43.284787,"lon":5.384116,"is_reserved":false,"is_disabled":false,"rental_uris":{"android":"levelo://app?vid=331afa81-242b-4262-8c1b-bbdc6c98c7d1","ios":"levelo://app?vid=331afa81-242b-4262-8c1b-bbdc6c98c7d1"},"vehicle_type_id":"4","last_reported":1687104461,"current_range_meters":5600,"station_id":"ce4bh512rcd13ifvqe3g","pricing_plan_id":"free"},{"bike_id":"00b4d942-d645-4a17-a320-9c02b5ecca68","system_id":"levelo_inurba_marseille","lat":43.288501,"lon":5.393087,"is_reserved":false,"is_disabled":false,"rental_uris":{"android":"levelo://app?vid=00b4d942-d645-4a17-a320-9c02b5ecca68","ios":"levelo://app?vid=00b4d942-d645-4a17-a320-9c02b5ecca68"},"vehicle_type_id":"4","last_reported":1687104461,"current_range_meters":21600,"station_id":"ce4bh2p2rcd13ifvqdi0","pricing_plan_id":"free"},{"bike_id":"16e5fedd-6e86-436a-a0a2-72c7cd60a6ea","system_id":"levelo_inurba_marseille","lat":43.32194,"lon":5.40773,"is_reserved":false,"is_disabled":false,"rental_uris":{"android":"levelo://app?vid=16e5fedd-6e86-436a-a0a2-72c7cd60a6ea","ios":"levelo://app?vid=16e5fedd-6e86-436a-a0a2-72c7cd60a6ea"},"vehicle_type_id":"4","last_reported":1687104461,"current_range_meters":31200,"station_id":"","pricing_plan_id":"free"},{"bike_id":"dc96e3d6-0b75-4d68-87af-cf0688ae59c5","system_id":"levelo_inurba_marseille","lat":43.28039,"lon":5.369297,"is_reserved":false,"is_disabled":false,"rental_uris":{"android":"levelo://app?vid=dc96e3d6-0b75-4d68-87af-cf0688ae59c5","ios":"levelo://app?vid=dc96e3d6-0b75-4d68-87af-cf0688ae59c5"},"vehicle_type_id":"4","last_reported":1687104461,"current_range_meters":16000,"station_id":"ce4bha12rcd13ifvqef0","pricing_plan_id":"free"},{"bike_id":"946fcd60-eb5f-4370-81f7-b4ccf3f0cef4","system_id":"levelo_inurba_marseille","lat":43.280382,"lon":5.369291,"is_reserved":false,"is_disabled":false,"rental_uris":{"android":"levelo://app?vid=946fcd60-eb5f-4370-81f7-b4ccf3f0cef4","ios":"levelo://app?vid=946fcd60-eb5f-4370-81f7-b4ccf3f0cef4"},"vehicle_type_id":"4","last_reported":1687104461,"current_range_meters":26000,"station_id":"ce4bha12rcd13ifvqef0","pricing_plan_id":"free"},{"bike_id":"c112367f-21df-40cc-8ff7-1cead4909bd3","system_id":"levelo_inurba_marseille","lat":43.28039,"lon":5.369297,"is_reserved":false,"is_disabled":false,"rental_uris":{"android":"levelo://app?vid=c112367f-21df-40cc-8ff7-1cead4909bd3","ios":"levelo://app?vid=c112367f-21df-40cc-8ff7-1cead4909bd3"},"vehicle_type_id":"4","last_reported":1687104461,"current_range_meters":15200,"station_id":"ce4bha12rcd13ifvqef0","pricing_plan_id":"free"},{"bike_id":"265851c4-5de2-4994-b335-d0270583557e","system_id":"levelo_inurba_marseille","lat":43.29041,"lon":5.399634,"is_reserved":false,"is_disabled":false,"rental_uris":{"android":"levelo://app?vid=265851c4-5de2-4994-b335-d0270583557e","ios":"levelo://app?vid=265851c4-5de2-4994-b335-d0270583557e"},"vehicle_type_id":"4","last_reported":1687104461,"current_range_meters":9200,"station_id":"ce4bh392rcd13ifvqdm0","pricing_plan_id":"free"},{"bike_id":"672ca5d9-8b55-4ab1-836e-86961f106880","system_id":"levelo_inurba_marseille","lat":43.32653,"lon":5.40996,"is_reserved":false,"is_disabled":false,"rental_uris":{"android":"levelo://app?vid=672ca5d9-8b55-4ab1-836e-86961f106880","ios":"levelo://app?vid=672ca5d9-8b55-4ab1-836e-86961f106880"},"vehicle_type_id":"4","last_reported":1687104461,"current_range_meters":29600,"station_id":"ce4bhpp2rcd13ifvqhgg","pricing_plan_id":"free"},{"bike_id":"a3da8216-1249-455b-b949-9e5893b42718","system_id":"levelo_inurba_marseille","lat":43.3266,"lon":5.40993,"is_reserved":false,"is_disabled":false,"rental_uris":{"android":"levelo://app?vid=a3da8216-1249-455b-b949-9e5893b42718","ios":"levelo://app?vid=a3da8216-1249-455b-b949-9e5893b42718"},"vehicle_type_id":"4","last_reported":1687104461,"current_range_meters":25200,"station_id":"ce4bhpp2rcd13ifvqhgg","pricing_plan_id":"free"},{"bike_id":"9766cb4a-9fcc-4d8d-9a29-1ae01d5a26ea","system_id":"levelo_inurba_marseille","lat":43.32672,"lon":5.40999,"is_reserved":false,"is_disabled":false,"rental_uris":{"android":"levelo://app?vid=9766cb4a-9fcc-4d8d-9a29-1ae01d5a26ea","ios":"levelo://app?vid=9766cb4a-9fcc-4d8d-9a29-1ae01d5a26ea"},"vehicle_type_id":"4","last_reported":1687104461,"current_range_meters":31200,"station_id":"ce4bhpp2rcd13ifvqhgg","pricing_plan_id":"free"},{"bike_id":"0f1036b8-e561-4078-8678-2d094e6d0668","system_id":"levelo_inurba_marseille","lat":43.304188,"lon":5.412904,"is_reserved":false,"is_disabled":false,"rental_uris":{"android":"levelo://app?vid=0f1036b8-e561-4078-8678-2d094e6d0668","ios":"levelo://app?vid=0f1036b8-e561-4078-8678-2d094e6d0668"},"vehicle_type_id":"4","last_reported":1687104461,"current_range_meters":14000,"station_id":"ce4bhop2rcd13ifvqh8g","pricing_plan_id":"free"},{"bike_id":"31242586-733e-4a76-a394-f55429809a68","system_id":"levelo_inurba_marseille","lat":43.304188,"lon":5.412904,"is_reserved":false,"is_disabled":false,"rental_uris":{"android":"levelo://app?vid=31242586-733e-4a76-a394-f55429809a68","ios":"levelo://app?vid=31242586-733e-4a76-a394-f55429809a68"},"vehicle_type_id":"4","last_reported":1687104461,"current_range_meters":15200,"station_id":"ce4bhop2rcd13ifvqh8g","pricing_plan_id":"free"},{"bike_id":"d65a2932-80b6-47bc-812b-17ad7e97f997","system_id":"levelo_inurba_marseille","lat":43.304188,"lon":5.412904,"is_reserved":false,"is_disabled":false,"rental_uris":{"android":"levelo://app?vid=d65a2932-80b6-47bc-812b-17ad7e97f997","ios":"levelo://app?vid=d65a2932-80b6-47bc-812b-17ad7e97f997"},"vehicle_type_id":"4","last_reported":1687104461,"current_range_meters":21600,"station_id":"ce4bhop2rcd13ifvqh8g","pricing_plan_id":"free"},{"bike_id":"642a746c-523a-4cb2-b6ed-594b53ad81da","system_id":"levelo_inurba_marseille","lat":43.304188,"lon":5.412904,"is_reserved":false,"is_disabled":false,"rental_uris":{"android":"levelo://app?vid=642a746c-523a-4cb2-b6ed-594b53ad81da","ios":"levelo://app?vid=642a746c-523a-4cb2-b6ed-594b53ad81da"},"vehicle_type_id":"4","last_reported":1687104461,"current_range_meters":19200,"station_id":"ce4bhop2rcd13ifvqh8g","pricing_plan_id":"free"},{"bike_id":"ddbe28a9-493c-482a-bf2c-2c91fab15037","system_id":"levelo_inurba_marseille","lat":43.320045,"lon":5.415046,"is_reserved":false,"is_disabled":false,"rental_uris":{"android":"levelo://app?vid=ddbe28a9-493c-482a-bf2c-2c91fab15037","ios":"levelo://app?vid=ddbe28a9-493c-482a-bf2c-2c91fab15037"},"vehicle_type_id":"4","last_reported":1687104461,"current_range_meters":12000,"station_id":"ce4bhq92rcd13ifvqhkg","pricing_plan_id":"free"},{"bike_id":"d05dcdab-43b8-4eec-b267-6ff9bf8fd76f","system_id":"levelo_inurba_marseille","lat":43.279742,"lon":5.38744,"is_reserved":false,"is_disabled":false,"rental_uris":{"android":"levelo://app?vid=d05dcdab-43b8-4eec-b267-6ff9bf8fd76f","ios":"levelo://app?vid=d05dcdab-43b8-4eec-b267-6ff9bf8fd76f"},"vehicle_type_id":"4","last_reported":1687104461,"current_range_meters":15200,"station_id":"ce4bhg12rcd13ifvqf80","pricing_plan_id":"free"},{"bike_id":"7e0a06d1-1c67-4805-b906-a917e4fc0d98","system_id":"levelo_inurba_marseille","lat":43.279742,"lon":5.38744,"is_reserved":false,"is_disabled":false,"rental_uris":{"android":"levelo://app?vid=7e0a06d1-1c67-4805-b906-a917e4fc0d98","ios":"levelo://app?vid=7e0a06d1-1c67-4805-b906-a917e4fc0d98"},"vehicle_type_id":"4","last_reported":1687104461,"current_range_meters":8800,"station_id":"ce4bhg12rcd13ifvqf80","pricing_plan_id":"free"},{"bike_id":"3515e488-f112-4e71-ab4c-68379a162fa6","system_id":"levelo_inurba_marseille","lat":43.279742,"lon":5.38744,"is_reserved":false,"is_disabled":false,"rental_uris":{"android":"levelo://app?vid=3515e488-f112-4e71-ab4c-68379a162fa6","ios":"levelo://app?vid=3515e488-f112-4e71-ab4c-68379a162fa6"},"vehicle_type_id":"4","last_reported":1687104461,"current_range_meters":22400,"station_id":"ce4bhg12rcd13ifvqf80","pricing_plan_id":"free"},{"bike_id":"b9340faf-573b-4c94-bdda-41ff6cea8c76","system_id":"levelo_inurba_marseille","lat":43.320045,"lon":5.415046,"is_reserved":false,"is_disabled":false,"rental_uris":{"android":"levelo://app?vid=b9340faf-573b-4c94-bdda-41ff6cea8c76","ios":"levelo://app?vid=b9340faf-573b-4c94-bdda-41ff6cea8c76"},"vehicle_type_id":"4","last_reported":1687104461,"current_range_meters":30000,"station_id":"ce4bhq92rcd13ifvqhkg","pricing_plan_id":"free"},{"bike_id":"f3c266f2-b110-4e76-afb8-70d063259de9","system_id":"levelo_inurba_marseille","lat":43.292571,"lon":5.409107,"is_reserved":false,"is_disabled":false,"rental_uris":{"android":"levelo://app?vid=f3c266f2-b110-4e76-afb8-70d063259de9","ios":"levelo://app?vid=f3c266f2-b110-4e76-afb8-70d063259de9"},"vehicle_type_id":"4","last_reported":1687104461,"current_range_meters":0,"station_id":"ce4bh192rcd13ifvqdc0","pricing_plan_id":"free"},{"bike_id":"b30c1e79-a9ef-4e8a-8f92-d170b8b859f4","system_id":"levelo_inurba_marseille","lat":43.27618,"lon":5.361009,"is_reserved":false,"is_disabled":false,"rental_uris":{"android":"levelo://app?vid=b30c1e79-a9ef-4e8a-8f92-d170b8b859f4","ios":"levelo://app?vid=b30c1e79-a9ef-4e8a-8f92-d170b8b859f4"},"vehicle_type_id":"4","last_reported":1687104461,"current_range_meters":6000,"station_id":"ce4bgj92rcd13ifvqbe0","pricing_plan_id":"free"},{"bike_id":"7e502e4d-7043-49fb-9a97-dea01c21b68b","system_id":"levelo_inurba_marseille","lat":43.32549,"lon":5.41442,"is_reserved":false,"is_disabled":false,"rental_uris":{"android":"levelo://app?vid=7e502e4d-7043-49fb-9a97-dea01c21b68b","ios":"levelo://app?vid=7e502e4d-7043-49fb-9a97-dea01c21b68b"},"vehicle_type_id":"4","last_reported":1687104461,"current_range_meters":24400,"station_id":"","pricing_plan_id":"free"},{"bike_id":"f1823d82-43dc-4984-9359-7a508e9d8409","system_id":"levelo_inurba_marseille","lat":43.32549,"lon":5.41445,"is_reserved":false,"is_disabled":false,"rental_uris":{"android":"levelo://app?vid=f1823d82-43dc-4984-9359-7a508e9d8409","ios":"levelo://app?vid=f1823d82-43dc-4984-9359-7a508e9d8409"},"vehicle_type_id":"4","last_reported":1687104461,"current_range_meters":31200,"station_id":"","pricing_plan_id":"free"},{"bike_id":"bea8f79f-f387-4604-b63a-62c871c32e7d","system_id":"levelo_inurba_marseille","lat":43.27613,"lon":5.36112,"is_reserved":false,"is_disabled":false,"rental_uris":{"android":"levelo://app?vid=bea8f79f-f387-4604-b63a-62c871c32e7d","ios":"levelo://app?vid=bea8f79f-f387-4604-b63a-62c871c32e7d"},"vehicle_type_id":"4","last_reported":1687104461,"current_range_meters":7600,"station_id":"ce4bgj92rcd13ifvqbe0","pricing_plan_id":"free"},{"bike_id":"b3706de1-9323-48f9-bb33-478f7fa9a040","system_id":"levelo_inurba_marseille","lat":43.278401,"lon":5.392152,"is_reserved":false,"is_disabled":false,"rental_uris":{"android":"levelo://app?vid=b3706de1-9323-48f9-bb33-478f7fa9a040","ios":"levelo://app?vid=b3706de1-9323-48f9-bb33-478f7fa9a040"},"vehicle_type_id":"4","last_reported":1687104461,"current_range_meters":27200,"station_id":"ce4bhjp2rcd13ifvqga0","pricing_plan_id":"free"},{"bike_id":"66b8e025-9b9a-4328-b3f2-e03ac498a1ef","system_id":"levelo_inurba_marseille","lat":43.278399,"lon":5.392139,"is_reserved":false,"is_disabled":false,"rental_uris":{"android":"levelo://app?vid=66b8e025-9b9a-4328-b3f2-e03ac498a1ef","ios":"levelo://app?vid=66b8e025-9b9a-4328-b3f2-e03ac498a1ef"},"vehicle_type_id":"4","last_reported":1687104461,"current_range_meters":9600,"station_id":"ce4bhjp2rcd13ifvqga0","pricing_plan_id":"free"},{"bike_id":"b784f046-fca5-411d-a4f3-5e9d9b5c935b","system_id":"levelo_inurba_marseille","lat":43.27385,"lon":5.36259,"is_reserved":false,"is_disabled":false,"rental_uris":{"android":"levelo://app?vid=b784f046-fca5-411d-a4f3-5e9d9b5c935b","ios":"levelo://app?vid=b784f046-fca5-411d-a4f3-5e9d9b5c935b"},"vehicle_type_id":"4","last_reported":1687104461,"current_range_meters":26400,"station_id":"","pricing_plan_id":"free"},{"bike_id":"65d4e611-7d16-4b66-a755-938afa5136c2","system_id":"levelo_inurba_marseille","lat":43.273613,"lon":5.362705,"is_reserved":false,"is_disabled":false,"rental_uris":{"android":"levelo://app?vid=65d4e611-7d16-4b66-a755-938afa5136c2","ios":"levelo://app?vid=65d4e611-7d16-4b66-a755-938afa5136c2"},"vehicle_type_id":"4","last_reported":1687104461,"current_range_meters":28800,"station_id":"ce4bhbh2rcd13ifvqeo0","pricing_plan_id":"free"},{"bike_id":"36757135-cc76-4716-ae29-2971ff26d1be","system_id":"levelo_inurba_marseille","lat":43.273613,"lon":5.362705,"is_reserved":false,"is_disabled":false,"rental_uris":{"android":"levelo://app?vid=36757135-cc76-4716-ae29-2971ff26d1be","ios":"levelo://app?vid=36757135-cc76-4716-ae29-2971ff26d1be"},"vehicle_type_id":"4","last_reported":1687104461,"current_range_meters":32000,"station_id":"ce4bhbh2rcd13ifvqeo0","pricing_plan_id":"free"},{"bike_id":"f35e0f95-9e78-47c5-8fc7-75059089de94","system_id":"levelo_inurba_marseille","lat":43.273613,"lon":5.362705,"is_reserved":false,"is_disabled":false,"rental_uris":{"android":"levelo://app?vid=f35e0f95-9e78-47c5-8fc7-75059089de94","ios":"levelo://app?vid=f35e0f95-9e78-47c5-8fc7-75059089de94"},"vehicle_type_id":"4","last_reported":1687104461,"current_range_meters":24400,"station_id":"ce4bhbh2rcd13ifvqeo0","pricing_plan_id":"free"},{"bike_id":"6275aaca-a354-407f-be44-df40f2969d44","system_id":"levelo_inurba_marseille","lat":43.273613,"lon":5.362705,"is_reserved":false,"is_disabled":false,"rental_uris":{"android":"levelo://app?vid=6275aaca-a354-407f-be44-df40f2969d44","ios":"levelo://app?vid=6275aaca-a354-407f-be44-df40f2969d44"},"vehicle_type_id":"4","last_reported":1687104461,"current_range_meters":32000,"station_id":"ce4bhbh2rcd13ifvqeo0","pricing_plan_id":"free"},{"bike_id":"421c413f-0c33-4fd2-9be9-d2f4863bc649","system_id":"levelo_inurba_marseille","lat":43.273609,"lon":5.362708,"is_reserved":false,"is_disabled":false,"rental_uris":{"android":"levelo://app?vid=421c413f-0c33-4fd2-9be9-d2f4863bc649","ios":"levelo://app?vid=421c413f-0c33-4fd2-9be9-d2f4863bc649"},"vehicle_type_id":"4","last_reported":1687104461,"current_range_meters":30000,"station_id":"ce4bhbh2rcd13ifvqeo0","pricing_plan_id":"free"},{"bike_id":"2d90b273-db0d-4a5b-af79-0698ff26f8db","system_id":"levelo_inurba_marseille","lat":43.273609,"lon":5.362708,"is_reserved":false,"is_disabled":false,"rental_uris":{"android":"levelo://app?vid=2d90b273-db0d-4a5b-af79-0698ff26f8db","ios":"levelo://app?vid=2d90b273-db0d-4a5b-af79-0698ff26f8db"},"vehicle_type_id":"4","last_reported":1687104461,"current_range_meters":31200,"station_id":"ce4bhbh2rcd13ifvqeo0","pricing_plan_id":"free"},{"bike_id":"c8a03837-2eaa-4688-a64f-20e9b87c657c","system_id":"levelo_inurba_marseille","lat":43.27374,"lon":5.36261,"is_reserved":false,"is_disabled":false,"rental_uris":{"android":"levelo://app?vid=c8a03837-2eaa-4688-a64f-20e9b87c657c","ios":"levelo://app?vid=c8a03837-2eaa-4688-a64f-20e9b87c657c"},"vehicle_type_id":"4","last_reported":1687104461,"current_range_meters":20800,"station_id":"ce4bhbh2rcd13ifvqeo0","pricing_plan_id":"free"},{"bike_id":"c6d4fb40-99e0-49fb-a19b-4f7c941a493e","system_id":"levelo_inurba_marseille","lat":43.33612,"lon":5.410321,"is_reserved":false,"is_disabled":false,"rental_uris":{"android":"levelo://app?vid=c6d4fb40-99e0-49fb-a19b-4f7c941a493e","ios":"levelo://app?vid=c6d4fb40-99e0-49fb-a19b-4f7c941a493e"},"vehicle_type_id":"4","last_reported":1687104461,"current_range_meters":17600,"station_id":"ce4bhqh2rcd13ifvqhmg","pricing_plan_id":"free"},{"bike_id":"c9118ee2-e487-41b2-adb4-b8e2b83b57d2","system_id":"levelo_inurba_marseille","lat":43.310785,"lon":5.424305,"is_reserved":false,"is_disabled":false,"rental_uris":{"android":"levelo://app?vid=c9118ee2-e487-41b2-adb4-b8e2b83b57d2","ios":"levelo://app?vid=c9118ee2-e487-41b2-adb4-b8e2b83b57d2"},"vehicle_type_id":"4","last_reported":1687104461,"current_range_meters":30000,"station_id":"ce4bhp92rcd13ifvqhag","pricing_plan_id":"free"},{"bike_id":"a670ef55-fa28-46ef-be87-f2b252cb9a4f","system_id":"levelo_inurba_marseille","lat":43.2743,"lon":5.39413,"is_reserved":false,"is_disabled":false,"rental_uris":{"android":"levelo://app?vid=a670ef55-fa28-46ef-be87-f2b252cb9a4f","ios":"levelo://app?vid=a670ef55-fa28-46ef-be87-f2b252cb9a4f"},"vehicle_type_id":"4","last_reported":1687104461,"current_range_meters":2400,"station_id":"","pricing_plan_id":"free"},{"bike_id":"dc95e2b9-5ebf-4025-b978-8bbe694575d8","system_id":"levelo_inurba_marseille","lat":43.27428,"lon":5.39411,"is_reserved":false,"is_disabled":false,"rental_uris":{"android":"levelo://app?vid=dc95e2b9-5ebf-4025-b978-8bbe694575d8","ios":"levelo://app?vid=dc95e2b9-5ebf-4025-b978-8bbe694575d8"},"vehicle_type_id":"4","last_reported":1687104461,"current_range_meters":19200,"station_id":"","pricing_plan_id":"free"},{"bike_id":"f82c4e0b-ce86-4de4-962b-f266d6ba506e","system_id":"levelo_inurba_marseille","lat":43.273129,"lon":5.390725,"is_reserved":false,"is_disabled":false,"rental_uris":{"android":"levelo://app?vid=f82c4e0b-ce86-4de4-962b-f266d6ba506e","ios":"levelo://app?vid=f82c4e0b-ce86-4de4-962b-f266d6ba506e"},"vehicle_type_id":"4","last_reported":1687104461,"current_range_meters":28800,"station_id":"ce4bhgp2rcd13ifvqfe0","pricing_plan_id":"free"},{"bike_id":"f7616cdd-904c-4eb9-b64b-0a3b1c98a353","system_id":"levelo_inurba_marseille","lat":43.272124,"lon":5.391768,"is_reserved":false,"is_disabled":false,"rental_uris":{"android":"levelo://app?vid=f7616cdd-904c-4eb9-b64b-0a3b1c98a353","ios":"levelo://app?vid=f7616cdd-904c-4eb9-b64b-0a3b1c98a353"},"vehicle_type_id":"4","last_reported":1687104461,"current_range_meters":400,"station_id":"ce4bhhp2rcd13ifvqfm0","pricing_plan_id":"free"},{"bike_id":"5b2dd4fb-74dc-4935-8c20-2650d3c0597b","system_id":"levelo_inurba_marseille","lat":43.272118,"lon":5.391758,"is_reserved":false,"is_disabled":false,"rental_uris":{"android":"levelo://app?vid=5b2dd4fb-74dc-4935-8c20-2650d3c0597b","ios":"levelo://app?vid=5b2dd4fb-74dc-4935-8c20-2650d3c0597b"},"vehicle_type_id":"4","last_reported":1687104461,"current_range_meters":15200,"station_id":"ce4bhhp2rcd13ifvqfm0","pricing_plan_id":"free"},{"bike_id":"e75a3001-e0e1-4d8e-a1b0-a71f4c38ffb5","system_id":"levelo_inurba_marseille","lat":43.272118,"lon":5.391758,"is_reserved":false,"is_disabled":false,"rental_uris":{"android":"levelo://app?vid=e75a3001-e0e1-4d8e-a1b0-a71f4c38ffb5","ios":"levelo://app?vid=e75a3001-e0e1-4d8e-a1b0-a71f4c38ffb5"},"vehicle_type_id":"4","last_reported":1687104461,"current_range_meters":23600,"station_id":"ce4bhhp2rcd13ifvqfm0","pricing_plan_id":"free"},{"bike_id":"0ae3cd90-14ca-4092-8145-dbc9c9c433c5","system_id":"levelo_inurba_marseille","lat":43.272118,"lon":5.391758,"is_reserved":false,"is_disabled":false,"rental_uris":{"android":"levelo://app?vid=0ae3cd90-14ca-4092-8145-dbc9c9c433c5","ios":"levelo://app?vid=0ae3cd90-14ca-4092-8145-dbc9c9c433c5"},"vehicle_type_id":"4","last_reported":1687104461,"current_range_meters":0,"station_id":"ce4bhhp2rcd13ifvqfm0","pricing_plan_id":"free"},{"bike_id":"585a2ec7-4064-44f7-834d-d437e428897a","system_id":"levelo_inurba_marseille","lat":43.278128,"lon":5.407195,"is_reserved":false,"is_disabled":false,"rental_uris":{"android":"levelo://app?vid=585a2ec7-4064-44f7-834d-d437e428897a","ios":"levelo://app?vid=585a2ec7-4064-44f7-834d-d437e428897a"},"vehicle_type_id":"4","last_reported":1687104461,"current_range_meters":4400,"station_id":"ce4bhnh2rcd13ifvqgtg","pricing_plan_id":"free"},{"bike_id":"ef2f2371-af8f-4ff7-af01-1d2502ba0eaa","system_id":"levelo_inurba_marseille","lat":43.278128,"lon":5.407195,"is_reserved":false,"is_disabled":false,"rental_uris":{"android":"levelo://app?vid=ef2f2371-af8f-4ff7-af01-1d2502ba0eaa","ios":"levelo://app?vid=ef2f2371-af8f-4ff7-af01-1d2502ba0eaa"},"vehicle_type_id":"4","last_reported":1687104461,"current_range_meters":26400,"station_id":"ce4bhnh2rcd13ifvqgtg","pricing_plan_id":"free"},{"bike_id":"7ad74ffc-e489-40a3-9249-1e93ad98a4ae","system_id":"levelo_inurba_marseille","lat":43.269319,"lon":5.389397,"is_reserved":false,"is_disabled":false,"rental_uris":{"android":"levelo://app?vid=7ad74ffc-e489-40a3-9249-1e93ad98a4ae","ios":"levelo://app?vid=7ad74ffc-e489-40a3-9249-1e93ad98a4ae"},"vehicle_type_id":"4","last_reported":1687104461,"current_range_meters":22400,"station_id":"ce4bhhh2rcd13ifvqfl0","pricing_plan_id":"free"},{"bike_id":"249afd22-becd-4fbb-bf5a-7dd674f35f2f","system_id":"levelo_inurba_marseille","lat":43.26681,"lon":5.382694,"is_reserved":false,"is_disabled":false,"rental_uris":{"android":"levelo://app?vid=249afd22-becd-4fbb-bf5a-7dd674f35f2f","ios":"levelo://app?vid=249afd22-becd-4fbb-bf5a-7dd674f35f2f"},"vehicle_type_id":"4","last_reported":1687104461,"current_range_meters":28800,"station_id":"ce4bhg92rcd13ifvqf90","pricing_plan_id":"free"},{"bike_id":"777f4b71-b492-4bc1-a6e9-1d4f74aa6180","system_id":"levelo_inurba_marseille","lat":43.26681,"lon":5.38268,"is_reserved":false,"is_disabled":false,"rental_uris":{"android":"levelo://app?vid=777f4b71-b492-4bc1-a6e9-1d4f74aa6180","ios":"levelo://app?vid=777f4b71-b492-4bc1-a6e9-1d4f74aa6180"},"vehicle_type_id":"4","last_reported":1687104461,"current_range_meters":11200,"station_id":"ce4bhg92rcd13ifvqf90","pricing_plan_id":"free"},{"bike_id":"34c8d362-f70f-4afd-90b8-382a46ff09d9","system_id":"levelo_inurba_marseille","lat":43.26681,"lon":5.382694,"is_reserved":false,"is_disabled":false,"rental_uris":{"android":"levelo://app?vid=34c8d362-f70f-4afd-90b8-382a46ff09d9","ios":"levelo://app?vid=34c8d362-f70f-4afd-90b8-382a46ff09d9"},"vehicle_type_id":"4","last_reported":1687104461,"current_range_meters":26400,"station_id":"ce4bhg92rcd13ifvqf90","pricing_plan_id":"free"},{"bike_id":"cfba2fbe-9ed5-423f-b411-8d6c38451715","system_id":"levelo_inurba_marseille","lat":43.27995,"lon":5.41662,"is_reserved":false,"is_disabled":false,"rental_uris":{"android":"levelo://app?vid=cfba2fbe-9ed5-423f-b411-8d6c38451715","ios":"levelo://app?vid=cfba2fbe-9ed5-423f-b411-8d6c38451715"},"vehicle_type_id":"4","last_reported":1687104461,"current_range_meters":21200,"station_id":"ce4bho12rcd13ifvqh1g","pricing_plan_id":"free"},{"bike_id":"3987290e-fd4b-4f2b-81c0-57fca98f9cde","system_id":"levelo_inurba_marseille","lat":43.267966,"lon":5.393976,"is_reserved":false,"is_disabled":false,"rental_uris":{"android":"levelo://app?vid=3987290e-fd4b-4f2b-81c0-57fca98f9cde","ios":"levelo://app?vid=3987290e-fd4b-4f2b-81c0-57fca98f9cde"},"vehicle_type_id":"4","last_reported":1687104461,"current_range_meters":30800,"station_id":"ce4bhh12rcd13ifvqfg0","pricing_plan_id":"free"},{"bike_id":"8ef3ec5e-977c-4b69-997e-4741470bc2c1","system_id":"levelo_inurba_marseille","lat":43.265569,"lon":5.390047,"is_reserved":false,"is_disabled":false,"rental_uris":{"android":"levelo://app?vid=8ef3ec5e-977c-4b69-997e-4741470bc2c1","ios":"levelo://app?vid=8ef3ec5e-977c-4b69-997e-4741470bc2c1"},"vehicle_type_id":"4","last_reported":1687104461,"current_range_meters":16800,"station_id":"ce4bhe12rcd13ifvqf30","pricing_plan_id":"free"},{"bike_id":"e09ee2df-5eb5-400b-b4e8-a2efdba018fe","system_id":"levelo_inurba_marseille","lat":43.30806,"lon":5.43528,"is_reserved":false,"is_disabled":false,"rental_uris":{"android":"levelo://app?vid=e09ee2df-5eb5-400b-b4e8-a2efdba018fe","ios":"levelo://app?vid=e09ee2df-5eb5-400b-b4e8-a2efdba018fe"},"vehicle_type_id":"4","last_reported":1687104461,"current_range_meters":5200,"station_id":"ce4bhph2rcd13ifvqheg","pricing_plan_id":"free"},{"bike_id":"45f28fe4-2ac5-41e7-9602-6fa8f8a62330","system_id":"levelo_inurba_marseille","lat":43.30803,"lon":5.43528,"is_reserved":false,"is_disabled":false,"rental_uris":{"android":"levelo://app?vid=45f28fe4-2ac5-41e7-9602-6fa8f8a62330","ios":"levelo://app?vid=45f28fe4-2ac5-41e7-9602-6fa8f8a62330"},"vehicle_type_id":"4","last_reported":1687104461,"current_range_meters":9600,"station_id":"ce4bhph2rcd13ifvqheg","pricing_plan_id":"free"},{"bike_id":"b64e7a28-c0f8-4226-aee4-1ccaae215191","system_id":"levelo_inurba_marseille","lat":43.30803,"lon":5.43531,"is_reserved":false,"is_disabled":false,"rental_uris":{"android":"levelo://app?vid=b64e7a28-c0f8-4226-aee4-1ccaae215191","ios":"levelo://app?vid=b64e7a28-c0f8-4226-aee4-1ccaae215191"},"vehicle_type_id":"4","last_reported":1687104461,"current_range_meters":4400,"station_id":"ce4bhph2rcd13ifvqheg","pricing_plan_id":"free"},{"bike_id":"935a4aec-1547-4073-a330-9bf4a8e0fb00","system_id":"levelo_inurba_marseille","lat":43.30801,"lon":5.43532,"is_reserved":false,"is_disabled":false,"rental_uris":{"android":"levelo://app?vid=935a4aec-1547-4073-a330-9bf4a8e0fb00","ios":"levelo://app?vid=935a4aec-1547-4073-a330-9bf4a8e0fb00"},"vehicle_type_id":"4","last_reported":1687104461,"current_range_meters":22800,"station_id":"ce4bhph2rcd13ifvqheg","pricing_plan_id":"free"},{"bike_id":"e8213767-474f-48b0-9d64-4a8bb5be0898","system_id":"levelo_inurba_marseille","lat":43.265569,"lon":5.390047,"is_reserved":false,"is_disabled":false,"rental_uris":{"android":"levelo://app?vid=e8213767-474f-48b0-9d64-4a8bb5be0898","ios":"levelo://app?vid=e8213767-474f-48b0-9d64-4a8bb5be0898"},"vehicle_type_id":"4","last_reported":1687104461,"current_range_meters":6800,"station_id":"ce4bhe12rcd13ifvqf30","pricing_plan_id":"free"},{"bike_id":"cda28a23-f977-444e-be81-0c35c0e3524a","system_id":"levelo_inurba_marseille","lat":43.30828,"lon":5.43556,"is_reserved":false,"is_disabled":false,"rental_uris":{"android":"levelo://app?vid=cda28a23-f977-444e-be81-0c35c0e3524a","ios":"levelo://app?vid=cda28a23-f977-444e-be81-0c35c0e3524a"},"vehicle_type_id":"4","last_reported":1687104461,"current_range_meters":0,"station_id":"","pricing_plan_id":"free"},{"bike_id":"23ec9f13-d086-420c-b2c7-c84b2761cbef","system_id":"levelo_inurba_marseille","lat":43.26201,"lon":5.37447,"is_reserved":false,"is_disabled":false,"rental_uris":{"android":"levelo://app?vid=23ec9f13-d086-420c-b2c7-c84b2761cbef","ios":"levelo://app?vid=23ec9f13-d086-420c-b2c7-c84b2761cbef"},"vehicle_type_id":"4","last_reported":1687104461,"current_range_meters":11600,"station_id":"ce4bhgp2rcd13ifvqfc0","pricing_plan_id":"free"},{"bike_id":"e6312f5a-acef-4530-8e13-bd59210d0027","system_id":"levelo_inurba_marseille","lat":43.26195,"lon":5.37441,"is_reserved":false,"is_disabled":false,"rental_uris":{"android":"levelo://app?vid=e6312f5a-acef-4530-8e13-bd59210d0027","ios":"levelo://app?vid=e6312f5a-acef-4530-8e13-bd59210d0027"},"vehicle_type_id":"4","last_reported":1687104461,"current_range_meters":16800,"station_id":"ce4bhgp2rcd13ifvqfc0","pricing_plan_id":"free"},{"bike_id":"4bc79034-3e0f-4e0d-b09f-4d816fd56018","system_id":"levelo_inurba_marseille","lat":43.26195,"lon":5.37443,"is_reserved":false,"is_disabled":false,"rental_uris":{"android":"levelo://app?vid=4bc79034-3e0f-4e0d-b09f-4d816fd56018","ios":"levelo://app?vid=4bc79034-3e0f-4e0d-b09f-4d816fd56018"},"vehicle_type_id":"4","last_reported":1687104461,"current_range_meters":16000,"station_id":"ce4bhgp2rcd13ifvqfc0","pricing_plan_id":"free"},{"bike_id":"620ca154-43ca-49c1-971e-5b5cef2e87ed","system_id":"levelo_inurba_marseille","lat":43.261782,"lon":5.374515,"is_reserved":false,"is_disabled":false,"rental_uris":{"android":"levelo://app?vid=620ca154-43ca-49c1-971e-5b5cef2e87ed","ios":"levelo://app?vid=620ca154-43ca-49c1-971e-5b5cef2e87ed"},"vehicle_type_id":"4","last_reported":1687104461,"current_range_meters":23600,"station_id":"ce4bhgp2rcd13ifvqfc0","pricing_plan_id":"free"},{"bike_id":"afd8a327-7ead-4fa6-bca9-daf7f0832a72","system_id":"levelo_inurba_marseille","lat":43.26192,"lon":5.37438,"is_reserved":false,"is_disabled":false,"rental_uris":{"android":"levelo://app?vid=afd8a327-7ead-4fa6-bca9-daf7f0832a72","ios":"levelo://app?vid=afd8a327-7ead-4fa6-bca9-daf7f0832a72"},"vehicle_type_id":"4","last_reported":1687104461,"current_range_meters":20800,"station_id":"ce4bhgp2rcd13ifvqfc0","pricing_plan_id":"free"},{"bike_id":"ab7b9ce0-04e5-43f9-91f2-6fa95db5f4ed","system_id":"levelo_inurba_marseille","lat":43.261782,"lon":5.374515,"is_reserved":false,"is_disabled":false,"rental_uris":{"android":"levelo://app?vid=ab7b9ce0-04e5-43f9-91f2-6fa95db5f4ed","ios":"levelo://app?vid=ab7b9ce0-04e5-43f9-91f2-6fa95db5f4ed"},"vehicle_type_id":"4","last_reported":1687104461,"current_range_meters":29600,"station_id":"ce4bhgp2rcd13ifvqfc0","pricing_plan_id":"free"},{"bike_id":"1dab3415-2024-4181-ab85-e7bc9b17b3a8","system_id":"levelo_inurba_marseille","lat":43.261782,"lon":5.374515,"is_reserved":false,"is_disabled":false,"rental_uris":{"android":"levelo://app?vid=1dab3415-2024-4181-ab85-e7bc9b17b3a8","ios":"levelo://app?vid=1dab3415-2024-4181-ab85-e7bc9b17b3a8"},"vehicle_type_id":"4","last_reported":1687104461,"current_range_meters":13200,"station_id":"ce4bhgp2rcd13ifvqfc0","pricing_plan_id":"free"},{"bike_id":"a5699ece-825f-45a5-bd9a-ab163d34ba2e","system_id":"levelo_inurba_marseille","lat":43.26191,"lon":5.3744,"is_reserved":false,"is_disabled":false,"rental_uris":{"android":"levelo://app?vid=a5699ece-825f-45a5-bd9a-ab163d34ba2e","ios":"levelo://app?vid=a5699ece-825f-45a5-bd9a-ab163d34ba2e"},"vehicle_type_id":"4","last_reported":1687104461,"current_range_meters":0,"station_id":"ce4bhgp2rcd13ifvqfc0","pricing_plan_id":"free"},{"bike_id":"132f7322-f175-4300-be8a-6adf5e32398e","system_id":"levelo_inurba_marseille","lat":43.26191,"lon":5.37445,"is_reserved":false,"is_disabled":false,"rental_uris":{"android":"levelo://app?vid=132f7322-f175-4300-be8a-6adf5e32398e","ios":"levelo://app?vid=132f7322-f175-4300-be8a-6adf5e32398e"},"vehicle_type_id":"4","last_reported":1687104461,"current_range_meters":31200,"station_id":"ce4bhgp2rcd13ifvqfc0","pricing_plan_id":"free"},{"bike_id":"e5827425-9c2f-427c-a0a3-b058318b6e0f","system_id":"levelo_inurba_marseille","lat":43.261782,"lon":5.374515,"is_reserved":false,"is_disabled":false,"rental_uris":{"android":"levelo://app?vid=e5827425-9c2f-427c-a0a3-b058318b6e0f","ios":"levelo://app?vid=e5827425-9c2f-427c-a0a3-b058318b6e0f"},"vehicle_type_id":"4","last_reported":1687104461,"current_range_meters":31200,"station_id":"ce4bhgp2rcd13ifvqfc0","pricing_plan_id":"free"},{"bike_id":"0f54be5e-880f-4449-a1a2-c28d3561cb49","system_id":"levelo_inurba_marseille","lat":43.26189,"lon":5.37442,"is_reserved":false,"is_disabled":false,"rental_uris":{"android":"levelo://app?vid=0f54be5e-880f-4449-a1a2-c28d3561cb49","ios":"levelo://app?vid=0f54be5e-880f-4449-a1a2-c28d3561cb49"},"vehicle_type_id":"4","last_reported":1687104461,"current_range_meters":31200,"station_id":"ce4bhgp2rcd13ifvqfc0","pricing_plan_id":"free"},{"bike_id":"1e691c39-e10f-4918-9737-49dd08e1cfdc","system_id":"levelo_inurba_marseille","lat":43.26189,"lon":5.37445,"is_reserved":false,"is_disabled":false,"rental_uris":{"android":"levelo://app?vid=1e691c39-e10f-4918-9737-49dd08e1cfdc","ios":"levelo://app?vid=1e691c39-e10f-4918-9737-49dd08e1cfdc"},"vehicle_type_id":"4","last_reported":1687104461,"current_range_meters":1600,"station_id":"ce4bhgp2rcd13ifvqfc0","pricing_plan_id":"free"},{"bike_id":"25af5994-c17b-45ea-a374-cb3f2b9f1320","system_id":"levelo_inurba_marseille","lat":43.26188,"lon":5.37443,"is_reserved":false,"is_disabled":false,"rental_uris":{"android":"levelo://app?vid=25af5994-c17b-45ea-a374-cb3f2b9f1320","ios":"levelo://app?vid=25af5994-c17b-45ea-a374-cb3f2b9f1320"},"vehicle_type_id":"4","last_reported":1687104461,"current_range_meters":18000,"station_id":"ce4bhgp2rcd13ifvqfc0","pricing_plan_id":"free"},{"bike_id":"bb97155a-7403-4f26-b50e-e4ad79e24757","system_id":"levelo_inurba_marseille","lat":43.26187,"lon":5.37443,"is_reserved":false,"is_disabled":false,"rental_uris":{"android":"levelo://app?vid=bb97155a-7403-4f26-b50e-e4ad79e24757","ios":"levelo://app?vid=bb97155a-7403-4f26-b50e-e4ad79e24757"},"vehicle_type_id":"4","last_reported":1687104461,"current_range_meters":24400,"station_id":"ce4bhgp2rcd13ifvqfc0","pricing_plan_id":"free"},{"bike_id":"d9da67e0-ba16-477d-bade-f3bff9ac19ec","system_id":"levelo_inurba_marseille","lat":43.26186,"lon":5.37442,"is_reserved":false,"is_disabled":false,"rental_uris":{"android":"levelo://app?vid=d9da67e0-ba16-477d-bade-f3bff9ac19ec","ios":"levelo://app?vid=d9da67e0-ba16-477d-bade-f3bff9ac19ec"},"vehicle_type_id":"4","last_reported":1687104461,"current_range_meters":29600,"station_id":"ce4bhgp2rcd13ifvqfc0","pricing_plan_id":"free"},{"bike_id":"5854d389-bea4-475b-8069-1bc498351b7e","system_id":"levelo_inurba_marseille","lat":43.26184,"lon":5.3744,"is_reserved":false,"is_disabled":false,"rental_uris":{"android":"levelo://app?vid=5854d389-bea4-475b-8069-1bc498351b7e","ios":"levelo://app?vid=5854d389-bea4-475b-8069-1bc498351b7e"},"vehicle_type_id":"4","last_reported":1687104461,"current_range_meters":8000,"station_id":"ce4bhgp2rcd13ifvqfc0","pricing_plan_id":"free"},{"bike_id":"aba4c9de-1bc6-4a9d-94d2-ef2a555e6aa9","system_id":"levelo_inurba_marseille","lat":43.26184,"lon":5.37443,"is_reserved":false,"is_disabled":false,"rental_uris":{"android":"levelo://app?vid=aba4c9de-1bc6-4a9d-94d2-ef2a555e6aa9","ios":"levelo://app?vid=aba4c9de-1bc6-4a9d-94d2-ef2a555e6aa9"},"vehicle_type_id":"4","last_reported":1687104461,"current_range_meters":24800,"station_id":"ce4bhgp2rcd13ifvqfc0","pricing_plan_id":"free"},{"bike_id":"821812b2-3ca3-4d85-98d5-173bb91d9deb","system_id":"levelo_inurba_marseille","lat":43.26184,"lon":5.37445,"is_reserved":false,"is_disabled":false,"rental_uris":{"android":"levelo://app?vid=821812b2-3ca3-4d85-98d5-173bb91d9deb","ios":"levelo://app?vid=821812b2-3ca3-4d85-98d5-173bb91d9deb"},"vehicle_type_id":"4","last_reported":1687104461,"current_range_meters":31200,"station_id":"ce4bhgp2rcd13ifvqfc0","pricing_plan_id":"free"},{"bike_id":"af1328ab-99bf-476a-8b3a-6528a652e4e3","system_id":"levelo_inurba_marseille","lat":43.317104,"lon":5.436818,"is_reserved":false,"is_disabled":false,"rental_uris":{"android":"levelo://app?vid=af1328ab-99bf-476a-8b3a-6528a652e4e3","ios":"levelo://app?vid=af1328ab-99bf-476a-8b3a-6528a652e4e3"},"vehicle_type_id":"4","last_reported":1687104461,"current_range_meters":29200,"station_id":"ce4bhp92rcd13ifvqhcg","pricing_plan_id":"free"},{"bike_id":"9bf905c2-7b41-48ec-bfc6-155ec656c7ee","system_id":"levelo_inurba_marseille","lat":43.317104,"lon":5.436818,"is_reserved":false,"is_disabled":false,"rental_uris":{"android":"levelo://app?vid=9bf905c2-7b41-48ec-bfc6-155ec656c7ee","ios":"levelo://app?vid=9bf905c2-7b41-48ec-bfc6-155ec656c7ee"},"vehicle_type_id":"4","last_reported":1687104461,"current_range_meters":31600,"station_id":"ce4bhp92rcd13ifvqhcg","pricing_plan_id":"free"},{"bike_id":"e3b905f4-e8c9-4df7-8d63-0c27cca62271","system_id":"levelo_inurba_marseille","lat":43.317104,"lon":5.436818,"is_reserved":false,"is_disabled":false,"rental_uris":{"android":"levelo://app?vid=e3b905f4-e8c9-4df7-8d63-0c27cca62271","ios":"levelo://app?vid=e3b905f4-e8c9-4df7-8d63-0c27cca62271"},"vehicle_type_id":"4","last_reported":1687104461,"current_range_meters":20000,"station_id":"ce4bhp92rcd13ifvqhcg","pricing_plan_id":"free"},{"bike_id":"65bb6c60-44d0-422f-8efe-40b009e8e0a7","system_id":"levelo_inurba_marseille","lat":43.26218,"lon":5.37923,"is_reserved":false,"is_disabled":false,"rental_uris":{"android":"levelo://app?vid=65bb6c60-44d0-422f-8efe-40b009e8e0a7","ios":"levelo://app?vid=65bb6c60-44d0-422f-8efe-40b009e8e0a7"},"vehicle_type_id":"4","last_reported":1687104461,"current_range_meters":5600,"station_id":"ce4bhjp2rcd13ifvqg90","pricing_plan_id":"free"},{"bike_id":"e96a64f3-07cb-45e5-a9e2-76966b0746f5","system_id":"levelo_inurba_marseille","lat":43.26217,"lon":5.37928,"is_reserved":false,"is_disabled":false,"rental_uris":{"android":"levelo://app?vid=e96a64f3-07cb-45e5-a9e2-76966b0746f5","ios":"levelo://app?vid=e96a64f3-07cb-45e5-a9e2-76966b0746f5"},"vehicle_type_id":"4","last_reported":1687104461,"current_range_meters":26000,"station_id":"ce4bhjp2rcd13ifvqg90","pricing_plan_id":"free"},{"bike_id":"ddf5275b-ae97-4120-9de2-5166c65ab873","system_id":"levelo_inurba_marseille","lat":43.26218,"lon":5.37936,"is_reserved":false,"is_disabled":false,"rental_uris":{"android":"levelo://app?vid=ddf5275b-ae97-4120-9de2-5166c65ab873","ios":"levelo://app?vid=ddf5275b-ae97-4120-9de2-5166c65ab873"},"vehicle_type_id":"4","last_reported":1687104461,"current_range_meters":0,"station_id":"ce4bhjp2rcd13ifvqg90","pricing_plan_id":"free"},{"bike_id":"df937aa2-e5ca-492d-b726-b96bea986152","system_id":"levelo_inurba_marseille","lat":43.26213,"lon":5.37922,"is_reserved":false,"is_disabled":false,"rental_uris":{"android":"levelo://app?vid=df937aa2-e5ca-492d-b726-b96bea986152","ios":"levelo://app?vid=df937aa2-e5ca-492d-b726-b96bea986152"},"vehicle_type_id":"4","last_reported":1687104461,"current_range_meters":12800,"station_id":"ce4bhjp2rcd13ifvqg90","pricing_plan_id":"free"},{"bike_id":"df5d3469-5fc9-4609-8e68-89374d07e24a","system_id":"levelo_inurba_marseille","lat":43.262012,"lon":5.379307,"is_reserved":false,"is_disabled":false,"rental_uris":{"android":"levelo://app?vid=df5d3469-5fc9-4609-8e68-89374d07e24a","ios":"levelo://app?vid=df5d3469-5fc9-4609-8e68-89374d07e24a"},"vehicle_type_id":"4","last_reported":1687104461,"current_range_meters":1200,"station_id":"ce4bhjp2rcd13ifvqg90","pricing_plan_id":"free"},{"bike_id":"7e62eef8-7ea4-42f8-87ba-4097c26363bb","system_id":"levelo_inurba_marseille","lat":43.26213,"lon":5.37929,"is_reserved":false,"is_disabled":false,"rental_uris":{"android":"levelo://app?vid=7e62eef8-7ea4-42f8-87ba-4097c26363bb","ios":"levelo://app?vid=7e62eef8-7ea4-42f8-87ba-4097c26363bb"},"vehicle_type_id":"4","last_reported":1687104461,"current_range_meters":7600,"station_id":"ce4bhjp2rcd13ifvqg90","pricing_plan_id":"free"},{"bike_id":"76e1c873-036c-4884-b45e-02a107f007b1","system_id":"levelo_inurba_marseille","lat":43.26213,"lon":5.3793,"is_reserved":false,"is_disabled":false,"rental_uris":{"android":"levelo://app?vid=76e1c873-036c-4884-b45e-02a107f007b1","ios":"levelo://app?vid=76e1c873-036c-4884-b45e-02a107f007b1"},"vehicle_type_id":"4","last_reported":1687104461,"current_range_meters":0,"station_id":"ce4bhjp2rcd13ifvqg90","pricing_plan_id":"free"},{"bike_id":"bfce0a8a-377b-40a8-b89b-d4d178818a55","system_id":"levelo_inurba_marseille","lat":43.26213,"lon":5.37931,"is_reserved":false,"is_disabled":false,"rental_uris":{"android":"levelo://app?vid=bfce0a8a-377b-40a8-b89b-d4d178818a55","ios":"levelo://app?vid=bfce0a8a-377b-40a8-b89b-d4d178818a55"},"vehicle_type_id":"4","last_reported":1687104461,"current_range_meters":1600,"station_id":"ce4bhjp2rcd13ifvqg90","pricing_plan_id":"free"},{"bike_id":"d54b6070-f92d-46b7-9d8e-dd2a2c443c43","system_id":"levelo_inurba_marseille","lat":43.26212,"lon":5.37928,"is_reserved":false,"is_disabled":false,"rental_uris":{"android":"levelo://app?vid=d54b6070-f92d-46b7-9d8e-dd2a2c443c43","ios":"levelo://app?vid=d54b6070-f92d-46b7-9d8e-dd2a2c443c43"},"vehicle_type_id":"4","last_reported":1687104461,"current_range_meters":20000,"station_id":"ce4bhjp2rcd13ifvqg90","pricing_plan_id":"free"},{"bike_id":"0564c76b-75c5-4cf4-9b4d-fadf4ba608d5","system_id":"levelo_inurba_marseille","lat":43.26212,"lon":5.37932,"is_reserved":false,"is_disabled":false,"rental_uris":{"android":"levelo://app?vid=0564c76b-75c5-4cf4-9b4d-fadf4ba608d5","ios":"levelo://app?vid=0564c76b-75c5-4cf4-9b4d-fadf4ba608d5"},"vehicle_type_id":"4","last_reported":1687104461,"current_range_meters":6800,"station_id":"ce4bhjp2rcd13ifvqg90","pricing_plan_id":"free"},{"bike_id":"0531736f-8d2d-4926-9ba0-8853709f3afa","system_id":"levelo_inurba_marseille","lat":43.26211,"lon":5.37927,"is_reserved":false,"is_disabled":false,"rental_uris":{"android":"levelo://app?vid=0531736f-8d2d-4926-9ba0-8853709f3afa","ios":"levelo://app?vid=0531736f-8d2d-4926-9ba0-8853709f3afa"},"vehicle_type_id":"4","last_reported":1687104461,"current_range_meters":10400,"station_id":"ce4bhjp2rcd13ifvqg90","pricing_plan_id":"free"},{"bike_id":"8bd42547-bbd1-45e7-9d41-b4cc9c5b76b8","system_id":"levelo_inurba_marseille","lat":43.26209,"lon":5.37922,"is_reserved":false,"is_disabled":false,"rental_uris":{"android":"levelo://app?vid=8bd42547-bbd1-45e7-9d41-b4cc9c5b76b8","ios":"levelo://app?vid=8bd42547-bbd1-45e7-9d41-b4cc9c5b76b8"},"vehicle_type_id":"4","last_reported":1687104461,"current_range_meters":14000,"station_id":"ce4bhjp2rcd13ifvqg90","pricing_plan_id":"free"},{"bike_id":"e89dc400-4e85-4b02-b53a-1128a777718d","system_id":"levelo_inurba_marseille","lat":43.262012,"lon":5.379307,"is_reserved":false,"is_disabled":false,"rental_uris":{"android":"levelo://app?vid=e89dc400-4e85-4b02-b53a-1128a777718d","ios":"levelo://app?vid=e89dc400-4e85-4b02-b53a-1128a777718d"},"vehicle_type_id":"4","last_reported":1687104461,"current_range_meters":12000,"station_id":"ce4bhjp2rcd13ifvqg90","pricing_plan_id":"free"},{"bike_id":"ef5dbf20-3dc5-425a-b05b-6f6cdc409ba8","system_id":"levelo_inurba_marseille","lat":43.26209,"lon":5.37926,"is_reserved":false,"is_disabled":false,"rental_uris":{"android":"levelo://app?vid=ef5dbf20-3dc5-425a-b05b-6f6cdc409ba8","ios":"levelo://app?vid=ef5dbf20-3dc5-425a-b05b-6f6cdc409ba8"},"vehicle_type_id":"4","last_reported":1687104461,"current_range_meters":26000,"station_id":"ce4bhjp2rcd13ifvqg90","pricing_plan_id":"free"},{"bike_id":"7bbf3439-ca5d-4bdc-b5ae-dbb0959a03a9","system_id":"levelo_inurba_marseille","lat":43.2621,"lon":5.37935,"is_reserved":false,"is_disabled":false,"rental_uris":{"android":"levelo://app?vid=7bbf3439-ca5d-4bdc-b5ae-dbb0959a03a9","ios":"levelo://app?vid=7bbf3439-ca5d-4bdc-b5ae-dbb0959a03a9"},"vehicle_type_id":"4","last_reported":1687104461,"current_range_meters":17600,"station_id":"ce4bhjp2rcd13ifvqg90","pricing_plan_id":"free"},{"bike_id":"a2aa8dff-5710-427d-9c2f-054af99bcb4f","system_id":"levelo_inurba_marseille","lat":43.262096,"lon":5.379335,"is_reserved":false,"is_disabled":false,"rental_uris":{"android":"levelo://app?vid=a2aa8dff-5710-427d-9c2f-054af99bcb4f","ios":"levelo://app?vid=a2aa8dff-5710-427d-9c2f-054af99bcb4f"},"vehicle_type_id":"4","last_reported":1687104461,"current_range_meters":0,"station_id":"ce4bhjp2rcd13ifvqg90","pricing_plan_id":"free"},{"bike_id":"3053fd1f-c758-4165-9477-50a7f61aa137","system_id":"levelo_inurba_marseille","lat":43.262012,"lon":5.379307,"is_reserved":false,"is_disabled":false,"rental_uris":{"android":"levelo://app?vid=3053fd1f-c758-4165-9477-50a7f61aa137","ios":"levelo://app?vid=3053fd1f-c758-4165-9477-50a7f61aa137"},"vehicle_type_id":"4","last_reported":1687104461,"current_range_meters":12400,"station_id":"ce4bhjp2rcd13ifvqg90","pricing_plan_id":"free"},{"bike_id":"c97c56e9-5352-4102-b685-b5690dd175eb","system_id":"levelo_inurba_marseille","lat":43.26208,"lon":5.37926,"is_reserved":false,"is_disabled":false,"rental_uris":{"android":"levelo://app?vid=c97c56e9-5352-4102-b685-b5690dd175eb","ios":"levelo://app?vid=c97c56e9-5352-4102-b685-b5690dd175eb"},"vehicle_type_id":"4","last_reported":1687104461,"current_range_meters":7600,"station_id":"ce4bhjp2rcd13ifvqg90","pricing_plan_id":"free"},{"bike_id":"225d7332-cba1-4ddb-9cb0-9cd8ad5ce47a","system_id":"levelo_inurba_marseille","lat":43.26202,"lon":5.379299,"is_reserved":false,"is_disabled":false,"rental_uris":{"android":"levelo://app?vid=225d7332-cba1-4ddb-9cb0-9cd8ad5ce47a","ios":"levelo://app?vid=225d7332-cba1-4ddb-9cb0-9cd8ad5ce47a"},"vehicle_type_id":"4","last_reported":1687104461,"current_range_meters":14400,"station_id":"ce4bhjp2rcd13ifvqg90","pricing_plan_id":"free"},{"bike_id":"b565cc05-4131-442b-a318-fc0277dba6de","system_id":"levelo_inurba_marseille","lat":43.26208,"lon":5.3793,"is_reserved":false,"is_disabled":false,"rental_uris":{"android":"levelo://app?vid=b565cc05-4131-442b-a318-fc0277dba6de","ios":"levelo://app?vid=b565cc05-4131-442b-a318-fc0277dba6de"},"vehicle_type_id":"4","last_reported":1687104461,"current_range_meters":10400,"station_id":"ce4bhjp2rcd13ifvqg90","pricing_plan_id":"free"},{"bike_id":"c946daf2-5581-4b50-94b3-ad69d30f204d","system_id":"levelo_inurba_marseille","lat":43.26207,"lon":5.37927,"is_reserved":false,"is_disabled":false,"rental_uris":{"android":"levelo://app?vid=c946daf2-5581-4b50-94b3-ad69d30f204d","ios":"levelo://app?vid=c946daf2-5581-4b50-94b3-ad69d30f204d"},"vehicle_type_id":"4","last_reported":1687104461,"current_range_meters":12800,"station_id":"ce4bhjp2rcd13ifvqg90","pricing_plan_id":"free"},{"bike_id":"4f3865cb-5c93-4b02-af96-405243cc878a","system_id":"levelo_inurba_marseille","lat":43.26207,"lon":5.37929,"is_reserved":false,"is_disabled":false,"rental_uris":{"android":"levelo://app?vid=4f3865cb-5c93-4b02-af96-405243cc878a","ios":"levelo://app?vid=4f3865cb-5c93-4b02-af96-405243cc878a"},"vehicle_type_id":"4","last_reported":1687104461,"current_range_meters":26400,"station_id":"ce4bhjp2rcd13ifvqg90","pricing_plan_id":"free"},{"bike_id":"5864008a-3833-47f8-adb5-d70fa1b44ffb","system_id":"levelo_inurba_marseille","lat":43.262012,"lon":5.379307,"is_reserved":false,"is_disabled":false,"rental_uris":{"android":"levelo://app?vid=5864008a-3833-47f8-adb5-d70fa1b44ffb","ios":"levelo://app?vid=5864008a-3833-47f8-adb5-d70fa1b44ffb"},"vehicle_type_id":"4","last_reported":1687104461,"current_range_meters":0,"station_id":"ce4bhjp2rcd13ifvqg90","pricing_plan_id":"free"},{"bike_id":"a9092a4f-c201-496f-a723-08aae3eb2399","system_id":"levelo_inurba_marseille","lat":43.26209,"lon":5.37946,"is_reserved":false,"is_disabled":false,"rental_uris":{"android":"levelo://app?vid=a9092a4f-c201-496f-a723-08aae3eb2399","ios":"levelo://app?vid=a9092a4f-c201-496f-a723-08aae3eb2399"},"vehicle_type_id":"4","last_reported":1687104461,"current_range_meters":20400,"station_id":"ce4bhjp2rcd13ifvqg90","pricing_plan_id":"free"},{"bike_id":"859afd7c-66a4-4819-a42c-60f431f43db7","system_id":"levelo_inurba_marseille","lat":43.26206,"lon":5.37924,"is_reserved":false,"is_disabled":false,"rental_uris":{"android":"levelo://app?vid=859afd7c-66a4-4819-a42c-60f431f43db7","ios":"levelo://app?vid=859afd7c-66a4-4819-a42c-60f431f43db7"},"vehicle_type_id":"4","last_reported":1687104461,"current_range_meters":15200,"station_id":"ce4bhjp2rcd13ifvqg90","pricing_plan_id":"free"},{"bike_id":"5fdafd8d-7872-48fc-ab67-54044fa086a0","system_id":"levelo_inurba_marseille","lat":43.26202,"lon":5.379299,"is_reserved":false,"is_disabled":false,"rental_uris":{"android":"levelo://app?vid=5fdafd8d-7872-48fc-ab67-54044fa086a0","ios":"levelo://app?vid=5fdafd8d-7872-48fc-ab67-54044fa086a0"},"vehicle_type_id":"4","last_reported":1687104461,"current_range_meters":29600,"station_id":"ce4bhjp2rcd13ifvqg90","pricing_plan_id":"free"},{"bike_id":"c30fbcd2-2556-43fd-92fc-47b98954db22","system_id":"levelo_inurba_marseille","lat":43.262012,"lon":5.379307,"is_reserved":false,"is_disabled":false,"rental_uris":{"android":"levelo://app?vid=c30fbcd2-2556-43fd-92fc-47b98954db22","ios":"levelo://app?vid=c30fbcd2-2556-43fd-92fc-47b98954db22"},"vehicle_type_id":"4","last_reported":1687104461,"current_range_meters":24000,"station_id":"ce4bhjp2rcd13ifvqg90","pricing_plan_id":"free"},{"bike_id":"d5cb9e2f-e0d2-4ba1-a4a3-ff9c59eb3b53","system_id":"levelo_inurba_marseille","lat":43.26205,"lon":5.37924,"is_reserved":false,"is_disabled":false,"rental_uris":{"android":"levelo://app?vid=d5cb9e2f-e0d2-4ba1-a4a3-ff9c59eb3b53","ios":"levelo://app?vid=d5cb9e2f-e0d2-4ba1-a4a3-ff9c59eb3b53"},"vehicle_type_id":"4","last_reported":1687104461,"current_range_meters":21600,"station_id":"ce4bhjp2rcd13ifvqg90","pricing_plan_id":"free"},{"bike_id":"7213ade1-abd2-4857-85cd-797e09e13f7a","system_id":"levelo_inurba_marseille","lat":43.262012,"lon":5.379307,"is_reserved":false,"is_disabled":false,"rental_uris":{"android":"levelo://app?vid=7213ade1-abd2-4857-85cd-797e09e13f7a","ios":"levelo://app?vid=7213ade1-abd2-4857-85cd-797e09e13f7a"},"vehicle_type_id":"4","last_reported":1687104461,"current_range_meters":22400,"station_id":"ce4bhjp2rcd13ifvqg90","pricing_plan_id":"free"},{"bike_id":"6ccac4a1-6ca6-4789-bfe7-b553907f46ef","system_id":"levelo_inurba_marseille","lat":43.26205,"lon":5.37927,"is_reserved":false,"is_disabled":false,"rental_uris":{"android":"levelo://app?vid=6ccac4a1-6ca6-4789-bfe7-b553907f46ef","ios":"levelo://app?vid=6ccac4a1-6ca6-4789-bfe7-b553907f46ef"},"vehicle_type_id":"4","last_reported":1687104461,"current_range_meters":400,"station_id":"ce4bhjp2rcd13ifvqg90","pricing_plan_id":"free"},{"bike_id":"a9656abd-c999-4cca-856e-9f99b39b6bc4","system_id":"levelo_inurba_marseille","lat":43.262012,"lon":5.379307,"is_reserved":false,"is_disabled":false,"rental_uris":{"android":"levelo://app?vid=a9656abd-c999-4cca-856e-9f99b39b6bc4","ios":"levelo://app?vid=a9656abd-c999-4cca-856e-9f99b39b6bc4"},"vehicle_type_id":"4","last_reported":1687104461,"current_range_meters":31200,"station_id":"ce4bhjp2rcd13ifvqg90","pricing_plan_id":"free"},{"bike_id":"53f4b59d-fc7a-466c-8aab-848626dba241","system_id":"levelo_inurba_marseille","lat":43.26205,"lon":5.37933,"is_reserved":false,"is_disabled":false,"rental_uris":{"android":"levelo://app?vid=53f4b59d-fc7a-466c-8aab-848626dba241","ios":"levelo://app?vid=53f4b59d-fc7a-466c-8aab-848626dba241"},"vehicle_type_id":"4","last_reported":1687104461,"current_range_meters":6000,"station_id":"ce4bhjp2rcd13ifvqg90","pricing_plan_id":"free"},{"bike_id":"eca9837a-da44-414b-bd58-7876449b6a4b","system_id":"levelo_inurba_marseille","lat":43.262012,"lon":5.379307,"is_reserved":false,"is_disabled":false,"rental_uris":{"android":"levelo://app?vid=eca9837a-da44-414b-bd58-7876449b6a4b","ios":"levelo://app?vid=eca9837a-da44-414b-bd58-7876449b6a4b"},"vehicle_type_id":"4","last_reported":1687104461,"current_range_meters":28400,"station_id":"ce4bhjp2rcd13ifvqg90","pricing_plan_id":"free"},{"bike_id":"78fcb92f-0468-4f5d-937f-d3cb7c87d972","system_id":"levelo_inurba_marseille","lat":43.26205,"lon":5.37934,"is_reserved":false,"is_disabled":false,"rental_uris":{"android":"levelo://app?vid=78fcb92f-0468-4f5d-937f-d3cb7c87d972","ios":"levelo://app?vid=78fcb92f-0468-4f5d-937f-d3cb7c87d972"},"vehicle_type_id":"4","last_reported":1687104461,"current_range_meters":800,"station_id":"ce4bhjp2rcd13ifvqg90","pricing_plan_id":"free"},{"bike_id":"0a938d4c-4899-4f5a-bdc3-9246531bf0dc","system_id":"levelo_inurba_marseille","lat":43.26202,"lon":5.379299,"is_reserved":false,"is_disabled":false,"rental_uris":{"android":"levelo://app?vid=0a938d4c-4899-4f5a-bdc3-9246531bf0dc","ios":"levelo://app?vid=0a938d4c-4899-4f5a-bdc3-9246531bf0dc"},"vehicle_type_id":"4","last_reported":1687104461,"current_range_meters":12000,"station_id":"ce4bhjp2rcd13ifvqg90","pricing_plan_id":"free"},{"bike_id":"9fe2f556-b711-4aff-a541-a760419c2fb0","system_id":"levelo_inurba_marseille","lat":43.26203,"lon":5.37929,"is_reserved":false,"is_disabled":false,"rental_uris":{"android":"levelo://app?vid=9fe2f556-b711-4aff-a541-a760419c2fb0","ios":"levelo://app?vid=9fe2f556-b711-4aff-a541-a760419c2fb0"},"vehicle_type_id":"4","last_reported":1687104461,"current_range_meters":26400,"station_id":"ce4bhjp2rcd13ifvqg90","pricing_plan_id":"free"},{"bike_id":"1db470a6-99f2-40ce-be5d-dd0f59ed17f6","system_id":"levelo_inurba_marseille","lat":43.26202,"lon":5.3793,"is_reserved":false,"is_disabled":false,"rental_uris":{"android":"levelo://app?vid=1db470a6-99f2-40ce-be5d-dd0f59ed17f6","ios":"levelo://app?vid=1db470a6-99f2-40ce-be5d-dd0f59ed17f6"},"vehicle_type_id":"4","last_reported":1687104461,"current_range_meters":22800,"station_id":"ce4bhjp2rcd13ifvqg90","pricing_plan_id":"free"},{"bike_id":"43dea6e9-628e-4e4d-97e3-47be8678110d","system_id":"levelo_inurba_marseille","lat":43.26202,"lon":5.37933,"is_reserved":false,"is_disabled":false,"rental_uris":{"android":"levelo://app?vid=43dea6e9-628e-4e4d-97e3-47be8678110d","ios":"levelo://app?vid=43dea6e9-628e-4e4d-97e3-47be8678110d"},"vehicle_type_id":"4","last_reported":1687104461,"current_range_meters":1600,"station_id":"ce4bhjp2rcd13ifvqg90","pricing_plan_id":"free"},{"bike_id":"202763cc-76ec-4a5e-84bc-5d378695846b","system_id":"levelo_inurba_marseille","lat":43.26201,"lon":5.37929,"is_reserved":false,"is_disabled":false,"rental_uris":{"android":"levelo://app?vid=202763cc-76ec-4a5e-84bc-5d378695846b","ios":"levelo://app?vid=202763cc-76ec-4a5e-84bc-5d378695846b"},"vehicle_type_id":"4","last_reported":1687104461,"current_range_meters":30800,"station_id":"ce4bhjp2rcd13ifvqg90","pricing_plan_id":"free"},{"bike_id":"5648b3af-1986-40f6-8b5e-87f404992f56","system_id":"levelo_inurba_marseille","lat":43.26201,"lon":5.37929,"is_reserved":false,"is_disabled":false,"rental_uris":{"android":"levelo://app?vid=5648b3af-1986-40f6-8b5e-87f404992f56","ios":"levelo://app?vid=5648b3af-1986-40f6-8b5e-87f404992f56"},"vehicle_type_id":"4","last_reported":1687104461,"current_range_meters":11600,"station_id":"ce4bhjp2rcd13ifvqg90","pricing_plan_id":"free"},{"bike_id":"d098c8e3-32b1-4032-9ab7-2e8612c6beb3","system_id":"levelo_inurba_marseille","lat":43.26201,"lon":5.37931,"is_reserved":false,"is_disabled":false,"rental_uris":{"android":"levelo://app?vid=d098c8e3-32b1-4032-9ab7-2e8612c6beb3","ios":"levelo://app?vid=d098c8e3-32b1-4032-9ab7-2e8612c6beb3"},"vehicle_type_id":"4","last_reported":1687104461,"current_range_meters":25200,"station_id":"ce4bhjp2rcd13ifvqg90","pricing_plan_id":"free"},{"bike_id":"0deaae11-c264-4187-a71d-582596381a84","system_id":"levelo_inurba_marseille","lat":43.262,"lon":5.37928,"is_reserved":false,"is_disabled":false,"rental_uris":{"android":"levelo://app?vid=0deaae11-c264-4187-a71d-582596381a84","ios":"levelo://app?vid=0deaae11-c264-4187-a71d-582596381a84"},"vehicle_type_id":"4","last_reported":1687104461,"current_range_meters":31200,"station_id":"ce4bhjp2rcd13ifvqg90","pricing_plan_id":"free"},{"bike_id":"773efac5-ab19-4943-9087-01ab7f219073","system_id":"levelo_inurba_marseille","lat":43.27151,"lon":5.4094,"is_reserved":false,"is_disabled":false,"rental_uris":{"android":"levelo://app?vid=773efac5-ab19-4943-9087-01ab7f219073","ios":"levelo://app?vid=773efac5-ab19-4943-9087-01ab7f219073"},"vehicle_type_id":"4","last_reported":1687104461,"current_range_meters":6000,"station_id":"","pricing_plan_id":"free"},{"bike_id":"2c84b48f-7b05-449a-94ed-65d80302819a","system_id":"levelo_inurba_marseille","lat":43.262,"lon":5.3793,"is_reserved":false,"is_disabled":false,"rental_uris":{"android":"levelo://app?vid=2c84b48f-7b05-449a-94ed-65d80302819a","ios":"levelo://app?vid=2c84b48f-7b05-449a-94ed-65d80302819a"},"vehicle_type_id":"4","last_reported":1687104461,"current_range_meters":20000,"station_id":"ce4bhjp2rcd13ifvqg90","pricing_plan_id":"free"},{"bike_id":"d8cf7e6d-f933-4afc-9a82-55bbac115ffc","system_id":"levelo_inurba_marseille","lat":43.262,"lon":5.37936,"is_reserved":false,"is_disabled":false,"rental_uris":{"android":"levelo://app?vid=d8cf7e6d-f933-4afc-9a82-55bbac115ffc","ios":"levelo://app?vid=d8cf7e6d-f933-4afc-9a82-55bbac115ffc"},"vehicle_type_id":"4","last_reported":1687104461,"current_range_meters":24400,"station_id":"ce4bhjp2rcd13ifvqg90","pricing_plan_id":"free"},{"bike_id":"3df4b959-e062-4b40-a2a2-634fb26ed55d","system_id":"levelo_inurba_marseille","lat":43.27178,"lon":5.40991,"is_reserved":false,"is_disabled":false,"rental_uris":{"android":"levelo://app?vid=3df4b959-e062-4b40-a2a2-634fb26ed55d","ios":"levelo://app?vid=3df4b959-e062-4b40-a2a2-634fb26ed55d"},"vehicle_type_id":"4","last_reported":1687104461,"current_range_meters":17600,"station_id":"","pricing_plan_id":"free"},{"bike_id":"8e5bf5ff-cee7-4523-89bb-6e59c0fefa80","system_id":"levelo_inurba_marseille","lat":43.27176,"lon":5.40997,"is_reserved":false,"is_disabled":false,"rental_uris":{"android":"levelo://app?vid=8e5bf5ff-cee7-4523-89bb-6e59c0fefa80","ios":"levelo://app?vid=8e5bf5ff-cee7-4523-89bb-6e59c0fefa80"},"vehicle_type_id":"4","last_reported":1687104461,"current_range_meters":31200,"station_id":"","pricing_plan_id":"free"},{"bike_id":"c857e9e6-1f54-46da-bfdb-db8bf7fe830b","system_id":"levelo_inurba_marseille","lat":43.27175,"lon":5.41008,"is_reserved":false,"is_disabled":false,"rental_uris":{"android":"levelo://app?vid=c857e9e6-1f54-46da-bfdb-db8bf7fe830b","ios":"levelo://app?vid=c857e9e6-1f54-46da-bfdb-db8bf7fe830b"},"vehicle_type_id":"4","last_reported":1687104461,"current_range_meters":17600,"station_id":"","pricing_plan_id":"free"},{"bike_id":"a2c1d59d-240b-43f6-b81f-daf10fcc0fcf","system_id":"levelo_inurba_marseille","lat":43.267959,"lon":5.402687,"is_reserved":false,"is_disabled":false,"rental_uris":{"android":"levelo://app?vid=a2c1d59d-240b-43f6-b81f-daf10fcc0fcf","ios":"levelo://app?vid=a2c1d59d-240b-43f6-b81f-daf10fcc0fcf"},"vehicle_type_id":"4","last_reported":1687104461,"current_range_meters":30000,"station_id":"ce501612rcd8frsf0b60","pricing_plan_id":"free"},{"bike_id":"5c1ef457-6ffa-4cb8-92d8-bd98544a04f6","system_id":"levelo_inurba_marseille","lat":43.298768,"lon":5.43643,"is_reserved":false,"is_disabled":false,"rental_uris":{"android":"levelo://app?vid=5c1ef457-6ffa-4cb8-92d8-bd98544a04f6","ios":"levelo://app?vid=5c1ef457-6ffa-4cb8-92d8-bd98544a04f6"},"vehicle_type_id":"4","last_reported":1687104461,"current_range_meters":29600,"station_id":"ce4bhpp2rcd13ifvqhfg","pricing_plan_id":"free"},{"bike_id":"2f08d074-bc4a-4965-90b7-415b44449efd","system_id":"levelo_inurba_marseille","lat":43.29895,"lon":5.4366,"is_reserved":false,"is_disabled":false,"rental_uris":{"android":"levelo://app?vid=2f08d074-bc4a-4965-90b7-415b44449efd","ios":"levelo://app?vid=2f08d074-bc4a-4965-90b7-415b44449efd"},"vehicle_type_id":"4","last_reported":1687104461,"current_range_meters":18000,"station_id":"ce4bhpp2rcd13ifvqhfg","pricing_plan_id":"free"},{"bike_id":"7a577f88-ebd7-4794-912b-c1166c1de77e","system_id":"levelo_inurba_marseille","lat":43.260225,"lon":5.375455,"is_reserved":false,"is_disabled":false,"rental_uris":{"android":"levelo://app?vid=7a577f88-ebd7-4794-912b-c1166c1de77e","ios":"levelo://app?vid=7a577f88-ebd7-4794-912b-c1166c1de77e"},"vehicle_type_id":"4","last_reported":1687104461,"current_range_meters":27600,"station_id":"ce4bhgh2rcd13ifvqfa0","pricing_plan_id":"free"},{"bike_id":"b9457ca2-5b37-40a6-827e-52c59fd0d70f","system_id":"levelo_inurba_marseille","lat":43.260225,"lon":5.375455,"is_reserved":false,"is_disabled":false,"rental_uris":{"android":"levelo://app?vid=b9457ca2-5b37-40a6-827e-52c59fd0d70f","ios":"levelo://app?vid=b9457ca2-5b37-40a6-827e-52c59fd0d70f"},"vehicle_type_id":"4","last_reported":1687104461,"current_range_meters":31200,"station_id":"ce4bhgh2rcd13ifvqfa0","pricing_plan_id":"free"},{"bike_id":"ded9184d-ea8b-4517-a9df-2f4cdaa544d8","system_id":"levelo_inurba_marseille","lat":43.260225,"lon":5.375455,"is_reserved":false,"is_disabled":false,"rental_uris":{"android":"levelo://app?vid=ded9184d-ea8b-4517-a9df-2f4cdaa544d8","ios":"levelo://app?vid=ded9184d-ea8b-4517-a9df-2f4cdaa544d8"},"vehicle_type_id":"4","last_reported":1687104461,"current_range_meters":26000,"station_id":"ce4bhgh2rcd13ifvqfa0","pricing_plan_id":"free"},{"bike_id":"9dc5e604-98be-4631-ab52-9dd23ce2ae9a","system_id":"levelo_inurba_marseille","lat":43.26027,"lon":5.37548,"is_reserved":false,"is_disabled":false,"rental_uris":{"android":"levelo://app?vid=9dc5e604-98be-4631-ab52-9dd23ce2ae9a","ios":"levelo://app?vid=9dc5e604-98be-4631-ab52-9dd23ce2ae9a"},"vehicle_type_id":"4","last_reported":1687104461,"current_range_meters":16400,"station_id":"ce4bhgh2rcd13ifvqfa0","pricing_plan_id":"free"},{"bike_id":"3e2b6dc8-e47e-4624-9808-c847192705dd","system_id":"levelo_inurba_marseille","lat":43.2607,"lon":5.393983,"is_reserved":false,"is_disabled":false,"rental_uris":{"android":"levelo://app?vid=3e2b6dc8-e47e-4624-9808-c847192705dd","ios":"levelo://app?vid=3e2b6dc8-e47e-4624-9808-c847192705dd"},"vehicle_type_id":"4","last_reported":1687104461,"current_range_meters":17200,"station_id":"ce4bhh92rcd13ifvqfj0","pricing_plan_id":"free"},{"bike_id":"c5e8e433-dc42-41cd-a2ba-846d296745f1","system_id":"levelo_inurba_marseille","lat":43.27496,"lon":5.4246,"is_reserved":false,"is_disabled":false,"rental_uris":{"android":"levelo://app?vid=c5e8e433-dc42-41cd-a2ba-846d296745f1","ios":"levelo://app?vid=c5e8e433-dc42-41cd-a2ba-846d296745f1"},"vehicle_type_id":"4","last_reported":1687104461,"current_range_meters":10400,"station_id":"","pricing_plan_id":"free"},{"bike_id":"2e16cf83-fb2c-47df-b7c5-c8ca0e8506d1","system_id":"levelo_inurba_marseille","lat":43.25565,"lon":5.37531,"is_reserved":false,"is_disabled":false,"rental_uris":{"android":"levelo://app?vid=2e16cf83-fb2c-47df-b7c5-c8ca0e8506d1","ios":"levelo://app?vid=2e16cf83-fb2c-47df-b7c5-c8ca0e8506d1"},"vehicle_type_id":"4","last_reported":1687104461,"current_range_meters":7200,"station_id":"","pricing_plan_id":"free"},{"bike_id":"fd5b8ca8-ea88-4fde-8657-2115d07f9982","system_id":"levelo_inurba_marseille","lat":43.27071,"lon":5.42273,"is_reserved":false,"is_disabled":false,"rental_uris":{"android":"levelo://app?vid=fd5b8ca8-ea88-4fde-8657-2115d07f9982","ios":"levelo://app?vid=fd5b8ca8-ea88-4fde-8657-2115d07f9982"},"vehicle_type_id":"4","last_reported":1687104461,"current_range_meters":15200,"station_id":"ce4bhk92rcd13ifvqgb0","pricing_plan_id":"free"},{"bike_id":"c8102f46-d224-42a6-889a-f5d153660daa","system_id":"levelo_inurba_marseille","lat":43.27071,"lon":5.42281,"is_reserved":false,"is_disabled":false,"rental_uris":{"android":"levelo://app?vid=c8102f46-d224-42a6-889a-f5d153660daa","ios":"levelo://app?vid=c8102f46-d224-42a6-889a-f5d153660daa"},"vehicle_type_id":"4","last_reported":1687104461,"current_range_meters":24400,"station_id":"ce4bhk92rcd13ifvqgb0","pricing_plan_id":"free"},{"bike_id":"36c052a3-cccc-4d3d-bd8e-c287ea8219c0","system_id":"levelo_inurba_marseille","lat":43.27071,"lon":5.42284,"is_reserved":false,"is_disabled":false,"rental_uris":{"android":"levelo://app?vid=36c052a3-cccc-4d3d-bd8e-c287ea8219c0","ios":"levelo://app?vid=36c052a3-cccc-4d3d-bd8e-c287ea8219c0"},"vehicle_type_id":"4","last_reported":1687104461,"current_range_meters":1200,"station_id":"ce4bhk92rcd13ifvqgb0","pricing_plan_id":"free"},{"bike_id":"1ec26020-2e4d-46a4-84eb-313be4d3ad5e","system_id":"levelo_inurba_marseille","lat":43.2595,"lon":5.40888,"is_reserved":false,"is_disabled":false,"rental_uris":{"android":"levelo://app?vid=1ec26020-2e4d-46a4-84eb-313be4d3ad5e","ios":"levelo://app?vid=1ec26020-2e4d-46a4-84eb-313be4d3ad5e"},"vehicle_type_id":"4","last_reported":1687104461,"current_range_meters":29600,"station_id":"","pricing_plan_id":"free"},{"bike_id":"9f317ca7-4cc0-4cdd-89ce-af641684108c","system_id":"levelo_inurba_marseille","lat":43.2594,"lon":5.40903,"is_reserved":false,"is_disabled":false,"rental_uris":{"android":"levelo://app?vid=9f317ca7-4cc0-4cdd-89ce-af641684108c","ios":"levelo://app?vid=9f317ca7-4cc0-4cdd-89ce-af641684108c"},"vehicle_type_id":"4","last_reported":1687104461,"current_range_meters":30400,"station_id":"","pricing_plan_id":"free"},{"bike_id":"a41f6cb0-5d5f-481d-b6f8-85b3eba1b01e","system_id":"levelo_inurba_marseille","lat":43.25938,"lon":5.409,"is_reserved":false,"is_disabled":false,"rental_uris":{"android":"levelo://app?vid=a41f6cb0-5d5f-481d-b6f8-85b3eba1b01e","ios":"levelo://app?vid=a41f6cb0-5d5f-481d-b6f8-85b3eba1b01e"},"vehicle_type_id":"4","last_reported":1687104461,"current_range_meters":18400,"station_id":"","pricing_plan_id":"free"},{"bike_id":"f44e6d11-6fdb-4946-a083-d97bec6a15f0","system_id":"levelo_inurba_marseille","lat":43.25939,"lon":5.40909,"is_reserved":false,"is_disabled":false,"rental_uris":{"android":"levelo://app?vid=f44e6d11-6fdb-4946-a083-d97bec6a15f0","ios":"levelo://app?vid=f44e6d11-6fdb-4946-a083-d97bec6a15f0"},"vehicle_type_id":"4","last_reported":1687104461,"current_range_meters":8400,"station_id":"","pricing_plan_id":"free"},{"bike_id":"d7e6885a-915f-4840-b812-71547a248711","system_id":"levelo_inurba_marseille","lat":43.25935,"lon":5.40912,"is_reserved":false,"is_disabled":false,"rental_uris":{"android":"levelo://app?vid=d7e6885a-915f-4840-b812-71547a248711","ios":"levelo://app?vid=d7e6885a-915f-4840-b812-71547a248711"},"vehicle_type_id":"4","last_reported":1687104461,"current_range_meters":4800,"station_id":"","pricing_plan_id":"free"},{"bike_id":"0107e17b-0cf4-48dd-8ae0-0352edc89d17","system_id":"levelo_inurba_marseille","lat":43.259013,"lon":5.409301,"is_reserved":false,"is_disabled":false,"rental_uris":{"android":"levelo://app?vid=0107e17b-0cf4-48dd-8ae0-0352edc89d17","ios":"levelo://app?vid=0107e17b-0cf4-48dd-8ae0-0352edc89d17"},"vehicle_type_id":"4","last_reported":1687104461,"current_range_meters":19200,"station_id":"ce4bhm92rcd13ifvqglg","pricing_plan_id":"free"},{"bike_id":"acfdab05-b878-4d84-909e-8790ae64670c","system_id":"levelo_inurba_marseille","lat":43.250023,"lon":5.38919,"is_reserved":false,"is_disabled":false,"rental_uris":{"android":"levelo://app?vid=acfdab05-b878-4d84-909e-8790ae64670c","ios":"levelo://app?vid=acfdab05-b878-4d84-909e-8790ae64670c"},"vehicle_type_id":"4","last_reported":1687104461,"current_range_meters":6800,"station_id":"ce4bhgp2rcd13ifvqfd0","pricing_plan_id":"free"},{"bike_id":"2989ebd0-3b35-497f-bba3-9d13ed40cf22","system_id":"levelo_inurba_marseille","lat":43.250966,"lon":5.395186,"is_reserved":false,"is_disabled":false,"rental_uris":{"android":"levelo://app?vid=2989ebd0-3b35-497f-bba3-9d13ed40cf22","ios":"levelo://app?vid=2989ebd0-3b35-497f-bba3-9d13ed40cf22"},"vehicle_type_id":"4","last_reported":1687104461,"current_range_meters":31200,"station_id":"ce4bhm12rcd13ifvqgkg","pricing_plan_id":"free"},{"bike_id":"c914eb8a-7284-4ad5-9357-7103bc09cac0","system_id":"levelo_inurba_marseille","lat":43.2509,"lon":5.39525,"is_reserved":false,"is_disabled":false,"rental_uris":{"android":"levelo://app?vid=c914eb8a-7284-4ad5-9357-7103bc09cac0","ios":"levelo://app?vid=c914eb8a-7284-4ad5-9357-7103bc09cac0"},"vehicle_type_id":"4","last_reported":1687104461,"current_range_meters":6800,"station_id":"ce4bhm12rcd13ifvqgkg","pricing_plan_id":"free"},{"bike_id":"819ce523-22ab-45dd-8e28-3eed4d23746a","system_id":"levelo_inurba_marseille","lat":43.250966,"lon":5.395186,"is_reserved":false,"is_disabled":false,"rental_uris":{"android":"levelo://app?vid=819ce523-22ab-45dd-8e28-3eed4d23746a","ios":"levelo://app?vid=819ce523-22ab-45dd-8e28-3eed4d23746a"},"vehicle_type_id":"4","last_reported":1687104461,"current_range_meters":18400,"station_id":"ce4bhm12rcd13ifvqgkg","pricing_plan_id":"free"},{"bike_id":"4c8ea9e6-ab95-4eb0-9e2a-cc750247d26f","system_id":"levelo_inurba_marseille","lat":43.24667,"lon":5.38159,"is_reserved":false,"is_disabled":false,"rental_uris":{"android":"levelo://app?vid=4c8ea9e6-ab95-4eb0-9e2a-cc750247d26f","ios":"levelo://app?vid=4c8ea9e6-ab95-4eb0-9e2a-cc750247d26f"},"vehicle_type_id":"4","last_reported":1687104461,"current_range_meters":31200,"station_id":"","pricing_plan_id":"free"},{"bike_id":"61505117-18a0-43d8-92c6-e34ebef70172","system_id":"levelo_inurba_marseille","lat":43.24667,"lon":5.38164,"is_reserved":false,"is_disabled":false,"rental_uris":{"android":"levelo://app?vid=61505117-18a0-43d8-92c6-e34ebef70172","ios":"levelo://app?vid=61505117-18a0-43d8-92c6-e34ebef70172"},"vehicle_type_id":"4","last_reported":1687104461,"current_range_meters":31200,"station_id":"","pricing_plan_id":"free"},{"bike_id":"a0f7eb18-3973-4147-abb3-f24a55620ce3","system_id":"levelo_inurba_marseille","lat":43.24666,"lon":5.38163,"is_reserved":false,"is_disabled":false,"rental_uris":{"android":"levelo://app?vid=a0f7eb18-3973-4147-abb3-f24a55620ce3","ios":"levelo://app?vid=a0f7eb18-3973-4147-abb3-f24a55620ce3"},"vehicle_type_id":"4","last_reported":1687104461,"current_range_meters":8800,"station_id":"","pricing_plan_id":"free"},{"bike_id":"88e5c9c8-6287-4d08-ba5e-bfe6dce55474","system_id":"levelo_inurba_marseille","lat":43.24665,"lon":5.38164,"is_reserved":false,"is_disabled":false,"rental_uris":{"android":"levelo://app?vid=88e5c9c8-6287-4d08-ba5e-bfe6dce55474","ios":"levelo://app?vid=88e5c9c8-6287-4d08-ba5e-bfe6dce55474"},"vehicle_type_id":"4","last_reported":1687104461,"current_range_meters":31200,"station_id":"","pricing_plan_id":"free"},{"bike_id":"da5bb1fa-b79e-4f3c-aab7-d710bc94f61b","system_id":"levelo_inurba_marseille","lat":43.24665,"lon":5.38165,"is_reserved":false,"is_disabled":false,"rental_uris":{"android":"levelo://app?vid=da5bb1fa-b79e-4f3c-aab7-d710bc94f61b","ios":"levelo://app?vid=da5bb1fa-b79e-4f3c-aab7-d710bc94f61b"},"vehicle_type_id":"4","last_reported":1687104461,"current_range_meters":6800,"station_id":"","pricing_plan_id":"free"},{"bike_id":"237310ed-bc86-4604-ae36-e5519bf01e73","system_id":"levelo_inurba_marseille","lat":43.24665,"lon":5.38166,"is_reserved":false,"is_disabled":false,"rental_uris":{"android":"levelo://app?vid=237310ed-bc86-4604-ae36-e5519bf01e73","ios":"levelo://app?vid=237310ed-bc86-4604-ae36-e5519bf01e73"},"vehicle_type_id":"4","last_reported":1687104461,"current_range_meters":31200,"station_id":"","pricing_plan_id":"free"},{"bike_id":"b2dd148c-7483-4cdb-aebf-2cf27eb65c4b","system_id":"levelo_inurba_marseille","lat":43.24664,"lon":5.38159,"is_reserved":false,"is_disabled":false,"rental_uris":{"android":"levelo://app?vid=b2dd148c-7483-4cdb-aebf-2cf27eb65c4b","ios":"levelo://app?vid=b2dd148c-7483-4cdb-aebf-2cf27eb65c4b"},"vehicle_type_id":"4","last_reported":1687104461,"current_range_meters":5200,"station_id":"","pricing_plan_id":"free"},