{"last_updated":1762964076,"ttl":60,"version":"2.2","data":{"bikes":[{"bike_id":"d7db12ce-11cc-4c98-8751-ac59baa5d7aa","system_id":"levelo_inurba_marseille","lat":43.337444,"lon":5.374475,"is_reserved":false,"is_disabled":false,"rental_uris":{"android":"levelo://app?vid=d7db12ce-11cc-4c98-8751-ac59baa5d7aa","ios":"levelo://app?vid=d7db12ce-11cc-4c98-8751-ac59baa5d7aa"},"vehicle_type_id":"4","last_reported":1762964076,"current_range_meters":0,"station_id":"","pricing_plan_id":"cebpf4jnsgd1na2vs0mg"},{"bike_id":"b2be4fa2-44ee-40dc-acc7-1755c74f1c5d","system_id":"levelo_inurba_marseille","lat":43.297459,"lon":5.41112,"is_reserved":false,"is_disabled":false,"rental_uris":{"android":"levelo://app?vid=b2be4fa2-44ee-40dc-acc7-1755c74f1c5d","ios":"levelo://app?vid=b2be4fa2-44ee-40dc-acc7-1755c74f1c5d"},"vehicle_type_id":"4","last_reported":1762964076,"current_range_meters":2800,"station_id":"","pricing_plan_id":"cebpf4jnsgd1na2vs0mg"},{"bike_id":"fc938d26-8787-45e8-ac41-338f1ac4c543","system_id":"levelo_inurba_marseille","lat":43.29238,"lon":5.37623,"is_reserved":false,"is_disabled":false,"rental_uris":{"android":"levelo://app?vid=fc938d26-8787-45e8-ac41-338f1ac4c543","ios":"levelo://app?vid=fc938d26-8787-45e8-ac41-338f1ac4c543"},"vehicle_type_id":"4","last_reported":1762964076,"current_range_meters":2800,"station_id":"ce4bgi12rcd13ifvqb80","pricing_plan_id":"cebpf4jnsgd1na2vs0mg"},{"bike_id":"a439607d-b966-4e35-8154-8eef2495df82","system_id":"levelo_inurba_marseille","lat":43.291715,"lon":5.37153,"is_reserved":false,"is_disabled":false,"rental_uris":{"android":"levelo://app?vid=a439607d-b966-4e35-8154-8eef2495df82","ios":"levelo://app?vid=a439607d-b966-4e35-8154-8eef2495df82"},"vehicle_type_id":"4","last_reported":1762964076,"current_range_meters":2800,"station_id":"ce4bha92rcd13ifvqeh0","pricing_plan_id":"cebpf4jnsgd1na2vs0mg"},{"bike_id":"14167477-e062-48f1-990b-43d5127efe51","system_id":"levelo_inurba_marseille","lat":43.311701,"lon":5.387192,"is_reserved":false,"is_disabled":false,"rental_uris":{"android":"levelo://app?vid=14167477-e062-48f1-990b-43d5127efe51","ios":"levelo://app?vid=14167477-e062-48f1-990b-43d5127efe51"},"vehicle_type_id":"4","last_reported":1762964076,"current_range_meters":3200,"station_id":"ce4bgv12rcd13ifvqcp0","pricing_plan_id":"cebpf4jnsgd1na2vs0mg"},{"bike_id":"5409b343-31ca-43de-8bf1-7684f0c1df70","system_id":"levelo_inurba_marseille","lat":43.25823,"lon":5.39437,"is_reserved":false,"is_disabled":false,"rental_uris":{"android":"levelo://app?vid=5409b343-31ca-43de-8bf1-7684f0c1df70","ios":"levelo://app?vid=5409b343-31ca-43de-8bf1-7684f0c1df70"},"vehicle_type_id":"4","last_reported":1762964076,"current_range_meters":3200,"station_id":"ce4bhip2rcd13ifvqft0","pricing_plan_id":"cebpf4jnsgd1na2vs0mg"},{"bike_id":"349b2ad9-adea-4dd9-9ac9-fffb121b5424","system_id":"levelo_inurba_marseille","lat":43.29892,"lon":5.37537,"is_reserved":false,"is_disabled":false,"rental_uris":{"android":"levelo://app?vid=349b2ad9-adea-4dd9-9ac9-fffb121b5424","ios":"levelo://app?vid=349b2ad9-adea-4dd9-9ac9-fffb121b5424"},"vehicle_type_id":"4","last_reported":1762964076,"current_range_meters":3600,"station_id":"","pricing_plan_id":"cebpf4jnsgd1na2vs0mg"},{"bike_id":"13eea606-16f7-4162-a8ac-88fb6ada0fef","system_id":"levelo_inurba_marseille","lat":43.2845,"lon":5.39205,"is_reserved":false,"is_disabled":false,"rental_uris":{"android":"levelo://app?vid=13eea606-16f7-4162-a8ac-88fb6ada0fef","ios":"levelo://app?vid=13eea606-16f7-4162-a8ac-88fb6ada0fef"},"vehicle_type_id":"4","last_reported":1762964076,"current_range_meters":3600,"station_id":"ce4bhoh2rcd13ifvqh5g","pricing_plan_id":"cebpf4jnsgd1na2vs0mg"},{"bike_id":"84e0c037-4b70-4603-965e-9ca59abf1b2f","system_id":"levelo_inurba_marseille","lat":43.2952,"lon":5.38547,"is_reserved":false,"is_disabled":false,"rental_uris":{"android":"levelo://app?vid=84e0c037-4b70-4603-965e-9ca59abf1b2f","ios":"levelo://app?vid=84e0c037-4b70-4603-965e-9ca59abf1b2f"},"vehicle_type_id":"4","last_reported":1762964076,"current_range_meters":3600,"station_id":"ce4bgih2rcd13ifvqba0","pricing_plan_id":"cebpf4jnsgd1na2vs0mg"},{"bike_id":"62da84d0-7b33-4437-9377-83a424aee13a","system_id":"levelo_inurba_marseille","lat":43.308021,"lon":5.43532,"is_reserved":false,"is_disabled":false,"rental_uris":{"android":"levelo://app?vid=62da84d0-7b33-4437-9377-83a424aee13a","ios":"levelo://app?vid=62da84d0-7b33-4437-9377-83a424aee13a"},"vehicle_type_id":"4","last_reported":1762964076,"current_range_meters":4000,"station_id":"","pricing_plan_id":"cebpf4jnsgd1na2vs0mg"},{"bike_id":"72244cd1-34fa-4e6d-95c7-1af25c4feb31","system_id":"levelo_inurba_marseille","lat":43.30522,"lon":5.36709,"is_reserved":false,"is_disabled":false,"rental_uris":{"android":"levelo://app?vid=72244cd1-34fa-4e6d-95c7-1af25c4feb31","ios":"levelo://app?vid=72244cd1-34fa-4e6d-95c7-1af25c4feb31"},"vehicle_type_id":"4","last_reported":1762964076,"current_range_meters":4400,"station_id":"ce4bgrp2rcd13ifvqc9g","pricing_plan_id":"cebpf4jnsgd1na2vs0mg"},{"bike_id":"78c02fc6-e82d-47d7-9878-3e48a9dafbc2","system_id":"levelo_inurba_marseille","lat":43.28538,"lon":5.441,"is_reserved":false,"is_disabled":false,"rental_uris":{"android":"levelo://app?vid=78c02fc6-e82d-47d7-9878-3e48a9dafbc2","ios":"levelo://app?vid=78c02fc6-e82d-47d7-9878-3e48a9dafbc2"},"vehicle_type_id":"4","last_reported":1762964076,"current_range_meters":4400,"station_id":"st_d3j3df2ikq2c7380ej80","pricing_plan_id":"cebpf4jnsgd1na2vs0mg"},{"bike_id":"16352e7f-c034-4ef1-8a6e-b54abc767aa3","system_id":"levelo_inurba_marseille","lat":43.31209,"lon":5.37911,"is_reserved":false,"is_disabled":false,"rental_uris":{"android":"levelo://app?vid=16352e7f-c034-4ef1-8a6e-b54abc767aa3","ios":"levelo://app?vid=16352e7f-c034-4ef1-8a6e-b54abc767aa3"},"vehicle_type_id":"4","last_reported":1762964076,"current_range_meters":4800,"station_id":"","pricing_plan_id":"cebpf4jnsgd1na2vs0mg"},{"bike_id":"a9fec261-6c1a-49de-897d-4c0efa05f10a","system_id":"levelo_inurba_marseille","lat":43.2919,"lon":5.39334,"is_reserved":false,"is_disabled":false,"rental_uris":{"android":"levelo://app?vid=a9fec261-6c1a-49de-897d-4c0efa05f10a","ios":"levelo://app?vid=a9fec261-6c1a-49de-897d-4c0efa05f10a"},"vehicle_type_id":"4","last_reported":1762964076,"current_range_meters":4800,"station_id":"ce4bh192rcd13ifvqdd0","pricing_plan_id":"cebpf4jnsgd1na2vs0mg"},{"bike_id":"6ec41715-7763-46b4-a4c8-3099134e6830","system_id":"levelo_inurba_marseille","lat":43.279768,"lon":5.387449,"is_reserved":false,"is_disabled":false,"rental_uris":{"android":"levelo://app?vid=6ec41715-7763-46b4-a4c8-3099134e6830","ios":"levelo://app?vid=6ec41715-7763-46b4-a4c8-3099134e6830"},"vehicle_type_id":"4","last_reported":1762964076,"current_range_meters":4800,"station_id":"ce4bh4p2rcd13ifvqe1g","pricing_plan_id":"cebpf4jnsgd1na2vs0mg"},{"bike_id":"d7026fc3-a346-49bd-8209-179291ba2736","system_id":"levelo_inurba_marseille","lat":43.29877,"lon":5.38402,"is_reserved":false,"is_disabled":false,"rental_uris":{"android":"levelo://app?vid=d7026fc3-a346-49bd-8209-179291ba2736","ios":"levelo://app?vid=d7026fc3-a346-49bd-8209-179291ba2736"},"vehicle_type_id":"4","last_reported":1762964076,"current_range_meters":4800,"station_id":"","pricing_plan_id":"cebpf4jnsgd1na2vs0mg"},{"bike_id":"1d7b1e4f-e487-409a-b6ad-2eaaec0d30a6","system_id":"levelo_inurba_marseille","lat":43.29276,"lon":5.36845,"is_reserved":false,"is_disabled":false,"rental_uris":{"android":"levelo://app?vid=1d7b1e4f-e487-409a-b6ad-2eaaec0d30a6","ios":"levelo://app?vid=1d7b1e4f-e487-409a-b6ad-2eaaec0d30a6"},"vehicle_type_id":"4","last_reported":1762964076,"current_range_meters":5600,"station_id":"ce4bhbp2rcd13ifvqesg","pricing_plan_id":"cebpf4jnsgd1na2vs0mg"},{"bike_id":"a71e59d7-e0b1-4a09-85d4-bc5a8b5d893c","system_id":"levelo_inurba_marseille","lat":43.29449,"lon":5.37566,"is_reserved":false,"is_disabled":false,"rental_uris":{"android":"levelo://app?vid=a71e59d7-e0b1-4a09-85d4-bc5a8b5d893c","ios":"levelo://app?vid=a71e59d7-e0b1-4a09-85d4-bc5a8b5d893c"},"vehicle_type_id":"4","last_reported":1762964076,"current_range_meters":5600,"station_id":"","pricing_plan_id":"cebpf4jnsgd1na2vs0mg"},{"bike_id":"566a2ba0-4fb7-4dbe-9764-53d1ddf5d6c6","system_id":"levelo_inurba_marseille","lat":43.24168,"lon":5.36395,"is_reserved":false,"is_disabled":false,"rental_uris":{"android":"levelo://app?vid=566a2ba0-4fb7-4dbe-9764-53d1ddf5d6c6","ios":"levelo://app?vid=566a2ba0-4fb7-4dbe-9764-53d1ddf5d6c6"},"vehicle_type_id":"4","last_reported":1762964076,"current_range_meters":5600,"station_id":"cpo36qri1sfpv3e86is0","pricing_plan_id":"cebpf4jnsgd1na2vs0mg"},{"bike_id":"9a834fdb-5858-4afd-b321-23a076846e1e","system_id":"levelo_inurba_marseille","lat":43.31076,"lon":5.42422,"is_reserved":false,"is_disabled":false,"rental_uris":{"android":"levelo://app?vid=9a834fdb-5858-4afd-b321-23a076846e1e","ios":"levelo://app?vid=9a834fdb-5858-4afd-b321-23a076846e1e"},"vehicle_type_id":"4","last_reported":1762964076,"current_range_meters":5600,"station_id":"ce4bhp92rcd13ifvqhag","pricing_plan_id":"cebpf4jnsgd1na2vs0mg"},{"bike_id":"a52894e9-8061-4709-aac7-58c5532aab2a","system_id":"levelo_inurba_marseille","lat":43.337177,"lon":5.391816,"is_reserved":false,"is_disabled":false,"rental_uris":{"android":"levelo://app?vid=a52894e9-8061-4709-aac7-58c5532aab2a","ios":"levelo://app?vid=a52894e9-8061-4709-aac7-58c5532aab2a"},"vehicle_type_id":"4","last_reported":1762964076,"current_range_meters":6000,"station_id":"ce4bhr92rcd13ifvqhsg","pricing_plan_id":"cebpf4jnsgd1na2vs0mg"},{"bike_id":"01d8ad1c-6fa6-46c7-8acd-267ba1a1b3f2","system_id":"levelo_inurba_marseille","lat":43.28985,"lon":5.37839,"is_reserved":false,"is_disabled":false,"rental_uris":{"android":"levelo://app?vid=01d8ad1c-6fa6-46c7-8acd-267ba1a1b3f2","ios":"levelo://app?vid=01d8ad1c-6fa6-46c7-8acd-267ba1a1b3f2"},"vehicle_type_id":"4","last_reported":1762964076,"current_range_meters":6000,"station_id":"ce4bh9p2rcd13ifvqed0","pricing_plan_id":"cebpf4jnsgd1na2vs0mg"},{"bike_id":"c220fdf8-9158-4737-af0f-e9aa36738397","system_id":"levelo_inurba_marseille","lat":43.29928,"lon":5.36554,"is_reserved":false,"is_disabled":false,"rental_uris":{"android":"levelo://app?vid=c220fdf8-9158-4737-af0f-e9aa36738397","ios":"levelo://app?vid=c220fdf8-9158-4737-af0f-e9aa36738397"},"vehicle_type_id":"4","last_reported":1762964076,"current_range_meters":6000,"station_id":"ce4bgm92rcd13ifvqbr0","pricing_plan_id":"cebpf4jnsgd1na2vs0mg"},{"bike_id":"af8e813a-915c-4973-9906-da8383e0f3f7","system_id":"levelo_inurba_marseille","lat":43.27208,"lon":5.39176,"is_reserved":false,"is_disabled":false,"rental_uris":{"android":"levelo://app?vid=af8e813a-915c-4973-9906-da8383e0f3f7","ios":"levelo://app?vid=af8e813a-915c-4973-9906-da8383e0f3f7"},"vehicle_type_id":"4","last_reported":1762964076,"current_range_meters":6000,"station_id":"ce4bhhp2rcd13ifvqfm0","pricing_plan_id":"cebpf4jnsgd1na2vs0mg"},{"bike_id":"fd3704c6-6469-41bf-9cf5-db3a025473e7","system_id":"levelo_inurba_marseille","lat":43.29526,"lon":5.38547,"is_reserved":false,"is_disabled":false,"rental_uris":{"android":"levelo://app?vid=fd3704c6-6469-41bf-9cf5-db3a025473e7","ios":"levelo://app?vid=fd3704c6-6469-41bf-9cf5-db3a025473e7"},"vehicle_type_id":"4","last_reported":1762964076,"current_range_meters":6000,"station_id":"ce4bgih2rcd13ifvqba0","pricing_plan_id":"cebpf4jnsgd1na2vs0mg"},{"bike_id":"f210c5d9-e6c9-4a47-a92c-7d32d99c058f","system_id":"levelo_inurba_marseille","lat":43.303512,"lon":5.39697,"is_reserved":false,"is_disabled":false,"rental_uris":{"android":"levelo://app?vid=f210c5d9-e6c9-4a47-a92c-7d32d99c058f","ios":"levelo://app?vid=f210c5d9-e6c9-4a47-a92c-7d32d99c058f"},"vehicle_type_id":"4","last_reported":1762964076,"current_range_meters":6400,"station_id":"","pricing_plan_id":"cebpf4jnsgd1na2vs0mg"},{"bike_id":"9aab732d-99d8-458a-aff5-1ef833353481","system_id":"levelo_inurba_marseille","lat":43.298362,"lon":5.377739,"is_reserved":false,"is_disabled":false,"rental_uris":{"android":"levelo://app?vid=9aab732d-99d8-458a-aff5-1ef833353481","ios":"levelo://app?vid=9aab732d-99d8-458a-aff5-1ef833353481"},"vehicle_type_id":"4","last_reported":1762964076,"current_range_meters":6400,"station_id":"","pricing_plan_id":"cebpf4jnsgd1na2vs0mg"},{"bike_id":"861892f2-0af0-40fe-b698-191d9906341b","system_id":"levelo_inurba_marseille","lat":43.3087,"lon":5.37183,"is_reserved":false,"is_disabled":true,"rental_uris":{"android":"levelo://app?vid=861892f2-0af0-40fe-b698-191d9906341b","ios":"levelo://app?vid=861892f2-0af0-40fe-b698-191d9906341b"},"vehicle_type_id":"4","last_reported":1762964076,"current_range_meters":6400,"station_id":"ce4bguh2rcd13ifvqckg","pricing_plan_id":"cebpf4jnsgd1na2vs0mg"},{"bike_id":"dcb0fa12-cf13-4499-8343-1875af7389d8","system_id":"levelo_inurba_marseille","lat":43.28232,"lon":5.39066,"is_reserved":false,"is_disabled":false,"rental_uris":{"android":"levelo://app?vid=dcb0fa12-cf13-4499-8343-1875af7389d8","ios":"levelo://app?vid=dcb0fa12-cf13-4499-8343-1875af7389d8"},"vehicle_type_id":"4","last_reported":1762964076,"current_range_meters":6400,"station_id":"ce4bhn92rcd13ifvqgsg","pricing_plan_id":"cebpf4jnsgd1na2vs0mg"},{"bike_id":"d8812bd0-4af2-446c-8191-e4a616a503a7","system_id":"levelo_inurba_marseille","lat":43.28275,"lon":5.35059,"is_reserved":false,"is_disabled":false,"rental_uris":{"android":"levelo://app?vid=d8812bd0-4af2-446c-8191-e4a616a503a7","ios":"levelo://app?vid=d8812bd0-4af2-446c-8191-e4a616a503a7"},"vehicle_type_id":"4","last_reported":1762964076,"current_range_meters":6400,"station_id":"ce4bhbp2rcd13ifvqerg","pricing_plan_id":"cebpf4jnsgd1na2vs0mg"},{"bike_id":"7e0972f1-23c6-49a2-8f37-631598bfc3f8","system_id":"levelo_inurba_marseille","lat":43.30137,"lon":5.39868,"is_reserved":false,"is_disabled":false,"rental_uris":{"android":"levelo://app?vid=7e0972f1-23c6-49a2-8f37-631598bfc3f8","ios":"levelo://app?vid=7e0972f1-23c6-49a2-8f37-631598bfc3f8"},"vehicle_type_id":"4","last_reported":1762964076,"current_range_meters":6400,"station_id":"ce4bh0h2rcd13ifvqd40","pricing_plan_id":"cebpf4jnsgd1na2vs0mg"},{"bike_id":"e9443098-90f2-4c3c-9530-84826908123b","system_id":"levelo_inurba_marseille","lat":43.29258,"lon":5.38443,"is_reserved":false,"is_disabled":false,"rental_uris":{"android":"levelo://app?vid=e9443098-90f2-4c3c-9530-84826908123b","ios":"levelo://app?vid=e9443098-90f2-4c3c-9530-84826908123b"},"vehicle_type_id":"4","last_reported":1762964076,"current_range_meters":6400,"station_id":"ce4bh692rcd13ifvqea0","pricing_plan_id":"cebpf4jnsgd1na2vs0mg"},{"bike_id":"6e8ee921-d7c0-4fdd-8738-9da94525774d","system_id":"levelo_inurba_marseille","lat":43.27872,"lon":5.395632,"is_reserved":false,"is_disabled":false,"rental_uris":{"android":"levelo://app?vid=6e8ee921-d7c0-4fdd-8738-9da94525774d","ios":"levelo://app?vid=6e8ee921-d7c0-4fdd-8738-9da94525774d"},"vehicle_type_id":"4","last_reported":1762964076,"current_range_meters":6400,"station_id":"","pricing_plan_id":"cebpf4jnsgd1na2vs0mg"},{"bike_id":"e0467342-2ee8-4c36-aeb9-27d25d94ead5","system_id":"levelo_inurba_marseille","lat":43.28092,"lon":5.42632,"is_reserved":false,"is_disabled":true,"rental_uris":{"android":"levelo://app?vid=e0467342-2ee8-4c36-aeb9-27d25d94ead5","ios":"levelo://app?vid=e0467342-2ee8-4c36-aeb9-27d25d94ead5"},"vehicle_type_id":"4","last_reported":1762964076,"current_range_meters":6400,"station_id":"","pricing_plan_id":"cebpf4jnsgd1na2vs0mg"},{"bike_id":"714b5c8c-14e7-49e2-95bd-a14768017fe2","system_id":"levelo_inurba_marseille","lat":43.29173,"lon":5.37161,"is_reserved":false,"is_disabled":false,"rental_uris":{"android":"levelo://app?vid=714b5c8c-14e7-49e2-95bd-a14768017fe2","ios":"levelo://app?vid=714b5c8c-14e7-49e2-95bd-a14768017fe2"},"vehicle_type_id":"4","last_reported":1762964076,"current_range_meters":6800,"station_id":"ce4bha92rcd13ifvqeh0","pricing_plan_id":"cebpf4jnsgd1na2vs0mg"},{"bike_id":"1f60d560-4ab5-4346-baf2-47d1d4e44cb9","system_id":"levelo_inurba_marseille","lat":43.255175,"lon":5.376544,"is_reserved":false,"is_disabled":false,"rental_uris":{"android":"levelo://app?vid=1f60d560-4ab5-4346-baf2-47d1d4e44cb9","ios":"levelo://app?vid=1f60d560-4ab5-4346-baf2-47d1d4e44cb9"},"vehicle_type_id":"4","last_reported":1762964076,"current_range_meters":6800,"station_id":"ce4bhh12rcd13ifvqff0","pricing_plan_id":"cebpf4jnsgd1na2vs0mg"},{"bike_id":"e0ed7929-20a1-4d5c-ab67-3994c5a84870","system_id":"levelo_inurba_marseille","lat":43.252316,"lon":5.406327,"is_reserved":false,"is_disabled":false,"rental_uris":{"android":"levelo://app?vid=e0ed7929-20a1-4d5c-ab67-3994c5a84870","ios":"levelo://app?vid=e0ed7929-20a1-4d5c-ab67-3994c5a84870"},"vehicle_type_id":"4","last_reported":1762964076,"current_range_meters":6800,"station_id":"","pricing_plan_id":"cebpf4jnsgd1na2vs0mg"},{"bike_id":"62a14efb-5f7a-4e0d-bbfa-d4a60d07f475","system_id":"levelo_inurba_marseille","lat":43.29691,"lon":5.37351,"is_reserved":false,"is_disabled":false,"rental_uris":{"android":"levelo://app?vid=62a14efb-5f7a-4e0d-bbfa-d4a60d07f475","ios":"levelo://app?vid=62a14efb-5f7a-4e0d-bbfa-d4a60d07f475"},"vehicle_type_id":"4","last_reported":1762964076,"current_range_meters":7200,"station_id":"","pricing_plan_id":"cebpf4jnsgd1na2vs0mg"},{"bike_id":"02e99cc6-2acb-4ae7-931a-83f4743a8eb6","system_id":"levelo_inurba_marseille","lat":43.28618,"lon":5.35105,"is_reserved":false,"is_disabled":false,"rental_uris":{"android":"levelo://app?vid=02e99cc6-2acb-4ae7-931a-83f4743a8eb6","ios":"levelo://app?vid=02e99cc6-2acb-4ae7-931a-83f4743a8eb6"},"vehicle_type_id":"4","last_reported":1762964076,"current_range_meters":7200,"station_id":"ce4bhch2rcd13ifvqeug","pricing_plan_id":"cebpf4jnsgd1na2vs0mg"},{"bike_id":"d4eb95af-1716-401d-9275-075fa34a3592","system_id":"levelo_inurba_marseille","lat":43.29511,"lon":5.39044,"is_reserved":false,"is_disabled":false,"rental_uris":{"android":"levelo://app?vid=d4eb95af-1716-401d-9275-075fa34a3592","ios":"levelo://app?vid=d4eb95af-1716-401d-9275-075fa34a3592"},"vehicle_type_id":"4","last_reported":1762964076,"current_range_meters":7200,"station_id":"ce4bh3p2rcd13ifvqdp0","pricing_plan_id":"cebpf4jnsgd1na2vs0mg"},{"bike_id":"b1912dc6-562a-409a-b346-1626d61f3a69","system_id":"levelo_inurba_marseille","lat":43.25573,"lon":5.38245,"is_reserved":false,"is_disabled":true,"rental_uris":{"android":"levelo://app?vid=b1912dc6-562a-409a-b346-1626d61f3a69","ios":"levelo://app?vid=b1912dc6-562a-409a-b346-1626d61f3a69"},"vehicle_type_id":"4","last_reported":1762964076,"current_range_meters":7200,"station_id":"ce4bhih2rcd13ifvqfs0","pricing_plan_id":"cebpf4jnsgd1na2vs0mg"},{"bike_id":"e3da5020-f7cb-4b57-ad87-a67426620679","system_id":"levelo_inurba_marseille","lat":43.27665,"lon":5.38894,"is_reserved":false,"is_disabled":false,"rental_uris":{"android":"levelo://app?vid=e3da5020-f7cb-4b57-ad87-a67426620679","ios":"levelo://app?vid=e3da5020-f7cb-4b57-ad87-a67426620679"},"vehicle_type_id":"4","last_reported":1762964076,"current_range_meters":8000,"station_id":"ce4bhi12rcd13ifvqfo0","pricing_plan_id":"cebpf4jnsgd1na2vs0mg"},{"bike_id":"48d5f346-64ec-4e03-944c-9ed3f48cbecc","system_id":"levelo_inurba_marseille","lat":43.27566,"lon":5.38441,"is_reserved":false,"is_disabled":true,"rental_uris":{"android":"levelo://app?vid=48d5f346-64ec-4e03-944c-9ed3f48cbecc","ios":"levelo://app?vid=48d5f346-64ec-4e03-944c-9ed3f48cbecc"},"vehicle_type_id":"4","last_reported":1762964076,"current_range_meters":8000,"station_id":"ce4bhh92rcd13ifvqfi0","pricing_plan_id":"cebpf4jnsgd1na2vs0mg"},{"bike_id":"911114b1-1c54-4eb4-9008-ab913392c6e2","system_id":"levelo_inurba_marseille","lat":43.27061,"lon":5.40259,"is_reserved":false,"is_disabled":false,"rental_uris":{"android":"levelo://app?vid=911114b1-1c54-4eb4-9008-ab913392c6e2","ios":"levelo://app?vid=911114b1-1c54-4eb4-9008-ab913392c6e2"},"vehicle_type_id":"4","last_reported":1762964076,"current_range_meters":8000,"station_id":"ce4bhk92rcd13ifvqgc0","pricing_plan_id":"cebpf4jnsgd1na2vs0mg"},{"bike_id":"c80c1c01-368c-46ce-95fa-baee6c258882","system_id":"levelo_inurba_marseille","lat":43.29897,"lon":5.43673,"is_reserved":false,"is_disabled":false,"rental_uris":{"android":"levelo://app?vid=c80c1c01-368c-46ce-95fa-baee6c258882","ios":"levelo://app?vid=c80c1c01-368c-46ce-95fa-baee6c258882"},"vehicle_type_id":"4","last_reported":1762964076,"current_range_meters":8000,"station_id":"ce4bhpp2rcd13ifvqhfg","pricing_plan_id":"cebpf4jnsgd1na2vs0mg"},{"bike_id":"52b8f8e8-0789-4d56-98d6-776462e7233a","system_id":"levelo_inurba_marseille","lat":43.31523,"lon":5.38036,"is_reserved":false,"is_disabled":false,"rental_uris":{"android":"levelo://app?vid=52b8f8e8-0789-4d56-98d6-776462e7233a","ios":"levelo://app?vid=52b8f8e8-0789-4d56-98d6-776462e7233a"},"vehicle_type_id":"4","last_reported":1762964076,"current_range_meters":8000,"station_id":"ce4bhsp2rcd13ifvqi50","pricing_plan_id":"cebpf4jnsgd1na2vs0mg"},{"bike_id":"f1a01133-abd7-4b13-8c33-f1ccea0e983c","system_id":"levelo_inurba_marseille","lat":43.28268,"lon":5.3506,"is_reserved":false,"is_disabled":false,"rental_uris":{"android":"levelo://app?vid=f1a01133-abd7-4b13-8c33-f1ccea0e983c","ios":"levelo://app?vid=f1a01133-abd7-4b13-8c33-f1ccea0e983c"},"vehicle_type_id":"4","last_reported":1762964076,"current_range_meters":8000,"station_id":"ce4bhbp2rcd13ifvqerg","pricing_plan_id":"cebpf4jnsgd1na2vs0mg"},{"bike_id":"876c141d-ce61-488a-a950-2753f26a3fb0","system_id":"levelo_inurba_marseille","lat":43.29526,"lon":5.38546,"is_reserved":false,"is_disabled":false,"rental_uris":{"android":"levelo://app?vid=876c141d-ce61-488a-a950-2753f26a3fb0","ios":"levelo://app?vid=876c141d-ce61-488a-a950-2753f26a3fb0"},"vehicle_type_id":"4","last_reported":1762964076,"current_range_meters":8000,"station_id":"ce4bgih2rcd13ifvqba0","pricing_plan_id":"cebpf4jnsgd1na2vs0mg"},{"bike_id":"bb673b1f-1f54-493f-92ad-48c99ddd3b6a","system_id":"levelo_inurba_marseille","lat":43.21173,"lon":5.35087,"is_reserved":false,"is_disabled":false,"rental_uris":{"android":"levelo://app?vid=bb673b1f-1f54-493f-92ad-48c99ddd3b6a","ios":"levelo://app?vid=bb673b1f-1f54-493f-92ad-48c99ddd3b6a"},"vehicle_type_id":"4","last_reported":1762964076,"current_range_meters":8000,"station_id":"","pricing_plan_id":"cebpf4jnsgd1na2vs0mg"},{"bike_id":"59004044-983f-4e69-8336-cdbc3fa81d81","system_id":"levelo_inurba_marseille","lat":43.29099,"lon":5.38154,"is_reserved":false,"is_disabled":false,"rental_uris":{"android":"levelo://app?vid=59004044-983f-4e69-8336-cdbc3fa81d81","ios":"levelo://app?vid=59004044-983f-4e69-8336-cdbc3fa81d81"},"vehicle_type_id":"4","last_reported":1762964076,"current_range_meters":8000,"station_id":"ce4bh512rcd13ifvqe2g","pricing_plan_id":"cebpf4jnsgd1na2vs0mg"},{"bike_id":"3597f3f2-984c-4f9b-80be-e2e4629b1800","system_id":"levelo_inurba_marseille","lat":43.28273,"lon":5.35073,"is_reserved":false,"is_disabled":false,"rental_uris":{"android":"levelo://app?vid=3597f3f2-984c-4f9b-80be-e2e4629b1800","ios":"levelo://app?vid=3597f3f2-984c-4f9b-80be-e2e4629b1800"},"vehicle_type_id":"4","last_reported":1762964076,"current_range_meters":8400,"station_id":"ce4bhbp2rcd13ifvqerg","pricing_plan_id":"cebpf4jnsgd1na2vs0mg"},{"bike_id":"84154495-874f-4020-9d68-f82ffdb2871a","system_id":"levelo_inurba_marseille","lat":43.28404,"lon":5.34986,"is_reserved":false,"is_disabled":false,"rental_uris":{"android":"levelo://app?vid=84154495-874f-4020-9d68-f82ffdb2871a","ios":"levelo://app?vid=84154495-874f-4020-9d68-f82ffdb2871a"},"vehicle_type_id":"4","last_reported":1762964076,"current_range_meters":8400,"station_id":"ce4bhbh2rcd13ifvqepg","pricing_plan_id":"cebpf4jnsgd1na2vs0mg"},{"bike_id":"ae494409-c305-4a73-8985-57a6b30dba8e","system_id":"levelo_inurba_marseille","lat":43.3199,"lon":5.38148,"is_reserved":false,"is_disabled":false,"rental_uris":{"android":"levelo://app?vid=ae494409-c305-4a73-8985-57a6b30dba8e","ios":"levelo://app?vid=ae494409-c305-4a73-8985-57a6b30dba8e"},"vehicle_type_id":"4","last_reported":1762964076,"current_range_meters":8400,"station_id":"ce4bhr12rcd13ifvqhpg","pricing_plan_id":"cebpf4jnsgd1na2vs0mg"},{"bike_id":"84aade2c-4b39-4bce-814f-cfa3d6ed46f7","system_id":"levelo_inurba_marseille","lat":43.28492,"lon":5.48389,"is_reserved":false,"is_disabled":false,"rental_uris":{"android":"levelo://app?vid=84aade2c-4b39-4bce-814f-cfa3d6ed46f7","ios":"levelo://app?vid=84aade2c-4b39-4bce-814f-cfa3d6ed46f7"},"vehicle_type_id":"4","last_reported":1762964076,"current_range_meters":8800,"station_id":"st_d3svhcjqgbts73a3dn0g","pricing_plan_id":"cebpf4jnsgd1na2vs0mg"},{"bike_id":"54c962f6-cfad-48b3-8f2e-9e196ad16ca5","system_id":"levelo_inurba_marseille","lat":43.29186,"lon":5.39333,"is_reserved":false,"is_disabled":false,"rental_uris":{"android":"levelo://app?vid=54c962f6-cfad-48b3-8f2e-9e196ad16ca5","ios":"levelo://app?vid=54c962f6-cfad-48b3-8f2e-9e196ad16ca5"},"vehicle_type_id":"4","last_reported":1762964076,"current_range_meters":8800,"station_id":"ce4bh192rcd13ifvqdd0","pricing_plan_id":"cebpf4jnsgd1na2vs0mg"},{"bike_id":"099d02a3-a478-4c8b-9cf1-bc584457ee6a","system_id":"levelo_inurba_marseille","lat":43.301495,"lon":5.380831,"is_reserved":false,"is_disabled":false,"rental_uris":{"android":"levelo://app?vid=099d02a3-a478-4c8b-9cf1-bc584457ee6a","ios":"levelo://app?vid=099d02a3-a478-4c8b-9cf1-bc584457ee6a"},"vehicle_type_id":"4","last_reported":1762964076,"current_range_meters":8800,"station_id":"ce4bgjp2rcd13ifvqbh0","pricing_plan_id":"cebpf4jnsgd1na2vs0mg"},{"bike_id":"eea72cab-583d-4d51-9d23-22ddc388a40f","system_id":"levelo_inurba_marseille","lat":43.28864,"lon":5.4252,"is_reserved":false,"is_disabled":false,"rental_uris":{"android":"levelo://app?vid=eea72cab-583d-4d51-9d23-22ddc388a40f","ios":"levelo://app?vid=eea72cab-583d-4d51-9d23-22ddc388a40f"},"vehicle_type_id":"4","last_reported":1762964076,"current_range_meters":8800,"station_id":"st_d3b462108ojc7389ooeg","pricing_plan_id":"cebpf4jnsgd1na2vs0mg"},{"bike_id":"b0ea8019-121f-4dab-9907-34a4db6008fb","system_id":"levelo_inurba_marseille","lat":43.25713,"lon":5.41119,"is_reserved":false,"is_disabled":false,"rental_uris":{"android":"levelo://app?vid=b0ea8019-121f-4dab-9907-34a4db6008fb","ios":"levelo://app?vid=b0ea8019-121f-4dab-9907-34a4db6008fb"},"vehicle_type_id":"4","last_reported":1762964076,"current_range_meters":9200,"station_id":"ce4bhkp2rcd13ifvqgd0","pricing_plan_id":"cebpf4jnsgd1na2vs0mg"},{"bike_id":"f6134463-5782-4e59-875e-fa5ebcfbb229","system_id":"levelo_inurba_marseille","lat":43.2849,"lon":5.384577,"is_reserved":false,"is_disabled":true,"rental_uris":{"android":"levelo://app?vid=f6134463-5782-4e59-875e-fa5ebcfbb229","ios":"levelo://app?vid=f6134463-5782-4e59-875e-fa5ebcfbb229"},"vehicle_type_id":"4","last_reported":1762964076,"current_range_meters":9200,"station_id":"ce4bh512rcd13ifvqe3g","pricing_plan_id":"cebpf4jnsgd1na2vs0mg"},{"bike_id":"7e357db7-167a-4dbc-a622-5b07586ea74b","system_id":"levelo_inurba_marseille","lat":43.289276,"lon":5.363921,"is_reserved":false,"is_disabled":false,"rental_uris":{"android":"levelo://app?vid=7e357db7-167a-4dbc-a622-5b07586ea74b","ios":"levelo://app?vid=7e357db7-167a-4dbc-a622-5b07586ea74b"},"vehicle_type_id":"4","last_reported":1762964076,"current_range_meters":9200,"station_id":"ce4bhc92rcd13ifvqetg","pricing_plan_id":"cebpf4jnsgd1na2vs0mg"},{"bike_id":"5b2b95ae-9244-456f-b8f7-ba10c1173de8","system_id":"levelo_inurba_marseille","lat":43.25861,"lon":5.39911,"is_reserved":false,"is_disabled":false,"rental_uris":{"android":"levelo://app?vid=5b2b95ae-9244-456f-b8f7-ba10c1173de8","ios":"levelo://app?vid=5b2b95ae-9244-456f-b8f7-ba10c1173de8"},"vehicle_type_id":"4","last_reported":1762964076,"current_range_meters":9200,"station_id":"ce4bhl92rcd13ifvqghg","pricing_plan_id":"cebpf4jnsgd1na2vs0mg"},{"bike_id":"81aeec01-9c13-4f7f-8ef0-f9e785953d87","system_id":"levelo_inurba_marseille","lat":43.268021,"lon":5.402654,"is_reserved":false,"is_disabled":false,"rental_uris":{"android":"levelo://app?vid=81aeec01-9c13-4f7f-8ef0-f9e785953d87","ios":"levelo://app?vid=81aeec01-9c13-4f7f-8ef0-f9e785953d87"},"vehicle_type_id":"4","last_reported":1762964076,"current_range_meters":9200,"station_id":"ce501612rcd8frsf0b60","pricing_plan_id":"cebpf4jnsgd1na2vs0mg"},{"bike_id":"6a058831-b6fb-478e-9554-f25cd6905dab","system_id":"levelo_inurba_marseille","lat":43.25509,"lon":5.37661,"is_reserved":false,"is_disabled":false,"rental_uris":{"android":"levelo://app?vid=6a058831-b6fb-478e-9554-f25cd6905dab","ios":"levelo://app?vid=6a058831-b6fb-478e-9554-f25cd6905dab"},"vehicle_type_id":"4","last_reported":1762964076,"current_range_meters":9200,"station_id":"ce4bhh12rcd13ifvqff0","pricing_plan_id":"cebpf4jnsgd1na2vs0mg"},{"bike_id":"afec848b-17b6-4312-b07a-31e80ca0e855","system_id":"levelo_inurba_marseille","lat":43.264957,"lon":5.395478,"is_reserved":false,"is_disabled":false,"rental_uris":{"android":"levelo://app?vid=afec848b-17b6-4312-b07a-31e80ca0e855","ios":"levelo://app?vid=afec848b-17b6-4312-b07a-31e80ca0e855"},"vehicle_type_id":"4","last_reported":1762964076,"current_range_meters":9600,"station_id":"ce4bhi12rcd13ifvqfq0","pricing_plan_id":"cebpf4jnsgd1na2vs0mg"},{"bike_id":"c47023ab-2905-4a00-af93-ffd0b768cdc9","system_id":"levelo_inurba_marseille","lat":43.28869,"lon":5.42521,"is_reserved":false,"is_disabled":false,"rental_uris":{"android":"levelo://app?vid=c47023ab-2905-4a00-af93-ffd0b768cdc9","ios":"levelo://app?vid=c47023ab-2905-4a00-af93-ffd0b768cdc9"},"vehicle_type_id":"4","last_reported":1762964076,"current_range_meters":9600,"station_id":"st_d3b462108ojc7389ooeg","pricing_plan_id":"cebpf4jnsgd1na2vs0mg"},{"bike_id":"c6bfe939-dcc1-4f7c-b006-67a017be6bd0","system_id":"levelo_inurba_marseille","lat":43.28988,"lon":5.37842,"is_reserved":false,"is_disabled":false,"rental_uris":{"android":"levelo://app?vid=c6bfe939-dcc1-4f7c-b006-67a017be6bd0","ios":"levelo://app?vid=c6bfe939-dcc1-4f7c-b006-67a017be6bd0"},"vehicle_type_id":"4","last_reported":1762964076,"current_range_meters":9600,"station_id":"ce4bh9p2rcd13ifvqed0","pricing_plan_id":"cebpf4jnsgd1na2vs0mg"},{"bike_id":"89884e48-b647-46c1-beb4-7b67d8db92a4","system_id":"levelo_inurba_marseille","lat":43.295277,"lon":5.385342,"is_reserved":false,"is_disabled":false,"rental_uris":{"android":"levelo://app?vid=89884e48-b647-46c1-beb4-7b67d8db92a4","ios":"levelo://app?vid=89884e48-b647-46c1-beb4-7b67d8db92a4"},"vehicle_type_id":"4","last_reported":1762964076,"current_range_meters":9600,"station_id":"ce4bgih2rcd13ifvqba0","pricing_plan_id":"cebpf4jnsgd1na2vs0mg"},{"bike_id":"35879002-14a8-49e2-b035-6faedfd1cfe6","system_id":"levelo_inurba_marseille","lat":43.246322,"lon":5.43143,"is_reserved":false,"is_disabled":false,"rental_uris":{"android":"levelo://app?vid=35879002-14a8-49e2-b035-6faedfd1cfe6","ios":"levelo://app?vid=35879002-14a8-49e2-b035-6faedfd1cfe6"},"vehicle_type_id":"4","last_reported":1762964076,"current_range_meters":9600,"station_id":"st_d2m6c4gdas8pm72e190g","pricing_plan_id":"cebpf4jnsgd1na2vs0mg"},{"bike_id":"01e8cce2-ff84-43ff-914a-c0c695f60ca4","system_id":"levelo_inurba_marseille","lat":43.29432,"lon":5.38035,"is_reserved":false,"is_disabled":false,"rental_uris":{"android":"levelo://app?vid=01e8cce2-ff84-43ff-914a-c0c695f60ca4","ios":"levelo://app?vid=01e8cce2-ff84-43ff-914a-c0c695f60ca4"},"vehicle_type_id":"4","last_reported":1762964076,"current_range_meters":10000,"station_id":"","pricing_plan_id":"cebpf4jnsgd1na2vs0mg"},{"bike_id":"648db1d8-be5c-491a-be7f-b0f1b1d08a1d","system_id":"levelo_inurba_marseille","lat":43.26494,"lon":5.39542,"is_reserved":false,"is_disabled":false,"rental_uris":{"android":"levelo://app?vid=648db1d8-be5c-491a-be7f-b0f1b1d08a1d","ios":"levelo://app?vid=648db1d8-be5c-491a-be7f-b0f1b1d08a1d"},"vehicle_type_id":"4","last_reported":1762964076,"current_range_meters":10000,"station_id":"ce4bhi12rcd13ifvqfq0","pricing_plan_id":"cebpf4jnsgd1na2vs0mg"},{"bike_id":"d88bdda2-bd01-45c7-b160-f9825bf2d027","system_id":"levelo_inurba_marseille","lat":43.29439,"lon":5.39752,"is_reserved":false,"is_disabled":false,"rental_uris":{"android":"levelo://app?vid=d88bdda2-bd01-45c7-b160-f9825bf2d027","ios":"levelo://app?vid=d88bdda2-bd01-45c7-b160-f9825bf2d027"},"vehicle_type_id":"4","last_reported":1762964076,"current_range_meters":10000,"station_id":"ce4bh3h2rcd13ifvqdo0","pricing_plan_id":"cebpf4jnsgd1na2vs0mg"},{"bike_id":"a3ac74ff-5528-40e7-9510-0e602e237f40","system_id":"levelo_inurba_marseille","lat":43.28715,"lon":5.3997,"is_reserved":false,"is_disabled":false,"rental_uris":{"android":"levelo://app?vid=a3ac74ff-5528-40e7-9510-0e602e237f40","ios":"levelo://app?vid=a3ac74ff-5528-40e7-9510-0e602e237f40"},"vehicle_type_id":"4","last_reported":1762964076,"current_range_meters":10000,"station_id":"ce4bho92rcd13ifvqh3g","pricing_plan_id":"cebpf4jnsgd1na2vs0mg"},{"bike_id":"2aed4a5e-3b13-4576-8e4b-28deb07e42e2","system_id":"levelo_inurba_marseille","lat":43.29537,"lon":5.39399,"is_reserved":false,"is_disabled":false,"rental_uris":{"android":"levelo://app?vid=2aed4a5e-3b13-4576-8e4b-28deb07e42e2","ios":"levelo://app?vid=2aed4a5e-3b13-4576-8e4b-28deb07e42e2"},"vehicle_type_id":"4","last_reported":1762964076,"current_range_meters":10000,"station_id":"ce4bh292rcd13ifvqdf0","pricing_plan_id":"cebpf4jnsgd1na2vs0mg"},{"bike_id":"1fc32fab-acb1-436a-a9be-188325cb9504","system_id":"levelo_inurba_marseille","lat":43.31171,"lon":5.38718,"is_reserved":false,"is_disabled":false,"rental_uris":{"android":"levelo://app?vid=1fc32fab-acb1-436a-a9be-188325cb9504","ios":"levelo://app?vid=1fc32fab-acb1-436a-a9be-188325cb9504"},"vehicle_type_id":"4","last_reported":1762964076,"current_range_meters":10800,"station_id":"ce4bgv12rcd13ifvqcp0","pricing_plan_id":"cebpf4jnsgd1na2vs0mg"},{"bike_id":"487d2ecb-cc5d-45f9-acb2-49254707cdc7","system_id":"levelo_inurba_marseille","lat":43.27846,"lon":5.39214,"is_reserved":false,"is_disabled":false,"rental_uris":{"android":"levelo://app?vid=487d2ecb-cc5d-45f9-acb2-49254707cdc7","ios":"levelo://app?vid=487d2ecb-cc5d-45f9-acb2-49254707cdc7"},"vehicle_type_id":"4","last_reported":1762964076,"current_range_meters":10800,"station_id":"ce4bhjp2rcd13ifvqga0","pricing_plan_id":"cebpf4jnsgd1na2vs0mg"},{"bike_id":"6bd63f8f-c831-40e7-ae4c-e4e2dc3864c3","system_id":"levelo_inurba_marseille","lat":43.285671,"lon":5.394927,"is_reserved":false,"is_disabled":false,"rental_uris":{"android":"levelo://app?vid=6bd63f8f-c831-40e7-ae4c-e4e2dc3864c3","ios":"levelo://app?vid=6bd63f8f-c831-40e7-ae4c-e4e2dc3864c3"},"vehicle_type_id":"4","last_reported":1762964076,"current_range_meters":10800,"station_id":"ce4bh292rcd13ifvqdg0","pricing_plan_id":"cebpf4jnsgd1na2vs0mg"},{"bike_id":"f09b69fd-4220-4b51-8365-9a85828617f1","system_id":"levelo_inurba_marseille","lat":43.330268,"lon":5.390397,"is_reserved":false,"is_disabled":false,"rental_uris":{"android":"levelo://app?vid=f09b69fd-4220-4b51-8365-9a85828617f1","ios":"levelo://app?vid=f09b69fd-4220-4b51-8365-9a85828617f1"},"vehicle_type_id":"4","last_reported":1762964076,"current_range_meters":11200,"station_id":"ce4bhr92rcd13ifvqhrg","pricing_plan_id":"cebpf4jnsgd1na2vs0mg"},{"bike_id":"d7971bd0-efd8-4170-ab00-6fabad286b99","system_id":"levelo_inurba_marseille","lat":43.25086,"lon":5.39518,"is_reserved":false,"is_disabled":false,"rental_uris":{"android":"levelo://app?vid=d7971bd0-efd8-4170-ab00-6fabad286b99","ios":"levelo://app?vid=d7971bd0-efd8-4170-ab00-6fabad286b99"},"vehicle_type_id":"4","last_reported":1762964076,"current_range_meters":11200,"station_id":"ce4bhm12rcd13ifvqgkg","pricing_plan_id":"cebpf4jnsgd1na2vs0mg"},{"bike_id":"bce28270-e7a1-4d7b-be12-373d45db9ad8","system_id":"levelo_inurba_marseille","lat":43.29603,"lon":5.38102,"is_reserved":false,"is_disabled":false,"rental_uris":{"android":"levelo://app?vid=bce28270-e7a1-4d7b-be12-373d45db9ad8","ios":"levelo://app?vid=bce28270-e7a1-4d7b-be12-373d45db9ad8"},"vehicle_type_id":"4","last_reported":1762964076,"current_range_meters":11200,"station_id":"ce4bgl12rcd13ifvqbo0","pricing_plan_id":"cebpf4jnsgd1na2vs0mg"},{"bike_id":"839be6e6-4170-447c-9b45-422ce555445a","system_id":"levelo_inurba_marseille","lat":43.29524,"lon":5.38555,"is_reserved":false,"is_disabled":false,"rental_uris":{"android":"levelo://app?vid=839be6e6-4170-447c-9b45-422ce555445a","ios":"levelo://app?vid=839be6e6-4170-447c-9b45-422ce555445a"},"vehicle_type_id":"4","last_reported":1762964076,"current_range_meters":11200,"station_id":"ce4bgih2rcd13ifvqba0","pricing_plan_id":"cebpf4jnsgd1na2vs0mg"},{"bike_id":"d3c09af1-4011-4dfe-a4a5-36787e14f339","system_id":"levelo_inurba_marseille","lat":43.33795,"lon":5.3743,"is_reserved":false,"is_disabled":false,"rental_uris":{"android":"levelo://app?vid=d3c09af1-4011-4dfe-a4a5-36787e14f339","ios":"levelo://app?vid=d3c09af1-4011-4dfe-a4a5-36787e14f339"},"vehicle_type_id":"4","last_reported":1762964076,"current_range_meters":11200,"station_id":"","pricing_plan_id":"cebpf4jnsgd1na2vs0mg"},{"bike_id":"deb22c28-c17d-4812-a479-8c21fcb2162c","system_id":"levelo_inurba_marseille","lat":43.29257,"lon":5.4091,"is_reserved":false,"is_disabled":true,"rental_uris":{"android":"levelo://app?vid=deb22c28-c17d-4812-a479-8c21fcb2162c","ios":"levelo://app?vid=deb22c28-c17d-4812-a479-8c21fcb2162c"},"vehicle_type_id":"4","last_reported":1762964076,"current_range_meters":11600,"station_id":"ce4bh192rcd13ifvqdc0","pricing_plan_id":"cebpf4jnsgd1na2vs0mg"},{"bike_id":"5804ac99-3bd4-4091-bff1-7487e9285e0c","system_id":"levelo_inurba_marseille","lat":43.29219,"lon":5.37583,"is_reserved":false,"is_disabled":false,"rental_uris":{"android":"levelo://app?vid=5804ac99-3bd4-4091-bff1-7487e9285e0c","ios":"levelo://app?vid=5804ac99-3bd4-4091-bff1-7487e9285e0c"},"vehicle_type_id":"4","last_reported":1762964076,"current_range_meters":11600,"station_id":"","pricing_plan_id":"cebpf4jnsgd1na2vs0mg"},{"bike_id":"d3762481-6fe2-485e-b970-f7be25aa702b","system_id":"levelo_inurba_marseille","lat":43.29616,"lon":5.3811,"is_reserved":false,"is_disabled":false,"rental_uris":{"android":"levelo://app?vid=d3762481-6fe2-485e-b970-f7be25aa702b","ios":"levelo://app?vid=d3762481-6fe2-485e-b970-f7be25aa702b"},"vehicle_type_id":"4","last_reported":1762964076,"current_range_meters":11600,"station_id":"ce4bgl12rcd13ifvqbo0","pricing_plan_id":"cebpf4jnsgd1na2vs0mg"},{"bike_id":"138acbc8-a44a-45ec-9d4e-f41258a8778e","system_id":"levelo_inurba_marseille","lat":43.29816,"lon":5.44078,"is_reserved":false,"is_disabled":false,"rental_uris":{"android":"levelo://app?vid=138acbc8-a44a-45ec-9d4e-f41258a8778e","ios":"levelo://app?vid=138acbc8-a44a-45ec-9d4e-f41258a8778e"},"vehicle_type_id":"4","last_reported":1762964076,"current_range_meters":11600,"station_id":"st_d3jp68qikq2c7381ktn0","pricing_plan_id":"cebpf4jnsgd1na2vs0mg"},{"bike_id":"8b027115-1a9e-4312-923f-dbf5aec10ee4","system_id":"levelo_inurba_marseille","lat":43.30252,"lon":5.36516,"is_reserved":false,"is_disabled":false,"rental_uris":{"android":"levelo://app?vid=8b027115-1a9e-4312-923f-dbf5aec10ee4","ios":"levelo://app?vid=8b027115-1a9e-4312-923f-dbf5aec10ee4"},"vehicle_type_id":"4","last_reported":1762964076,"current_range_meters":12000,"station_id":"","pricing_plan_id":"cebpf4jnsgd1na2vs0mg"},{"bike_id":"ddf89962-e674-4b8a-9c62-2194999624f3","system_id":"levelo_inurba_marseille","lat":43.2781,"lon":5.40717,"is_reserved":false,"is_disabled":false,"rental_uris":{"android":"levelo://app?vid=ddf89962-e674-4b8a-9c62-2194999624f3","ios":"levelo://app?vid=ddf89962-e674-4b8a-9c62-2194999624f3"},"vehicle_type_id":"4","last_reported":1762964076,"current_range_meters":12000,"station_id":"ce4bhnh2rcd13ifvqgtg","pricing_plan_id":"cebpf4jnsgd1na2vs0mg"},{"bike_id":"2dee12d6-e191-4524-b27e-a0e702d0d2dc","system_id":"levelo_inurba_marseille","lat":43.26923,"lon":5.38922,"is_reserved":false,"is_disabled":false,"rental_uris":{"android":"levelo://app?vid=2dee12d6-e191-4524-b27e-a0e702d0d2dc","ios":"levelo://app?vid=2dee12d6-e191-4524-b27e-a0e702d0d2dc"},"vehicle_type_id":"4","last_reported":1762964076,"current_range_meters":12400,"station_id":"ce4bhhh2rcd13ifvqfl0","pricing_plan_id":"cebpf4jnsgd1na2vs0mg"},{"bike_id":"841cb1e3-d7ff-4e82-a83c-eaf5e87abdbe","system_id":"levelo_inurba_marseille","lat":43.2558,"lon":5.38239,"is_reserved":false,"is_disabled":false,"rental_uris":{"android":"levelo://app?vid=841cb1e3-d7ff-4e82-a83c-eaf5e87abdbe","ios":"levelo://app?vid=841cb1e3-d7ff-4e82-a83c-eaf5e87abdbe"},"vehicle_type_id":"4","last_reported":1762964076,"current_range_meters":12400,"station_id":"ce4bhih2rcd13ifvqfs0","pricing_plan_id":"cebpf4jnsgd1na2vs0mg"},{"bike_id":"39c57f92-c6be-4ef9-aa76-197019620266","system_id":"levelo_inurba_marseille","lat":43.29535,"lon":5.38548,"is_reserved":false,"is_disabled":false,"rental_uris":{"android":"levelo://app?vid=39c57f92-c6be-4ef9-aa76-197019620266","ios":"levelo://app?vid=39c57f92-c6be-4ef9-aa76-197019620266"},"vehicle_type_id":"4","last_reported":1762964076,"current_range_meters":12400,"station_id":"ce4bgih2rcd13ifvqba0","pricing_plan_id":"cebpf4jnsgd1na2vs0mg"},{"bike_id":"23cf5617-2a8e-4b86-b9b4-9b049dde7593","system_id":"levelo_inurba_marseille","lat":43.32368,"lon":5.36751,"is_reserved":false,"is_disabled":false,"rental_uris":{"android":"levelo://app?vid=23cf5617-2a8e-4b86-b9b4-9b049dde7593","ios":"levelo://app?vid=23cf5617-2a8e-4b86-b9b4-9b049dde7593"},"vehicle_type_id":"4","last_reported":1762964076,"current_range_meters":12800,"station_id":"ce4bhsh2rcd13ifvqi2g","pricing_plan_id":"cebpf4jnsgd1na2vs0mg"},{"bike_id":"a33418b4-a112-494f-b67c-16cea2b332b6","system_id":"levelo_inurba_marseille","lat":43.3093,"lon":5.401402,"is_reserved":false,"is_disabled":false,"rental_uris":{"android":"levelo://app?vid=a33418b4-a112-494f-b67c-16cea2b332b6","ios":"levelo://app?vid=a33418b4-a112-494f-b67c-16cea2b332b6"},"vehicle_type_id":"4","last_reported":1762964076,"current_range_meters":12800,"station_id":"ce4bgvp2rcd13ifvqct0","pricing_plan_id":"cebpf4jnsgd1na2vs0mg"},{"bike_id":"2134425e-782d-4741-88be-50ffcbcd4bf3","system_id":"levelo_inurba_marseille","lat":43.30531,"lon":5.36707,"is_reserved":false,"is_disabled":false,"rental_uris":{"android":"levelo://app?vid=2134425e-782d-4741-88be-50ffcbcd4bf3","ios":"levelo://app?vid=2134425e-782d-4741-88be-50ffcbcd4bf3"},"vehicle_type_id":"4","last_reported":1762964076,"current_range_meters":12800,"station_id":"ce4bgrp2rcd13ifvqc9g","pricing_plan_id":"cebpf4jnsgd1na2vs0mg"},{"bike_id":"5ed48720-7574-4d36-8385-43ec3a2037fe","system_id":"levelo_inurba_marseille","lat":43.29494,"lon":5.43343,"is_reserved":false,"is_disabled":false,"rental_uris":{"android":"levelo://app?vid=5ed48720-7574-4d36-8385-43ec3a2037fe","ios":"levelo://app?vid=5ed48720-7574-4d36-8385-43ec3a2037fe"},"vehicle_type_id":"4","last_reported":1762964076,"current_range_meters":12800,"station_id":"st_d3j5ugp08ojc73fj9d10","pricing_plan_id":"cebpf4jnsgd1na2vs0mg"},{"bike_id":"7b4f4741-ad62-4a3b-b155-05fc3c16cdb8","system_id":"levelo_inurba_marseille","lat":43.307916,"lon":5.376505,"is_reserved":false,"is_disabled":false,"rental_uris":{"android":"levelo://app?vid=7b4f4741-ad62-4a3b-b155-05fc3c16cdb8","ios":"levelo://app?vid=7b4f4741-ad62-4a3b-b155-05fc3c16cdb8"},"vehicle_type_id":"4","last_reported":1762964076,"current_range_meters":12800,"station_id":"ce4bgv92rcd13ifvqcq0","pricing_plan_id":"cebpf4jnsgd1na2vs0mg"},{"bike_id":"f0649e7c-294e-4139-a46b-da3d8bc35579","system_id":"levelo_inurba_marseille","lat":43.26226,"lon":5.40445,"is_reserved":false,"is_disabled":false,"rental_uris":{"android":"levelo://app?vid=f0649e7c-294e-4139-a46b-da3d8bc35579","ios":"levelo://app?vid=f0649e7c-294e-4139-a46b-da3d8bc35579"},"vehicle_type_id":"4","last_reported":1762964076,"current_range_meters":12800,"station_id":"ce4bhmh2rcd13ifvqgmg","pricing_plan_id":"cebpf4jnsgd1na2vs0mg"},{"bike_id":"0528378f-1b50-41df-b328-6686306ee922","system_id":"levelo_inurba_marseille","lat":43.21633,"lon":5.34448,"is_reserved":false,"is_disabled":false,"rental_uris":{"android":"levelo://app?vid=0528378f-1b50-41df-b328-6686306ee922","ios":"levelo://app?vid=0528378f-1b50-41df-b328-6686306ee922"},"vehicle_type_id":"4","last_reported":1762964076,"current_range_meters":12800,"station_id":"","pricing_plan_id":"cebpf4jnsgd1na2vs0mg"},{"bike_id":"78a4be94-249c-4533-8236-33ff81ae1e29","system_id":"levelo_inurba_marseille","lat":43.27053,"lon":5.40255,"is_reserved":false,"is_disabled":false,"rental_uris":{"android":"levelo://app?vid=78a4be94-249c-4533-8236-33ff81ae1e29","ios":"levelo://app?vid=78a4be94-249c-4533-8236-33ff81ae1e29"},"vehicle_type_id":"4","last_reported":1762964076,"current_range_meters":12800,"station_id":"ce4bhk92rcd13ifvqgc0","pricing_plan_id":"cebpf4jnsgd1na2vs0mg"},{"bike_id":"fecc1949-b618-4aee-a21e-0f7105b58b64","system_id":"levelo_inurba_marseille","lat":43.262106,"lon":5.374402,"is_reserved":false,"is_disabled":false,"rental_uris":{"android":"levelo://app?vid=fecc1949-b618-4aee-a21e-0f7105b58b64","ios":"levelo://app?vid=fecc1949-b618-4aee-a21e-0f7105b58b64"},"vehicle_type_id":"4","last_reported":1762964076,"current_range_meters":12800,"station_id":"ce4bhjp2rcd13ifvqg90","pricing_plan_id":"cebpf4jnsgd1na2vs0mg"},{"bike_id":"7cd3fc91-8b4e-4cc9-a97a-8aec9cd4160c","system_id":"levelo_inurba_marseille","lat":43.29875,"lon":5.37192,"is_reserved":false,"is_disabled":true,"rental_uris":{"android":"levelo://app?vid=7cd3fc91-8b4e-4cc9-a97a-8aec9cd4160c","ios":"levelo://app?vid=7cd3fc91-8b4e-4cc9-a97a-8aec9cd4160c"},"vehicle_type_id":"4","last_reported":1762964076,"current_range_meters":13600,"station_id":"","pricing_plan_id":"cebpf4jnsgd1na2vs0mg"},{"bike_id":"e13b78db-2231-48a0-b9e0-a153f32a43f4","system_id":"levelo_inurba_marseille","lat":43.23059,"lon":5.35492,"is_reserved":false,"is_disabled":false,"rental_uris":{"android":"levelo://app?vid=e13b78db-2231-48a0-b9e0-a153f32a43f4","ios":"levelo://app?vid=e13b78db-2231-48a0-b9e0-a153f32a43f4"},"vehicle_type_id":"4","last_reported":1762964076,"current_range_meters":13600,"station_id":"cpo3342slgdg3j2ifvpg","pricing_plan_id":"cebpf4jnsgd1na2vs0mg"},{"bike_id":"f19a854d-96e9-4cf0-92aa-d357813dc143","system_id":"levelo_inurba_marseille","lat":43.284753,"lon":5.384304,"is_reserved":false,"is_disabled":true,"rental_uris":{"android":"levelo://app?vid=f19a854d-96e9-4cf0-92aa-d357813dc143","ios":"levelo://app?vid=f19a854d-96e9-4cf0-92aa-d357813dc143"},"vehicle_type_id":"4","last_reported":1762964076,"current_range_meters":13600,"station_id":"ce4bh512rcd13ifvqe3g","pricing_plan_id":"cebpf4jnsgd1na2vs0mg"},{"bike_id":"9e28a375-27ee-4366-be4d-914fc1209dde","system_id":"levelo_inurba_marseille","lat":43.26862,"lon":5.38188,"is_reserved":false,"is_disabled":false,"rental_uris":{"android":"levelo://app?vid=9e28a375-27ee-4366-be4d-914fc1209dde","ios":"levelo://app?vid=9e28a375-27ee-4366-be4d-914fc1209dde"},"vehicle_type_id":"4","last_reported":1762964076,"current_range_meters":13600,"station_id":"","pricing_plan_id":"cebpf4jnsgd1na2vs0mg"},{"bike_id":"ce745ab7-7bd1-4912-8594-cbb74bd12178","system_id":"levelo_inurba_marseille","lat":43.30252,"lon":5.40059,"is_reserved":false,"is_disabled":false,"rental_uris":{"android":"levelo://app?vid=ce745ab7-7bd1-4912-8594-cbb74bd12178","ios":"levelo://app?vid=ce745ab7-7bd1-4912-8594-cbb74bd12178"},"vehicle_type_id":"4","last_reported":1762964076,"current_range_meters":14000,"station_id":"","pricing_plan_id":"cebpf4jnsgd1na2vs0mg"},{"bike_id":"e3df63a1-f3d2-4d82-8bf6-df212c4e8b69","system_id":"levelo_inurba_marseille","lat":43.28477,"lon":5.48407,"is_reserved":false,"is_disabled":false,"rental_uris":{"android":"levelo://app?vid=e3df63a1-f3d2-4d82-8bf6-df212c4e8b69","ios":"levelo://app?vid=e3df63a1-f3d2-4d82-8bf6-df212c4e8b69"},"vehicle_type_id":"4","last_reported":1762964076,"current_range_meters":14000,"station_id":"st_d3svhcjqgbts73a3dn0g","pricing_plan_id":"cebpf4jnsgd1na2vs0mg"},{"bike_id":"2fe6d47c-59cf-4127-b40e-9b0fb4ccea9b","system_id":"levelo_inurba_marseille","lat":43.29531,"lon":5.38542,"is_reserved":false,"is_disabled":false,"rental_uris":{"android":"levelo://app?vid=2fe6d47c-59cf-4127-b40e-9b0fb4ccea9b","ios":"levelo://app?vid=2fe6d47c-59cf-4127-b40e-9b0fb4ccea9b"},"vehicle_type_id":"4","last_reported":1762964076,"current_range_meters":14000,"station_id":"ce4bgih2rcd13ifvqba0","pricing_plan_id":"cebpf4jnsgd1na2vs0mg"},{"bike_id":"ec980a34-15d3-4f66-8c47-60bd40ba94a5","system_id":"levelo_inurba_marseille","lat":43.31091,"lon":5.42432,"is_reserved":false,"is_disabled":false,"rental_uris":{"android":"levelo://app?vid=ec980a34-15d3-4f66-8c47-60bd40ba94a5","ios":"levelo://app?vid=ec980a34-15d3-4f66-8c47-60bd40ba94a5"},"vehicle_type_id":"4","last_reported":1762964076,"current_range_meters":14000,"station_id":"ce4bhp92rcd13ifvqhag","pricing_plan_id":"cebpf4jnsgd1na2vs0mg"},{"bike_id":"e8ae9154-04f3-4461-8276-0739d1e853ea","system_id":"levelo_inurba_marseille","lat":43.265642,"lon":5.390068,"is_reserved":false,"is_disabled":false,"rental_uris":{"android":"levelo://app?vid=e8ae9154-04f3-4461-8276-0739d1e853ea","ios":"levelo://app?vid=e8ae9154-04f3-4461-8276-0739d1e853ea"},"vehicle_type_id":"4","last_reported":1762964076,"current_range_meters":14000,"station_id":"ce4bhe12rcd13ifvqf30","pricing_plan_id":"cebpf4jnsgd1na2vs0mg"},{"bike_id":"a24d1ed3-7d2a-4935-9058-4a4ebef3dc61","system_id":"levelo_inurba_marseille","lat":43.26544,"lon":5.37302,"is_reserved":false,"is_disabled":false,"rental_uris":{"android":"levelo://app?vid=a24d1ed3-7d2a-4935-9058-4a4ebef3dc61","ios":"levelo://app?vid=a24d1ed3-7d2a-4935-9058-4a4ebef3dc61"},"vehicle_type_id":"4","last_reported":1762964076,"current_range_meters":14000,"station_id":"ce4bhg12rcd13ifvqf70","pricing_plan_id":"cebpf4jnsgd1na2vs0mg"},{"bike_id":"77530943-d39c-4722-8ae6-577748d152f6","system_id":"levelo_inurba_marseille","lat":43.29528,"lon":5.39401,"is_reserved":false,"is_disabled":false,"rental_uris":{"android":"levelo://app?vid=77530943-d39c-4722-8ae6-577748d152f6","ios":"levelo://app?vid=77530943-d39c-4722-8ae6-577748d152f6"},"vehicle_type_id":"4","last_reported":1762964076,"current_range_meters":14000,"station_id":"ce4bh292rcd13ifvqdf0","pricing_plan_id":"cebpf4jnsgd1na2vs0mg"},{"bike_id":"13ccc439-0caf-484b-8409-a44ef8957bfa","system_id":"levelo_inurba_marseille","lat":43.283512,"lon":5.38107,"is_reserved":false,"is_disabled":false,"rental_uris":{"android":"levelo://app?vid=13ccc439-0caf-484b-8409-a44ef8957bfa","ios":"levelo://app?vid=13ccc439-0caf-484b-8409-a44ef8957bfa"},"vehicle_type_id":"4","last_reported":1762964076,"current_range_meters":14000,"station_id":"ce4bh412rcd13ifvqdr0","pricing_plan_id":"cebpf4jnsgd1na2vs0mg"},{"bike_id":"de415980-c4de-4a6d-8d81-22772eaaec87","system_id":"levelo_inurba_marseille","lat":43.28613,"lon":5.37058,"is_reserved":false,"is_disabled":false,"rental_uris":{"android":"levelo://app?vid=de415980-c4de-4a6d-8d81-22772eaaec87","ios":"levelo://app?vid=de415980-c4de-4a6d-8d81-22772eaaec87"},"vehicle_type_id":"4","last_reported":1762964076,"current_range_meters":14000,"station_id":"ce4bht12rcd13ifvqi60","pricing_plan_id":"cebpf4jnsgd1na2vs0mg"},{"bike_id":"eb5a374b-4e99-4e7b-bddf-63ad952e7c6e","system_id":"levelo_inurba_marseille","lat":43.27986,"lon":5.40024,"is_reserved":false,"is_disabled":false,"rental_uris":{"android":"levelo://app?vid=eb5a374b-4e99-4e7b-bddf-63ad952e7c6e","ios":"levelo://app?vid=eb5a374b-4e99-4e7b-bddf-63ad952e7c6e"},"vehicle_type_id":"4","last_reported":1762964076,"current_range_meters":14000,"station_id":"ce4bho92rcd13ifvqh4g","pricing_plan_id":"cebpf4jnsgd1na2vs0mg"},{"bike_id":"cbfc144d-6a90-4981-9861-4346567f4403","system_id":"levelo_inurba_marseille","lat":43.28488,"lon":5.38538,"is_reserved":false,"is_disabled":false,"rental_uris":{"android":"levelo://app?vid=cbfc144d-6a90-4981-9861-4346567f4403","ios":"levelo://app?vid=cbfc144d-6a90-4981-9861-4346567f4403"},"vehicle_type_id":"4","last_reported":1762964076,"current_range_meters":14400,"station_id":"ce4bh8p2rcd13ifvqeb0","pricing_plan_id":"cebpf4jnsgd1na2vs0mg"},{"bike_id":"7405fff1-54cb-4441-8d3b-98a0b2f0eb43","system_id":"levelo_inurba_marseille","lat":43.273281,"lon":5.390523,"is_reserved":false,"is_disabled":false,"rental_uris":{"android":"levelo://app?vid=7405fff1-54cb-4441-8d3b-98a0b2f0eb43","ios":"levelo://app?vid=7405fff1-54cb-4441-8d3b-98a0b2f0eb43"},"vehicle_type_id":"4","last_reported":1762964076,"current_range_meters":14400,"station_id":"","pricing_plan_id":"cebpf4jnsgd1na2vs0mg"},{"bike_id":"c01ee74c-0907-4ca7-82d0-a92efd488ad9","system_id":"levelo_inurba_marseille","lat":43.22575,"lon":5.41638,"is_reserved":false,"is_disabled":false,"rental_uris":{"android":"levelo://app?vid=c01ee74c-0907-4ca7-82d0-a92efd488ad9","ios":"levelo://app?vid=c01ee74c-0907-4ca7-82d0-a92efd488ad9"},"vehicle_type_id":"4","last_reported":1762964076,"current_range_meters":14400,"station_id":"st_d2o4gvlbi1j2169b742g","pricing_plan_id":"cebpf4jnsgd1na2vs0mg"},{"bike_id":"773e1174-a6d8-4557-aecf-23ea0bb72d04","system_id":"levelo_inurba_marseille","lat":43.27941,"lon":5.4105,"is_reserved":false,"is_disabled":false,"rental_uris":{"android":"levelo://app?vid=773e1174-a6d8-4557-aecf-23ea0bb72d04","ios":"levelo://app?vid=773e1174-a6d8-4557-aecf-23ea0bb72d04"},"vehicle_type_id":"4","last_reported":1762964076,"current_range_meters":14400,"station_id":"ce4bhnp2rcd13ifvqh0g","pricing_plan_id":"cebpf4jnsgd1na2vs0mg"},{"bike_id":"85d21aa4-1ca7-40e1-b883-953143237e29","system_id":"levelo_inurba_marseille","lat":43.31329,"lon":5.39694,"is_reserved":false,"is_disabled":false,"rental_uris":{"android":"levelo://app?vid=85d21aa4-1ca7-40e1-b883-953143237e29","ios":"levelo://app?vid=85d21aa4-1ca7-40e1-b883-953143237e29"},"vehicle_type_id":"4","last_reported":1762964076,"current_range_meters":14400,"station_id":"ce4bgvp2rcd13ifvqcu0","pricing_plan_id":"cebpf4jnsgd1na2vs0mg"},{"bike_id":"ab41c97f-d231-44a0-a83d-4ded546dbfea","system_id":"levelo_inurba_marseille","lat":43.23136,"lon":5.43688,"is_reserved":false,"is_disabled":false,"rental_uris":{"android":"levelo://app?vid=ab41c97f-d231-44a0-a83d-4ded546dbfea","ios":"levelo://app?vid=ab41c97f-d231-44a0-a83d-4ded546dbfea"},"vehicle_type_id":"4","last_reported":1762964076,"current_range_meters":14400,"station_id":"ce4bhmp2rcd13ifvqgog","pricing_plan_id":"cebpf4jnsgd1na2vs0mg"},{"bike_id":"07cdd6c0-c821-469a-9a6b-e067fa27bb41","system_id":"levelo_inurba_marseille","lat":43.21194,"lon":5.35083,"is_reserved":false,"is_disabled":true,"rental_uris":{"android":"levelo://app?vid=07cdd6c0-c821-469a-9a6b-e067fa27bb41","ios":"levelo://app?vid=07cdd6c0-c821-469a-9a6b-e067fa27bb41"},"vehicle_type_id":"4","last_reported":1762964076,"current_range_meters":14400,"station_id":"","pricing_plan_id":"cebpf4jnsgd1na2vs0mg"},{"bike_id":"3277b8f7-a7c0-46e4-bfb4-ecaf8e5a96b2","system_id":"levelo_inurba_marseille","lat":43.29574,"lon":5.37504,"is_reserved":false,"is_disabled":false,"rental_uris":{"android":"levelo://app?vid=3277b8f7-a7c0-46e4-bfb4-ecaf8e5a96b2","ios":"levelo://app?vid=3277b8f7-a7c0-46e4-bfb4-ecaf8e5a96b2"},"vehicle_type_id":"4","last_reported":1762964076,"current_range_meters":14800,"station_id":"ce4bgh92rcd13ifvqb50","pricing_plan_id":"cebpf4jnsgd1na2vs0mg"},{"bike_id":"fd3bc958-4321-401c-a774-6c4276dba134","system_id":"levelo_inurba_marseille","lat":43.24995,"lon":5.3895,"is_reserved":false,"is_disabled":false,"rental_uris":{"android":"levelo://app?vid=fd3bc958-4321-401c-a774-6c4276dba134","ios":"levelo://app?vid=fd3bc958-4321-401c-a774-6c4276dba134"},"vehicle_type_id":"4","last_reported":1762964076,"current_range_meters":14800,"station_id":"ce4bhgp2rcd13ifvqfd0","pricing_plan_id":"cebpf4jnsgd1na2vs0mg"},{"bike_id":"60e7fa8d-04e1-4bde-9e50-96c18d1e42a2","system_id":"levelo_inurba_marseille","lat":43.33167,"lon":5.36481,"is_reserved":false,"is_disabled":false,"rental_uris":{"android":"levelo://app?vid=60e7fa8d-04e1-4bde-9e50-96c18d1e42a2","ios":"levelo://app?vid=60e7fa8d-04e1-4bde-9e50-96c18d1e42a2"},"vehicle_type_id":"4","last_reported":1762964076,"current_range_meters":14800,"station_id":"","pricing_plan_id":"cebpf4jnsgd1na2vs0mg"},{"bike_id":"66e2a0c3-6e16-4ba1-9621-12d5f74287db","system_id":"levelo_inurba_marseille","lat":43.29532,"lon":5.3854,"is_reserved":false,"is_disabled":false,"rental_uris":{"android":"levelo://app?vid=66e2a0c3-6e16-4ba1-9621-12d5f74287db","ios":"levelo://app?vid=66e2a0c3-6e16-4ba1-9621-12d5f74287db"},"vehicle_type_id":"4","last_reported":1762964076,"current_range_meters":14800,"station_id":"ce4bgih2rcd13ifvqba0","pricing_plan_id":"cebpf4jnsgd1na2vs0mg"},{"bike_id":"9a8ec229-2a02-411c-921b-0d94ee2289e6","system_id":"levelo_inurba_marseille","lat":43.305405,"lon":5.3673,"is_reserved":false,"is_disabled":false,"rental_uris":{"android":"levelo://app?vid=9a8ec229-2a02-411c-921b-0d94ee2289e6","ios":"levelo://app?vid=9a8ec229-2a02-411c-921b-0d94ee2289e6"},"vehicle_type_id":"4","last_reported":1762964076,"current_range_meters":14800,"station_id":"ce4bgrp2rcd13ifvqc9g","pricing_plan_id":"cebpf4jnsgd1na2vs0mg"},{"bike_id":"2a2ec83a-2b84-4bf4-b19a-cd864bece9fd","system_id":"levelo_inurba_marseille","lat":43.24628,"lon":5.431528,"is_reserved":false,"is_disabled":false,"rental_uris":{"android":"levelo://app?vid=2a2ec83a-2b84-4bf4-b19a-cd864bece9fd","ios":"levelo://app?vid=2a2ec83a-2b84-4bf4-b19a-cd864bece9fd"},"vehicle_type_id":"4","last_reported":1762964076,"current_range_meters":14800,"station_id":"st_d2m6c4gdas8pm72e190g","pricing_plan_id":"cebpf4jnsgd1na2vs0mg"},{"bike_id":"04a6edf3-cc28-447f-a97c-4bedb0ba724e","system_id":"levelo_inurba_marseille","lat":43.282553,"lon":5.351021,"is_reserved":false,"is_disabled":false,"rental_uris":{"android":"levelo://app?vid=04a6edf3-cc28-447f-a97c-4bedb0ba724e","ios":"levelo://app?vid=04a6edf3-cc28-447f-a97c-4bedb0ba724e"},"vehicle_type_id":"4","last_reported":1762964076,"current_range_meters":15200,"station_id":"","pricing_plan_id":"cebpf4jnsgd1na2vs0mg"},{"bike_id":"a26712ac-c4dc-4d7c-9767-877ec57b4780","system_id":"levelo_inurba_marseille","lat":43.284807,"lon":5.483861,"is_reserved":false,"is_disabled":false,"rental_uris":{"android":"levelo://app?vid=a26712ac-c4dc-4d7c-9767-877ec57b4780","ios":"levelo://app?vid=a26712ac-c4dc-4d7c-9767-877ec57b4780"},"vehicle_type_id":"4","last_reported":1762964076,"current_range_meters":15200,"station_id":"st_d3svhcjqgbts73a3dn0g","pricing_plan_id":"cebpf4jnsgd1na2vs0mg"},{"bike_id":"1b0b7981-696f-4ec5-932c-764cd2899c70","system_id":"levelo_inurba_marseille","lat":43.28476,"lon":5.48396,"is_reserved":false,"is_disabled":false,"rental_uris":{"android":"levelo://app?vid=1b0b7981-696f-4ec5-932c-764cd2899c70","ios":"levelo://app?vid=1b0b7981-696f-4ec5-932c-764cd2899c70"},"vehicle_type_id":"4","last_reported":1762964076,"current_range_meters":15200,"station_id":"","pricing_plan_id":"cebpf4jnsgd1na2vs0mg"},{"bike_id":"9f77fce6-b576-455d-a43d-b1e175676c28","system_id":"levelo_inurba_marseille","lat":43.33773,"lon":5.37473,"is_reserved":false,"is_disabled":false,"rental_uris":{"android":"levelo://app?vid=9f77fce6-b576-455d-a43d-b1e175676c28","ios":"levelo://app?vid=9f77fce6-b576-455d-a43d-b1e175676c28"},"vehicle_type_id":"4","last_reported":1762964076,"current_range_meters":15200,"station_id":"","pricing_plan_id":"cebpf4jnsgd1na2vs0mg"},{"bike_id":"3989c370-d551-4087-882f-4c13d536c5dd","system_id":"levelo_inurba_marseille","lat":43.281525,"lon":5.42639,"is_reserved":false,"is_disabled":false,"rental_uris":{"android":"levelo://app?vid=3989c370-d551-4087-882f-4c13d536c5dd","ios":"levelo://app?vid=3989c370-d551-4087-882f-4c13d536c5dd"},"vehicle_type_id":"4","last_reported":1762964076,"current_range_meters":15200,"station_id":"ce4bhnh2rcd13ifvqgug","pricing_plan_id":"cebpf4jnsgd1na2vs0mg"},{"bike_id":"f0413c71-e0c3-427b-98cb-cdf950c219e3","system_id":"levelo_inurba_marseille","lat":43.310073,"lon":5.400689,"is_reserved":false,"is_disabled":false,"rental_uris":{"android":"levelo://app?vid=f0413c71-e0c3-427b-98cb-cdf950c219e3","ios":"levelo://app?vid=f0413c71-e0c3-427b-98cb-cdf950c219e3"},"vehicle_type_id":"4","last_reported":1762964076,"current_range_meters":16000,"station_id":"","pricing_plan_id":"cebpf4jnsgd1na2vs0mg"},{"bike_id":"502a8213-e2c5-4509-8429-9fded9cb3d0a","system_id":"levelo_inurba_marseille","lat":43.292729,"lon":5.368348,"is_reserved":false,"is_disabled":true,"rental_uris":{"android":"levelo://app?vid=502a8213-e2c5-4509-8429-9fded9cb3d0a","ios":"levelo://app?vid=502a8213-e2c5-4509-8429-9fded9cb3d0a"},"vehicle_type_id":"4","last_reported":1762964076,"current_range_meters":16000,"station_id":"ce4bhbp2rcd13ifvqesg","pricing_plan_id":"cebpf4jnsgd1na2vs0mg"},{"bike_id":"831c7e90-147b-4ceb-a841-3d90e7679bf3","system_id":"levelo_inurba_marseille","lat":43.29936,"lon":5.36533,"is_reserved":false,"is_disabled":false,"rental_uris":{"android":"levelo://app?vid=831c7e90-147b-4ceb-a841-3d90e7679bf3","ios":"levelo://app?vid=831c7e90-147b-4ceb-a841-3d90e7679bf3"},"vehicle_type_id":"4","last_reported":1762964076,"current_range_meters":16000,"station_id":"ce4bgm92rcd13ifvqbr0","pricing_plan_id":"cebpf4jnsgd1na2vs0mg"},{"bike_id":"e0940536-8e97-445f-9fc3-1d0cc2c2fe80","system_id":"levelo_inurba_marseille","lat":43.28878,"lon":5.42517,"is_reserved":false,"is_disabled":false,"rental_uris":{"android":"levelo://app?vid=e0940536-8e97-445f-9fc3-1d0cc2c2fe80","ios":"levelo://app?vid=e0940536-8e97-445f-9fc3-1d0cc2c2fe80"},"vehicle_type_id":"4","last_reported":1762964076,"current_range_meters":16000,"station_id":"st_d3b462108ojc7389ooeg","pricing_plan_id":"cebpf4jnsgd1na2vs0mg"},{"bike_id":"daa30e0c-6e8b-4d16-8473-ab98887af215","system_id":"levelo_inurba_marseille","lat":43.24806,"lon":5.37453,"is_reserved":false,"is_disabled":false,"rental_uris":{"android":"levelo://app?vid=daa30e0c-6e8b-4d16-8473-ab98887af215","ios":"levelo://app?vid=daa30e0c-6e8b-4d16-8473-ab98887af215"},"vehicle_type_id":"4","last_reported":1762964076,"current_range_meters":16400,"station_id":"","pricing_plan_id":"cebpf4jnsgd1na2vs0mg"},{"bike_id":"245b8b3a-7dce-46e9-b60c-0d054e543e67","system_id":"levelo_inurba_marseille","lat":43.30548,"lon":5.36526,"is_reserved":false,"is_disabled":false,"rental_uris":{"android":"levelo://app?vid=245b8b3a-7dce-46e9-b60c-0d054e543e67","ios":"levelo://app?vid=245b8b3a-7dce-46e9-b60c-0d054e543e67"},"vehicle_type_id":"4","last_reported":1762964076,"current_range_meters":16400,"station_id":"ce4bgs12rcd13ifvqcag","pricing_plan_id":"cebpf4jnsgd1na2vs0mg"},{"bike_id":"6488182a-5782-41b4-ba91-17e2a0e1301a","system_id":"levelo_inurba_marseille","lat":43.31825,"lon":5.40953,"is_reserved":false,"is_disabled":false,"rental_uris":{"android":"levelo://app?vid=6488182a-5782-41b4-ba91-17e2a0e1301a","ios":"levelo://app?vid=6488182a-5782-41b4-ba91-17e2a0e1301a"},"vehicle_type_id":"4","last_reported":1762964076,"current_range_meters":16400,"station_id":"","pricing_plan_id":"cebpf4jnsgd1na2vs0mg"},{"bike_id":"a29d4227-1978-415d-b140-a75493f8ac60","system_id":"levelo_inurba_marseille","lat":43.29794,"lon":5.38095,"is_reserved":false,"is_disabled":false,"rental_uris":{"android":"levelo://app?vid=a29d4227-1978-415d-b140-a75493f8ac60","ios":"levelo://app?vid=a29d4227-1978-415d-b140-a75493f8ac60"},"vehicle_type_id":"4","last_reported":1762964076,"current_range_meters":16400,"station_id":"ce4bgip2rcd13ifvqbb0","pricing_plan_id":"cebpf4jnsgd1na2vs0mg"},{"bike_id":"b9082d3b-420d-48df-adac-b73011d4f03b","system_id":"levelo_inurba_marseille","lat":43.33026,"lon":5.39044,"is_reserved":false,"is_disabled":false,"rental_uris":{"android":"levelo://app?vid=b9082d3b-420d-48df-adac-b73011d4f03b","ios":"levelo://app?vid=b9082d3b-420d-48df-adac-b73011d4f03b"},"vehicle_type_id":"4","last_reported":1762964076,"current_range_meters":16400,"station_id":"ce4bhr92rcd13ifvqhrg","pricing_plan_id":"cebpf4jnsgd1na2vs0mg"},{"bike_id":"a76ed384-8adb-4855-8ea9-608b64e9d92b","system_id":"levelo_inurba_marseille","lat":43.322868,"lon":5.36988,"is_reserved":false,"is_disabled":false,"rental_uris":{"android":"levelo://app?vid=a76ed384-8adb-4855-8ea9-608b64e9d92b","ios":"levelo://app?vid=a76ed384-8adb-4855-8ea9-608b64e9d92b"},"vehicle_type_id":"4","last_reported":1762964076,"current_range_meters":16400,"station_id":"","pricing_plan_id":"cebpf4jnsgd1na2vs0mg"},{"bike_id":"4b562ce0-491d-48ae-b8a2-e46399615e6c","system_id":"levelo_inurba_marseille","lat":43.306761,"lon":5.382826,"is_reserved":false,"is_disabled":false,"rental_uris":{"android":"levelo://app?vid=4b562ce0-491d-48ae-b8a2-e46399615e6c","ios":"levelo://app?vid=4b562ce0-491d-48ae-b8a2-e46399615e6c"},"vehicle_type_id":"4","last_reported":1762964076,"current_range_meters":16400,"station_id":"ce4bgt12rcd13ifvqce0","pricing_plan_id":"cebpf4jnsgd1na2vs0mg"},{"bike_id":"ce5ad99b-90b1-4f30-a3eb-221700f430ab","system_id":"levelo_inurba_marseille","lat":43.27984,"lon":5.41661,"is_reserved":false,"is_disabled":false,"rental_uris":{"android":"levelo://app?vid=ce5ad99b-90b1-4f30-a3eb-221700f430ab","ios":"levelo://app?vid=ce5ad99b-90b1-4f30-a3eb-221700f430ab"},"vehicle_type_id":"4","last_reported":1762964076,"current_range_meters":16400,"station_id":"ce4bho12rcd13ifvqh1g","pricing_plan_id":"cebpf4jnsgd1na2vs0mg"},{"bike_id":"87b2ef88-27d3-45ad-b375-3418795e8580","system_id":"levelo_inurba_marseille","lat":43.21754,"lon":5.3461,"is_reserved":false,"is_disabled":false,"rental_uris":{"android":"levelo://app?vid=87b2ef88-27d3-45ad-b375-3418795e8580","ios":"levelo://app?vid=87b2ef88-27d3-45ad-b375-3418795e8580"},"vehicle_type_id":"4","last_reported":1762964076,"current_range_meters":16400,"station_id":"st_cvj6r9ubvosntc0bgbag","pricing_plan_id":"cebpf4jnsgd1na2vs0mg"},{"bike_id":"1826021c-78d5-4bf7-9950-ab922f7cd7e0","system_id":"levelo_inurba_marseille","lat":43.32352,"lon":5.367452,"is_reserved":false,"is_disabled":false,"rental_uris":{"android":"levelo://app?vid=1826021c-78d5-4bf7-9950-ab922f7cd7e0","ios":"levelo://app?vid=1826021c-78d5-4bf7-9950-ab922f7cd7e0"},"vehicle_type_id":"4","last_reported":1762964076,"current_range_meters":16800,"station_id":"ce4bhsh2rcd13ifvqi2g","pricing_plan_id":"cebpf4jnsgd1na2vs0mg"},{"bike_id":"ef3787f7-4815-49ad-b8f4-4132eb78b8f9","system_id":"levelo_inurba_marseille","lat":43.30527,"lon":5.36549,"is_reserved":false,"is_disabled":false,"rental_uris":{"android":"levelo://app?vid=ef3787f7-4815-49ad-b8f4-4132eb78b8f9","ios":"levelo://app?vid=ef3787f7-4815-49ad-b8f4-4132eb78b8f9"},"vehicle_type_id":"4","last_reported":1762964076,"current_range_meters":16800,"station_id":"ce4bgs12rcd13ifvqcag","pricing_plan_id":"cebpf4jnsgd1na2vs0mg"},{"bike_id":"0480a824-eedf-48e8-981a-8f4d9f4e365b","system_id":"levelo_inurba_marseille","lat":43.29252,"lon":5.37627,"is_reserved":false,"is_disabled":false,"rental_uris":{"android":"levelo://app?vid=0480a824-eedf-48e8-981a-8f4d9f4e365b","ios":"levelo://app?vid=0480a824-eedf-48e8-981a-8f4d9f4e365b"},"vehicle_type_id":"4","last_reported":1762964076,"current_range_meters":16800,"station_id":"ce4bgi12rcd13ifvqb80","pricing_plan_id":"cebpf4jnsgd1na2vs0mg"},{"bike_id":"3ed82bf1-be25-48cb-81eb-d060bbb153f6","system_id":"levelo_inurba_marseille","lat":43.28621,"lon":5.35103,"is_reserved":false,"is_disabled":false,"rental_uris":{"android":"levelo://app?vid=3ed82bf1-be25-48cb-81eb-d060bbb153f6","ios":"levelo://app?vid=3ed82bf1-be25-48cb-81eb-d060bbb153f6"},"vehicle_type_id":"4","last_reported":1762964076,"current_range_meters":16800,"station_id":"ce4bhch2rcd13ifvqeug","pricing_plan_id":"cebpf4jnsgd1na2vs0mg"},{"bike_id":"23f9c78c-ca0a-48be-8a9d-156c748920c2","system_id":"levelo_inurba_marseille","lat":43.27923,"lon":5.41041,"is_reserved":false,"is_disabled":false,"rental_uris":{"android":"levelo://app?vid=23f9c78c-ca0a-48be-8a9d-156c748920c2","ios":"levelo://app?vid=23f9c78c-ca0a-48be-8a9d-156c748920c2"},"vehicle_type_id":"4","last_reported":1762964076,"current_range_meters":16800,"station_id":"ce4bhnp2rcd13ifvqh0g","pricing_plan_id":"cebpf4jnsgd1na2vs0mg"},{"bike_id":"9106d1e6-c848-4688-b917-d0e5e79fb4b2","system_id":"levelo_inurba_marseille","lat":43.29763,"lon":5.42788,"is_reserved":false,"is_disabled":false,"rental_uris":{"android":"levelo://app?vid=9106d1e6-c848-4688-b917-d0e5e79fb4b2","ios":"levelo://app?vid=9106d1e6-c848-4688-b917-d0e5e79fb4b2"},"vehicle_type_id":"4","last_reported":1762964076,"current_range_meters":16800,"station_id":"st_d3md5207bmas73dh9klg","pricing_plan_id":"cebpf4jnsgd1na2vs0mg"},{"bike_id":"ba323dff-b9db-46a6-9b3d-234c2e5f91d5","system_id":"levelo_inurba_marseille","lat":43.27811,"lon":5.40709,"is_reserved":false,"is_disabled":false,"rental_uris":{"android":"levelo://app?vid=ba323dff-b9db-46a6-9b3d-234c2e5f91d5","ios":"levelo://app?vid=ba323dff-b9db-46a6-9b3d-234c2e5f91d5"},"vehicle_type_id":"4","last_reported":1762964076,"current_range_meters":16800,"station_id":"ce4bhnh2rcd13ifvqgtg","pricing_plan_id":"cebpf4jnsgd1na2vs0mg"},{"bike_id":"9f257429-210e-4187-b310-fa3b4c5c3978","system_id":"levelo_inurba_marseille","lat":43.27335,"lon":5.4016,"is_reserved":false,"is_disabled":false,"rental_uris":{"android":"levelo://app?vid=9f257429-210e-4187-b310-fa3b4c5c3978","ios":"levelo://app?vid=9f257429-210e-4187-b310-fa3b4c5c3978"},"vehicle_type_id":"4","last_reported":1762964076,"current_range_meters":16800,"station_id":"","pricing_plan_id":"cebpf4jnsgd1na2vs0mg"},{"bike_id":"98d9ed27-1c51-4232-bb05-142a9e7f98db","system_id":"levelo_inurba_marseille","lat":43.310786,"lon":5.383458,"is_reserved":false,"is_disabled":true,"rental_uris":{"android":"levelo://app?vid=98d9ed27-1c51-4232-bb05-142a9e7f98db","ios":"levelo://app?vid=98d9ed27-1c51-4232-bb05-142a9e7f98db"},"vehicle_type_id":"4","last_reported":1762964076,"current_range_meters":16800,"station_id":"ce4bgv92rcd13ifvqcr0","pricing_plan_id":"cebpf4jnsgd1na2vs0mg"},{"bike_id":"b973542d-88ff-4253-9b4e-a75517007190","system_id":"levelo_inurba_marseille","lat":43.2966,"lon":5.37594,"is_reserved":false,"is_disabled":false,"rental_uris":{"android":"levelo://app?vid=b973542d-88ff-4253-9b4e-a75517007190","ios":"levelo://app?vid=b973542d-88ff-4253-9b4e-a75517007190"},"vehicle_type_id":"4","last_reported":1762964076,"current_range_meters":16800,"station_id":"","pricing_plan_id":"cebpf4jnsgd1na2vs0mg"},{"bike_id":"b91dc4f8-3c2a-4782-b838-9789d5dfaa59","system_id":"levelo_inurba_marseille","lat":43.28539,"lon":5.440975,"is_reserved":false,"is_disabled":false,"rental_uris":{"android":"levelo://app?vid=b91dc4f8-3c2a-4782-b838-9789d5dfaa59","ios":"levelo://app?vid=b91dc4f8-3c2a-4782-b838-9789d5dfaa59"},"vehicle_type_id":"4","last_reported":1762964076,"current_range_meters":16800,"station_id":"ce4bh9p2rcd13ifvqec0","pricing_plan_id":"cebpf4jnsgd1na2vs0mg"},{"bike_id":"c9a41f20-861a-4d32-91b1-292791b535f8","system_id":"levelo_inurba_marseille","lat":43.30534,"lon":5.36535,"is_reserved":false,"is_disabled":false,"rental_uris":{"android":"levelo://app?vid=c9a41f20-861a-4d32-91b1-292791b535f8","ios":"levelo://app?vid=c9a41f20-861a-4d32-91b1-292791b535f8"},"vehicle_type_id":"4","last_reported":1762964076,"current_range_meters":17200,"station_id":"ce4bgs12rcd13ifvqcag","pricing_plan_id":"cebpf4jnsgd1na2vs0mg"},{"bike_id":"f3efa4a9-0c8f-441d-9e81-b75f996d00f4","system_id":"levelo_inurba_marseille","lat":43.29252,"lon":5.40921,"is_reserved":false,"is_disabled":false,"rental_uris":{"android":"levelo://app?vid=f3efa4a9-0c8f-441d-9e81-b75f996d00f4","ios":"levelo://app?vid=f3efa4a9-0c8f-441d-9e81-b75f996d00f4"},"vehicle_type_id":"4","last_reported":1762964076,"current_range_meters":17200,"station_id":"ce4bh192rcd13ifvqdc0","pricing_plan_id":"cebpf4jnsgd1na2vs0mg"},{"bike_id":"5a1a0488-169c-4229-99cb-d2ad1b73503d","system_id":"levelo_inurba_marseille","lat":43.295334,"lon":5.385429,"is_reserved":false,"is_disabled":false,"rental_uris":{"android":"levelo://app?vid=5a1a0488-169c-4229-99cb-d2ad1b73503d","ios":"levelo://app?vid=5a1a0488-169c-4229-99cb-d2ad1b73503d"},"vehicle_type_id":"4","last_reported":1762964076,"current_range_meters":17200,"station_id":"ce4bgih2rcd13ifvqba0","pricing_plan_id":"cebpf4jnsgd1na2vs0mg"},{"bike_id":"52e217e9-e9d2-4466-9847-470c3803bd48","system_id":"levelo_inurba_marseille","lat":43.28931,"lon":5.36642,"is_reserved":false,"is_disabled":false,"rental_uris":{"android":"levelo://app?vid=52e217e9-e9d2-4466-9847-470c3803bd48","ios":"levelo://app?vid=52e217e9-e9d2-4466-9847-470c3803bd48"},"vehicle_type_id":"4","last_reported":1762964076,"current_range_meters":17200,"station_id":"ce4bhap2rcd13ifvqek0","pricing_plan_id":"cebpf4jnsgd1na2vs0mg"},{"bike_id":"5e31c7d8-3f5b-43e0-9a64-04fd6cacf51c","system_id":"levelo_inurba_marseille","lat":43.30914,"lon":5.36863,"is_reserved":false,"is_disabled":false,"rental_uris":{"android":"levelo://app?vid=5e31c7d8-3f5b-43e0-9a64-04fd6cacf51c","ios":"levelo://app?vid=5e31c7d8-3f5b-43e0-9a64-04fd6cacf51c"},"vehicle_type_id":"4","last_reported":1762964076,"current_range_meters":17200,"station_id":"ce4bgn92rcd13ifvqbvg","pricing_plan_id":"cebpf4jnsgd1na2vs0mg"},{"bike_id":"4f27c235-11df-4df2-bfdf-8938c3d9c6ba","system_id":"levelo_inurba_marseille","lat":43.33781,"lon":5.37431,"is_reserved":false,"is_disabled":false,"rental_uris":{"android":"levelo://app?vid=4f27c235-11df-4df2-bfdf-8938c3d9c6ba","ios":"levelo://app?vid=4f27c235-11df-4df2-bfdf-8938c3d9c6ba"},"vehicle_type_id":"4","last_reported":1762964076,"current_range_meters":17200,"station_id":"","pricing_plan_id":"cebpf4jnsgd1na2vs0mg"},{"bike_id":"8b906e1a-f70f-4bb4-9d83-e1e4113d32bd","system_id":"levelo_inurba_marseille","lat":43.28152,"lon":5.42644,"is_reserved":false,"is_disabled":false,"rental_uris":{"android":"levelo://app?vid=8b906e1a-f70f-4bb4-9d83-e1e4113d32bd","ios":"levelo://app?vid=8b906e1a-f70f-4bb4-9d83-e1e4113d32bd"},"vehicle_type_id":"4","last_reported":1762964076,"current_range_meters":17200,"station_id":"ce4bhnh2rcd13ifvqgug","pricing_plan_id":"cebpf4jnsgd1na2vs0mg"},{"bike_id":"e690290b-b188-4bf4-9457-b92ed6970cb4","system_id":"levelo_inurba_marseille","lat":43.21192,"lon":5.35084,"is_reserved":false,"is_disabled":true,"rental_uris":{"android":"levelo://app?vid=e690290b-b188-4bf4-9457-b92ed6970cb4","ios":"levelo://app?vid=e690290b-b188-4bf4-9457-b92ed6970cb4"},"vehicle_type_id":"4","last_reported":1762964076,"current_range_meters":17200,"station_id":"st_cvj6sg6p6f1abm77japg","pricing_plan_id":"cebpf4jnsgd1na2vs0mg"},{"bike_id":"2380415b-651d-4cb4-9936-c30499ae6b46","system_id":"levelo_inurba_marseille","lat":43.217448,"lon":5.346074,"is_reserved":false,"is_disabled":true,"rental_uris":{"android":"levelo://app?vid=2380415b-651d-4cb4-9936-c30499ae6b46","ios":"levelo://app?vid=2380415b-651d-4cb4-9936-c30499ae6b46"},"vehicle_type_id":"4","last_reported":1762964076,"current_range_meters":17200,"station_id":"","pricing_plan_id":"cebpf4jnsgd1na2vs0mg"},{"bike_id":"42ab484c-883f-4abd-a0b2-f224f778360c","system_id":"levelo_inurba_marseille","lat":43.27811,"lon":5.40706,"is_reserved":false,"is_disabled":false,"rental_uris":{"android":"levelo://app?vid=42ab484c-883f-4abd-a0b2-f224f778360c","ios":"levelo://app?vid=42ab484c-883f-4abd-a0b2-f224f778360c"},"vehicle_type_id":"4","last_reported":1762964076,"current_range_meters":17600,"station_id":"ce4bhnh2rcd13ifvqgtg","pricing_plan_id":"cebpf4jnsgd1na2vs0mg"},{"bike_id":"9eeb35db-e9eb-449a-aae0-70ebf1eea0ca","system_id":"levelo_inurba_marseille","lat":43.30886,"lon":5.39625,"is_reserved":false,"is_disabled":false,"rental_uris":{"android":"levelo://app?vid=9eeb35db-e9eb-449a-aae0-70ebf1eea0ca","ios":"levelo://app?vid=9eeb35db-e9eb-449a-aae0-70ebf1eea0ca"},"vehicle_type_id":"4","last_reported":1762964076,"current_range_meters":17600,"station_id":"ce4bh012rcd13ifvqcv0","pricing_plan_id":"cebpf4jnsgd1na2vs0mg"},{"bike_id":"d0e48066-4d2e-4609-9724-46e7fcd3193e","system_id":"levelo_inurba_marseille","lat":43.2997,"lon":5.38493,"is_reserved":false,"is_disabled":false,"rental_uris":{"android":"levelo://app?vid=d0e48066-4d2e-4609-9724-46e7fcd3193e","ios":"levelo://app?vid=d0e48066-4d2e-4609-9724-46e7fcd3193e"},"vehicle_type_id":"4","last_reported":1762964076,"current_range_meters":17600,"station_id":"ce4bgj92rcd13ifvqbd0","pricing_plan_id":"cebpf4jnsgd1na2vs0mg"},{"bike_id":"4a758c08-28b2-4a1a-8416-9f1b5c31d6d7","system_id":"levelo_inurba_marseille","lat":43.26593,"lon":5.39056,"is_reserved":false,"is_disabled":false,"rental_uris":{"android":"levelo://app?vid=4a758c08-28b2-4a1a-8416-9f1b5c31d6d7","ios":"levelo://app?vid=4a758c08-28b2-4a1a-8416-9f1b5c31d6d7"},"vehicle_type_id":"4","last_reported":1762964076,"current_range_meters":17600,"station_id":"ce4bhe12rcd13ifvqf30","pricing_plan_id":"cebpf4jnsgd1na2vs0mg"},{"bike_id":"9ffad7ea-9257-4766-857d-e67f0b13b545","system_id":"levelo_inurba_marseille","lat":43.29793,"lon":5.37105,"is_reserved":false,"is_disabled":false,"rental_uris":{"android":"levelo://app?vid=9ffad7ea-9257-4766-857d-e67f0b13b545","ios":"levelo://app?vid=9ffad7ea-9257-4766-857d-e67f0b13b545"},"vehicle_type_id":"4","last_reported":1762964076,"current_range_meters":17600,"station_id":"ce4bgop2rcd13ifvqc1g","pricing_plan_id":"cebpf4jnsgd1na2vs0mg"},{"bike_id":"a68809aa-d0e6-461c-a5e6-8fdb1f2108c8","system_id":"levelo_inurba_marseille","lat":43.28302,"lon":5.35074,"is_reserved":false,"is_disabled":false,"rental_uris":{"android":"levelo://app?vid=a68809aa-d0e6-461c-a5e6-8fdb1f2108c8","ios":"levelo://app?vid=a68809aa-d0e6-461c-a5e6-8fdb1f2108c8"},"vehicle_type_id":"4","last_reported":1762964076,"current_range_meters":17600,"station_id":"ce4bhbp2rcd13ifvqerg","pricing_plan_id":"cebpf4jnsgd1na2vs0mg"},{"bike_id":"8fd55e53-be61-44d2-b076-f7df406ab515","system_id":"levelo_inurba_marseille","lat":43.305407,"lon":5.365541,"is_reserved":false,"is_disabled":false,"rental_uris":{"android":"levelo://app?vid=8fd55e53-be61-44d2-b076-f7df406ab515","ios":"levelo://app?vid=8fd55e53-be61-44d2-b076-f7df406ab515"},"vehicle_type_id":"4","last_reported":1762964076,"current_range_meters":18000,"station_id":"ce4bgs12rcd13ifvqcag","pricing_plan_id":"cebpf4jnsgd1na2vs0mg"},{"bike_id":"b4140b3d-33a5-49e3-a392-df290d807c7d","system_id":"levelo_inurba_marseille","lat":43.29978,"lon":5.37184,"is_reserved":false,"is_disabled":false,"rental_uris":{"android":"levelo://app?vid=b4140b3d-33a5-49e3-a392-df290d807c7d","ios":"levelo://app?vid=b4140b3d-33a5-49e3-a392-df290d807c7d"},"vehicle_type_id":"4","last_reported":1762964076,"current_range_meters":18000,"station_id":"ce4bgr92rcd13ifvqc7g","pricing_plan_id":"cebpf4jnsgd1na2vs0mg"},{"bike_id":"1f31cc5b-77f8-4129-a0fb-df1c2e31c900","system_id":"levelo_inurba_marseille","lat":43.25584,"lon":5.38244,"is_reserved":false,"is_disabled":false,"rental_uris":{"android":"levelo://app?vid=1f31cc5b-77f8-4129-a0fb-df1c2e31c900","ios":"levelo://app?vid=1f31cc5b-77f8-4129-a0fb-df1c2e31c900"},"vehicle_type_id":"4","last_reported":1762964076,"current_range_meters":18000,"station_id":"ce4bhih2rcd13ifvqfs0","pricing_plan_id":"cebpf4jnsgd1na2vs0mg"},{"bike_id":"7cbbc2fb-70fd-4359-bcfa-13236dd902ab","system_id":"levelo_inurba_marseille","lat":43.27922,"lon":5.39571,"is_reserved":false,"is_disabled":false,"rental_uris":{"android":"levelo://app?vid=7cbbc2fb-70fd-4359-bcfa-13236dd902ab","ios":"levelo://app?vid=7cbbc2fb-70fd-4359-bcfa-13236dd902ab"},"vehicle_type_id":"4","last_reported":1762964076,"current_range_meters":18000,"station_id":"ce4bhf92rcd13ifvqf40","pricing_plan_id":"cebpf4jnsgd1na2vs0mg"},{"bike_id":"d25fb43d-1830-4ff9-aa4d-ca857ad1d69a","system_id":"levelo_inurba_marseille","lat":43.31707,"lon":5.37761,"is_reserved":false,"is_disabled":false,"rental_uris":{"android":"levelo://app?vid=d25fb43d-1830-4ff9-aa4d-ca857ad1d69a","ios":"levelo://app?vid=d25fb43d-1830-4ff9-aa4d-ca857ad1d69a"},"vehicle_type_id":"4","last_reported":1762964076,"current_range_meters":18000,"station_id":"ce4bgth2rcd13ifvqch0","pricing_plan_id":"cebpf4jnsgd1na2vs0mg"},{"bike_id":"3f3db3e0-8786-462c-9790-1156703a5fd2","system_id":"levelo_inurba_marseille","lat":43.22923,"lon":5.3538,"is_reserved":false,"is_disabled":false,"rental_uris":{"android":"levelo://app?vid=3f3db3e0-8786-462c-9790-1156703a5fd2","ios":"levelo://app?vid=3f3db3e0-8786-462c-9790-1156703a5fd2"},"vehicle_type_id":"4","last_reported":1762964076,"current_range_meters":18000,"station_id":"cpo3532slgdg3j2ikp40","pricing_plan_id":"cebpf4jnsgd1na2vs0mg"},{"bike_id":"7e79b682-c4d5-405e-9af8-dd0578d9f4ae","system_id":"levelo_inurba_marseille","lat":43.254679,"lon":5.377369,"is_reserved":false,"is_disabled":false,"rental_uris":{"android":"levelo://app?vid=7e79b682-c4d5-405e-9af8-dd0578d9f4ae","ios":"levelo://app?vid=7e79b682-c4d5-405e-9af8-dd0578d9f4ae"},"vehicle_type_id":"4","last_reported":1762964076,"current_range_meters":18000,"station_id":"ce4bhh12rcd13ifvqff0","pricing_plan_id":"cebpf4jnsgd1na2vs0mg"},{"bike_id":"c44232e9-4fb0-47ed-b085-ec4dfc2c1f9f","system_id":"levelo_inurba_marseille","lat":43.306478,"lon":5.401032,"is_reserved":false,"is_disabled":false,"rental_uris":{"android":"levelo://app?vid=c44232e9-4fb0-47ed-b085-ec4dfc2c1f9f","ios":"levelo://app?vid=c44232e9-4fb0-47ed-b085-ec4dfc2c1f9f"},"vehicle_type_id":"4","last_reported":1762964076,"current_range_meters":18800,"station_id":"ce4bh112rcd13ifvqda0","pricing_plan_id":"cebpf4jnsgd1na2vs0mg"},{"bike_id":"676ebf71-b20b-4050-aa07-653abe4fc568","system_id":"levelo_inurba_marseille","lat":43.27815,"lon":5.40715,"is_reserved":false,"is_disabled":false,"rental_uris":{"android":"levelo://app?vid=676ebf71-b20b-4050-aa07-653abe4fc568","ios":"levelo://app?vid=676ebf71-b20b-4050-aa07-653abe4fc568"},"vehicle_type_id":"4","last_reported":1762964076,"current_range_meters":18800,"station_id":"ce4bhnh2rcd13ifvqgtg","pricing_plan_id":"cebpf4jnsgd1na2vs0mg"},{"bike_id":"ab17ac4f-a279-4845-bb73-3855c94bea23","system_id":"levelo_inurba_marseille","lat":43.30495,"lon":5.36478,"is_reserved":false,"is_disabled":false,"rental_uris":{"android":"levelo://app?vid=ab17ac4f-a279-4845-bb73-3855c94bea23","ios":"levelo://app?vid=ab17ac4f-a279-4845-bb73-3855c94bea23"},"vehicle_type_id":"4","last_reported":1762964076,"current_range_meters":18800,"station_id":"","pricing_plan_id":"cebpf4jnsgd1na2vs0mg"},{"bike_id":"be33fc24-f115-4fac-9aa2-0036d1bce1e2","system_id":"levelo_inurba_marseille","lat":43.29533,"lon":5.3855,"is_reserved":false,"is_disabled":false,"rental_uris":{"android":"levelo://app?vid=be33fc24-f115-4fac-9aa2-0036d1bce1e2","ios":"levelo://app?vid=be33fc24-f115-4fac-9aa2-0036d1bce1e2"},"vehicle_type_id":"4","last_reported":1762964076,"current_range_meters":18800,"station_id":"ce4bgih2rcd13ifvqba0","pricing_plan_id":"cebpf4jnsgd1na2vs0mg"},{"bike_id":"33112738-bd15-41d4-aae1-465688929b4c","system_id":"levelo_inurba_marseille","lat":43.306853,"lon":5.395446,"is_reserved":false,"is_disabled":false,"rental_uris":{"android":"levelo://app?vid=33112738-bd15-41d4-aae1-465688929b4c","ios":"levelo://app?vid=33112738-bd15-41d4-aae1-465688929b4c"},"vehicle_type_id":"4","last_reported":1762964076,"current_range_meters":18800,"station_id":"","pricing_plan_id":"cebpf4jnsgd1na2vs0mg"},{"bike_id":"30b41e82-9b75-44bc-b241-bf93939ebc74","system_id":"levelo_inurba_marseille","lat":43.28866,"lon":5.42511,"is_reserved":false,"is_disabled":false,"rental_uris":{"android":"levelo://app?vid=30b41e82-9b75-44bc-b241-bf93939ebc74","ios":"levelo://app?vid=30b41e82-9b75-44bc-b241-bf93939ebc74"},"vehicle_type_id":"4","last_reported":1762964076,"current_range_meters":18800,"station_id":"st_d3b462108ojc7389ooeg","pricing_plan_id":"cebpf4jnsgd1na2vs0mg"},{"bike_id":"cc0f8ca4-ae33-432c-aefe-5c00c9e85faf","system_id":"levelo_inurba_marseille","lat":43.28865,"lon":5.4251,"is_reserved":false,"is_disabled":false,"rental_uris":{"android":"levelo://app?vid=cc0f8ca4-ae33-432c-aefe-5c00c9e85faf","ios":"levelo://app?vid=cc0f8ca4-ae33-432c-aefe-5c00c9e85faf"},"vehicle_type_id":"4","last_reported":1762964076,"current_range_meters":18800,"station_id":"st_d3b462108ojc7389ooeg","pricing_plan_id":"cebpf4jnsgd1na2vs0mg"},{"bike_id":"4930e871-eeac-40ca-b4ee-36ddc8ee3366","system_id":"levelo_inurba_marseille","lat":43.23196,"lon":5.35548,"is_reserved":false,"is_disabled":false,"rental_uris":{"android":"levelo://app?vid=4930e871-eeac-40ca-b4ee-36ddc8ee3366","ios":"levelo://app?vid=4930e871-eeac-40ca-b4ee-36ddc8ee3366"},"vehicle_type_id":"4","last_reported":1762964076,"current_range_meters":18800,"station_id":"ce4bhu92rcd13ifvqi70","pricing_plan_id":"cebpf4jnsgd1na2vs0mg"},{"bike_id":"3ac11163-cf82-4c70-8f35-1e25bbffc30c","system_id":"levelo_inurba_marseille","lat":43.25721,"lon":5.41121,"is_reserved":false,"is_disabled":false,"rental_uris":{"android":"levelo://app?vid=3ac11163-cf82-4c70-8f35-1e25bbffc30c","ios":"levelo://app?vid=3ac11163-cf82-4c70-8f35-1e25bbffc30c"},"vehicle_type_id":"4","last_reported":1762964076,"current_range_meters":19200,"station_id":"ce4bhkp2rcd13ifvqgd0","pricing_plan_id":"cebpf4jnsgd1na2vs0mg"},{"bike_id":"c83b5c1b-edab-4bfb-a2f2-d3468c55c2ba","system_id":"levelo_inurba_marseille","lat":43.29166,"lon":5.44874,"is_reserved":false,"is_disabled":false,"rental_uris":{"android":"levelo://app?vid=c83b5c1b-edab-4bfb-a2f2-d3468c55c2ba","ios":"levelo://app?vid=c83b5c1b-edab-4bfb-a2f2-d3468c55c2ba"},"vehicle_type_id":"4","last_reported":1762964076,"current_range_meters":19200,"station_id":"","pricing_plan_id":"cebpf4jnsgd1na2vs0mg"},{"bike_id":"7a1ef263-c216-402e-bafc-92d8214c104a","system_id":"levelo_inurba_marseille","lat":43.337444,"lon":5.374475,"is_reserved":false,"is_disabled":false,"rental_uris":{"android":"levelo://app?vid=7a1ef263-c216-402e-bafc-92d8214c104a","ios":"levelo://app?vid=7a1ef263-c216-402e-bafc-92d8214c104a"},"vehicle_type_id":"4","last_reported":1762964076,"current_range_meters":19200,"station_id":"","pricing_plan_id":"cebpf4jnsgd1na2vs0mg"},{"bike_id":"af54c478-9567-441c-8802-eb3d7c9ad5d5","system_id":"levelo_inurba_marseille","lat":43.30016,"lon":5.389,"is_reserved":false,"is_disabled":false,"rental_uris":{"android":"levelo://app?vid=af54c478-9567-441c-8802-eb3d7c9ad5d5","ios":"levelo://app?vid=af54c478-9567-441c-8802-eb3d7c9ad5d5"},"vehicle_type_id":"4","last_reported":1762964076,"current_range_meters":19200,"station_id":"","pricing_plan_id":"cebpf4jnsgd1na2vs0mg"},{"bike_id":"7ddb6f62-0ee8-49ee-84a8-95bb4f4c5de3","system_id":"levelo_inurba_marseille","lat":43.25572,"lon":5.3825,"is_reserved":false,"is_disabled":false,"rental_uris":{"android":"levelo://app?vid=7ddb6f62-0ee8-49ee-84a8-95bb4f4c5de3","ios":"levelo://app?vid=7ddb6f62-0ee8-49ee-84a8-95bb4f4c5de3"},"vehicle_type_id":"4","last_reported":1762964076,"current_range_meters":19200,"station_id":"ce4bhih2rcd13ifvqfs0","pricing_plan_id":"cebpf4jnsgd1na2vs0mg"},{"bike_id":"f9f36748-9764-48ce-be89-00c313effd75","system_id":"levelo_inurba_marseille","lat":43.33546,"lon":5.37482,"is_reserved":false,"is_disabled":false,"rental_uris":{"android":"levelo://app?vid=f9f36748-9764-48ce-be89-00c313effd75","ios":"levelo://app?vid=f9f36748-9764-48ce-be89-00c313effd75"},"vehicle_type_id":"4","last_reported":1762964076,"current_range_meters":19200,"station_id":"st_d46tts09ee8s73dlu43g","pricing_plan_id":"cebpf4jnsgd1na2vs0mg"},{"bike_id":"cf0eb928-dd3f-4444-a0c9-83d1e5e46493","system_id":"levelo_inurba_marseille","lat":43.26804,"lon":5.40266,"is_reserved":false,"is_disabled":false,"rental_uris":{"android":"levelo://app?vid=cf0eb928-dd3f-4444-a0c9-83d1e5e46493","ios":"levelo://app?vid=cf0eb928-dd3f-4444-a0c9-83d1e5e46493"},"vehicle_type_id":"4","last_reported":1762964076,"current_range_meters":19200,"station_id":"ce501612rcd8frsf0b60","pricing_plan_id":"cebpf4jnsgd1na2vs0mg"},{"bike_id":"59c5123f-72cb-4983-9a6d-1c8809b9fca6","system_id":"levelo_inurba_marseille","lat":43.25837,"lon":5.39428,"is_reserved":false,"is_disabled":false,"rental_uris":{"android":"levelo://app?vid=59c5123f-72cb-4983-9a6d-1c8809b9fca6","ios":"levelo://app?vid=59c5123f-72cb-4983-9a6d-1c8809b9fca6"},"vehicle_type_id":"4","last_reported":1762964076,"current_range_meters":19200,"station_id":"ce4bhip2rcd13ifvqft0","pricing_plan_id":"cebpf4jnsgd1na2vs0mg"},{"bike_id":"008ccf71-44bc-46cb-978a-1f4b71709aa7","system_id":"levelo_inurba_marseille","lat":43.2463,"lon":5.43151,"is_reserved":false,"is_disabled":false,"rental_uris":{"android":"levelo://app?vid=008ccf71-44bc-46cb-978a-1f4b71709aa7","ios":"levelo://app?vid=008ccf71-44bc-46cb-978a-1f4b71709aa7"},"vehicle_type_id":"4","last_reported":1762964076,"current_range_meters":19200,"station_id":"st_d2m6c4gdas8pm72e190g","pricing_plan_id":"cebpf4jnsgd1na2vs0mg"},{"bike_id":"1763732a-981d-4328-afee-215ac6be2ce6","system_id":"levelo_inurba_marseille","lat":43.24652,"lon":5.38903,"is_reserved":false,"is_disabled":false,"rental_uris":{"android":"levelo://app?vid=1763732a-981d-4328-afee-215ac6be2ce6","ios":"levelo://app?vid=1763732a-981d-4328-afee-215ac6be2ce6"},"vehicle_type_id":"4","last_reported":1762964076,"current_range_meters":19600,"station_id":"ce4bhg12rcd13ifvqf60","pricing_plan_id":"cebpf4jnsgd1na2vs0mg"},{"bike_id":"06eb574a-64cf-47d8-af69-ac973ce42a77","system_id":"levelo_inurba_marseille","lat":43.25582,"lon":5.38239,"is_reserved":false,"is_disabled":false,"rental_uris":{"android":"levelo://app?vid=06eb574a-64cf-47d8-af69-ac973ce42a77","ios":"levelo://app?vid=06eb574a-64cf-47d8-af69-ac973ce42a77"},"vehicle_type_id":"4","last_reported":1762964076,"current_range_meters":19600,"station_id":"ce4bhih2rcd13ifvqfs0","pricing_plan_id":"cebpf4jnsgd1na2vs0mg"},{"bike_id":"1cd94639-ec8b-4901-a526-c1b3a8882626","system_id":"levelo_inurba_marseille","lat":43.21753,"lon":5.34604,"is_reserved":false,"is_disabled":false,"rental_uris":{"android":"levelo://app?vid=1cd94639-ec8b-4901-a526-c1b3a8882626","ios":"levelo://app?vid=1cd94639-ec8b-4901-a526-c1b3a8882626"},"vehicle_type_id":"4","last_reported":1762964076,"current_range_meters":19600,"station_id":"st_cvj6r9ubvosntc0bgbag","pricing_plan_id":"cebpf4jnsgd1na2vs0mg"},{"bike_id":"209a1153-128a-4345-8a02-269591e05800","system_id":"levelo_inurba_marseille","lat":43.28942,"lon":5.36642,"is_reserved":false,"is_disabled":false,"rental_uris":{"android":"levelo://app?vid=209a1153-128a-4345-8a02-269591e05800","ios":"levelo://app?vid=209a1153-128a-4345-8a02-269591e05800"},"vehicle_type_id":"4","last_reported":1762964076,"current_range_meters":19600,"station_id":"ce4bhap2rcd13ifvqek0","pricing_plan_id":"cebpf4jnsgd1na2vs0mg"},{"bike_id":"73b46c26-8d5b-47fd-9ba5-e12d78ec0c8b","system_id":"levelo_inurba_marseille","lat":43.255772,"lon":5.382288,"is_reserved":false,"is_disabled":false,"rental_uris":{"android":"levelo://app?vid=73b46c26-8d5b-47fd-9ba5-e12d78ec0c8b","ios":"levelo://app?vid=73b46c26-8d5b-47fd-9ba5-e12d78ec0c8b"},"vehicle_type_id":"4","last_reported":1762964076,"current_range_meters":19600,"station_id":"ce4bhih2rcd13ifvqfs0","pricing_plan_id":"cebpf4jnsgd1na2vs0mg"},{"bike_id":"fc49e022-916b-4364-8aae-868a9613aae0","system_id":"levelo_inurba_marseille","lat":43.27814,"lon":5.40715,"is_reserved":false,"is_disabled":false,"rental_uris":{"android":"levelo://app?vid=fc49e022-916b-4364-8aae-868a9613aae0","ios":"levelo://app?vid=fc49e022-916b-4364-8aae-868a9613aae0"},"vehicle_type_id":"4","last_reported":1762964076,"current_range_meters":19600,"station_id":"ce4bhnh2rcd13ifvqgtg","pricing_plan_id":"cebpf4jnsgd1na2vs0mg"},{"bike_id":"1c20e31d-63f1-4a3c-8311-d3e965de77d8","system_id":"levelo_inurba_marseille","lat":43.25714,"lon":5.41094,"is_reserved":false,"is_disabled":false,"rental_uris":{"android":"levelo://app?vid=1c20e31d-63f1-4a3c-8311-d3e965de77d8","ios":"levelo://app?vid=1c20e31d-63f1-4a3c-8311-d3e965de77d8"},"vehicle_type_id":"4","last_reported":1762964076,"current_range_meters":19600,"station_id":"ce4bhkp2rcd13ifvqgd0","pricing_plan_id":"cebpf4jnsgd1na2vs0mg"},{"bike_id":"390af783-d299-4cc2-8b85-ebe16d7e550f","system_id":"levelo_inurba_marseille","lat":43.31656,"lon":5.41585,"is_reserved":false,"is_disabled":false,"rental_uris":{"android":"levelo://app?vid=390af783-d299-4cc2-8b85-ebe16d7e550f","ios":"levelo://app?vid=390af783-d299-4cc2-8b85-ebe16d7e550f"},"vehicle_type_id":"4","last_reported":1762964076,"current_range_meters":19600,"station_id":"","pricing_plan_id":"cebpf4jnsgd1na2vs0mg"},{"bike_id":"084f1a1d-c230-47ab-bbed-b7308481727f","system_id":"levelo_inurba_marseille","lat":43.251106,"lon":5.403123,"is_reserved":false,"is_disabled":false,"rental_uris":{"android":"levelo://app?vid=084f1a1d-c230-47ab-bbed-b7308481727f","ios":"levelo://app?vid=084f1a1d-c230-47ab-bbed-b7308481727f"},"vehicle_type_id":"4","last_reported":1762964076,"current_range_meters":19600,"station_id":"ce4bhlh2rcd13ifvqgig","pricing_plan_id":"cebpf4jnsgd1na2vs0mg"},{"bike_id":"79b0d17c-df65-4190-9028-7f85dda6ce9b","system_id":"levelo_inurba_marseille","lat":43.2894,"lon":5.38381,"is_reserved":false,"is_disabled":false,"rental_uris":{"android":"levelo://app?vid=79b0d17c-df65-4190-9028-7f85dda6ce9b","ios":"levelo://app?vid=79b0d17c-df65-4190-9028-7f85dda6ce9b"},"vehicle_type_id":"4","last_reported":1762964076,"current_range_meters":20000,"station_id":"ce4bh612rcd13ifvqe6g","pricing_plan_id":"cebpf4jnsgd1na2vs0mg"},{"bike_id":"b568d2c3-d20b-47ec-9444-65b9d0adcc4c","system_id":"levelo_inurba_marseille","lat":43.312314,"lon":5.36849,"is_reserved":false,"is_disabled":false,"rental_uris":{"android":"levelo://app?vid=b568d2c3-d20b-47ec-9444-65b9d0adcc4c","ios":"levelo://app?vid=b568d2c3-d20b-47ec-9444-65b9d0adcc4c"},"vehicle_type_id":"4","last_reported":1762964076,"current_range_meters":20000,"station_id":"ce4bgl92rcd13ifvqbq0","pricing_plan_id":"cebpf4jnsgd1na2vs0mg"},{"bike_id":"463a2222-cf92-4007-943d-15872b32f98e","system_id":"levelo_inurba_marseille","lat":43.2658,"lon":5.39014,"is_reserved":false,"is_disabled":true,"rental_uris":{"android":"levelo://app?vid=463a2222-cf92-4007-943d-15872b32f98e","ios":"levelo://app?vid=463a2222-cf92-4007-943d-15872b32f98e"},"vehicle_type_id":"4","last_reported":1762964076,"current_range_meters":20000,"station_id":"ce4bhe12rcd13ifvqf30","pricing_plan_id":"cebpf4jnsgd1na2vs0mg"},{"bike_id":"39caaa85-3c63-4287-be6d-d2988dbb93fa","system_id":"levelo_inurba_marseille","lat":43.23163,"lon":5.437176,"is_reserved":false,"is_disabled":false,"rental_uris":{"android":"levelo://app?vid=39caaa85-3c63-4287-be6d-d2988dbb93fa","ios":"levelo://app?vid=39caaa85-3c63-4287-be6d-d2988dbb93fa"},"vehicle_type_id":"4","last_reported":1762964076,"current_range_meters":20000,"station_id":"ce4bhmp2rcd13ifvqgog","pricing_plan_id":"cebpf4jnsgd1na2vs0mg"},{"bike_id":"6d5524ad-0000-4dd3-a9b1-0d0005c5d550","system_id":"levelo_inurba_marseille","lat":43.330336,"lon":5.390177,"is_reserved":false,"is_disabled":false,"rental_uris":{"android":"levelo://app?vid=6d5524ad-0000-4dd3-a9b1-0d0005c5d550","ios":"levelo://app?vid=6d5524ad-0000-4dd3-a9b1-0d0005c5d550"},"vehicle_type_id":"4","last_reported":1762964076,"current_range_meters":20000,"station_id":"ce4bhr92rcd13ifvqhrg","pricing_plan_id":"cebpf4jnsgd1na2vs0mg"},{"bike_id":"20832689-4d63-4431-8cde-741943eba01d","system_id":"levelo_inurba_marseille","lat":43.32342,"lon":5.36739,"is_reserved":false,"is_disabled":false,"rental_uris":{"android":"levelo://app?vid=20832689-4d63-4431-8cde-741943eba01d","ios":"levelo://app?vid=20832689-4d63-4431-8cde-741943eba01d"},"vehicle_type_id":"4","last_reported":1762964076,"current_range_meters":20000,"station_id":"ce4bhsh2rcd13ifvqi2g","pricing_plan_id":"cebpf4jnsgd1na2vs0mg"},{"bike_id":"ef376023-8d12-4e39-9095-b616110889d9","system_id":"levelo_inurba_marseille","lat":43.29507,"lon":5.37395,"is_reserved":false,"is_disabled":false,"rental_uris":{"android":"levelo://app?vid=ef376023-8d12-4e39-9095-b616110889d9","ios":"levelo://app?vid=ef376023-8d12-4e39-9095-b616110889d9"},"vehicle_type_id":"4","last_reported":1762964076,"current_range_meters":20000,"station_id":"","pricing_plan_id":"cebpf4jnsgd1na2vs0mg"},{"bike_id":"225e23cf-d348-4048-ba97-1ae0370d47d6","system_id":"levelo_inurba_marseille","lat":43.2952,"lon":5.39039,"is_reserved":false,"is_disabled":false,"rental_uris":{"android":"levelo://app?vid=225e23cf-d348-4048-ba97-1ae0370d47d6","ios":"levelo://app?vid=225e23cf-d348-4048-ba97-1ae0370d47d6"},"vehicle_type_id":"4","last_reported":1762964076,"current_range_meters":20000,"station_id":"ce4bh3p2rcd13ifvqdp0","pricing_plan_id":"cebpf4jnsgd1na2vs0mg"},{"bike_id":"b08a09f4-ff03-4a5d-b0a3-e663624f7160","system_id":"levelo_inurba_marseille","lat":43.32113,"lon":5.368,"is_reserved":false,"is_disabled":false,"rental_uris":{"android":"levelo://app?vid=b08a09f4-ff03-4a5d-b0a3-e663624f7160","ios":"levelo://app?vid=b08a09f4-ff03-4a5d-b0a3-e663624f7160"},"vehicle_type_id":"4","last_reported":1762964076,"current_range_meters":20000,"station_id":"ce4bhrh2rcd13ifvqhug","pricing_plan_id":"cebpf4jnsgd1na2vs0mg"},{"bike_id":"a5177afe-2ccc-4812-b6dc-6f06e75bebff","system_id":"levelo_inurba_marseille","lat":43.29891,"lon":5.43676,"is_reserved":false,"is_disabled":false,"rental_uris":{"android":"levelo://app?vid=a5177afe-2ccc-4812-b6dc-6f06e75bebff","ios":"levelo://app?vid=a5177afe-2ccc-4812-b6dc-6f06e75bebff"},"vehicle_type_id":"4","last_reported":1762964076,"current_range_meters":20000,"station_id":"ce4bhpp2rcd13ifvqhfg","pricing_plan_id":"cebpf4jnsgd1na2vs0mg"},{"bike_id":"ef140675-dc76-4f07-a68e-25ef205ad0f3","system_id":"levelo_inurba_marseille","lat":43.2926,"lon":5.38455,"is_reserved":false,"is_disabled":false,"rental_uris":{"android":"levelo://app?vid=ef140675-dc76-4f07-a68e-25ef205ad0f3","ios":"levelo://app?vid=ef140675-dc76-4f07-a68e-25ef205ad0f3"},"vehicle_type_id":"4","last_reported":1762964076,"current_range_meters":20000,"station_id":"ce4bh692rcd13ifvqea0","pricing_plan_id":"cebpf4jnsgd1na2vs0mg"},{"bike_id":"457c3593-f893-4ae4-aa10-29e78cefe7e0","system_id":"levelo_inurba_marseille","lat":43.23186,"lon":5.35594,"is_reserved":false,"is_disabled":false,"rental_uris":{"android":"levelo://app?vid=457c3593-f893-4ae4-aa10-29e78cefe7e0","ios":"levelo://app?vid=457c3593-f893-4ae4-aa10-29e78cefe7e0"},"vehicle_type_id":"4","last_reported":1762964076,"current_range_meters":20000,"station_id":"ce4bhu92rcd13ifvqi70","pricing_plan_id":"cebpf4jnsgd1na2vs0mg"},{"bike_id":"67271027-b515-433c-bcb6-329a80f66905","system_id":"levelo_inurba_marseille","lat":43.28618,"lon":5.35106,"is_reserved":false,"is_disabled":false,"rental_uris":{"android":"levelo://app?vid=67271027-b515-433c-bcb6-329a80f66905","ios":"levelo://app?vid=67271027-b515-433c-bcb6-329a80f66905"},"vehicle_type_id":"4","last_reported":1762964076,"current_range_meters":20000,"station_id":"ce4bhch2rcd13ifvqeug","pricing_plan_id":"cebpf4jnsgd1na2vs0mg"},{"bike_id":"742f8f74-f1b1-4945-9811-7fcd5a8570d0","system_id":"levelo_inurba_marseille","lat":43.23788,"lon":5.36627,"is_reserved":false,"is_disabled":false,"rental_uris":{"android":"levelo://app?vid=742f8f74-f1b1-4945-9811-7fcd5a8570d0","ios":"levelo://app?vid=742f8f74-f1b1-4945-9811-7fcd5a8570d0"},"vehicle_type_id":"4","last_reported":1762964076,"current_range_meters":20400,"station_id":"st_d3nk18o9ro0c73en2l3g","pricing_plan_id":"cebpf4jnsgd1na2vs0mg"},{"bike_id":"49480d2a-39a6-4240-8271-c470cd6779a7","system_id":"levelo_inurba_marseille","lat":43.28417,"lon":5.34985,"is_reserved":false,"is_disabled":false,"rental_uris":{"android":"levelo://app?vid=49480d2a-39a6-4240-8271-c470cd6779a7","ios":"levelo://app?vid=49480d2a-39a6-4240-8271-c470cd6779a7"},"vehicle_type_id":"4","last_reported":1762964076,"current_range_meters":20400,"station_id":"ce4bhbh2rcd13ifvqepg","pricing_plan_id":"cebpf4jnsgd1na2vs0mg"},{"bike_id":"90da3807-f6ea-44b7-8f35-19ba34671273","system_id":"levelo_inurba_marseille","lat":43.30259,"lon":5.40086,"is_reserved":false,"is_disabled":false,"rental_uris":{"android":"levelo://app?vid=90da3807-f6ea-44b7-8f35-19ba34671273","ios":"levelo://app?vid=90da3807-f6ea-44b7-8f35-19ba34671273"},"vehicle_type_id":"4","last_reported":1762964076,"current_range_meters":20400,"station_id":"ce4bgvh2rcd13ifvqcs0","pricing_plan_id":"cebpf4jnsgd1na2vs0mg"},{"bike_id":"507d49c9-1468-4af7-8f7e-2b7c485d4a33","system_id":"levelo_inurba_marseille","lat":43.265495,"lon":5.372903,"is_reserved":false,"is_disabled":false,"rental_uris":{"android":"levelo://app?vid=507d49c9-1468-4af7-8f7e-2b7c485d4a33","ios":"levelo://app?vid=507d49c9-1468-4af7-8f7e-2b7c485d4a33"},"vehicle_type_id":"4","last_reported":1762964076,"current_range_meters":20400,"station_id":"ce4bhg12rcd13ifvqf70","pricing_plan_id":"cebpf4jnsgd1na2vs0mg"},