{"last_updated":1747753895,"ttl":60,"version":"2.2","data":{"bikes":[{"bike_id":"3c2e874b-823b-4069-8a4a-aca4fb4238f3","system_id":"levelo_inurba_marseille","lat":43.27671,"lon":5.39754,"is_reserved":false,"is_disabled":false,"rental_uris":{"android":"levelo://app?vid=3c2e874b-823b-4069-8a4a-aca4fb4238f3","ios":"levelo://app?vid=3c2e874b-823b-4069-8a4a-aca4fb4238f3"},"vehicle_type_id":"4","last_reported":1747753895,"current_range_meters":2800,"station_id":"","pricing_plan_id":"cebpf4jnsgd1na2vs0mg"},{"bike_id":"a2f377fc-ceeb-44c6-b80d-9be882a97936","system_id":"levelo_inurba_marseille","lat":43.31731,"lon":5.39024,"is_reserved":false,"is_disabled":false,"rental_uris":{"android":"levelo://app?vid=a2f377fc-ceeb-44c6-b80d-9be882a97936","ios":"levelo://app?vid=a2f377fc-ceeb-44c6-b80d-9be882a97936"},"vehicle_type_id":"4","last_reported":1747753895,"current_range_meters":2800,"station_id":"ce4bhqp2rcd13ifvqhng","pricing_plan_id":"cebpf4jnsgd1na2vs0mg"},{"bike_id":"b4b21016-abad-40fd-86b3-36a6cd917691","system_id":"levelo_inurba_marseille","lat":43.31567,"lon":5.37309,"is_reserved":false,"is_disabled":false,"rental_uris":{"android":"levelo://app?vid=b4b21016-abad-40fd-86b3-36a6cd917691","ios":"levelo://app?vid=b4b21016-abad-40fd-86b3-36a6cd917691"},"vehicle_type_id":"4","last_reported":1747753895,"current_range_meters":2800,"station_id":"","pricing_plan_id":"cebpf4jnsgd1na2vs0mg"},{"bike_id":"2f778d50-f2d3-4645-9ebf-d4ccf88fa15e","system_id":"levelo_inurba_marseille","lat":43.27963,"lon":5.38954,"is_reserved":false,"is_disabled":false,"rental_uris":{"android":"levelo://app?vid=2f778d50-f2d3-4645-9ebf-d4ccf88fa15e","ios":"levelo://app?vid=2f778d50-f2d3-4645-9ebf-d4ccf88fa15e"},"vehicle_type_id":"4","last_reported":1747753895,"current_range_meters":3200,"station_id":"","pricing_plan_id":"cebpf4jnsgd1na2vs0mg"},{"bike_id":"3e5ddf8e-d4d9-4e76-9a46-ced37a3679ae","system_id":"levelo_inurba_marseille","lat":43.26198,"lon":5.37449,"is_reserved":false,"is_disabled":true,"rental_uris":{"android":"levelo://app?vid=3e5ddf8e-d4d9-4e76-9a46-ced37a3679ae","ios":"levelo://app?vid=3e5ddf8e-d4d9-4e76-9a46-ced37a3679ae"},"vehicle_type_id":"4","last_reported":1747753895,"current_range_meters":3200,"station_id":"ce4bhgp2rcd13ifvqfc0","pricing_plan_id":"cebpf4jnsgd1na2vs0mg"},{"bike_id":"70b11b84-a721-46dc-8e5a-413951016f6a","system_id":"levelo_inurba_marseille","lat":43.28153,"lon":5.42648,"is_reserved":false,"is_disabled":false,"rental_uris":{"android":"levelo://app?vid=70b11b84-a721-46dc-8e5a-413951016f6a","ios":"levelo://app?vid=70b11b84-a721-46dc-8e5a-413951016f6a"},"vehicle_type_id":"4","last_reported":1747753895,"current_range_meters":3200,"station_id":"ce4bhnh2rcd13ifvqgug","pricing_plan_id":"cebpf4jnsgd1na2vs0mg"},{"bike_id":"834a7604-0b06-4c49-8f03-5a0721362008","system_id":"levelo_inurba_marseille","lat":43.29945,"lon":5.36544,"is_reserved":false,"is_disabled":true,"rental_uris":{"android":"levelo://app?vid=834a7604-0b06-4c49-8f03-5a0721362008","ios":"levelo://app?vid=834a7604-0b06-4c49-8f03-5a0721362008"},"vehicle_type_id":"4","last_reported":1747753895,"current_range_meters":3600,"station_id":"ce4bgm92rcd13ifvqbr0","pricing_plan_id":"cebpf4jnsgd1na2vs0mg"},{"bike_id":"50eb0665-5ef2-4d57-9d32-4af44ad9b247","system_id":"levelo_inurba_marseille","lat":43.28,"lon":5.41666,"is_reserved":false,"is_disabled":false,"rental_uris":{"android":"levelo://app?vid=50eb0665-5ef2-4d57-9d32-4af44ad9b247","ios":"levelo://app?vid=50eb0665-5ef2-4d57-9d32-4af44ad9b247"},"vehicle_type_id":"4","last_reported":1747753895,"current_range_meters":3600,"station_id":"ce4bho12rcd13ifvqh1g","pricing_plan_id":"cebpf4jnsgd1na2vs0mg"},{"bike_id":"a676b843-f4e9-4f81-b923-3f4a4da10e46","system_id":"levelo_inurba_marseille","lat":43.28419,"lon":5.37509,"is_reserved":false,"is_disabled":false,"rental_uris":{"android":"levelo://app?vid=a676b843-f4e9-4f81-b923-3f4a4da10e46","ios":"levelo://app?vid=a676b843-f4e9-4f81-b923-3f4a4da10e46"},"vehicle_type_id":"4","last_reported":1747753895,"current_range_meters":4000,"station_id":"","pricing_plan_id":"cebpf4jnsgd1na2vs0mg"},{"bike_id":"8cc574ac-5706-44e2-b92b-475e6b4bc7aa","system_id":"levelo_inurba_marseille","lat":43.268711,"lon":5.399041,"is_reserved":false,"is_disabled":false,"rental_uris":{"android":"levelo://app?vid=8cc574ac-5706-44e2-b92b-475e6b4bc7aa","ios":"levelo://app?vid=8cc574ac-5706-44e2-b92b-475e6b4bc7aa"},"vehicle_type_id":"4","last_reported":1747753895,"current_range_meters":4000,"station_id":"ce501612rcd8frsf0b60","pricing_plan_id":"cebpf4jnsgd1na2vs0mg"},{"bike_id":"f03d84a5-28fa-4c07-9f1a-75e8c3d0c293","system_id":"levelo_inurba_marseille","lat":43.27939,"lon":5.41076,"is_reserved":false,"is_disabled":false,"rental_uris":{"android":"levelo://app?vid=f03d84a5-28fa-4c07-9f1a-75e8c3d0c293","ios":"levelo://app?vid=f03d84a5-28fa-4c07-9f1a-75e8c3d0c293"},"vehicle_type_id":"4","last_reported":1747753895,"current_range_meters":4000,"station_id":"ce4bhnp2rcd13ifvqh0g","pricing_plan_id":"cebpf4jnsgd1na2vs0mg"},{"bike_id":"6884b0e2-7529-4c5f-8365-3c4e75c1835a","system_id":"levelo_inurba_marseille","lat":43.28928,"lon":5.38398,"is_reserved":false,"is_disabled":false,"rental_uris":{"android":"levelo://app?vid=6884b0e2-7529-4c5f-8365-3c4e75c1835a","ios":"levelo://app?vid=6884b0e2-7529-4c5f-8365-3c4e75c1835a"},"vehicle_type_id":"4","last_reported":1747753895,"current_range_meters":4000,"station_id":"ce4bh612rcd13ifvqe6g","pricing_plan_id":"cebpf4jnsgd1na2vs0mg"},{"bike_id":"70741c2b-cef8-4cb5-a31e-8b0bbf9d20d9","system_id":"levelo_inurba_marseille","lat":43.29415,"lon":5.38625,"is_reserved":false,"is_disabled":false,"rental_uris":{"android":"levelo://app?vid=70741c2b-cef8-4cb5-a31e-8b0bbf9d20d9","ios":"levelo://app?vid=70741c2b-cef8-4cb5-a31e-8b0bbf9d20d9"},"vehicle_type_id":"4","last_reported":1747753895,"current_range_meters":4400,"station_id":"ce4bh2h2rcd13ifvqdh0","pricing_plan_id":"cebpf4jnsgd1na2vs0mg"},{"bike_id":"91d16b27-9372-478e-bad8-cca3d326993c","system_id":"levelo_inurba_marseille","lat":43.29923,"lon":5.37496,"is_reserved":false,"is_disabled":false,"rental_uris":{"android":"levelo://app?vid=91d16b27-9372-478e-bad8-cca3d326993c","ios":"levelo://app?vid=91d16b27-9372-478e-bad8-cca3d326993c"},"vehicle_type_id":"4","last_reported":1747753895,"current_range_meters":4400,"station_id":"ce4bgjh2rcd13ifvqbg0","pricing_plan_id":"cebpf4jnsgd1na2vs0mg"},{"bike_id":"fef8f949-bd52-4c05-82e1-3bafe1cc70a3","system_id":"levelo_inurba_marseille","lat":43.28409,"lon":5.37519,"is_reserved":false,"is_disabled":false,"rental_uris":{"android":"levelo://app?vid=fef8f949-bd52-4c05-82e1-3bafe1cc70a3","ios":"levelo://app?vid=fef8f949-bd52-4c05-82e1-3bafe1cc70a3"},"vehicle_type_id":"4","last_reported":1747753895,"current_range_meters":4400,"station_id":"ce4bh412rcd13ifvqds0","pricing_plan_id":"cebpf4jnsgd1na2vs0mg"},{"bike_id":"796bf8a9-5022-4295-9606-5edc7cc7b4b7","system_id":"levelo_inurba_marseille","lat":43.27075,"lon":5.42282,"is_reserved":false,"is_disabled":false,"rental_uris":{"android":"levelo://app?vid=796bf8a9-5022-4295-9606-5edc7cc7b4b7","ios":"levelo://app?vid=796bf8a9-5022-4295-9606-5edc7cc7b4b7"},"vehicle_type_id":"4","last_reported":1747753895,"current_range_meters":4400,"station_id":"ce4bhk92rcd13ifvqgb0","pricing_plan_id":"cebpf4jnsgd1na2vs0mg"},{"bike_id":"04a61269-ebb2-46b2-a132-297f6518df34","system_id":"levelo_inurba_marseille","lat":43.281545,"lon":5.426407,"is_reserved":false,"is_disabled":false,"rental_uris":{"android":"levelo://app?vid=04a61269-ebb2-46b2-a132-297f6518df34","ios":"levelo://app?vid=04a61269-ebb2-46b2-a132-297f6518df34"},"vehicle_type_id":"4","last_reported":1747753895,"current_range_meters":4800,"station_id":"ce4bhnh2rcd13ifvqgug","pricing_plan_id":"cebpf4jnsgd1na2vs0mg"},{"bike_id":"5a585b4e-47a9-416c-a173-084754acffd0","system_id":"levelo_inurba_marseille","lat":43.24674,"lon":5.38213,"is_reserved":false,"is_disabled":false,"rental_uris":{"android":"levelo://app?vid=5a585b4e-47a9-416c-a173-084754acffd0","ios":"levelo://app?vid=5a585b4e-47a9-416c-a173-084754acffd0"},"vehicle_type_id":"4","last_reported":1747753895,"current_range_meters":4800,"station_id":"ce4bhih2rcd13ifvqfr0","pricing_plan_id":"cebpf4jnsgd1na2vs0mg"},{"bike_id":"b191f421-80cf-4cdd-8992-c91fda2d69b5","system_id":"levelo_inurba_marseille","lat":43.24671,"lon":5.38157,"is_reserved":false,"is_disabled":false,"rental_uris":{"android":"levelo://app?vid=b191f421-80cf-4cdd-8992-c91fda2d69b5","ios":"levelo://app?vid=b191f421-80cf-4cdd-8992-c91fda2d69b5"},"vehicle_type_id":"4","last_reported":1747753895,"current_range_meters":4800,"station_id":"ce4bhih2rcd13ifvqfr0","pricing_plan_id":"cebpf4jnsgd1na2vs0mg"},{"bike_id":"e64e36d1-c3e7-4427-9260-70ac75fa0a1c","system_id":"levelo_inurba_marseille","lat":43.33768,"lon":5.37476,"is_reserved":false,"is_disabled":false,"rental_uris":{"android":"levelo://app?vid=e64e36d1-c3e7-4427-9260-70ac75fa0a1c","ios":"levelo://app?vid=e64e36d1-c3e7-4427-9260-70ac75fa0a1c"},"vehicle_type_id":"4","last_reported":1747753895,"current_range_meters":4800,"station_id":"","pricing_plan_id":"cebpf4jnsgd1na2vs0mg"},{"bike_id":"271c1695-a106-49c2-a283-35d65057d2be","system_id":"levelo_inurba_marseille","lat":43.30891,"lon":5.39653,"is_reserved":false,"is_disabled":false,"rental_uris":{"android":"levelo://app?vid=271c1695-a106-49c2-a283-35d65057d2be","ios":"levelo://app?vid=271c1695-a106-49c2-a283-35d65057d2be"},"vehicle_type_id":"4","last_reported":1747753895,"current_range_meters":4800,"station_id":"ce4bh012rcd13ifvqcv0","pricing_plan_id":"cebpf4jnsgd1na2vs0mg"},{"bike_id":"943adbc1-dd63-466c-9a1c-03730b850bd2","system_id":"levelo_inurba_marseille","lat":43.26507,"lon":5.39535,"is_reserved":false,"is_disabled":false,"rental_uris":{"android":"levelo://app?vid=943adbc1-dd63-466c-9a1c-03730b850bd2","ios":"levelo://app?vid=943adbc1-dd63-466c-9a1c-03730b850bd2"},"vehicle_type_id":"4","last_reported":1747753895,"current_range_meters":4800,"station_id":"ce4bhi12rcd13ifvqfq0","pricing_plan_id":"cebpf4jnsgd1na2vs0mg"},{"bike_id":"1c466d85-e897-4aa4-804b-1559a2be7b7c","system_id":"levelo_inurba_marseille","lat":43.32338,"lon":5.40626,"is_reserved":false,"is_disabled":false,"rental_uris":{"android":"levelo://app?vid=1c466d85-e897-4aa4-804b-1559a2be7b7c","ios":"levelo://app?vid=1c466d85-e897-4aa4-804b-1559a2be7b7c"},"vehicle_type_id":"4","last_reported":1747753895,"current_range_meters":5600,"station_id":"ce4bhq92rcd13ifvqhjg","pricing_plan_id":"cebpf4jnsgd1na2vs0mg"},{"bike_id":"a4bb381b-1a0b-4ad8-9058-d6da22e9aebc","system_id":"levelo_inurba_marseille","lat":43.31082,"lon":5.42434,"is_reserved":false,"is_disabled":false,"rental_uris":{"android":"levelo://app?vid=a4bb381b-1a0b-4ad8-9058-d6da22e9aebc","ios":"levelo://app?vid=a4bb381b-1a0b-4ad8-9058-d6da22e9aebc"},"vehicle_type_id":"4","last_reported":1747753895,"current_range_meters":4800,"station_id":"ce4bhp92rcd13ifvqhag","pricing_plan_id":"cebpf4jnsgd1na2vs0mg"},{"bike_id":"396f2af7-a1b7-45ae-b053-326bdaf45e1b","system_id":"levelo_inurba_marseille","lat":43.30373,"lon":5.42495,"is_reserved":false,"is_disabled":false,"rental_uris":{"android":"levelo://app?vid=396f2af7-a1b7-45ae-b053-326bdaf45e1b","ios":"levelo://app?vid=396f2af7-a1b7-45ae-b053-326bdaf45e1b"},"vehicle_type_id":"4","last_reported":1747753895,"current_range_meters":5600,"station_id":"ce4bhoh2rcd13ifvqh6g","pricing_plan_id":"cebpf4jnsgd1na2vs0mg"},{"bike_id":"17f4d073-9486-4cee-a2fa-a99cdc38b173","system_id":"levelo_inurba_marseille","lat":43.30895,"lon":5.39658,"is_reserved":false,"is_disabled":false,"rental_uris":{"android":"levelo://app?vid=17f4d073-9486-4cee-a2fa-a99cdc38b173","ios":"levelo://app?vid=17f4d073-9486-4cee-a2fa-a99cdc38b173"},"vehicle_type_id":"4","last_reported":1747753895,"current_range_meters":5600,"station_id":"ce4bh012rcd13ifvqcv0","pricing_plan_id":"cebpf4jnsgd1na2vs0mg"},{"bike_id":"3fdc7b4f-050b-4b87-a6ab-4ba3f6003974","system_id":"levelo_inurba_marseille","lat":43.24394,"lon":5.37062,"is_reserved":false,"is_disabled":false,"rental_uris":{"android":"levelo://app?vid=3fdc7b4f-050b-4b87-a6ab-4ba3f6003974","ios":"levelo://app?vid=3fdc7b4f-050b-4b87-a6ab-4ba3f6003974"},"vehicle_type_id":"4","last_reported":1747753895,"current_range_meters":5600,"station_id":"ce4bhhh2rcd13ifvqfk0","pricing_plan_id":"cebpf4jnsgd1na2vs0mg"},{"bike_id":"0fb49426-fbd4-481e-92b2-6cd994afe14e","system_id":"levelo_inurba_marseille","lat":43.26556,"lon":5.37284,"is_reserved":false,"is_disabled":false,"rental_uris":{"android":"levelo://app?vid=0fb49426-fbd4-481e-92b2-6cd994afe14e","ios":"levelo://app?vid=0fb49426-fbd4-481e-92b2-6cd994afe14e"},"vehicle_type_id":"4","last_reported":1747753895,"current_range_meters":6000,"station_id":"ce4bhg12rcd13ifvqf70","pricing_plan_id":"cebpf4jnsgd1na2vs0mg"},{"bike_id":"c63c655f-490f-4100-8949-ac0afc43222d","system_id":"levelo_inurba_marseille","lat":43.28712,"lon":5.37396,"is_reserved":false,"is_disabled":false,"rental_uris":{"android":"levelo://app?vid=c63c655f-490f-4100-8949-ac0afc43222d","ios":"levelo://app?vid=c63c655f-490f-4100-8949-ac0afc43222d"},"vehicle_type_id":"4","last_reported":1747753895,"current_range_meters":6000,"station_id":"ce4bh3p2rcd13ifvqdq0","pricing_plan_id":"cebpf4jnsgd1na2vs0mg"},{"bike_id":"8d4b6dfb-eeba-42ac-a93b-4642c65226d2","system_id":"levelo_inurba_marseille","lat":43.29971,"lon":5.37174,"is_reserved":false,"is_disabled":false,"rental_uris":{"android":"levelo://app?vid=8d4b6dfb-eeba-42ac-a93b-4642c65226d2","ios":"levelo://app?vid=8d4b6dfb-eeba-42ac-a93b-4642c65226d2"},"vehicle_type_id":"4","last_reported":1747753895,"current_range_meters":6000,"station_id":"ce4bgr92rcd13ifvqc7g","pricing_plan_id":"cebpf4jnsgd1na2vs0mg"},{"bike_id":"5d5aec1c-99aa-4b10-b2ba-fa9f33897ab1","system_id":"levelo_inurba_marseille","lat":43.323593,"lon":5.36756,"is_reserved":false,"is_disabled":false,"rental_uris":{"android":"levelo://app?vid=5d5aec1c-99aa-4b10-b2ba-fa9f33897ab1","ios":"levelo://app?vid=5d5aec1c-99aa-4b10-b2ba-fa9f33897ab1"},"vehicle_type_id":"4","last_reported":1747753895,"current_range_meters":6000,"station_id":"ce4bhsh2rcd13ifvqi2g","pricing_plan_id":"cebpf4jnsgd1na2vs0mg"},{"bike_id":"fd75852b-aa6e-4e0d-81eb-426bc55f475e","system_id":"levelo_inurba_marseille","lat":43.26289,"lon":5.40409,"is_reserved":false,"is_disabled":false,"rental_uris":{"android":"levelo://app?vid=fd75852b-aa6e-4e0d-81eb-426bc55f475e","ios":"levelo://app?vid=fd75852b-aa6e-4e0d-81eb-426bc55f475e"},"vehicle_type_id":"4","last_reported":1747753895,"current_range_meters":6000,"station_id":"","pricing_plan_id":"cebpf4jnsgd1na2vs0mg"},{"bike_id":"20bee342-4a3f-4f34-940d-bb6cf00d52ae","system_id":"levelo_inurba_marseille","lat":43.26654,"lon":5.38618,"is_reserved":false,"is_disabled":false,"rental_uris":{"android":"levelo://app?vid=20bee342-4a3f-4f34-940d-bb6cf00d52ae","ios":"levelo://app?vid=20bee342-4a3f-4f34-940d-bb6cf00d52ae"},"vehicle_type_id":"4","last_reported":1747753895,"current_range_meters":6000,"station_id":"","pricing_plan_id":"cebpf4jnsgd1na2vs0mg"},{"bike_id":"c4c5eaeb-2b86-4ced-930b-25634ba142cd","system_id":"levelo_inurba_marseille","lat":43.29259,"lon":5.37626,"is_reserved":false,"is_disabled":false,"rental_uris":{"android":"levelo://app?vid=c4c5eaeb-2b86-4ced-930b-25634ba142cd","ios":"levelo://app?vid=c4c5eaeb-2b86-4ced-930b-25634ba142cd"},"vehicle_type_id":"4","last_reported":1747753895,"current_range_meters":6000,"station_id":"ce4bgi12rcd13ifvqb80","pricing_plan_id":"cebpf4jnsgd1na2vs0mg"},{"bike_id":"1bd070a8-6537-49b6-95cb-9dd9eaebdaa1","system_id":"levelo_inurba_marseille","lat":43.31225,"lon":5.36857,"is_reserved":false,"is_disabled":false,"rental_uris":{"android":"levelo://app?vid=1bd070a8-6537-49b6-95cb-9dd9eaebdaa1","ios":"levelo://app?vid=1bd070a8-6537-49b6-95cb-9dd9eaebdaa1"},"vehicle_type_id":"4","last_reported":1747753895,"current_range_meters":6400,"station_id":"ce4bgl92rcd13ifvqbq0","pricing_plan_id":"cebpf4jnsgd1na2vs0mg"},{"bike_id":"97c3751b-6d0f-41e1-a10e-5cc7d9fbea55","system_id":"levelo_inurba_marseille","lat":43.29094,"lon":5.38143,"is_reserved":false,"is_disabled":false,"rental_uris":{"android":"levelo://app?vid=97c3751b-6d0f-41e1-a10e-5cc7d9fbea55","ios":"levelo://app?vid=97c3751b-6d0f-41e1-a10e-5cc7d9fbea55"},"vehicle_type_id":"4","last_reported":1747753895,"current_range_meters":6400,"station_id":"ce4bh512rcd13ifvqe2g","pricing_plan_id":"cebpf4jnsgd1na2vs0mg"},{"bike_id":"ab5ba7a9-f451-4530-a9e7-808cc08bd809","system_id":"levelo_inurba_marseille","lat":43.29012,"lon":5.35629,"is_reserved":false,"is_disabled":false,"rental_uris":{"android":"levelo://app?vid=ab5ba7a9-f451-4530-a9e7-808cc08bd809","ios":"levelo://app?vid=ab5ba7a9-f451-4530-a9e7-808cc08bd809"},"vehicle_type_id":"4","last_reported":1747753895,"current_range_meters":6400,"station_id":"ce4bhb92rcd13ifvqen0","pricing_plan_id":"cebpf4jnsgd1na2vs0mg"},{"bike_id":"3092bcd5-15cf-401a-beb8-6d78dcd08af8","system_id":"levelo_inurba_marseille","lat":43.32363,"lon":5.3889,"is_reserved":false,"is_disabled":false,"rental_uris":{"android":"levelo://app?vid=3092bcd5-15cf-401a-beb8-6d78dcd08af8","ios":"levelo://app?vid=3092bcd5-15cf-401a-beb8-6d78dcd08af8"},"vehicle_type_id":"4","last_reported":1747753895,"current_range_meters":6400,"station_id":"ce4bhqp2rcd13ifvqhog","pricing_plan_id":"cebpf4jnsgd1na2vs0mg"},{"bike_id":"d4f1b6be-c20f-4376-a3de-987b0fcd049f","system_id":"levelo_inurba_marseille","lat":43.29103,"lon":5.38137,"is_reserved":false,"is_disabled":false,"rental_uris":{"android":"levelo://app?vid=d4f1b6be-c20f-4376-a3de-987b0fcd049f","ios":"levelo://app?vid=d4f1b6be-c20f-4376-a3de-987b0fcd049f"},"vehicle_type_id":"4","last_reported":1747753895,"current_range_meters":6400,"station_id":"ce4bh512rcd13ifvqe2g","pricing_plan_id":"cebpf4jnsgd1na2vs0mg"},{"bike_id":"670b7cd2-c343-4090-97b2-cb93517d51c3","system_id":"levelo_inurba_marseille","lat":43.26237,"lon":5.37462,"is_reserved":false,"is_disabled":false,"rental_uris":{"android":"levelo://app?vid=670b7cd2-c343-4090-97b2-cb93517d51c3","ios":"levelo://app?vid=670b7cd2-c343-4090-97b2-cb93517d51c3"},"vehicle_type_id":"4","last_reported":1747753895,"current_range_meters":6800,"station_id":"ce4bhgp2rcd13ifvqfc0","pricing_plan_id":"cebpf4jnsgd1na2vs0mg"},{"bike_id":"ad8cfcc6-58f5-4218-b13a-5a54e5d98fa3","system_id":"levelo_inurba_marseille","lat":43.337663,"lon":5.374287,"is_reserved":false,"is_disabled":false,"rental_uris":{"android":"levelo://app?vid=ad8cfcc6-58f5-4218-b13a-5a54e5d98fa3","ios":"levelo://app?vid=ad8cfcc6-58f5-4218-b13a-5a54e5d98fa3"},"vehicle_type_id":"4","last_reported":1747753895,"current_range_meters":6800,"station_id":"","pricing_plan_id":"cebpf4jnsgd1na2vs0mg"},{"bike_id":"f86b9575-8d44-4992-a2b8-a81b8865b97b","system_id":"levelo_inurba_marseille","lat":43.29259,"lon":5.37631,"is_reserved":false,"is_disabled":false,"rental_uris":{"android":"levelo://app?vid=f86b9575-8d44-4992-a2b8-a81b8865b97b","ios":"levelo://app?vid=f86b9575-8d44-4992-a2b8-a81b8865b97b"},"vehicle_type_id":"4","last_reported":1747753895,"current_range_meters":7200,"station_id":"ce4bgi12rcd13ifvqb80","pricing_plan_id":"cebpf4jnsgd1na2vs0mg"},{"bike_id":"bcbdbd69-7be8-42f8-a855-a4358565de8f","system_id":"levelo_inurba_marseille","lat":43.27723,"lon":5.41391,"is_reserved":false,"is_disabled":false,"rental_uris":{"android":"levelo://app?vid=bcbdbd69-7be8-42f8-a855-a4358565de8f","ios":"levelo://app?vid=bcbdbd69-7be8-42f8-a855-a4358565de8f"},"vehicle_type_id":"4","last_reported":1747753895,"current_range_meters":7200,"station_id":"","pricing_plan_id":"cebpf4jnsgd1na2vs0mg"},{"bike_id":"46ae9c9c-2094-426d-8429-6d500f516df8","system_id":"levelo_inurba_marseille","lat":43.28036,"lon":5.36952,"is_reserved":false,"is_disabled":false,"rental_uris":{"android":"levelo://app?vid=46ae9c9c-2094-426d-8429-6d500f516df8","ios":"levelo://app?vid=46ae9c9c-2094-426d-8429-6d500f516df8"},"vehicle_type_id":"4","last_reported":1747753895,"current_range_meters":7200,"station_id":"ce4bha12rcd13ifvqef0","pricing_plan_id":"cebpf4jnsgd1na2vs0mg"},{"bike_id":"d29ef9e5-5880-4b61-998d-f0e287b236c2","system_id":"levelo_inurba_marseille","lat":43.29613,"lon":5.38105,"is_reserved":false,"is_disabled":false,"rental_uris":{"android":"levelo://app?vid=d29ef9e5-5880-4b61-998d-f0e287b236c2","ios":"levelo://app?vid=d29ef9e5-5880-4b61-998d-f0e287b236c2"},"vehicle_type_id":"4","last_reported":1747753895,"current_range_meters":7200,"station_id":"ce4bgl12rcd13ifvqbo0","pricing_plan_id":"cebpf4jnsgd1na2vs0mg"},{"bike_id":"8f0f531d-6a65-4647-8a6f-baa3d982f42f","system_id":"levelo_inurba_marseille","lat":43.28142,"lon":5.42606,"is_reserved":false,"is_disabled":false,"rental_uris":{"android":"levelo://app?vid=8f0f531d-6a65-4647-8a6f-baa3d982f42f","ios":"levelo://app?vid=8f0f531d-6a65-4647-8a6f-baa3d982f42f"},"vehicle_type_id":"4","last_reported":1747753895,"current_range_meters":8000,"station_id":"ce4bhnh2rcd13ifvqgug","pricing_plan_id":"cebpf4jnsgd1na2vs0mg"},{"bike_id":"1cf3e35d-325d-44aa-9458-5e10479f7759","system_id":"levelo_inurba_marseille","lat":43.29608,"lon":5.38114,"is_reserved":false,"is_disabled":false,"rental_uris":{"android":"levelo://app?vid=1cf3e35d-325d-44aa-9458-5e10479f7759","ios":"levelo://app?vid=1cf3e35d-325d-44aa-9458-5e10479f7759"},"vehicle_type_id":"4","last_reported":1747753895,"current_range_meters":8000,"station_id":"ce4bgl12rcd13ifvqbo0","pricing_plan_id":"cebpf4jnsgd1na2vs0mg"},{"bike_id":"a5bcf3ab-5daa-4dec-898b-27b2e944e103","system_id":"levelo_inurba_marseille","lat":43.27292,"lon":5.41063,"is_reserved":false,"is_disabled":false,"rental_uris":{"android":"levelo://app?vid=a5bcf3ab-5daa-4dec-898b-27b2e944e103","ios":"levelo://app?vid=a5bcf3ab-5daa-4dec-898b-27b2e944e103"},"vehicle_type_id":"4","last_reported":1747753895,"current_range_meters":8000,"station_id":"","pricing_plan_id":"cebpf4jnsgd1na2vs0mg"},{"bike_id":"c52d52a1-3bde-4afd-a5cb-3d96be253c54","system_id":"levelo_inurba_marseille","lat":43.27951,"lon":5.41056,"is_reserved":false,"is_disabled":false,"rental_uris":{"android":"levelo://app?vid=c52d52a1-3bde-4afd-a5cb-3d96be253c54","ios":"levelo://app?vid=c52d52a1-3bde-4afd-a5cb-3d96be253c54"},"vehicle_type_id":"4","last_reported":1747753895,"current_range_meters":8000,"station_id":"ce4bhnp2rcd13ifvqh0g","pricing_plan_id":"cebpf4jnsgd1na2vs0mg"},{"bike_id":"725d6225-9fd5-4629-8ae7-ea8bff0734aa","system_id":"levelo_inurba_marseille","lat":43.29029,"lon":5.38131,"is_reserved":false,"is_disabled":false,"rental_uris":{"android":"levelo://app?vid=725d6225-9fd5-4629-8ae7-ea8bff0734aa","ios":"levelo://app?vid=725d6225-9fd5-4629-8ae7-ea8bff0734aa"},"vehicle_type_id":"4","last_reported":1747753895,"current_range_meters":8000,"station_id":"ce4bh4p2rcd13ifvqe1g","pricing_plan_id":"cebpf4jnsgd1na2vs0mg"},{"bike_id":"85eaca89-9437-48d0-9bca-a254337b88db","system_id":"levelo_inurba_marseille","lat":43.27471,"lon":5.41036,"is_reserved":false,"is_disabled":false,"rental_uris":{"android":"levelo://app?vid=85eaca89-9437-48d0-9bca-a254337b88db","ios":"levelo://app?vid=85eaca89-9437-48d0-9bca-a254337b88db"},"vehicle_type_id":"4","last_reported":1747753895,"current_range_meters":8400,"station_id":"","pricing_plan_id":"cebpf4jnsgd1na2vs0mg"},{"bike_id":"cdf1bd7f-97ef-4602-9d4d-bd61328f84ca","system_id":"levelo_inurba_marseille","lat":43.251135,"lon":5.403152,"is_reserved":false,"is_disabled":false,"rental_uris":{"android":"levelo://app?vid=cdf1bd7f-97ef-4602-9d4d-bd61328f84ca","ios":"levelo://app?vid=cdf1bd7f-97ef-4602-9d4d-bd61328f84ca"},"vehicle_type_id":"4","last_reported":1747753895,"current_range_meters":8400,"station_id":"ce4bhlh2rcd13ifvqgig","pricing_plan_id":"cebpf4jnsgd1na2vs0mg"},{"bike_id":"05c63458-b601-4e4e-ab26-7a54ca437048","system_id":"levelo_inurba_marseille","lat":43.29556,"lon":5.42261,"is_reserved":false,"is_disabled":false,"rental_uris":{"android":"levelo://app?vid=05c63458-b601-4e4e-ab26-7a54ca437048","ios":"levelo://app?vid=05c63458-b601-4e4e-ab26-7a54ca437048"},"vehicle_type_id":"4","last_reported":1747753895,"current_range_meters":8400,"station_id":"ce4bhph2rcd13ifvqhdg","pricing_plan_id":"cebpf4jnsgd1na2vs0mg"},{"bike_id":"c076ad54-d589-4eeb-ac51-e1376a33ec39","system_id":"levelo_inurba_marseille","lat":43.2958,"lon":5.42292,"is_reserved":false,"is_disabled":false,"rental_uris":{"android":"levelo://app?vid=c076ad54-d589-4eeb-ac51-e1376a33ec39","ios":"levelo://app?vid=c076ad54-d589-4eeb-ac51-e1376a33ec39"},"vehicle_type_id":"4","last_reported":1747753895,"current_range_meters":8400,"station_id":"ce4bhph2rcd13ifvqhdg","pricing_plan_id":"cebpf4jnsgd1na2vs0mg"},{"bike_id":"5614e943-0093-4091-b5c4-59662486cad9","system_id":"levelo_inurba_marseille","lat":43.29008,"lon":5.35613,"is_reserved":false,"is_disabled":false,"rental_uris":{"android":"levelo://app?vid=5614e943-0093-4091-b5c4-59662486cad9","ios":"levelo://app?vid=5614e943-0093-4091-b5c4-59662486cad9"},"vehicle_type_id":"4","last_reported":1747753895,"current_range_meters":8400,"station_id":"ce4bhb92rcd13ifvqen0","pricing_plan_id":"cebpf4jnsgd1na2vs0mg"},{"bike_id":"d888cca6-065c-4363-9930-b2159428c23b","system_id":"levelo_inurba_marseille","lat":43.30303,"lon":5.392163,"is_reserved":false,"is_disabled":false,"rental_uris":{"android":"levelo://app?vid=d888cca6-065c-4363-9930-b2159428c23b","ios":"levelo://app?vid=d888cca6-065c-4363-9930-b2159428c23b"},"vehicle_type_id":"4","last_reported":1747753895,"current_range_meters":4400,"station_id":"ce4bgkh2rcd13ifvqbk0","pricing_plan_id":"cebpf4jnsgd1na2vs0mg"},{"bike_id":"60671e23-85f3-4240-9645-68ba3b6e5724","system_id":"levelo_inurba_marseille","lat":43.28424,"lon":5.34998,"is_reserved":false,"is_disabled":false,"rental_uris":{"android":"levelo://app?vid=60671e23-85f3-4240-9645-68ba3b6e5724","ios":"levelo://app?vid=60671e23-85f3-4240-9645-68ba3b6e5724"},"vehicle_type_id":"4","last_reported":1747753895,"current_range_meters":8800,"station_id":"ce4bhbh2rcd13ifvqepg","pricing_plan_id":"cebpf4jnsgd1na2vs0mg"},{"bike_id":"1e389654-9d64-4656-9abd-808feae031ef","system_id":"levelo_inurba_marseille","lat":43.27209,"lon":5.39178,"is_reserved":false,"is_disabled":false,"rental_uris":{"android":"levelo://app?vid=1e389654-9d64-4656-9abd-808feae031ef","ios":"levelo://app?vid=1e389654-9d64-4656-9abd-808feae031ef"},"vehicle_type_id":"4","last_reported":1747753895,"current_range_meters":9200,"station_id":"ce4bhhp2rcd13ifvqfm0","pricing_plan_id":"cebpf4jnsgd1na2vs0mg"},{"bike_id":"5a056475-b2ff-4f11-afd8-5fb6aeffd746","system_id":"levelo_inurba_marseille","lat":43.29033,"lon":5.38633,"is_reserved":false,"is_disabled":false,"rental_uris":{"android":"levelo://app?vid=5a056475-b2ff-4f11-afd8-5fb6aeffd746","ios":"levelo://app?vid=5a056475-b2ff-4f11-afd8-5fb6aeffd746"},"vehicle_type_id":"4","last_reported":1747753895,"current_range_meters":8800,"station_id":"ce4bh4p2rcd13ifvqe0g","pricing_plan_id":"cebpf4jnsgd1na2vs0mg"},{"bike_id":"5d5fb57d-7e0f-45ee-bd4e-31f5a6cf5e8e","system_id":"levelo_inurba_marseille","lat":43.284833,"lon":5.390611,"is_reserved":false,"is_disabled":false,"rental_uris":{"android":"levelo://app?vid=5d5fb57d-7e0f-45ee-bd4e-31f5a6cf5e8e","ios":"levelo://app?vid=5d5fb57d-7e0f-45ee-bd4e-31f5a6cf5e8e"},"vehicle_type_id":"4","last_reported":1747753895,"current_range_meters":8400,"station_id":"ce4bh292rcd13ifvqdg0","pricing_plan_id":"cebpf4jnsgd1na2vs0mg"},{"bike_id":"a974a729-7441-46e9-acf8-cb62a24aace2","system_id":"levelo_inurba_marseille","lat":43.246639,"lon":5.381609,"is_reserved":false,"is_disabled":false,"rental_uris":{"android":"levelo://app?vid=a974a729-7441-46e9-acf8-cb62a24aace2","ios":"levelo://app?vid=a974a729-7441-46e9-acf8-cb62a24aace2"},"vehicle_type_id":"4","last_reported":1747753895,"current_range_meters":8800,"station_id":"ce4bhih2rcd13ifvqfr0","pricing_plan_id":"cebpf4jnsgd1na2vs0mg"},{"bike_id":"78f58fa6-33de-4335-8bdd-21a102c59664","system_id":"levelo_inurba_marseille","lat":43.31757,"lon":5.39035,"is_reserved":false,"is_disabled":false,"rental_uris":{"android":"levelo://app?vid=78f58fa6-33de-4335-8bdd-21a102c59664","ios":"levelo://app?vid=78f58fa6-33de-4335-8bdd-21a102c59664"},"vehicle_type_id":"4","last_reported":1747753895,"current_range_meters":8800,"station_id":"ce4bhqp2rcd13ifvqhng","pricing_plan_id":"cebpf4jnsgd1na2vs0mg"},{"bike_id":"d766c2f5-162a-4874-b23b-bfec4e3537b4","system_id":"levelo_inurba_marseille","lat":43.31522,"lon":5.38036,"is_reserved":false,"is_disabled":false,"rental_uris":{"android":"levelo://app?vid=d766c2f5-162a-4874-b23b-bfec4e3537b4","ios":"levelo://app?vid=d766c2f5-162a-4874-b23b-bfec4e3537b4"},"vehicle_type_id":"4","last_reported":1747753895,"current_range_meters":9200,"station_id":"ce4bhsp2rcd13ifvqi50","pricing_plan_id":"cebpf4jnsgd1na2vs0mg"},{"bike_id":"572c97ee-0da0-4be5-a2ce-28eff65f3ef1","system_id":"levelo_inurba_marseille","lat":43.33747,"lon":5.37485,"is_reserved":false,"is_disabled":false,"rental_uris":{"android":"levelo://app?vid=572c97ee-0da0-4be5-a2ce-28eff65f3ef1","ios":"levelo://app?vid=572c97ee-0da0-4be5-a2ce-28eff65f3ef1"},"vehicle_type_id":"4","last_reported":1747753895,"current_range_meters":9200,"station_id":"","pricing_plan_id":"cebpf4jnsgd1na2vs0mg"},{"bike_id":"bffbaf88-357a-4e87-a68c-a9a27a6e01e6","system_id":"levelo_inurba_marseille","lat":43.26227,"lon":5.4215,"is_reserved":false,"is_disabled":false,"rental_uris":{"android":"levelo://app?vid=bffbaf88-357a-4e87-a68c-a9a27a6e01e6","ios":"levelo://app?vid=bffbaf88-357a-4e87-a68c-a9a27a6e01e6"},"vehicle_type_id":"4","last_reported":1747753895,"current_range_meters":9200,"station_id":"","pricing_plan_id":"cebpf4jnsgd1na2vs0mg"},{"bike_id":"e91e8d6b-ee8b-4ecc-9ca3-f24e6f59c148","system_id":"levelo_inurba_marseille","lat":43.27071,"lon":5.4228,"is_reserved":false,"is_disabled":false,"rental_uris":{"android":"levelo://app?vid=e91e8d6b-ee8b-4ecc-9ca3-f24e6f59c148","ios":"levelo://app?vid=e91e8d6b-ee8b-4ecc-9ca3-f24e6f59c148"},"vehicle_type_id":"4","last_reported":1747753895,"current_range_meters":9200,"station_id":"ce4bhk92rcd13ifvqgb0","pricing_plan_id":"cebpf4jnsgd1na2vs0mg"},{"bike_id":"3f674ae8-1774-4119-b3a3-4e4d105fb60c","system_id":"levelo_inurba_marseille","lat":43.31242,"lon":5.36727,"is_reserved":false,"is_disabled":false,"rental_uris":{"android":"levelo://app?vid=3f674ae8-1774-4119-b3a3-4e4d105fb60c","ios":"levelo://app?vid=3f674ae8-1774-4119-b3a3-4e4d105fb60c"},"vehicle_type_id":"4","last_reported":1747753895,"current_range_meters":9200,"station_id":"","pricing_plan_id":"cebpf4jnsgd1na2vs0mg"},{"bike_id":"a3fd78ff-2ba8-40ac-af17-9d8995bcf078","system_id":"levelo_inurba_marseille","lat":43.30429,"lon":5.41294,"is_reserved":false,"is_disabled":false,"rental_uris":{"android":"levelo://app?vid=a3fd78ff-2ba8-40ac-af17-9d8995bcf078","ios":"levelo://app?vid=a3fd78ff-2ba8-40ac-af17-9d8995bcf078"},"vehicle_type_id":"4","last_reported":1747753895,"current_range_meters":9200,"station_id":"ce4bhop2rcd13ifvqh8g","pricing_plan_id":"cebpf4jnsgd1na2vs0mg"},{"bike_id":"1f192c7c-f597-47c7-b130-a3639ccf8561","system_id":"levelo_inurba_marseille","lat":43.28,"lon":5.40017,"is_reserved":false,"is_disabled":false,"rental_uris":{"android":"levelo://app?vid=1f192c7c-f597-47c7-b130-a3639ccf8561","ios":"levelo://app?vid=1f192c7c-f597-47c7-b130-a3639ccf8561"},"vehicle_type_id":"4","last_reported":1747753895,"current_range_meters":9200,"station_id":"ce4bho92rcd13ifvqh4g","pricing_plan_id":"cebpf4jnsgd1na2vs0mg"},{"bike_id":"3cc290fb-757f-484a-a54a-d457b7562338","system_id":"levelo_inurba_marseille","lat":43.30789,"lon":5.3765,"is_reserved":false,"is_disabled":false,"rental_uris":{"android":"levelo://app?vid=3cc290fb-757f-484a-a54a-d457b7562338","ios":"levelo://app?vid=3cc290fb-757f-484a-a54a-d457b7562338"},"vehicle_type_id":"4","last_reported":1747753895,"current_range_meters":9600,"station_id":"ce4bgv92rcd13ifvqcq0","pricing_plan_id":"cebpf4jnsgd1na2vs0mg"},{"bike_id":"ab756091-2c46-457a-8903-1638e5289e41","system_id":"levelo_inurba_marseille","lat":43.23193,"lon":5.3998,"is_reserved":false,"is_disabled":false,"rental_uris":{"android":"levelo://app?vid=ab756091-2c46-457a-8903-1638e5289e41","ios":"levelo://app?vid=ab756091-2c46-457a-8903-1638e5289e41"},"vehicle_type_id":"4","last_reported":1747753895,"current_range_meters":9600,"station_id":"ce4bhn12rcd13ifvqgqg","pricing_plan_id":"cebpf4jnsgd1na2vs0mg"},{"bike_id":"58032e36-20db-4fe4-bbd4-3cd4b9b54dc6","system_id":"levelo_inurba_marseille","lat":43.30602,"lon":5.37234,"is_reserved":false,"is_disabled":false,"rental_uris":{"android":"levelo://app?vid=58032e36-20db-4fe4-bbd4-3cd4b9b54dc6","ios":"levelo://app?vid=58032e36-20db-4fe4-bbd4-3cd4b9b54dc6"},"vehicle_type_id":"4","last_reported":1747753895,"current_range_meters":9200,"station_id":"ce4bgqh2rcd13ifvqc4g","pricing_plan_id":"cebpf4jnsgd1na2vs0mg"},{"bike_id":"9106fd9d-ed82-4f29-8933-190c7c2e6e05","system_id":"levelo_inurba_marseille","lat":43.254987,"lon":5.376485,"is_reserved":false,"is_disabled":false,"rental_uris":{"android":"levelo://app?vid=9106fd9d-ed82-4f29-8933-190c7c2e6e05","ios":"levelo://app?vid=9106fd9d-ed82-4f29-8933-190c7c2e6e05"},"vehicle_type_id":"4","last_reported":1747753895,"current_range_meters":9600,"station_id":"ce4bhh12rcd13ifvqff0","pricing_plan_id":"cebpf4jnsgd1na2vs0mg"},{"bike_id":"0ada6f93-80e5-4a07-8e3c-0c0565cabdb0","system_id":"levelo_inurba_marseille","lat":43.33724,"lon":5.39204,"is_reserved":false,"is_disabled":false,"rental_uris":{"android":"levelo://app?vid=0ada6f93-80e5-4a07-8e3c-0c0565cabdb0","ios":"levelo://app?vid=0ada6f93-80e5-4a07-8e3c-0c0565cabdb0"},"vehicle_type_id":"4","last_reported":1747753895,"current_range_meters":9600,"station_id":"ce4bhr92rcd13ifvqhsg","pricing_plan_id":"cebpf4jnsgd1na2vs0mg"},{"bike_id":"439e7ab4-f57a-4c4d-9885-d5df8ad4c44e","system_id":"levelo_inurba_marseille","lat":43.286623,"lon":5.386658,"is_reserved":false,"is_disabled":false,"rental_uris":{"android":"levelo://app?vid=439e7ab4-f57a-4c4d-9885-d5df8ad4c44e","ios":"levelo://app?vid=439e7ab4-f57a-4c4d-9885-d5df8ad4c44e"},"vehicle_type_id":"4","last_reported":1747753895,"current_range_meters":10000,"station_id":"","pricing_plan_id":"cebpf4jnsgd1na2vs0mg"},{"bike_id":"598900bc-cc96-46f3-b8f9-32958f862dd5","system_id":"levelo_inurba_marseille","lat":43.30398,"lon":5.36807,"is_reserved":false,"is_disabled":false,"rental_uris":{"android":"levelo://app?vid=598900bc-cc96-46f3-b8f9-32958f862dd5","ios":"levelo://app?vid=598900bc-cc96-46f3-b8f9-32958f862dd5"},"vehicle_type_id":"4","last_reported":1747753895,"current_range_meters":10000,"station_id":"","pricing_plan_id":"cebpf4jnsgd1na2vs0mg"},{"bike_id":"ba8f50af-c39c-44aa-ac0b-30a5d74ff3e0","system_id":"levelo_inurba_marseille","lat":43.29256,"lon":5.409,"is_reserved":false,"is_disabled":false,"rental_uris":{"android":"levelo://app?vid=ba8f50af-c39c-44aa-ac0b-30a5d74ff3e0","ios":"levelo://app?vid=ba8f50af-c39c-44aa-ac0b-30a5d74ff3e0"},"vehicle_type_id":"4","last_reported":1747753895,"current_range_meters":10800,"station_id":"ce4bh192rcd13ifvqdc0","pricing_plan_id":"cebpf4jnsgd1na2vs0mg"},{"bike_id":"feec8727-1136-4b94-bf3e-3a5c1f53db65","system_id":"levelo_inurba_marseille","lat":43.3092,"lon":5.36858,"is_reserved":false,"is_disabled":false,"rental_uris":{"android":"levelo://app?vid=feec8727-1136-4b94-bf3e-3a5c1f53db65","ios":"levelo://app?vid=feec8727-1136-4b94-bf3e-3a5c1f53db65"},"vehicle_type_id":"4","last_reported":1747753895,"current_range_meters":10000,"station_id":"ce4bgn92rcd13ifvqbvg","pricing_plan_id":"cebpf4jnsgd1na2vs0mg"},{"bike_id":"f579d7a6-5439-4e25-b6cc-db3661ce94f3","system_id":"levelo_inurba_marseille","lat":43.27675,"lon":5.38873,"is_reserved":false,"is_disabled":true,"rental_uris":{"android":"levelo://app?vid=f579d7a6-5439-4e25-b6cc-db3661ce94f3","ios":"levelo://app?vid=f579d7a6-5439-4e25-b6cc-db3661ce94f3"},"vehicle_type_id":"4","last_reported":1747753895,"current_range_meters":10000,"station_id":"ce4bhi12rcd13ifvqfo0","pricing_plan_id":"cebpf4jnsgd1na2vs0mg"},{"bike_id":"7c08328a-1759-4e3d-855e-ebdd21d7146d","system_id":"levelo_inurba_marseille","lat":43.29925,"lon":5.37511,"is_reserved":false,"is_disabled":false,"rental_uris":{"android":"levelo://app?vid=7c08328a-1759-4e3d-855e-ebdd21d7146d","ios":"levelo://app?vid=7c08328a-1759-4e3d-855e-ebdd21d7146d"},"vehicle_type_id":"4","last_reported":1747753895,"current_range_meters":10000,"station_id":"ce4bgjh2rcd13ifvqbg0","pricing_plan_id":"cebpf4jnsgd1na2vs0mg"},{"bike_id":"8047e0c8-bbd7-4f4a-81b8-a0bde1fd43ac","system_id":"levelo_inurba_marseille","lat":43.30544,"lon":5.36555,"is_reserved":false,"is_disabled":false,"rental_uris":{"android":"levelo://app?vid=8047e0c8-bbd7-4f4a-81b8-a0bde1fd43ac","ios":"levelo://app?vid=8047e0c8-bbd7-4f4a-81b8-a0bde1fd43ac"},"vehicle_type_id":"4","last_reported":1747753895,"current_range_meters":10000,"station_id":"ce4bgs12rcd13ifvqcag","pricing_plan_id":"cebpf4jnsgd1na2vs0mg"},{"bike_id":"dd7fba58-2be7-4c3f-a64e-0e0ac913f5ed","system_id":"levelo_inurba_marseille","lat":43.280683,"lon":5.396465,"is_reserved":false,"is_disabled":false,"rental_uris":{"android":"levelo://app?vid=dd7fba58-2be7-4c3f-a64e-0e0ac913f5ed","ios":"levelo://app?vid=dd7fba58-2be7-4c3f-a64e-0e0ac913f5ed"},"vehicle_type_id":"4","last_reported":1747753895,"current_range_meters":10000,"station_id":"ce4bho12rcd13ifvqh2g","pricing_plan_id":"cebpf4jnsgd1na2vs0mg"},{"bike_id":"e7280ec0-9bef-4cb0-af28-ea8fed7e43ce","system_id":"levelo_inurba_marseille","lat":43.32292,"lon":5.38274,"is_reserved":false,"is_disabled":false,"rental_uris":{"android":"levelo://app?vid=e7280ec0-9bef-4cb0-af28-ea8fed7e43ce","ios":"levelo://app?vid=e7280ec0-9bef-4cb0-af28-ea8fed7e43ce"},"vehicle_type_id":"4","last_reported":1747753895,"current_range_meters":10000,"station_id":"ce4bhr12rcd13ifvqhqg","pricing_plan_id":"cebpf4jnsgd1na2vs0mg"},{"bike_id":"e0c31454-9c03-48aa-bb31-904d7b878611","system_id":"levelo_inurba_marseille","lat":43.27419,"lon":5.39409,"is_reserved":false,"is_disabled":false,"rental_uris":{"android":"levelo://app?vid=e0c31454-9c03-48aa-bb31-904d7b878611","ios":"levelo://app?vid=e0c31454-9c03-48aa-bb31-904d7b878611"},"vehicle_type_id":"4","last_reported":1747753895,"current_range_meters":10000,"station_id":"ce4bhdp2rcd13ifvqf20","pricing_plan_id":"cebpf4jnsgd1na2vs0mg"},{"bike_id":"e8162579-a5ad-485f-ad83-fec8a2ebe7e1","system_id":"levelo_inurba_marseille","lat":43.26826,"lon":5.39099,"is_reserved":false,"is_disabled":false,"rental_uris":{"android":"levelo://app?vid=e8162579-a5ad-485f-ad83-fec8a2ebe7e1","ios":"levelo://app?vid=e8162579-a5ad-485f-ad83-fec8a2ebe7e1"},"vehicle_type_id":"4","last_reported":1747753895,"current_range_meters":10800,"station_id":"","pricing_plan_id":"cebpf4jnsgd1na2vs0mg"},{"bike_id":"71e146ad-5169-4dc5-a288-c7c746aad618","system_id":"levelo_inurba_marseille","lat":43.2319,"lon":5.40002,"is_reserved":false,"is_disabled":false,"rental_uris":{"android":"levelo://app?vid=71e146ad-5169-4dc5-a288-c7c746aad618","ios":"levelo://app?vid=71e146ad-5169-4dc5-a288-c7c746aad618"},"vehicle_type_id":"4","last_reported":1747753895,"current_range_meters":10800,"station_id":"ce4bhn12rcd13ifvqgqg","pricing_plan_id":"cebpf4jnsgd1na2vs0mg"},{"bike_id":"670c41ef-eaa3-4344-88de-4361e6871d88","system_id":"levelo_inurba_marseille","lat":43.29889,"lon":5.38909,"is_reserved":false,"is_disabled":false,"rental_uris":{"android":"levelo://app?vid=670c41ef-eaa3-4344-88de-4361e6871d88","ios":"levelo://app?vid=670c41ef-eaa3-4344-88de-4361e6871d88"},"vehicle_type_id":"4","last_reported":1747753895,"current_range_meters":10000,"station_id":"ce4bh392rcd13ifvqdl0","pricing_plan_id":"cebpf4jnsgd1na2vs0mg"},{"bike_id":"23029a6d-fa06-4101-a642-23e1cb69dab8","system_id":"levelo_inurba_marseille","lat":43.3095,"lon":5.39029,"is_reserved":false,"is_disabled":true,"rental_uris":{"android":"levelo://app?vid=23029a6d-fa06-4101-a642-23e1cb69dab8","ios":"levelo://app?vid=23029a6d-fa06-4101-a642-23e1cb69dab8"},"vehicle_type_id":"4","last_reported":1747753895,"current_range_meters":10800,"station_id":"ce4bgup2rcd13ifvqco0","pricing_plan_id":"cebpf4jnsgd1na2vs0mg"},{"bike_id":"d08638a4-60cc-43f0-a5f9-acf995a214bd","system_id":"levelo_inurba_marseille","lat":43.30784,"lon":5.37636,"is_reserved":false,"is_disabled":false,"rental_uris":{"android":"levelo://app?vid=d08638a4-60cc-43f0-a5f9-acf995a214bd","ios":"levelo://app?vid=d08638a4-60cc-43f0-a5f9-acf995a214bd"},"vehicle_type_id":"4","last_reported":1747753895,"current_range_meters":10800,"station_id":"ce4bgv92rcd13ifvqcq0","pricing_plan_id":"cebpf4jnsgd1na2vs0mg"},{"bike_id":"6b33c5c8-a645-4cf9-b1ef-0c6445076710","system_id":"levelo_inurba_marseille","lat":43.28155,"lon":5.42652,"is_reserved":false,"is_disabled":false,"rental_uris":{"android":"levelo://app?vid=6b33c5c8-a645-4cf9-b1ef-0c6445076710","ios":"levelo://app?vid=6b33c5c8-a645-4cf9-b1ef-0c6445076710"},"vehicle_type_id":"4","last_reported":1747753895,"current_range_meters":11200,"station_id":"ce4bhnh2rcd13ifvqgug","pricing_plan_id":"cebpf4jnsgd1na2vs0mg"},{"bike_id":"33e5cbd5-31c8-4fa0-9d70-cf685e1c2a15","system_id":"levelo_inurba_marseille","lat":43.25125,"lon":5.40338,"is_reserved":false,"is_disabled":false,"rental_uris":{"android":"levelo://app?vid=33e5cbd5-31c8-4fa0-9d70-cf685e1c2a15","ios":"levelo://app?vid=33e5cbd5-31c8-4fa0-9d70-cf685e1c2a15"},"vehicle_type_id":"4","last_reported":1747753895,"current_range_meters":11200,"station_id":"ce4bhlh2rcd13ifvqgig","pricing_plan_id":"cebpf4jnsgd1na2vs0mg"},{"bike_id":"12cf5fa1-01f4-4f60-a2e0-6d920612445a","system_id":"levelo_inurba_marseille","lat":43.29928,"lon":5.37491,"is_reserved":false,"is_disabled":false,"rental_uris":{"android":"levelo://app?vid=12cf5fa1-01f4-4f60-a2e0-6d920612445a","ios":"levelo://app?vid=12cf5fa1-01f4-4f60-a2e0-6d920612445a"},"vehicle_type_id":"4","last_reported":1747753895,"current_range_meters":11200,"station_id":"ce4bgjh2rcd13ifvqbg0","pricing_plan_id":"cebpf4jnsgd1na2vs0mg"},{"bike_id":"9eb562f1-c2e2-46a0-9b52-1dafdae1a288","system_id":"levelo_inurba_marseille","lat":43.29308,"lon":5.37163,"is_reserved":false,"is_disabled":false,"rental_uris":{"android":"levelo://app?vid=9eb562f1-c2e2-46a0-9b52-1dafdae1a288","ios":"levelo://app?vid=9eb562f1-c2e2-46a0-9b52-1dafdae1a288"},"vehicle_type_id":"4","last_reported":1747753895,"current_range_meters":11200,"station_id":"ce4bgh92rcd13ifvqb40","pricing_plan_id":"cebpf4jnsgd1na2vs0mg"},{"bike_id":"824a4a33-4dee-4cb8-9ef7-035711e45869","system_id":"levelo_inurba_marseille","lat":43.2979,"lon":5.39346,"is_reserved":false,"is_disabled":false,"rental_uris":{"android":"levelo://app?vid=824a4a33-4dee-4cb8-9ef7-035711e45869","ios":"levelo://app?vid=824a4a33-4dee-4cb8-9ef7-035711e45869"},"vehicle_type_id":"4","last_reported":1747753895,"current_range_meters":11200,"station_id":"chh1huq6cuj3fo74tm60","pricing_plan_id":"cebpf4jnsgd1na2vs0mg"},{"bike_id":"5691ae07-71fe-43ae-9753-ee2423f68b6e","system_id":"levelo_inurba_marseille","lat":43.33034,"lon":5.39048,"is_reserved":false,"is_disabled":false,"rental_uris":{"android":"levelo://app?vid=5691ae07-71fe-43ae-9753-ee2423f68b6e","ios":"levelo://app?vid=5691ae07-71fe-43ae-9753-ee2423f68b6e"},"vehicle_type_id":"4","last_reported":1747753895,"current_range_meters":11600,"station_id":"ce4bhr92rcd13ifvqhrg","pricing_plan_id":"cebpf4jnsgd1na2vs0mg"},{"bike_id":"aadb5531-8abe-4183-a770-7cf37006686f","system_id":"levelo_inurba_marseille","lat":43.28026,"lon":5.36927,"is_reserved":false,"is_disabled":false,"rental_uris":{"android":"levelo://app?vid=aadb5531-8abe-4183-a770-7cf37006686f","ios":"levelo://app?vid=aadb5531-8abe-4183-a770-7cf37006686f"},"vehicle_type_id":"4","last_reported":1747753895,"current_range_meters":11200,"station_id":"ce4bha12rcd13ifvqef0","pricing_plan_id":"cebpf4jnsgd1na2vs0mg"},{"bike_id":"3552fbf2-b43a-446f-93f5-d695fc251b73","system_id":"levelo_inurba_marseille","lat":43.25183,"lon":5.37524,"is_reserved":false,"is_disabled":false,"rental_uris":{"android":"levelo://app?vid=3552fbf2-b43a-446f-93f5-d695fc251b73","ios":"levelo://app?vid=3552fbf2-b43a-446f-93f5-d695fc251b73"},"vehicle_type_id":"4","last_reported":1747753895,"current_range_meters":11600,"station_id":"","pricing_plan_id":"cebpf4jnsgd1na2vs0mg"},{"bike_id":"19e8810b-c04c-4d81-a8ea-ddd39df07998","system_id":"levelo_inurba_marseille","lat":43.29579,"lon":5.36741,"is_reserved":false,"is_disabled":false,"rental_uris":{"android":"levelo://app?vid=19e8810b-c04c-4d81-a8ea-ddd39df07998","ios":"levelo://app?vid=19e8810b-c04c-4d81-a8ea-ddd39df07998"},"vehicle_type_id":"4","last_reported":1747753895,"current_range_meters":11600,"station_id":"ce4bgph2rcd13ifvqc2g","pricing_plan_id":"cebpf4jnsgd1na2vs0mg"},{"bike_id":"59b8a132-4666-485c-b6ad-3e889f0d9322","system_id":"levelo_inurba_marseille","lat":43.25527,"lon":5.37679,"is_reserved":false,"is_disabled":false,"rental_uris":{"android":"levelo://app?vid=59b8a132-4666-485c-b6ad-3e889f0d9322","ios":"levelo://app?vid=59b8a132-4666-485c-b6ad-3e889f0d9322"},"vehicle_type_id":"4","last_reported":1747753895,"current_range_meters":11600,"station_id":"ce4bhh12rcd13ifvqff0","pricing_plan_id":"cebpf4jnsgd1na2vs0mg"},{"bike_id":"a156c037-c205-425d-9bac-b7047d50c8d1","system_id":"levelo_inurba_marseille","lat":43.30098,"lon":5.39083,"is_reserved":false,"is_disabled":false,"rental_uris":{"android":"levelo://app?vid=a156c037-c205-425d-9bac-b7047d50c8d1","ios":"levelo://app?vid=a156c037-c205-425d-9bac-b7047d50c8d1"},"vehicle_type_id":"4","last_reported":1747753895,"current_range_meters":12000,"station_id":"ce4bh192rcd13ifvqdb0","pricing_plan_id":"cebpf4jnsgd1na2vs0mg"},{"bike_id":"8515e518-e6ae-4d30-823e-a81239625260","system_id":"levelo_inurba_marseille","lat":43.29666,"lon":5.3612,"is_reserved":false,"is_disabled":false,"rental_uris":{"android":"levelo://app?vid=8515e518-e6ae-4d30-823e-a81239625260","ios":"levelo://app?vid=8515e518-e6ae-4d30-823e-a81239625260"},"vehicle_type_id":"4","last_reported":1747753895,"current_range_meters":12000,"station_id":"","pricing_plan_id":"cebpf4jnsgd1na2vs0mg"},{"bike_id":"d8ffba2d-54fe-4943-8261-c06a0966ae68","system_id":"levelo_inurba_marseille","lat":43.2606,"lon":5.39398,"is_reserved":false,"is_disabled":false,"rental_uris":{"android":"levelo://app?vid=d8ffba2d-54fe-4943-8261-c06a0966ae68","ios":"levelo://app?vid=d8ffba2d-54fe-4943-8261-c06a0966ae68"},"vehicle_type_id":"4","last_reported":1747753895,"current_range_meters":11600,"station_id":"ce4bhh92rcd13ifvqfj0","pricing_plan_id":"cebpf4jnsgd1na2vs0mg"},{"bike_id":"eb924401-0db8-42c5-ad81-b078094eb20f","system_id":"levelo_inurba_marseille","lat":43.30473,"lon":5.3792,"is_reserved":false,"is_disabled":false,"rental_uris":{"android":"levelo://app?vid=eb924401-0db8-42c5-ad81-b078094eb20f","ios":"levelo://app?vid=eb924401-0db8-42c5-ad81-b078094eb20f"},"vehicle_type_id":"4","last_reported":1747753895,"current_range_meters":12000,"station_id":"ce4bgup2rcd13ifvqcn0","pricing_plan_id":"cebpf4jnsgd1na2vs0mg"},{"bike_id":"a03d5265-da37-4e54-8713-4c8aac46e5e1","system_id":"levelo_inurba_marseille","lat":43.26031,"lon":5.41744,"is_reserved":false,"is_disabled":false,"rental_uris":{"android":"levelo://app?vid=a03d5265-da37-4e54-8713-4c8aac46e5e1","ios":"levelo://app?vid=a03d5265-da37-4e54-8713-4c8aac46e5e1"},"vehicle_type_id":"4","last_reported":1747753895,"current_range_meters":12000,"station_id":"","pricing_plan_id":"cebpf4jnsgd1na2vs0mg"},{"bike_id":"44ffd575-5bd8-4f79-a615-dadcf776f47b","system_id":"levelo_inurba_marseille","lat":43.299183,"lon":5.374792,"is_reserved":false,"is_disabled":false,"rental_uris":{"android":"levelo://app?vid=44ffd575-5bd8-4f79-a615-dadcf776f47b","ios":"levelo://app?vid=44ffd575-5bd8-4f79-a615-dadcf776f47b"},"vehicle_type_id":"4","last_reported":1747753895,"current_range_meters":12000,"station_id":"ce4bgjh2rcd13ifvqbg0","pricing_plan_id":"cebpf4jnsgd1na2vs0mg"},{"bike_id":"c3c11b11-8507-45b4-bd48-1e3bdd46fbbe","system_id":"levelo_inurba_marseille","lat":43.23192,"lon":5.3999,"is_reserved":false,"is_disabled":false,"rental_uris":{"android":"levelo://app?vid=c3c11b11-8507-45b4-bd48-1e3bdd46fbbe","ios":"levelo://app?vid=c3c11b11-8507-45b4-bd48-1e3bdd46fbbe"},"vehicle_type_id":"4","last_reported":1747753895,"current_range_meters":12000,"station_id":"ce4bhn12rcd13ifvqgqg","pricing_plan_id":"cebpf4jnsgd1na2vs0mg"},{"bike_id":"4577f42d-29ec-43a5-a790-37765d794db2","system_id":"levelo_inurba_marseille","lat":43.25112,"lon":5.4032,"is_reserved":false,"is_disabled":false,"rental_uris":{"android":"levelo://app?vid=4577f42d-29ec-43a5-a790-37765d794db2","ios":"levelo://app?vid=4577f42d-29ec-43a5-a790-37765d794db2"},"vehicle_type_id":"4","last_reported":1747753895,"current_range_meters":12000,"station_id":"ce4bhlh2rcd13ifvqgig","pricing_plan_id":"cebpf4jnsgd1na2vs0mg"},{"bike_id":"9462b7a5-c5b5-4fc2-ba79-d1f129eb52db","system_id":"levelo_inurba_marseille","lat":43.28726,"lon":5.36101,"is_reserved":false,"is_disabled":false,"rental_uris":{"android":"levelo://app?vid=9462b7a5-c5b5-4fc2-ba79-d1f129eb52db","ios":"levelo://app?vid=9462b7a5-c5b5-4fc2-ba79-d1f129eb52db"},"vehicle_type_id":"4","last_reported":1747753895,"current_range_meters":12400,"station_id":"cki0cbj6b192h4jlfktg","pricing_plan_id":"cebpf4jnsgd1na2vs0mg"},{"bike_id":"283403a0-596c-4a94-85e1-66d88d547369","system_id":"levelo_inurba_marseille","lat":43.29215,"lon":5.40889,"is_reserved":false,"is_disabled":false,"rental_uris":{"android":"levelo://app?vid=283403a0-596c-4a94-85e1-66d88d547369","ios":"levelo://app?vid=283403a0-596c-4a94-85e1-66d88d547369"},"vehicle_type_id":"4","last_reported":1747753895,"current_range_meters":12400,"station_id":"","pricing_plan_id":"cebpf4jnsgd1na2vs0mg"},{"bike_id":"34121625-83dd-4a62-92a2-b31a7ae023ee","system_id":"levelo_inurba_marseille","lat":43.29992,"lon":5.37179,"is_reserved":false,"is_disabled":false,"rental_uris":{"android":"levelo://app?vid=34121625-83dd-4a62-92a2-b31a7ae023ee","ios":"levelo://app?vid=34121625-83dd-4a62-92a2-b31a7ae023ee"},"vehicle_type_id":"4","last_reported":1747753895,"current_range_meters":12400,"station_id":"ce4bgr92rcd13ifvqc7g","pricing_plan_id":"cebpf4jnsgd1na2vs0mg"},{"bike_id":"385c727c-407d-4b20-94af-2a7fcce5161c","system_id":"levelo_inurba_marseille","lat":43.30155,"lon":5.37416,"is_reserved":false,"is_disabled":false,"rental_uris":{"android":"levelo://app?vid=385c727c-407d-4b20-94af-2a7fcce5161c","ios":"levelo://app?vid=385c727c-407d-4b20-94af-2a7fcce5161c"},"vehicle_type_id":"4","last_reported":1747753895,"current_range_meters":12800,"station_id":"ce4bgs92rcd13ifvqcc0","pricing_plan_id":"cebpf4jnsgd1na2vs0mg"},{"bike_id":"16784d6c-0e41-4c18-af5d-79c4aa508085","system_id":"levelo_inurba_marseille","lat":43.29802,"lon":5.40407,"is_reserved":false,"is_disabled":false,"rental_uris":{"android":"levelo://app?vid=16784d6c-0e41-4c18-af5d-79c4aa508085","ios":"levelo://app?vid=16784d6c-0e41-4c18-af5d-79c4aa508085"},"vehicle_type_id":"4","last_reported":1747753895,"current_range_meters":12800,"station_id":"ce4bh112rcd13ifvqd90","pricing_plan_id":"cebpf4jnsgd1na2vs0mg"},{"bike_id":"19e955fc-a77b-4617-8027-db0e384892a3","system_id":"levelo_inurba_marseille","lat":43.28452,"lon":5.35897,"is_reserved":false,"is_disabled":false,"rental_uris":{"android":"levelo://app?vid=19e955fc-a77b-4617-8027-db0e384892a3","ios":"levelo://app?vid=19e955fc-a77b-4617-8027-db0e384892a3"},"vehicle_type_id":"4","last_reported":1747753895,"current_range_meters":12800,"station_id":"ce4bhah2rcd13ifvqei0","pricing_plan_id":"cebpf4jnsgd1na2vs0mg"},{"bike_id":"a8afb8c8-ad39-4653-854a-62b0305afa80","system_id":"levelo_inurba_marseille","lat":43.29013,"lon":5.38642,"is_reserved":false,"is_disabled":false,"rental_uris":{"android":"levelo://app?vid=a8afb8c8-ad39-4653-854a-62b0305afa80","ios":"levelo://app?vid=a8afb8c8-ad39-4653-854a-62b0305afa80"},"vehicle_type_id":"4","last_reported":1747753895,"current_range_meters":12800,"station_id":"ce4bh4p2rcd13ifvqe0g","pricing_plan_id":"cebpf4jnsgd1na2vs0mg"},{"bike_id":"4498ea7e-7488-452b-b770-723f2b81eaa3","system_id":"levelo_inurba_marseille","lat":43.29256,"lon":5.40919,"is_reserved":false,"is_disabled":false,"rental_uris":{"android":"levelo://app?vid=4498ea7e-7488-452b-b770-723f2b81eaa3","ios":"levelo://app?vid=4498ea7e-7488-452b-b770-723f2b81eaa3"},"vehicle_type_id":"4","last_reported":1747753895,"current_range_meters":12800,"station_id":"ce4bh192rcd13ifvqdc0","pricing_plan_id":"cebpf4jnsgd1na2vs0mg"},{"bike_id":"d222c036-c02a-40db-bb80-83d7b7358871","system_id":"levelo_inurba_marseille","lat":43.3376,"lon":5.39198,"is_reserved":false,"is_disabled":false,"rental_uris":{"android":"levelo://app?vid=d222c036-c02a-40db-bb80-83d7b7358871","ios":"levelo://app?vid=d222c036-c02a-40db-bb80-83d7b7358871"},"vehicle_type_id":"4","last_reported":1747753895,"current_range_meters":12800,"station_id":"ce4bhr92rcd13ifvqhsg","pricing_plan_id":"cebpf4jnsgd1na2vs0mg"},{"bike_id":"311b04b8-1518-49e8-811f-36883a7b7fbc","system_id":"levelo_inurba_marseille","lat":43.298074,"lon":5.380932,"is_reserved":false,"is_disabled":false,"rental_uris":{"android":"levelo://app?vid=311b04b8-1518-49e8-811f-36883a7b7fbc","ios":"levelo://app?vid=311b04b8-1518-49e8-811f-36883a7b7fbc"},"vehicle_type_id":"4","last_reported":1747753895,"current_range_meters":12800,"station_id":"ce4bgip2rcd13ifvqbb0","pricing_plan_id":"cebpf4jnsgd1na2vs0mg"},{"bike_id":"6abf9179-5919-4aea-b8e3-feb1f3d71154","system_id":"levelo_inurba_marseille","lat":43.32361,"lon":5.36745,"is_reserved":false,"is_disabled":false,"rental_uris":{"android":"levelo://app?vid=6abf9179-5919-4aea-b8e3-feb1f3d71154","ios":"levelo://app?vid=6abf9179-5919-4aea-b8e3-feb1f3d71154"},"vehicle_type_id":"4","last_reported":1747753895,"current_range_meters":12800,"station_id":"ce4bhsh2rcd13ifvqi2g","pricing_plan_id":"cebpf4jnsgd1na2vs0mg"},{"bike_id":"3e5d32e4-cbc7-4cc5-9040-55dd5b7b8cc7","system_id":"levelo_inurba_marseille","lat":43.28422,"lon":5.34993,"is_reserved":false,"is_disabled":false,"rental_uris":{"android":"levelo://app?vid=3e5d32e4-cbc7-4cc5-9040-55dd5b7b8cc7","ios":"levelo://app?vid=3e5d32e4-cbc7-4cc5-9040-55dd5b7b8cc7"},"vehicle_type_id":"4","last_reported":1747753895,"current_range_meters":13600,"station_id":"ce4bhbh2rcd13ifvqepg","pricing_plan_id":"cebpf4jnsgd1na2vs0mg"},{"bike_id":"e108b189-dbc5-400c-b3bb-159efce3b763","system_id":"levelo_inurba_marseille","lat":43.29885,"lon":5.39732,"is_reserved":false,"is_disabled":false,"rental_uris":{"android":"levelo://app?vid=e108b189-dbc5-400c-b3bb-159efce3b763","ios":"levelo://app?vid=e108b189-dbc5-400c-b3bb-159efce3b763"},"vehicle_type_id":"4","last_reported":1747753895,"current_range_meters":13600,"station_id":"ce4bh0h2rcd13ifvqd50","pricing_plan_id":"cebpf4jnsgd1na2vs0mg"},{"bike_id":"cd1f28af-22fd-48c3-91f1-3ecb8fbf5375","system_id":"levelo_inurba_marseille","lat":43.29618,"lon":5.40608,"is_reserved":false,"is_disabled":false,"rental_uris":{"android":"levelo://app?vid=cd1f28af-22fd-48c3-91f1-3ecb8fbf5375","ios":"levelo://app?vid=cd1f28af-22fd-48c3-91f1-3ecb8fbf5375"},"vehicle_type_id":"4","last_reported":1747753895,"current_range_meters":13600,"station_id":"ce4bh0h2rcd13ifvqd60","pricing_plan_id":"cebpf4jnsgd1na2vs0mg"},{"bike_id":"e26da114-2614-4289-a279-c815a9b42832","system_id":"levelo_inurba_marseille","lat":43.251272,"lon":5.403368,"is_reserved":false,"is_disabled":false,"rental_uris":{"android":"levelo://app?vid=e26da114-2614-4289-a279-c815a9b42832","ios":"levelo://app?vid=e26da114-2614-4289-a279-c815a9b42832"},"vehicle_type_id":"4","last_reported":1747753895,"current_range_meters":13600,"station_id":"ce4bhlh2rcd13ifvqgig","pricing_plan_id":"cebpf4jnsgd1na2vs0mg"},{"bike_id":"ed184ec7-df4c-4b6c-b7ad-66f53fcc5e42","system_id":"levelo_inurba_marseille","lat":43.29617,"lon":5.38119,"is_reserved":false,"is_disabled":false,"rental_uris":{"android":"levelo://app?vid=ed184ec7-df4c-4b6c-b7ad-66f53fcc5e42","ios":"levelo://app?vid=ed184ec7-df4c-4b6c-b7ad-66f53fcc5e42"},"vehicle_type_id":"4","last_reported":1747753895,"current_range_meters":13600,"station_id":"ce4bgl12rcd13ifvqbo0","pricing_plan_id":"cebpf4jnsgd1na2vs0mg"},{"bike_id":"bfadeaec-216b-47d1-99b4-74d81f9ee763","system_id":"levelo_inurba_marseille","lat":43.32113,"lon":5.36745,"is_reserved":false,"is_disabled":false,"rental_uris":{"android":"levelo://app?vid=bfadeaec-216b-47d1-99b4-74d81f9ee763","ios":"levelo://app?vid=bfadeaec-216b-47d1-99b4-74d81f9ee763"},"vehicle_type_id":"4","last_reported":1747753895,"current_range_meters":13600,"station_id":"ce4bhrh2rcd13ifvqhug","pricing_plan_id":"cebpf4jnsgd1na2vs0mg"},{"bike_id":"92156c7c-a8c0-4caa-b4af-8cb36ef10ad2","system_id":"levelo_inurba_marseille","lat":43.29569,"lon":5.37506,"is_reserved":false,"is_disabled":false,"rental_uris":{"android":"levelo://app?vid=92156c7c-a8c0-4caa-b4af-8cb36ef10ad2","ios":"levelo://app?vid=92156c7c-a8c0-4caa-b4af-8cb36ef10ad2"},"vehicle_type_id":"4","last_reported":1747753895,"current_range_meters":13600,"station_id":"ce4bgh92rcd13ifvqb50","pricing_plan_id":"cebpf4jnsgd1na2vs0mg"},{"bike_id":"e833f3cf-9a2d-4c4b-8ed8-18cb74373be5","system_id":"levelo_inurba_marseille","lat":43.29204,"lon":5.39322,"is_reserved":false,"is_disabled":false,"rental_uris":{"android":"levelo://app?vid=e833f3cf-9a2d-4c4b-8ed8-18cb74373be5","ios":"levelo://app?vid=e833f3cf-9a2d-4c4b-8ed8-18cb74373be5"},"vehicle_type_id":"4","last_reported":1747753895,"current_range_meters":14000,"station_id":"ce4bh192rcd13ifvqdd0","pricing_plan_id":"cebpf4jnsgd1na2vs0mg"},{"bike_id":"a5b8faaa-1b1a-4b9e-9ff7-fc085b133ee0","system_id":"levelo_inurba_marseille","lat":43.29895,"lon":5.43675,"is_reserved":false,"is_disabled":false,"rental_uris":{"android":"levelo://app?vid=a5b8faaa-1b1a-4b9e-9ff7-fc085b133ee0","ios":"levelo://app?vid=a5b8faaa-1b1a-4b9e-9ff7-fc085b133ee0"},"vehicle_type_id":"4","last_reported":1747753895,"current_range_meters":14000,"station_id":"ce4bhpp2rcd13ifvqhfg","pricing_plan_id":"cebpf4jnsgd1na2vs0mg"},{"bike_id":"3137d4d1-3c0d-4b87-920b-8c52cc30d468","system_id":"levelo_inurba_marseille","lat":43.29601,"lon":5.381003,"is_reserved":false,"is_disabled":false,"rental_uris":{"android":"levelo://app?vid=3137d4d1-3c0d-4b87-920b-8c52cc30d468","ios":"levelo://app?vid=3137d4d1-3c0d-4b87-920b-8c52cc30d468"},"vehicle_type_id":"4","last_reported":1747753895,"current_range_meters":14000,"station_id":"ce4bgl12rcd13ifvqbo0","pricing_plan_id":"cebpf4jnsgd1na2vs0mg"},{"bike_id":"c4a3ca76-fab4-4d32-adf7-4d6e76d030c3","system_id":"levelo_inurba_marseille","lat":43.26502,"lon":5.39551,"is_reserved":false,"is_disabled":false,"rental_uris":{"android":"levelo://app?vid=c4a3ca76-fab4-4d32-adf7-4d6e76d030c3","ios":"levelo://app?vid=c4a3ca76-fab4-4d32-adf7-4d6e76d030c3"},"vehicle_type_id":"4","last_reported":1747753895,"current_range_meters":14000,"station_id":"ce4bhi12rcd13ifvqfq0","pricing_plan_id":"cebpf4jnsgd1na2vs0mg"},{"bike_id":"dc80936a-51b4-4ef9-b71e-e259b58f2ac3","system_id":"levelo_inurba_marseille","lat":43.231844,"lon":5.399809,"is_reserved":false,"is_disabled":false,"rental_uris":{"android":"levelo://app?vid=dc80936a-51b4-4ef9-b71e-e259b58f2ac3","ios":"levelo://app?vid=dc80936a-51b4-4ef9-b71e-e259b58f2ac3"},"vehicle_type_id":"4","last_reported":1747753895,"current_range_meters":14000,"station_id":"ce4bhn12rcd13ifvqgqg","pricing_plan_id":"cebpf4jnsgd1na2vs0mg"},{"bike_id":"e5123b84-27f5-4317-9aad-0af51cbbceba","system_id":"levelo_inurba_marseille","lat":43.29889,"lon":5.39739,"is_reserved":false,"is_disabled":false,"rental_uris":{"android":"levelo://app?vid=e5123b84-27f5-4317-9aad-0af51cbbceba","ios":"levelo://app?vid=e5123b84-27f5-4317-9aad-0af51cbbceba"},"vehicle_type_id":"4","last_reported":1747753895,"current_range_meters":14000,"station_id":"ce4bh0h2rcd13ifvqd50","pricing_plan_id":"cebpf4jnsgd1na2vs0mg"},{"bike_id":"888dc10a-1166-4c62-8271-422357be6a6a","system_id":"levelo_inurba_marseille","lat":43.2861,"lon":5.37063,"is_reserved":false,"is_disabled":false,"rental_uris":{"android":"levelo://app?vid=888dc10a-1166-4c62-8271-422357be6a6a","ios":"levelo://app?vid=888dc10a-1166-4c62-8271-422357be6a6a"},"vehicle_type_id":"4","last_reported":1747753895,"current_range_meters":14000,"station_id":"ce4bht12rcd13ifvqi60","pricing_plan_id":"cebpf4jnsgd1na2vs0mg"},{"bike_id":"6f05ff50-9ac2-469d-8e63-0c0417e28add","system_id":"levelo_inurba_marseille","lat":43.29534,"lon":5.38555,"is_reserved":false,"is_disabled":false,"rental_uris":{"android":"levelo://app?vid=6f05ff50-9ac2-469d-8e63-0c0417e28add","ios":"levelo://app?vid=6f05ff50-9ac2-469d-8e63-0c0417e28add"},"vehicle_type_id":"4","last_reported":1747753895,"current_range_meters":14000,"station_id":"ce4bgih2rcd13ifvqba0","pricing_plan_id":"cebpf4jnsgd1na2vs0mg"},{"bike_id":"3727fc12-d6f7-4940-a601-2497cb1482e6","system_id":"levelo_inurba_marseille","lat":43.28074,"lon":5.39627,"is_reserved":false,"is_disabled":false,"rental_uris":{"android":"levelo://app?vid=3727fc12-d6f7-4940-a601-2497cb1482e6","ios":"levelo://app?vid=3727fc12-d6f7-4940-a601-2497cb1482e6"},"vehicle_type_id":"4","last_reported":1747753895,"current_range_meters":14400,"station_id":"ce4bho12rcd13ifvqh2g","pricing_plan_id":"cebpf4jnsgd1na2vs0mg"},{"bike_id":"410b95be-e281-4f8c-8b47-9a4cd7a66010","system_id":"levelo_inurba_marseille","lat":43.296,"lon":5.36749,"is_reserved":false,"is_disabled":false,"rental_uris":{"android":"levelo://app?vid=410b95be-e281-4f8c-8b47-9a4cd7a66010","ios":"levelo://app?vid=410b95be-e281-4f8c-8b47-9a4cd7a66010"},"vehicle_type_id":"4","last_reported":1747753895,"current_range_meters":14000,"station_id":"ce4bgph2rcd13ifvqc2g","pricing_plan_id":"cebpf4jnsgd1na2vs0mg"},{"bike_id":"98157c4b-7a06-48fd-bcd7-860ac2330434","system_id":"levelo_inurba_marseille","lat":43.29871,"lon":5.39766,"is_reserved":false,"is_disabled":false,"rental_uris":{"android":"levelo://app?vid=98157c4b-7a06-48fd-bcd7-860ac2330434","ios":"levelo://app?vid=98157c4b-7a06-48fd-bcd7-860ac2330434"},"vehicle_type_id":"4","last_reported":1747753895,"current_range_meters":14800,"station_id":"ce4bh0h2rcd13ifvqd50","pricing_plan_id":"cebpf4jnsgd1na2vs0mg"},{"bike_id":"00e4d09e-0a6f-44ef-8780-d903ca9bc680","system_id":"levelo_inurba_marseille","lat":43.289289,"lon":5.359439,"is_reserved":false,"is_disabled":false,"rental_uris":{"android":"levelo://app?vid=00e4d09e-0a6f-44ef-8780-d903ca9bc680","ios":"levelo://app?vid=00e4d09e-0a6f-44ef-8780-d903ca9bc680"},"vehicle_type_id":"4","last_reported":1747753895,"current_range_meters":14800,"station_id":"ce4bgr92rcd13ifvqc7g","pricing_plan_id":"cebpf4jnsgd1na2vs0mg"},{"bike_id":"86005c18-75dc-42fc-9b8a-d1074b8d5ccd","system_id":"levelo_inurba_marseille","lat":43.29932,"lon":5.37495,"is_reserved":false,"is_disabled":false,"rental_uris":{"android":"levelo://app?vid=86005c18-75dc-42fc-9b8a-d1074b8d5ccd","ios":"levelo://app?vid=86005c18-75dc-42fc-9b8a-d1074b8d5ccd"},"vehicle_type_id":"4","last_reported":1747753895,"current_range_meters":14400,"station_id":"ce4bgjh2rcd13ifvqbg0","pricing_plan_id":"cebpf4jnsgd1na2vs0mg"},{"bike_id":"5e7277d0-cecd-489a-a809-253ef88e3fd2","system_id":"levelo_inurba_marseille","lat":43.30538,"lon":5.36557,"is_reserved":false,"is_disabled":false,"rental_uris":{"android":"levelo://app?vid=5e7277d0-cecd-489a-a809-253ef88e3fd2","ios":"levelo://app?vid=5e7277d0-cecd-489a-a809-253ef88e3fd2"},"vehicle_type_id":"4","last_reported":1747753895,"current_range_meters":15200,"station_id":"ce4bgs12rcd13ifvqcag","pricing_plan_id":"cebpf4jnsgd1na2vs0mg"},{"bike_id":"b8dce062-da75-4064-98e4-81aafdc7fb91","system_id":"levelo_inurba_marseille","lat":43.326342,"lon":5.387733,"is_reserved":false,"is_disabled":false,"rental_uris":{"android":"levelo://app?vid=b8dce062-da75-4064-98e4-81aafdc7fb91","ios":"levelo://app?vid=b8dce062-da75-4064-98e4-81aafdc7fb91"},"vehicle_type_id":"4","last_reported":1747753895,"current_range_meters":15200,"station_id":"ce4bhr92rcd13ifvqhrg","pricing_plan_id":"cebpf4jnsgd1na2vs0mg"},{"bike_id":"83ccb89d-f8f9-4eba-9b88-cedb4ebcf170","system_id":"levelo_inurba_marseille","lat":43.29582,"lon":5.37527,"is_reserved":false,"is_disabled":false,"rental_uris":{"android":"levelo://app?vid=83ccb89d-f8f9-4eba-9b88-cedb4ebcf170","ios":"levelo://app?vid=83ccb89d-f8f9-4eba-9b88-cedb4ebcf170"},"vehicle_type_id":"4","last_reported":1747753895,"current_range_meters":15200,"station_id":"ce4bgh92rcd13ifvqb50","pricing_plan_id":"cebpf4jnsgd1na2vs0mg"},{"bike_id":"5765434c-77b5-41b5-8b14-b978e4d6dd10","system_id":"levelo_inurba_marseille","lat":43.2117,"lon":5.35134,"is_reserved":false,"is_disabled":false,"rental_uris":{"android":"levelo://app?vid=5765434c-77b5-41b5-8b14-b978e4d6dd10","ios":"levelo://app?vid=5765434c-77b5-41b5-8b14-b978e4d6dd10"},"vehicle_type_id":"4","last_reported":1747753895,"current_range_meters":16000,"station_id":"st_cvj6sg6p6f1abm77japg","pricing_plan_id":"cebpf4jnsgd1na2vs0mg"},{"bike_id":"5f45d7ac-e3e8-406a-8729-2760647ac9f7","system_id":"levelo_inurba_marseille","lat":43.27812,"lon":5.40715,"is_reserved":false,"is_disabled":false,"rental_uris":{"android":"levelo://app?vid=5f45d7ac-e3e8-406a-8729-2760647ac9f7","ios":"levelo://app?vid=5f45d7ac-e3e8-406a-8729-2760647ac9f7"},"vehicle_type_id":"4","last_reported":1747753895,"current_range_meters":16000,"station_id":"ce4bhnh2rcd13ifvqgtg","pricing_plan_id":"cebpf4jnsgd1na2vs0mg"},{"bike_id":"d22b0fd0-78a6-46fc-aad8-ce2ca2a629e3","system_id":"levelo_inurba_marseille","lat":43.212003,"lon":5.350751,"is_reserved":false,"is_disabled":false,"rental_uris":{"android":"levelo://app?vid=d22b0fd0-78a6-46fc-aad8-ce2ca2a629e3","ios":"levelo://app?vid=d22b0fd0-78a6-46fc-aad8-ce2ca2a629e3"},"vehicle_type_id":"4","last_reported":1747753895,"current_range_meters":16000,"station_id":"st_cvj6sg6p6f1abm77japg","pricing_plan_id":"cebpf4jnsgd1na2vs0mg"},{"bike_id":"1a340bac-8012-4c7c-b50a-247d19f083a9","system_id":"levelo_inurba_marseille","lat":43.21178,"lon":5.35087,"is_reserved":false,"is_disabled":false,"rental_uris":{"android":"levelo://app?vid=1a340bac-8012-4c7c-b50a-247d19f083a9","ios":"levelo://app?vid=1a340bac-8012-4c7c-b50a-247d19f083a9"},"vehicle_type_id":"4","last_reported":1747753895,"current_range_meters":16400,"station_id":"st_cvj6sg6p6f1abm77japg","pricing_plan_id":"cebpf4jnsgd1na2vs0mg"},{"bike_id":"fb417144-e866-41fc-bfd9-0d80a798abcb","system_id":"levelo_inurba_marseille","lat":43.3054,"lon":5.36717,"is_reserved":false,"is_disabled":false,"rental_uris":{"android":"levelo://app?vid=fb417144-e866-41fc-bfd9-0d80a798abcb","ios":"levelo://app?vid=fb417144-e866-41fc-bfd9-0d80a798abcb"},"vehicle_type_id":"4","last_reported":1747753895,"current_range_meters":16400,"station_id":"ce4bgrp2rcd13ifvqc9g","pricing_plan_id":"cebpf4jnsgd1na2vs0mg"},{"bike_id":"56cf80a0-6e20-4517-b7ab-ff4ac3730a84","system_id":"levelo_inurba_marseille","lat":43.23193,"lon":5.39998,"is_reserved":false,"is_disabled":false,"rental_uris":{"android":"levelo://app?vid=56cf80a0-6e20-4517-b7ab-ff4ac3730a84","ios":"levelo://app?vid=56cf80a0-6e20-4517-b7ab-ff4ac3730a84"},"vehicle_type_id":"4","last_reported":1747753895,"current_range_meters":16400,"station_id":"ce4bhn12rcd13ifvqgqg","pricing_plan_id":"cebpf4jnsgd1na2vs0mg"},{"bike_id":"03012606-d32f-4ef5-b61d-8757920abdf4","system_id":"levelo_inurba_marseille","lat":43.28516,"lon":5.38585,"is_reserved":false,"is_disabled":true,"rental_uris":{"android":"levelo://app?vid=03012606-d32f-4ef5-b61d-8757920abdf4","ios":"levelo://app?vid=03012606-d32f-4ef5-b61d-8757920abdf4"},"vehicle_type_id":"4","last_reported":1747753895,"current_range_meters":16400,"station_id":"ce4bh8p2rcd13ifvqeb0","pricing_plan_id":"cebpf4jnsgd1na2vs0mg"},{"bike_id":"10ed1b32-0b3b-44e2-81a5-4ebb67f680be","system_id":"levelo_inurba_marseille","lat":43.30161,"lon":5.39897,"is_reserved":false,"is_disabled":false,"rental_uris":{"android":"levelo://app?vid=10ed1b32-0b3b-44e2-81a5-4ebb67f680be","ios":"levelo://app?vid=10ed1b32-0b3b-44e2-81a5-4ebb67f680be"},"vehicle_type_id":"4","last_reported":1747753895,"current_range_meters":16400,"station_id":"","pricing_plan_id":"cebpf4jnsgd1na2vs0mg"},{"bike_id":"e9ac0a3b-d4f2-4d9a-983d-9d40c8c38110","system_id":"levelo_inurba_marseille","lat":43.2572,"lon":5.41113,"is_reserved":false,"is_disabled":false,"rental_uris":{"android":"levelo://app?vid=e9ac0a3b-d4f2-4d9a-983d-9d40c8c38110","ios":"levelo://app?vid=e9ac0a3b-d4f2-4d9a-983d-9d40c8c38110"},"vehicle_type_id":"4","last_reported":1747753895,"current_range_meters":16400,"station_id":"ce4bhkp2rcd13ifvqgd0","pricing_plan_id":"cebpf4jnsgd1na2vs0mg"},{"bike_id":"87e7bc5e-db0f-423c-8aff-9df688bbf3bc","system_id":"levelo_inurba_marseille","lat":43.24832,"lon":5.37447,"is_reserved":false,"is_disabled":false,"rental_uris":{"android":"levelo://app?vid=87e7bc5e-db0f-423c-8aff-9df688bbf3bc","ios":"levelo://app?vid=87e7bc5e-db0f-423c-8aff-9df688bbf3bc"},"vehicle_type_id":"4","last_reported":1747753895,"current_range_meters":16400,"station_id":"ce4bhgh2rcd13ifvqfb0","pricing_plan_id":"cebpf4jnsgd1na2vs0mg"},{"bike_id":"a253706b-1cb9-4ca4-9560-173eeb92ac1f","system_id":"levelo_inurba_marseille","lat":43.30797,"lon":5.43523,"is_reserved":false,"is_disabled":false,"rental_uris":{"android":"levelo://app?vid=a253706b-1cb9-4ca4-9560-173eeb92ac1f","ios":"levelo://app?vid=a253706b-1cb9-4ca4-9560-173eeb92ac1f"},"vehicle_type_id":"4","last_reported":1747753895,"current_range_meters":16400,"station_id":"ce4bhph2rcd13ifvqheg","pricing_plan_id":"cebpf4jnsgd1na2vs0mg"},{"bike_id":"64c6423d-6433-47ed-ac0b-11b7e3f82187","system_id":"levelo_inurba_marseille","lat":43.25083,"lon":5.39501,"is_reserved":false,"is_disabled":false,"rental_uris":{"android":"levelo://app?vid=64c6423d-6433-47ed-ac0b-11b7e3f82187","ios":"levelo://app?vid=64c6423d-6433-47ed-ac0b-11b7e3f82187"},"vehicle_type_id":"4","last_reported":1747753895,"current_range_meters":16800,"station_id":"ce4bhm12rcd13ifvqgkg","pricing_plan_id":"cebpf4jnsgd1na2vs0mg"},{"bike_id":"338d46a5-9c81-4e89-8ead-674cff470e1f","system_id":"levelo_inurba_marseille","lat":43.28457,"lon":5.39218,"is_reserved":false,"is_disabled":false,"rental_uris":{"android":"levelo://app?vid=338d46a5-9c81-4e89-8ead-674cff470e1f","ios":"levelo://app?vid=338d46a5-9c81-4e89-8ead-674cff470e1f"},"vehicle_type_id":"4","last_reported":1747753895,"current_range_meters":16400,"station_id":"ce4bhoh2rcd13ifvqh5g","pricing_plan_id":"cebpf4jnsgd1na2vs0mg"},{"bike_id":"dd174f92-397e-4b35-9ff5-ed23e59055eb","system_id":"levelo_inurba_marseille","lat":43.30509,"lon":5.3988,"is_reserved":false,"is_disabled":false,"rental_uris":{"android":"levelo://app?vid=dd174f92-397e-4b35-9ff5-ed23e59055eb","ios":"levelo://app?vid=dd174f92-397e-4b35-9ff5-ed23e59055eb"},"vehicle_type_id":"4","last_reported":1747753895,"current_range_meters":16800,"station_id":"","pricing_plan_id":"cebpf4jnsgd1na2vs0mg"},{"bike_id":"7d261be1-05a8-42f3-a816-eebf37924187","system_id":"levelo_inurba_marseille","lat":43.28722,"lon":5.36099,"is_reserved":false,"is_disabled":false,"rental_uris":{"android":"levelo://app?vid=7d261be1-05a8-42f3-a816-eebf37924187","ios":"levelo://app?vid=7d261be1-05a8-42f3-a816-eebf37924187"},"vehicle_type_id":"4","last_reported":1747753895,"current_range_meters":16800,"station_id":"cki0cbj6b192h4jlfktg","pricing_plan_id":"cebpf4jnsgd1na2vs0mg"},{"bike_id":"e2e51e8a-c6ce-4a55-ae98-f8283b499393","system_id":"levelo_inurba_marseille","lat":43.29855,"lon":5.36325,"is_reserved":false,"is_disabled":false,"rental_uris":{"android":"levelo://app?vid=e2e51e8a-c6ce-4a55-ae98-f8283b499393","ios":"levelo://app?vid=e2e51e8a-c6ce-4a55-ae98-f8283b499393"},"vehicle_type_id":"4","last_reported":1747753895,"current_range_meters":16800,"station_id":"ce4bgpp2rcd13ifvqc3g","pricing_plan_id":"cebpf4jnsgd1na2vs0mg"},{"bike_id":"bddc756c-cdec-4d8a-9adf-15eab0d606c8","system_id":"levelo_inurba_marseille","lat":43.27206,"lon":5.39189,"is_reserved":false,"is_disabled":false,"rental_uris":{"android":"levelo://app?vid=bddc756c-cdec-4d8a-9adf-15eab0d606c8","ios":"levelo://app?vid=bddc756c-cdec-4d8a-9adf-15eab0d606c8"},"vehicle_type_id":"4","last_reported":1747753895,"current_range_meters":16800,"station_id":"ce4bhhp2rcd13ifvqfm0","pricing_plan_id":"cebpf4jnsgd1na2vs0mg"},{"bike_id":"e955ee75-97fa-4e62-aaf0-fa715e646da0","system_id":"levelo_inurba_marseille","lat":43.290334,"lon":5.359148,"is_reserved":false,"is_disabled":false,"rental_uris":{"android":"levelo://app?vid=e955ee75-97fa-4e62-aaf0-fa715e646da0","ios":"levelo://app?vid=e955ee75-97fa-4e62-aaf0-fa715e646da0"},"vehicle_type_id":"4","last_reported":1747753895,"current_range_meters":16800,"station_id":"ce4bha92rcd13ifvqeg0","pricing_plan_id":"cebpf4jnsgd1na2vs0mg"},{"bike_id":"476fc90e-f385-4055-a8e7-35110ddb1c34","system_id":"levelo_inurba_marseille","lat":43.27813,"lon":5.40712,"is_reserved":false,"is_disabled":false,"rental_uris":{"android":"levelo://app?vid=476fc90e-f385-4055-a8e7-35110ddb1c34","ios":"levelo://app?vid=476fc90e-f385-4055-a8e7-35110ddb1c34"},"vehicle_type_id":"4","last_reported":1747753895,"current_range_meters":16800,"station_id":"ce4bhnh2rcd13ifvqgtg","pricing_plan_id":"cebpf4jnsgd1na2vs0mg"},{"bike_id":"fa432f3f-eb60-4ca0-afaf-f6ccb9daf337","system_id":"levelo_inurba_marseille","lat":43.29872,"lon":5.39746,"is_reserved":false,"is_disabled":false,"rental_uris":{"android":"levelo://app?vid=fa432f3f-eb60-4ca0-afaf-f6ccb9daf337","ios":"levelo://app?vid=fa432f3f-eb60-4ca0-afaf-f6ccb9daf337"},"vehicle_type_id":"4","last_reported":1747753895,"current_range_meters":16800,"station_id":"ce4bh0h2rcd13ifvqd50","pricing_plan_id":"cebpf4jnsgd1na2vs0mg"},{"bike_id":"41a63ad7-5271-4c92-a07b-12a7b1d342de","system_id":"levelo_inurba_marseille","lat":43.211953,"lon":5.350653,"is_reserved":false,"is_disabled":false,"rental_uris":{"android":"levelo://app?vid=41a63ad7-5271-4c92-a07b-12a7b1d342de","ios":"levelo://app?vid=41a63ad7-5271-4c92-a07b-12a7b1d342de"},"vehicle_type_id":"4","last_reported":1747753895,"current_range_meters":16800,"station_id":"st_cvj6sg6p6f1abm77japg","pricing_plan_id":"cebpf4jnsgd1na2vs0mg"},{"bike_id":"4d0032af-4f81-4d58-98a7-678c261e6fc4","system_id":"levelo_inurba_marseille","lat":43.2987,"lon":5.39733,"is_reserved":false,"is_disabled":false,"rental_uris":{"android":"levelo://app?vid=4d0032af-4f81-4d58-98a7-678c261e6fc4","ios":"levelo://app?vid=4d0032af-4f81-4d58-98a7-678c261e6fc4"},"vehicle_type_id":"4","last_reported":1747753895,"current_range_meters":17600,"station_id":"ce4bh0h2rcd13ifvqd50","pricing_plan_id":"cebpf4jnsgd1na2vs0mg"},{"bike_id":"b2812a3f-2332-493f-85e4-6bc85b95ec70","system_id":"levelo_inurba_marseille","lat":43.26228,"lon":5.40481,"is_reserved":false,"is_disabled":false,"rental_uris":{"android":"levelo://app?vid=b2812a3f-2332-493f-85e4-6bc85b95ec70","ios":"levelo://app?vid=b2812a3f-2332-493f-85e4-6bc85b95ec70"},"vehicle_type_id":"4","last_reported":1747753895,"current_range_meters":17200,"station_id":"ce4bhmh2rcd13ifvqgmg","pricing_plan_id":"cebpf4jnsgd1na2vs0mg"},{"bike_id":"627d0453-eec4-45d3-829f-f752a240a95a","system_id":"levelo_inurba_marseille","lat":43.28621,"lon":5.35116,"is_reserved":false,"is_disabled":false,"rental_uris":{"android":"levelo://app?vid=627d0453-eec4-45d3-829f-f752a240a95a","ios":"levelo://app?vid=627d0453-eec4-45d3-829f-f752a240a95a"},"vehicle_type_id":"4","last_reported":1747753895,"current_range_meters":17200,"station_id":"ce4bhch2rcd13ifvqeug","pricing_plan_id":"cebpf4jnsgd1na2vs0mg"},{"bike_id":"3756623f-8650-41f1-921f-b5cabd8d6af7","system_id":"levelo_inurba_marseille","lat":43.29871,"lon":5.3811,"is_reserved":false,"is_disabled":false,"rental_uris":{"android":"levelo://app?vid=3756623f-8650-41f1-921f-b5cabd8d6af7","ios":"levelo://app?vid=3756623f-8650-41f1-921f-b5cabd8d6af7"},"vehicle_type_id":"4","last_reported":1747753895,"current_range_meters":17200,"station_id":"","pricing_plan_id":"cebpf4jnsgd1na2vs0mg"},{"bike_id":"c105a594-2f5c-44f4-b643-3d7d1707c5fa","system_id":"levelo_inurba_marseille","lat":43.289413,"lon":5.36638,"is_reserved":false,"is_disabled":false,"rental_uris":{"android":"levelo://app?vid=c105a594-2f5c-44f4-b643-3d7d1707c5fa","ios":"levelo://app?vid=c105a594-2f5c-44f4-b643-3d7d1707c5fa"},"vehicle_type_id":"4","last_reported":1747753895,"current_range_meters":17200,"station_id":"ce4bhap2rcd13ifvqek0","pricing_plan_id":"cebpf4jnsgd1na2vs0mg"},{"bike_id":"24dc12dd-e0a1-4ccc-b473-486d35ddca69","system_id":"levelo_inurba_marseille","lat":43.3174,"lon":5.43743,"is_reserved":false,"is_disabled":false,"rental_uris":{"android":"levelo://app?vid=24dc12dd-e0a1-4ccc-b473-486d35ddca69","ios":"levelo://app?vid=24dc12dd-e0a1-4ccc-b473-486d35ddca69"},"vehicle_type_id":"4","last_reported":1747753895,"current_range_meters":17200,"station_id":"ce4bhp92rcd13ifvqhcg","pricing_plan_id":"cebpf4jnsgd1na2vs0mg"},{"bike_id":"4e5ff0aa-86bc-4ec5-9c36-2f94f530574d","system_id":"levelo_inurba_marseille","lat":43.306143,"lon":5.371567,"is_reserved":false,"is_disabled":false,"rental_uris":{"android":"levelo://app?vid=4e5ff0aa-86bc-4ec5-9c36-2f94f530574d","ios":"levelo://app?vid=4e5ff0aa-86bc-4ec5-9c36-2f94f530574d"},"vehicle_type_id":"4","last_reported":1747753895,"current_range_meters":17200,"station_id":"","pricing_plan_id":"cebpf4jnsgd1na2vs0mg"},{"bike_id":"48a5de71-8e2d-402b-83b3-d8a3a18ddbb9","system_id":"levelo_inurba_marseille","lat":43.30547,"lon":5.36507,"is_reserved":false,"is_disabled":true,"rental_uris":{"android":"levelo://app?vid=48a5de71-8e2d-402b-83b3-d8a3a18ddbb9","ios":"levelo://app?vid=48a5de71-8e2d-402b-83b3-d8a3a18ddbb9"},"vehicle_type_id":"4","last_reported":1747753895,"current_range_meters":17200,"station_id":"ce4bgs12rcd13ifvqcag","pricing_plan_id":"cebpf4jnsgd1na2vs0mg"},{"bike_id":"79906c90-eea8-4045-ae38-c6286d984b37","system_id":"levelo_inurba_marseille","lat":43.27812,"lon":5.40717,"is_reserved":false,"is_disabled":false,"rental_uris":{"android":"levelo://app?vid=79906c90-eea8-4045-ae38-c6286d984b37","ios":"levelo://app?vid=79906c90-eea8-4045-ae38-c6286d984b37"},"vehicle_type_id":"4","last_reported":1747753895,"current_range_meters":17200,"station_id":"ce4bhnh2rcd13ifvqgtg","pricing_plan_id":"cebpf4jnsgd1na2vs0mg"},{"bike_id":"85ee25f9-9026-46d3-968f-6b2fe48ce560","system_id":"levelo_inurba_marseille","lat":43.26501,"lon":5.39546,"is_reserved":false,"is_disabled":false,"rental_uris":{"android":"levelo://app?vid=85ee25f9-9026-46d3-968f-6b2fe48ce560","ios":"levelo://app?vid=85ee25f9-9026-46d3-968f-6b2fe48ce560"},"vehicle_type_id":"4","last_reported":1747753895,"current_range_meters":17200,"station_id":"ce4bhi12rcd13ifvqfq0","pricing_plan_id":"cebpf4jnsgd1na2vs0mg"},{"bike_id":"8f082b97-1537-4819-9324-aa9669be3a5a","system_id":"levelo_inurba_marseille","lat":43.31088,"lon":5.42431,"is_reserved":false,"is_disabled":false,"rental_uris":{"android":"levelo://app?vid=8f082b97-1537-4819-9324-aa9669be3a5a","ios":"levelo://app?vid=8f082b97-1537-4819-9324-aa9669be3a5a"},"vehicle_type_id":"4","last_reported":1747753895,"current_range_meters":17200,"station_id":"ce4bhp92rcd13ifvqhag","pricing_plan_id":"cebpf4jnsgd1na2vs0mg"},{"bike_id":"ab83f315-031a-48bf-810b-dbce583ff3b8","system_id":"levelo_inurba_marseille","lat":43.28627,"lon":5.35111,"is_reserved":false,"is_disabled":false,"rental_uris":{"android":"levelo://app?vid=ab83f315-031a-48bf-810b-dbce583ff3b8","ios":"levelo://app?vid=ab83f315-031a-48bf-810b-dbce583ff3b8"},"vehicle_type_id":"4","last_reported":1747753895,"current_range_meters":17600,"station_id":"ce4bhch2rcd13ifvqeug","pricing_plan_id":"cebpf4jnsgd1na2vs0mg"},{"bike_id":"bded63e5-ee1e-4b50-8e81-f721228dd28d","system_id":"levelo_inurba_marseille","lat":43.26677,"lon":5.38258,"is_reserved":false,"is_disabled":true,"rental_uris":{"android":"levelo://app?vid=bded63e5-ee1e-4b50-8e81-f721228dd28d","ios":"levelo://app?vid=bded63e5-ee1e-4b50-8e81-f721228dd28d"},"vehicle_type_id":"4","last_reported":1747753895,"current_range_meters":17600,"station_id":"ce4bhg92rcd13ifvqf90","pricing_plan_id":"cebpf4jnsgd1na2vs0mg"},{"bike_id":"a1c45386-1c7d-452c-974a-e77a0333f4d4","system_id":"levelo_inurba_marseille","lat":43.25868,"lon":5.39894,"is_reserved":false,"is_disabled":false,"rental_uris":{"android":"levelo://app?vid=a1c45386-1c7d-452c-974a-e77a0333f4d4","ios":"levelo://app?vid=a1c45386-1c7d-452c-974a-e77a0333f4d4"},"vehicle_type_id":"4","last_reported":1747753895,"current_range_meters":17600,"station_id":"ce4bhl92rcd13ifvqghg","pricing_plan_id":"cebpf4jnsgd1na2vs0mg"},{"bike_id":"a8a20fd8-2199-4d0c-b67d-a3bb67bde0ec","system_id":"levelo_inurba_marseille","lat":43.28939,"lon":5.36635,"is_reserved":false,"is_disabled":false,"rental_uris":{"android":"levelo://app?vid=a8a20fd8-2199-4d0c-b67d-a3bb67bde0ec","ios":"levelo://app?vid=a8a20fd8-2199-4d0c-b67d-a3bb67bde0ec"},"vehicle_type_id":"4","last_reported":1747753895,"current_range_meters":17600,"station_id":"ce4bhap2rcd13ifvqek0","pricing_plan_id":"cebpf4jnsgd1na2vs0mg"},{"bike_id":"92c63346-1425-4a5c-b66f-0dcd0686deee","system_id":"levelo_inurba_marseille","lat":43.34139,"lon":5.40897,"is_reserved":false,"is_disabled":false,"rental_uris":{"android":"levelo://app?vid=92c63346-1425-4a5c-b66f-0dcd0686deee","ios":"levelo://app?vid=92c63346-1425-4a5c-b66f-0dcd0686deee"},"vehicle_type_id":"4","last_reported":1747753895,"current_range_meters":17600,"station_id":"ce4bhqh2rcd13ifvqhlg","pricing_plan_id":"cebpf4jnsgd1na2vs0mg"},{"bike_id":"0e6bb125-ff93-4853-97e0-da4a593482f4","system_id":"levelo_inurba_marseille","lat":43.280774,"lon":5.396401,"is_reserved":false,"is_disabled":false,"rental_uris":{"android":"levelo://app?vid=0e6bb125-ff93-4853-97e0-da4a593482f4","ios":"levelo://app?vid=0e6bb125-ff93-4853-97e0-da4a593482f4"},"vehicle_type_id":"4","last_reported":1747753895,"current_range_meters":17600,"station_id":"ce4bho12rcd13ifvqh2g","pricing_plan_id":"cebpf4jnsgd1na2vs0mg"},{"bike_id":"3c7175ec-aeed-4796-89fc-426901811446","system_id":"levelo_inurba_marseille","lat":43.30128,"lon":5.37404,"is_reserved":false,"is_disabled":false,"rental_uris":{"android":"levelo://app?vid=3c7175ec-aeed-4796-89fc-426901811446","ios":"levelo://app?vid=3c7175ec-aeed-4796-89fc-426901811446"},"vehicle_type_id":"4","last_reported":1747753895,"current_range_meters":17600,"station_id":"ce4bgs92rcd13ifvqcc0","pricing_plan_id":"cebpf4jnsgd1na2vs0mg"},{"bike_id":"18b2d3d8-0348-44a4-9f82-f958f0049aea","system_id":"levelo_inurba_marseille","lat":43.30548,"lon":5.365303,"is_reserved":false,"is_disabled":false,"rental_uris":{"android":"levelo://app?vid=18b2d3d8-0348-44a4-9f82-f958f0049aea","ios":"levelo://app?vid=18b2d3d8-0348-44a4-9f82-f958f0049aea"},"vehicle_type_id":"4","last_reported":1747753895,"current_range_meters":17600,"station_id":"ce4bgs12rcd13ifvqcag","pricing_plan_id":"cebpf4jnsgd1na2vs0mg"},{"bike_id":"678d9261-95e7-496f-bb18-709a8bb9dd0b","system_id":"levelo_inurba_marseille","lat":43.30133,"lon":5.37406,"is_reserved":false,"is_disabled":false,"rental_uris":{"android":"levelo://app?vid=678d9261-95e7-496f-bb18-709a8bb9dd0b","ios":"levelo://app?vid=678d9261-95e7-496f-bb18-709a8bb9dd0b"},"vehicle_type_id":"4","last_reported":1747753895,"current_range_meters":18000,"station_id":"ce4bgs92rcd13ifvqcc0","pricing_plan_id":"cebpf4jnsgd1na2vs0mg"},{"bike_id":"d2243da5-46a4-4675-a166-c5959f727fa3","system_id":"levelo_inurba_marseille","lat":43.279379,"lon":5.410451,"is_reserved":false,"is_disabled":false,"rental_uris":{"android":"levelo://app?vid=d2243da5-46a4-4675-a166-c5959f727fa3","ios":"levelo://app?vid=d2243da5-46a4-4675-a166-c5959f727fa3"},"vehicle_type_id":"4","last_reported":1747753895,"current_range_meters":18000,"station_id":"ce4bhnp2rcd13ifvqh0g","pricing_plan_id":"cebpf4jnsgd1na2vs0mg"},{"bike_id":"a033c6d8-5a8f-4551-9a74-b4f10acffaec","system_id":"levelo_inurba_marseille","lat":43.323613,"lon":5.367653,"is_reserved":false,"is_disabled":false,"rental_uris":{"android":"levelo://app?vid=a033c6d8-5a8f-4551-9a74-b4f10acffaec","ios":"levelo://app?vid=a033c6d8-5a8f-4551-9a74-b4f10acffaec"},"vehicle_type_id":"4","last_reported":1747753895,"current_range_meters":18000,"station_id":"ce4bhsh2rcd13ifvqi2g","pricing_plan_id":"cebpf4jnsgd1na2vs0mg"},{"bike_id":"f1c8147a-57b8-418f-b948-db5301d7c210","system_id":"levelo_inurba_marseille","lat":43.3065,"lon":5.40101,"is_reserved":false,"is_disabled":false,"rental_uris":{"android":"levelo://app?vid=f1c8147a-57b8-418f-b948-db5301d7c210","ios":"levelo://app?vid=f1c8147a-57b8-418f-b948-db5301d7c210"},"vehicle_type_id":"4","last_reported":1747753895,"current_range_meters":17600,"station_id":"ce4bh112rcd13ifvqda0","pricing_plan_id":"cebpf4jnsgd1na2vs0mg"},{"bike_id":"f45358a8-0ac6-4e93-84a1-268948cd0333","system_id":"levelo_inurba_marseille","lat":43.286537,"lon":5.363369,"is_reserved":false,"is_disabled":false,"rental_uris":{"android":"levelo://app?vid=f45358a8-0ac6-4e93-84a1-268948cd0333","ios":"levelo://app?vid=f45358a8-0ac6-4e93-84a1-268948cd0333"},"vehicle_type_id":"4","last_reported":1747753895,"current_range_meters":18000,"station_id":"ce4bhah2rcd13ifvqej0","pricing_plan_id":"cebpf4jnsgd1na2vs0mg"},{"bike_id":"371c617a-c2f9-44ab-86c0-1a32667f93d9","system_id":"levelo_inurba_marseille","lat":43.2512,"lon":5.40318,"is_reserved":false,"is_disabled":false,"rental_uris":{"android":"levelo://app?vid=371c617a-c2f9-44ab-86c0-1a32667f93d9","ios":"levelo://app?vid=371c617a-c2f9-44ab-86c0-1a32667f93d9"},"vehicle_type_id":"4","last_reported":1747753895,"current_range_meters":18000,"station_id":"ce4bhlh2rcd13ifvqgig","pricing_plan_id":"cebpf4jnsgd1na2vs0mg"},{"bike_id":"07619ecb-cd4d-4a13-a77a-056be4580fed","system_id":"levelo_inurba_marseille","lat":43.30421,"lon":5.41286,"is_reserved":false,"is_disabled":false,"rental_uris":{"android":"levelo://app?vid=07619ecb-cd4d-4a13-a77a-056be4580fed","ios":"levelo://app?vid=07619ecb-cd4d-4a13-a77a-056be4580fed"},"vehicle_type_id":"4","last_reported":1747753895,"current_range_meters":18000,"station_id":"ce4bhop2rcd13ifvqh8g","pricing_plan_id":"cebpf4jnsgd1na2vs0mg"},{"bike_id":"71f25015-a0dc-4ed9-beb9-a0eb337e364e","system_id":"levelo_inurba_marseille","lat":43.32657,"lon":5.40996,"is_reserved":false,"is_disabled":false,"rental_uris":{"android":"levelo://app?vid=71f25015-a0dc-4ed9-beb9-a0eb337e364e","ios":"levelo://app?vid=71f25015-a0dc-4ed9-beb9-a0eb337e364e"},"vehicle_type_id":"4","last_reported":1747753895,"current_range_meters":18800,"station_id":"ce4bhpp2rcd13ifvqhgg","pricing_plan_id":"cebpf4jnsgd1na2vs0mg"},{"bike_id":"4e38f7d2-3a2f-4430-97f0-7b564ed6c4b9","system_id":"levelo_inurba_marseille","lat":43.21201,"lon":5.35083,"is_reserved":false,"is_disabled":false,"rental_uris":{"android":"levelo://app?vid=4e38f7d2-3a2f-4430-97f0-7b564ed6c4b9","ios":"levelo://app?vid=4e38f7d2-3a2f-4430-97f0-7b564ed6c4b9"},"vehicle_type_id":"4","last_reported":1747753895,"current_range_meters":18800,"station_id":"st_cvj6sg6p6f1abm77japg","pricing_plan_id":"cebpf4jnsgd1na2vs0mg"},{"bike_id":"e31833c9-3629-4b2f-810c-c09df0eb266c","system_id":"levelo_inurba_marseille","lat":43.33751,"lon":5.37509,"is_reserved":false,"is_disabled":false,"rental_uris":{"android":"levelo://app?vid=e31833c9-3629-4b2f-810c-c09df0eb266c","ios":"levelo://app?vid=e31833c9-3629-4b2f-810c-c09df0eb266c"},"vehicle_type_id":"4","last_reported":1747753895,"current_range_meters":18800,"station_id":"","pricing_plan_id":"cebpf4jnsgd1na2vs0mg"},{"bike_id":"551f628e-854e-4df8-95b2-9a088010b2a3","system_id":"levelo_inurba_marseille","lat":43.286377,"lon":5.35074,"is_reserved":false,"is_disabled":false,"rental_uris":{"android":"levelo://app?vid=551f628e-854e-4df8-95b2-9a088010b2a3","ios":"levelo://app?vid=551f628e-854e-4df8-95b2-9a088010b2a3"},"vehicle_type_id":"4","last_reported":1747753895,"current_range_meters":18800,"station_id":"ce4bhch2rcd13ifvqeug","pricing_plan_id":"cebpf4jnsgd1na2vs0mg"},{"bike_id":"509a7bc5-3ed4-44a0-83b3-6bbf477b3a61","system_id":"levelo_inurba_marseille","lat":43.21201,"lon":5.35099,"is_reserved":false,"is_disabled":false,"rental_uris":{"android":"levelo://app?vid=509a7bc5-3ed4-44a0-83b3-6bbf477b3a61","ios":"levelo://app?vid=509a7bc5-3ed4-44a0-83b3-6bbf477b3a61"},"vehicle_type_id":"4","last_reported":1747753895,"current_range_meters":18800,"station_id":"st_cvj6sg6p6f1abm77japg","pricing_plan_id":"cebpf4jnsgd1na2vs0mg"},{"bike_id":"334cb52f-4466-4eb8-b3e7-14acb974b80d","system_id":"levelo_inurba_marseille","lat":43.29872,"lon":5.39746,"is_reserved":false,"is_disabled":false,"rental_uris":{"android":"levelo://app?vid=334cb52f-4466-4eb8-b3e7-14acb974b80d","ios":"levelo://app?vid=334cb52f-4466-4eb8-b3e7-14acb974b80d"},"vehicle_type_id":"4","last_reported":1747753895,"current_range_meters":19200,"station_id":"ce4bh0h2rcd13ifvqd50","pricing_plan_id":"cebpf4jnsgd1na2vs0mg"},{"bike_id":"0747817b-9aff-453b-84d9-b426f156f02b","system_id":"levelo_inurba_marseille","lat":43.3025,"lon":5.40062,"is_reserved":false,"is_disabled":false,"rental_uris":{"android":"levelo://app?vid=0747817b-9aff-453b-84d9-b426f156f02b","ios":"levelo://app?vid=0747817b-9aff-453b-84d9-b426f156f02b"},"vehicle_type_id":"4","last_reported":1747753895,"current_range_meters":18800,"station_id":"ce4bgvh2rcd13ifvqcs0","pricing_plan_id":"cebpf4jnsgd1na2vs0mg"},{"bike_id":"628c52ae-b897-4dca-953c-8475bb2941d3","system_id":"levelo_inurba_marseille","lat":43.21206,"lon":5.35083,"is_reserved":false,"is_disabled":false,"rental_uris":{"android":"levelo://app?vid=628c52ae-b897-4dca-953c-8475bb2941d3","ios":"levelo://app?vid=628c52ae-b897-4dca-953c-8475bb2941d3"},"vehicle_type_id":"4","last_reported":1747753895,"current_range_meters":19200,"station_id":"st_cvj6sg6p6f1abm77japg","pricing_plan_id":"cebpf4jnsgd1na2vs0mg"},{"bike_id":"18d4f046-c73b-4ed1-bd45-69ca2f62023e","system_id":"levelo_inurba_marseille","lat":43.22511,"lon":5.34794,"is_reserved":false,"is_disabled":false,"rental_uris":{"android":"levelo://app?vid=18d4f046-c73b-4ed1-bd45-69ca2f62023e","ios":"levelo://app?vid=18d4f046-c73b-4ed1-bd45-69ca2f62023e"},"vehicle_type_id":"4","last_reported":1747753895,"current_range_meters":19200,"station_id":"st_cvj5dfep6f1abm77gieg","pricing_plan_id":"cebpf4jnsgd1na2vs0mg"},{"bike_id":"c9a00e74-029a-454e-8e85-1b3d994b9d78","system_id":"levelo_inurba_marseille","lat":43.211926,"lon":5.350759,"is_reserved":false,"is_disabled":false,"rental_uris":{"android":"levelo://app?vid=c9a00e74-029a-454e-8e85-1b3d994b9d78","ios":"levelo://app?vid=c9a00e74-029a-454e-8e85-1b3d994b9d78"},"vehicle_type_id":"4","last_reported":1747753895,"current_range_meters":19200,"station_id":"st_cvj6sg6p6f1abm77japg","pricing_plan_id":"cebpf4jnsgd1na2vs0mg"},{"bike_id":"5f670b2c-f3ff-4f35-8f16-84ecc20640d8","system_id":"levelo_inurba_marseille","lat":43.28966,"lon":5.39672,"is_reserved":false,"is_disabled":true,"rental_uris":{"android":"levelo://app?vid=5f670b2c-f3ff-4f35-8f16-84ecc20640d8","ios":"levelo://app?vid=5f670b2c-f3ff-4f35-8f16-84ecc20640d8"},"vehicle_type_id":"4","last_reported":1747753895,"current_range_meters":19200,"station_id":"ce4bh3h2rcd13ifvqdn0","pricing_plan_id":"cebpf4jnsgd1na2vs0mg"},{"bike_id":"abddf365-204c-4f8c-83df-344d02d6adef","system_id":"levelo_inurba_marseille","lat":43.30554,"lon":5.36551,"is_reserved":false,"is_disabled":false,"rental_uris":{"android":"levelo://app?vid=abddf365-204c-4f8c-83df-344d02d6adef","ios":"levelo://app?vid=abddf365-204c-4f8c-83df-344d02d6adef"},"vehicle_type_id":"4","last_reported":1747753895,"current_range_meters":19200,"station_id":"ce4bgs12rcd13ifvqcag","pricing_plan_id":"cebpf4jnsgd1na2vs0mg"},{"bike_id":"c4f0ddbf-912f-4dc6-81b8-da7688e7978e","system_id":"levelo_inurba_marseille","lat":43.30815,"lon":5.43533,"is_reserved":false,"is_disabled":false,"rental_uris":{"android":"levelo://app?vid=c4f0ddbf-912f-4dc6-81b8-da7688e7978e","ios":"levelo://app?vid=c4f0ddbf-912f-4dc6-81b8-da7688e7978e"},"vehicle_type_id":"4","last_reported":1747753895,"current_range_meters":19200,"station_id":"ce4bhph2rcd13ifvqheg","pricing_plan_id":"cebpf4jnsgd1na2vs0mg"},{"bike_id":"e9b8f93c-0e12-41b3-b49f-d4e8ae170d04","system_id":"levelo_inurba_marseille","lat":43.29614,"lon":5.3811,"is_reserved":false,"is_disabled":false,"rental_uris":{"android":"levelo://app?vid=e9b8f93c-0e12-41b3-b49f-d4e8ae170d04","ios":"levelo://app?vid=e9b8f93c-0e12-41b3-b49f-d4e8ae170d04"},"vehicle_type_id":"4","last_reported":1747753895,"current_range_meters":19200,"station_id":"ce4bgl12rcd13ifvqbo0","pricing_plan_id":"cebpf4jnsgd1na2vs0mg"},{"bike_id":"8bb7d43c-e583-40c0-9a6a-a2f0c4f03243","system_id":"levelo_inurba_marseille","lat":43.29249,"lon":5.40903,"is_reserved":false,"is_disabled":false,"rental_uris":{"android":"levelo://app?vid=8bb7d43c-e583-40c0-9a6a-a2f0c4f03243","ios":"levelo://app?vid=8bb7d43c-e583-40c0-9a6a-a2f0c4f03243"},"vehicle_type_id":"4","last_reported":1747753895,"current_range_meters":19200,"station_id":"ce4bh192rcd13ifvqdc0","pricing_plan_id":"cebpf4jnsgd1na2vs0mg"},{"bike_id":"203dadeb-953b-4d6a-9ebb-4fa54f4017a1","system_id":"levelo_inurba_marseille","lat":43.290156,"lon":5.386682,"is_reserved":false,"is_disabled":false,"rental_uris":{"android":"levelo://app?vid=203dadeb-953b-4d6a-9ebb-4fa54f4017a1","ios":"levelo://app?vid=203dadeb-953b-4d6a-9ebb-4fa54f4017a1"},"vehicle_type_id":"4","last_reported":1747753895,"current_range_meters":19200,"station_id":"ce4bh4p2rcd13ifvqe0g","pricing_plan_id":"cebpf4jnsgd1na2vs0mg"},{"bike_id":"2952ade9-356c-4336-99a1-396e23965977","system_id":"levelo_inurba_marseille","lat":43.28417,"lon":5.375,"is_reserved":false,"is_disabled":false,"rental_uris":{"android":"levelo://app?vid=2952ade9-356c-4336-99a1-396e23965977","ios":"levelo://app?vid=2952ade9-356c-4336-99a1-396e23965977"},"vehicle_type_id":"4","last_reported":1747753895,"current_range_meters":19200,"station_id":"ce4bh412rcd13ifvqds0","pricing_plan_id":"cebpf4jnsgd1na2vs0mg"},{"bike_id":"cd7a59d1-75b3-4339-ba6d-cc5d9ea41cdb","system_id":"levelo_inurba_marseille","lat":43.26508,"lon":5.39539,"is_reserved":false,"is_disabled":false,"rental_uris":{"android":"levelo://app?vid=cd7a59d1-75b3-4339-ba6d-cc5d9ea41cdb","ios":"levelo://app?vid=cd7a59d1-75b3-4339-ba6d-cc5d9ea41cdb"},"vehicle_type_id":"4","last_reported":1747753895,"current_range_meters":19200,"station_id":"ce4bhi12rcd13ifvqfq0","pricing_plan_id":"cebpf4jnsgd1na2vs0mg"},{"bike_id":"1a091a66-2e68-4ded-9fc5-3d6f9e9f6f62","system_id":"levelo_inurba_marseille","lat":43.321047,"lon":5.367987,"is_reserved":false,"is_disabled":false,"rental_uris":{"android":"levelo://app?vid=1a091a66-2e68-4ded-9fc5-3d6f9e9f6f62","ios":"levelo://app?vid=1a091a66-2e68-4ded-9fc5-3d6f9e9f6f62"},"vehicle_type_id":"4","last_reported":1747753895,"current_range_meters":19600,"station_id":"ce4bhrh2rcd13ifvqhug","pricing_plan_id":"cebpf4jnsgd1na2vs0mg"},{"bike_id":"04a572ec-ba63-4ce3-9533-47bc1cfab6c2","system_id":"levelo_inurba_marseille","lat":43.29269,"lon":5.3761,"is_reserved":false,"is_disabled":false,"rental_uris":{"android":"levelo://app?vid=04a572ec-ba63-4ce3-9533-47bc1cfab6c2","ios":"levelo://app?vid=04a572ec-ba63-4ce3-9533-47bc1cfab6c2"},"vehicle_type_id":"4","last_reported":1747753895,"current_range_meters":19600,"station_id":"ce4bgi12rcd13ifvqb80","pricing_plan_id":"cebpf4jnsgd1na2vs0mg"},{"bike_id":"f1364355-6199-4dd5-b613-3eacd7eff8e0","system_id":"levelo_inurba_marseille","lat":43.2669,"lon":5.38264,"is_reserved":false,"is_disabled":false,"rental_uris":{"android":"levelo://app?vid=f1364355-6199-4dd5-b613-3eacd7eff8e0","ios":"levelo://app?vid=f1364355-6199-4dd5-b613-3eacd7eff8e0"},"vehicle_type_id":"4","last_reported":1747753895,"current_range_meters":19600,"station_id":"ce4bhg92rcd13ifvqf90","pricing_plan_id":"cebpf4jnsgd1na2vs0mg"},{"bike_id":"caafd2a4-1c6d-4f8a-b1d7-d42291ef073a","system_id":"levelo_inurba_marseille","lat":43.330277,"lon":5.390371,"is_reserved":false,"is_disabled":false,"rental_uris":{"android":"levelo://app?vid=caafd2a4-1c6d-4f8a-b1d7-d42291ef073a","ios":"levelo://app?vid=caafd2a4-1c6d-4f8a-b1d7-d42291ef073a"},"vehicle_type_id":"4","last_reported":1747753895,"current_range_meters":19600,"station_id":"ce4bhr92rcd13ifvqhrg","pricing_plan_id":"cebpf4jnsgd1na2vs0mg"},{"bike_id":"ac54cb9d-c717-4084-9363-e0498a0029df","system_id":"levelo_inurba_marseille","lat":43.27946,"lon":5.41058,"is_reserved":false,"is_disabled":false,"rental_uris":{"android":"levelo://app?vid=ac54cb9d-c717-4084-9363-e0498a0029df","ios":"levelo://app?vid=ac54cb9d-c717-4084-9363-e0498a0029df"},"vehicle_type_id":"4","last_reported":1747753895,"current_range_meters":19600,"station_id":"ce4bhnp2rcd13ifvqh0g","pricing_plan_id":"cebpf4jnsgd1na2vs0mg"},{"bike_id":"2231e068-67e3-4732-9325-d76b2a4c3fb6","system_id":"levelo_inurba_marseille","lat":43.29599,"lon":5.38099,"is_reserved":false,"is_disabled":false,"rental_uris":{"android":"levelo://app?vid=2231e068-67e3-4732-9325-d76b2a4c3fb6","ios":"levelo://app?vid=2231e068-67e3-4732-9325-d76b2a4c3fb6"},"vehicle_type_id":"4","last_reported":1747753895,"current_range_meters":19600,"station_id":"ce4bgl12rcd13ifvqbo0","pricing_plan_id":"cebpf4jnsgd1na2vs0mg"},{"bike_id":"9ceb2e87-e833-43ce-b233-11048308991d","system_id":"levelo_inurba_marseille","lat":43.27993,"lon":5.41663,"is_reserved":false,"is_disabled":false,"rental_uris":{"android":"levelo://app?vid=9ceb2e87-e833-43ce-b233-11048308991d","ios":"levelo://app?vid=9ceb2e87-e833-43ce-b233-11048308991d"},"vehicle_type_id":"4","last_reported":1747753895,"current_range_meters":19600,"station_id":"ce4bho12rcd13ifvqh1g","pricing_plan_id":"cebpf4jnsgd1na2vs0mg"},{"bike_id":"1267645d-0d0c-4c9c-b674-af8404aff11a","system_id":"levelo_inurba_marseille","lat":43.274261,"lon":5.361865,"is_reserved":false,"is_disabled":false,"rental_uris":{"android":"levelo://app?vid=1267645d-0d0c-4c9c-b674-af8404aff11a","ios":"levelo://app?vid=1267645d-0d0c-4c9c-b674-af8404aff11a"},"vehicle_type_id":"4","last_reported":1747753895,"current_range_meters":19600,"station_id":"ce4bhbh2rcd13ifvqeo0","pricing_plan_id":"cebpf4jnsgd1na2vs0mg"},{"bike_id":"0769c9c1-8f68-46b2-bcff-7e548177af2c","system_id":"levelo_inurba_marseille","lat":43.24827,"lon":5.37444,"is_reserved":false,"is_disabled":false,"rental_uris":{"android":"levelo://app?vid=0769c9c1-8f68-46b2-bcff-7e548177af2c","ios":"levelo://app?vid=0769c9c1-8f68-46b2-bcff-7e548177af2c"},"vehicle_type_id":"4","last_reported":1747753895,"current_range_meters":20000,"station_id":"ce4bhgh2rcd13ifvqfb0","pricing_plan_id":"cebpf4jnsgd1na2vs0mg"},{"bike_id":"d374a47e-be60-4be3-816d-5458b5e23d34","system_id":"levelo_inurba_marseille","lat":43.231934,"lon":5.355567,"is_reserved":false,"is_disabled":false,"rental_uris":{"android":"levelo://app?vid=d374a47e-be60-4be3-816d-5458b5e23d34","ios":"levelo://app?vid=d374a47e-be60-4be3-816d-5458b5e23d34"},"vehicle_type_id":"4","last_reported":1747753895,"current_range_meters":20000,"station_id":"ce4bhu92rcd13ifvqi70","pricing_plan_id":"cebpf4jnsgd1na2vs0mg"},{"bike_id":"22a79479-07f4-42d2-b3f5-5bb9587b09c4","system_id":"levelo_inurba_marseille","lat":43.29875,"lon":5.39731,"is_reserved":false,"is_disabled":false,"rental_uris":{"android":"levelo://app?vid=22a79479-07f4-42d2-b3f5-5bb9587b09c4","ios":"levelo://app?vid=22a79479-07f4-42d2-b3f5-5bb9587b09c4"},"vehicle_type_id":"4","last_reported":1747753895,"current_range_meters":20400,"station_id":"ce4bh0h2rcd13ifvqd50","pricing_plan_id":"cebpf4jnsgd1na2vs0mg"},{"bike_id":"18d50df9-e7aa-4c2a-8b6f-f05c45f1d2ef","system_id":"levelo_inurba_marseille","lat":43.29954,"lon":5.37158,"is_reserved":false,"is_disabled":false,"rental_uris":{"android":"levelo://app?vid=18d50df9-e7aa-4c2a-8b6f-f05c45f1d2ef","ios":"levelo://app?vid=18d50df9-e7aa-4c2a-8b6f-f05c45f1d2ef"},"vehicle_type_id":"4","last_reported":1747753895,"current_range_meters":20000,"station_id":"ce4bgr92rcd13ifvqc7g","pricing_plan_id":"cebpf4jnsgd1na2vs0mg"},{"bike_id":"5cdd2fac-b714-41f4-94c7-4bc52d6679fe","system_id":"levelo_inurba_marseille","lat":43.25108,"lon":5.40326,"is_reserved":false,"is_disabled":false,"rental_uris":{"android":"levelo://app?vid=5cdd2fac-b714-41f4-94c7-4bc52d6679fe","ios":"levelo://app?vid=5cdd2fac-b714-41f4-94c7-4bc52d6679fe"},"vehicle_type_id":"4","last_reported":1747753895,"current_range_meters":20000,"station_id":"ce4bhlh2rcd13ifvqgig","pricing_plan_id":"cebpf4jnsgd1na2vs0mg"},{"bike_id":"f1bc38e1-7bd1-43a6-bd07-32477720b5f1","system_id":"levelo_inurba_marseille","lat":43.25576,"lon":5.38233,"is_reserved":false,"is_disabled":false,"rental_uris":{"android":"levelo://app?vid=f1bc38e1-7bd1-43a6-bd07-32477720b5f1","ios":"levelo://app?vid=f1bc38e1-7bd1-43a6-bd07-32477720b5f1"},