{"last_updated":1758467324,"ttl":60,"version":"2.2","data":{"bikes":[{"bike_id":"adbbec83-b051-4e7f-a394-5fdc9b2b0234","system_id":"levelo_inurba_marseille","lat":43.32089,"lon":5.38455,"is_reserved":false,"is_disabled":false,"rental_uris":{"android":"levelo://app?vid=adbbec83-b051-4e7f-a394-5fdc9b2b0234","ios":"levelo://app?vid=adbbec83-b051-4e7f-a394-5fdc9b2b0234"},"vehicle_type_id":"4","last_reported":1758467324,"current_range_meters":2800,"station_id":"","pricing_plan_id":"cebpf4jnsgd1na2vs0mg"},{"bike_id":"64dc2c89-1a72-4cc3-9f93-441a19025b3f","system_id":"levelo_inurba_marseille","lat":43.23152,"lon":5.43721,"is_reserved":false,"is_disabled":false,"rental_uris":{"android":"levelo://app?vid=64dc2c89-1a72-4cc3-9f93-441a19025b3f","ios":"levelo://app?vid=64dc2c89-1a72-4cc3-9f93-441a19025b3f"},"vehicle_type_id":"4","last_reported":1758467324,"current_range_meters":2000,"station_id":"ce4bhmp2rcd13ifvqgog","pricing_plan_id":"cebpf4jnsgd1na2vs0mg"},{"bike_id":"3c9735e9-fd7e-4079-8199-725760347837","system_id":"levelo_inurba_marseille","lat":43.2119,"lon":5.35082,"is_reserved":false,"is_disabled":false,"rental_uris":{"android":"levelo://app?vid=3c9735e9-fd7e-4079-8199-725760347837","ios":"levelo://app?vid=3c9735e9-fd7e-4079-8199-725760347837"},"vehicle_type_id":"4","last_reported":1758467324,"current_range_meters":3200,"station_id":"st_cvj6sg6p6f1abm77japg","pricing_plan_id":"cebpf4jnsgd1na2vs0mg"},{"bike_id":"e1065c32-ac19-477b-812a-39f964d50769","system_id":"levelo_inurba_marseille","lat":43.23207,"lon":5.3555,"is_reserved":false,"is_disabled":true,"rental_uris":{"android":"levelo://app?vid=e1065c32-ac19-477b-812a-39f964d50769","ios":"levelo://app?vid=e1065c32-ac19-477b-812a-39f964d50769"},"vehicle_type_id":"4","last_reported":1758467324,"current_range_meters":3200,"station_id":"ce4bhu92rcd13ifvqi70","pricing_plan_id":"cebpf4jnsgd1na2vs0mg"},{"bike_id":"6dc49f8f-31b8-485c-b489-e3fd253e6676","system_id":"levelo_inurba_marseille","lat":43.32668,"lon":5.40994,"is_reserved":false,"is_disabled":true,"rental_uris":{"android":"levelo://app?vid=6dc49f8f-31b8-485c-b489-e3fd253e6676","ios":"levelo://app?vid=6dc49f8f-31b8-485c-b489-e3fd253e6676"},"vehicle_type_id":"4","last_reported":1758467324,"current_range_meters":3600,"station_id":"ce4bhpp2rcd13ifvqhgg","pricing_plan_id":"cebpf4jnsgd1na2vs0mg"},{"bike_id":"0960e3dd-c358-4474-bd10-8223758e1f6b","system_id":"levelo_inurba_marseille","lat":43.296996,"lon":5.376855,"is_reserved":false,"is_disabled":false,"rental_uris":{"android":"levelo://app?vid=0960e3dd-c358-4474-bd10-8223758e1f6b","ios":"levelo://app?vid=0960e3dd-c358-4474-bd10-8223758e1f6b"},"vehicle_type_id":"4","last_reported":1758467324,"current_range_meters":3600,"station_id":"","pricing_plan_id":"cebpf4jnsgd1na2vs0mg"},{"bike_id":"ab5b9659-77bc-417b-8f8b-7002662fbf28","system_id":"levelo_inurba_marseille","lat":43.29323,"lon":5.41146,"is_reserved":false,"is_disabled":false,"rental_uris":{"android":"levelo://app?vid=ab5b9659-77bc-417b-8f8b-7002662fbf28","ios":"levelo://app?vid=ab5b9659-77bc-417b-8f8b-7002662fbf28"},"vehicle_type_id":"4","last_reported":1758467324,"current_range_meters":3600,"station_id":"","pricing_plan_id":"cebpf4jnsgd1na2vs0mg"},{"bike_id":"c627b34a-8e81-4438-af3b-4fd0aab1c160","system_id":"levelo_inurba_marseille","lat":43.29656,"lon":5.36009,"is_reserved":false,"is_disabled":false,"rental_uris":{"android":"levelo://app?vid=c627b34a-8e81-4438-af3b-4fd0aab1c160","ios":"levelo://app?vid=c627b34a-8e81-4438-af3b-4fd0aab1c160"},"vehicle_type_id":"4","last_reported":1758467324,"current_range_meters":4000,"station_id":"","pricing_plan_id":"cebpf4jnsgd1na2vs0mg"},{"bike_id":"cb733ef9-6b0c-41ea-8e73-019490cba6df","system_id":"levelo_inurba_marseille","lat":43.27859,"lon":5.42551,"is_reserved":false,"is_disabled":false,"rental_uris":{"android":"levelo://app?vid=cb733ef9-6b0c-41ea-8e73-019490cba6df","ios":"levelo://app?vid=cb733ef9-6b0c-41ea-8e73-019490cba6df"},"vehicle_type_id":"4","last_reported":1758467324,"current_range_meters":4000,"station_id":"","pricing_plan_id":"cebpf4jnsgd1na2vs0mg"},{"bike_id":"1dbc6ff6-de1e-44f5-9332-c8820f81075d","system_id":"levelo_inurba_marseille","lat":43.21198,"lon":5.35072,"is_reserved":false,"is_disabled":true,"rental_uris":{"android":"levelo://app?vid=1dbc6ff6-de1e-44f5-9332-c8820f81075d","ios":"levelo://app?vid=1dbc6ff6-de1e-44f5-9332-c8820f81075d"},"vehicle_type_id":"4","last_reported":1758467324,"current_range_meters":4400,"station_id":"st_cvj6sg6p6f1abm77japg","pricing_plan_id":"cebpf4jnsgd1na2vs0mg"},{"bike_id":"94b23a7b-4fdd-4fb2-aac0-191eedfb416b","system_id":"levelo_inurba_marseille","lat":43.29448,"lon":5.39753,"is_reserved":false,"is_disabled":false,"rental_uris":{"android":"levelo://app?vid=94b23a7b-4fdd-4fb2-aac0-191eedfb416b","ios":"levelo://app?vid=94b23a7b-4fdd-4fb2-aac0-191eedfb416b"},"vehicle_type_id":"4","last_reported":1758467324,"current_range_meters":4400,"station_id":"ce4bh3h2rcd13ifvqdo0","pricing_plan_id":"cebpf4jnsgd1na2vs0mg"},{"bike_id":"7dd65b1b-fb7b-4087-9803-34d477de11ae","system_id":"levelo_inurba_marseille","lat":43.21185,"lon":5.35061,"is_reserved":false,"is_disabled":false,"rental_uris":{"android":"levelo://app?vid=7dd65b1b-fb7b-4087-9803-34d477de11ae","ios":"levelo://app?vid=7dd65b1b-fb7b-4087-9803-34d477de11ae"},"vehicle_type_id":"4","last_reported":1758467324,"current_range_meters":4800,"station_id":"st_cvj6sg6p6f1abm77japg","pricing_plan_id":"cebpf4jnsgd1na2vs0mg"},{"bike_id":"3082f593-a5a6-48f9-afa8-383813f7af0b","system_id":"levelo_inurba_marseille","lat":43.21763,"lon":5.34567,"is_reserved":false,"is_disabled":false,"rental_uris":{"android":"levelo://app?vid=3082f593-a5a6-48f9-afa8-383813f7af0b","ios":"levelo://app?vid=3082f593-a5a6-48f9-afa8-383813f7af0b"},"vehicle_type_id":"4","last_reported":1758467324,"current_range_meters":4800,"station_id":"st_cvj6r9ubvosntc0bgbag","pricing_plan_id":"cebpf4jnsgd1na2vs0mg"},{"bike_id":"3e2bb6a5-30eb-4324-b411-d597c227ebae","system_id":"levelo_inurba_marseille","lat":43.26682,"lon":5.37542,"is_reserved":false,"is_disabled":false,"rental_uris":{"android":"levelo://app?vid=3e2bb6a5-30eb-4324-b411-d597c227ebae","ios":"levelo://app?vid=3e2bb6a5-30eb-4324-b411-d597c227ebae"},"vehicle_type_id":"4","last_reported":1758467324,"current_range_meters":4800,"station_id":"","pricing_plan_id":"cebpf4jnsgd1na2vs0mg"},{"bike_id":"12ed6c49-784d-4e90-9587-47eae4f126ab","system_id":"levelo_inurba_marseille","lat":43.21743,"lon":5.34596,"is_reserved":false,"is_disabled":true,"rental_uris":{"android":"levelo://app?vid=12ed6c49-784d-4e90-9587-47eae4f126ab","ios":"levelo://app?vid=12ed6c49-784d-4e90-9587-47eae4f126ab"},"vehicle_type_id":"4","last_reported":1758467324,"current_range_meters":4800,"station_id":"st_cvj6r9ubvosntc0bgbag","pricing_plan_id":"cebpf4jnsgd1na2vs0mg"},{"bike_id":"01d3e4a9-f268-46f6-8ce0-5d5d72d657cc","system_id":"levelo_inurba_marseille","lat":43.292774,"lon":5.368387,"is_reserved":false,"is_disabled":false,"rental_uris":{"android":"levelo://app?vid=01d3e4a9-f268-46f6-8ce0-5d5d72d657cc","ios":"levelo://app?vid=01d3e4a9-f268-46f6-8ce0-5d5d72d657cc"},"vehicle_type_id":"4","last_reported":1758467324,"current_range_meters":5600,"station_id":"","pricing_plan_id":"cebpf4jnsgd1na2vs0mg"},{"bike_id":"6d0ef348-fd86-4c26-9096-d229d04ea986","system_id":"levelo_inurba_marseille","lat":43.27895,"lon":5.40558,"is_reserved":false,"is_disabled":false,"rental_uris":{"android":"levelo://app?vid=6d0ef348-fd86-4c26-9096-d229d04ea986","ios":"levelo://app?vid=6d0ef348-fd86-4c26-9096-d229d04ea986"},"vehicle_type_id":"4","last_reported":1758467324,"current_range_meters":5600,"station_id":"","pricing_plan_id":"cebpf4jnsgd1na2vs0mg"},{"bike_id":"42704bee-9abe-4e63-b823-b9e5e0082fc5","system_id":"levelo_inurba_marseille","lat":43.31701,"lon":5.437,"is_reserved":false,"is_disabled":true,"rental_uris":{"android":"levelo://app?vid=42704bee-9abe-4e63-b823-b9e5e0082fc5","ios":"levelo://app?vid=42704bee-9abe-4e63-b823-b9e5e0082fc5"},"vehicle_type_id":"4","last_reported":1758467324,"current_range_meters":6000,"station_id":"ce4bhp92rcd13ifvqhcg","pricing_plan_id":"cebpf4jnsgd1na2vs0mg"},{"bike_id":"04ac4072-76af-404d-8a72-a8ffe8ae8fcc","system_id":"levelo_inurba_marseille","lat":43.31041,"lon":5.40097,"is_reserved":false,"is_disabled":true,"rental_uris":{"android":"levelo://app?vid=04ac4072-76af-404d-8a72-a8ffe8ae8fcc","ios":"levelo://app?vid=04ac4072-76af-404d-8a72-a8ffe8ae8fcc"},"vehicle_type_id":"4","last_reported":1758467324,"current_range_meters":6000,"station_id":"","pricing_plan_id":"cebpf4jnsgd1na2vs0mg"},{"bike_id":"683c706c-4fdb-4b61-b1b7-36af610da411","system_id":"levelo_inurba_marseille","lat":43.30541,"lon":5.36562,"is_reserved":false,"is_disabled":false,"rental_uris":{"android":"levelo://app?vid=683c706c-4fdb-4b61-b1b7-36af610da411","ios":"levelo://app?vid=683c706c-4fdb-4b61-b1b7-36af610da411"},"vehicle_type_id":"4","last_reported":1758467324,"current_range_meters":6000,"station_id":"ce4bgs12rcd13ifvqcag","pricing_plan_id":"cebpf4jnsgd1na2vs0mg"},{"bike_id":"fcb3f6af-c7d4-4ccc-be82-7f951e8865a2","system_id":"levelo_inurba_marseille","lat":43.21184,"lon":5.35062,"is_reserved":false,"is_disabled":false,"rental_uris":{"android":"levelo://app?vid=fcb3f6af-c7d4-4ccc-be82-7f951e8865a2","ios":"levelo://app?vid=fcb3f6af-c7d4-4ccc-be82-7f951e8865a2"},"vehicle_type_id":"4","last_reported":1758467324,"current_range_meters":6400,"station_id":"st_cvj6sg6p6f1abm77japg","pricing_plan_id":"cebpf4jnsgd1na2vs0mg"},{"bike_id":"900069bd-a0c2-455f-8a3e-a71cd88b70b2","system_id":"levelo_inurba_marseille","lat":43.29801,"lon":5.38077,"is_reserved":false,"is_disabled":false,"rental_uris":{"android":"levelo://app?vid=900069bd-a0c2-455f-8a3e-a71cd88b70b2","ios":"levelo://app?vid=900069bd-a0c2-455f-8a3e-a71cd88b70b2"},"vehicle_type_id":"4","last_reported":1758467324,"current_range_meters":6400,"station_id":"ce4bgip2rcd13ifvqbb0","pricing_plan_id":"cebpf4jnsgd1na2vs0mg"},{"bike_id":"ae5ccd80-2896-4733-9148-6522e9bbfe0c","system_id":"levelo_inurba_marseille","lat":43.22564,"lon":5.41627,"is_reserved":false,"is_disabled":true,"rental_uris":{"android":"levelo://app?vid=ae5ccd80-2896-4733-9148-6522e9bbfe0c","ios":"levelo://app?vid=ae5ccd80-2896-4733-9148-6522e9bbfe0c"},"vehicle_type_id":"4","last_reported":1758467324,"current_range_meters":6400,"station_id":"st_d2o4gvlbi1j2169b742g","pricing_plan_id":"cebpf4jnsgd1na2vs0mg"},{"bike_id":"e6f59a7f-e88f-4d65-bed3-135ed8be6983","system_id":"levelo_inurba_marseille","lat":43.32551,"lon":5.39103,"is_reserved":false,"is_disabled":true,"rental_uris":{"android":"levelo://app?vid=e6f59a7f-e88f-4d65-bed3-135ed8be6983","ios":"levelo://app?vid=e6f59a7f-e88f-4d65-bed3-135ed8be6983"},"vehicle_type_id":"4","last_reported":1758467324,"current_range_meters":6400,"station_id":"","pricing_plan_id":"cebpf4jnsgd1na2vs0mg"},{"bike_id":"6e7f1998-b430-4ce9-a227-894af97a4db3","system_id":"levelo_inurba_marseille","lat":43.28481,"lon":5.38393,"is_reserved":false,"is_disabled":false,"rental_uris":{"android":"levelo://app?vid=6e7f1998-b430-4ce9-a227-894af97a4db3","ios":"levelo://app?vid=6e7f1998-b430-4ce9-a227-894af97a4db3"},"vehicle_type_id":"4","last_reported":1758467324,"current_range_meters":4400,"station_id":"ce4bh512rcd13ifvqe3g","pricing_plan_id":"cebpf4jnsgd1na2vs0mg"},{"bike_id":"fb995bc5-3894-4487-abcd-e5b9a8d3d3a0","system_id":"levelo_inurba_marseille","lat":43.24284,"lon":5.4026,"is_reserved":false,"is_disabled":false,"rental_uris":{"android":"levelo://app?vid=fb995bc5-3894-4487-abcd-e5b9a8d3d3a0","ios":"levelo://app?vid=fb995bc5-3894-4487-abcd-e5b9a8d3d3a0"},"vehicle_type_id":"4","last_reported":1758467324,"current_range_meters":6800,"station_id":"","pricing_plan_id":"cebpf4jnsgd1na2vs0mg"},{"bike_id":"617dca4b-4508-4d52-9e62-d583d919ac44","system_id":"levelo_inurba_marseille","lat":43.29733,"lon":5.37133,"is_reserved":false,"is_disabled":false,"rental_uris":{"android":"levelo://app?vid=617dca4b-4508-4d52-9e62-d583d919ac44","ios":"levelo://app?vid=617dca4b-4508-4d52-9e62-d583d919ac44"},"vehicle_type_id":"4","last_reported":1758467324,"current_range_meters":6800,"station_id":"","pricing_plan_id":"cebpf4jnsgd1na2vs0mg"},{"bike_id":"c4706891-6ce1-4440-91ff-a3ecf2ff007e","system_id":"levelo_inurba_marseille","lat":43.26374,"lon":5.40075,"is_reserved":false,"is_disabled":false,"rental_uris":{"android":"levelo://app?vid=c4706891-6ce1-4440-91ff-a3ecf2ff007e","ios":"levelo://app?vid=c4706891-6ce1-4440-91ff-a3ecf2ff007e"},"vehicle_type_id":"4","last_reported":1758467324,"current_range_meters":7200,"station_id":"","pricing_plan_id":"cebpf4jnsgd1na2vs0mg"},{"bike_id":"5b84af94-a4d6-4b46-a63f-085ff5681f73","system_id":"levelo_inurba_marseille","lat":43.21195,"lon":5.350645,"is_reserved":false,"is_disabled":false,"rental_uris":{"android":"levelo://app?vid=5b84af94-a4d6-4b46-a63f-085ff5681f73","ios":"levelo://app?vid=5b84af94-a4d6-4b46-a63f-085ff5681f73"},"vehicle_type_id":"4","last_reported":1758467324,"current_range_meters":7200,"station_id":"st_cvj6sg6p6f1abm77japg","pricing_plan_id":"cebpf4jnsgd1na2vs0mg"},{"bike_id":"cae7e830-90f4-4ab7-81c8-2ab65b424d7f","system_id":"levelo_inurba_marseille","lat":43.32368,"lon":5.38879,"is_reserved":false,"is_disabled":false,"rental_uris":{"android":"levelo://app?vid=cae7e830-90f4-4ab7-81c8-2ab65b424d7f","ios":"levelo://app?vid=cae7e830-90f4-4ab7-81c8-2ab65b424d7f"},"vehicle_type_id":"4","last_reported":1758467324,"current_range_meters":7200,"station_id":"ce4bhqp2rcd13ifvqhog","pricing_plan_id":"cebpf4jnsgd1na2vs0mg"},{"bike_id":"3116075e-fa9b-423b-beef-aeee538d6e30","system_id":"levelo_inurba_marseille","lat":43.2174,"lon":5.34603,"is_reserved":false,"is_disabled":false,"rental_uris":{"android":"levelo://app?vid=3116075e-fa9b-423b-beef-aeee538d6e30","ios":"levelo://app?vid=3116075e-fa9b-423b-beef-aeee538d6e30"},"vehicle_type_id":"4","last_reported":1758467324,"current_range_meters":8000,"station_id":"st_cvj6r9ubvosntc0bgbag","pricing_plan_id":"cebpf4jnsgd1na2vs0mg"},{"bike_id":"c160968f-4e19-4ca1-aa3a-d9079bc58667","system_id":"levelo_inurba_marseille","lat":43.3235,"lon":5.36744,"is_reserved":false,"is_disabled":false,"rental_uris":{"android":"levelo://app?vid=c160968f-4e19-4ca1-aa3a-d9079bc58667","ios":"levelo://app?vid=c160968f-4e19-4ca1-aa3a-d9079bc58667"},"vehicle_type_id":"4","last_reported":1758467324,"current_range_meters":8000,"station_id":"ce4bhsh2rcd13ifvqi2g","pricing_plan_id":"cebpf4jnsgd1na2vs0mg"},{"bike_id":"98e8af00-4b83-49fb-a286-0d2396c92bd0","system_id":"levelo_inurba_marseille","lat":43.309104,"lon":5.368394,"is_reserved":false,"is_disabled":true,"rental_uris":{"android":"levelo://app?vid=98e8af00-4b83-49fb-a286-0d2396c92bd0","ios":"levelo://app?vid=98e8af00-4b83-49fb-a286-0d2396c92bd0"},"vehicle_type_id":"4","last_reported":1758467324,"current_range_meters":8000,"station_id":"ce4bgn92rcd13ifvqbvg","pricing_plan_id":"cebpf4jnsgd1na2vs0mg"},{"bike_id":"9637c146-59d7-436a-a4f3-e8022fe36949","system_id":"levelo_inurba_marseille","lat":43.2119,"lon":5.3508,"is_reserved":false,"is_disabled":false,"rental_uris":{"android":"levelo://app?vid=9637c146-59d7-436a-a4f3-e8022fe36949","ios":"levelo://app?vid=9637c146-59d7-436a-a4f3-e8022fe36949"},"vehicle_type_id":"4","last_reported":1758467324,"current_range_meters":8000,"station_id":"st_cvj6sg6p6f1abm77japg","pricing_plan_id":"cebpf4jnsgd1na2vs0mg"},{"bike_id":"41d41162-c451-4e5f-8bcf-1c9a70c5510c","system_id":"levelo_inurba_marseille","lat":43.29609,"lon":5.37705,"is_reserved":false,"is_disabled":true,"rental_uris":{"android":"levelo://app?vid=41d41162-c451-4e5f-8bcf-1c9a70c5510c","ios":"levelo://app?vid=41d41162-c451-4e5f-8bcf-1c9a70c5510c"},"vehicle_type_id":"4","last_reported":1758467324,"current_range_meters":8000,"station_id":"ce4bgi92rcd13ifvqb90","pricing_plan_id":"cebpf4jnsgd1na2vs0mg"},{"bike_id":"67115f0a-62b4-490a-bc57-71f8584aaebf","system_id":"levelo_inurba_marseille","lat":43.24981,"lon":5.42448,"is_reserved":false,"is_disabled":true,"rental_uris":{"android":"levelo://app?vid=67115f0a-62b4-490a-bc57-71f8584aaebf","ios":"levelo://app?vid=67115f0a-62b4-490a-bc57-71f8584aaebf"},"vehicle_type_id":"4","last_reported":1758467324,"current_range_meters":8000,"station_id":"","pricing_plan_id":"cebpf4jnsgd1na2vs0mg"},{"bike_id":"284e5dc7-9aa4-4996-a049-3639bfbc7f92","system_id":"levelo_inurba_marseille","lat":43.30811,"lon":5.37662,"is_reserved":false,"is_disabled":false,"rental_uris":{"android":"levelo://app?vid=284e5dc7-9aa4-4996-a049-3639bfbc7f92","ios":"levelo://app?vid=284e5dc7-9aa4-4996-a049-3639bfbc7f92"},"vehicle_type_id":"4","last_reported":1758467324,"current_range_meters":8000,"station_id":"ce4bgv92rcd13ifvqcq0","pricing_plan_id":"cebpf4jnsgd1na2vs0mg"},{"bike_id":"9fbe4146-f4d2-4d5b-a368-5615a65b9c9c","system_id":"levelo_inurba_marseille","lat":43.30523,"lon":5.36538,"is_reserved":false,"is_disabled":false,"rental_uris":{"android":"levelo://app?vid=9fbe4146-f4d2-4d5b-a368-5615a65b9c9c","ios":"levelo://app?vid=9fbe4146-f4d2-4d5b-a368-5615a65b9c9c"},"vehicle_type_id":"4","last_reported":1758467324,"current_range_meters":8000,"station_id":"ce4bgs12rcd13ifvqcag","pricing_plan_id":"cebpf4jnsgd1na2vs0mg"},{"bike_id":"52245dbb-d8de-4433-8b2a-0c27fb139055","system_id":"levelo_inurba_marseille","lat":43.31132,"lon":5.37741,"is_reserved":false,"is_disabled":false,"rental_uris":{"android":"levelo://app?vid=52245dbb-d8de-4433-8b2a-0c27fb139055","ios":"levelo://app?vid=52245dbb-d8de-4433-8b2a-0c27fb139055"},"vehicle_type_id":"4","last_reported":1758467324,"current_range_meters":8000,"station_id":"ce4bgt92rcd13ifvqcg0","pricing_plan_id":"cebpf4jnsgd1na2vs0mg"},{"bike_id":"7e39f761-0fe4-4eb9-8592-5744db05ea96","system_id":"levelo_inurba_marseille","lat":43.30907,"lon":5.37187,"is_reserved":false,"is_disabled":false,"rental_uris":{"android":"levelo://app?vid=7e39f761-0fe4-4eb9-8592-5744db05ea96","ios":"levelo://app?vid=7e39f761-0fe4-4eb9-8592-5744db05ea96"},"vehicle_type_id":"4","last_reported":1758467324,"current_range_meters":8400,"station_id":"ce4bguh2rcd13ifvqckg","pricing_plan_id":"cebpf4jnsgd1na2vs0mg"},{"bike_id":"0f7caa9f-1d1a-40d7-9b4a-2f8720e63681","system_id":"levelo_inurba_marseille","lat":43.30875,"lon":5.37627,"is_reserved":false,"is_disabled":false,"rental_uris":{"android":"levelo://app?vid=0f7caa9f-1d1a-40d7-9b4a-2f8720e63681","ios":"levelo://app?vid=0f7caa9f-1d1a-40d7-9b4a-2f8720e63681"},"vehicle_type_id":"4","last_reported":1758467324,"current_range_meters":8800,"station_id":"","pricing_plan_id":"cebpf4jnsgd1na2vs0mg"},{"bike_id":"b54779d1-8d28-4e5c-b723-68bd10a78496","system_id":"levelo_inurba_marseille","lat":43.29814,"lon":5.36287,"is_reserved":false,"is_disabled":false,"rental_uris":{"android":"levelo://app?vid=b54779d1-8d28-4e5c-b723-68bd10a78496","ios":"levelo://app?vid=b54779d1-8d28-4e5c-b723-68bd10a78496"},"vehicle_type_id":"4","last_reported":1758467324,"current_range_meters":8400,"station_id":"ce4bgpp2rcd13ifvqc3g","pricing_plan_id":"cebpf4jnsgd1na2vs0mg"},{"bike_id":"1d225f1f-0fe1-4b65-a1ca-9003757c8e4c","system_id":"levelo_inurba_marseille","lat":43.264885,"lon":5.39554,"is_reserved":false,"is_disabled":true,"rental_uris":{"android":"levelo://app?vid=1d225f1f-0fe1-4b65-a1ca-9003757c8e4c","ios":"levelo://app?vid=1d225f1f-0fe1-4b65-a1ca-9003757c8e4c"},"vehicle_type_id":"4","last_reported":1758467324,"current_range_meters":8800,"station_id":"ce4bhi12rcd13ifvqfq0","pricing_plan_id":"cebpf4jnsgd1na2vs0mg"},{"bike_id":"15019d46-36ca-4a5d-945d-729a7c7cb95e","system_id":"levelo_inurba_marseille","lat":43.28619,"lon":5.35099,"is_reserved":false,"is_disabled":false,"rental_uris":{"android":"levelo://app?vid=15019d46-36ca-4a5d-945d-729a7c7cb95e","ios":"levelo://app?vid=15019d46-36ca-4a5d-945d-729a7c7cb95e"},"vehicle_type_id":"4","last_reported":1758467324,"current_range_meters":8800,"station_id":"ce4bhch2rcd13ifvqeug","pricing_plan_id":"cebpf4jnsgd1na2vs0mg"},{"bike_id":"a33a7d2b-3a19-4e17-8886-71256af367d3","system_id":"levelo_inurba_marseille","lat":43.28162,"lon":5.42625,"is_reserved":false,"is_disabled":true,"rental_uris":{"android":"levelo://app?vid=a33a7d2b-3a19-4e17-8886-71256af367d3","ios":"levelo://app?vid=a33a7d2b-3a19-4e17-8886-71256af367d3"},"vehicle_type_id":"4","last_reported":1758467324,"current_range_meters":9200,"station_id":"ce4bhnh2rcd13ifvqgug","pricing_plan_id":"cebpf4jnsgd1na2vs0mg"},{"bike_id":"9a116481-058c-4ddd-b5e2-2821407c2805","system_id":"levelo_inurba_marseille","lat":43.28457,"lon":5.35887,"is_reserved":false,"is_disabled":false,"rental_uris":{"android":"levelo://app?vid=9a116481-058c-4ddd-b5e2-2821407c2805","ios":"levelo://app?vid=9a116481-058c-4ddd-b5e2-2821407c2805"},"vehicle_type_id":"4","last_reported":1758467324,"current_range_meters":8400,"station_id":"ce4bhah2rcd13ifvqei0","pricing_plan_id":"cebpf4jnsgd1na2vs0mg"},{"bike_id":"213f818a-2fc2-423a-8734-2921a1895f7c","system_id":"levelo_inurba_marseille","lat":43.21201,"lon":5.35059,"is_reserved":false,"is_disabled":false,"rental_uris":{"android":"levelo://app?vid=213f818a-2fc2-423a-8734-2921a1895f7c","ios":"levelo://app?vid=213f818a-2fc2-423a-8734-2921a1895f7c"},"vehicle_type_id":"4","last_reported":1758467324,"current_range_meters":9200,"station_id":"st_cvj6sg6p6f1abm77japg","pricing_plan_id":"cebpf4jnsgd1na2vs0mg"},{"bike_id":"2f4ba3c4-d560-4d54-af01-9eafbd4f5950","system_id":"levelo_inurba_marseille","lat":43.24403,"lon":5.37002,"is_reserved":false,"is_disabled":true,"rental_uris":{"android":"levelo://app?vid=2f4ba3c4-d560-4d54-af01-9eafbd4f5950","ios":"levelo://app?vid=2f4ba3c4-d560-4d54-af01-9eafbd4f5950"},"vehicle_type_id":"4","last_reported":1758467324,"current_range_meters":9200,"station_id":"","pricing_plan_id":"cebpf4jnsgd1na2vs0mg"},{"bike_id":"b766d582-d4f0-4f9a-9867-0ae0b8177870","system_id":"levelo_inurba_marseille","lat":43.21203,"lon":5.35042,"is_reserved":false,"is_disabled":false,"rental_uris":{"android":"levelo://app?vid=b766d582-d4f0-4f9a-9867-0ae0b8177870","ios":"levelo://app?vid=b766d582-d4f0-4f9a-9867-0ae0b8177870"},"vehicle_type_id":"4","last_reported":1758467324,"current_range_meters":9200,"station_id":"st_cvj6sg6p6f1abm77japg","pricing_plan_id":"cebpf4jnsgd1na2vs0mg"},{"bike_id":"a43a9b46-0f30-4eaf-acf4-93bc4845ce8c","system_id":"levelo_inurba_marseille","lat":43.30211,"lon":5.39465,"is_reserved":false,"is_disabled":false,"rental_uris":{"android":"levelo://app?vid=a43a9b46-0f30-4eaf-acf4-93bc4845ce8c","ios":"levelo://app?vid=a43a9b46-0f30-4eaf-acf4-93bc4845ce8c"},"vehicle_type_id":"4","last_reported":1758467324,"current_range_meters":9200,"station_id":"ce4bh0p2rcd13ifvqd70","pricing_plan_id":"cebpf4jnsgd1na2vs0mg"},{"bike_id":"78993bff-ff2c-4ac9-a279-8512dd308c5a","system_id":"levelo_inurba_marseille","lat":43.29669,"lon":5.40627,"is_reserved":false,"is_disabled":true,"rental_uris":{"android":"levelo://app?vid=78993bff-ff2c-4ac9-a279-8512dd308c5a","ios":"levelo://app?vid=78993bff-ff2c-4ac9-a279-8512dd308c5a"},"vehicle_type_id":"4","last_reported":1758467324,"current_range_meters":9200,"station_id":"","pricing_plan_id":"cebpf4jnsgd1na2vs0mg"},{"bike_id":"4d1862c6-d9ee-4e08-a859-0530e51dcdbc","system_id":"levelo_inurba_marseille","lat":43.29934,"lon":5.36544,"is_reserved":false,"is_disabled":false,"rental_uris":{"android":"levelo://app?vid=4d1862c6-d9ee-4e08-a859-0530e51dcdbc","ios":"levelo://app?vid=4d1862c6-d9ee-4e08-a859-0530e51dcdbc"},"vehicle_type_id":"4","last_reported":1758467324,"current_range_meters":9200,"station_id":"ce4bgm92rcd13ifvqbr0","pricing_plan_id":"cebpf4jnsgd1na2vs0mg"},{"bike_id":"518ec4a1-1d81-4da1-93cb-810073217cc0","system_id":"levelo_inurba_marseille","lat":43.31738,"lon":5.37252,"is_reserved":false,"is_disabled":false,"rental_uris":{"android":"levelo://app?vid=518ec4a1-1d81-4da1-93cb-810073217cc0","ios":"levelo://app?vid=518ec4a1-1d81-4da1-93cb-810073217cc0"},"vehicle_type_id":"4","last_reported":1758467324,"current_range_meters":9200,"station_id":"","pricing_plan_id":"cebpf4jnsgd1na2vs0mg"},{"bike_id":"c1843d42-9f15-4235-8c7f-0c60147cb155","system_id":"levelo_inurba_marseille","lat":43.21193,"lon":5.35054,"is_reserved":false,"is_disabled":false,"rental_uris":{"android":"levelo://app?vid=c1843d42-9f15-4235-8c7f-0c60147cb155","ios":"levelo://app?vid=c1843d42-9f15-4235-8c7f-0c60147cb155"},"vehicle_type_id":"4","last_reported":1758467324,"current_range_meters":9200,"station_id":"st_cvj6sg6p6f1abm77japg","pricing_plan_id":"cebpf4jnsgd1na2vs0mg"},{"bike_id":"facab4cd-9207-4e9f-ab62-f64f567a1437","system_id":"levelo_inurba_marseille","lat":43.30136,"lon":5.38769,"is_reserved":false,"is_disabled":false,"rental_uris":{"android":"levelo://app?vid=facab4cd-9207-4e9f-ab62-f64f567a1437","ios":"levelo://app?vid=facab4cd-9207-4e9f-ab62-f64f567a1437"},"vehicle_type_id":"4","last_reported":1758467324,"current_range_meters":9200,"station_id":"ce4bghh2rcd13ifvqb60","pricing_plan_id":"cebpf4jnsgd1na2vs0mg"},{"bike_id":"0319c100-5c9c-49b7-9f2a-421506d58186","system_id":"levelo_inurba_marseille","lat":43.31041,"lon":5.40055,"is_reserved":false,"is_disabled":true,"rental_uris":{"android":"levelo://app?vid=0319c100-5c9c-49b7-9f2a-421506d58186","ios":"levelo://app?vid=0319c100-5c9c-49b7-9f2a-421506d58186"},"vehicle_type_id":"4","last_reported":1758467324,"current_range_meters":9200,"station_id":"","pricing_plan_id":"cebpf4jnsgd1na2vs0mg"},{"bike_id":"534ff5b4-9e83-493b-9063-104ef0af4212","system_id":"levelo_inurba_marseille","lat":43.28011,"lon":5.41659,"is_reserved":false,"is_disabled":true,"rental_uris":{"android":"levelo://app?vid=534ff5b4-9e83-493b-9063-104ef0af4212","ios":"levelo://app?vid=534ff5b4-9e83-493b-9063-104ef0af4212"},"vehicle_type_id":"4","last_reported":1758467324,"current_range_meters":9200,"station_id":"ce4bho12rcd13ifvqh1g","pricing_plan_id":"cebpf4jnsgd1na2vs0mg"},{"bike_id":"80463f56-fde1-4e7d-8b2e-851e0c2d7de5","system_id":"levelo_inurba_marseille","lat":43.24811,"lon":5.37458,"is_reserved":false,"is_disabled":false,"rental_uris":{"android":"levelo://app?vid=80463f56-fde1-4e7d-8b2e-851e0c2d7de5","ios":"levelo://app?vid=80463f56-fde1-4e7d-8b2e-851e0c2d7de5"},"vehicle_type_id":"4","last_reported":1758467324,"current_range_meters":9600,"station_id":"ce4bhgh2rcd13ifvqfb0","pricing_plan_id":"cebpf4jnsgd1na2vs0mg"},{"bike_id":"8f90c6e9-c2a0-414b-a280-ed01b517d1e8","system_id":"levelo_inurba_marseille","lat":43.21189,"lon":5.35062,"is_reserved":false,"is_disabled":false,"rental_uris":{"android":"levelo://app?vid=8f90c6e9-c2a0-414b-a280-ed01b517d1e8","ios":"levelo://app?vid=8f90c6e9-c2a0-414b-a280-ed01b517d1e8"},"vehicle_type_id":"4","last_reported":1758467324,"current_range_meters":9600,"station_id":"st_cvj6sg6p6f1abm77japg","pricing_plan_id":"cebpf4jnsgd1na2vs0mg"},{"bike_id":"fcf75da9-14a1-45ad-b98d-fca813f95c61","system_id":"levelo_inurba_marseille","lat":43.29867,"lon":5.38912,"is_reserved":false,"is_disabled":false,"rental_uris":{"android":"levelo://app?vid=fcf75da9-14a1-45ad-b98d-fca813f95c61","ios":"levelo://app?vid=fcf75da9-14a1-45ad-b98d-fca813f95c61"},"vehicle_type_id":"4","last_reported":1758467324,"current_range_meters":9600,"station_id":"ce4bh392rcd13ifvqdl0","pricing_plan_id":"cebpf4jnsgd1na2vs0mg"},{"bike_id":"2289a0ff-9c3e-4f79-ad38-4b41158d6057","system_id":"levelo_inurba_marseille","lat":43.29778,"lon":5.37866,"is_reserved":false,"is_disabled":false,"rental_uris":{"android":"levelo://app?vid=2289a0ff-9c3e-4f79-ad38-4b41158d6057","ios":"levelo://app?vid=2289a0ff-9c3e-4f79-ad38-4b41158d6057"},"vehicle_type_id":"4","last_reported":1758467324,"current_range_meters":9600,"station_id":"","pricing_plan_id":"cebpf4jnsgd1na2vs0mg"},{"bike_id":"8e6747cf-b8c6-4cd7-bba9-81728939e96e","system_id":"levelo_inurba_marseille","lat":43.27825,"lon":5.4071,"is_reserved":false,"is_disabled":true,"rental_uris":{"android":"levelo://app?vid=8e6747cf-b8c6-4cd7-bba9-81728939e96e","ios":"levelo://app?vid=8e6747cf-b8c6-4cd7-bba9-81728939e96e"},"vehicle_type_id":"4","last_reported":1758467324,"current_range_meters":9600,"station_id":"ce4bhnh2rcd13ifvqgtg","pricing_plan_id":"cebpf4jnsgd1na2vs0mg"},{"bike_id":"55d1bc08-fd54-4a82-afc7-2adcaa7b1c4e","system_id":"levelo_inurba_marseille","lat":43.30047,"lon":5.37672,"is_reserved":false,"is_disabled":false,"rental_uris":{"android":"levelo://app?vid=55d1bc08-fd54-4a82-afc7-2adcaa7b1c4e","ios":"levelo://app?vid=55d1bc08-fd54-4a82-afc7-2adcaa7b1c4e"},"vehicle_type_id":"4","last_reported":1758467324,"current_range_meters":9600,"station_id":"","pricing_plan_id":"cebpf4jnsgd1na2vs0mg"},{"bike_id":"db3deeac-0f78-497b-81be-e52d0a99cbd5","system_id":"levelo_inurba_marseille","lat":43.29281,"lon":5.36837,"is_reserved":false,"is_disabled":false,"rental_uris":{"android":"levelo://app?vid=db3deeac-0f78-497b-81be-e52d0a99cbd5","ios":"levelo://app?vid=db3deeac-0f78-497b-81be-e52d0a99cbd5"},"vehicle_type_id":"4","last_reported":1758467324,"current_range_meters":9600,"station_id":"ce4bhbp2rcd13ifvqesg","pricing_plan_id":"cebpf4jnsgd1na2vs0mg"},{"bike_id":"2d82061a-a240-43d1-93a6-ab71cf777b3c","system_id":"levelo_inurba_marseille","lat":43.21188,"lon":5.35077,"is_reserved":false,"is_disabled":false,"rental_uris":{"android":"levelo://app?vid=2d82061a-a240-43d1-93a6-ab71cf777b3c","ios":"levelo://app?vid=2d82061a-a240-43d1-93a6-ab71cf777b3c"},"vehicle_type_id":"4","last_reported":1758467324,"current_range_meters":9600,"station_id":"st_cvj6sg6p6f1abm77japg","pricing_plan_id":"cebpf4jnsgd1na2vs0mg"},{"bike_id":"58989526-718a-46f4-93aa-305fab8d84c7","system_id":"levelo_inurba_marseille","lat":43.24996,"lon":5.38934,"is_reserved":false,"is_disabled":false,"rental_uris":{"android":"levelo://app?vid=58989526-718a-46f4-93aa-305fab8d84c7","ios":"levelo://app?vid=58989526-718a-46f4-93aa-305fab8d84c7"},"vehicle_type_id":"4","last_reported":1758467324,"current_range_meters":9200,"station_id":"ce4bhgp2rcd13ifvqfd0","pricing_plan_id":"cebpf4jnsgd1na2vs0mg"},{"bike_id":"2015c1f2-c286-408a-b930-50d865ce0bb9","system_id":"levelo_inurba_marseille","lat":43.21198,"lon":5.35054,"is_reserved":false,"is_disabled":false,"rental_uris":{"android":"levelo://app?vid=2015c1f2-c286-408a-b930-50d865ce0bb9","ios":"levelo://app?vid=2015c1f2-c286-408a-b930-50d865ce0bb9"},"vehicle_type_id":"4","last_reported":1758467324,"current_range_meters":9600,"station_id":"st_cvj6sg6p6f1abm77japg","pricing_plan_id":"cebpf4jnsgd1na2vs0mg"},{"bike_id":"a07a513e-e5a9-4481-8592-d991379bc662","system_id":"levelo_inurba_marseille","lat":43.337536,"lon":5.374536,"is_reserved":false,"is_disabled":false,"rental_uris":{"android":"levelo://app?vid=a07a513e-e5a9-4481-8592-d991379bc662","ios":"levelo://app?vid=a07a513e-e5a9-4481-8592-d991379bc662"},"vehicle_type_id":"4","last_reported":1758467324,"current_range_meters":9600,"station_id":"","pricing_plan_id":"cebpf4jnsgd1na2vs0mg"},{"bike_id":"e1f07bb4-5039-43d8-a110-46c4b720958c","system_id":"levelo_inurba_marseille","lat":43.284487,"lon":5.392009,"is_reserved":false,"is_disabled":false,"rental_uris":{"android":"levelo://app?vid=e1f07bb4-5039-43d8-a110-46c4b720958c","ios":"levelo://app?vid=e1f07bb4-5039-43d8-a110-46c4b720958c"},"vehicle_type_id":"4","last_reported":1758467324,"current_range_meters":10000,"station_id":"ce4bhoh2rcd13ifvqh5g","pricing_plan_id":"cebpf4jnsgd1na2vs0mg"},{"bike_id":"68adab37-f5ad-4072-b58a-fe6c68285ca6","system_id":"levelo_inurba_marseille","lat":43.30627,"lon":5.37651,"is_reserved":false,"is_disabled":false,"rental_uris":{"android":"levelo://app?vid=68adab37-f5ad-4072-b58a-fe6c68285ca6","ios":"levelo://app?vid=68adab37-f5ad-4072-b58a-fe6c68285ca6"},"vehicle_type_id":"4","last_reported":1758467324,"current_range_meters":10000,"station_id":"","pricing_plan_id":"cebpf4jnsgd1na2vs0mg"},{"bike_id":"5319fae8-be79-4d87-b5d0-b333eba32d6a","system_id":"levelo_inurba_marseille","lat":43.21201,"lon":5.3507,"is_reserved":false,"is_disabled":false,"rental_uris":{"android":"levelo://app?vid=5319fae8-be79-4d87-b5d0-b333eba32d6a","ios":"levelo://app?vid=5319fae8-be79-4d87-b5d0-b333eba32d6a"},"vehicle_type_id":"4","last_reported":1758467324,"current_range_meters":10000,"station_id":"st_cvj6sg6p6f1abm77japg","pricing_plan_id":"cebpf4jnsgd1na2vs0mg"},{"bike_id":"c0c2df04-5b67-4315-b143-ec6fce7bf4ec","system_id":"levelo_inurba_marseille","lat":43.32645,"lon":5.40983,"is_reserved":false,"is_disabled":false,"rental_uris":{"android":"levelo://app?vid=c0c2df04-5b67-4315-b143-ec6fce7bf4ec","ios":"levelo://app?vid=c0c2df04-5b67-4315-b143-ec6fce7bf4ec"},"vehicle_type_id":"4","last_reported":1758467324,"current_range_meters":10000,"station_id":"ce4bhpp2rcd13ifvqhgg","pricing_plan_id":"cebpf4jnsgd1na2vs0mg"},{"bike_id":"e86cce24-0f21-4e0d-a094-2ca607577906","system_id":"levelo_inurba_marseille","lat":43.30152,"lon":5.38786,"is_reserved":false,"is_disabled":true,"rental_uris":{"android":"levelo://app?vid=e86cce24-0f21-4e0d-a094-2ca607577906","ios":"levelo://app?vid=e86cce24-0f21-4e0d-a094-2ca607577906"},"vehicle_type_id":"4","last_reported":1758467324,"current_range_meters":10000,"station_id":"ce4bghh2rcd13ifvqb60","pricing_plan_id":"cebpf4jnsgd1na2vs0mg"},{"bike_id":"1ff39d7b-2539-46bc-b9f5-8104a0a2c0aa","system_id":"levelo_inurba_marseille","lat":43.30642,"lon":5.37163,"is_reserved":false,"is_disabled":false,"rental_uris":{"android":"levelo://app?vid=1ff39d7b-2539-46bc-b9f5-8104a0a2c0aa","ios":"levelo://app?vid=1ff39d7b-2539-46bc-b9f5-8104a0a2c0aa"},"vehicle_type_id":"4","last_reported":1758467324,"current_range_meters":10000,"station_id":"","pricing_plan_id":"cebpf4jnsgd1na2vs0mg"},{"bike_id":"ea9c3128-c564-4f4c-8f5d-5027bd504982","system_id":"levelo_inurba_marseille","lat":43.27919,"lon":5.39575,"is_reserved":false,"is_disabled":true,"rental_uris":{"android":"levelo://app?vid=ea9c3128-c564-4f4c-8f5d-5027bd504982","ios":"levelo://app?vid=ea9c3128-c564-4f4c-8f5d-5027bd504982"},"vehicle_type_id":"4","last_reported":1758467324,"current_range_meters":10000,"station_id":"ce4bhf92rcd13ifvqf40","pricing_plan_id":"cebpf4jnsgd1na2vs0mg"},{"bike_id":"49d94793-35dc-4b76-b01d-c290ce8aaa94","system_id":"levelo_inurba_marseille","lat":43.30158,"lon":5.3743,"is_reserved":false,"is_disabled":false,"rental_uris":{"android":"levelo://app?vid=49d94793-35dc-4b76-b01d-c290ce8aaa94","ios":"levelo://app?vid=49d94793-35dc-4b76-b01d-c290ce8aaa94"},"vehicle_type_id":"4","last_reported":1758467324,"current_range_meters":10000,"station_id":"ce4bgs92rcd13ifvqcc0","pricing_plan_id":"cebpf4jnsgd1na2vs0mg"},{"bike_id":"ae4d5d53-f8cc-434e-ba80-9dcf4c867ed8","system_id":"levelo_inurba_marseille","lat":43.29186,"lon":5.3931,"is_reserved":false,"is_disabled":true,"rental_uris":{"android":"levelo://app?vid=ae4d5d53-f8cc-434e-ba80-9dcf4c867ed8","ios":"levelo://app?vid=ae4d5d53-f8cc-434e-ba80-9dcf4c867ed8"},"vehicle_type_id":"4","last_reported":1758467324,"current_range_meters":10800,"station_id":"ce4bh192rcd13ifvqdd0","pricing_plan_id":"cebpf4jnsgd1na2vs0mg"},{"bike_id":"537279b6-26cb-4576-8bff-a5c26722c8cb","system_id":"levelo_inurba_marseille","lat":43.29062,"lon":5.3715,"is_reserved":false,"is_disabled":false,"rental_uris":{"android":"levelo://app?vid=537279b6-26cb-4576-8bff-a5c26722c8cb","ios":"levelo://app?vid=537279b6-26cb-4576-8bff-a5c26722c8cb"},"vehicle_type_id":"4","last_reported":1758467324,"current_range_meters":10800,"station_id":"ce4bh5p2rcd13ifvqe4g","pricing_plan_id":"cebpf4jnsgd1na2vs0mg"},{"bike_id":"456beacd-094d-497b-9491-718555121622","system_id":"levelo_inurba_marseille","lat":43.29269,"lon":5.40133,"is_reserved":false,"is_disabled":false,"rental_uris":{"android":"levelo://app?vid=456beacd-094d-497b-9491-718555121622","ios":"levelo://app?vid=456beacd-094d-497b-9491-718555121622"},"vehicle_type_id":"4","last_reported":1758467324,"current_range_meters":10800,"station_id":"ce4bh312rcd13ifvqdk0","pricing_plan_id":"cebpf4jnsgd1na2vs0mg"},{"bike_id":"a7c5e462-e12c-46cd-9e1e-ea8cfcdac851","system_id":"levelo_inurba_marseille","lat":43.28698,"lon":5.39983,"is_reserved":false,"is_disabled":false,"rental_uris":{"android":"levelo://app?vid=a7c5e462-e12c-46cd-9e1e-ea8cfcdac851","ios":"levelo://app?vid=a7c5e462-e12c-46cd-9e1e-ea8cfcdac851"},"vehicle_type_id":"4","last_reported":1758467324,"current_range_meters":10800,"station_id":"ce4bho92rcd13ifvqh3g","pricing_plan_id":"cebpf4jnsgd1na2vs0mg"},{"bike_id":"9b657f0c-df08-49c7-aa14-fb12d30354b1","system_id":"levelo_inurba_marseille","lat":43.28926,"lon":5.38397,"is_reserved":false,"is_disabled":false,"rental_uris":{"android":"levelo://app?vid=9b657f0c-df08-49c7-aa14-fb12d30354b1","ios":"levelo://app?vid=9b657f0c-df08-49c7-aa14-fb12d30354b1"},"vehicle_type_id":"4","last_reported":1758467324,"current_range_meters":11200,"station_id":"ce4bh612rcd13ifvqe6g","pricing_plan_id":"cebpf4jnsgd1na2vs0mg"},{"bike_id":"dd708662-3ad5-49fb-9349-ce11871e3aab","system_id":"levelo_inurba_marseille","lat":43.28498,"lon":5.38577,"is_reserved":false,"is_disabled":false,"rental_uris":{"android":"levelo://app?vid=dd708662-3ad5-49fb-9349-ce11871e3aab","ios":"levelo://app?vid=dd708662-3ad5-49fb-9349-ce11871e3aab"},"vehicle_type_id":"4","last_reported":1758467324,"current_range_meters":11200,"station_id":"ce4bh8p2rcd13ifvqeb0","pricing_plan_id":"cebpf4jnsgd1na2vs0mg"},{"bike_id":"e2636651-d3c5-4d3d-9d61-59ed17054c14","system_id":"levelo_inurba_marseille","lat":43.26064,"lon":5.394,"is_reserved":false,"is_disabled":false,"rental_uris":{"android":"levelo://app?vid=e2636651-d3c5-4d3d-9d61-59ed17054c14","ios":"levelo://app?vid=e2636651-d3c5-4d3d-9d61-59ed17054c14"},"vehicle_type_id":"4","last_reported":1758467324,"current_range_meters":11600,"station_id":"ce4bhh92rcd13ifvqfj0","pricing_plan_id":"cebpf4jnsgd1na2vs0mg"},{"bike_id":"5d633773-c86d-4663-ae55-dfb6f9eda023","system_id":"levelo_inurba_marseille","lat":43.2593,"lon":5.40879,"is_reserved":false,"is_disabled":false,"rental_uris":{"android":"levelo://app?vid=5d633773-c86d-4663-ae55-dfb6f9eda023","ios":"levelo://app?vid=5d633773-c86d-4663-ae55-dfb6f9eda023"},"vehicle_type_id":"4","last_reported":1758467324,"current_range_meters":11600,"station_id":"","pricing_plan_id":"cebpf4jnsgd1na2vs0mg"},{"bike_id":"ad3b9a79-2fea-4743-a6da-194a3004707a","system_id":"levelo_inurba_marseille","lat":43.29385,"lon":5.37839,"is_reserved":false,"is_disabled":false,"rental_uris":{"android":"levelo://app?vid=ad3b9a79-2fea-4743-a6da-194a3004707a","ios":"levelo://app?vid=ad3b9a79-2fea-4743-a6da-194a3004707a"},"vehicle_type_id":"4","last_reported":1758467324,"current_range_meters":11600,"station_id":"ce4bgjh2rcd13ifvqbf0","pricing_plan_id":"cebpf4jnsgd1na2vs0mg"},{"bike_id":"394bbc81-dc66-4519-a76d-fc81a65cacf7","system_id":"levelo_inurba_marseille","lat":43.21205,"lon":5.35058,"is_reserved":false,"is_disabled":false,"rental_uris":{"android":"levelo://app?vid=394bbc81-dc66-4519-a76d-fc81a65cacf7","ios":"levelo://app?vid=394bbc81-dc66-4519-a76d-fc81a65cacf7"},"vehicle_type_id":"4","last_reported":1758467324,"current_range_meters":11600,"station_id":"st_cvj6sg6p6f1abm77japg","pricing_plan_id":"cebpf4jnsgd1na2vs0mg"},{"bike_id":"5b180f79-3632-477a-b480-c99afd4222f5","system_id":"levelo_inurba_marseille","lat":43.29188,"lon":5.35805,"is_reserved":false,"is_disabled":false,"rental_uris":{"android":"levelo://app?vid=5b180f79-3632-477a-b480-c99afd4222f5","ios":"levelo://app?vid=5b180f79-3632-477a-b480-c99afd4222f5"},"vehicle_type_id":"4","last_reported":1758467324,"current_range_meters":11200,"station_id":"ce4bhb12rcd13ifvqel0","pricing_plan_id":"cebpf4jnsgd1na2vs0mg"},{"bike_id":"84cebaa6-ae44-4848-bbd4-47b1e8385507","system_id":"levelo_inurba_marseille","lat":43.21758,"lon":5.34607,"is_reserved":false,"is_disabled":false,"rental_uris":{"android":"levelo://app?vid=84cebaa6-ae44-4848-bbd4-47b1e8385507","ios":"levelo://app?vid=84cebaa6-ae44-4848-bbd4-47b1e8385507"},"vehicle_type_id":"4","last_reported":1758467324,"current_range_meters":12000,"station_id":"","pricing_plan_id":"cebpf4jnsgd1na2vs0mg"},{"bike_id":"d801b961-8b0f-429d-9d3e-817010448aec","system_id":"levelo_inurba_marseille","lat":43.337632,"lon":5.374376,"is_reserved":false,"is_disabled":false,"rental_uris":{"android":"levelo://app?vid=d801b961-8b0f-429d-9d3e-817010448aec","ios":"levelo://app?vid=d801b961-8b0f-429d-9d3e-817010448aec"},"vehicle_type_id":"4","last_reported":1758467324,"current_range_meters":12000,"station_id":"","pricing_plan_id":"cebpf4jnsgd1na2vs0mg"},{"bike_id":"a5b1c397-347e-4016-85a9-3b78bd73d311","system_id":"levelo_inurba_marseille","lat":43.31483,"lon":5.373006,"is_reserved":false,"is_disabled":false,"rental_uris":{"android":"levelo://app?vid=a5b1c397-347e-4016-85a9-3b78bd73d311","ios":"levelo://app?vid=a5b1c397-347e-4016-85a9-3b78bd73d311"},"vehicle_type_id":"4","last_reported":1758467324,"current_range_meters":12000,"station_id":"ce4bgt12rcd13ifvqcd0","pricing_plan_id":"cebpf4jnsgd1na2vs0mg"},{"bike_id":"118b6d7e-3328-44e2-ae13-d04071b8c00f","system_id":"levelo_inurba_marseille","lat":43.2119,"lon":5.35074,"is_reserved":false,"is_disabled":false,"rental_uris":{"android":"levelo://app?vid=118b6d7e-3328-44e2-ae13-d04071b8c00f","ios":"levelo://app?vid=118b6d7e-3328-44e2-ae13-d04071b8c00f"},"vehicle_type_id":"4","last_reported":1758467324,"current_range_meters":12000,"station_id":"st_cvj6sg6p6f1abm77japg","pricing_plan_id":"cebpf4jnsgd1na2vs0mg"},{"bike_id":"30ce67d5-6a86-4fc8-95f0-e65388913d6c","system_id":"levelo_inurba_marseille","lat":43.298838,"lon":5.365387,"is_reserved":false,"is_disabled":false,"rental_uris":{"android":"levelo://app?vid=30ce67d5-6a86-4fc8-95f0-e65388913d6c","ios":"levelo://app?vid=30ce67d5-6a86-4fc8-95f0-e65388913d6c"},"vehicle_type_id":"4","last_reported":1758467324,"current_range_meters":12000,"station_id":"ce4bgm92rcd13ifvqbr0","pricing_plan_id":"cebpf4jnsgd1na2vs0mg"},{"bike_id":"fd4cf910-15eb-41c1-aa59-f96fcd54c98c","system_id":"levelo_inurba_marseille","lat":43.29846,"lon":5.36289,"is_reserved":false,"is_disabled":false,"rental_uris":{"android":"levelo://app?vid=fd4cf910-15eb-41c1-aa59-f96fcd54c98c","ios":"levelo://app?vid=fd4cf910-15eb-41c1-aa59-f96fcd54c98c"},"vehicle_type_id":"4","last_reported":1758467324,"current_range_meters":12000,"station_id":"ce4bgpp2rcd13ifvqc3g","pricing_plan_id":"cebpf4jnsgd1na2vs0mg"},{"bike_id":"1016270e-e3e0-4baa-925e-26f823b69953","system_id":"levelo_inurba_marseille","lat":43.25088,"lon":5.39521,"is_reserved":false,"is_disabled":false,"rental_uris":{"android":"levelo://app?vid=1016270e-e3e0-4baa-925e-26f823b69953","ios":"levelo://app?vid=1016270e-e3e0-4baa-925e-26f823b69953"},"vehicle_type_id":"4","last_reported":1758467324,"current_range_meters":11600,"station_id":"ce4bhm12rcd13ifvqgkg","pricing_plan_id":"cebpf4jnsgd1na2vs0mg"},{"bike_id":"a329363e-972b-428b-836e-51e3b2893c70","system_id":"levelo_inurba_marseille","lat":43.21174,"lon":5.35064,"is_reserved":false,"is_disabled":false,"rental_uris":{"android":"levelo://app?vid=a329363e-972b-428b-836e-51e3b2893c70","ios":"levelo://app?vid=a329363e-972b-428b-836e-51e3b2893c70"},"vehicle_type_id":"4","last_reported":1758467324,"current_range_meters":12000,"station_id":"st_cvj6sg6p6f1abm77japg","pricing_plan_id":"cebpf4jnsgd1na2vs0mg"},{"bike_id":"a3a4206e-9698-40c4-99a7-c2a694b15382","system_id":"levelo_inurba_marseille","lat":43.25916,"lon":5.40921,"is_reserved":false,"is_disabled":false,"rental_uris":{"android":"levelo://app?vid=a3a4206e-9698-40c4-99a7-c2a694b15382","ios":"levelo://app?vid=a3a4206e-9698-40c4-99a7-c2a694b15382"},"vehicle_type_id":"4","last_reported":1758467324,"current_range_meters":12000,"station_id":"ce4bhm92rcd13ifvqglg","pricing_plan_id":"cebpf4jnsgd1na2vs0mg"},{"bike_id":"d2667e4e-8f97-413d-81b1-13a394c6285f","system_id":"levelo_inurba_marseille","lat":43.21754,"lon":5.34583,"is_reserved":false,"is_disabled":true,"rental_uris":{"android":"levelo://app?vid=d2667e4e-8f97-413d-81b1-13a394c6285f","ios":"levelo://app?vid=d2667e4e-8f97-413d-81b1-13a394c6285f"},"vehicle_type_id":"4","last_reported":1758467324,"current_range_meters":12000,"station_id":"st_cvj6r9ubvosntc0bgbag","pricing_plan_id":"cebpf4jnsgd1na2vs0mg"},{"bike_id":"72452323-b3b3-42e3-b6ba-af13678f47bd","system_id":"levelo_inurba_marseille","lat":43.29165,"lon":5.37166,"is_reserved":false,"is_disabled":false,"rental_uris":{"android":"levelo://app?vid=72452323-b3b3-42e3-b6ba-af13678f47bd","ios":"levelo://app?vid=72452323-b3b3-42e3-b6ba-af13678f47bd"},"vehicle_type_id":"4","last_reported":1758467324,"current_range_meters":12000,"station_id":"ce4bha92rcd13ifvqeh0","pricing_plan_id":"cebpf4jnsgd1na2vs0mg"},{"bike_id":"269d64d9-25b5-4823-a96e-f99d99486fb0","system_id":"levelo_inurba_marseille","lat":43.26563,"lon":5.39005,"is_reserved":false,"is_disabled":false,"rental_uris":{"android":"levelo://app?vid=269d64d9-25b5-4823-a96e-f99d99486fb0","ios":"levelo://app?vid=269d64d9-25b5-4823-a96e-f99d99486fb0"},"vehicle_type_id":"4","last_reported":1758467324,"current_range_meters":12400,"station_id":"ce4bhe12rcd13ifvqf30","pricing_plan_id":"cebpf4jnsgd1na2vs0mg"},{"bike_id":"a024b826-db01-40bf-b086-44a62a6abed9","system_id":"levelo_inurba_marseille","lat":43.23976,"lon":5.3663,"is_reserved":false,"is_disabled":false,"rental_uris":{"android":"levelo://app?vid=a024b826-db01-40bf-b086-44a62a6abed9","ios":"levelo://app?vid=a024b826-db01-40bf-b086-44a62a6abed9"},"vehicle_type_id":"4","last_reported":1758467324,"current_range_meters":12400,"station_id":"ce4bhi12rcd13ifvqfp0","pricing_plan_id":"cebpf4jnsgd1na2vs0mg"},{"bike_id":"76bbf107-7ec5-4826-b296-ab629ecd14ab","system_id":"levelo_inurba_marseille","lat":43.29821,"lon":5.42105,"is_reserved":false,"is_disabled":false,"rental_uris":{"android":"levelo://app?vid=76bbf107-7ec5-4826-b296-ab629ecd14ab","ios":"levelo://app?vid=76bbf107-7ec5-4826-b296-ab629ecd14ab"},"vehicle_type_id":"4","last_reported":1758467324,"current_range_meters":12400,"station_id":"","pricing_plan_id":"cebpf4jnsgd1na2vs0mg"},{"bike_id":"9eac9d7b-6678-4894-88d5-7ac836bd1f6e","system_id":"levelo_inurba_marseille","lat":43.31718,"lon":5.43676,"is_reserved":false,"is_disabled":false,"rental_uris":{"android":"levelo://app?vid=9eac9d7b-6678-4894-88d5-7ac836bd1f6e","ios":"levelo://app?vid=9eac9d7b-6678-4894-88d5-7ac836bd1f6e"},"vehicle_type_id":"4","last_reported":1758467324,"current_range_meters":12800,"station_id":"ce4bhp92rcd13ifvqhcg","pricing_plan_id":"cebpf4jnsgd1na2vs0mg"},{"bike_id":"74bbd6d0-8750-49ed-b4da-9cd8bf052d6a","system_id":"levelo_inurba_marseille","lat":43.31332,"lon":5.39682,"is_reserved":false,"is_disabled":false,"rental_uris":{"android":"levelo://app?vid=74bbd6d0-8750-49ed-b4da-9cd8bf052d6a","ios":"levelo://app?vid=74bbd6d0-8750-49ed-b4da-9cd8bf052d6a"},"vehicle_type_id":"4","last_reported":1758467324,"current_range_meters":12800,"station_id":"ce4bgvp2rcd13ifvqcu0","pricing_plan_id":"cebpf4jnsgd1na2vs0mg"},{"bike_id":"e86857f8-f405-4657-b145-ec58ed187087","system_id":"levelo_inurba_marseille","lat":43.31484,"lon":5.3881,"is_reserved":false,"is_disabled":false,"rental_uris":{"android":"levelo://app?vid=e86857f8-f405-4657-b145-ec58ed187087","ios":"levelo://app?vid=e86857f8-f405-4657-b145-ec58ed187087"},"vehicle_type_id":"4","last_reported":1758467324,"current_range_meters":12800,"station_id":"ce4bgt92rcd13ifvqcf0","pricing_plan_id":"cebpf4jnsgd1na2vs0mg"},{"bike_id":"ed4a74aa-8b0f-411a-a285-72efb974a7a4","system_id":"levelo_inurba_marseille","lat":43.31164,"lon":5.38713,"is_reserved":false,"is_disabled":false,"rental_uris":{"android":"levelo://app?vid=ed4a74aa-8b0f-411a-a285-72efb974a7a4","ios":"levelo://app?vid=ed4a74aa-8b0f-411a-a285-72efb974a7a4"},"vehicle_type_id":"4","last_reported":1758467324,"current_range_meters":12800,"station_id":"ce4bgv12rcd13ifvqcp0","pricing_plan_id":"cebpf4jnsgd1na2vs0mg"},{"bike_id":"363d99e5-837c-43c8-abcc-c80ef2e2786a","system_id":"levelo_inurba_marseille","lat":43.21194,"lon":5.35069,"is_reserved":false,"is_disabled":false,"rental_uris":{"android":"levelo://app?vid=363d99e5-837c-43c8-abcc-c80ef2e2786a","ios":"levelo://app?vid=363d99e5-837c-43c8-abcc-c80ef2e2786a"},"vehicle_type_id":"4","last_reported":1758467324,"current_range_meters":12800,"station_id":"st_cvj6sg6p6f1abm77japg","pricing_plan_id":"cebpf4jnsgd1na2vs0mg"},{"bike_id":"a5364c4b-9fbc-4200-9686-1db420406c33","system_id":"levelo_inurba_marseille","lat":43.304196,"lon":5.397354,"is_reserved":false,"is_disabled":true,"rental_uris":{"android":"levelo://app?vid=a5364c4b-9fbc-4200-9686-1db420406c33","ios":"levelo://app?vid=a5364c4b-9fbc-4200-9686-1db420406c33"},"vehicle_type_id":"4","last_reported":1758467324,"current_range_meters":12800,"station_id":"ce4bh092rcd13ifvqd20","pricing_plan_id":"cebpf4jnsgd1na2vs0mg"},{"bike_id":"f581ccb4-ae4a-44ef-9aee-8da2f62ff531","system_id":"levelo_inurba_marseille","lat":43.31244,"lon":5.36824,"is_reserved":false,"is_disabled":false,"rental_uris":{"android":"levelo://app?vid=f581ccb4-ae4a-44ef-9aee-8da2f62ff531","ios":"levelo://app?vid=f581ccb4-ae4a-44ef-9aee-8da2f62ff531"},"vehicle_type_id":"4","last_reported":1758467324,"current_range_meters":13600,"station_id":"ce4bgl92rcd13ifvqbq0","pricing_plan_id":"cebpf4jnsgd1na2vs0mg"},{"bike_id":"75cdae86-aa3c-46f9-92bf-f3662c1063cf","system_id":"levelo_inurba_marseille","lat":43.33728,"lon":5.39162,"is_reserved":false,"is_disabled":false,"rental_uris":{"android":"levelo://app?vid=75cdae86-aa3c-46f9-92bf-f3662c1063cf","ios":"levelo://app?vid=75cdae86-aa3c-46f9-92bf-f3662c1063cf"},"vehicle_type_id":"4","last_reported":1758467324,"current_range_meters":13600,"station_id":"ce4bhr92rcd13ifvqhsg","pricing_plan_id":"cebpf4jnsgd1na2vs0mg"},{"bike_id":"8256c3c5-29e1-4d6d-816d-98492f1b2555","system_id":"levelo_inurba_marseille","lat":43.27499,"lon":5.42447,"is_reserved":false,"is_disabled":false,"rental_uris":{"android":"levelo://app?vid=8256c3c5-29e1-4d6d-816d-98492f1b2555","ios":"levelo://app?vid=8256c3c5-29e1-4d6d-816d-98492f1b2555"},"vehicle_type_id":"4","last_reported":1758467324,"current_range_meters":13600,"station_id":"ce4bhn92rcd13ifvqgrg","pricing_plan_id":"cebpf4jnsgd1na2vs0mg"},{"bike_id":"35208174-d496-4783-95b2-f9b36024877e","system_id":"levelo_inurba_marseille","lat":43.28614,"lon":5.35104,"is_reserved":false,"is_disabled":false,"rental_uris":{"android":"levelo://app?vid=35208174-d496-4783-95b2-f9b36024877e","ios":"levelo://app?vid=35208174-d496-4783-95b2-f9b36024877e"},"vehicle_type_id":"4","last_reported":1758467324,"current_range_meters":14400,"station_id":"ce4bhch2rcd13ifvqeug","pricing_plan_id":"cebpf4jnsgd1na2vs0mg"},{"bike_id":"5205d8ce-4b82-4660-8717-7e320ef723e4","system_id":"levelo_inurba_marseille","lat":43.32362,"lon":5.36752,"is_reserved":false,"is_disabled":false,"rental_uris":{"android":"levelo://app?vid=5205d8ce-4b82-4660-8717-7e320ef723e4","ios":"levelo://app?vid=5205d8ce-4b82-4660-8717-7e320ef723e4"},"vehicle_type_id":"4","last_reported":1758467324,"current_range_meters":14000,"station_id":"ce4bhsh2rcd13ifvqi2g","pricing_plan_id":"cebpf4jnsgd1na2vs0mg"},{"bike_id":"f4198f9a-a1ab-4a9e-aed8-4ba7ee33f95f","system_id":"levelo_inurba_marseille","lat":43.2926,"lon":5.40912,"is_reserved":false,"is_disabled":false,"rental_uris":{"android":"levelo://app?vid=f4198f9a-a1ab-4a9e-aed8-4ba7ee33f95f","ios":"levelo://app?vid=f4198f9a-a1ab-4a9e-aed8-4ba7ee33f95f"},"vehicle_type_id":"4","last_reported":1758467324,"current_range_meters":14000,"station_id":"ce4bh192rcd13ifvqdc0","pricing_plan_id":"cebpf4jnsgd1na2vs0mg"},{"bike_id":"dcd5ec24-eca5-4ee8-8bfb-db3d1bb05e3c","system_id":"levelo_inurba_marseille","lat":43.30595,"lon":5.37226,"is_reserved":false,"is_disabled":false,"rental_uris":{"android":"levelo://app?vid=dcd5ec24-eca5-4ee8-8bfb-db3d1bb05e3c","ios":"levelo://app?vid=dcd5ec24-eca5-4ee8-8bfb-db3d1bb05e3c"},"vehicle_type_id":"4","last_reported":1758467324,"current_range_meters":14000,"station_id":"ce4bgqh2rcd13ifvqc4g","pricing_plan_id":"cebpf4jnsgd1na2vs0mg"},{"bike_id":"c4c46887-158f-4e7a-bbf5-038161bedb04","system_id":"levelo_inurba_marseille","lat":43.31426,"lon":5.36218,"is_reserved":false,"is_disabled":false,"rental_uris":{"android":"levelo://app?vid=c4c46887-158f-4e7a-bbf5-038161bedb04","ios":"levelo://app?vid=c4c46887-158f-4e7a-bbf5-038161bedb04"},"vehicle_type_id":"4","last_reported":1758467324,"current_range_meters":14000,"station_id":"ce4bgs12rcd13ifvqcag","pricing_plan_id":"cebpf4jnsgd1na2vs0mg"},{"bike_id":"9176512c-2cc1-4df2-a8e0-6be514fbcdbf","system_id":"levelo_inurba_marseille","lat":43.33748,"lon":5.37465,"is_reserved":false,"is_disabled":false,"rental_uris":{"android":"levelo://app?vid=9176512c-2cc1-4df2-a8e0-6be514fbcdbf","ios":"levelo://app?vid=9176512c-2cc1-4df2-a8e0-6be514fbcdbf"},"vehicle_type_id":"4","last_reported":1758467324,"current_range_meters":14000,"station_id":"","pricing_plan_id":"cebpf4jnsgd1na2vs0mg"},{"bike_id":"ead4e7a4-8e9d-4a44-8a3a-67572f7060d5","system_id":"levelo_inurba_marseille","lat":43.2319,"lon":5.35559,"is_reserved":false,"is_disabled":false,"rental_uris":{"android":"levelo://app?vid=ead4e7a4-8e9d-4a44-8a3a-67572f7060d5","ios":"levelo://app?vid=ead4e7a4-8e9d-4a44-8a3a-67572f7060d5"},"vehicle_type_id":"4","last_reported":1758467324,"current_range_meters":14000,"station_id":"ce4bhu92rcd13ifvqi70","pricing_plan_id":"cebpf4jnsgd1na2vs0mg"},{"bike_id":"176a31c4-a17c-44ec-bbf6-50f8985ee1fc","system_id":"levelo_inurba_marseille","lat":43.25336,"lon":5.42157,"is_reserved":false,"is_disabled":false,"rental_uris":{"android":"levelo://app?vid=176a31c4-a17c-44ec-bbf6-50f8985ee1fc","ios":"levelo://app?vid=176a31c4-a17c-44ec-bbf6-50f8985ee1fc"},"vehicle_type_id":"4","last_reported":1758467324,"current_range_meters":14400,"station_id":"st_d2m65c5bi1j21697t3ng","pricing_plan_id":"cebpf4jnsgd1na2vs0mg"},{"bike_id":"a4473019-692e-4bd9-9b08-db083daad564","system_id":"levelo_inurba_marseille","lat":43.31987,"lon":5.38159,"is_reserved":false,"is_disabled":false,"rental_uris":{"android":"levelo://app?vid=a4473019-692e-4bd9-9b08-db083daad564","ios":"levelo://app?vid=a4473019-692e-4bd9-9b08-db083daad564"},"vehicle_type_id":"4","last_reported":1758467324,"current_range_meters":14400,"station_id":"ce4bhr12rcd13ifvqhpg","pricing_plan_id":"cebpf4jnsgd1na2vs0mg"},{"bike_id":"b22bfa05-faa9-4074-a1be-f504ad012798","system_id":"levelo_inurba_marseille","lat":43.31769,"lon":5.39023,"is_reserved":false,"is_disabled":false,"rental_uris":{"android":"levelo://app?vid=b22bfa05-faa9-4074-a1be-f504ad012798","ios":"levelo://app?vid=b22bfa05-faa9-4074-a1be-f504ad012798"},"vehicle_type_id":"4","last_reported":1758467324,"current_range_meters":14400,"station_id":"ce4bhqp2rcd13ifvqhng","pricing_plan_id":"cebpf4jnsgd1na2vs0mg"},{"bike_id":"162483fb-058a-43f7-a272-15e63e78b5bc","system_id":"levelo_inurba_marseille","lat":43.21749,"lon":5.34596,"is_reserved":false,"is_disabled":false,"rental_uris":{"android":"levelo://app?vid=162483fb-058a-43f7-a272-15e63e78b5bc","ios":"levelo://app?vid=162483fb-058a-43f7-a272-15e63e78b5bc"},"vehicle_type_id":"4","last_reported":1758467324,"current_range_meters":14400,"station_id":"st_cvj6r9ubvosntc0bgbag","pricing_plan_id":"cebpf4jnsgd1na2vs0mg"},{"bike_id":"3a29a1f1-5c4a-4b76-946d-53b072672149","system_id":"levelo_inurba_marseille","lat":43.24677,"lon":5.38151,"is_reserved":false,"is_disabled":false,"rental_uris":{"android":"levelo://app?vid=3a29a1f1-5c4a-4b76-946d-53b072672149","ios":"levelo://app?vid=3a29a1f1-5c4a-4b76-946d-53b072672149"},"vehicle_type_id":"4","last_reported":1758467324,"current_range_meters":14400,"station_id":"ce4bhih2rcd13ifvqfr0","pricing_plan_id":"cebpf4jnsgd1na2vs0mg"},{"bike_id":"438ead59-de14-4fa0-a61d-03a70a4122ae","system_id":"levelo_inurba_marseille","lat":43.97285,"lon":4.89134,"is_reserved":false,"is_disabled":true,"rental_uris":{"android":"levelo://app?vid=438ead59-de14-4fa0-a61d-03a70a4122ae","ios":"levelo://app?vid=438ead59-de14-4fa0-a61d-03a70a4122ae"},"vehicle_type_id":"4","last_reported":1758467324,"current_range_meters":14400,"station_id":"","pricing_plan_id":"cebpf4jnsgd1na2vs0mg"},{"bike_id":"e7f6ec9d-0d28-4bd8-a3da-83f0cd142dce","system_id":"levelo_inurba_marseille","lat":43.290291,"lon":5.386496,"is_reserved":false,"is_disabled":false,"rental_uris":{"android":"levelo://app?vid=e7f6ec9d-0d28-4bd8-a3da-83f0cd142dce","ios":"levelo://app?vid=e7f6ec9d-0d28-4bd8-a3da-83f0cd142dce"},"vehicle_type_id":"4","last_reported":1758467324,"current_range_meters":14800,"station_id":"","pricing_plan_id":"cebpf4jnsgd1na2vs0mg"},{"bike_id":"5012c91b-a53c-4c5f-901c-26f9fc9d8566","system_id":"levelo_inurba_marseille","lat":43.31108,"lon":5.37771,"is_reserved":false,"is_disabled":false,"rental_uris":{"android":"levelo://app?vid=5012c91b-a53c-4c5f-901c-26f9fc9d8566","ios":"levelo://app?vid=5012c91b-a53c-4c5f-901c-26f9fc9d8566"},"vehicle_type_id":"4","last_reported":1758467324,"current_range_meters":14800,"station_id":"ce4bgt92rcd13ifvqcg0","pricing_plan_id":"cebpf4jnsgd1na2vs0mg"},{"bike_id":"0c8a92f3-f5d4-48dc-bbf5-8177c0a48b95","system_id":"levelo_inurba_marseille","lat":43.296266,"lon":5.381417,"is_reserved":false,"is_disabled":false,"rental_uris":{"android":"levelo://app?vid=0c8a92f3-f5d4-48dc-bbf5-8177c0a48b95","ios":"levelo://app?vid=0c8a92f3-f5d4-48dc-bbf5-8177c0a48b95"},"vehicle_type_id":"4","last_reported":1758467324,"current_range_meters":14800,"station_id":"ce4bgl12rcd13ifvqbo0","pricing_plan_id":"cebpf4jnsgd1na2vs0mg"},{"bike_id":"6be3bd8b-eada-4f83-bfbf-82d34cec3c94","system_id":"levelo_inurba_marseille","lat":43.337724,"lon":5.374496,"is_reserved":false,"is_disabled":false,"rental_uris":{"android":"levelo://app?vid=6be3bd8b-eada-4f83-bfbf-82d34cec3c94","ios":"levelo://app?vid=6be3bd8b-eada-4f83-bfbf-82d34cec3c94"},"vehicle_type_id":"4","last_reported":1758467324,"current_range_meters":14800,"station_id":"","pricing_plan_id":"cebpf4jnsgd1na2vs0mg"},{"bike_id":"1398bb8d-3747-4057-8b53-f2d4ef610e89","system_id":"levelo_inurba_marseille","lat":43.30803,"lon":5.43503,"is_reserved":false,"is_disabled":false,"rental_uris":{"android":"levelo://app?vid=1398bb8d-3747-4057-8b53-f2d4ef610e89","ios":"levelo://app?vid=1398bb8d-3747-4057-8b53-f2d4ef610e89"},"vehicle_type_id":"4","last_reported":1758467324,"current_range_meters":14800,"station_id":"ce4bhph2rcd13ifvqheg","pricing_plan_id":"cebpf4jnsgd1na2vs0mg"},{"bike_id":"d0e7331e-ef06-4f90-a6d8-2d7400e61f31","system_id":"levelo_inurba_marseille","lat":43.29028,"lon":5.38621,"is_reserved":false,"is_disabled":false,"rental_uris":{"android":"levelo://app?vid=d0e7331e-ef06-4f90-a6d8-2d7400e61f31","ios":"levelo://app?vid=d0e7331e-ef06-4f90-a6d8-2d7400e61f31"},"vehicle_type_id":"4","last_reported":1758467324,"current_range_meters":14800,"station_id":"ce4bh4p2rcd13ifvqe0g","pricing_plan_id":"cebpf4jnsgd1na2vs0mg"},{"bike_id":"4f11911a-cc7c-43c0-9eb7-3e805f02abcf","system_id":"levelo_inurba_marseille","lat":43.30928,"lon":5.4014,"is_reserved":false,"is_disabled":false,"rental_uris":{"android":"levelo://app?vid=4f11911a-cc7c-43c0-9eb7-3e805f02abcf","ios":"levelo://app?vid=4f11911a-cc7c-43c0-9eb7-3e805f02abcf"},"vehicle_type_id":"4","last_reported":1758467324,"current_range_meters":14400,"station_id":"ce4bgvp2rcd13ifvqct0","pricing_plan_id":"cebpf4jnsgd1na2vs0mg"},{"bike_id":"14e0ecfc-848e-4179-ac98-8bf6c41189b5","system_id":"levelo_inurba_marseille","lat":43.30284,"lon":5.396613,"is_reserved":false,"is_disabled":false,"rental_uris":{"android":"levelo://app?vid=14e0ecfc-848e-4179-ac98-8bf6c41189b5","ios":"levelo://app?vid=14e0ecfc-848e-4179-ac98-8bf6c41189b5"},"vehicle_type_id":"4","last_reported":1758467324,"current_range_meters":15200,"station_id":"","pricing_plan_id":"cebpf4jnsgd1na2vs0mg"},{"bike_id":"f3805ac9-2ab6-41f8-b374-0887d951860e","system_id":"levelo_inurba_marseille","lat":43.21741,"lon":5.345767,"is_reserved":false,"is_disabled":false,"rental_uris":{"android":"levelo://app?vid=f3805ac9-2ab6-41f8-b374-0887d951860e","ios":"levelo://app?vid=f3805ac9-2ab6-41f8-b374-0887d951860e"},"vehicle_type_id":"4","last_reported":1758467324,"current_range_meters":15200,"station_id":"st_cvj6r9ubvosntc0bgbag","pricing_plan_id":"cebpf4jnsgd1na2vs0mg"},{"bike_id":"d112a482-2a92-4b40-a5ca-a1152605e1eb","system_id":"levelo_inurba_marseille","lat":43.24665,"lon":5.38158,"is_reserved":false,"is_disabled":false,"rental_uris":{"android":"levelo://app?vid=d112a482-2a92-4b40-a5ca-a1152605e1eb","ios":"levelo://app?vid=d112a482-2a92-4b40-a5ca-a1152605e1eb"},"vehicle_type_id":"4","last_reported":1758467324,"current_range_meters":15200,"station_id":"ce4bhih2rcd13ifvqfr0","pricing_plan_id":"cebpf4jnsgd1na2vs0mg"},{"bike_id":"9109df27-961b-41a2-8523-b34704f77eb3","system_id":"levelo_inurba_marseille","lat":43.31478,"lon":5.37304,"is_reserved":false,"is_disabled":false,"rental_uris":{"android":"levelo://app?vid=9109df27-961b-41a2-8523-b34704f77eb3","ios":"levelo://app?vid=9109df27-961b-41a2-8523-b34704f77eb3"},"vehicle_type_id":"4","last_reported":1758467324,"current_range_meters":15200,"station_id":"ce4bgt12rcd13ifvqcd0","pricing_plan_id":"cebpf4jnsgd1na2vs0mg"},{"bike_id":"1f5f1aea-0efa-4310-b0af-b5d79f6200fa","system_id":"levelo_inurba_marseille","lat":43.29559,"lon":5.42282,"is_reserved":false,"is_disabled":false,"rental_uris":{"android":"levelo://app?vid=1f5f1aea-0efa-4310-b0af-b5d79f6200fa","ios":"levelo://app?vid=1f5f1aea-0efa-4310-b0af-b5d79f6200fa"},"vehicle_type_id":"4","last_reported":1758467324,"current_range_meters":15200,"station_id":"ce4bhph2rcd13ifvqhdg","pricing_plan_id":"cebpf4jnsgd1na2vs0mg"},{"bike_id":"f68ef2ec-86ee-455b-a503-a1766a7ff2c8","system_id":"levelo_inurba_marseille","lat":43.29936,"lon":5.36524,"is_reserved":false,"is_disabled":false,"rental_uris":{"android":"levelo://app?vid=f68ef2ec-86ee-455b-a503-a1766a7ff2c8","ios":"levelo://app?vid=f68ef2ec-86ee-455b-a503-a1766a7ff2c8"},"vehicle_type_id":"4","last_reported":1758467324,"current_range_meters":16000,"station_id":"ce4bgm92rcd13ifvqbr0","pricing_plan_id":"cebpf4jnsgd1na2vs0mg"},{"bike_id":"ab3ffc48-3b72-4766-9326-6b75f94718d3","system_id":"levelo_inurba_marseille","lat":43.28915,"lon":5.38388,"is_reserved":false,"is_disabled":true,"rental_uris":{"android":"levelo://app?vid=ab3ffc48-3b72-4766-9326-6b75f94718d3","ios":"levelo://app?vid=ab3ffc48-3b72-4766-9326-6b75f94718d3"},"vehicle_type_id":"4","last_reported":1758467324,"current_range_meters":16000,"station_id":"ce4bh612rcd13ifvqe6g","pricing_plan_id":"cebpf4jnsgd1na2vs0mg"},{"bike_id":"d5856bb8-ffbe-4c60-bc2f-17fd57f28c8f","system_id":"levelo_inurba_marseille","lat":43.24632,"lon":5.38169,"is_reserved":false,"is_disabled":false,"rental_uris":{"android":"levelo://app?vid=d5856bb8-ffbe-4c60-bc2f-17fd57f28c8f","ios":"levelo://app?vid=d5856bb8-ffbe-4c60-bc2f-17fd57f28c8f"},"vehicle_type_id":"4","last_reported":1758467324,"current_range_meters":16000,"station_id":"ce4bhih2rcd13ifvqfr0","pricing_plan_id":"cebpf4jnsgd1na2vs0mg"},{"bike_id":"b8ef90bb-057a-402b-9655-3a68d78bcddb","system_id":"levelo_inurba_marseille","lat":43.26207,"lon":5.40453,"is_reserved":false,"is_disabled":false,"rental_uris":{"android":"levelo://app?vid=b8ef90bb-057a-402b-9655-3a68d78bcddb","ios":"levelo://app?vid=b8ef90bb-057a-402b-9655-3a68d78bcddb"},"vehicle_type_id":"4","last_reported":1758467324,"current_range_meters":16000,"station_id":"ce4bhmh2rcd13ifvqgmg","pricing_plan_id":"cebpf4jnsgd1na2vs0mg"},{"bike_id":"38d21d4e-06bb-4435-927f-f5024c4b55de","system_id":"levelo_inurba_marseille","lat":43.31991,"lon":5.38138,"is_reserved":false,"is_disabled":false,"rental_uris":{"android":"levelo://app?vid=38d21d4e-06bb-4435-927f-f5024c4b55de","ios":"levelo://app?vid=38d21d4e-06bb-4435-927f-f5024c4b55de"},"vehicle_type_id":"4","last_reported":1758467324,"current_range_meters":16000,"station_id":"ce4bhr12rcd13ifvqhpg","pricing_plan_id":"cebpf4jnsgd1na2vs0mg"},{"bike_id":"10067051-6bd8-4209-b97b-5b09e4d3f134","system_id":"levelo_inurba_marseille","lat":43.30089,"lon":5.39076,"is_reserved":false,"is_disabled":false,"rental_uris":{"android":"levelo://app?vid=10067051-6bd8-4209-b97b-5b09e4d3f134","ios":"levelo://app?vid=10067051-6bd8-4209-b97b-5b09e4d3f134"},"vehicle_type_id":"4","last_reported":1758467324,"current_range_meters":16000,"station_id":"ce4bh192rcd13ifvqdb0","pricing_plan_id":"cebpf4jnsgd1na2vs0mg"},{"bike_id":"8adacf04-b51f-4921-9ca0-6da30d4e418b","system_id":"levelo_inurba_marseille","lat":43.3112,"lon":5.37772,"is_reserved":false,"is_disabled":false,"rental_uris":{"android":"levelo://app?vid=8adacf04-b51f-4921-9ca0-6da30d4e418b","ios":"levelo://app?vid=8adacf04-b51f-4921-9ca0-6da30d4e418b"},"vehicle_type_id":"4","last_reported":1758467324,"current_range_meters":16400,"station_id":"ce4bgt92rcd13ifvqcg0","pricing_plan_id":"cebpf4jnsgd1na2vs0mg"},{"bike_id":"1e0fd49c-ac4b-47b7-af02-10561a312938","system_id":"levelo_inurba_marseille","lat":43.217464,"lon":5.34602,"is_reserved":false,"is_disabled":true,"rental_uris":{"android":"levelo://app?vid=1e0fd49c-ac4b-47b7-af02-10561a312938","ios":"levelo://app?vid=1e0fd49c-ac4b-47b7-af02-10561a312938"},"vehicle_type_id":"4","last_reported":1758467324,"current_range_meters":16400,"station_id":"st_cvj6r9ubvosntc0bgbag","pricing_plan_id":"cebpf4jnsgd1na2vs0mg"},{"bike_id":"15609c4e-f589-422c-9a62-c8d2d4eb92fd","system_id":"levelo_inurba_marseille","lat":43.31066,"lon":5.40062,"is_reserved":false,"is_disabled":false,"rental_uris":{"android":"levelo://app?vid=15609c4e-f589-422c-9a62-c8d2d4eb92fd","ios":"levelo://app?vid=15609c4e-f589-422c-9a62-c8d2d4eb92fd"},"vehicle_type_id":"4","last_reported":1758467324,"current_range_meters":16400,"station_id":"","pricing_plan_id":"cebpf4jnsgd1na2vs0mg"},{"bike_id":"f435f282-a9cc-4dfa-a499-8c666b149147","system_id":"levelo_inurba_marseille","lat":43.30592,"lon":5.39363,"is_reserved":false,"is_disabled":false,"rental_uris":{"android":"levelo://app?vid=f435f282-a9cc-4dfa-a499-8c666b149147","ios":"levelo://app?vid=f435f282-a9cc-4dfa-a499-8c666b149147"},"vehicle_type_id":"4","last_reported":1758467324,"current_range_meters":16800,"station_id":"ce4bh0p2rcd13ifvqd80","pricing_plan_id":"cebpf4jnsgd1na2vs0mg"},{"bike_id":"d8395244-8b52-4123-ba6d-41b45ffb6a2d","system_id":"levelo_inurba_marseille","lat":43.29192,"lon":5.39312,"is_reserved":false,"is_disabled":false,"rental_uris":{"android":"levelo://app?vid=d8395244-8b52-4123-ba6d-41b45ffb6a2d","ios":"levelo://app?vid=d8395244-8b52-4123-ba6d-41b45ffb6a2d"},"vehicle_type_id":"4","last_reported":1758467324,"current_range_meters":16000,"station_id":"ce4bh192rcd13ifvqdd0","pricing_plan_id":"cebpf4jnsgd1na2vs0mg"},{"bike_id":"76aabfa6-feff-4f9e-98e3-80f3ed3d34bb","system_id":"levelo_inurba_marseille","lat":43.30248,"lon":5.40067,"is_reserved":false,"is_disabled":false,"rental_uris":{"android":"levelo://app?vid=76aabfa6-feff-4f9e-98e3-80f3ed3d34bb","ios":"levelo://app?vid=76aabfa6-feff-4f9e-98e3-80f3ed3d34bb"},"vehicle_type_id":"4","last_reported":1758467324,"current_range_meters":16400,"station_id":"ce4bgvh2rcd13ifvqcs0","pricing_plan_id":"cebpf4jnsgd1na2vs0mg"},{"bike_id":"4806da5a-67b2-4245-853a-7c8de74bc531","system_id":"levelo_inurba_marseille","lat":43.270718,"lon":5.422837,"is_reserved":false,"is_disabled":false,"rental_uris":{"android":"levelo://app?vid=4806da5a-67b2-4245-853a-7c8de74bc531","ios":"levelo://app?vid=4806da5a-67b2-4245-853a-7c8de74bc531"},"vehicle_type_id":"4","last_reported":1758467324,"current_range_meters":16400,"station_id":"ce4bhk92rcd13ifvqgb0","pricing_plan_id":"cebpf4jnsgd1na2vs0mg"},{"bike_id":"43d57fd4-047e-4ac8-97e5-ec9b96239472","system_id":"levelo_inurba_marseille","lat":43.33123,"lon":5.39726,"is_reserved":false,"is_disabled":false,"rental_uris":{"android":"levelo://app?vid=43d57fd4-047e-4ac8-97e5-ec9b96239472","ios":"levelo://app?vid=43d57fd4-047e-4ac8-97e5-ec9b96239472"},"vehicle_type_id":"4","last_reported":1758467324,"current_range_meters":16400,"station_id":"","pricing_plan_id":"cebpf4jnsgd1na2vs0mg"},{"bike_id":"efaa8749-c2db-422a-a865-d855773eda00","system_id":"levelo_inurba_marseille","lat":43.29912,"lon":5.38142,"is_reserved":false,"is_disabled":false,"rental_uris":{"android":"levelo://app?vid=efaa8749-c2db-422a-a865-d855773eda00","ios":"levelo://app?vid=efaa8749-c2db-422a-a865-d855773eda00"},"vehicle_type_id":"4","last_reported":1758467324,"current_range_meters":16400,"station_id":"ce4bgj12rcd13ifvqbc0","pricing_plan_id":"cebpf4jnsgd1na2vs0mg"},{"bike_id":"99f2a0d1-a9bb-4a75-ad28-578d9b01c1fc","system_id":"levelo_inurba_marseille","lat":43.30141,"lon":5.38784,"is_reserved":false,"is_disabled":false,"rental_uris":{"android":"levelo://app?vid=99f2a0d1-a9bb-4a75-ad28-578d9b01c1fc","ios":"levelo://app?vid=99f2a0d1-a9bb-4a75-ad28-578d9b01c1fc"},"vehicle_type_id":"4","last_reported":1758467324,"current_range_meters":16800,"station_id":"ce4bghh2rcd13ifvqb60","pricing_plan_id":"cebpf4jnsgd1na2vs0mg"},{"bike_id":"89d932a4-f4b4-4493-8569-31d5f36c94e4","system_id":"levelo_inurba_marseille","lat":43.30312,"lon":5.39192,"is_reserved":false,"is_disabled":true,"rental_uris":{"android":"levelo://app?vid=89d932a4-f4b4-4493-8569-31d5f36c94e4","ios":"levelo://app?vid=89d932a4-f4b4-4493-8569-31d5f36c94e4"},"vehicle_type_id":"4","last_reported":1758467324,"current_range_meters":16800,"station_id":"ce4bgkh2rcd13ifvqbk0","pricing_plan_id":"cebpf4jnsgd1na2vs0mg"},{"bike_id":"31e1ba1a-f4b0-4377-81aa-27cf4b468137","system_id":"levelo_inurba_marseille","lat":43.30544,"lon":5.36499,"is_reserved":false,"is_disabled":false,"rental_uris":{"android":"levelo://app?vid=31e1ba1a-f4b0-4377-81aa-27cf4b468137","ios":"levelo://app?vid=31e1ba1a-f4b0-4377-81aa-27cf4b468137"},"vehicle_type_id":"4","last_reported":1758467324,"current_range_meters":16800,"station_id":"","pricing_plan_id":"cebpf4jnsgd1na2vs0mg"},{"bike_id":"24941c90-b821-416d-aefa-f59d17036653","system_id":"levelo_inurba_marseille","lat":43.24652,"lon":5.3889,"is_reserved":false,"is_disabled":false,"rental_uris":{"android":"levelo://app?vid=24941c90-b821-416d-aefa-f59d17036653","ios":"levelo://app?vid=24941c90-b821-416d-aefa-f59d17036653"},"vehicle_type_id":"4","last_reported":1758467324,"current_range_meters":16800,"station_id":"ce4bhg12rcd13ifvqf60","pricing_plan_id":"cebpf4jnsgd1na2vs0mg"},{"bike_id":"6e462536-3a01-4092-9490-0b0d7831c7b9","system_id":"levelo_inurba_marseille","lat":43.29513,"lon":5.38921,"is_reserved":false,"is_disabled":false,"rental_uris":{"android":"levelo://app?vid=6e462536-3a01-4092-9490-0b0d7831c7b9","ios":"levelo://app?vid=6e462536-3a01-4092-9490-0b0d7831c7b9"},"vehicle_type_id":"4","last_reported":1758467324,"current_range_meters":16800,"station_id":"","pricing_plan_id":"cebpf4jnsgd1na2vs0mg"},{"bike_id":"24bba917-eeb3-48d4-8cb3-e63edc62f009","system_id":"levelo_inurba_marseille","lat":43.30428,"lon":5.39746,"is_reserved":false,"is_disabled":false,"rental_uris":{"android":"levelo://app?vid=24bba917-eeb3-48d4-8cb3-e63edc62f009","ios":"levelo://app?vid=24bba917-eeb3-48d4-8cb3-e63edc62f009"},"vehicle_type_id":"4","last_reported":1758467324,"current_range_meters":16800,"station_id":"ce4bh092rcd13ifvqd20","pricing_plan_id":"cebpf4jnsgd1na2vs0mg"},{"bike_id":"c46575d3-d222-4081-9970-3a38bb708282","system_id":"levelo_inurba_marseille","lat":43.21746,"lon":5.34593,"is_reserved":false,"is_disabled":false,"rental_uris":{"android":"levelo://app?vid=c46575d3-d222-4081-9970-3a38bb708282","ios":"levelo://app?vid=c46575d3-d222-4081-9970-3a38bb708282"},"vehicle_type_id":"4","last_reported":1758467324,"current_range_meters":16800,"station_id":"st_cvj6r9ubvosntc0bgbag","pricing_plan_id":"cebpf4jnsgd1na2vs0mg"},{"bike_id":"25d3efaf-ba78-4c91-999d-3d3cc49718be","system_id":"levelo_inurba_marseille","lat":43.2792,"lon":5.39577,"is_reserved":false,"is_disabled":false,"rental_uris":{"android":"levelo://app?vid=25d3efaf-ba78-4c91-999d-3d3cc49718be","ios":"levelo://app?vid=25d3efaf-ba78-4c91-999d-3d3cc49718be"},"vehicle_type_id":"4","last_reported":1758467324,"current_range_meters":17200,"station_id":"ce4bhf92rcd13ifvqf40","pricing_plan_id":"cebpf4jnsgd1na2vs0mg"},{"bike_id":"b9e6e074-a56d-49da-9bdb-b2f9d067d50b","system_id":"levelo_inurba_marseille","lat":43.32283,"lon":5.38271,"is_reserved":false,"is_disabled":false,"rental_uris":{"android":"levelo://app?vid=b9e6e074-a56d-49da-9bdb-b2f9d067d50b","ios":"levelo://app?vid=b9e6e074-a56d-49da-9bdb-b2f9d067d50b"},"vehicle_type_id":"4","last_reported":1758467324,"current_range_meters":17200,"station_id":"ce4bhr12rcd13ifvqhqg","pricing_plan_id":"cebpf4jnsgd1na2vs0mg"},{"bike_id":"423aeb91-69f4-4522-916b-76a472005736","system_id":"levelo_inurba_marseille","lat":43.31475,"lon":5.38036,"is_reserved":false,"is_disabled":false,"rental_uris":{"android":"levelo://app?vid=423aeb91-69f4-4522-916b-76a472005736","ios":"levelo://app?vid=423aeb91-69f4-4522-916b-76a472005736"},"vehicle_type_id":"4","last_reported":1758467324,"current_range_meters":17200,"station_id":"","pricing_plan_id":"cebpf4jnsgd1na2vs0mg"},{"bike_id":"aeebe798-6413-477c-aec7-6d50b2f98bfb","system_id":"levelo_inurba_marseille","lat":43.30116,"lon":5.37455,"is_reserved":false,"is_disabled":false,"rental_uris":{"android":"levelo://app?vid=aeebe798-6413-477c-aec7-6d50b2f98bfb","ios":"levelo://app?vid=aeebe798-6413-477c-aec7-6d50b2f98bfb"},"vehicle_type_id":"4","last_reported":1758467324,"current_range_meters":17200,"station_id":"ce4bgs92rcd13ifvqcc0","pricing_plan_id":"cebpf4jnsgd1na2vs0mg"},{"bike_id":"ac0b6617-af50-44ca-96a6-237428833a9b","system_id":"levelo_inurba_marseille","lat":43.2856,"lon":5.39503,"is_reserved":false,"is_disabled":false,"rental_uris":{"android":"levelo://app?vid=ac0b6617-af50-44ca-96a6-237428833a9b","ios":"levelo://app?vid=ac0b6617-af50-44ca-96a6-237428833a9b"},"vehicle_type_id":"4","last_reported":1758467324,"current_range_meters":16800,"station_id":"ce4bh292rcd13ifvqdg0","pricing_plan_id":"cebpf4jnsgd1na2vs0mg"},{"bike_id":"0027789f-6160-429f-ae5d-fccd36e047d9","system_id":"levelo_inurba_marseille","lat":43.29538,"lon":5.37489,"is_reserved":false,"is_disabled":false,"rental_uris":{"android":"levelo://app?vid=0027789f-6160-429f-ae5d-fccd36e047d9","ios":"levelo://app?vid=0027789f-6160-429f-ae5d-fccd36e047d9"},"vehicle_type_id":"4","last_reported":1758467324,"current_range_meters":17200,"station_id":"ce4bgkp2rcd13ifvqbmg","pricing_plan_id":"cebpf4jnsgd1na2vs0mg"},{"bike_id":"aa615de6-88cf-4553-9e37-2b398204d202","system_id":"levelo_inurba_marseille","lat":43.21206,"lon":5.35069,"is_reserved":false,"is_disabled":false,"rental_uris":{"android":"levelo://app?vid=aa615de6-88cf-4553-9e37-2b398204d202","ios":"levelo://app?vid=aa615de6-88cf-4553-9e37-2b398204d202"},"vehicle_type_id":"4","last_reported":1758467324,"current_range_meters":17600,"station_id":"st_cvj6sg6p6f1abm77japg","pricing_plan_id":"cebpf4jnsgd1na2vs0mg"},{"bike_id":"d1114a25-396a-458c-bb3a-06443865c163","system_id":"levelo_inurba_marseille","lat":43.2979,"lon":5.3811,"is_reserved":false,"is_disabled":true,"rental_uris":{"android":"levelo://app?vid=d1114a25-396a-458c-bb3a-06443865c163","ios":"levelo://app?vid=d1114a25-396a-458c-bb3a-06443865c163"},"vehicle_type_id":"4","last_reported":1758467324,"current_range_meters":17600,"station_id":"ce4bgip2rcd13ifvqbb0","pricing_plan_id":"cebpf4jnsgd1na2vs0mg"},{"bike_id":"fdc779f7-1df1-49eb-947b-7e5f8d2e169b","system_id":"levelo_inurba_marseille","lat":43.27375,"lon":5.36259,"is_reserved":false,"is_disabled":false,"rental_uris":{"android":"levelo://app?vid=fdc779f7-1df1-49eb-947b-7e5f8d2e169b","ios":"levelo://app?vid=fdc779f7-1df1-49eb-947b-7e5f8d2e169b"},"vehicle_type_id":"4","last_reported":1758467324,"current_range_meters":17600,"station_id":"ce4bhbh2rcd13ifvqeo0","pricing_plan_id":"cebpf4jnsgd1na2vs0mg"},{"bike_id":"1907ea6d-9e4e-4d26-86ae-40462ac1a6be","system_id":"levelo_inurba_marseille","lat":43.29279,"lon":5.4013,"is_reserved":false,"is_disabled":false,"rental_uris":{"android":"levelo://app?vid=1907ea6d-9e4e-4d26-86ae-40462ac1a6be","ios":"levelo://app?vid=1907ea6d-9e4e-4d26-86ae-40462ac1a6be"},"vehicle_type_id":"4","last_reported":1758467324,"current_range_meters":17600,"station_id":"ce4bh312rcd13ifvqdk0","pricing_plan_id":"cebpf4jnsgd1na2vs0mg"},{"bike_id":"d64a3c34-4f58-4a33-9858-96d7eeac0575","system_id":"levelo_inurba_marseille","lat":43.21745,"lon":5.34597,"is_reserved":false,"is_disabled":true,"rental_uris":{"android":"levelo://app?vid=d64a3c34-4f58-4a33-9858-96d7eeac0575","ios":"levelo://app?vid=d64a3c34-4f58-4a33-9858-96d7eeac0575"},"vehicle_type_id":"4","last_reported":1758467324,"current_range_meters":17600,"station_id":"st_cvj6r9ubvosntc0bgbag","pricing_plan_id":"cebpf4jnsgd1na2vs0mg"},{"bike_id":"64c91519-fe08-4b02-9cbc-d61a4bfed212","system_id":"levelo_inurba_marseille","lat":43.31075,"lon":5.38361,"is_reserved":false,"is_disabled":false,"rental_uris":{"android":"levelo://app?vid=64c91519-fe08-4b02-9cbc-d61a4bfed212","ios":"levelo://app?vid=64c91519-fe08-4b02-9cbc-d61a4bfed212"},"vehicle_type_id":"4","last_reported":1758467324,"current_range_meters":17600,"station_id":"ce4bgv92rcd13ifvqcr0","pricing_plan_id":"cebpf4jnsgd1na2vs0mg"},{"bike_id":"34f32fc0-aa07-4a77-a798-5dff527258f0","system_id":"levelo_inurba_marseille","lat":43.28681,"lon":5.38665,"is_reserved":false,"is_disabled":false,"rental_uris":{"android":"levelo://app?vid=34f32fc0-aa07-4a77-a798-5dff527258f0","ios":"levelo://app?vid=34f32fc0-aa07-4a77-a798-5dff527258f0"},"vehicle_type_id":"4","last_reported":1758467324,"current_range_meters":17600,"station_id":"ce4bh492rcd13ifvqdug","pricing_plan_id":"cebpf4jnsgd1na2vs0mg"},{"bike_id":"6ca5f62d-7b53-40b8-9b98-43d6565efff6","system_id":"levelo_inurba_marseille","lat":43.24182,"lon":5.36363,"is_reserved":false,"is_disabled":false,"rental_uris":{"android":"levelo://app?vid=6ca5f62d-7b53-40b8-9b98-43d6565efff6","ios":"levelo://app?vid=6ca5f62d-7b53-40b8-9b98-43d6565efff6"},"vehicle_type_id":"4","last_reported":1758467324,"current_range_meters":17600,"station_id":"cpo36qri1sfpv3e86is0","pricing_plan_id":"cebpf4jnsgd1na2vs0mg"},{"bike_id":"efe89e27-9e84-475b-857f-f8e46a983c2e","system_id":"levelo_inurba_marseille","lat":43.30805,"lon":5.43522,"is_reserved":false,"is_disabled":false,"rental_uris":{"android":"levelo://app?vid=efe89e27-9e84-475b-857f-f8e46a983c2e","ios":"levelo://app?vid=efe89e27-9e84-475b-857f-f8e46a983c2e"},"vehicle_type_id":"4","last_reported":1758467324,"current_range_meters":17600,"station_id":"ce4bhph2rcd13ifvqheg","pricing_plan_id":"cebpf4jnsgd1na2vs0mg"},{"bike_id":"afef2020-4264-4237-93b1-66b7733fa599","system_id":"levelo_inurba_marseille","lat":43.30799,"lon":5.43512,"is_reserved":false,"is_disabled":false,"rental_uris":{"android":"levelo://app?vid=afef2020-4264-4237-93b1-66b7733fa599","ios":"levelo://app?vid=afef2020-4264-4237-93b1-66b7733fa599"},"vehicle_type_id":"4","last_reported":1758467324,"current_range_meters":18000,"station_id":"ce4bhph2rcd13ifvqheg","pricing_plan_id":"cebpf4jnsgd1na2vs0mg"},{"bike_id":"40af9c97-e433-4d5f-aa67-78d647ee5b4c","system_id":"levelo_inurba_marseille","lat":43.27503,"lon":5.42438,"is_reserved":false,"is_disabled":true,"rental_uris":{"android":"levelo://app?vid=40af9c97-e433-4d5f-aa67-78d647ee5b4c","ios":"levelo://app?vid=40af9c97-e433-4d5f-aa67-78d647ee5b4c"},"vehicle_type_id":"4","last_reported":1758467324,"current_range_meters":18000,"station_id":"ce4bhn92rcd13ifvqgrg","pricing_plan_id":"cebpf4jnsgd1na2vs0mg"},{"bike_id":"0375da8d-aae2-476c-8ecc-445d48dc2322","system_id":"levelo_inurba_marseille","lat":43.30894,"lon":5.37193,"is_reserved":false,"is_disabled":false,"rental_uris":{"android":"levelo://app?vid=0375da8d-aae2-476c-8ecc-445d48dc2322","ios":"levelo://app?vid=0375da8d-aae2-476c-8ecc-445d48dc2322"},"vehicle_type_id":"4","last_reported":1758467324,"current_range_meters":18000,"station_id":"ce4bguh2rcd13ifvqckg","pricing_plan_id":"cebpf4jnsgd1na2vs0mg"},{"bike_id":"94d430e6-52b3-4d21-80c9-c6dd4519a8fb","system_id":"levelo_inurba_marseille","lat":43.31783,"lon":5.3829,"is_reserved":false,"is_disabled":false,"rental_uris":{"android":"levelo://app?vid=94d430e6-52b3-4d21-80c9-c6dd4519a8fb","ios":"levelo://app?vid=94d430e6-52b3-4d21-80c9-c6dd4519a8fb"},"vehicle_type_id":"4","last_reported":1758467324,"current_range_meters":18000,"station_id":"","pricing_plan_id":"cebpf4jnsgd1na2vs0mg"},{"bike_id":"3ed3ffd3-4446-442c-ab85-82ac8c442074","system_id":"levelo_inurba_marseille","lat":43.31128,"lon":5.37758,"is_reserved":false,"is_disabled":false,"rental_uris":{"android":"levelo://app?vid=3ed3ffd3-4446-442c-ab85-82ac8c442074","ios":"levelo://app?vid=3ed3ffd3-4446-442c-ab85-82ac8c442074"},"vehicle_type_id":"4","last_reported":1758467324,"current_range_meters":18000,"station_id":"ce4bgt92rcd13ifvqcg0","pricing_plan_id":"cebpf4jnsgd1na2vs0mg"},{"bike_id":"b2be2404-53eb-4f74-9829-8104df3de106","system_id":"levelo_inurba_marseille","lat":43.33626,"lon":5.35453,"is_reserved":false,"is_disabled":false,"rental_uris":{"android":"levelo://app?vid=b2be2404-53eb-4f74-9829-8104df3de106","ios":"levelo://app?vid=b2be2404-53eb-4f74-9829-8104df3de106"},"vehicle_type_id":"4","last_reported":1758467324,"current_range_meters":18000,"station_id":"","pricing_plan_id":"cebpf4jnsgd1na2vs0mg"},{"bike_id":"4c45dcf0-0375-4adf-8dd3-12d937c0344d","system_id":"levelo_inurba_marseille","lat":43.30892,"lon":5.3721,"is_reserved":false,"is_disabled":true,"rental_uris":{"android":"levelo://app?vid=4c45dcf0-0375-4adf-8dd3-12d937c0344d","ios":"levelo://app?vid=4c45dcf0-0375-4adf-8dd3-12d937c0344d"},"vehicle_type_id":"4","last_reported":1758467324,"current_range_meters":18800,"station_id":"ce4bguh2rcd13ifvqckg","pricing_plan_id":"cebpf4jnsgd1na2vs0mg"},{"bike_id":"d4352419-6c3c-4908-87c5-5bb9ef3113c8","system_id":"levelo_inurba_marseille","lat":43.25731,"lon":5.4111,"is_reserved":false,"is_disabled":false,"rental_uris":{"android":"levelo://app?vid=d4352419-6c3c-4908-87c5-5bb9ef3113c8","ios":"levelo://app?vid=d4352419-6c3c-4908-87c5-5bb9ef3113c8"},"vehicle_type_id":"4","last_reported":1758467324,"current_range_meters":18800,"station_id":"ce4bhkp2rcd13ifvqgd0","pricing_plan_id":"cebpf4jnsgd1na2vs0mg"},{"bike_id":"8b69eec3-0f78-4432-893f-037945662443","system_id":"levelo_inurba_marseille","lat":43.24543,"lon":5.39515,"is_reserved":false,"is_disabled":false,"rental_uris":{"android":"levelo://app?vid=8b69eec3-0f78-4432-893f-037945662443","ios":"levelo://app?vid=8b69eec3-0f78-4432-893f-037945662443"},"vehicle_type_id":"4","last_reported":1758467324,"current_range_meters":18800,"station_id":"ce4bhlp2rcd13ifvqgjg","pricing_plan_id":"cebpf4jnsgd1na2vs0mg"},{"bike_id":"0f141caf-9dc3-4289-ae39-29e21e68b178","system_id":"levelo_inurba_marseille","lat":43.28458,"lon":5.35884,"is_reserved":false,"is_disabled":false,"rental_uris":{"android":"levelo://app?vid=0f141caf-9dc3-4289-ae39-29e21e68b178","ios":"levelo://app?vid=0f141caf-9dc3-4289-ae39-29e21e68b178"},"vehicle_type_id":"4","last_reported":1758467324,"current_range_meters":18000,"station_id":"ce4bhah2rcd13ifvqei0","pricing_plan_id":"cebpf4jnsgd1na2vs0mg"},{"bike_id":"2781df14-3956-4f54-a09d-7a60337bbf4a","system_id":"levelo_inurba_marseille","lat":43.26551,"lon":5.3729,"is_reserved":false,"is_disabled":true,"rental_uris":{"android":"levelo://app?vid=2781df14-3956-4f54-a09d-7a60337bbf4a","ios":"levelo://app?vid=2781df14-3956-4f54-a09d-7a60337bbf4a"},"vehicle_type_id":"4","last_reported":1758467324,"current_range_meters":18800,"station_id":"ce4bhg12rcd13ifvqf70","pricing_plan_id":"cebpf4jnsgd1na2vs0mg"},{"bike_id":"406d5375-05df-4c80-9634-bbaae008cdd2","system_id":"levelo_inurba_marseille","lat":43.2927,"lon":5.40139,"is_reserved":false,"is_disabled":false,"rental_uris":{"android":"levelo://app?vid=406d5375-05df-4c80-9634-bbaae008cdd2","ios":"levelo://app?vid=406d5375-05df-4c80-9634-bbaae008cdd2"},"vehicle_type_id":"4","last_reported":1758467324,"current_range_meters":18800,"station_id":"ce4bh312rcd13ifvqdk0","pricing_plan_id":"cebpf4jnsgd1na2vs0mg"},{"bike_id":"b339ab2c-7f4e-4f78-b77b-6800a39b2b65","system_id":"levelo_inurba_marseille","lat":43.290428,"lon":5.375563,"is_reserved":false,"is_disabled":true,"rental_uris":{"android":"levelo://app?vid=b339ab2c-7f4e-4f78-b77b-6800a39b2b65","ios":"levelo://app?vid=b339ab2c-7f4e-4f78-b77b-6800a39b2b65"},"vehicle_type_id":"4","last_reported":1758467324,"current_range_meters":18800,"station_id":"ce4bh692rcd13ifvqe90","pricing_plan_id":"cebpf4jnsgd1na2vs0mg"},{"bike_id":"fc71aad4-0991-4e37-88fe-ccb747a1b9b9","system_id":"levelo_inurba_marseille","lat":43.31487,"lon":5.37297,"is_reserved":false,"is_disabled":false,"rental_uris":{"android":"levelo://app?vid=fc71aad4-0991-4e37-88fe-ccb747a1b9b9","ios":"levelo://app?vid=fc71aad4-0991-4e37-88fe-ccb747a1b9b9"},"vehicle_type_id":"4","last_reported":1758467324,"current_range_meters":18800,"station_id":"ce4bgt12rcd13ifvqcd0","pricing_plan_id":"cebpf4jnsgd1na2vs0mg"},{"bike_id":"049b0910-7772-47de-92f7-3f95d2c2c77f","system_id":"levelo_inurba_marseille","lat":43.291013,"lon":5.44026,"is_reserved":false,"is_disabled":false,"rental_uris":{"android":"levelo://app?vid=049b0910-7772-47de-92f7-3f95d2c2c77f","ios":"levelo://app?vid=049b0910-7772-47de-92f7-3f95d2c2c77f"},"vehicle_type_id":"4","last_reported":1758467324,"current_range_meters":18800,"station_id":"","pricing_plan_id":"cebpf4jnsgd1na2vs0mg"},{"bike_id":"1b42cd4c-d95e-4691-a7bc-e89de20c4f72","system_id":"levelo_inurba_marseille","lat":43.29275,"lon":5.36849,"is_reserved":false,"is_disabled":false,"rental_uris":{"android":"levelo://app?vid=1b42cd4c-d95e-4691-a7bc-e89de20c4f72","ios":"levelo://app?vid=1b42cd4c-d95e-4691-a7bc-e89de20c4f72"},"vehicle_type_id":"4","last_reported":1758467324,"current_range_meters":18800,"station_id":"ce4bhbp2rcd13ifvqesg","pricing_plan_id":"cebpf4jnsgd1na2vs0mg"},{"bike_id":"5dd1ca5d-988e-458c-98c9-c4d77546454e","system_id":"levelo_inurba_marseille","lat":43.281538,"lon":5.426461,"is_reserved":false,"is_disabled":false,"rental_uris":{"android":"levelo://app?vid=5dd1ca5d-988e-458c-98c9-c4d77546454e","ios":"levelo://app?vid=5dd1ca5d-988e-458c-98c9-c4d77546454e"},"vehicle_type_id":"4","last_reported":1758467324,"current_range_meters":19200,"station_id":"ce4bhnh2rcd13ifvqgug","pricing_plan_id":"cebpf4jnsgd1na2vs0mg"},{"bike_id":"4a88aa83-a06e-4639-9a79-2112654492e3","system_id":"levelo_inurba_marseille","lat":43.295319,"lon":5.375022,"is_reserved":false,"is_disabled":false,"rental_uris":{"android":"levelo://app?vid=4a88aa83-a06e-4639-9a79-2112654492e3","ios":"levelo://app?vid=4a88aa83-a06e-4639-9a79-2112654492e3"},"vehicle_type_id":"4","last_reported":1758467324,"current_range_meters":19200,"station_id":"ce4bgkp2rcd13ifvqbmg","pricing_plan_id":"cebpf4jnsgd1na2vs0mg"},{"bike_id":"ef75d15d-c28a-4fe7-853a-ed887e41d629","system_id":"levelo_inurba_marseille","lat":43.217524,"lon":5.345968,"is_reserved":false,"is_disabled":true,"rental_uris":{"android":"levelo://app?vid=ef75d15d-c28a-4fe7-853a-ed887e41d629","ios":"levelo://app?vid=ef75d15d-c28a-4fe7-853a-ed887e41d629"},"vehicle_type_id":"4","last_reported":1758467324,"current_range_meters":19200,"station_id":"","pricing_plan_id":"cebpf4jnsgd1na2vs0mg"},{"bike_id":"89cbb4a2-844a-406c-b584-0997b52e1247","system_id":"levelo_inurba_marseille","lat":43.28077,"lon":5.39636,"is_reserved":false,"is_disabled":false,"rental_uris":{"android":"levelo://app?vid=89cbb4a2-844a-406c-b584-0997b52e1247","ios":"levelo://app?vid=89cbb4a2-844a-406c-b584-0997b52e1247"},"vehicle_type_id":"4","last_reported":1758467324,"current_range_meters":19200,"station_id":"ce4bho12rcd13ifvqh2g","pricing_plan_id":"cebpf4jnsgd1na2vs0mg"},{"bike_id":"34072093-f9b6-4017-998e-95b181d82c91","system_id":"levelo_inurba_marseille","lat":43.29454,"lon":5.38795,"is_reserved":false,"is_disabled":false,"rental_uris":{"android":"levelo://app?vid=34072093-f9b6-4017-998e-95b181d82c91","ios":"levelo://app?vid=34072093-f9b6-4017-998e-95b181d82c91"},"vehicle_type_id":"4","last_reported":1758467324,"current_range_meters":19200,"station_id":"","pricing_plan_id":"cebpf4jnsgd1na2vs0mg"},{"bike_id":"9649c7e2-d949-423f-b3a0-1f8c18bd5e38","system_id":"levelo_inurba_marseille","lat":43.26194,"lon":5.37448,"is_reserved":false,"is_disabled":false,"rental_uris":{"android":"levelo://app?vid=9649c7e2-d949-423f-b3a0-1f8c18bd5e38","ios":"levelo://app?vid=9649c7e2-d949-423f-b3a0-1f8c18bd5e38"},"vehicle_type_id":"4","last_reported":1758467324,"current_range_meters":19200,"station_id":"ce4bhgp2rcd13ifvqfc0","pricing_plan_id":"cebpf4jnsgd1na2vs0mg"},{"bike_id":"8521565e-bfad-404f-83f1-b8e5ea20b12e","system_id":"levelo_inurba_marseille","lat":43.3302,"lon":5.39037,"is_reserved":false,"is_disabled":false,"rental_uris":{"android":"levelo://app?vid=8521565e-bfad-404f-83f1-b8e5ea20b12e","ios":"levelo://app?vid=8521565e-bfad-404f-83f1-b8e5ea20b12e"},"vehicle_type_id":"4","last_reported":1758467324,"current_range_meters":19600,"station_id":"ce4bhr92rcd13ifvqhrg","pricing_plan_id":"cebpf4jnsgd1na2vs0mg"},{"bike_id":"f0a2292b-8596-4c05-8fc6-914a96bad6ca","system_id":"levelo_inurba_marseille","lat":43.293833,"lon":5.385842,"is_reserved":false,"is_disabled":false,"rental_uris":{"android":"levelo://app?vid=f0a2292b-8596-4c05-8fc6-914a96bad6ca","ios":"levelo://app?vid=f0a2292b-8596-4c05-8fc6-914a96bad6ca"},"vehicle_type_id":"4","last_reported":1758467324,"current_range_meters":19600,"station_id":"ce4bgih2rcd13ifvqba0","pricing_plan_id":"cebpf4jnsgd1na2vs0mg"},{"bike_id":"6b346825-221c-4f41-bac2-956b68082f3d","system_id":"levelo_inurba_marseille","lat":43.30136,"lon":5.37399,"is_reserved":false,"is_disabled":false,"rental_uris":{"android":"levelo://app?vid=6b346825-221c-4f41-bac2-956b68082f3d","ios":"levelo://app?vid=6b346825-221c-4f41-bac2-956b68082f3d"},"vehicle_type_id":"4","last_reported":1758467324,"current_range_meters":19600,"station_id":"ce4bgs92rcd13ifvqcc0","pricing_plan_id":"cebpf4jnsgd1na2vs0mg"},{"bike_id":"d18dbcad-30a9-4924-ac70-4a933207667d","system_id":"levelo_inurba_marseille","lat":43.30323,"lon":5.40443,"is_reserved":false,"is_disabled":true,"rental_uris":{"android":"levelo://app?vid=d18dbcad-30a9-4924-ac70-4a933207667d","ios":"levelo://app?vid=d18dbcad-30a9-4924-ac70-4a933207667d"},"vehicle_type_id":"4","last_reported":1758467324,"current_range_meters":19600,"station_id":"ce4bh012rcd13ifvqd10","pricing_plan_id":"cebpf4jnsgd1na2vs0mg"},{"bike_id":"fccfa6df-1be4-476d-81b9-2d4c6d82aebf","system_id":"levelo_inurba_marseille","lat":43.28415,"lon":5.37514,"is_reserved":false,"is_disabled":false,"rental_uris":{"android":"levelo://app?vid=fccfa6df-1be4-476d-81b9-2d4c6d82aebf","ios":"levelo://app?vid=fccfa6df-1be4-476d-81b9-2d4c6d82aebf"},"vehicle_type_id":"4","last_reported":1758467324,"current_range_meters":19600,"station_id":"ce4bh412rcd13ifvqds0","pricing_plan_id":"cebpf4jnsgd1na2vs0mg"},{"bike_id":"b336ad2c-f9bc-4134-a634-f9f54a0c1552","system_id":"levelo_inurba_marseille","lat":43.25333,"lon":5.42173,"is_reserved":false,"is_disabled":false,"rental_uris":{"android":"levelo://app?vid=b336ad2c-f9bc-4134-a634-f9f54a0c1552","ios":"levelo://app?vid=b336ad2c-f9bc-4134-a634-f9f54a0c1552"},"vehicle_type_id":"4","last_reported":1758467324,"current_range_meters":19600,"station_id":"st_d2m65c5bi1j21697t3ng","pricing_plan_id":"cebpf4jnsgd1na2vs0mg"},{"bike_id":"4c1a2a58-8bb9-4932-9f85-898e5552a50f","system_id":"levelo_inurba_marseille","lat":43.25406,"lon":5.39758,"is_reserved":false,"is_disabled":false,"rental_uris":{"android":"levelo://app?vid=4c1a2a58-8bb9-4932-9f85-898e5552a50f","ios":"levelo://app?vid=4c1a2a58-8bb9-4932-9f85-898e5552a50f"},"vehicle_type_id":"4","last_reported":1758467324,"current_range_meters":20000,"station_id":"","pricing_plan_id":"cebpf4jnsgd1na2vs0mg"},{"bike_id":"c1da5a49-9b63-4cb4-9712-cbd59ba3c537","system_id":"levelo_inurba_marseille","lat":43.29529,"lon":5.38546,"is_reserved":false,"is_disabled":false,"rental_uris":{"android":"levelo://app?vid=c1da5a49-9b63-4cb4-9712-cbd59ba3c537","ios":"levelo://app?vid=c1da5a49-9b63-4cb4-9712-cbd59ba3c537"},"vehicle_type_id":"4","last_reported":1758467324,"current_range_meters":20000,"station_id":"ce4bgih2rcd13ifvqba0","pricing_plan_id":"cebpf4jnsgd1na2vs0mg"},{"bike_id":"6c132bd4-2c1c-4bf9-b969-13fe852f0ab5","system_id":"levelo_inurba_marseille","lat":43.30478,"lon":5.37906,"is_reserved":false,"is_disabled":false,"rental_uris":{"android":"levelo://app?vid=6c132bd4-2c1c-4bf9-b969-13fe852f0ab5","ios":"levelo://app?vid=6c132bd4-2c1c-4bf9-b969-13fe852f0ab5"},"vehicle_type_id":"4","last_reported":1758467324,"current_range_meters":20000,"station_id":"ce4bgup2rcd13ifvqcn0","pricing_plan_id":"cebpf4jnsgd1na2vs0mg"},{"bike_id":"7892afb0-b6dc-4554-bc3e-14c742d4c5ba","system_id":"levelo_inurba_marseille","lat":43.30879,"lon":5.396517,"is_reserved":false,"is_disabled":false,"rental_uris":{"android":"levelo://app?vid=7892afb0-b6dc-4554-bc3e-14c742d4c5ba","ios":"levelo://app?vid=7892afb0-b6dc-4554-bc3e-14c742d4c5ba"},"vehicle_type_id":"4","last_reported":1758467324,"current_range_meters":20000,"station_id":"ce4bh012rcd13ifvqcv0","pricing_plan_id":"cebpf4jnsgd1na2vs0mg"},{"bike_id":"c1e05a61-d563-40d7-88ed-812d8fd549da","system_id":"levelo_inurba_marseille","lat":43.21208,"lon":5.35079,"is_reserved":false,"is_disabled":true,"rental_uris":{"android":"levelo://app?vid=c1e05a61-d563-40d7-88ed-812d8fd549da","ios":"levelo://app?vid=c1e05a61-d563-40d7-88ed-812d8fd549da"},"vehicle_type_id":"4","last_reported":1758467324,"current_range_meters":20000,"station_id":"st_cvj6sg6p6f1abm77japg","pricing_plan_id":"cebpf4jnsgd1na2vs0mg"},{"bike_id":"45f8281d-f991-49a0-bc16-dfdc75493827","system_id":"levelo_inurba_marseille","lat":43.30434,"lon":5.39749,"is_reserved":false,"is_disabled":false,"rental_uris":{"android":"levelo://app?vid=45f8281d-f991-49a0-bc16-dfdc75493827","ios":"levelo://app?vid=45f8281d-f991-49a0-bc16-dfdc75493827"},"vehicle_type_id":"4","last_reported":1758467324,"current_range_meters":19600,"station_id":"ce4bh092rcd13ifvqd20","pricing_plan_id":"cebpf4jnsgd1na2vs0mg"},{"bike_id":"abc02627-f0ef-43d1-9183-1385e7d4f633","system_id":"levelo_inurba_marseille","lat":43.2668,"lon":5.38266,"is_reserved":false,"is_disabled":false,"rental_uris":{"android":"levelo://app?vid=abc02627-f0ef-43d1-9183-1385e7d4f633","ios":"levelo://app?vid=abc02627-f0ef-43d1-9183-1385e7d4f633"},"vehicle_type_id":"4","last_reported":1758467324,"current_range_meters":20000,"station_id":"ce4bhg92rcd13ifvqf90","pricing_plan_id":"cebpf4jnsgd1na2vs0mg"},{"bike_id":"dfc5318a-3c18-4b7b-b0be-1a4fb43c1afa","system_id":"levelo_inurba_marseille","lat":43.30638,"lon":5.40105,"is_reserved":false,"is_disabled":false,"rental_uris":{"android":"levelo://app?vid=dfc5318a-3c18-4b7b-b0be-1a4fb43c1afa","ios":"levelo://app?vid=dfc5318a-3c18-4b7b-b0be-1a4fb43c1afa"},"vehicle_type_id":"4","last_reported":1758467324,"current_range_meters":19600,"station_id":"ce4bh112rcd13ifvqda0","pricing_plan_id":"cebpf4jnsgd1na2vs0mg"},{"bike_id":"7d49d648-9c61-4931-9dc5-e717050686b5","system_id":"levelo_inurba_marseille","lat":43.28283,"lon":5.3507,"is_reserved":false,"is_disabled":false,"rental_uris":{"android":"levelo://app?vid=7d49d648-9c61-4931-9dc5-e717050686b5","ios":"levelo://app?vid=7d49d648-9c61-4931-9dc5-e717050686b5"},"vehicle_type_id":"4","last_reported":1758467324,"current_range_meters":19600,"station_id":"ce4bhbp2rcd13ifvqerg","pricing_plan_id":"cebpf4jnsgd1na2vs0mg"},{"bike_id":"4519ded0-f3b9-42bd-af35-e69456d100e8","system_id":"levelo_inurba_marseille","lat":43.2929,"lon":5.38332,"is_reserved":false,"is_disabled":false,"rental_uris":{"android":"levelo://app?vid=4519ded0-f3b9-42bd-af35-e69456d100e8","ios":"levelo://app?vid=4519ded0-f3b9-42bd-af35-e69456d100e8"},"vehicle_type_id":"4","last_reported":1758467324,"current_range_meters":20000,"station_id":"","pricing_plan_id":"cebpf4jnsgd1na2vs0mg"},{"bike_id":"0be325c6-3dbc-4d06-9486-1f302e4d7c36","system_id":"levelo_inurba_marseille","lat":43.31256,"lon":5.36862,"is_reserved":false,"is_disabled":false,"rental_uris":{"android":"levelo://app?vid=0be325c6-3dbc-4d06-9486-1f302e4d7c36","ios":"levelo://app?vid=0be325c6-3dbc-4d06-9486-1f302e4d7c36"},"vehicle_type_id":"4","last_reported":1758467324,"current_range_meters":20400,"station_id":"ce4bgl92rcd13ifvqbq0","pricing_plan_id":"cebpf4jnsgd1na2vs0mg"},{"bike_id":"c26158b0-5004-4088-9798-c4b79c65c26d","system_id":"levelo_inurba_marseille","lat":43.33745,"lon":5.39178,"is_reserved":false,"is_disabled":false,"rental_uris":{"android":"levelo://app?vid=c26158b0-5004-4088-9798-c4b79c65c26d","ios":"levelo://app?vid=c26158b0-5004-4088-9798-c4b79c65c26d"},"vehicle_type_id":"4","last_reported":1758467324,"current_range_meters":20400,"station_id":"ce4bhr92rcd13ifvqhsg","pricing_plan_id":"cebpf4jnsgd1na2vs0mg"},{"bike_id":"00097665-a835-434a-87df-bc4092c235bd","system_id":"levelo_inurba_marseille","lat":43.30543,"lon":5.36514,"is_reserved":false,"is_disabled":false,"rental_uris":{"android":"levelo://app?vid=00097665-a835-434a-87df-bc4092c235bd","ios":"levelo://app?vid=00097665-a835-434a-87df-bc4092c235bd"},"vehicle_type_id":"4","last_reported":1758467324,"current_range_meters":20400,"station_id":"ce4bgs12rcd13ifvqcag","pricing_plan_id":"cebpf4jnsgd1na2vs0mg"},{"bike_id":"315faa4f-37ae-494c-ba66-3729e95fab23","system_id":"levelo_inurba_marseille","lat":43.2593,"lon":5.40903,"is_reserved":false,"is_disabled":false,"rental_uris":{"android":"levelo://app?vid=315faa4f-37ae-494c-ba66-3729e95fab23","ios":"levelo://app?vid=315faa4f-37ae-494c-ba66-3729e95fab23"},"vehicle_type_id":"4","last_reported":1758467324,"current_range_meters":20400,"station_id":"ce4bhm92rcd13ifvqglg","pricing_plan_id":"cebpf4jnsgd1na2vs0mg"},{"bike_id":"c680334c-fb2b-4353-b7df-e2497766ab5a","system_id":"levelo_inurba_marseille","lat":43.28001,"lon":5.38696,"is_reserved":false,"is_disabled":false,"rental_uris":{"android":"levelo://app?vid=c680334c-fb2b-4353-b7df-e2497766ab5a","ios":"levelo://app?vid=c680334c-fb2b-4353-b7df-e2497766ab5a"},"vehicle_type_id":"4","last_reported":1758467324,"current_range_meters":20800,"station_id":"ce4bh512rcd13ifvqe3g","pricing_plan_id":"cebpf4jnsgd1na2vs0mg"},{"bike_id":"1cb428ef-d0e9-4637-80f1-d2f6f74b5555","system_id":"levelo_inurba_marseille","lat":43.29096,"lon":5.3814,"is_reserved":false,"is_disabled":false,"rental_uris":{"android":"levelo://app?vid=1cb428ef-d0e9-4637-80f1-d2f6f74b5555","ios":"levelo://app?vid=1cb428ef-d0e9-4637-80f1-d2f6f74b5555"},"vehicle_type_id":"4","last_reported":1758467324,"current_range_meters":20400,"station_id":"ce4bh512rcd13ifvqe2g","pricing_plan_id":"cebpf4jnsgd1na2vs0mg"},{"bike_id":"3cc54138-dc2f-4c8a-8ae4-6f354b80563d","system_id":"levelo_inurba_marseille","lat":43.24948,"lon":5.404881,"is_reserved":false,"is_disabled":false,"rental_uris":{"android":"levelo://app?vid=3cc54138-dc2f-4c8a-8ae4-6f354b80563d","ios":"levelo://app?vid=3cc54138-dc2f-4c8a-8ae4-6f354b80563d"},"vehicle_type_id":"4","last_reported":1758467324,"current_range_meters":20800,"station_id":"st_d2ngiaodas8pm72gd1h0","pricing_plan_id":"cebpf4jnsgd1na2vs0mg"},{"bike_id":"288545f3-70d3-4abf-80ae-05a82dc38b76","system_id":"levelo_inurba_marseille","lat":43.30324,"lon":5.40424,"is_reserved":false,"is_disabled":false,"rental_uris":{"android":"levelo://app?vid=288545f3-70d3-4abf-80ae-05a82dc38b76","ios":"levelo://app?vid=288545f3-70d3-4abf-80ae-05a82dc38b76"},"vehicle_type_id":"4","last_reported":1758467324,"current_range_meters":20800,"station_id":"ce4bh012rcd13ifvqd10","pricing_plan_id":"cebpf4jnsgd1na2vs0mg"},{"bike_id":"68749862-bf69-4ec4-b5a9-faa1b2d76a93","system_id":"levelo_inurba_marseille","lat":43.28488,"lon":5.38421,"is_reserved":false,"is_disabled":false,"rental_uris":{"android":"levelo://app?vid=68749862-bf69-4ec4-b5a9-faa1b2d76a93","ios":"levelo://app?vid=68749862-bf69-4ec4-b5a9-faa1b2d76a93"},"vehicle_type_id":"4","last_reported":1758467324,"current_range_meters":20800,"station_id":"ce4bh512rcd13ifvqe3g","pricing_plan_id":"cebpf4jnsgd1na2vs0mg"},{"bike_id":"3f1aed08-d95b-4adc-a4c7-8b8a9f732818","system_id":"levelo_inurba_marseille","lat":43.25732,"lon":5.41125,"is_reserved":false,"is_disabled":false,"rental_uris":{"android":"levelo://app?vid=3f1aed08-d95b-4adc-a4c7-8b8a9f732818","ios":"levelo://app?vid=3f1aed08-d95b-4adc-a4c7-8b8a9f732818"},"vehicle_type_id":"4","last_reported":1758467324,"current_range_meters":20800,"station_id":"ce4bhkp2rcd13ifvqgd0","pricing_plan_id":"cebpf4jnsgd1na2vs0mg"},