{"last_updated":1684134402,"ttl":30,"version":"2.2","data":{"bikes":[{"bike_id":"13bf6098-fdd5-4a63-8363-c62a6dc2fd83","system_id":"levelo_inurba_marseille","lat":43.313391,"lon":5.36706,"is_reserved":false,"is_disabled":false,"rental_uris":{"android":"levelo://app?vid=13bf6098-fdd5-4a63-8363-c62a6dc2fd83","ios":"levelo://app?vid=13bf6098-fdd5-4a63-8363-c62a6dc2fd83"},"vehicle_type_id":"4","last_reported":1684134403,"current_range_meters":24000,"station_id":"ce4bgr92rcd13ifvqc6g","pricing_plan_id":"free"},{"bike_id":"625b4ec8-24db-43d8-8c52-7885275d6ee2","system_id":"levelo_inurba_marseille","lat":43.31341,"lon":5.367098,"is_reserved":false,"is_disabled":false,"rental_uris":{"android":"levelo://app?vid=625b4ec8-24db-43d8-8c52-7885275d6ee2","ios":"levelo://app?vid=625b4ec8-24db-43d8-8c52-7885275d6ee2"},"vehicle_type_id":"4","last_reported":1684134403,"current_range_meters":27200,"station_id":"ce4bgr92rcd13ifvqc6g","pricing_plan_id":"free"},{"bike_id":"7e99c316-3e2c-47cd-af7b-c38b37c9122c","system_id":"levelo_inurba_marseille","lat":43.313391,"lon":5.36706,"is_reserved":false,"is_disabled":false,"rental_uris":{"android":"levelo://app?vid=7e99c316-3e2c-47cd-af7b-c38b37c9122c","ios":"levelo://app?vid=7e99c316-3e2c-47cd-af7b-c38b37c9122c"},"vehicle_type_id":"4","last_reported":1684134403,"current_range_meters":25200,"station_id":"ce4bgr92rcd13ifvqc6g","pricing_plan_id":"free"},{"bike_id":"71835020-a154-46ed-949d-e49174e82d92","system_id":"levelo_inurba_marseille","lat":43.313391,"lon":5.36706,"is_reserved":false,"is_disabled":false,"rental_uris":{"android":"levelo://app?vid=71835020-a154-46ed-949d-e49174e82d92","ios":"levelo://app?vid=71835020-a154-46ed-949d-e49174e82d92"},"vehicle_type_id":"4","last_reported":1684134403,"current_range_meters":15600,"station_id":"ce4bgr92rcd13ifvqc6g","pricing_plan_id":"free"},{"bike_id":"6f284399-54bb-45e5-90e8-26de975ce98d","system_id":"levelo_inurba_marseille","lat":43.313391,"lon":5.36706,"is_reserved":false,"is_disabled":false,"rental_uris":{"android":"levelo://app?vid=6f284399-54bb-45e5-90e8-26de975ce98d","ios":"levelo://app?vid=6f284399-54bb-45e5-90e8-26de975ce98d"},"vehicle_type_id":"4","last_reported":1684134403,"current_range_meters":30400,"station_id":"ce4bgr92rcd13ifvqc6g","pricing_plan_id":"free"},{"bike_id":"5f7ccbe0-7ba3-46c2-ba76-bcdfabe3626c","system_id":"levelo_inurba_marseille","lat":43.312239,"lon":5.368562,"is_reserved":false,"is_disabled":false,"rental_uris":{"android":"levelo://app?vid=5f7ccbe0-7ba3-46c2-ba76-bcdfabe3626c","ios":"levelo://app?vid=5f7ccbe0-7ba3-46c2-ba76-bcdfabe3626c"},"vehicle_type_id":"4","last_reported":1684134403,"current_range_meters":14000,"station_id":"ce4bgl92rcd13ifvqbq0","pricing_plan_id":"free"},{"bike_id":"214a03f7-99b2-4962-bf00-1b40cafdda04","system_id":"levelo_inurba_marseille","lat":43.31221,"lon":5.36842,"is_reserved":false,"is_disabled":false,"rental_uris":{"android":"levelo://app?vid=214a03f7-99b2-4962-bf00-1b40cafdda04","ios":"levelo://app?vid=214a03f7-99b2-4962-bf00-1b40cafdda04"},"vehicle_type_id":"4","last_reported":1684134403,"current_range_meters":7200,"station_id":"ce4bgl92rcd13ifvqbq0","pricing_plan_id":"free"},{"bike_id":"82f59c2f-3a65-4cad-a257-4dae6ea2bc4c","system_id":"levelo_inurba_marseille","lat":43.312239,"lon":5.368562,"is_reserved":false,"is_disabled":false,"rental_uris":{"android":"levelo://app?vid=82f59c2f-3a65-4cad-a257-4dae6ea2bc4c","ios":"levelo://app?vid=82f59c2f-3a65-4cad-a257-4dae6ea2bc4c"},"vehicle_type_id":"4","last_reported":1684134403,"current_range_meters":27600,"station_id":"ce4bgl92rcd13ifvqbq0","pricing_plan_id":"free"},{"bike_id":"0aae1dc5-f73e-45c5-b794-a5492ad865cd","system_id":"levelo_inurba_marseille","lat":43.312239,"lon":5.368562,"is_reserved":false,"is_disabled":false,"rental_uris":{"android":"levelo://app?vid=0aae1dc5-f73e-45c5-b794-a5492ad865cd","ios":"levelo://app?vid=0aae1dc5-f73e-45c5-b794-a5492ad865cd"},"vehicle_type_id":"4","last_reported":1684134403,"current_range_meters":28800,"station_id":"ce4bgl92rcd13ifvqbq0","pricing_plan_id":"free"},{"bike_id":"a235c6bb-f626-47af-a695-1f3b704f85a7","system_id":"levelo_inurba_marseille","lat":43.312239,"lon":5.368562,"is_reserved":false,"is_disabled":false,"rental_uris":{"android":"levelo://app?vid=a235c6bb-f626-47af-a695-1f3b704f85a7","ios":"levelo://app?vid=a235c6bb-f626-47af-a695-1f3b704f85a7"},"vehicle_type_id":"4","last_reported":1684134403,"current_range_meters":28400,"station_id":"ce4bgl92rcd13ifvqbq0","pricing_plan_id":"free"},{"bike_id":"c5587543-677e-4441-b84f-890b907ac93f","system_id":"levelo_inurba_marseille","lat":43.312239,"lon":5.368562,"is_reserved":false,"is_disabled":false,"rental_uris":{"android":"levelo://app?vid=c5587543-677e-4441-b84f-890b907ac93f","ios":"levelo://app?vid=c5587543-677e-4441-b84f-890b907ac93f"},"vehicle_type_id":"4","last_reported":1684134403,"current_range_meters":22400,"station_id":"ce4bgl92rcd13ifvqbq0","pricing_plan_id":"free"},{"bike_id":"51a4399f-0e7e-409f-a504-ec117da5939f","system_id":"levelo_inurba_marseille","lat":43.312239,"lon":5.368562,"is_reserved":false,"is_disabled":false,"rental_uris":{"android":"levelo://app?vid=51a4399f-0e7e-409f-a504-ec117da5939f","ios":"levelo://app?vid=51a4399f-0e7e-409f-a504-ec117da5939f"},"vehicle_type_id":"4","last_reported":1684134403,"current_range_meters":2400,"station_id":"ce4bgl92rcd13ifvqbq0","pricing_plan_id":"free"},{"bike_id":"7a7046ed-1dd6-406c-ba12-a369f7297468","system_id":"levelo_inurba_marseille","lat":43.312239,"lon":5.368562,"is_reserved":false,"is_disabled":false,"rental_uris":{"android":"levelo://app?vid=7a7046ed-1dd6-406c-ba12-a369f7297468","ios":"levelo://app?vid=7a7046ed-1dd6-406c-ba12-a369f7297468"},"vehicle_type_id":"4","last_reported":1684134403,"current_range_meters":18000,"station_id":"ce4bgl92rcd13ifvqbq0","pricing_plan_id":"free"},{"bike_id":"ffc1bdc9-3270-4198-9f22-05b7f4c60f80","system_id":"levelo_inurba_marseille","lat":43.313391,"lon":5.36706,"is_reserved":false,"is_disabled":false,"rental_uris":{"android":"levelo://app?vid=ffc1bdc9-3270-4198-9f22-05b7f4c60f80","ios":"levelo://app?vid=ffc1bdc9-3270-4198-9f22-05b7f4c60f80"},"vehicle_type_id":"4","last_reported":1684134403,"current_range_meters":11600,"station_id":"ce4bgr92rcd13ifvqc6g","pricing_plan_id":"free"},{"bike_id":"ccfd9ed1-a977-4812-91d3-0c894b07de7b","system_id":"levelo_inurba_marseille","lat":43.315199,"lon":5.36664,"is_reserved":false,"is_disabled":false,"rental_uris":{"android":"levelo://app?vid=ccfd9ed1-a977-4812-91d3-0c894b07de7b","ios":"levelo://app?vid=ccfd9ed1-a977-4812-91d3-0c894b07de7b"},"vehicle_type_id":"4","last_reported":1684134403,"current_range_meters":18800,"station_id":"ce4bh9p2rcd13ifvqec0","pricing_plan_id":"free"},{"bike_id":"1a5b6848-6145-4ea7-b505-0322887a6b39","system_id":"levelo_inurba_marseille","lat":43.309076,"lon":5.368465,"is_reserved":false,"is_disabled":false,"rental_uris":{"android":"levelo://app?vid=1a5b6848-6145-4ea7-b505-0322887a6b39","ios":"levelo://app?vid=1a5b6848-6145-4ea7-b505-0322887a6b39"},"vehicle_type_id":"4","last_reported":1684134403,"current_range_meters":18400,"station_id":"ce4bgn92rcd13ifvqbvg","pricing_plan_id":"free"},{"bike_id":"118e209d-70db-4531-80d6-e7241575f8fa","system_id":"levelo_inurba_marseille","lat":43.309076,"lon":5.368465,"is_reserved":false,"is_disabled":false,"rental_uris":{"android":"levelo://app?vid=118e209d-70db-4531-80d6-e7241575f8fa","ios":"levelo://app?vid=118e209d-70db-4531-80d6-e7241575f8fa"},"vehicle_type_id":"4","last_reported":1684134403,"current_range_meters":0,"station_id":"ce4bgn92rcd13ifvqbvg","pricing_plan_id":"free"},{"bike_id":"8b2e003d-ff95-4e30-96fa-1b9c541945ae","system_id":"levelo_inurba_marseille","lat":43.309076,"lon":5.368465,"is_reserved":false,"is_disabled":false,"rental_uris":{"android":"levelo://app?vid=8b2e003d-ff95-4e30-96fa-1b9c541945ae","ios":"levelo://app?vid=8b2e003d-ff95-4e30-96fa-1b9c541945ae"},"vehicle_type_id":"4","last_reported":1684134403,"current_range_meters":30000,"station_id":"ce4bgn92rcd13ifvqbvg","pricing_plan_id":"free"},{"bike_id":"282f93e1-4f48-404f-9d64-edfb54854307","system_id":"levelo_inurba_marseille","lat":43.309135,"lon":5.368352,"is_reserved":false,"is_disabled":false,"rental_uris":{"android":"levelo://app?vid=282f93e1-4f48-404f-9d64-edfb54854307","ios":"levelo://app?vid=282f93e1-4f48-404f-9d64-edfb54854307"},"vehicle_type_id":"4","last_reported":1684134403,"current_range_meters":13200,"station_id":"ce4bgn92rcd13ifvqbvg","pricing_plan_id":"free"},{"bike_id":"3811303b-9d1b-4f1a-a57e-0b97e759ce98","system_id":"levelo_inurba_marseille","lat":43.309144,"lon":5.368424,"is_reserved":false,"is_disabled":false,"rental_uris":{"android":"levelo://app?vid=3811303b-9d1b-4f1a-a57e-0b97e759ce98","ios":"levelo://app?vid=3811303b-9d1b-4f1a-a57e-0b97e759ce98"},"vehicle_type_id":"4","last_reported":1684134403,"current_range_meters":16400,"station_id":"ce4bgn92rcd13ifvqbvg","pricing_plan_id":"free"},{"bike_id":"685f471f-ee94-4ece-853c-ecc0ea10c057","system_id":"levelo_inurba_marseille","lat":43.30915,"lon":5.36849,"is_reserved":false,"is_disabled":false,"rental_uris":{"android":"levelo://app?vid=685f471f-ee94-4ece-853c-ecc0ea10c057","ios":"levelo://app?vid=685f471f-ee94-4ece-853c-ecc0ea10c057"},"vehicle_type_id":"4","last_reported":1684134403,"current_range_meters":30800,"station_id":"ce4bgn92rcd13ifvqbvg","pricing_plan_id":"free"},{"bike_id":"c11d841f-280d-4942-ba29-bc530c7cb73b","system_id":"levelo_inurba_marseille","lat":43.309076,"lon":5.368465,"is_reserved":false,"is_disabled":false,"rental_uris":{"android":"levelo://app?vid=c11d841f-280d-4942-ba29-bc530c7cb73b","ios":"levelo://app?vid=c11d841f-280d-4942-ba29-bc530c7cb73b"},"vehicle_type_id":"4","last_reported":1684134403,"current_range_meters":30400,"station_id":"ce4bgn92rcd13ifvqbvg","pricing_plan_id":"free"},{"bike_id":"c98fd8bc-a8ea-4356-a1ff-ee4a8fd5c4f2","system_id":"levelo_inurba_marseille","lat":43.309076,"lon":5.368465,"is_reserved":false,"is_disabled":false,"rental_uris":{"android":"levelo://app?vid=c98fd8bc-a8ea-4356-a1ff-ee4a8fd5c4f2","ios":"levelo://app?vid=c98fd8bc-a8ea-4356-a1ff-ee4a8fd5c4f2"},"vehicle_type_id":"4","last_reported":1684134403,"current_range_meters":26800,"station_id":"ce4bgn92rcd13ifvqbvg","pricing_plan_id":"free"},{"bike_id":"4a87d382-110e-48c3-98b7-96b9bf654a7d","system_id":"levelo_inurba_marseille","lat":43.309076,"lon":5.368465,"is_reserved":false,"is_disabled":false,"rental_uris":{"android":"levelo://app?vid=4a87d382-110e-48c3-98b7-96b9bf654a7d","ios":"levelo://app?vid=4a87d382-110e-48c3-98b7-96b9bf654a7d"},"vehicle_type_id":"4","last_reported":1684134403,"current_range_meters":16400,"station_id":"ce4bgn92rcd13ifvqbvg","pricing_plan_id":"free"},{"bike_id":"ab9fe796-3880-4534-bb73-899f126e1b17","system_id":"levelo_inurba_marseille","lat":43.309076,"lon":5.368465,"is_reserved":false,"is_disabled":false,"rental_uris":{"android":"levelo://app?vid=ab9fe796-3880-4534-bb73-899f126e1b17","ios":"levelo://app?vid=ab9fe796-3880-4534-bb73-899f126e1b17"},"vehicle_type_id":"4","last_reported":1684134403,"current_range_meters":3600,"station_id":"ce4bgn92rcd13ifvqbvg","pricing_plan_id":"free"},{"bike_id":"7444f141-ea52-4621-9998-9ec3106e3de4","system_id":"levelo_inurba_marseille","lat":43.309076,"lon":5.368465,"is_reserved":false,"is_disabled":false,"rental_uris":{"android":"levelo://app?vid=7444f141-ea52-4621-9998-9ec3106e3de4","ios":"levelo://app?vid=7444f141-ea52-4621-9998-9ec3106e3de4"},"vehicle_type_id":"4","last_reported":1684134403,"current_range_meters":30800,"station_id":"ce4bgn92rcd13ifvqbvg","pricing_plan_id":"free"},{"bike_id":"f90fba22-a5c7-42a1-8b81-c16519ce6fb3","system_id":"levelo_inurba_marseille","lat":43.309076,"lon":5.368465,"is_reserved":false,"is_disabled":false,"rental_uris":{"android":"levelo://app?vid=f90fba22-a5c7-42a1-8b81-c16519ce6fb3","ios":"levelo://app?vid=f90fba22-a5c7-42a1-8b81-c16519ce6fb3"},"vehicle_type_id":"4","last_reported":1684134403,"current_range_meters":26800,"station_id":"ce4bgn92rcd13ifvqbvg","pricing_plan_id":"free"},{"bike_id":"e5c8af67-1dd6-4258-a85e-8d05cbd529a6","system_id":"levelo_inurba_marseille","lat":43.30905,"lon":5.36841,"is_reserved":false,"is_disabled":false,"rental_uris":{"android":"levelo://app?vid=e5c8af67-1dd6-4258-a85e-8d05cbd529a6","ios":"levelo://app?vid=e5c8af67-1dd6-4258-a85e-8d05cbd529a6"},"vehicle_type_id":"4","last_reported":1684134403,"current_range_meters":26800,"station_id":"ce4bgn92rcd13ifvqbvg","pricing_plan_id":"free"},{"bike_id":"76767468-eb7a-4956-8a69-7410aa4bec57","system_id":"levelo_inurba_marseille","lat":43.314811,"lon":5.373103,"is_reserved":false,"is_disabled":false,"rental_uris":{"android":"levelo://app?vid=76767468-eb7a-4956-8a69-7410aa4bec57","ios":"levelo://app?vid=76767468-eb7a-4956-8a69-7410aa4bec57"},"vehicle_type_id":"4","last_reported":1684134403,"current_range_meters":4400,"station_id":"ce4bgt12rcd13ifvqcd0","pricing_plan_id":"free"},{"bike_id":"3b81ea26-0d96-4645-928c-ab5c0b3d08bb","system_id":"levelo_inurba_marseille","lat":43.314811,"lon":5.373103,"is_reserved":false,"is_disabled":false,"rental_uris":{"android":"levelo://app?vid=3b81ea26-0d96-4645-928c-ab5c0b3d08bb","ios":"levelo://app?vid=3b81ea26-0d96-4645-928c-ab5c0b3d08bb"},"vehicle_type_id":"4","last_reported":1684134403,"current_range_meters":31200,"station_id":"ce4bgt12rcd13ifvqcd0","pricing_plan_id":"free"},{"bike_id":"6d07b80e-2753-4c68-a483-ba92160ed3f5","system_id":"levelo_inurba_marseille","lat":43.314811,"lon":5.373103,"is_reserved":false,"is_disabled":false,"rental_uris":{"android":"levelo://app?vid=6d07b80e-2753-4c68-a483-ba92160ed3f5","ios":"levelo://app?vid=6d07b80e-2753-4c68-a483-ba92160ed3f5"},"vehicle_type_id":"4","last_reported":1684134403,"current_range_meters":14800,"station_id":"ce4bgt12rcd13ifvqcd0","pricing_plan_id":"free"},{"bike_id":"61ae236a-b8c4-4810-a068-512f7b02da8f","system_id":"levelo_inurba_marseille","lat":43.314811,"lon":5.373103,"is_reserved":false,"is_disabled":false,"rental_uris":{"android":"levelo://app?vid=61ae236a-b8c4-4810-a068-512f7b02da8f","ios":"levelo://app?vid=61ae236a-b8c4-4810-a068-512f7b02da8f"},"vehicle_type_id":"4","last_reported":1684134403,"current_range_meters":0,"station_id":"ce4bgt12rcd13ifvqcd0","pricing_plan_id":"free"},{"bike_id":"9a9ad707-1550-4031-9de5-19e500f9c954","system_id":"levelo_inurba_marseille","lat":43.314811,"lon":5.373104,"is_reserved":false,"is_disabled":false,"rental_uris":{"android":"levelo://app?vid=9a9ad707-1550-4031-9de5-19e500f9c954","ios":"levelo://app?vid=9a9ad707-1550-4031-9de5-19e500f9c954"},"vehicle_type_id":"4","last_reported":1684134403,"current_range_meters":6800,"station_id":"ce4bgt12rcd13ifvqcd0","pricing_plan_id":"free"},{"bike_id":"ef42665b-7a58-430a-a09b-24ad7325a98d","system_id":"levelo_inurba_marseille","lat":43.30588,"lon":5.36563,"is_reserved":false,"is_disabled":false,"rental_uris":{"android":"levelo://app?vid=ef42665b-7a58-430a-a09b-24ad7325a98d","ios":"levelo://app?vid=ef42665b-7a58-430a-a09b-24ad7325a98d"},"vehicle_type_id":"4","last_reported":1684134403,"current_range_meters":8400,"station_id":"","pricing_plan_id":"free"},{"bike_id":"34d2043d-5d6a-44f7-b569-4c349af652a9","system_id":"levelo_inurba_marseille","lat":43.305368,"lon":5.367343,"is_reserved":false,"is_disabled":false,"rental_uris":{"android":"levelo://app?vid=34d2043d-5d6a-44f7-b569-4c349af652a9","ios":"levelo://app?vid=34d2043d-5d6a-44f7-b569-4c349af652a9"},"vehicle_type_id":"4","last_reported":1684134403,"current_range_meters":4000,"station_id":"ce4bgrp2rcd13ifvqc9g","pricing_plan_id":"free"},{"bike_id":"5cb90591-2a1d-4ac6-88d7-412b6ebb308c","system_id":"levelo_inurba_marseille","lat":43.305706,"lon":5.365654,"is_reserved":false,"is_disabled":false,"rental_uris":{"android":"levelo://app?vid=5cb90591-2a1d-4ac6-88d7-412b6ebb308c","ios":"levelo://app?vid=5cb90591-2a1d-4ac6-88d7-412b6ebb308c"},"vehicle_type_id":"4","last_reported":1684134403,"current_range_meters":400,"station_id":"ce4bgs12rcd13ifvqcag","pricing_plan_id":"free"},{"bike_id":"e3b54415-436e-48a6-9c57-afa442a95e06","system_id":"levelo_inurba_marseille","lat":43.305368,"lon":5.367343,"is_reserved":false,"is_disabled":false,"rental_uris":{"android":"levelo://app?vid=e3b54415-436e-48a6-9c57-afa442a95e06","ios":"levelo://app?vid=e3b54415-436e-48a6-9c57-afa442a95e06"},"vehicle_type_id":"4","last_reported":1684134403,"current_range_meters":22400,"station_id":"ce4bgrp2rcd13ifvqc9g","pricing_plan_id":"free"},{"bike_id":"983c4d76-6332-47d0-be8b-715a473bfd33","system_id":"levelo_inurba_marseille","lat":43.305714,"lon":5.365633,"is_reserved":false,"is_disabled":false,"rental_uris":{"android":"levelo://app?vid=983c4d76-6332-47d0-be8b-715a473bfd33","ios":"levelo://app?vid=983c4d76-6332-47d0-be8b-715a473bfd33"},"vehicle_type_id":"4","last_reported":1684134403,"current_range_meters":19600,"station_id":"ce4bgs12rcd13ifvqcag","pricing_plan_id":"free"},{"bike_id":"e9fbf0e4-55d6-4084-9627-b8749ad8057d","system_id":"levelo_inurba_marseille","lat":43.305368,"lon":5.367343,"is_reserved":false,"is_disabled":false,"rental_uris":{"android":"levelo://app?vid=e9fbf0e4-55d6-4084-9627-b8749ad8057d","ios":"levelo://app?vid=e9fbf0e4-55d6-4084-9627-b8749ad8057d"},"vehicle_type_id":"4","last_reported":1684134403,"current_range_meters":400,"station_id":"ce4bgrp2rcd13ifvqc9g","pricing_plan_id":"free"},{"bike_id":"b7bd7f29-6c74-46d9-bb1c-bfdc2e6df3f5","system_id":"levelo_inurba_marseille","lat":43.305368,"lon":5.367343,"is_reserved":false,"is_disabled":false,"rental_uris":{"android":"levelo://app?vid=b7bd7f29-6c74-46d9-bb1c-bfdc2e6df3f5","ios":"levelo://app?vid=b7bd7f29-6c74-46d9-bb1c-bfdc2e6df3f5"},"vehicle_type_id":"4","last_reported":1684134403,"current_range_meters":29200,"station_id":"ce4bgrp2rcd13ifvqc9g","pricing_plan_id":"free"},{"bike_id":"f8662903-56ae-4fc0-8516-d7afbeeffa7f","system_id":"levelo_inurba_marseille","lat":43.305368,"lon":5.367343,"is_reserved":false,"is_disabled":false,"rental_uris":{"android":"levelo://app?vid=f8662903-56ae-4fc0-8516-d7afbeeffa7f","ios":"levelo://app?vid=f8662903-56ae-4fc0-8516-d7afbeeffa7f"},"vehicle_type_id":"4","last_reported":1684134403,"current_range_meters":25200,"station_id":"ce4bgrp2rcd13ifvqc9g","pricing_plan_id":"free"},{"bike_id":"69e24047-f02b-409b-b601-c5c38f010318","system_id":"levelo_inurba_marseille","lat":43.305368,"lon":5.367343,"is_reserved":false,"is_disabled":false,"rental_uris":{"android":"levelo://app?vid=69e24047-f02b-409b-b601-c5c38f010318","ios":"levelo://app?vid=69e24047-f02b-409b-b601-c5c38f010318"},"vehicle_type_id":"4","last_reported":1684134403,"current_range_meters":23600,"station_id":"ce4bgrp2rcd13ifvqc9g","pricing_plan_id":"free"},{"bike_id":"018eb2e3-df11-4a44-9b22-5bc18958493e","system_id":"levelo_inurba_marseille","lat":43.305368,"lon":5.367343,"is_reserved":false,"is_disabled":false,"rental_uris":{"android":"levelo://app?vid=018eb2e3-df11-4a44-9b22-5bc18958493e","ios":"levelo://app?vid=018eb2e3-df11-4a44-9b22-5bc18958493e"},"vehicle_type_id":"4","last_reported":1684134403,"current_range_meters":800,"station_id":"ce4bgrp2rcd13ifvqc9g","pricing_plan_id":"free"},{"bike_id":"491a0cc7-d8c3-441c-bd6d-fd484a3992ea","system_id":"levelo_inurba_marseille","lat":43.305368,"lon":5.367343,"is_reserved":false,"is_disabled":false,"rental_uris":{"android":"levelo://app?vid=491a0cc7-d8c3-441c-bd6d-fd484a3992ea","ios":"levelo://app?vid=491a0cc7-d8c3-441c-bd6d-fd484a3992ea"},"vehicle_type_id":"4","last_reported":1684134403,"current_range_meters":24400,"station_id":"ce4bgrp2rcd13ifvqc9g","pricing_plan_id":"free"},{"bike_id":"eac5a56e-b95b-4bc7-9d2c-529ecf536048","system_id":"levelo_inurba_marseille","lat":43.305989,"lon":5.37225,"is_reserved":false,"is_disabled":false,"rental_uris":{"android":"levelo://app?vid=eac5a56e-b95b-4bc7-9d2c-529ecf536048","ios":"levelo://app?vid=eac5a56e-b95b-4bc7-9d2c-529ecf536048"},"vehicle_type_id":"4","last_reported":1684134403,"current_range_meters":28800,"station_id":"ce4bgqh2rcd13ifvqc4g","pricing_plan_id":"free"},{"bike_id":"0d4a6cdd-243b-4921-9f2f-adbc1a765ab6","system_id":"levelo_inurba_marseille","lat":43.305989,"lon":5.37225,"is_reserved":false,"is_disabled":false,"rental_uris":{"android":"levelo://app?vid=0d4a6cdd-243b-4921-9f2f-adbc1a765ab6","ios":"levelo://app?vid=0d4a6cdd-243b-4921-9f2f-adbc1a765ab6"},"vehicle_type_id":"4","last_reported":1684134403,"current_range_meters":4400,"station_id":"ce4bgqh2rcd13ifvqc4g","pricing_plan_id":"free"},{"bike_id":"2c9111e6-4697-4bd2-af87-a19b28d75014","system_id":"levelo_inurba_marseille","lat":43.305989,"lon":5.37225,"is_reserved":false,"is_disabled":false,"rental_uris":{"android":"levelo://app?vid=2c9111e6-4697-4bd2-af87-a19b28d75014","ios":"levelo://app?vid=2c9111e6-4697-4bd2-af87-a19b28d75014"},"vehicle_type_id":"4","last_reported":1684134403,"current_range_meters":22400,"station_id":"ce4bgqh2rcd13ifvqc4g","pricing_plan_id":"free"},{"bike_id":"151d50bc-3aee-48d5-9527-783274464e00","system_id":"levelo_inurba_marseille","lat":43.31199,"lon":5.37788,"is_reserved":false,"is_disabled":false,"rental_uris":{"android":"levelo://app?vid=151d50bc-3aee-48d5-9527-783274464e00","ios":"levelo://app?vid=151d50bc-3aee-48d5-9527-783274464e00"},"vehicle_type_id":"4","last_reported":1684134403,"current_range_meters":5600,"station_id":"","pricing_plan_id":"free"},{"bike_id":"7c752dfd-0f8a-4751-b79f-f6dce9f2bcbc","system_id":"levelo_inurba_marseille","lat":43.305714,"lon":5.365633,"is_reserved":false,"is_disabled":false,"rental_uris":{"android":"levelo://app?vid=7c752dfd-0f8a-4751-b79f-f6dce9f2bcbc","ios":"levelo://app?vid=7c752dfd-0f8a-4751-b79f-f6dce9f2bcbc"},"vehicle_type_id":"4","last_reported":1684134403,"current_range_meters":12400,"station_id":"ce4bgs12rcd13ifvqcag","pricing_plan_id":"free"},{"bike_id":"cc79eb4a-c0b6-4f93-bd10-1fc2c9f739f6","system_id":"levelo_inurba_marseille","lat":43.30304,"lon":5.368987,"is_reserved":false,"is_disabled":false,"rental_uris":{"android":"levelo://app?vid=cc79eb4a-c0b6-4f93-bd10-1fc2c9f739f6","ios":"levelo://app?vid=cc79eb4a-c0b6-4f93-bd10-1fc2c9f739f6"},"vehicle_type_id":"4","last_reported":1684134403,"current_range_meters":31200,"station_id":"ce4bgqh2rcd13ifvqc5g","pricing_plan_id":"free"},{"bike_id":"64b682f5-9cb8-4716-833e-d2f9b938c8f4","system_id":"levelo_inurba_marseille","lat":43.30304,"lon":5.368987,"is_reserved":false,"is_disabled":false,"rental_uris":{"android":"levelo://app?vid=64b682f5-9cb8-4716-833e-d2f9b938c8f4","ios":"levelo://app?vid=64b682f5-9cb8-4716-833e-d2f9b938c8f4"},"vehicle_type_id":"4","last_reported":1684134403,"current_range_meters":30000,"station_id":"ce4bgqh2rcd13ifvqc5g","pricing_plan_id":"free"},{"bike_id":"a5587dda-33f4-494a-9481-a1c5040e20cc","system_id":"levelo_inurba_marseille","lat":43.303046,"lon":5.368981,"is_reserved":false,"is_disabled":false,"rental_uris":{"android":"levelo://app?vid=a5587dda-33f4-494a-9481-a1c5040e20cc","ios":"levelo://app?vid=a5587dda-33f4-494a-9481-a1c5040e20cc"},"vehicle_type_id":"4","last_reported":1684134403,"current_range_meters":31200,"station_id":"ce4bgqh2rcd13ifvqc5g","pricing_plan_id":"free"},{"bike_id":"b0457de3-2925-4f23-b648-a1920b9d815b","system_id":"levelo_inurba_marseille","lat":43.30304,"lon":5.368987,"is_reserved":false,"is_disabled":false,"rental_uris":{"android":"levelo://app?vid=b0457de3-2925-4f23-b648-a1920b9d815b","ios":"levelo://app?vid=b0457de3-2925-4f23-b648-a1920b9d815b"},"vehicle_type_id":"4","last_reported":1684134403,"current_range_meters":29600,"station_id":"ce4bgqh2rcd13ifvqc5g","pricing_plan_id":"free"},{"bike_id":"1a8fc1dc-429f-490a-b644-9f1092dc1c0e","system_id":"levelo_inurba_marseille","lat":43.303046,"lon":5.368981,"is_reserved":false,"is_disabled":false,"rental_uris":{"android":"levelo://app?vid=1a8fc1dc-429f-490a-b644-9f1092dc1c0e","ios":"levelo://app?vid=1a8fc1dc-429f-490a-b644-9f1092dc1c0e"},"vehicle_type_id":"4","last_reported":1684134403,"current_range_meters":30800,"station_id":"ce4bgqh2rcd13ifvqc5g","pricing_plan_id":"free"},{"bike_id":"1630899b-eae6-42fa-969e-a3367358f409","system_id":"levelo_inurba_marseille","lat":43.30304,"lon":5.368987,"is_reserved":false,"is_disabled":false,"rental_uris":{"android":"levelo://app?vid=1630899b-eae6-42fa-969e-a3367358f409","ios":"levelo://app?vid=1630899b-eae6-42fa-969e-a3367358f409"},"vehicle_type_id":"4","last_reported":1684134403,"current_range_meters":27200,"station_id":"ce4bgqh2rcd13ifvqc5g","pricing_plan_id":"free"},{"bike_id":"f02a0624-5cec-46fb-9726-7f2b821e5cce","system_id":"levelo_inurba_marseille","lat":43.30304,"lon":5.368987,"is_reserved":false,"is_disabled":false,"rental_uris":{"android":"levelo://app?vid=f02a0624-5cec-46fb-9726-7f2b821e5cce","ios":"levelo://app?vid=f02a0624-5cec-46fb-9726-7f2b821e5cce"},"vehicle_type_id":"4","last_reported":1684134403,"current_range_meters":28000,"station_id":"ce4bgqh2rcd13ifvqc5g","pricing_plan_id":"free"},{"bike_id":"f970da5e-47b1-4491-a0a2-bc30a6f6f37e","system_id":"levelo_inurba_marseille","lat":43.30304,"lon":5.368987,"is_reserved":false,"is_disabled":false,"rental_uris":{"android":"levelo://app?vid=f970da5e-47b1-4491-a0a2-bc30a6f6f37e","ios":"levelo://app?vid=f970da5e-47b1-4491-a0a2-bc30a6f6f37e"},"vehicle_type_id":"4","last_reported":1684134403,"current_range_meters":12400,"station_id":"ce4bgqh2rcd13ifvqc5g","pricing_plan_id":"free"},{"bike_id":"5d6b2b53-1d62-49c2-92de-53776623e5f3","system_id":"levelo_inurba_marseille","lat":43.303046,"lon":5.368981,"is_reserved":false,"is_disabled":false,"rental_uris":{"android":"levelo://app?vid=5d6b2b53-1d62-49c2-92de-53776623e5f3","ios":"levelo://app?vid=5d6b2b53-1d62-49c2-92de-53776623e5f3"},"vehicle_type_id":"4","last_reported":1684134403,"current_range_meters":31200,"station_id":"ce4bgqh2rcd13ifvqc5g","pricing_plan_id":"free"},{"bike_id":"796a76ae-83d1-492d-a102-91492a3fd054","system_id":"levelo_inurba_marseille","lat":43.30304,"lon":5.368987,"is_reserved":false,"is_disabled":false,"rental_uris":{"android":"levelo://app?vid=796a76ae-83d1-492d-a102-91492a3fd054","ios":"levelo://app?vid=796a76ae-83d1-492d-a102-91492a3fd054"},"vehicle_type_id":"4","last_reported":1684134403,"current_range_meters":28400,"station_id":"ce4bgqh2rcd13ifvqc5g","pricing_plan_id":"free"},{"bike_id":"3fcba7a3-c0db-4208-bafe-e7e226d2a8c2","system_id":"levelo_inurba_marseille","lat":43.30304,"lon":5.368987,"is_reserved":false,"is_disabled":false,"rental_uris":{"android":"levelo://app?vid=3fcba7a3-c0db-4208-bafe-e7e226d2a8c2","ios":"levelo://app?vid=3fcba7a3-c0db-4208-bafe-e7e226d2a8c2"},"vehicle_type_id":"4","last_reported":1684134403,"current_range_meters":28000,"station_id":"ce4bgqh2rcd13ifvqc5g","pricing_plan_id":"free"},{"bike_id":"c897ee56-1d30-4e84-a76a-8b622ce18095","system_id":"levelo_inurba_marseille","lat":43.303046,"lon":5.368981,"is_reserved":false,"is_disabled":false,"rental_uris":{"android":"levelo://app?vid=c897ee56-1d30-4e84-a76a-8b622ce18095","ios":"levelo://app?vid=c897ee56-1d30-4e84-a76a-8b622ce18095"},"vehicle_type_id":"4","last_reported":1684134403,"current_range_meters":2400,"station_id":"ce4bgqh2rcd13ifvqc5g","pricing_plan_id":"free"},{"bike_id":"f83d3bf0-d857-4e10-94b7-cd9b1e24f661","system_id":"levelo_inurba_marseille","lat":43.30304,"lon":5.368987,"is_reserved":false,"is_disabled":false,"rental_uris":{"android":"levelo://app?vid=f83d3bf0-d857-4e10-94b7-cd9b1e24f661","ios":"levelo://app?vid=f83d3bf0-d857-4e10-94b7-cd9b1e24f661"},"vehicle_type_id":"4","last_reported":1684134403,"current_range_meters":26400,"station_id":"ce4bgqh2rcd13ifvqc5g","pricing_plan_id":"free"},{"bike_id":"56eb3eea-f2fe-4eb9-af89-d58123d3e3c3","system_id":"levelo_inurba_marseille","lat":43.30208,"lon":5.36628,"is_reserved":false,"is_disabled":false,"rental_uris":{"android":"levelo://app?vid=56eb3eea-f2fe-4eb9-af89-d58123d3e3c3","ios":"levelo://app?vid=56eb3eea-f2fe-4eb9-af89-d58123d3e3c3"},"vehicle_type_id":"4","last_reported":1684134403,"current_range_meters":14000,"station_id":"ce4bgrh2rcd13ifvqc8g","pricing_plan_id":"free"},{"bike_id":"1d50519d-a41c-4aee-9774-5eb90e1dbe39","system_id":"levelo_inurba_marseille","lat":43.30441,"lon":5.378415,"is_reserved":false,"is_disabled":false,"rental_uris":{"android":"levelo://app?vid=1d50519d-a41c-4aee-9774-5eb90e1dbe39","ios":"levelo://app?vid=1d50519d-a41c-4aee-9774-5eb90e1dbe39"},"vehicle_type_id":"4","last_reported":1684134403,"current_range_meters":9200,"station_id":"ce4bhap2rcd13ifvqek0","pricing_plan_id":"free"},{"bike_id":"e70ec8c7-cdb0-4c45-a84c-44eb0a1b106d","system_id":"levelo_inurba_marseille","lat":43.304606,"lon":5.379026,"is_reserved":false,"is_disabled":false,"rental_uris":{"android":"levelo://app?vid=e70ec8c7-cdb0-4c45-a84c-44eb0a1b106d","ios":"levelo://app?vid=e70ec8c7-cdb0-4c45-a84c-44eb0a1b106d"},"vehicle_type_id":"4","last_reported":1684134403,"current_range_meters":31600,"station_id":"ce4bgup2rcd13ifvqcn0","pricing_plan_id":"free"},{"bike_id":"0bb832db-0494-455c-a0f8-0dbf9f5d554a","system_id":"levelo_inurba_marseille","lat":43.304606,"lon":5.379026,"is_reserved":false,"is_disabled":false,"rental_uris":{"android":"levelo://app?vid=0bb832db-0494-455c-a0f8-0dbf9f5d554a","ios":"levelo://app?vid=0bb832db-0494-455c-a0f8-0dbf9f5d554a"},"vehicle_type_id":"4","last_reported":1684134403,"current_range_meters":19600,"station_id":"ce4bgup2rcd13ifvqcn0","pricing_plan_id":"free"},{"bike_id":"5e06fb65-90e2-448c-a831-306537f42159","system_id":"levelo_inurba_marseille","lat":43.304606,"lon":5.379026,"is_reserved":false,"is_disabled":false,"rental_uris":{"android":"levelo://app?vid=5e06fb65-90e2-448c-a831-306537f42159","ios":"levelo://app?vid=5e06fb65-90e2-448c-a831-306537f42159"},"vehicle_type_id":"4","last_reported":1684134403,"current_range_meters":31200,"station_id":"ce4bgup2rcd13ifvqcn0","pricing_plan_id":"free"},{"bike_id":"a3f33aed-6b16-4243-b012-98ee769061fe","system_id":"levelo_inurba_marseille","lat":43.304606,"lon":5.379026,"is_reserved":false,"is_disabled":false,"rental_uris":{"android":"levelo://app?vid=a3f33aed-6b16-4243-b012-98ee769061fe","ios":"levelo://app?vid=a3f33aed-6b16-4243-b012-98ee769061fe"},"vehicle_type_id":"4","last_reported":1684134403,"current_range_meters":30400,"station_id":"ce4bgup2rcd13ifvqcn0","pricing_plan_id":"free"},{"bike_id":"5db9ca51-2961-430e-bc90-736d65b4ef69","system_id":"levelo_inurba_marseille","lat":43.304606,"lon":5.379026,"is_reserved":false,"is_disabled":false,"rental_uris":{"android":"levelo://app?vid=5db9ca51-2961-430e-bc90-736d65b4ef69","ios":"levelo://app?vid=5db9ca51-2961-430e-bc90-736d65b4ef69"},"vehicle_type_id":"4","last_reported":1684134403,"current_range_meters":31200,"station_id":"ce4bgup2rcd13ifvqcn0","pricing_plan_id":"free"},{"bike_id":"1276c490-72e6-4f7b-b449-101ebb0e4a94","system_id":"levelo_inurba_marseille","lat":43.304606,"lon":5.379026,"is_reserved":false,"is_disabled":false,"rental_uris":{"android":"levelo://app?vid=1276c490-72e6-4f7b-b449-101ebb0e4a94","ios":"levelo://app?vid=1276c490-72e6-4f7b-b449-101ebb0e4a94"},"vehicle_type_id":"4","last_reported":1684134403,"current_range_meters":31600,"station_id":"ce4bgup2rcd13ifvqcn0","pricing_plan_id":"free"},{"bike_id":"c774bf25-078e-4773-8c1f-f2de588e6228","system_id":"levelo_inurba_marseille","lat":43.304606,"lon":5.379026,"is_reserved":false,"is_disabled":false,"rental_uris":{"android":"levelo://app?vid=c774bf25-078e-4773-8c1f-f2de588e6228","ios":"levelo://app?vid=c774bf25-078e-4773-8c1f-f2de588e6228"},"vehicle_type_id":"4","last_reported":1684134403,"current_range_meters":30000,"station_id":"ce4bgup2rcd13ifvqcn0","pricing_plan_id":"free"},{"bike_id":"2f4f0e4f-43f4-4e4b-8fb8-e24e136d43f1","system_id":"levelo_inurba_marseille","lat":43.304606,"lon":5.379026,"is_reserved":false,"is_disabled":false,"rental_uris":{"android":"levelo://app?vid=2f4f0e4f-43f4-4e4b-8fb8-e24e136d43f1","ios":"levelo://app?vid=2f4f0e4f-43f4-4e4b-8fb8-e24e136d43f1"},"vehicle_type_id":"4","last_reported":1684134403,"current_range_meters":30800,"station_id":"ce4bgup2rcd13ifvqcn0","pricing_plan_id":"free"},{"bike_id":"a8f36b63-a689-422b-bbc9-0d047dae734a","system_id":"levelo_inurba_marseille","lat":43.304606,"lon":5.379026,"is_reserved":false,"is_disabled":false,"rental_uris":{"android":"levelo://app?vid=a8f36b63-a689-422b-bbc9-0d047dae734a","ios":"levelo://app?vid=a8f36b63-a689-422b-bbc9-0d047dae734a"},"vehicle_type_id":"4","last_reported":1684134403,"current_range_meters":17600,"station_id":"ce4bgup2rcd13ifvqcn0","pricing_plan_id":"free"},{"bike_id":"d465fb3d-68f9-4022-a809-5e1a491f5694","system_id":"levelo_inurba_marseille","lat":43.304606,"lon":5.379026,"is_reserved":false,"is_disabled":false,"rental_uris":{"android":"levelo://app?vid=d465fb3d-68f9-4022-a809-5e1a491f5694","ios":"levelo://app?vid=d465fb3d-68f9-4022-a809-5e1a491f5694"},"vehicle_type_id":"4","last_reported":1684134403,"current_range_meters":28400,"station_id":"ce4bgup2rcd13ifvqcn0","pricing_plan_id":"free"},{"bike_id":"ace869d2-1d80-4b11-b241-6c3df0cd929d","system_id":"levelo_inurba_marseille","lat":43.304606,"lon":5.379026,"is_reserved":false,"is_disabled":false,"rental_uris":{"android":"levelo://app?vid=ace869d2-1d80-4b11-b241-6c3df0cd929d","ios":"levelo://app?vid=ace869d2-1d80-4b11-b241-6c3df0cd929d"},"vehicle_type_id":"4","last_reported":1684134403,"current_range_meters":30800,"station_id":"ce4bgup2rcd13ifvqcn0","pricing_plan_id":"free"},{"bike_id":"35c26cd6-66ba-4ce8-b7ba-60aa0011a7a7","system_id":"levelo_inurba_marseille","lat":43.304606,"lon":5.379026,"is_reserved":false,"is_disabled":false,"rental_uris":{"android":"levelo://app?vid=35c26cd6-66ba-4ce8-b7ba-60aa0011a7a7","ios":"levelo://app?vid=35c26cd6-66ba-4ce8-b7ba-60aa0011a7a7"},"vehicle_type_id":"4","last_reported":1684134403,"current_range_meters":4800,"station_id":"ce4bgup2rcd13ifvqcn0","pricing_plan_id":"free"},{"bike_id":"0f401263-f2a3-4705-9ce6-b20b74266860","system_id":"levelo_inurba_marseille","lat":43.304606,"lon":5.379026,"is_reserved":false,"is_disabled":false,"rental_uris":{"android":"levelo://app?vid=0f401263-f2a3-4705-9ce6-b20b74266860","ios":"levelo://app?vid=0f401263-f2a3-4705-9ce6-b20b74266860"},"vehicle_type_id":"4","last_reported":1684134403,"current_range_meters":26800,"station_id":"ce4bgup2rcd13ifvqcn0","pricing_plan_id":"free"},{"bike_id":"e0d594d0-d29b-4149-a1b6-7cb57649eaae","system_id":"levelo_inurba_marseille","lat":43.304606,"lon":5.379026,"is_reserved":false,"is_disabled":false,"rental_uris":{"android":"levelo://app?vid=e0d594d0-d29b-4149-a1b6-7cb57649eaae","ios":"levelo://app?vid=e0d594d0-d29b-4149-a1b6-7cb57649eaae"},"vehicle_type_id":"4","last_reported":1684134403,"current_range_meters":30400,"station_id":"ce4bgup2rcd13ifvqcn0","pricing_plan_id":"free"},{"bike_id":"11f61a30-e639-457c-ac5b-42e2dba427a6","system_id":"levelo_inurba_marseille","lat":43.30142,"lon":5.3741,"is_reserved":false,"is_disabled":false,"rental_uris":{"android":"levelo://app?vid=11f61a30-e639-457c-ac5b-42e2dba427a6","ios":"levelo://app?vid=11f61a30-e639-457c-ac5b-42e2dba427a6"},"vehicle_type_id":"4","last_reported":1684134403,"current_range_meters":18400,"station_id":"ce4bgs92rcd13ifvqcc0","pricing_plan_id":"free"},{"bike_id":"e0a8c8b7-685b-463f-b964-f88d35db16a8","system_id":"levelo_inurba_marseille","lat":43.299222,"lon":5.365554,"is_reserved":false,"is_disabled":false,"rental_uris":{"android":"levelo://app?vid=e0a8c8b7-685b-463f-b964-f88d35db16a8","ios":"levelo://app?vid=e0a8c8b7-685b-463f-b964-f88d35db16a8"},"vehicle_type_id":"4","last_reported":1684134403,"current_range_meters":25200,"station_id":"ce4bgm92rcd13ifvqbr0","pricing_plan_id":"free"},{"bike_id":"f4a02d53-d501-4a35-a330-4c50748b6586","system_id":"levelo_inurba_marseille","lat":43.299222,"lon":5.365554,"is_reserved":false,"is_disabled":false,"rental_uris":{"android":"levelo://app?vid=f4a02d53-d501-4a35-a330-4c50748b6586","ios":"levelo://app?vid=f4a02d53-d501-4a35-a330-4c50748b6586"},"vehicle_type_id":"4","last_reported":1684134403,"current_range_meters":16000,"station_id":"ce4bgm92rcd13ifvqbr0","pricing_plan_id":"free"},{"bike_id":"20939ce2-4196-494f-88a1-a9789c32405c","system_id":"levelo_inurba_marseille","lat":43.298433,"lon":5.362774,"is_reserved":false,"is_disabled":false,"rental_uris":{"android":"levelo://app?vid=20939ce2-4196-494f-88a1-a9789c32405c","ios":"levelo://app?vid=20939ce2-4196-494f-88a1-a9789c32405c"},"vehicle_type_id":"4","last_reported":1684134403,"current_range_meters":31200,"station_id":"ce4bgpp2rcd13ifvqc3g","pricing_plan_id":"free"},{"bike_id":"f473e951-ac01-4b43-b7da-1bbf29c3fac0","system_id":"levelo_inurba_marseille","lat":43.298433,"lon":5.362774,"is_reserved":false,"is_disabled":false,"rental_uris":{"android":"levelo://app?vid=f473e951-ac01-4b43-b7da-1bbf29c3fac0","ios":"levelo://app?vid=f473e951-ac01-4b43-b7da-1bbf29c3fac0"},"vehicle_type_id":"4","last_reported":1684134403,"current_range_meters":31200,"station_id":"ce4bgpp2rcd13ifvqc3g","pricing_plan_id":"free"},{"bike_id":"e41d030a-c6f4-4d3d-9806-6545c3274dae","system_id":"levelo_inurba_marseille","lat":43.298433,"lon":5.362774,"is_reserved":false,"is_disabled":false,"rental_uris":{"android":"levelo://app?vid=e41d030a-c6f4-4d3d-9806-6545c3274dae","ios":"levelo://app?vid=e41d030a-c6f4-4d3d-9806-6545c3274dae"},"vehicle_type_id":"4","last_reported":1684134403,"current_range_meters":15200,"station_id":"ce4bgpp2rcd13ifvqc3g","pricing_plan_id":"free"},{"bike_id":"6a189226-a063-4950-b3ee-0c40718a3f3b","system_id":"levelo_inurba_marseille","lat":43.298433,"lon":5.362774,"is_reserved":false,"is_disabled":false,"rental_uris":{"android":"levelo://app?vid=6a189226-a063-4950-b3ee-0c40718a3f3b","ios":"levelo://app?vid=6a189226-a063-4950-b3ee-0c40718a3f3b"},"vehicle_type_id":"4","last_reported":1684134403,"current_range_meters":31200,"station_id":"ce4bgpp2rcd13ifvqc3g","pricing_plan_id":"free"},{"bike_id":"50d26511-2476-44a9-91e2-3288a344d3a5","system_id":"levelo_inurba_marseille","lat":43.298433,"lon":5.362774,"is_reserved":false,"is_disabled":false,"rental_uris":{"android":"levelo://app?vid=50d26511-2476-44a9-91e2-3288a344d3a5","ios":"levelo://app?vid=50d26511-2476-44a9-91e2-3288a344d3a5"},"vehicle_type_id":"4","last_reported":1684134403,"current_range_meters":28400,"station_id":"ce4bgpp2rcd13ifvqc3g","pricing_plan_id":"free"},{"bike_id":"50d50075-a86a-413d-890d-64105e6353bf","system_id":"levelo_inurba_marseille","lat":43.298433,"lon":5.362774,"is_reserved":false,"is_disabled":false,"rental_uris":{"android":"levelo://app?vid=50d50075-a86a-413d-890d-64105e6353bf","ios":"levelo://app?vid=50d50075-a86a-413d-890d-64105e6353bf"},"vehicle_type_id":"4","last_reported":1684134403,"current_range_meters":27200,"station_id":"ce4bgpp2rcd13ifvqc3g","pricing_plan_id":"free"},{"bike_id":"1c673dca-f635-49ac-a23e-dc0252b98f59","system_id":"levelo_inurba_marseille","lat":43.298433,"lon":5.362774,"is_reserved":false,"is_disabled":false,"rental_uris":{"android":"levelo://app?vid=1c673dca-f635-49ac-a23e-dc0252b98f59","ios":"levelo://app?vid=1c673dca-f635-49ac-a23e-dc0252b98f59"},"vehicle_type_id":"4","last_reported":1684134403,"current_range_meters":31200,"station_id":"ce4bgpp2rcd13ifvqc3g","pricing_plan_id":"free"},{"bike_id":"82e79927-c0b2-4968-8bb4-d7b2b8ad7110","system_id":"levelo_inurba_marseille","lat":43.298433,"lon":5.362774,"is_reserved":false,"is_disabled":false,"rental_uris":{"android":"levelo://app?vid=82e79927-c0b2-4968-8bb4-d7b2b8ad7110","ios":"levelo://app?vid=82e79927-c0b2-4968-8bb4-d7b2b8ad7110"},"vehicle_type_id":"4","last_reported":1684134403,"current_range_meters":30000,"station_id":"ce4bgpp2rcd13ifvqc3g","pricing_plan_id":"free"},{"bike_id":"e1f101a4-915c-4272-a4e5-d3e3156f96d2","system_id":"levelo_inurba_marseille","lat":43.311722,"lon":5.387247,"is_reserved":false,"is_disabled":false,"rental_uris":{"android":"levelo://app?vid=e1f101a4-915c-4272-a4e5-d3e3156f96d2","ios":"levelo://app?vid=e1f101a4-915c-4272-a4e5-d3e3156f96d2"},"vehicle_type_id":"4","last_reported":1684134403,"current_range_meters":17200,"station_id":"ce4bgv12rcd13ifvqcp0","pricing_plan_id":"free"},{"bike_id":"2f96f4b7-d3f1-4b87-b98f-caf50ba6d13d","system_id":"levelo_inurba_marseille","lat":43.32763,"lon":5.367,"is_reserved":false,"is_disabled":false,"rental_uris":{"android":"levelo://app?vid=2f96f4b7-d3f1-4b87-b98f-caf50ba6d13d","ios":"levelo://app?vid=2f96f4b7-d3f1-4b87-b98f-caf50ba6d13d"},"vehicle_type_id":"4","last_reported":1684134403,"current_range_meters":4400,"station_id":"","pricing_plan_id":"free"},{"bike_id":"aaca5fdf-1dee-4b81-aa4f-2d7102ec2d0c","system_id":"levelo_inurba_marseille","lat":43.32821,"lon":5.36681,"is_reserved":false,"is_disabled":false,"rental_uris":{"android":"levelo://app?vid=aaca5fdf-1dee-4b81-aa4f-2d7102ec2d0c","ios":"levelo://app?vid=aaca5fdf-1dee-4b81-aa4f-2d7102ec2d0c"},"vehicle_type_id":"4","last_reported":1684134403,"current_range_meters":16800,"station_id":"ce4bhs92rcd13ifvqi0g","pricing_plan_id":"free"},{"bike_id":"96e15ffa-c3cf-44ea-80e9-5b5a2cbd10d1","system_id":"levelo_inurba_marseille","lat":43.32826,"lon":5.36694,"is_reserved":false,"is_disabled":false,"rental_uris":{"android":"levelo://app?vid=96e15ffa-c3cf-44ea-80e9-5b5a2cbd10d1","ios":"levelo://app?vid=96e15ffa-c3cf-44ea-80e9-5b5a2cbd10d1"},"vehicle_type_id":"4","last_reported":1684134403,"current_range_meters":23600,"station_id":"ce4bhs92rcd13ifvqi0g","pricing_plan_id":"free"},{"bike_id":"3f1ee445-79dc-4a77-99ec-f861244bce43","system_id":"levelo_inurba_marseille","lat":43.32827,"lon":5.36687,"is_reserved":false,"is_disabled":false,"rental_uris":{"android":"levelo://app?vid=3f1ee445-79dc-4a77-99ec-f861244bce43","ios":"levelo://app?vid=3f1ee445-79dc-4a77-99ec-f861244bce43"},"vehicle_type_id":"4","last_reported":1684134403,"current_range_meters":18400,"station_id":"ce4bhs92rcd13ifvqi0g","pricing_plan_id":"free"},{"bike_id":"b449a4e4-2b40-420f-9a30-3bbbb718557f","system_id":"levelo_inurba_marseille","lat":43.32828,"lon":5.36681,"is_reserved":false,"is_disabled":false,"rental_uris":{"android":"levelo://app?vid=b449a4e4-2b40-420f-9a30-3bbbb718557f","ios":"levelo://app?vid=b449a4e4-2b40-420f-9a30-3bbbb718557f"},"vehicle_type_id":"4","last_reported":1684134403,"current_range_meters":13200,"station_id":"ce4bhs92rcd13ifvqi0g","pricing_plan_id":"free"},{"bike_id":"0b6427df-3608-417c-8846-6545ddce1520","system_id":"levelo_inurba_marseille","lat":43.328371,"lon":5.366909,"is_reserved":false,"is_disabled":false,"rental_uris":{"android":"levelo://app?vid=0b6427df-3608-417c-8846-6545ddce1520","ios":"levelo://app?vid=0b6427df-3608-417c-8846-6545ddce1520"},"vehicle_type_id":"4","last_reported":1684134403,"current_range_meters":22400,"station_id":"ce4bhs92rcd13ifvqi0g","pricing_plan_id":"free"},{"bike_id":"4a0a9103-82cf-424c-9693-d03373ec644a","system_id":"levelo_inurba_marseille","lat":43.328371,"lon":5.366909,"is_reserved":false,"is_disabled":false,"rental_uris":{"android":"levelo://app?vid=4a0a9103-82cf-424c-9693-d03373ec644a","ios":"levelo://app?vid=4a0a9103-82cf-424c-9693-d03373ec644a"},"vehicle_type_id":"4","last_reported":1684134403,"current_range_meters":21600,"station_id":"ce4bhs92rcd13ifvqi0g","pricing_plan_id":"free"},{"bike_id":"57db9bef-a53b-4c3a-a980-27dd062faa04","system_id":"levelo_inurba_marseille","lat":43.328371,"lon":5.366909,"is_reserved":false,"is_disabled":false,"rental_uris":{"android":"levelo://app?vid=57db9bef-a53b-4c3a-a980-27dd062faa04","ios":"levelo://app?vid=57db9bef-a53b-4c3a-a980-27dd062faa04"},"vehicle_type_id":"4","last_reported":1684134403,"current_range_meters":23600,"station_id":"ce4bhs92rcd13ifvqi0g","pricing_plan_id":"free"},{"bike_id":"acb3285f-1a59-4939-bacf-1321efdfa740","system_id":"levelo_inurba_marseille","lat":43.3283,"lon":5.36688,"is_reserved":false,"is_disabled":false,"rental_uris":{"android":"levelo://app?vid=acb3285f-1a59-4939-bacf-1321efdfa740","ios":"levelo://app?vid=acb3285f-1a59-4939-bacf-1321efdfa740"},"vehicle_type_id":"4","last_reported":1684134403,"current_range_meters":21600,"station_id":"ce4bhs92rcd13ifvqi0g","pricing_plan_id":"free"},{"bike_id":"5bc79a87-8c51-4256-972d-10ecdbdb6305","system_id":"levelo_inurba_marseille","lat":43.328371,"lon":5.366912,"is_reserved":false,"is_disabled":false,"rental_uris":{"android":"levelo://app?vid=5bc79a87-8c51-4256-972d-10ecdbdb6305","ios":"levelo://app?vid=5bc79a87-8c51-4256-972d-10ecdbdb6305"},"vehicle_type_id":"4","last_reported":1684134403,"current_range_meters":11600,"station_id":"ce4bhs92rcd13ifvqi0g","pricing_plan_id":"free"},{"bike_id":"e888ba52-688b-4a73-8b99-e09c27686c1c","system_id":"levelo_inurba_marseille","lat":43.328371,"lon":5.366909,"is_reserved":false,"is_disabled":false,"rental_uris":{"android":"levelo://app?vid=e888ba52-688b-4a73-8b99-e09c27686c1c","ios":"levelo://app?vid=e888ba52-688b-4a73-8b99-e09c27686c1c"},"vehicle_type_id":"4","last_reported":1684134403,"current_range_meters":14800,"station_id":"ce4bhs92rcd13ifvqi0g","pricing_plan_id":"free"},{"bike_id":"cf4840be-7984-4a6f-988b-c9a8da6852fd","system_id":"levelo_inurba_marseille","lat":43.29719,"lon":5.36612,"is_reserved":false,"is_disabled":false,"rental_uris":{"android":"levelo://app?vid=cf4840be-7984-4a6f-988b-c9a8da6852fd","ios":"levelo://app?vid=cf4840be-7984-4a6f-988b-c9a8da6852fd"},"vehicle_type_id":"4","last_reported":1684134403,"current_range_meters":6400,"station_id":"","pricing_plan_id":"free"},{"bike_id":"dff8f60e-2589-4771-b1f4-fa1893563f27","system_id":"levelo_inurba_marseille","lat":43.32831,"lon":5.36691,"is_reserved":false,"is_disabled":false,"rental_uris":{"android":"levelo://app?vid=dff8f60e-2589-4771-b1f4-fa1893563f27","ios":"levelo://app?vid=dff8f60e-2589-4771-b1f4-fa1893563f27"},"vehicle_type_id":"4","last_reported":1684134403,"current_range_meters":2400,"station_id":"ce4bhs92rcd13ifvqi0g","pricing_plan_id":"free"},{"bike_id":"6161b423-133d-4809-8fa2-10db872e2cfb","system_id":"levelo_inurba_marseille","lat":43.328371,"lon":5.366912,"is_reserved":false,"is_disabled":false,"rental_uris":{"android":"levelo://app?vid=6161b423-133d-4809-8fa2-10db872e2cfb","ios":"levelo://app?vid=6161b423-133d-4809-8fa2-10db872e2cfb"},"vehicle_type_id":"4","last_reported":1684134403,"current_range_meters":26800,"station_id":"ce4bhs92rcd13ifvqi0g","pricing_plan_id":"free"},{"bike_id":"03aabb40-6213-4726-8efd-c29eca272db0","system_id":"levelo_inurba_marseille","lat":43.328371,"lon":5.366909,"is_reserved":false,"is_disabled":false,"rental_uris":{"android":"levelo://app?vid=03aabb40-6213-4726-8efd-c29eca272db0","ios":"levelo://app?vid=03aabb40-6213-4726-8efd-c29eca272db0"},"vehicle_type_id":"4","last_reported":1684134403,"current_range_meters":6400,"station_id":"ce4bhs92rcd13ifvqi0g","pricing_plan_id":"free"},{"bike_id":"f7e16b9b-dda5-4bba-9d80-00bc064f0f46","system_id":"levelo_inurba_marseille","lat":43.32835,"lon":5.36685,"is_reserved":false,"is_disabled":false,"rental_uris":{"android":"levelo://app?vid=f7e16b9b-dda5-4bba-9d80-00bc064f0f46","ios":"levelo://app?vid=f7e16b9b-dda5-4bba-9d80-00bc064f0f46"},"vehicle_type_id":"4","last_reported":1684134403,"current_range_meters":10400,"station_id":"ce4bhs92rcd13ifvqi0g","pricing_plan_id":"free"},{"bike_id":"4b3b8c7e-c60b-4f83-8e71-e80094005b2c","system_id":"levelo_inurba_marseille","lat":43.328371,"lon":5.366909,"is_reserved":false,"is_disabled":false,"rental_uris":{"android":"levelo://app?vid=4b3b8c7e-c60b-4f83-8e71-e80094005b2c","ios":"levelo://app?vid=4b3b8c7e-c60b-4f83-8e71-e80094005b2c"},"vehicle_type_id":"4","last_reported":1684134403,"current_range_meters":8000,"station_id":"ce4bhs92rcd13ifvqi0g","pricing_plan_id":"free"},{"bike_id":"216acc05-cd3c-4a35-b67b-82ab6e8e46bc","system_id":"levelo_inurba_marseille","lat":43.32836,"lon":5.36694,"is_reserved":false,"is_disabled":false,"rental_uris":{"android":"levelo://app?vid=216acc05-cd3c-4a35-b67b-82ab6e8e46bc","ios":"levelo://app?vid=216acc05-cd3c-4a35-b67b-82ab6e8e46bc"},"vehicle_type_id":"4","last_reported":1684134403,"current_range_meters":12400,"station_id":"ce4bhs92rcd13ifvqi0g","pricing_plan_id":"free"},{"bike_id":"ef619222-d86f-4984-a46f-cda033f9cc5b","system_id":"levelo_inurba_marseille","lat":43.32837,"lon":5.36686,"is_reserved":false,"is_disabled":false,"rental_uris":{"android":"levelo://app?vid=ef619222-d86f-4984-a46f-cda033f9cc5b","ios":"levelo://app?vid=ef619222-d86f-4984-a46f-cda033f9cc5b"},"vehicle_type_id":"4","last_reported":1684134403,"current_range_meters":26800,"station_id":"ce4bhs92rcd13ifvqi0g","pricing_plan_id":"free"},{"bike_id":"77cb6d31-b7a9-4c11-be72-a269c1ce26a3","system_id":"levelo_inurba_marseille","lat":43.29709,"lon":5.366,"is_reserved":false,"is_disabled":false,"rental_uris":{"android":"levelo://app?vid=77cb6d31-b7a9-4c11-be72-a269c1ce26a3","ios":"levelo://app?vid=77cb6d31-b7a9-4c11-be72-a269c1ce26a3"},"vehicle_type_id":"4","last_reported":1684134403,"current_range_meters":27600,"station_id":"","pricing_plan_id":"free"},{"bike_id":"dc99e7ef-6c0d-4e9d-8932-2998f5ffbb2b","system_id":"levelo_inurba_marseille","lat":43.296129,"lon":5.370777,"is_reserved":false,"is_disabled":false,"rental_uris":{"android":"levelo://app?vid=dc99e7ef-6c0d-4e9d-8932-2998f5ffbb2b","ios":"levelo://app?vid=dc99e7ef-6c0d-4e9d-8932-2998f5ffbb2b"},"vehicle_type_id":"4","last_reported":1684134403,"current_range_meters":30000,"station_id":"ce4bgnh2rcd13ifvqc0g","pricing_plan_id":"free"},{"bike_id":"a5cb192c-4624-4e3e-a69d-969286e265a1","system_id":"levelo_inurba_marseille","lat":43.296129,"lon":5.370777,"is_reserved":false,"is_disabled":false,"rental_uris":{"android":"levelo://app?vid=a5cb192c-4624-4e3e-a69d-969286e265a1","ios":"levelo://app?vid=a5cb192c-4624-4e3e-a69d-969286e265a1"},"vehicle_type_id":"4","last_reported":1684134403,"current_range_meters":27200,"station_id":"ce4bgnh2rcd13ifvqc0g","pricing_plan_id":"free"},{"bike_id":"8c9417ea-25c1-49b7-b675-24cc762934d4","system_id":"levelo_inurba_marseille","lat":43.296129,"lon":5.370777,"is_reserved":false,"is_disabled":false,"rental_uris":{"android":"levelo://app?vid=8c9417ea-25c1-49b7-b675-24cc762934d4","ios":"levelo://app?vid=8c9417ea-25c1-49b7-b675-24cc762934d4"},"vehicle_type_id":"4","last_reported":1684134403,"current_range_meters":20800,"station_id":"ce4bgnh2rcd13ifvqc0g","pricing_plan_id":"free"},{"bike_id":"4de0fde5-c824-4bcc-99c2-34ed78ea65ac","system_id":"levelo_inurba_marseille","lat":43.296131,"lon":5.370791,"is_reserved":false,"is_disabled":false,"rental_uris":{"android":"levelo://app?vid=4de0fde5-c824-4bcc-99c2-34ed78ea65ac","ios":"levelo://app?vid=4de0fde5-c824-4bcc-99c2-34ed78ea65ac"},"vehicle_type_id":"4","last_reported":1684134403,"current_range_meters":25200,"station_id":"ce4bgnh2rcd13ifvqc0g","pricing_plan_id":"free"},{"bike_id":"0f4f66a8-5e63-44f9-be54-1024e5fd134b","system_id":"levelo_inurba_marseille","lat":43.296129,"lon":5.370777,"is_reserved":false,"is_disabled":false,"rental_uris":{"android":"levelo://app?vid=0f4f66a8-5e63-44f9-be54-1024e5fd134b","ios":"levelo://app?vid=0f4f66a8-5e63-44f9-be54-1024e5fd134b"},"vehicle_type_id":"4","last_reported":1684134403,"current_range_meters":30000,"station_id":"ce4bgnh2rcd13ifvqc0g","pricing_plan_id":"free"},{"bike_id":"c6125fc0-4491-405a-ac5c-057ff415c226","system_id":"levelo_inurba_marseille","lat":43.296129,"lon":5.370777,"is_reserved":false,"is_disabled":false,"rental_uris":{"android":"levelo://app?vid=c6125fc0-4491-405a-ac5c-057ff415c226","ios":"levelo://app?vid=c6125fc0-4491-405a-ac5c-057ff415c226"},"vehicle_type_id":"4","last_reported":1684134403,"current_range_meters":29200,"station_id":"ce4bgnh2rcd13ifvqc0g","pricing_plan_id":"free"},{"bike_id":"40a6edd7-61df-4446-960b-ada495f96412","system_id":"levelo_inurba_marseille","lat":43.296129,"lon":5.370777,"is_reserved":false,"is_disabled":false,"rental_uris":{"android":"levelo://app?vid=40a6edd7-61df-4446-960b-ada495f96412","ios":"levelo://app?vid=40a6edd7-61df-4446-960b-ada495f96412"},"vehicle_type_id":"4","last_reported":1684134403,"current_range_meters":21600,"station_id":"ce4bgnh2rcd13ifvqc0g","pricing_plan_id":"free"},{"bike_id":"fde2413e-f4b7-433e-94f8-604a45e43ddb","system_id":"levelo_inurba_marseille","lat":43.296129,"lon":5.370777,"is_reserved":false,"is_disabled":false,"rental_uris":{"android":"levelo://app?vid=fde2413e-f4b7-433e-94f8-604a45e43ddb","ios":"levelo://app?vid=fde2413e-f4b7-433e-94f8-604a45e43ddb"},"vehicle_type_id":"4","last_reported":1684134403,"current_range_meters":12400,"station_id":"ce4bgnh2rcd13ifvqc0g","pricing_plan_id":"free"},{"bike_id":"18c836d2-4943-423f-90e1-f9104bcd02f4","system_id":"levelo_inurba_marseille","lat":43.296129,"lon":5.370777,"is_reserved":false,"is_disabled":false,"rental_uris":{"android":"levelo://app?vid=18c836d2-4943-423f-90e1-f9104bcd02f4","ios":"levelo://app?vid=18c836d2-4943-423f-90e1-f9104bcd02f4"},"vehicle_type_id":"4","last_reported":1684134403,"current_range_meters":26800,"station_id":"ce4bgnh2rcd13ifvqc0g","pricing_plan_id":"free"},{"bike_id":"636c157a-f9d4-436e-873b-91fde75215d7","system_id":"levelo_inurba_marseille","lat":43.296129,"lon":5.370777,"is_reserved":false,"is_disabled":false,"rental_uris":{"android":"levelo://app?vid=636c157a-f9d4-436e-873b-91fde75215d7","ios":"levelo://app?vid=636c157a-f9d4-436e-873b-91fde75215d7"},"vehicle_type_id":"4","last_reported":1684134403,"current_range_meters":19600,"station_id":"ce4bgnh2rcd13ifvqc0g","pricing_plan_id":"free"},{"bike_id":"1cc66c6d-9adf-4522-97e5-93680a84310d","system_id":"levelo_inurba_marseille","lat":43.299028,"lon":5.381509,"is_reserved":false,"is_disabled":false,"rental_uris":{"android":"levelo://app?vid=1cc66c6d-9adf-4522-97e5-93680a84310d","ios":"levelo://app?vid=1cc66c6d-9adf-4522-97e5-93680a84310d"},"vehicle_type_id":"4","last_reported":1684134403,"current_range_meters":24800,"station_id":"ce4bgj12rcd13ifvqbc0","pricing_plan_id":"free"},{"bike_id":"624373e4-ab4f-46f7-8694-5d1591c68021","system_id":"levelo_inurba_marseille","lat":43.29906,"lon":5.38134,"is_reserved":false,"is_disabled":false,"rental_uris":{"android":"levelo://app?vid=624373e4-ab4f-46f7-8694-5d1591c68021","ios":"levelo://app?vid=624373e4-ab4f-46f7-8694-5d1591c68021"},"vehicle_type_id":"4","last_reported":1684134403,"current_range_meters":27200,"station_id":"","pricing_plan_id":"free"},{"bike_id":"838003d3-9d94-43e7-9d9e-278bdbf56dbe","system_id":"levelo_inurba_marseille","lat":43.309589,"lon":5.390258,"is_reserved":false,"is_disabled":false,"rental_uris":{"android":"levelo://app?vid=838003d3-9d94-43e7-9d9e-278bdbf56dbe","ios":"levelo://app?vid=838003d3-9d94-43e7-9d9e-278bdbf56dbe"},"vehicle_type_id":"4","last_reported":1684134403,"current_range_meters":0,"station_id":"ce4bgup2rcd13ifvqco0","pricing_plan_id":"free"},{"bike_id":"10dccb99-ff24-4c35-855a-09fa16bb2e94","system_id":"levelo_inurba_marseille","lat":43.30954,"lon":5.39027,"is_reserved":false,"is_disabled":false,"rental_uris":{"android":"levelo://app?vid=10dccb99-ff24-4c35-855a-09fa16bb2e94","ios":"levelo://app?vid=10dccb99-ff24-4c35-855a-09fa16bb2e94"},"vehicle_type_id":"4","last_reported":1684134403,"current_range_meters":27200,"station_id":"ce4bgup2rcd13ifvqco0","pricing_plan_id":"free"},{"bike_id":"cf27abcf-7667-4391-a76e-f375f9f3d469","system_id":"levelo_inurba_marseille","lat":43.30953,"lon":5.39029,"is_reserved":false,"is_disabled":false,"rental_uris":{"android":"levelo://app?vid=cf27abcf-7667-4391-a76e-f375f9f3d469","ios":"levelo://app?vid=cf27abcf-7667-4391-a76e-f375f9f3d469"},"vehicle_type_id":"4","last_reported":1684134403,"current_range_meters":2000,"station_id":"ce4bgup2rcd13ifvqco0","pricing_plan_id":"free"},{"bike_id":"343b753e-b8d0-4373-96c7-1dd44fa08398","system_id":"levelo_inurba_marseille","lat":43.30953,"lon":5.39032,"is_reserved":false,"is_disabled":false,"rental_uris":{"android":"levelo://app?vid=343b753e-b8d0-4373-96c7-1dd44fa08398","ios":"levelo://app?vid=343b753e-b8d0-4373-96c7-1dd44fa08398"},"vehicle_type_id":"4","last_reported":1684134403,"current_range_meters":10400,"station_id":"ce4bgup2rcd13ifvqco0","pricing_plan_id":"free"},{"bike_id":"84e21e90-e2a4-4bf2-b0b1-83c7b31b89d0","system_id":"levelo_inurba_marseille","lat":43.309589,"lon":5.390258,"is_reserved":false,"is_disabled":false,"rental_uris":{"android":"levelo://app?vid=84e21e90-e2a4-4bf2-b0b1-83c7b31b89d0","ios":"levelo://app?vid=84e21e90-e2a4-4bf2-b0b1-83c7b31b89d0"},"vehicle_type_id":"4","last_reported":1684134403,"current_range_meters":3200,"station_id":"ce4bgup2rcd13ifvqco0","pricing_plan_id":"free"},{"bike_id":"99a87a0e-3e70-4942-b0af-803165a3d2b5","system_id":"levelo_inurba_marseille","lat":43.30952,"lon":5.39034,"is_reserved":false,"is_disabled":false,"rental_uris":{"android":"levelo://app?vid=99a87a0e-3e70-4942-b0af-803165a3d2b5","ios":"levelo://app?vid=99a87a0e-3e70-4942-b0af-803165a3d2b5"},"vehicle_type_id":"4","last_reported":1684134403,"current_range_meters":1200,"station_id":"","pricing_plan_id":"free"},{"bike_id":"420e0aa4-04b2-43dd-8979-3e4dada4fa88","system_id":"levelo_inurba_marseille","lat":43.30957,"lon":5.39038,"is_reserved":false,"is_disabled":false,"rental_uris":{"android":"levelo://app?vid=420e0aa4-04b2-43dd-8979-3e4dada4fa88","ios":"levelo://app?vid=420e0aa4-04b2-43dd-8979-3e4dada4fa88"},"vehicle_type_id":"4","last_reported":1684134403,"current_range_meters":30000,"station_id":"ce4bgup2rcd13ifvqco0","pricing_plan_id":"free"},{"bike_id":"bc6dfe44-1542-481c-92ff-2fef09cf955d","system_id":"levelo_inurba_marseille","lat":43.299028,"lon":5.381509,"is_reserved":false,"is_disabled":false,"rental_uris":{"android":"levelo://app?vid=bc6dfe44-1542-481c-92ff-2fef09cf955d","ios":"levelo://app?vid=bc6dfe44-1542-481c-92ff-2fef09cf955d"},"vehicle_type_id":"4","last_reported":1684134403,"current_range_meters":27600,"station_id":"ce4bgj12rcd13ifvqbc0","pricing_plan_id":"free"},{"bike_id":"5261910e-3b1c-4085-93ea-1d77eb9bbeef","system_id":"levelo_inurba_marseille","lat":43.31761,"lon":5.39013,"is_reserved":false,"is_disabled":false,"rental_uris":{"android":"levelo://app?vid=5261910e-3b1c-4085-93ea-1d77eb9bbeef","ios":"levelo://app?vid=5261910e-3b1c-4085-93ea-1d77eb9bbeef"},"vehicle_type_id":"4","last_reported":1684134403,"current_range_meters":14800,"station_id":"ce4bhqp2rcd13ifvqhng","pricing_plan_id":"free"},{"bike_id":"cd8c751a-aa2b-4c08-97c6-8191db6f0994","system_id":"levelo_inurba_marseille","lat":43.31755,"lon":5.39016,"is_reserved":false,"is_disabled":false,"rental_uris":{"android":"levelo://app?vid=cd8c751a-aa2b-4c08-97c6-8191db6f0994","ios":"levelo://app?vid=cd8c751a-aa2b-4c08-97c6-8191db6f0994"},"vehicle_type_id":"4","last_reported":1684134403,"current_range_meters":3600,"station_id":"ce4bhqp2rcd13ifvqhng","pricing_plan_id":"free"},{"bike_id":"cd4ea5aa-dbff-4d2d-bbfb-154d16dc490d","system_id":"levelo_inurba_marseille","lat":43.298037,"lon":5.381066,"is_reserved":false,"is_disabled":false,"rental_uris":{"android":"levelo://app?vid=cd4ea5aa-dbff-4d2d-bbfb-154d16dc490d","ios":"levelo://app?vid=cd4ea5aa-dbff-4d2d-bbfb-154d16dc490d"},"vehicle_type_id":"4","last_reported":1684134403,"current_range_meters":0,"station_id":"ce4bgip2rcd13ifvqbb0","pricing_plan_id":"free"},{"bike_id":"8df0d340-3f04-4e17-9e84-eefc58efc621","system_id":"levelo_inurba_marseille","lat":43.298037,"lon":5.381066,"is_reserved":false,"is_disabled":false,"rental_uris":{"android":"levelo://app?vid=8df0d340-3f04-4e17-9e84-eefc58efc621","ios":"levelo://app?vid=8df0d340-3f04-4e17-9e84-eefc58efc621"},"vehicle_type_id":"4","last_reported":1684134403,"current_range_meters":6400,"station_id":"ce4bgip2rcd13ifvqbb0","pricing_plan_id":"free"},{"bike_id":"71bda2f8-9794-4d8d-a4a2-f240ec28dde3","system_id":"levelo_inurba_marseille","lat":43.298037,"lon":5.381066,"is_reserved":false,"is_disabled":false,"rental_uris":{"android":"levelo://app?vid=71bda2f8-9794-4d8d-a4a2-f240ec28dde3","ios":"levelo://app?vid=71bda2f8-9794-4d8d-a4a2-f240ec28dde3"},"vehicle_type_id":"4","last_reported":1684134403,"current_range_meters":6000,"station_id":"ce4bgip2rcd13ifvqbb0","pricing_plan_id":"free"},{"bike_id":"b247139d-3eaf-49a4-b553-39c272ac78ed","system_id":"levelo_inurba_marseille","lat":43.298037,"lon":5.381066,"is_reserved":false,"is_disabled":false,"rental_uris":{"android":"levelo://app?vid=b247139d-3eaf-49a4-b553-39c272ac78ed","ios":"levelo://app?vid=b247139d-3eaf-49a4-b553-39c272ac78ed"},"vehicle_type_id":"4","last_reported":1684134403,"current_range_meters":2400,"station_id":"ce4bgip2rcd13ifvqbb0","pricing_plan_id":"free"},{"bike_id":"1404d831-cf44-4099-bb1c-5dee84bf7988","system_id":"levelo_inurba_marseille","lat":43.298037,"lon":5.381066,"is_reserved":false,"is_disabled":false,"rental_uris":{"android":"levelo://app?vid=1404d831-cf44-4099-bb1c-5dee84bf7988","ios":"levelo://app?vid=1404d831-cf44-4099-bb1c-5dee84bf7988"},"vehicle_type_id":"4","last_reported":1684134403,"current_range_meters":30800,"station_id":"ce4bgip2rcd13ifvqbb0","pricing_plan_id":"free"},{"bike_id":"545a974b-0adf-4aca-9927-ba0d71e289e8","system_id":"levelo_inurba_marseille","lat":43.296263,"lon":5.377094,"is_reserved":false,"is_disabled":false,"rental_uris":{"android":"levelo://app?vid=545a974b-0adf-4aca-9927-ba0d71e289e8","ios":"levelo://app?vid=545a974b-0adf-4aca-9927-ba0d71e289e8"},"vehicle_type_id":"4","last_reported":1684134403,"current_range_meters":4400,"station_id":"ce4bgi92rcd13ifvqb90","pricing_plan_id":"free"},{"bike_id":"6f6b02ce-a50b-443a-a31d-aed834771e7b","system_id":"levelo_inurba_marseille","lat":43.31446,"lon":5.39277,"is_reserved":false,"is_disabled":false,"rental_uris":{"android":"levelo://app?vid=6f6b02ce-a50b-443a-a31d-aed834771e7b","ios":"levelo://app?vid=6f6b02ce-a50b-443a-a31d-aed834771e7b"},"vehicle_type_id":"4","last_reported":1684134403,"current_range_meters":0,"station_id":"","pricing_plan_id":"free"},{"bike_id":"2ff023d1-4f17-4d13-897c-0016bd78796c","system_id":"levelo_inurba_marseille","lat":43.32365,"lon":5.38883,"is_reserved":false,"is_disabled":false,"rental_uris":{"android":"levelo://app?vid=2ff023d1-4f17-4d13-897c-0016bd78796c","ios":"levelo://app?vid=2ff023d1-4f17-4d13-897c-0016bd78796c"},"vehicle_type_id":"4","last_reported":1684134403,"current_range_meters":400,"station_id":"","pricing_plan_id":"free"},{"bike_id":"f528ae5d-36b6-40f4-8614-43898e6c24e6","system_id":"levelo_inurba_marseille","lat":43.293249,"lon":5.371578,"is_reserved":false,"is_disabled":false,"rental_uris":{"android":"levelo://app?vid=f528ae5d-36b6-40f4-8614-43898e6c24e6","ios":"levelo://app?vid=f528ae5d-36b6-40f4-8614-43898e6c24e6"},"vehicle_type_id":"4","last_reported":1684134403,"current_range_meters":0,"station_id":"ce4bgh92rcd13ifvqb40","pricing_plan_id":"free"},{"bike_id":"4824111e-5e7f-4793-a05f-a3b5f9e7f9e9","system_id":"levelo_inurba_marseille","lat":43.2936,"lon":5.37835,"is_reserved":false,"is_disabled":false,"rental_uris":{"android":"levelo://app?vid=4824111e-5e7f-4793-a05f-a3b5f9e7f9e9","ios":"levelo://app?vid=4824111e-5e7f-4793-a05f-a3b5f9e7f9e9"},"vehicle_type_id":"4","last_reported":1684134403,"current_range_meters":31200,"station_id":"ce4bgjh2rcd13ifvqbf0","pricing_plan_id":"free"},{"bike_id":"dbd2aa94-d830-4646-a810-c879e008561a","system_id":"levelo_inurba_marseille","lat":43.302992,"lon":5.392136,"is_reserved":false,"is_disabled":false,"rental_uris":{"android":"levelo://app?vid=dbd2aa94-d830-4646-a810-c879e008561a","ios":"levelo://app?vid=dbd2aa94-d830-4646-a810-c879e008561a"},"vehicle_type_id":"4","last_reported":1684134403,"current_range_meters":400,"station_id":"ce4bgkh2rcd13ifvqbk0","pricing_plan_id":"free"},{"bike_id":"ef0e7939-90ad-4e76-8d6e-a6044bf70e52","system_id":"levelo_inurba_marseille","lat":43.302992,"lon":5.392136,"is_reserved":false,"is_disabled":false,"rental_uris":{"android":"levelo://app?vid=ef0e7939-90ad-4e76-8d6e-a6044bf70e52","ios":"levelo://app?vid=ef0e7939-90ad-4e76-8d6e-a6044bf70e52"},"vehicle_type_id":"4","last_reported":1684134403,"current_range_meters":29200,"station_id":"ce4bgkh2rcd13ifvqbk0","pricing_plan_id":"free"},{"bike_id":"93939c97-6834-4dd4-83ff-5d889950d818","system_id":"levelo_inurba_marseille","lat":43.302992,"lon":5.392136,"is_reserved":false,"is_disabled":false,"rental_uris":{"android":"levelo://app?vid=93939c97-6834-4dd4-83ff-5d889950d818","ios":"levelo://app?vid=93939c97-6834-4dd4-83ff-5d889950d818"},"vehicle_type_id":"4","last_reported":1684134403,"current_range_meters":16400,"station_id":"ce4bgkh2rcd13ifvqbk0","pricing_plan_id":"free"},{"bike_id":"810ddbce-f986-41c9-9e5c-6000844cb39e","system_id":"levelo_inurba_marseille","lat":43.2936,"lon":5.37835,"is_reserved":false,"is_disabled":false,"rental_uris":{"android":"levelo://app?vid=810ddbce-f986-41c9-9e5c-6000844cb39e","ios":"levelo://app?vid=810ddbce-f986-41c9-9e5c-6000844cb39e"},"vehicle_type_id":"4","last_reported":1684134403,"current_range_meters":0,"station_id":"ce4bgjh2rcd13ifvqbf0","pricing_plan_id":"free"},{"bike_id":"81fa2c4b-189e-4fa1-8f15-ed0571a945e3","system_id":"levelo_inurba_marseille","lat":43.2936,"lon":5.37835,"is_reserved":false,"is_disabled":false,"rental_uris":{"android":"levelo://app?vid=81fa2c4b-189e-4fa1-8f15-ed0571a945e3","ios":"levelo://app?vid=81fa2c4b-189e-4fa1-8f15-ed0571a945e3"},"vehicle_type_id":"4","last_reported":1684134403,"current_range_meters":21600,"station_id":"ce4bgjh2rcd13ifvqbf0","pricing_plan_id":"free"},{"bike_id":"5ad3a717-c638-4a4c-9547-bbbffa2bab20","system_id":"levelo_inurba_marseille","lat":43.300852,"lon":5.390859,"is_reserved":false,"is_disabled":false,"rental_uris":{"android":"levelo://app?vid=5ad3a717-c638-4a4c-9547-bbbffa2bab20","ios":"levelo://app?vid=5ad3a717-c638-4a4c-9547-bbbffa2bab20"},"vehicle_type_id":"4","last_reported":1684134403,"current_range_meters":400,"station_id":"ce4bh192rcd13ifvqdb0","pricing_plan_id":"free"},{"bike_id":"ea3ea279-6c6b-4a64-9059-ba771e7d6f42","system_id":"levelo_inurba_marseille","lat":43.29221,"lon":5.36061,"is_reserved":false,"is_disabled":false,"rental_uris":{"android":"levelo://app?vid=ea3ea279-6c6b-4a64-9059-ba771e7d6f42","ios":"levelo://app?vid=ea3ea279-6c6b-4a64-9059-ba771e7d6f42"},"vehicle_type_id":"4","last_reported":1684134403,"current_range_meters":31200,"station_id":"ce4bhbh2rcd13ifvqeqg","pricing_plan_id":"free"},{"bike_id":"ec5ee180-f0e6-4b3e-b9b3-032503683b22","system_id":"levelo_inurba_marseille","lat":43.298764,"lon":5.388973,"is_reserved":false,"is_disabled":false,"rental_uris":{"android":"levelo://app?vid=ec5ee180-f0e6-4b3e-b9b3-032503683b22","ios":"levelo://app?vid=ec5ee180-f0e6-4b3e-b9b3-032503683b22"},"vehicle_type_id":"4","last_reported":1684134403,"current_range_meters":21600,"station_id":"ce4bh392rcd13ifvqdl0","pricing_plan_id":"free"},{"bike_id":"4ac0fbd0-3741-43f1-992a-1ca9dc8fe056","system_id":"levelo_inurba_marseille","lat":43.298764,"lon":5.388973,"is_reserved":false,"is_disabled":false,"rental_uris":{"android":"levelo://app?vid=4ac0fbd0-3741-43f1-992a-1ca9dc8fe056","ios":"levelo://app?vid=4ac0fbd0-3741-43f1-992a-1ca9dc8fe056"},"vehicle_type_id":"4","last_reported":1684134403,"current_range_meters":21200,"station_id":"ce4bh392rcd13ifvqdl0","pricing_plan_id":"free"},{"bike_id":"53948f40-574d-4d5f-94eb-6169795b425e","system_id":"levelo_inurba_marseille","lat":43.291671,"lon":5.371575,"is_reserved":false,"is_disabled":false,"rental_uris":{"android":"levelo://app?vid=53948f40-574d-4d5f-94eb-6169795b425e","ios":"levelo://app?vid=53948f40-574d-4d5f-94eb-6169795b425e"},"vehicle_type_id":"4","last_reported":1684134403,"current_range_meters":0,"station_id":"ce4bha92rcd13ifvqeh0","pricing_plan_id":"free"},{"bike_id":"caa694b2-2ac7-4228-89f0-8564a9f21e17","system_id":"levelo_inurba_marseille","lat":43.31563,"lon":5.39655,"is_reserved":false,"is_disabled":false,"rental_uris":{"android":"levelo://app?vid=caa694b2-2ac7-4228-89f0-8564a9f21e17","ios":"levelo://app?vid=caa694b2-2ac7-4228-89f0-8564a9f21e17"},"vehicle_type_id":"4","last_reported":1684134403,"current_range_meters":0,"station_id":"","pricing_plan_id":"free"},{"bike_id":"a63a1095-4f37-402b-a159-a9724b14bb5f","system_id":"levelo_inurba_marseille","lat":43.29195,"lon":5.35803,"is_reserved":false,"is_disabled":false,"rental_uris":{"android":"levelo://app?vid=a63a1095-4f37-402b-a159-a9724b14bb5f","ios":"levelo://app?vid=a63a1095-4f37-402b-a159-a9724b14bb5f"},"vehicle_type_id":"4","last_reported":1684134403,"current_range_meters":14800,"station_id":"ce4bhb12rcd13ifvqel0","pricing_plan_id":"free"},{"bike_id":"8a87b016-b360-477e-beff-4511ba6b6466","system_id":"levelo_inurba_marseille","lat":43.313291,"lon":5.396838,"is_reserved":false,"is_disabled":false,"rental_uris":{"android":"levelo://app?vid=8a87b016-b360-477e-beff-4511ba6b6466","ios":"levelo://app?vid=8a87b016-b360-477e-beff-4511ba6b6466"},"vehicle_type_id":"4","last_reported":1684134403,"current_range_meters":19600,"station_id":"ce4bgvp2rcd13ifvqcu0","pricing_plan_id":"free"},{"bike_id":"8f20812a-8fb7-4864-8b35-55b18b6f92a4","system_id":"levelo_inurba_marseille","lat":43.313291,"lon":5.396838,"is_reserved":false,"is_disabled":false,"rental_uris":{"android":"levelo://app?vid=8f20812a-8fb7-4864-8b35-55b18b6f92a4","ios":"levelo://app?vid=8f20812a-8fb7-4864-8b35-55b18b6f92a4"},"vehicle_type_id":"4","last_reported":1684134403,"current_range_meters":19600,"station_id":"ce4bgvp2rcd13ifvqcu0","pricing_plan_id":"free"},{"bike_id":"f0a52fef-6622-4f2e-b0f7-75023b46d4e7","system_id":"levelo_inurba_marseille","lat":43.309038,"lon":5.396546,"is_reserved":false,"is_disabled":false,"rental_uris":{"android":"levelo://app?vid=f0a52fef-6622-4f2e-b0f7-75023b46d4e7","ios":"levelo://app?vid=f0a52fef-6622-4f2e-b0f7-75023b46d4e7"},"vehicle_type_id":"4","last_reported":1684134403,"current_range_meters":18000,"station_id":"ce4bh012rcd13ifvqcv0","pricing_plan_id":"free"},{"bike_id":"389053bc-ce17-4292-ab2a-bf3a80a58b4a","system_id":"levelo_inurba_marseille","lat":43.290319,"lon":5.375732,"is_reserved":false,"is_disabled":false,"rental_uris":{"android":"levelo://app?vid=389053bc-ce17-4292-ab2a-bf3a80a58b4a","ios":"levelo://app?vid=389053bc-ce17-4292-ab2a-bf3a80a58b4a"},"vehicle_type_id":"4","last_reported":1684134403,"current_range_meters":27200,"station_id":"ce4bh692rcd13ifvqe90","pricing_plan_id":"free"},{"bike_id":"c2415084-59ba-41db-afd0-1d3658177ea2","system_id":"levelo_inurba_marseille","lat":43.290319,"lon":5.375732,"is_reserved":false,"is_disabled":false,"rental_uris":{"android":"levelo://app?vid=c2415084-59ba-41db-afd0-1d3658177ea2","ios":"levelo://app?vid=c2415084-59ba-41db-afd0-1d3658177ea2"},"vehicle_type_id":"4","last_reported":1684134403,"current_range_meters":5600,"station_id":"ce4bh692rcd13ifvqe90","pricing_plan_id":"free"},{"bike_id":"9f129774-36e1-42f1-8229-a7c2be11d89e","system_id":"levelo_inurba_marseille","lat":43.3048,"lon":5.39705,"is_reserved":false,"is_disabled":false,"rental_uris":{"android":"levelo://app?vid=9f129774-36e1-42f1-8229-a7c2be11d89e","ios":"levelo://app?vid=9f129774-36e1-42f1-8229-a7c2be11d89e"},"vehicle_type_id":"4","last_reported":1684134403,"current_range_meters":12000,"station_id":"","pricing_plan_id":"free"},{"bike_id":"be38c26b-f9e9-4c86-b915-d3f170f8459c","system_id":"levelo_inurba_marseille","lat":43.289184,"lon":5.366408,"is_reserved":false,"is_disabled":false,"rental_uris":{"android":"levelo://app?vid=be38c26b-f9e9-4c86-b915-d3f170f8459c","ios":"levelo://app?vid=be38c26b-f9e9-4c86-b915-d3f170f8459c"},"vehicle_type_id":"4","last_reported":1684134403,"current_range_meters":22000,"station_id":"ce4bhap2rcd13ifvqek0","pricing_plan_id":"free"},{"bike_id":"8c51270e-1f83-4ecf-a1d7-3341ddf6b0a9","system_id":"levelo_inurba_marseille","lat":43.33073,"lon":5.38857,"is_reserved":false,"is_disabled":false,"rental_uris":{"android":"levelo://app?vid=8c51270e-1f83-4ecf-a1d7-3341ddf6b0a9","ios":"levelo://app?vid=8c51270e-1f83-4ecf-a1d7-3341ddf6b0a9"},"vehicle_type_id":"4","last_reported":1684134403,"current_range_meters":2000,"station_id":"","pricing_plan_id":"free"},{"bike_id":"9dd3146f-edfe-4142-a8f2-21edf454cef2","system_id":"levelo_inurba_marseille","lat":43.290104,"lon":5.356111,"is_reserved":false,"is_disabled":false,"rental_uris":{"android":"levelo://app?vid=9dd3146f-edfe-4142-a8f2-21edf454cef2","ios":"levelo://app?vid=9dd3146f-edfe-4142-a8f2-21edf454cef2"},"vehicle_type_id":"4","last_reported":1684134403,"current_range_meters":16800,"station_id":"ce4bhb92rcd13ifvqen0","pricing_plan_id":"free"},{"bike_id":"a86c90ec-2371-44c7-8c0e-c025f45419b0","system_id":"levelo_inurba_marseille","lat":43.330417,"lon":5.389108,"is_reserved":false,"is_disabled":false,"rental_uris":{"android":"levelo://app?vid=a86c90ec-2371-44c7-8c0e-c025f45419b0","ios":"levelo://app?vid=a86c90ec-2371-44c7-8c0e-c025f45419b0"},"vehicle_type_id":"4","last_reported":1684134403,"current_range_meters":2400,"station_id":"ce4bhr92rcd13ifvqhrg","pricing_plan_id":"free"},{"bike_id":"b64189d2-39ef-4499-957a-187b3afa4b37","system_id":"levelo_inurba_marseille","lat":43.33044,"lon":5.38914,"is_reserved":false,"is_disabled":false,"rental_uris":{"android":"levelo://app?vid=b64189d2-39ef-4499-957a-187b3afa4b37","ios":"levelo://app?vid=b64189d2-39ef-4499-957a-187b3afa4b37"},"vehicle_type_id":"4","last_reported":1684134403,"current_range_meters":2400,"station_id":"ce4bhr92rcd13ifvqhrg","pricing_plan_id":"free"},{"bike_id":"a98ff5bd-e355-4be9-973d-4bb68d559ab4","system_id":"levelo_inurba_marseille","lat":43.33043,"lon":5.38917,"is_reserved":false,"is_disabled":false,"rental_uris":{"android":"levelo://app?vid=a98ff5bd-e355-4be9-973d-4bb68d559ab4","ios":"levelo://app?vid=a98ff5bd-e355-4be9-973d-4bb68d559ab4"},"vehicle_type_id":"4","last_reported":1684134403,"current_range_meters":6000,"station_id":"ce4bhr92rcd13ifvqhrg","pricing_plan_id":"free"},{"bike_id":"2cf7050e-d743-4605-bb38-2a9326f0bc43","system_id":"levelo_inurba_marseille","lat":43.33044,"lon":5.38917,"is_reserved":false,"is_disabled":false,"rental_uris":{"android":"levelo://app?vid=2cf7050e-d743-4605-bb38-2a9326f0bc43","ios":"levelo://app?vid=2cf7050e-d743-4605-bb38-2a9326f0bc43"},"vehicle_type_id":"4","last_reported":1684134403,"current_range_meters":4400,"station_id":"ce4bhr92rcd13ifvqhrg","pricing_plan_id":"free"},{"bike_id":"b8d0a2d7-4443-405c-9e1e-71d351b2ac12","system_id":"levelo_inurba_marseille","lat":43.33043,"lon":5.38921,"is_reserved":false,"is_disabled":false,"rental_uris":{"android":"levelo://app?vid=b8d0a2d7-4443-405c-9e1e-71d351b2ac12","ios":"levelo://app?vid=b8d0a2d7-4443-405c-9e1e-71d351b2ac12"},"vehicle_type_id":"4","last_reported":1684134403,"current_range_meters":14800,"station_id":"ce4bhr92rcd13ifvqhrg","pricing_plan_id":"free"},{"bike_id":"a5fa46ff-71e5-45e9-a06b-eb923e3e7289","system_id":"levelo_inurba_marseille","lat":43.29793,"lon":5.39337,"is_reserved":false,"is_disabled":false,"rental_uris":{"android":"levelo://app?vid=a5fa46ff-71e5-45e9-a06b-eb923e3e7289","ios":"levelo://app?vid=a5fa46ff-71e5-45e9-a06b-eb923e3e7289"},"vehicle_type_id":"4","last_reported":1684134403,"current_range_meters":2800,"station_id":"ce4bh212rcd13ifvqde0","pricing_plan_id":"free"},{"bike_id":"2205c759-fe40-4220-9eb5-532c57483420","system_id":"levelo_inurba_marseille","lat":43.289743,"lon":5.378304,"is_reserved":false,"is_disabled":false,"rental_uris":{"android":"levelo://app?vid=2205c759-fe40-4220-9eb5-532c57483420","ios":"levelo://app?vid=2205c759-fe40-4220-9eb5-532c57483420"},"vehicle_type_id":"4","last_reported":1684134403,"current_range_meters":5600,"station_id":"ce4bh9p2rcd13ifvqed0","pricing_plan_id":"free"},{"bike_id":"eacc8f85-67c3-4b3d-939f-5f17a3947041","system_id":"levelo_inurba_marseille","lat":43.289743,"lon":5.378304,"is_reserved":false,"is_disabled":false,"rental_uris":{"android":"levelo://app?vid=eacc8f85-67c3-4b3d-939f-5f17a3947041","ios":"levelo://app?vid=eacc8f85-67c3-4b3d-939f-5f17a3947041"},"vehicle_type_id":"4","last_reported":1684134403,"current_range_meters":25600,"station_id":"ce4bh9p2rcd13ifvqed0","pricing_plan_id":"free"},{"bike_id":"235bfca5-3523-4573-9b75-a1fadb68ed6a","system_id":"levelo_inurba_marseille","lat":43.337328,"lon":5.374538,"is_reserved":false,"is_disabled":false,"rental_uris":{"android":"levelo://app?vid=235bfca5-3523-4573-9b75-a1fadb68ed6a","ios":"levelo://app?vid=235bfca5-3523-4573-9b75-a1fadb68ed6a"},"vehicle_type_id":"4","last_reported":1684134403,"current_range_meters":24400,"station_id":"ce4bhah2rcd13ifvqei0","pricing_plan_id":"free"},{"bike_id":"5b3ce0e7-ddde-4f08-9689-05c27b8dd4cc","system_id":"levelo_inurba_marseille","lat":43.337436,"lon":5.374627,"is_reserved":false,"is_disabled":false,"rental_uris":{"android":"levelo://app?vid=5b3ce0e7-ddde-4f08-9689-05c27b8dd4cc","ios":"levelo://app?vid=5b3ce0e7-ddde-4f08-9689-05c27b8dd4cc"},"vehicle_type_id":"4","last_reported":1684134403,"current_range_meters":25200,"station_id":"ce4bhnp2rcd13ifvqgvg","pricing_plan_id":"free"},{"bike_id":"5d2cf25b-ecfe-4e47-9056-c00fea5d1195","system_id":"levelo_inurba_marseille","lat":43.33753,"lon":5.37496,"is_reserved":false,"is_disabled":false,"rental_uris":{"android":"levelo://app?vid=5d2cf25b-ecfe-4e47-9056-c00fea5d1195","ios":"levelo://app?vid=5d2cf25b-ecfe-4e47-9056-c00fea5d1195"},"vehicle_type_id":"4","last_reported":1684134403,"current_range_meters":12400,"station_id":"","pricing_plan_id":"free"},{"bike_id":"ac89998a-72cf-4b06-aaee-02a30ec2547b","system_id":"levelo_inurba_marseille","lat":43.29028,"lon":5.3864,"is_reserved":false,"is_disabled":false,"rental_uris":{"android":"levelo://app?vid=ac89998a-72cf-4b06-aaee-02a30ec2547b","ios":"levelo://app?vid=ac89998a-72cf-4b06-aaee-02a30ec2547b"},"vehicle_type_id":"4","last_reported":1684134403,"current_range_meters":17200,"station_id":"ce4bh4p2rcd13ifvqe0g","pricing_plan_id":"free"},{"bike_id":"6e6d347e-367b-4b4c-9ac0-d8cee28fbe78","system_id":"levelo_inurba_marseille","lat":43.290345,"lon":5.38646,"is_reserved":false,"is_disabled":false,"rental_uris":{"android":"levelo://app?vid=6e6d347e-367b-4b4c-9ac0-d8cee28fbe78","ios":"levelo://app?vid=6e6d347e-367b-4b4c-9ac0-d8cee28fbe78"},"vehicle_type_id":"4","last_reported":1684134403,"current_range_meters":21200,"station_id":"ce4bh4p2rcd13ifvqe0g","pricing_plan_id":"free"},{"bike_id":"ef824caa-2484-44e0-b8f7-f82ed1574f38","system_id":"levelo_inurba_marseille","lat":43.291994,"lon":5.392907,"is_reserved":false,"is_disabled":false,"rental_uris":{"android":"levelo://app?vid=ef824caa-2484-44e0-b8f7-f82ed1574f38","ios":"levelo://app?vid=ef824caa-2484-44e0-b8f7-f82ed1574f38"},"vehicle_type_id":"4","last_reported":1684134403,"current_range_meters":24000,"station_id":"ce4bh192rcd13ifvqdd0","pricing_plan_id":"free"},{"bike_id":"183d92a1-ff25-49ac-908f-76144a8ff090","system_id":"levelo_inurba_marseille","lat":43.285856,"lon":5.350771,"is_reserved":false,"is_disabled":false,"rental_uris":{"android":"levelo://app?vid=183d92a1-ff25-49ac-908f-76144a8ff090","ios":"levelo://app?vid=183d92a1-ff25-49ac-908f-76144a8ff090"},"vehicle_type_id":"4","last_reported":1684134403,"current_range_meters":0,"station_id":"ce4bhch2rcd13ifvqeug","pricing_plan_id":"free"},{"bike_id":"e0c3b99a-a467-4863-874d-6c88e11da212","system_id":"levelo_inurba_marseille","lat":43.29574,"lon":5.39983,"is_reserved":false,"is_disabled":false,"rental_uris":{"android":"levelo://app?vid=e0c3b99a-a467-4863-874d-6c88e11da212","ios":"levelo://app?vid=e0c3b99a-a467-4863-874d-6c88e11da212"},"vehicle_type_id":"4","last_reported":1684134403,"current_range_meters":24000,"station_id":"ce4bh312rcd13ifvqdj0","pricing_plan_id":"free"},{"bike_id":"fa2d50bc-8dc8-430d-be76-c77a5114f634","system_id":"levelo_inurba_marseille","lat":43.2867,"lon":5.38658,"is_reserved":false,"is_disabled":false,"rental_uris":{"android":"levelo://app?vid=fa2d50bc-8dc8-430d-be76-c77a5114f634","ios":"levelo://app?vid=fa2d50bc-8dc8-430d-be76-c77a5114f634"},"vehicle_type_id":"4","last_reported":1684134403,"current_range_meters":0,"station_id":"ce4bh492rcd13ifvqdug","pricing_plan_id":"free"},{"bike_id":"0997a794-8d26-415d-9ffe-0a84c920f6a9","system_id":"levelo_inurba_marseille","lat":43.28666,"lon":5.38648,"is_reserved":false,"is_disabled":false,"rental_uris":{"android":"levelo://app?vid=0997a794-8d26-415d-9ffe-0a84c920f6a9","ios":"levelo://app?vid=0997a794-8d26-415d-9ffe-0a84c920f6a9"},"vehicle_type_id":"4","last_reported":1684134403,"current_range_meters":6400,"station_id":"ce4bh492rcd13ifvqdug","pricing_plan_id":"free"},{"bike_id":"f81685e9-5d5e-449c-8b7e-dd9900eafaa4","system_id":"levelo_inurba_marseille","lat":43.323464,"lon":5.406297,"is_reserved":false,"is_disabled":false,"rental_uris":{"android":"levelo://app?vid=f81685e9-5d5e-449c-8b7e-dd9900eafaa4","ios":"levelo://app?vid=f81685e9-5d5e-449c-8b7e-dd9900eafaa4"},"vehicle_type_id":"4","last_reported":1684134403,"current_range_meters":30800,"station_id":"ce4bhq92rcd13ifvqhjg","pricing_plan_id":"free"},{"bike_id":"52165b19-4501-40a9-9df0-eb50c34d8aaf","system_id":"levelo_inurba_marseille","lat":43.323464,"lon":5.406297,"is_reserved":false,"is_disabled":false,"rental_uris":{"android":"levelo://app?vid=52165b19-4501-40a9-9df0-eb50c34d8aaf","ios":"levelo://app?vid=52165b19-4501-40a9-9df0-eb50c34d8aaf"},"vehicle_type_id":"4","last_reported":1684134403,"current_range_meters":30000,"station_id":"ce4bhq92rcd13ifvqhjg","pricing_plan_id":"free"},{"bike_id":"950b45fd-4e48-4103-bc04-66ad4e261f3b","system_id":"levelo_inurba_marseille","lat":43.323464,"lon":5.406297,"is_reserved":false,"is_disabled":false,"rental_uris":{"android":"levelo://app?vid=950b45fd-4e48-4103-bc04-66ad4e261f3b","ios":"levelo://app?vid=950b45fd-4e48-4103-bc04-66ad4e261f3b"},"vehicle_type_id":"4","last_reported":1684134403,"current_range_meters":0,"station_id":"ce4bhq92rcd13ifvqhjg","pricing_plan_id":"free"},{"bike_id":"961cbdee-709b-418f-84fd-cd739c4726e1","system_id":"levelo_inurba_marseille","lat":43.33731,"lon":5.3919,"is_reserved":false,"is_disabled":false,"rental_uris":{"android":"levelo://app?vid=961cbdee-709b-418f-84fd-cd739c4726e1","ios":"levelo://app?vid=961cbdee-709b-418f-84fd-cd739c4726e1"},"vehicle_type_id":"4","last_reported":1684134403,"current_range_meters":31200,"station_id":"ce4bhr92rcd13ifvqhsg","pricing_plan_id":"free"},{"bike_id":"b8ba47b3-05e6-4591-9429-209827aa45d2","system_id":"levelo_inurba_marseille","lat":43.288497,"lon":5.393089,"is_reserved":false,"is_disabled":false,"rental_uris":{"android":"levelo://app?vid=b8ba47b3-05e6-4591-9429-209827aa45d2","ios":"levelo://app?vid=b8ba47b3-05e6-4591-9429-209827aa45d2"},"vehicle_type_id":"4","last_reported":1684134403,"current_range_meters":12800,"station_id":"ce4bh2p2rcd13ifvqdi0","pricing_plan_id":"free"},{"bike_id":"828b7e20-ba8a-4498-868c-cc5dd6793473","system_id":"levelo_inurba_marseille","lat":43.28278,"lon":5.35077,"is_reserved":false,"is_disabled":false,"rental_uris":{"android":"levelo://app?vid=828b7e20-ba8a-4498-868c-cc5dd6793473","ios":"levelo://app?vid=828b7e20-ba8a-4498-868c-cc5dd6793473"},"vehicle_type_id":"4","last_reported":1684134403,"current_range_meters":0,"station_id":"ce4bhbp2rcd13ifvqerg","pricing_plan_id":"free"},{"bike_id":"4b3c21b1-88da-4ef0-9497-b5e0a11a557b","system_id":"levelo_inurba_marseille","lat":43.282754,"lon":5.350519,"is_reserved":false,"is_disabled":false,"rental_uris":{"android":"levelo://app?vid=4b3c21b1-88da-4ef0-9497-b5e0a11a557b","ios":"levelo://app?vid=4b3c21b1-88da-4ef0-9497-b5e0a11a557b"},"vehicle_type_id":"4","last_reported":1684134403,"current_range_meters":27600,"station_id":"ce4bhbp2rcd13ifvqerg","pricing_plan_id":"free"},{"bike_id":"50564bb8-5b0c-4631-85d8-157fed0213e2","system_id":"levelo_inurba_marseille","lat":43.280382,"lon":5.369291,"is_reserved":false,"is_disabled":false,"rental_uris":{"android":"levelo://app?vid=50564bb8-5b0c-4631-85d8-157fed0213e2","ios":"levelo://app?vid=50564bb8-5b0c-4631-85d8-157fed0213e2"},"vehicle_type_id":"4","last_reported":1684134403,"current_range_meters":2000,"station_id":"ce4bha12rcd13ifvqef0","pricing_plan_id":"free"},{"bike_id":"ce516064-86ac-4849-9dc5-b088fbdafcda","system_id":"levelo_inurba_marseille","lat":43.290412,"lon":5.399633,"is_reserved":false,"is_disabled":false,"rental_uris":{"android":"levelo://app?vid=ce516064-86ac-4849-9dc5-b088fbdafcda","ios":"levelo://app?vid=ce516064-86ac-4849-9dc5-b088fbdafcda"},"vehicle_type_id":"4","last_reported":1684134403,"current_range_meters":0,"station_id":"ce4bh392rcd13ifvqdm0","pricing_plan_id":"free"},{"bike_id":"2e757ae5-8929-4797-8d59-3e297d588d6f","system_id":"levelo_inurba_marseille","lat":43.29041,"lon":5.399634,"is_reserved":false,"is_disabled":false,"rental_uris":{"android":"levelo://app?vid=2e757ae5-8929-4797-8d59-3e297d588d6f","ios":"levelo://app?vid=2e757ae5-8929-4797-8d59-3e297d588d6f"},"vehicle_type_id":"4","last_reported":1684134403,"current_range_meters":25200,"station_id":"ce4bh392rcd13ifvqdm0","pricing_plan_id":"free"},{"bike_id":"8b2b8194-654b-46c4-88ff-b85dcfc3ace1","system_id":"levelo_inurba_marseille","lat":43.29041,"lon":5.399634,"is_reserved":false,"is_disabled":false,"rental_uris":{"android":"levelo://app?vid=8b2b8194-654b-46c4-88ff-b85dcfc3ace1","ios":"levelo://app?vid=8b2b8194-654b-46c4-88ff-b85dcfc3ace1"},"vehicle_type_id":"4","last_reported":1684134403,"current_range_meters":22400,"station_id":"ce4bh392rcd13ifvqdm0","pricing_plan_id":"free"},{"bike_id":"13d1a213-7f7e-43a9-a864-757794d6693b","system_id":"levelo_inurba_marseille","lat":43.29041,"lon":5.399634,"is_reserved":false,"is_disabled":false,"rental_uris":{"android":"levelo://app?vid=13d1a213-7f7e-43a9-a864-757794d6693b","ios":"levelo://app?vid=13d1a213-7f7e-43a9-a864-757794d6693b"},"vehicle_type_id":"4","last_reported":1684134403,"current_range_meters":25200,"station_id":"ce4bh392rcd13ifvqdm0","pricing_plan_id":"free"},{"bike_id":"4bdb2657-b14f-4d83-b90c-04139582cf84","system_id":"levelo_inurba_marseille","lat":43.29041,"lon":5.399634,"is_reserved":false,"is_disabled":false,"rental_uris":{"android":"levelo://app?vid=4bdb2657-b14f-4d83-b90c-04139582cf84","ios":"levelo://app?vid=4bdb2657-b14f-4d83-b90c-04139582cf84"},"vehicle_type_id":"4","last_reported":1684134403,"current_range_meters":20800,"station_id":"ce4bh392rcd13ifvqdm0","pricing_plan_id":"free"},{"bike_id":"5b4c34b3-fbdc-40bf-9b2a-36a115468d6d","system_id":"levelo_inurba_marseille","lat":43.29041,"lon":5.399634,"is_reserved":false,"is_disabled":false,"rental_uris":{"android":"levelo://app?vid=5b4c34b3-fbdc-40bf-9b2a-36a115468d6d","ios":"levelo://app?vid=5b4c34b3-fbdc-40bf-9b2a-36a115468d6d"},"vehicle_type_id":"4","last_reported":1684134403,"current_range_meters":16000,"station_id":"ce4bh392rcd13ifvqdm0","pricing_plan_id":"free"},{"bike_id":"b0e20c94-d968-4a73-9598-3271b471c78d","system_id":"levelo_inurba_marseille","lat":43.290412,"lon":5.399633,"is_reserved":false,"is_disabled":false,"rental_uris":{"android":"levelo://app?vid=b0e20c94-d968-4a73-9598-3271b471c78d","ios":"levelo://app?vid=b0e20c94-d968-4a73-9598-3271b471c78d"},"vehicle_type_id":"4","last_reported":1684134403,"current_range_meters":29600,"station_id":"ce4bh392rcd13ifvqdm0","pricing_plan_id":"free"},{"bike_id":"7e2ff098-e166-4bd1-9df0-55ec7ee1d4af","system_id":"levelo_inurba_marseille","lat":43.284462,"lon":5.392121,"is_reserved":false,"is_disabled":false,"rental_uris":{"android":"levelo://app?vid=7e2ff098-e166-4bd1-9df0-55ec7ee1d4af","ios":"levelo://app?vid=7e2ff098-e166-4bd1-9df0-55ec7ee1d4af"},"vehicle_type_id":"4","last_reported":1684134403,"current_range_meters":12800,"station_id":"ce4bhoh2rcd13ifvqh5g","pricing_plan_id":"free"},{"bike_id":"8588cc81-a79c-42c4-978b-fbc371da9764","system_id":"levelo_inurba_marseille","lat":43.28565,"lon":5.3951,"is_reserved":false,"is_disabled":false,"rental_uris":{"android":"levelo://app?vid=8588cc81-a79c-42c4-978b-fbc371da9764","ios":"levelo://app?vid=8588cc81-a79c-42c4-978b-fbc371da9764"},"vehicle_type_id":"4","last_reported":1684134403,"current_range_meters":0,"station_id":"ce4bh292rcd13ifvqdg0","pricing_plan_id":"free"},{"bike_id":"55ae320c-ee62-416b-b594-a050f1cf1551","system_id":"levelo_inurba_marseille","lat":43.320045,"lon":5.415048,"is_reserved":false,"is_disabled":false,"rental_uris":{"android":"levelo://app?vid=55ae320c-ee62-416b-b594-a050f1cf1551","ios":"levelo://app?vid=55ae320c-ee62-416b-b594-a050f1cf1551"},"vehicle_type_id":"4","last_reported":1684134403,"current_range_meters":31200,"station_id":"ce4bhq92rcd13ifvqhkg","pricing_plan_id":"free"},{"bike_id":"e9717e21-e623-4738-9aaf-ba866daf212a","system_id":"levelo_inurba_marseille","lat":43.320045,"lon":5.415048,"is_reserved":false,"is_disabled":false,"rental_uris":{"android":"levelo://app?vid=e9717e21-e623-4738-9aaf-ba866daf212a","ios":"levelo://app?vid=e9717e21-e623-4738-9aaf-ba866daf212a"},"vehicle_type_id":"4","last_reported":1684134403,"current_range_meters":4000,"station_id":"ce4bhq92rcd13ifvqhkg","pricing_plan_id":"free"},{"bike_id":"f218cecf-6a4d-4d91-8c9d-15e513b3f37c","system_id":"levelo_inurba_marseille","lat":43.279742,"lon":5.38744,"is_reserved":false,"is_disabled":false,"rental_uris":{"android":"levelo://app?vid=f218cecf-6a4d-4d91-8c9d-15e513b3f37c","ios":"levelo://app?vid=f218cecf-6a4d-4d91-8c9d-15e513b3f37c"},"vehicle_type_id":"4","last_reported":1684134403,"current_range_meters":31200,"station_id":"ce4bhg12rcd13ifvqf80","pricing_plan_id":"free"},{"bike_id":"f488f56b-a183-40a1-95af-8d92ba1f896a","system_id":"levelo_inurba_marseille","lat":43.279742,"lon":5.38744,"is_reserved":false,"is_disabled":false,"rental_uris":{"android":"levelo://app?vid=f488f56b-a183-40a1-95af-8d92ba1f896a","ios":"levelo://app?vid=f488f56b-a183-40a1-95af-8d92ba1f896a"},"vehicle_type_id":"4","last_reported":1684134403,"current_range_meters":15600,"station_id":"ce4bhg12rcd13ifvqf80","pricing_plan_id":"free"},{"bike_id":"a72cff25-43db-4dfb-9bc6-401fbf97ad05","system_id":"levelo_inurba_marseille","lat":43.299579,"lon":5.413255,"is_reserved":false,"is_disabled":false,"rental_uris":{"android":"levelo://app?vid=a72cff25-43db-4dfb-9bc6-401fbf97ad05","ios":"levelo://app?vid=a72cff25-43db-4dfb-9bc6-401fbf97ad05"},"vehicle_type_id":"4","last_reported":1684134403,"current_range_meters":12800,"station_id":"ce4bhp12rcd13ifvqh9g","pricing_plan_id":"free"},{"bike_id":"3c85678c-9250-411d-be81-31841d414066","system_id":"levelo_inurba_marseille","lat":43.27663,"lon":5.37008,"is_reserved":false,"is_disabled":false,"rental_uris":{"android":"levelo://app?vid=3c85678c-9250-411d-be81-31841d414066","ios":"levelo://app?vid=3c85678c-9250-411d-be81-31841d414066"},"vehicle_type_id":"4","last_reported":1684134403,"current_range_meters":0,"station_id":"","pricing_plan_id":"free"},{"bike_id":"d75dc3fa-2251-4f3d-acdb-6c0be913c493","system_id":"levelo_inurba_marseille","lat":43.279742,"lon":5.38744,"is_reserved":false,"is_disabled":false,"rental_uris":{"android":"levelo://app?vid=d75dc3fa-2251-4f3d-acdb-6c0be913c493","ios":"levelo://app?vid=d75dc3fa-2251-4f3d-acdb-6c0be913c493"},"vehicle_type_id":"4","last_reported":1684134403,"current_range_meters":20800,"station_id":"ce4bhg12rcd13ifvqf80","pricing_plan_id":"free"},{"bike_id":"e2d49f6c-6ce0-4a07-b16d-a171d3dc7d50","system_id":"levelo_inurba_marseille","lat":43.320045,"lon":5.415048,"is_reserved":false,"is_disabled":false,"rental_uris":{"android":"levelo://app?vid=e2d49f6c-6ce0-4a07-b16d-a171d3dc7d50","ios":"levelo://app?vid=e2d49f6c-6ce0-4a07-b16d-a171d3dc7d50"},"vehicle_type_id":"4","last_reported":1684134403,"current_range_meters":17600,"station_id":"ce4bhq92rcd13ifvqhkg","pricing_plan_id":"free"},{"bike_id":"c8228b92-6611-41d8-ad97-941bec94bae1","system_id":"levelo_inurba_marseille","lat":43.279742,"lon":5.38744,"is_reserved":false,"is_disabled":false,"rental_uris":{"android":"levelo://app?vid=c8228b92-6611-41d8-ad97-941bec94bae1","ios":"levelo://app?vid=c8228b92-6611-41d8-ad97-941bec94bae1"},"vehicle_type_id":"4","last_reported":1684134403,"current_range_meters":14800,"station_id":"ce4bhg12rcd13ifvqf80","pricing_plan_id":"free"},{"bike_id":"06817507-111d-46e4-b5ed-f82c4b5e71cf","system_id":"levelo_inurba_marseille","lat":43.279742,"lon":5.38744,"is_reserved":false,"is_disabled":false,"rental_uris":{"android":"levelo://app?vid=06817507-111d-46e4-b5ed-f82c4b5e71cf","ios":"levelo://app?vid=06817507-111d-46e4-b5ed-f82c4b5e71cf"},"vehicle_type_id":"4","last_reported":1684134403,"current_range_meters":26400,"station_id":"ce4bhg12rcd13ifvqf80","pricing_plan_id":"free"},{"bike_id":"52fbabae-9e67-4640-a485-e7e13d4eaad3","system_id":"levelo_inurba_marseille","lat":43.279742,"lon":5.38744,"is_reserved":false,"is_disabled":false,"rental_uris":{"android":"levelo://app?vid=52fbabae-9e67-4640-a485-e7e13d4eaad3","ios":"levelo://app?vid=52fbabae-9e67-4640-a485-e7e13d4eaad3"},"vehicle_type_id":"4","last_reported":1684134403,"current_range_meters":31200,"station_id":"ce4bhg12rcd13ifvqf80","pricing_plan_id":"free"},{"bike_id":"edc2d7e2-c3c2-4d0c-8c06-4f40e2a256ea","system_id":"levelo_inurba_marseille","lat":43.279742,"lon":5.38744,"is_reserved":false,"is_disabled":false,"rental_uris":{"android":"levelo://app?vid=edc2d7e2-c3c2-4d0c-8c06-4f40e2a256ea","ios":"levelo://app?vid=edc2d7e2-c3c2-4d0c-8c06-4f40e2a256ea"},"vehicle_type_id":"4","last_reported":1684134403,"current_range_meters":22800,"station_id":"ce4bhg12rcd13ifvqf80","pricing_plan_id":"free"},{"bike_id":"84bda96d-030e-4a20-b523-aced4a022b48","system_id":"levelo_inurba_marseille","lat":43.279742,"lon":5.38744,"is_reserved":false,"is_disabled":false,"rental_uris":{"android":"levelo://app?vid=84bda96d-030e-4a20-b523-aced4a022b48","ios":"levelo://app?vid=84bda96d-030e-4a20-b523-aced4a022b48"},"vehicle_type_id":"4","last_reported":1684134403,"current_range_meters":30000,"station_id":"ce4bhg12rcd13ifvqf80","pricing_plan_id":"free"},{"bike_id":"17af0b71-d59c-4bd3-96c0-d68801548339","system_id":"levelo_inurba_marseille","lat":43.325233,"lon":5.414318,"is_reserved":false,"is_disabled":false,"rental_uris":{"android":"levelo://app?vid=17af0b71-d59c-4bd3-96c0-d68801548339","ios":"levelo://app?vid=17af0b71-d59c-4bd3-96c0-d68801548339"},"vehicle_type_id":"4","last_reported":1684134403,"current_range_meters":30000,"station_id":"ce4bhq12rcd13ifvqhhg","pricing_plan_id":"free"},{"bike_id":"ef42593a-33cd-483e-bb2c-52104a39304c","system_id":"levelo_inurba_marseille","lat":43.325233,"lon":5.414318,"is_reserved":false,"is_disabled":false,"rental_uris":{"android":"levelo://app?vid=ef42593a-33cd-483e-bb2c-52104a39304c","ios":"levelo://app?vid=ef42593a-33cd-483e-bb2c-52104a39304c"},"vehicle_type_id":"4","last_reported":1684134403,"current_range_meters":21600,"station_id":"ce4bhq12rcd13ifvqhhg","pricing_plan_id":"free"},{"bike_id":"50b03646-e459-47e2-b76f-064e656ff559","system_id":"levelo_inurba_marseille","lat":43.325233,"lon":5.414318,"is_reserved":false,"is_disabled":false,"rental_uris":{"android":"levelo://app?vid=50b03646-e459-47e2-b76f-064e656ff559","ios":"levelo://app?vid=50b03646-e459-47e2-b76f-064e656ff559"},"vehicle_type_id":"4","last_reported":1684134403,"current_range_meters":1600,"station_id":"ce4bhq12rcd13ifvqhhg","pricing_plan_id":"free"},{"bike_id":"db4c06c4-7ebe-4673-b2cb-90f55c7c7db4","system_id":"levelo_inurba_marseille","lat":43.325233,"lon":5.414318,"is_reserved":false,"is_disabled":false,"rental_uris":{"android":"levelo://app?vid=db4c06c4-7ebe-4673-b2cb-90f55c7c7db4","ios":"levelo://app?vid=db4c06c4-7ebe-4673-b2cb-90f55c7c7db4"},"vehicle_type_id":"4","last_reported":1684134403,"current_range_meters":24000,"station_id":"ce4bhq12rcd13ifvqhhg","pricing_plan_id":"free"},{"bike_id":"be8f29dc-e14c-4d8a-82d8-25863b1af925","system_id":"levelo_inurba_marseille","lat":43.325233,"lon":5.414318,"is_reserved":false,"is_disabled":false,"rental_uris":{"android":"levelo://app?vid=be8f29dc-e14c-4d8a-82d8-25863b1af925","ios":"levelo://app?vid=be8f29dc-e14c-4d8a-82d8-25863b1af925"},"vehicle_type_id":"4","last_reported":1684134403,"current_range_meters":6400,"station_id":"ce4bhq12rcd13ifvqhhg","pricing_plan_id":"free"},{"bike_id":"27fc7b1c-39cd-4363-b6fb-e6cbeaaa1487","system_id":"levelo_inurba_marseille","lat":43.325233,"lon":5.414318,"is_reserved":false,"is_disabled":false,"rental_uris":{"android":"levelo://app?vid=27fc7b1c-39cd-4363-b6fb-e6cbeaaa1487","ios":"levelo://app?vid=27fc7b1c-39cd-4363-b6fb-e6cbeaaa1487"},"vehicle_type_id":"4","last_reported":1684134403,"current_range_meters":31200,"station_id":"ce4bhq12rcd13ifvqhhg","pricing_plan_id":"free"},{"bike_id":"4699d793-8561-465f-ae20-ed1f4c33a34b","system_id":"levelo_inurba_marseille","lat":43.325233,"lon":5.414318,"is_reserved":false,"is_disabled":false,"rental_uris":{"android":"levelo://app?vid=4699d793-8561-465f-ae20-ed1f4c33a34b","ios":"levelo://app?vid=4699d793-8561-465f-ae20-ed1f4c33a34b"},"vehicle_type_id":"4","last_reported":1684134403,"current_range_meters":21600,"station_id":"ce4bhq12rcd13ifvqhhg","pricing_plan_id":"free"},{"bike_id":"853998bc-a24f-46ef-9dd2-f048e64785d2","system_id":"levelo_inurba_marseille","lat":43.325233,"lon":5.414318,"is_reserved":false,"is_disabled":false,"rental_uris":{"android":"levelo://app?vid=853998bc-a24f-46ef-9dd2-f048e64785d2","ios":"levelo://app?vid=853998bc-a24f-46ef-9dd2-f048e64785d2"},"vehicle_type_id":"4","last_reported":1684134403,"current_range_meters":12400,"station_id":"ce4bhq12rcd13ifvqhhg","pricing_plan_id":"free"},{"bike_id":"bf1d0a6f-7116-4535-aa6b-2c60e12e7d98","system_id":"levelo_inurba_marseille","lat":43.325233,"lon":5.414318,"is_reserved":false,"is_disabled":false,"rental_uris":{"android":"levelo://app?vid=bf1d0a6f-7116-4535-aa6b-2c60e12e7d98","ios":"levelo://app?vid=bf1d0a6f-7116-4535-aa6b-2c60e12e7d98"},"vehicle_type_id":"4","last_reported":1684134403,"current_range_meters":31600,"station_id":"ce4bhq12rcd13ifvqhhg","pricing_plan_id":"free"},{"bike_id":"46bf9edd-3aec-4e09-8567-e30ddd414fd8","system_id":"levelo_inurba_marseille","lat":43.325233,"lon":5.414318,"is_reserved":false,"is_disabled":false,"rental_uris":{"android":"levelo://app?vid=46bf9edd-3aec-4e09-8567-e30ddd414fd8","ios":"levelo://app?vid=46bf9edd-3aec-4e09-8567-e30ddd414fd8"},"vehicle_type_id":"4","last_reported":1684134403,"current_range_meters":14800,"station_id":"ce4bhq12rcd13ifvqhhg","pricing_plan_id":"free"},{"bike_id":"5af5171e-20d5-4bbf-af1c-74b05e6d9e79","system_id":"levelo_inurba_marseille","lat":43.27621,"lon":5.3611,"is_reserved":false,"is_disabled":false,"rental_uris":{"android":"levelo://app?vid=5af5171e-20d5-4bbf-af1c-74b05e6d9e79","ios":"levelo://app?vid=5af5171e-20d5-4bbf-af1c-74b05e6d9e79"},"vehicle_type_id":"4","last_reported":1684134403,"current_range_meters":7600,"station_id":"ce4bgj92rcd13ifvqbe0","pricing_plan_id":"free"},{"bike_id":"29928357-fcee-4843-83e7-3c8513ca3725","system_id":"levelo_inurba_marseille","lat":43.325233,"lon":5.414318,"is_reserved":false,"is_disabled":false,"rental_uris":{"android":"levelo://app?vid=29928357-fcee-4843-83e7-3c8513ca3725","ios":"levelo://app?vid=29928357-fcee-4843-83e7-3c8513ca3725"},"vehicle_type_id":"4","last_reported":1684134403,"current_range_meters":18400,"station_id":"ce4bhq12rcd13ifvqhhg","pricing_plan_id":"free"},{"bike_id":"4e17cd59-d039-4b2a-b620-0e00499af63f","system_id":"levelo_inurba_marseille","lat":43.325233,"lon":5.414318,"is_reserved":false,"is_disabled":false,"rental_uris":{"android":"levelo://app?vid=4e17cd59-d039-4b2a-b620-0e00499af63f","ios":"levelo://app?vid=4e17cd59-d039-4b2a-b620-0e00499af63f"},"vehicle_type_id":"4","last_reported":1684134403,"current_range_meters":23200,"station_id":"ce4bhq12rcd13ifvqhhg","pricing_plan_id":"free"},{"bike_id":"fe339c17-ba4f-4a4f-b350-940fbd81c43b","system_id":"levelo_inurba_marseille","lat":43.33337,"lon":5.40907,"is_reserved":false,"is_disabled":false,"rental_uris":{"android":"levelo://app?vid=fe339c17-ba4f-4a4f-b350-940fbd81c43b","ios":"levelo://app?vid=fe339c17-ba4f-4a4f-b350-940fbd81c43b"},"vehicle_type_id":"4","last_reported":1684134403,"current_range_meters":14000,"station_id":"","pricing_plan_id":"free"},{"bike_id":"e0024be8-9727-4f6c-98fa-1a00fcb3b511","system_id":"levelo_inurba_marseille","lat":43.27374,"lon":5.36242,"is_reserved":false,"is_disabled":false,"rental_uris":{"android":"levelo://app?vid=e0024be8-9727-4f6c-98fa-1a00fcb3b511","ios":"levelo://app?vid=e0024be8-9727-4f6c-98fa-1a00fcb3b511"},"vehicle_type_id":"4","last_reported":1684134403,"current_range_meters":4000,"station_id":"ce4bhbh2rcd13ifvqeo0","pricing_plan_id":"free"},{"bike_id":"c9c1d39a-60ba-4396-b884-edbc468e09b8","system_id":"levelo_inurba_marseille","lat":43.33607,"lon":5.41021,"is_reserved":false,"is_disabled":false,"rental_uris":{"android":"levelo://app?vid=c9c1d39a-60ba-4396-b884-edbc468e09b8","ios":"levelo://app?vid=c9c1d39a-60ba-4396-b884-edbc468e09b8"},