{"last_updated":1742540975,"ttl":60,"version":"2.2","data":{"bikes":[{"bike_id":"d04095ec-eae7-4b8a-9104-87ba76003e2e","system_id":"levelo_inurba_marseille","lat":43.31684,"lon":5.40473,"is_reserved":false,"is_disabled":false,"rental_uris":{"android":"levelo://app?vid=d04095ec-eae7-4b8a-9104-87ba76003e2e","ios":"levelo://app?vid=d04095ec-eae7-4b8a-9104-87ba76003e2e"},"vehicle_type_id":"4","last_reported":1742540975,"current_range_meters":2800,"station_id":"ce4bh012rcd13ifvqd00","pricing_plan_id":"cebpf4jnsgd1na2vs0mg"},{"bike_id":"3455258b-4135-46b9-9a26-10bf95160e40","system_id":"levelo_inurba_marseille","lat":43.231899,"lon":5.355511,"is_reserved":false,"is_disabled":false,"rental_uris":{"android":"levelo://app?vid=3455258b-4135-46b9-9a26-10bf95160e40","ios":"levelo://app?vid=3455258b-4135-46b9-9a26-10bf95160e40"},"vehicle_type_id":"4","last_reported":1742540975,"current_range_meters":2800,"station_id":"ce4bhu92rcd13ifvqi70","pricing_plan_id":"cebpf4jnsgd1na2vs0mg"},{"bike_id":"ef16e6fd-d954-4df1-911a-4d78b575162e","system_id":"levelo_inurba_marseille","lat":43.32529,"lon":5.41438,"is_reserved":false,"is_disabled":false,"rental_uris":{"android":"levelo://app?vid=ef16e6fd-d954-4df1-911a-4d78b575162e","ios":"levelo://app?vid=ef16e6fd-d954-4df1-911a-4d78b575162e"},"vehicle_type_id":"4","last_reported":1742540975,"current_range_meters":2800,"station_id":"ce4bhq12rcd13ifvqhhg","pricing_plan_id":"cebpf4jnsgd1na2vs0mg"},{"bike_id":"e1682447-df9e-476c-8107-d7ea8bae2855","system_id":"levelo_inurba_marseille","lat":43.28326,"lon":5.38847,"is_reserved":false,"is_disabled":false,"rental_uris":{"android":"levelo://app?vid=e1682447-df9e-476c-8107-d7ea8bae2855","ios":"levelo://app?vid=e1682447-df9e-476c-8107-d7ea8bae2855"},"vehicle_type_id":"4","last_reported":1742540975,"current_range_meters":2800,"station_id":"","pricing_plan_id":"cebpf4jnsgd1na2vs0mg"},{"bike_id":"3d08740d-50e7-4ec9-83b9-c355f12008ba","system_id":"levelo_inurba_marseille","lat":43.29534,"lon":5.39955,"is_reserved":false,"is_disabled":false,"rental_uris":{"android":"levelo://app?vid=3d08740d-50e7-4ec9-83b9-c355f12008ba","ios":"levelo://app?vid=3d08740d-50e7-4ec9-83b9-c355f12008ba"},"vehicle_type_id":"4","last_reported":1742540975,"current_range_meters":2800,"station_id":"ce4bh312rcd13ifvqdj0","pricing_plan_id":"cebpf4jnsgd1na2vs0mg"},{"bike_id":"b34c096e-b597-4f1f-9e62-de5d8e391416","system_id":"levelo_inurba_marseille","lat":43.26195,"lon":5.37917,"is_reserved":false,"is_disabled":true,"rental_uris":{"android":"levelo://app?vid=b34c096e-b597-4f1f-9e62-de5d8e391416","ios":"levelo://app?vid=b34c096e-b597-4f1f-9e62-de5d8e391416"},"vehicle_type_id":"4","last_reported":1742540975,"current_range_meters":2800,"station_id":"ce4bhjp2rcd13ifvqg90","pricing_plan_id":"cebpf4jnsgd1na2vs0mg"},{"bike_id":"811a9f15-5d3b-4e41-848a-2f9b7d79ca37","system_id":"levelo_inurba_marseille","lat":43.30433,"lon":5.38895,"is_reserved":false,"is_disabled":false,"rental_uris":{"android":"levelo://app?vid=811a9f15-5d3b-4e41-848a-2f9b7d79ca37","ios":"levelo://app?vid=811a9f15-5d3b-4e41-848a-2f9b7d79ca37"},"vehicle_type_id":"4","last_reported":1742540975,"current_range_meters":3200,"station_id":"ce4bgk12rcd13ifvqbi0","pricing_plan_id":"cebpf4jnsgd1na2vs0mg"},{"bike_id":"5e392e7f-04c4-4e48-9def-f15bcc8a4749","system_id":"levelo_inurba_marseille","lat":43.25114,"lon":5.39442,"is_reserved":false,"is_disabled":false,"rental_uris":{"android":"levelo://app?vid=5e392e7f-04c4-4e48-9def-f15bcc8a4749","ios":"levelo://app?vid=5e392e7f-04c4-4e48-9def-f15bcc8a4749"},"vehicle_type_id":"4","last_reported":1742540975,"current_range_meters":3200,"station_id":"","pricing_plan_id":"cebpf4jnsgd1na2vs0mg"},{"bike_id":"063bf9d1-f3a5-4bc0-a871-7b0315e64d4a","system_id":"levelo_inurba_marseille","lat":43.23188,"lon":5.39985,"is_reserved":false,"is_disabled":false,"rental_uris":{"android":"levelo://app?vid=063bf9d1-f3a5-4bc0-a871-7b0315e64d4a","ios":"levelo://app?vid=063bf9d1-f3a5-4bc0-a871-7b0315e64d4a"},"vehicle_type_id":"4","last_reported":1742540975,"current_range_meters":3200,"station_id":"ce4bhn12rcd13ifvqgqg","pricing_plan_id":"cebpf4jnsgd1na2vs0mg"},{"bike_id":"6ad236bc-a2d1-4643-abe7-47295a697ba3","system_id":"levelo_inurba_marseille","lat":43.28821,"lon":5.37906,"is_reserved":false,"is_disabled":false,"rental_uris":{"android":"levelo://app?vid=6ad236bc-a2d1-4643-abe7-47295a697ba3","ios":"levelo://app?vid=6ad236bc-a2d1-4643-abe7-47295a697ba3"},"vehicle_type_id":"4","last_reported":1742540975,"current_range_meters":3200,"station_id":"","pricing_plan_id":"cebpf4jnsgd1na2vs0mg"},{"bike_id":"89770e84-8652-4cd2-9bd3-0b7f865c5469","system_id":"levelo_inurba_marseille","lat":43.24802,"lon":5.3747,"is_reserved":false,"is_disabled":false,"rental_uris":{"android":"levelo://app?vid=89770e84-8652-4cd2-9bd3-0b7f865c5469","ios":"levelo://app?vid=89770e84-8652-4cd2-9bd3-0b7f865c5469"},"vehicle_type_id":"4","last_reported":1742540975,"current_range_meters":3200,"station_id":"ce4bhgh2rcd13ifvqfb0","pricing_plan_id":"cebpf4jnsgd1na2vs0mg"},{"bike_id":"181a4fde-9b69-4103-90f9-7e9ef00b3a7a","system_id":"levelo_inurba_marseille","lat":43.24808,"lon":5.37465,"is_reserved":false,"is_disabled":false,"rental_uris":{"android":"levelo://app?vid=181a4fde-9b69-4103-90f9-7e9ef00b3a7a","ios":"levelo://app?vid=181a4fde-9b69-4103-90f9-7e9ef00b3a7a"},"vehicle_type_id":"4","last_reported":1742540975,"current_range_meters":3200,"station_id":"ce4bhgh2rcd13ifvqfb0","pricing_plan_id":"cebpf4jnsgd1na2vs0mg"},{"bike_id":"78c38181-2b38-4be0-9c79-587308400453","system_id":"levelo_inurba_marseille","lat":43.29593,"lon":5.38112,"is_reserved":false,"is_disabled":false,"rental_uris":{"android":"levelo://app?vid=78c38181-2b38-4be0-9c79-587308400453","ios":"levelo://app?vid=78c38181-2b38-4be0-9c79-587308400453"},"vehicle_type_id":"4","last_reported":1742540975,"current_range_meters":3200,"station_id":"ce4bgl12rcd13ifvqbo0","pricing_plan_id":"cebpf4jnsgd1na2vs0mg"},{"bike_id":"02f43b01-3b74-45fa-a40e-2df823c84cda","system_id":"levelo_inurba_marseille","lat":43.241893,"lon":5.397248,"is_reserved":false,"is_disabled":false,"rental_uris":{"android":"levelo://app?vid=02f43b01-3b74-45fa-a40e-2df823c84cda","ios":"levelo://app?vid=02f43b01-3b74-45fa-a40e-2df823c84cda"},"vehicle_type_id":"4","last_reported":1742540975,"current_range_meters":3200,"station_id":"ce4bhn12rcd13ifvqgpg","pricing_plan_id":"cebpf4jnsgd1na2vs0mg"},{"bike_id":"7519b74a-29d0-42ed-99a2-ccafceb53e50","system_id":"levelo_inurba_marseille","lat":43.24179,"lon":5.39731,"is_reserved":false,"is_disabled":false,"rental_uris":{"android":"levelo://app?vid=7519b74a-29d0-42ed-99a2-ccafceb53e50","ios":"levelo://app?vid=7519b74a-29d0-42ed-99a2-ccafceb53e50"},"vehicle_type_id":"4","last_reported":1742540975,"current_range_meters":3200,"station_id":"ce4bhn12rcd13ifvqgpg","pricing_plan_id":"cebpf4jnsgd1na2vs0mg"},{"bike_id":"3b276e99-234c-4646-acfe-1384ad70d051","system_id":"levelo_inurba_marseille","lat":43.25079,"lon":5.39536,"is_reserved":false,"is_disabled":false,"rental_uris":{"android":"levelo://app?vid=3b276e99-234c-4646-acfe-1384ad70d051","ios":"levelo://app?vid=3b276e99-234c-4646-acfe-1384ad70d051"},"vehicle_type_id":"4","last_reported":1742540975,"current_range_meters":3600,"station_id":"ce4bhm12rcd13ifvqgkg","pricing_plan_id":"cebpf4jnsgd1na2vs0mg"},{"bike_id":"eac99730-02fe-47e8-8134-8cfd0ca87446","system_id":"levelo_inurba_marseille","lat":43.30467,"lon":5.37914,"is_reserved":false,"is_disabled":false,"rental_uris":{"android":"levelo://app?vid=eac99730-02fe-47e8-8134-8cfd0ca87446","ios":"levelo://app?vid=eac99730-02fe-47e8-8134-8cfd0ca87446"},"vehicle_type_id":"4","last_reported":1742540975,"current_range_meters":3600,"station_id":"ce4bgup2rcd13ifvqcn0","pricing_plan_id":"cebpf4jnsgd1na2vs0mg"},{"bike_id":"d28737f0-7108-47ef-992a-c2a48b3c34b7","system_id":"levelo_inurba_marseille","lat":43.26564,"lon":5.38999,"is_reserved":false,"is_disabled":false,"rental_uris":{"android":"levelo://app?vid=d28737f0-7108-47ef-992a-c2a48b3c34b7","ios":"levelo://app?vid=d28737f0-7108-47ef-992a-c2a48b3c34b7"},"vehicle_type_id":"4","last_reported":1742540975,"current_range_meters":3600,"station_id":"ce4bhe12rcd13ifvqf30","pricing_plan_id":"cebpf4jnsgd1na2vs0mg"},{"bike_id":"071e62d9-f856-422e-81ba-997adeeba695","system_id":"levelo_inurba_marseille","lat":43.25808,"lon":5.39454,"is_reserved":false,"is_disabled":false,"rental_uris":{"android":"levelo://app?vid=071e62d9-f856-422e-81ba-997adeeba695","ios":"levelo://app?vid=071e62d9-f856-422e-81ba-997adeeba695"},"vehicle_type_id":"4","last_reported":1742540975,"current_range_meters":3600,"station_id":"ce4bhip2rcd13ifvqft0","pricing_plan_id":"cebpf4jnsgd1na2vs0mg"},{"bike_id":"9b22f018-bd9f-47f7-876a-f83ee5fe5e94","system_id":"levelo_inurba_marseille","lat":43.30588,"lon":5.39383,"is_reserved":false,"is_disabled":false,"rental_uris":{"android":"levelo://app?vid=9b22f018-bd9f-47f7-876a-f83ee5fe5e94","ios":"levelo://app?vid=9b22f018-bd9f-47f7-876a-f83ee5fe5e94"},"vehicle_type_id":"4","last_reported":1742540975,"current_range_meters":3600,"station_id":"ce4bh0p2rcd13ifvqd80","pricing_plan_id":"cebpf4jnsgd1na2vs0mg"},{"bike_id":"03559b68-f53b-4377-ba54-41f67f9d3d6b","system_id":"levelo_inurba_marseille","lat":43.31498,"lon":5.37308,"is_reserved":false,"is_disabled":false,"rental_uris":{"android":"levelo://app?vid=03559b68-f53b-4377-ba54-41f67f9d3d6b","ios":"levelo://app?vid=03559b68-f53b-4377-ba54-41f67f9d3d6b"},"vehicle_type_id":"4","last_reported":1742540975,"current_range_meters":3600,"station_id":"ce4bgt12rcd13ifvqcd0","pricing_plan_id":"cebpf4jnsgd1na2vs0mg"},{"bike_id":"c2833b87-c07a-4ecf-9052-e932cd239f16","system_id":"levelo_inurba_marseille","lat":43.28147,"lon":5.42656,"is_reserved":false,"is_disabled":false,"rental_uris":{"android":"levelo://app?vid=c2833b87-c07a-4ecf-9052-e932cd239f16","ios":"levelo://app?vid=c2833b87-c07a-4ecf-9052-e932cd239f16"},"vehicle_type_id":"4","last_reported":1742540975,"current_range_meters":3600,"station_id":"ce4bhnh2rcd13ifvqgug","pricing_plan_id":"cebpf4jnsgd1na2vs0mg"},{"bike_id":"9d26c008-8ec1-4269-9cd2-f45774f03ccb","system_id":"levelo_inurba_marseille","lat":43.27952,"lon":5.37928,"is_reserved":false,"is_disabled":false,"rental_uris":{"android":"levelo://app?vid=9d26c008-8ec1-4269-9cd2-f45774f03ccb","ios":"levelo://app?vid=9d26c008-8ec1-4269-9cd2-f45774f03ccb"},"vehicle_type_id":"4","last_reported":1742540975,"current_range_meters":3600,"station_id":"","pricing_plan_id":"cebpf4jnsgd1na2vs0mg"},{"bike_id":"ea3cdff2-6104-444c-9618-052873d57a31","system_id":"levelo_inurba_marseille","lat":43.26948,"lon":5.38638,"is_reserved":false,"is_disabled":false,"rental_uris":{"android":"levelo://app?vid=ea3cdff2-6104-444c-9618-052873d57a31","ios":"levelo://app?vid=ea3cdff2-6104-444c-9618-052873d57a31"},"vehicle_type_id":"4","last_reported":1742540975,"current_range_meters":4000,"station_id":"ce4bhh92rcd13ifvqfh0","pricing_plan_id":"cebpf4jnsgd1na2vs0mg"},{"bike_id":"28f34723-7aef-4dd9-ba81-7d6deba682cf","system_id":"levelo_inurba_marseille","lat":43.281586,"lon":5.426478,"is_reserved":false,"is_disabled":false,"rental_uris":{"android":"levelo://app?vid=28f34723-7aef-4dd9-ba81-7d6deba682cf","ios":"levelo://app?vid=28f34723-7aef-4dd9-ba81-7d6deba682cf"},"vehicle_type_id":"4","last_reported":1742540975,"current_range_meters":4000,"station_id":"ce4bhnh2rcd13ifvqgug","pricing_plan_id":"cebpf4jnsgd1na2vs0mg"},{"bike_id":"45304f47-657e-4432-ab77-f13f5dc2617c","system_id":"levelo_inurba_marseille","lat":43.3121,"lon":5.3688,"is_reserved":false,"is_disabled":false,"rental_uris":{"android":"levelo://app?vid=45304f47-657e-4432-ab77-f13f5dc2617c","ios":"levelo://app?vid=45304f47-657e-4432-ab77-f13f5dc2617c"},"vehicle_type_id":"4","last_reported":1742540975,"current_range_meters":4000,"station_id":"ce4bgl92rcd13ifvqbq0","pricing_plan_id":"cebpf4jnsgd1na2vs0mg"},{"bike_id":"eb16dead-7c03-41d2-8ba9-b3ad7d5fb06b","system_id":"levelo_inurba_marseille","lat":43.3018,"lon":5.36628,"is_reserved":false,"is_disabled":false,"rental_uris":{"android":"levelo://app?vid=eb16dead-7c03-41d2-8ba9-b3ad7d5fb06b","ios":"levelo://app?vid=eb16dead-7c03-41d2-8ba9-b3ad7d5fb06b"},"vehicle_type_id":"4","last_reported":1742540975,"current_range_meters":4000,"station_id":"ce4bgrh2rcd13ifvqc8g","pricing_plan_id":"cebpf4jnsgd1na2vs0mg"},{"bike_id":"b11314d5-4649-42a6-a6a3-bfa252bc580f","system_id":"levelo_inurba_marseille","lat":43.31887,"lon":5.407341,"is_reserved":false,"is_disabled":false,"rental_uris":{"android":"levelo://app?vid=b11314d5-4649-42a6-a6a3-bfa252bc580f","ios":"levelo://app?vid=b11314d5-4649-42a6-a6a3-bfa252bc580f"},"vehicle_type_id":"4","last_reported":1742540975,"current_range_meters":4400,"station_id":"ce4bhq12rcd13ifvqhig","pricing_plan_id":"cebpf4jnsgd1na2vs0mg"},{"bike_id":"3ae4f3bd-c485-4c98-8e8e-3c9bb312423a","system_id":"levelo_inurba_marseille","lat":43.248,"lon":5.37462,"is_reserved":false,"is_disabled":false,"rental_uris":{"android":"levelo://app?vid=3ae4f3bd-c485-4c98-8e8e-3c9bb312423a","ios":"levelo://app?vid=3ae4f3bd-c485-4c98-8e8e-3c9bb312423a"},"vehicle_type_id":"4","last_reported":1742540975,"current_range_meters":4400,"station_id":"ce4bhgh2rcd13ifvqfb0","pricing_plan_id":"cebpf4jnsgd1na2vs0mg"},{"bike_id":"731e2d7c-d677-41bd-bae3-2b0bc35c0746","system_id":"levelo_inurba_marseille","lat":43.30464,"lon":5.37901,"is_reserved":false,"is_disabled":false,"rental_uris":{"android":"levelo://app?vid=731e2d7c-d677-41bd-bae3-2b0bc35c0746","ios":"levelo://app?vid=731e2d7c-d677-41bd-bae3-2b0bc35c0746"},"vehicle_type_id":"4","last_reported":1742540975,"current_range_meters":4400,"station_id":"ce4bgup2rcd13ifvqcn0","pricing_plan_id":"cebpf4jnsgd1na2vs0mg"},{"bike_id":"d526b6e2-b103-4339-baa5-b85128efba8c","system_id":"levelo_inurba_marseille","lat":43.230801,"lon":5.354764,"is_reserved":false,"is_disabled":false,"rental_uris":{"android":"levelo://app?vid=d526b6e2-b103-4339-baa5-b85128efba8c","ios":"levelo://app?vid=d526b6e2-b103-4339-baa5-b85128efba8c"},"vehicle_type_id":"4","last_reported":1742540975,"current_range_meters":4400,"station_id":"cpo3342slgdg3j2ifvpg","pricing_plan_id":"cebpf4jnsgd1na2vs0mg"},{"bike_id":"a8b8dae1-87ef-4f8a-a2c8-fe9fd9bf0f77","system_id":"levelo_inurba_marseille","lat":43.23524,"lon":5.37752,"is_reserved":false,"is_disabled":false,"rental_uris":{"android":"levelo://app?vid=a8b8dae1-87ef-4f8a-a2c8-fe9fd9bf0f77","ios":"levelo://app?vid=a8b8dae1-87ef-4f8a-a2c8-fe9fd9bf0f77"},"vehicle_type_id":"4","last_reported":1742540975,"current_range_meters":4800,"station_id":"","pricing_plan_id":"cebpf4jnsgd1na2vs0mg"},{"bike_id":"9044461e-62db-4d23-b825-ab9c7ed1b440","system_id":"levelo_inurba_marseille","lat":43.27487,"lon":5.4245,"is_reserved":false,"is_disabled":false,"rental_uris":{"android":"levelo://app?vid=9044461e-62db-4d23-b825-ab9c7ed1b440","ios":"levelo://app?vid=9044461e-62db-4d23-b825-ab9c7ed1b440"},"vehicle_type_id":"4","last_reported":1742540975,"current_range_meters":4800,"station_id":"ce4bho12rcd13ifvqh1g","pricing_plan_id":"cebpf4jnsgd1na2vs0mg"},{"bike_id":"2359dc2f-0b37-49d8-8045-9c74bf4da3f6","system_id":"levelo_inurba_marseille","lat":43.28355,"lon":5.38099,"is_reserved":false,"is_disabled":false,"rental_uris":{"android":"levelo://app?vid=2359dc2f-0b37-49d8-8045-9c74bf4da3f6","ios":"levelo://app?vid=2359dc2f-0b37-49d8-8045-9c74bf4da3f6"},"vehicle_type_id":"4","last_reported":1742540975,"current_range_meters":4800,"station_id":"ce4bh412rcd13ifvqdr0","pricing_plan_id":"cebpf4jnsgd1na2vs0mg"},{"bike_id":"176d2e0b-da43-4b98-b92e-b45d4ab12b2f","system_id":"levelo_inurba_marseille","lat":43.302151,"lon":5.384591,"is_reserved":false,"is_disabled":false,"rental_uris":{"android":"levelo://app?vid=176d2e0b-da43-4b98-b92e-b45d4ab12b2f","ios":"levelo://app?vid=176d2e0b-da43-4b98-b92e-b45d4ab12b2f"},"vehicle_type_id":"4","last_reported":1742540975,"current_range_meters":4800,"station_id":"","pricing_plan_id":"cebpf4jnsgd1na2vs0mg"},{"bike_id":"8ea758c3-5955-4eb2-85f7-105a83e9a497","system_id":"levelo_inurba_marseille","lat":43.29378,"lon":5.37821,"is_reserved":false,"is_disabled":false,"rental_uris":{"android":"levelo://app?vid=8ea758c3-5955-4eb2-85f7-105a83e9a497","ios":"levelo://app?vid=8ea758c3-5955-4eb2-85f7-105a83e9a497"},"vehicle_type_id":"4","last_reported":1742540975,"current_range_meters":5600,"station_id":"ce4bgjh2rcd13ifvqbf0","pricing_plan_id":"cebpf4jnsgd1na2vs0mg"},{"bike_id":"ed5cea79-0bea-4c86-8c80-f8de23687c7f","system_id":"levelo_inurba_marseille","lat":43.27473,"lon":5.44007,"is_reserved":false,"is_disabled":false,"rental_uris":{"android":"levelo://app?vid=ed5cea79-0bea-4c86-8c80-f8de23687c7f","ios":"levelo://app?vid=ed5cea79-0bea-4c86-8c80-f8de23687c7f"},"vehicle_type_id":"4","last_reported":1742540975,"current_range_meters":5600,"station_id":"","pricing_plan_id":"cebpf4jnsgd1na2vs0mg"},{"bike_id":"d2e977ba-f42d-4204-90d5-acf60490b869","system_id":"levelo_inurba_marseille","lat":43.30147,"lon":5.38092,"is_reserved":false,"is_disabled":false,"rental_uris":{"android":"levelo://app?vid=d2e977ba-f42d-4204-90d5-acf60490b869","ios":"levelo://app?vid=d2e977ba-f42d-4204-90d5-acf60490b869"},"vehicle_type_id":"4","last_reported":1742540975,"current_range_meters":5600,"station_id":"ce4bgjp2rcd13ifvqbh0","pricing_plan_id":"cebpf4jnsgd1na2vs0mg"},{"bike_id":"4da31b6a-f3aa-4ec7-a81a-164659308165","system_id":"levelo_inurba_marseille","lat":43.32536,"lon":5.41427,"is_reserved":false,"is_disabled":false,"rental_uris":{"android":"levelo://app?vid=4da31b6a-f3aa-4ec7-a81a-164659308165","ios":"levelo://app?vid=4da31b6a-f3aa-4ec7-a81a-164659308165"},"vehicle_type_id":"4","last_reported":1742540975,"current_range_meters":6000,"station_id":"ce4bhq12rcd13ifvqhhg","pricing_plan_id":"cebpf4jnsgd1na2vs0mg"},{"bike_id":"471b8c1a-1a85-4080-b533-fb41f3dbfd81","system_id":"levelo_inurba_marseille","lat":43.231931,"lon":5.355517,"is_reserved":false,"is_disabled":false,"rental_uris":{"android":"levelo://app?vid=471b8c1a-1a85-4080-b533-fb41f3dbfd81","ios":"levelo://app?vid=471b8c1a-1a85-4080-b533-fb41f3dbfd81"},"vehicle_type_id":"4","last_reported":1742540975,"current_range_meters":6000,"station_id":"ce4bhu92rcd13ifvqi70","pricing_plan_id":"cebpf4jnsgd1na2vs0mg"},{"bike_id":"dd3884dc-0b6b-4a2b-8af5-b0f72ae3a61b","system_id":"levelo_inurba_marseille","lat":43.232,"lon":5.35544,"is_reserved":false,"is_disabled":false,"rental_uris":{"android":"levelo://app?vid=dd3884dc-0b6b-4a2b-8af5-b0f72ae3a61b","ios":"levelo://app?vid=dd3884dc-0b6b-4a2b-8af5-b0f72ae3a61b"},"vehicle_type_id":"4","last_reported":1742540975,"current_range_meters":6000,"station_id":"ce4bhu92rcd13ifvqi70","pricing_plan_id":"cebpf4jnsgd1na2vs0mg"},{"bike_id":"617f0efa-4387-4130-9bf0-540e48a52c6c","system_id":"levelo_inurba_marseille","lat":43.28974,"lon":5.37827,"is_reserved":false,"is_disabled":false,"rental_uris":{"android":"levelo://app?vid=617f0efa-4387-4130-9bf0-540e48a52c6c","ios":"levelo://app?vid=617f0efa-4387-4130-9bf0-540e48a52c6c"},"vehicle_type_id":"4","last_reported":1742540975,"current_range_meters":6000,"station_id":"ce4bh9p2rcd13ifvqed0","pricing_plan_id":"cebpf4jnsgd1na2vs0mg"},{"bike_id":"4d07b038-7b86-4c91-a7dc-8736f41d1db7","system_id":"levelo_inurba_marseille","lat":43.27825,"lon":5.39205,"is_reserved":false,"is_disabled":false,"rental_uris":{"android":"levelo://app?vid=4d07b038-7b86-4c91-a7dc-8736f41d1db7","ios":"levelo://app?vid=4d07b038-7b86-4c91-a7dc-8736f41d1db7"},"vehicle_type_id":"4","last_reported":1742540975,"current_range_meters":6400,"station_id":"ce4bhjp2rcd13ifvqga0","pricing_plan_id":"cebpf4jnsgd1na2vs0mg"},{"bike_id":"671210b1-9e8f-4893-953f-985ab8b97e34","system_id":"levelo_inurba_marseille","lat":43.32093,"lon":5.36795,"is_reserved":false,"is_disabled":false,"rental_uris":{"android":"levelo://app?vid=671210b1-9e8f-4893-953f-985ab8b97e34","ios":"levelo://app?vid=671210b1-9e8f-4893-953f-985ab8b97e34"},"vehicle_type_id":"4","last_reported":1742540975,"current_range_meters":6400,"station_id":"ce4bhrh2rcd13ifvqhug","pricing_plan_id":"cebpf4jnsgd1na2vs0mg"},{"bike_id":"bb55ab9d-3223-4c62-9ba4-1c929d3f7ca3","system_id":"levelo_inurba_marseille","lat":43.29888,"lon":5.43661,"is_reserved":false,"is_disabled":false,"rental_uris":{"android":"levelo://app?vid=bb55ab9d-3223-4c62-9ba4-1c929d3f7ca3","ios":"levelo://app?vid=bb55ab9d-3223-4c62-9ba4-1c929d3f7ca3"},"vehicle_type_id":"4","last_reported":1742540975,"current_range_meters":6400,"station_id":"ce4bhpp2rcd13ifvqhfg","pricing_plan_id":"cebpf4jnsgd1na2vs0mg"},{"bike_id":"f8e69801-e786-4f8e-84e0-e330fc8defd7","system_id":"levelo_inurba_marseille","lat":43.32712,"lon":5.383314,"is_reserved":false,"is_disabled":false,"rental_uris":{"android":"levelo://app?vid=f8e69801-e786-4f8e-84e0-e330fc8defd7","ios":"levelo://app?vid=f8e69801-e786-4f8e-84e0-e330fc8defd7"},"vehicle_type_id":"4","last_reported":1742540975,"current_range_meters":6400,"station_id":"","pricing_plan_id":"cebpf4jnsgd1na2vs0mg"},{"bike_id":"ad12880d-a179-44ea-9a02-eb1194443437","system_id":"levelo_inurba_marseille","lat":43.24638,"lon":5.38902,"is_reserved":false,"is_disabled":false,"rental_uris":{"android":"levelo://app?vid=ad12880d-a179-44ea-9a02-eb1194443437","ios":"levelo://app?vid=ad12880d-a179-44ea-9a02-eb1194443437"},"vehicle_type_id":"4","last_reported":1742540975,"current_range_meters":6400,"station_id":"ce4bhg12rcd13ifvqf60","pricing_plan_id":"cebpf4jnsgd1na2vs0mg"},{"bike_id":"2986135e-1cc1-449a-933e-f0f1ddc60131","system_id":"levelo_inurba_marseille","lat":43.29036,"lon":5.39963,"is_reserved":false,"is_disabled":false,"rental_uris":{"android":"levelo://app?vid=2986135e-1cc1-449a-933e-f0f1ddc60131","ios":"levelo://app?vid=2986135e-1cc1-449a-933e-f0f1ddc60131"},"vehicle_type_id":"4","last_reported":1742540975,"current_range_meters":6800,"station_id":"ce4bh392rcd13ifvqdm0","pricing_plan_id":"cebpf4jnsgd1na2vs0mg"},{"bike_id":"92b615c1-3ae2-4f01-9f74-f51b0a7bb36e","system_id":"levelo_inurba_marseille","lat":43.24544,"lon":5.39524,"is_reserved":false,"is_disabled":false,"rental_uris":{"android":"levelo://app?vid=92b615c1-3ae2-4f01-9f74-f51b0a7bb36e","ios":"levelo://app?vid=92b615c1-3ae2-4f01-9f74-f51b0a7bb36e"},"vehicle_type_id":"4","last_reported":1742540975,"current_range_meters":6800,"station_id":"ce4bhlp2rcd13ifvqgjg","pricing_plan_id":"cebpf4jnsgd1na2vs0mg"},{"bike_id":"c79be61e-cc77-4459-a872-5661d84da3f3","system_id":"levelo_inurba_marseille","lat":43.29253,"lon":5.40893,"is_reserved":false,"is_disabled":false,"rental_uris":{"android":"levelo://app?vid=c79be61e-cc77-4459-a872-5661d84da3f3","ios":"levelo://app?vid=c79be61e-cc77-4459-a872-5661d84da3f3"},"vehicle_type_id":"4","last_reported":1742540975,"current_range_meters":6800,"station_id":"ce4bh192rcd13ifvqdc0","pricing_plan_id":"cebpf4jnsgd1na2vs0mg"},{"bike_id":"aa0c7091-1f8d-4294-97bb-df9bff05a5bb","system_id":"levelo_inurba_marseille","lat":43.29559,"lon":5.42279,"is_reserved":false,"is_disabled":false,"rental_uris":{"android":"levelo://app?vid=aa0c7091-1f8d-4294-97bb-df9bff05a5bb","ios":"levelo://app?vid=aa0c7091-1f8d-4294-97bb-df9bff05a5bb"},"vehicle_type_id":"4","last_reported":1742540975,"current_range_meters":6800,"station_id":"ce4bhph2rcd13ifvqhdg","pricing_plan_id":"cebpf4jnsgd1na2vs0mg"},{"bike_id":"9b2a4ae1-45d2-42a7-b1d8-970226b193d0","system_id":"levelo_inurba_marseille","lat":43.24176,"lon":5.3972,"is_reserved":false,"is_disabled":false,"rental_uris":{"android":"levelo://app?vid=9b2a4ae1-45d2-42a7-b1d8-970226b193d0","ios":"levelo://app?vid=9b2a4ae1-45d2-42a7-b1d8-970226b193d0"},"vehicle_type_id":"4","last_reported":1742540975,"current_range_meters":6800,"station_id":"ce4bhn12rcd13ifvqgpg","pricing_plan_id":"cebpf4jnsgd1na2vs0mg"},{"bike_id":"3de2406a-ac3d-462f-b119-f2f92e9b0930","system_id":"levelo_inurba_marseille","lat":43.31388,"lon":5.3891,"is_reserved":false,"is_disabled":false,"rental_uris":{"android":"levelo://app?vid=3de2406a-ac3d-462f-b119-f2f92e9b0930","ios":"levelo://app?vid=3de2406a-ac3d-462f-b119-f2f92e9b0930"},"vehicle_type_id":"4","last_reported":1742540975,"current_range_meters":6800,"station_id":"","pricing_plan_id":"cebpf4jnsgd1na2vs0mg"},{"bike_id":"175ef35c-142f-440a-ab75-e3d38323d1fc","system_id":"levelo_inurba_marseille","lat":43.25865,"lon":5.39952,"is_reserved":false,"is_disabled":false,"rental_uris":{"android":"levelo://app?vid=175ef35c-142f-440a-ab75-e3d38323d1fc","ios":"levelo://app?vid=175ef35c-142f-440a-ab75-e3d38323d1fc"},"vehicle_type_id":"4","last_reported":1742540975,"current_range_meters":6800,"station_id":"ce4bhl92rcd13ifvqghg","pricing_plan_id":"cebpf4jnsgd1na2vs0mg"},{"bike_id":"88d23b3b-1661-456a-ba8b-b941187f820d","system_id":"levelo_inurba_marseille","lat":43.3361,"lon":5.41028,"is_reserved":false,"is_disabled":false,"rental_uris":{"android":"levelo://app?vid=88d23b3b-1661-456a-ba8b-b941187f820d","ios":"levelo://app?vid=88d23b3b-1661-456a-ba8b-b941187f820d"},"vehicle_type_id":"4","last_reported":1742540975,"current_range_meters":6800,"station_id":"ce4bhqh2rcd13ifvqhmg","pricing_plan_id":"cebpf4jnsgd1na2vs0mg"},{"bike_id":"1650c152-e083-415c-b118-5516ca869cbf","system_id":"levelo_inurba_marseille","lat":43.26953,"lon":5.38646,"is_reserved":false,"is_disabled":false,"rental_uris":{"android":"levelo://app?vid=1650c152-e083-415c-b118-5516ca869cbf","ios":"levelo://app?vid=1650c152-e083-415c-b118-5516ca869cbf"},"vehicle_type_id":"4","last_reported":1742540975,"current_range_meters":6800,"station_id":"ce4bhh92rcd13ifvqfh0","pricing_plan_id":"cebpf4jnsgd1na2vs0mg"},{"bike_id":"88235f40-31c6-4a2f-8946-34e3a8b8f4b1","system_id":"levelo_inurba_marseille","lat":43.29887,"lon":5.39751,"is_reserved":false,"is_disabled":false,"rental_uris":{"android":"levelo://app?vid=88235f40-31c6-4a2f-8946-34e3a8b8f4b1","ios":"levelo://app?vid=88235f40-31c6-4a2f-8946-34e3a8b8f4b1"},"vehicle_type_id":"4","last_reported":1742540975,"current_range_meters":6800,"station_id":"ce4bh0h2rcd13ifvqd50","pricing_plan_id":"cebpf4jnsgd1na2vs0mg"},{"bike_id":"1983241e-dcf4-412a-b965-b9e661a9d6d5","system_id":"levelo_inurba_marseille","lat":43.2983,"lon":5.40149,"is_reserved":false,"is_disabled":false,"rental_uris":{"android":"levelo://app?vid=1983241e-dcf4-412a-b965-b9e661a9d6d5","ios":"levelo://app?vid=1983241e-dcf4-412a-b965-b9e661a9d6d5"},"vehicle_type_id":"4","last_reported":1742540975,"current_range_meters":6800,"station_id":"","pricing_plan_id":"cebpf4jnsgd1na2vs0mg"},{"bike_id":"cb6062cd-3cfa-4917-b79b-5707b99e3c03","system_id":"levelo_inurba_marseille","lat":43.321185,"lon":5.367534,"is_reserved":false,"is_disabled":false,"rental_uris":{"android":"levelo://app?vid=cb6062cd-3cfa-4917-b79b-5707b99e3c03","ios":"levelo://app?vid=cb6062cd-3cfa-4917-b79b-5707b99e3c03"},"vehicle_type_id":"4","last_reported":1742540975,"current_range_meters":7200,"station_id":"ce4bho92rcd13ifvqh3g","pricing_plan_id":"cebpf4jnsgd1na2vs0mg"},{"bike_id":"acc43ed1-5621-4b78-acd5-8ca240efd0b2","system_id":"levelo_inurba_marseille","lat":43.30442,"lon":5.38886,"is_reserved":false,"is_disabled":false,"rental_uris":{"android":"levelo://app?vid=acc43ed1-5621-4b78-acd5-8ca240efd0b2","ios":"levelo://app?vid=acc43ed1-5621-4b78-acd5-8ca240efd0b2"},"vehicle_type_id":"4","last_reported":1742540975,"current_range_meters":7200,"station_id":"ce4bgk12rcd13ifvqbi0","pricing_plan_id":"cebpf4jnsgd1na2vs0mg"},{"bike_id":"c2afb194-57d9-4d9f-a228-49797c94f004","system_id":"levelo_inurba_marseille","lat":43.24076,"lon":5.37762,"is_reserved":false,"is_disabled":false,"rental_uris":{"android":"levelo://app?vid=c2afb194-57d9-4d9f-a228-49797c94f004","ios":"levelo://app?vid=c2afb194-57d9-4d9f-a228-49797c94f004"},"vehicle_type_id":"4","last_reported":1742540975,"current_range_meters":7200,"station_id":"ce4bhnp2rcd13ifvqgvg","pricing_plan_id":"cebpf4jnsgd1na2vs0mg"},{"bike_id":"bee725ae-cfe7-48a7-91f3-6ab0d4d623b6","system_id":"levelo_inurba_marseille","lat":43.30472,"lon":5.37907,"is_reserved":false,"is_disabled":false,"rental_uris":{"android":"levelo://app?vid=bee725ae-cfe7-48a7-91f3-6ab0d4d623b6","ios":"levelo://app?vid=bee725ae-cfe7-48a7-91f3-6ab0d4d623b6"},"vehicle_type_id":"4","last_reported":1742540975,"current_range_meters":7200,"station_id":"ce4bgup2rcd13ifvqcn0","pricing_plan_id":"cebpf4jnsgd1na2vs0mg"},{"bike_id":"96487056-92f7-4a97-904f-cf0eda3f6c78","system_id":"levelo_inurba_marseille","lat":43.29833,"lon":5.39753,"is_reserved":false,"is_disabled":false,"rental_uris":{"android":"levelo://app?vid=96487056-92f7-4a97-904f-cf0eda3f6c78","ios":"levelo://app?vid=96487056-92f7-4a97-904f-cf0eda3f6c78"},"vehicle_type_id":"4","last_reported":1742540975,"current_range_meters":6800,"station_id":"ce4bh0h2rcd13ifvqd50","pricing_plan_id":"cebpf4jnsgd1na2vs0mg"},{"bike_id":"4da38abe-63fe-44a7-abd3-4bad6629a678","system_id":"levelo_inurba_marseille","lat":43.29688,"lon":5.37356,"is_reserved":false,"is_disabled":false,"rental_uris":{"android":"levelo://app?vid=4da38abe-63fe-44a7-abd3-4bad6629a678","ios":"levelo://app?vid=4da38abe-63fe-44a7-abd3-4bad6629a678"},"vehicle_type_id":"4","last_reported":1742540975,"current_range_meters":7200,"station_id":"","pricing_plan_id":"cebpf4jnsgd1na2vs0mg"},{"bike_id":"f4bc45e4-3b83-4504-9652-5ca0224579dc","system_id":"levelo_inurba_marseille","lat":43.31167,"lon":5.38731,"is_reserved":false,"is_disabled":true,"rental_uris":{"android":"levelo://app?vid=f4bc45e4-3b83-4504-9652-5ca0224579dc","ios":"levelo://app?vid=f4bc45e4-3b83-4504-9652-5ca0224579dc"},"vehicle_type_id":"4","last_reported":1742540975,"current_range_meters":7200,"station_id":"ce4bgv12rcd13ifvqcp0","pricing_plan_id":"cebpf4jnsgd1na2vs0mg"},{"bike_id":"d7645557-54c5-44ed-8c44-41e433a350da","system_id":"levelo_inurba_marseille","lat":43.29472,"lon":5.3556,"is_reserved":false,"is_disabled":false,"rental_uris":{"android":"levelo://app?vid=d7645557-54c5-44ed-8c44-41e433a350da","ios":"levelo://app?vid=d7645557-54c5-44ed-8c44-41e433a350da"},"vehicle_type_id":"4","last_reported":1742540975,"current_range_meters":7200,"station_id":"","pricing_plan_id":"cebpf4jnsgd1na2vs0mg"},{"bike_id":"b8462f73-89fd-4d3d-b5cb-b9bced4b8630","system_id":"levelo_inurba_marseille","lat":43.3065,"lon":5.40109,"is_reserved":false,"is_disabled":false,"rental_uris":{"android":"levelo://app?vid=b8462f73-89fd-4d3d-b5cb-b9bced4b8630","ios":"levelo://app?vid=b8462f73-89fd-4d3d-b5cb-b9bced4b8630"},"vehicle_type_id":"4","last_reported":1742540975,"current_range_meters":8000,"station_id":"ce4bh112rcd13ifvqda0","pricing_plan_id":"cebpf4jnsgd1na2vs0mg"},{"bike_id":"df446069-6124-47b5-871e-1e0922d42d2c","system_id":"levelo_inurba_marseille","lat":43.241754,"lon":5.397227,"is_reserved":false,"is_disabled":false,"rental_uris":{"android":"levelo://app?vid=df446069-6124-47b5-871e-1e0922d42d2c","ios":"levelo://app?vid=df446069-6124-47b5-871e-1e0922d42d2c"},"vehicle_type_id":"4","last_reported":1742540975,"current_range_meters":8000,"station_id":"ce4bhn12rcd13ifvqgpg","pricing_plan_id":"cebpf4jnsgd1na2vs0mg"},{"bike_id":"294818fe-f961-4f2d-85c2-45f9b2579a29","system_id":"levelo_inurba_marseille","lat":43.27695,"lon":5.390513,"is_reserved":false,"is_disabled":false,"rental_uris":{"android":"levelo://app?vid=294818fe-f961-4f2d-85c2-45f9b2579a29","ios":"levelo://app?vid=294818fe-f961-4f2d-85c2-45f9b2579a29"},"vehicle_type_id":"4","last_reported":1742540975,"current_range_meters":8000,"station_id":"","pricing_plan_id":"cebpf4jnsgd1na2vs0mg"},{"bike_id":"a0deeb6c-62a7-4efb-834c-1bec837aaba6","system_id":"levelo_inurba_marseille","lat":43.33674,"lon":5.37842,"is_reserved":false,"is_disabled":false,"rental_uris":{"android":"levelo://app?vid=a0deeb6c-62a7-4efb-834c-1bec837aaba6","ios":"levelo://app?vid=a0deeb6c-62a7-4efb-834c-1bec837aaba6"},"vehicle_type_id":"4","last_reported":1742540975,"current_range_meters":8000,"station_id":"","pricing_plan_id":"cebpf4jnsgd1na2vs0mg"},{"bike_id":"4f4285f9-a7df-4d23-bcb2-b1cd2878145d","system_id":"levelo_inurba_marseille","lat":43.27496,"lon":5.42454,"is_reserved":false,"is_disabled":false,"rental_uris":{"android":"levelo://app?vid=4f4285f9-a7df-4d23-bcb2-b1cd2878145d","ios":"levelo://app?vid=4f4285f9-a7df-4d23-bcb2-b1cd2878145d"},"vehicle_type_id":"4","last_reported":1742540975,"current_range_meters":8000,"station_id":"ce4bhn92rcd13ifvqgrg","pricing_plan_id":"cebpf4jnsgd1na2vs0mg"},{"bike_id":"ffbee1c9-ab8d-45ee-b606-c546ab78c5f2","system_id":"levelo_inurba_marseille","lat":43.29699,"lon":5.3777,"is_reserved":false,"is_disabled":false,"rental_uris":{"android":"levelo://app?vid=ffbee1c9-ab8d-45ee-b606-c546ab78c5f2","ios":"levelo://app?vid=ffbee1c9-ab8d-45ee-b606-c546ab78c5f2"},"vehicle_type_id":"4","last_reported":1742540975,"current_range_meters":8000,"station_id":"","pricing_plan_id":"cebpf4jnsgd1na2vs0mg"},{"bike_id":"977d434b-f498-4766-adac-22ba6fd3a8aa","system_id":"levelo_inurba_marseille","lat":43.27499,"lon":5.4245,"is_reserved":false,"is_disabled":false,"rental_uris":{"android":"levelo://app?vid=977d434b-f498-4766-adac-22ba6fd3a8aa","ios":"levelo://app?vid=977d434b-f498-4766-adac-22ba6fd3a8aa"},"vehicle_type_id":"4","last_reported":1742540975,"current_range_meters":8000,"station_id":"ce4bhn92rcd13ifvqgrg","pricing_plan_id":"cebpf4jnsgd1na2vs0mg"},{"bike_id":"87fc0535-a83d-43a6-b769-72549de4a628","system_id":"levelo_inurba_marseille","lat":43.30379,"lon":5.42502,"is_reserved":false,"is_disabled":false,"rental_uris":{"android":"levelo://app?vid=87fc0535-a83d-43a6-b769-72549de4a628","ios":"levelo://app?vid=87fc0535-a83d-43a6-b769-72549de4a628"},"vehicle_type_id":"4","last_reported":1742540975,"current_range_meters":8000,"station_id":"ce4bhoh2rcd13ifvqh6g","pricing_plan_id":"cebpf4jnsgd1na2vs0mg"},{"bike_id":"a98eab75-7fc8-4150-9474-339e512a1596","system_id":"levelo_inurba_marseille","lat":43.30786,"lon":5.37777,"is_reserved":false,"is_disabled":false,"rental_uris":{"android":"levelo://app?vid=a98eab75-7fc8-4150-9474-339e512a1596","ios":"levelo://app?vid=a98eab75-7fc8-4150-9474-339e512a1596"},"vehicle_type_id":"4","last_reported":1742540975,"current_range_meters":8000,"station_id":"","pricing_plan_id":"cebpf4jnsgd1na2vs0mg"},{"bike_id":"c5bb5dca-1dc9-450e-9a3d-9fa737cf345d","system_id":"levelo_inurba_marseille","lat":43.24637,"lon":5.38898,"is_reserved":false,"is_disabled":false,"rental_uris":{"android":"levelo://app?vid=c5bb5dca-1dc9-450e-9a3d-9fa737cf345d","ios":"levelo://app?vid=c5bb5dca-1dc9-450e-9a3d-9fa737cf345d"},"vehicle_type_id":"4","last_reported":1742540975,"current_range_meters":8000,"station_id":"ce4bhg12rcd13ifvqf60","pricing_plan_id":"cebpf4jnsgd1na2vs0mg"},{"bike_id":"a1d4474e-dc54-4e96-8359-81b099ba1a93","system_id":"levelo_inurba_marseille","lat":43.23185,"lon":5.40004,"is_reserved":false,"is_disabled":false,"rental_uris":{"android":"levelo://app?vid=a1d4474e-dc54-4e96-8359-81b099ba1a93","ios":"levelo://app?vid=a1d4474e-dc54-4e96-8359-81b099ba1a93"},"vehicle_type_id":"4","last_reported":1742540975,"current_range_meters":8400,"station_id":"ce4bhn12rcd13ifvqgqg","pricing_plan_id":"cebpf4jnsgd1na2vs0mg"},{"bike_id":"69a1267d-4f9b-471a-98e9-7d2631052ef0","system_id":"levelo_inurba_marseille","lat":43.27998,"lon":5.40013,"is_reserved":false,"is_disabled":false,"rental_uris":{"android":"levelo://app?vid=69a1267d-4f9b-471a-98e9-7d2631052ef0","ios":"levelo://app?vid=69a1267d-4f9b-471a-98e9-7d2631052ef0"},"vehicle_type_id":"4","last_reported":1742540975,"current_range_meters":8400,"station_id":"ce4bho92rcd13ifvqh4g","pricing_plan_id":"cebpf4jnsgd1na2vs0mg"},{"bike_id":"74ca8f8e-770f-4c39-9bcc-04d356dfc1fe","system_id":"levelo_inurba_marseille","lat":43.32471,"lon":5.36594,"is_reserved":false,"is_disabled":false,"rental_uris":{"android":"levelo://app?vid=74ca8f8e-770f-4c39-9bcc-04d356dfc1fe","ios":"levelo://app?vid=74ca8f8e-770f-4c39-9bcc-04d356dfc1fe"},"vehicle_type_id":"4","last_reported":1742540975,"current_range_meters":8400,"station_id":"ce4bhs12rcd13ifvqhvg","pricing_plan_id":"cebpf4jnsgd1na2vs0mg"},{"bike_id":"2dfa9e97-6641-4d14-8588-1b7f272aa11f","system_id":"levelo_inurba_marseille","lat":43.29807,"lon":5.38097,"is_reserved":false,"is_disabled":false,"rental_uris":{"android":"levelo://app?vid=2dfa9e97-6641-4d14-8588-1b7f272aa11f","ios":"levelo://app?vid=2dfa9e97-6641-4d14-8588-1b7f272aa11f"},"vehicle_type_id":"4","last_reported":1742540975,"current_range_meters":8400,"station_id":"ce4bgip2rcd13ifvqbb0","pricing_plan_id":"cebpf4jnsgd1na2vs0mg"},{"bike_id":"32e3927b-12d0-4b1a-9923-ea2f64ded6c1","system_id":"levelo_inurba_marseille","lat":43.28139,"lon":5.42644,"is_reserved":false,"is_disabled":false,"rental_uris":{"android":"levelo://app?vid=32e3927b-12d0-4b1a-9923-ea2f64ded6c1","ios":"levelo://app?vid=32e3927b-12d0-4b1a-9923-ea2f64ded6c1"},"vehicle_type_id":"4","last_reported":1742540975,"current_range_meters":8400,"station_id":"ce4bhnh2rcd13ifvqgug","pricing_plan_id":"cebpf4jnsgd1na2vs0mg"},{"bike_id":"8bf3f169-ef72-451b-bd65-9cf90c96d4f5","system_id":"levelo_inurba_marseille","lat":43.27995,"lon":5.40017,"is_reserved":false,"is_disabled":false,"rental_uris":{"android":"levelo://app?vid=8bf3f169-ef72-451b-bd65-9cf90c96d4f5","ios":"levelo://app?vid=8bf3f169-ef72-451b-bd65-9cf90c96d4f5"},"vehicle_type_id":"4","last_reported":1742540975,"current_range_meters":8400,"station_id":"ce4bho92rcd13ifvqh4g","pricing_plan_id":"cebpf4jnsgd1na2vs0mg"},{"bike_id":"4fdfb7d6-8ab3-43f7-8bc5-8c9a50e46a96","system_id":"levelo_inurba_marseille","lat":43.26558,"lon":5.3731,"is_reserved":false,"is_disabled":true,"rental_uris":{"android":"levelo://app?vid=4fdfb7d6-8ab3-43f7-8bc5-8c9a50e46a96","ios":"levelo://app?vid=4fdfb7d6-8ab3-43f7-8bc5-8c9a50e46a96"},"vehicle_type_id":"4","last_reported":1742540975,"current_range_meters":8400,"station_id":"ce4bhg12rcd13ifvqf70","pricing_plan_id":"cebpf4jnsgd1na2vs0mg"},{"bike_id":"298094ff-1b8f-403e-b315-5326030acb86","system_id":"levelo_inurba_marseille","lat":43.281533,"lon":5.426439,"is_reserved":false,"is_disabled":false,"rental_uris":{"android":"levelo://app?vid=298094ff-1b8f-403e-b315-5326030acb86","ios":"levelo://app?vid=298094ff-1b8f-403e-b315-5326030acb86"},"vehicle_type_id":"4","last_reported":1742540975,"current_range_meters":8400,"station_id":"ce4bhnh2rcd13ifvqgug","pricing_plan_id":"cebpf4jnsgd1na2vs0mg"},{"bike_id":"970c67f5-6c0c-423f-a547-3806ca9b1a7a","system_id":"levelo_inurba_marseille","lat":43.30607,"lon":5.39377,"is_reserved":false,"is_disabled":false,"rental_uris":{"android":"levelo://app?vid=970c67f5-6c0c-423f-a547-3806ca9b1a7a","ios":"levelo://app?vid=970c67f5-6c0c-423f-a547-3806ca9b1a7a"},"vehicle_type_id":"4","last_reported":1742540975,"current_range_meters":8400,"station_id":"ce4bh0p2rcd13ifvqd80","pricing_plan_id":"cebpf4jnsgd1na2vs0mg"},{"bike_id":"76a129e6-b305-42b8-a863-5a99730d4d66","system_id":"levelo_inurba_marseille","lat":43.30425,"lon":5.41295,"is_reserved":false,"is_disabled":false,"rental_uris":{"android":"levelo://app?vid=76a129e6-b305-42b8-a863-5a99730d4d66","ios":"levelo://app?vid=76a129e6-b305-42b8-a863-5a99730d4d66"},"vehicle_type_id":"4","last_reported":1742540975,"current_range_meters":8400,"station_id":"ce4bhop2rcd13ifvqh8g","pricing_plan_id":"cebpf4jnsgd1na2vs0mg"},{"bike_id":"7442246c-2798-431d-84d3-acec834915be","system_id":"levelo_inurba_marseille","lat":43.30907,"lon":5.36847,"is_reserved":false,"is_disabled":false,"rental_uris":{"android":"levelo://app?vid=7442246c-2798-431d-84d3-acec834915be","ios":"levelo://app?vid=7442246c-2798-431d-84d3-acec834915be"},"vehicle_type_id":"4","last_reported":1742540975,"current_range_meters":8400,"station_id":"ce4bgn92rcd13ifvqbvg","pricing_plan_id":"cebpf4jnsgd1na2vs0mg"},{"bike_id":"1ad4c6fa-a47b-4819-abe3-c19d0e67380d","system_id":"levelo_inurba_marseille","lat":43.2856,"lon":5.39524,"is_reserved":false,"is_disabled":false,"rental_uris":{"android":"levelo://app?vid=1ad4c6fa-a47b-4819-abe3-c19d0e67380d","ios":"levelo://app?vid=1ad4c6fa-a47b-4819-abe3-c19d0e67380d"},"vehicle_type_id":"4","last_reported":1742540975,"current_range_meters":8400,"station_id":"ce4bh292rcd13ifvqdg0","pricing_plan_id":"cebpf4jnsgd1na2vs0mg"},{"bike_id":"0f07f950-c5b0-40e6-92d1-ba36f5a0b6cd","system_id":"levelo_inurba_marseille","lat":43.32539,"lon":5.41424,"is_reserved":false,"is_disabled":false,"rental_uris":{"android":"levelo://app?vid=0f07f950-c5b0-40e6-92d1-ba36f5a0b6cd","ios":"levelo://app?vid=0f07f950-c5b0-40e6-92d1-ba36f5a0b6cd"},"vehicle_type_id":"4","last_reported":1742540975,"current_range_meters":8400,"station_id":"ce4bhq12rcd13ifvqhhg","pricing_plan_id":"cebpf4jnsgd1na2vs0mg"},{"bike_id":"b9e4bdd0-024c-4547-9a94-39d0c7923642","system_id":"levelo_inurba_marseille","lat":43.24172,"lon":5.36392,"is_reserved":false,"is_disabled":false,"rental_uris":{"android":"levelo://app?vid=b9e4bdd0-024c-4547-9a94-39d0c7923642","ios":"levelo://app?vid=b9e4bdd0-024c-4547-9a94-39d0c7923642"},"vehicle_type_id":"4","last_reported":1742540975,"current_range_meters":8400,"station_id":"cpo36qri1sfpv3e86is0","pricing_plan_id":"cebpf4jnsgd1na2vs0mg"},{"bike_id":"818ae6df-02ef-4c8f-b179-6e9280e22888","system_id":"levelo_inurba_marseille","lat":43.2787,"lon":5.39167,"is_reserved":false,"is_disabled":false,"rental_uris":{"android":"levelo://app?vid=818ae6df-02ef-4c8f-b179-6e9280e22888","ios":"levelo://app?vid=818ae6df-02ef-4c8f-b179-6e9280e22888"},"vehicle_type_id":"4","last_reported":1742540975,"current_range_meters":8400,"station_id":"ce4bhjp2rcd13ifvqga0","pricing_plan_id":"cebpf4jnsgd1na2vs0mg"},{"bike_id":"5c2bc116-d340-45f0-8110-e9774aa2c6a1","system_id":"levelo_inurba_marseille","lat":43.30589,"lon":5.39378,"is_reserved":false,"is_disabled":false,"rental_uris":{"android":"levelo://app?vid=5c2bc116-d340-45f0-8110-e9774aa2c6a1","ios":"levelo://app?vid=5c2bc116-d340-45f0-8110-e9774aa2c6a1"},"vehicle_type_id":"4","last_reported":1742540975,"current_range_meters":8400,"station_id":"ce4bh0p2rcd13ifvqd80","pricing_plan_id":"cebpf4jnsgd1na2vs0mg"},{"bike_id":"52f3d37f-2543-4286-964a-00fe2533a706","system_id":"levelo_inurba_marseille","lat":43.30135,"lon":5.37409,"is_reserved":false,"is_disabled":false,"rental_uris":{"android":"levelo://app?vid=52f3d37f-2543-4286-964a-00fe2533a706","ios":"levelo://app?vid=52f3d37f-2543-4286-964a-00fe2533a706"},"vehicle_type_id":"4","last_reported":1742540975,"current_range_meters":8800,"station_id":"ce4bgs92rcd13ifvqcc0","pricing_plan_id":"cebpf4jnsgd1na2vs0mg"},{"bike_id":"de691446-2431-4867-a75d-0c4709c3e501","system_id":"levelo_inurba_marseille","lat":43.28938,"lon":5.39622,"is_reserved":false,"is_disabled":false,"rental_uris":{"android":"levelo://app?vid=de691446-2431-4867-a75d-0c4709c3e501","ios":"levelo://app?vid=de691446-2431-4867-a75d-0c4709c3e501"},"vehicle_type_id":"4","last_reported":1742540975,"current_range_meters":8800,"station_id":"ce4bh3h2rcd13ifvqdn0","pricing_plan_id":"cebpf4jnsgd1na2vs0mg"},{"bike_id":"311f3d6e-f9db-4cb3-9683-608f9dcd7aad","system_id":"levelo_inurba_marseille","lat":43.30314,"lon":5.36904,"is_reserved":false,"is_disabled":false,"rental_uris":{"android":"levelo://app?vid=311f3d6e-f9db-4cb3-9683-608f9dcd7aad","ios":"levelo://app?vid=311f3d6e-f9db-4cb3-9683-608f9dcd7aad"},"vehicle_type_id":"4","last_reported":1742540975,"current_range_meters":8800,"station_id":"ce4bgqh2rcd13ifvqc5g","pricing_plan_id":"cebpf4jnsgd1na2vs0mg"},{"bike_id":"bf1827b2-9807-48b9-8b0b-2e2096f695ce","system_id":"levelo_inurba_marseille","lat":43.26229,"lon":5.40455,"is_reserved":false,"is_disabled":false,"rental_uris":{"android":"levelo://app?vid=bf1827b2-9807-48b9-8b0b-2e2096f695ce","ios":"levelo://app?vid=bf1827b2-9807-48b9-8b0b-2e2096f695ce"},"vehicle_type_id":"4","last_reported":1742540975,"current_range_meters":8800,"station_id":"ce4bhmh2rcd13ifvqgmg","pricing_plan_id":"cebpf4jnsgd1na2vs0mg"},{"bike_id":"a292451a-57ca-4f76-b002-facf85780792","system_id":"levelo_inurba_marseille","lat":43.31483,"lon":5.37305,"is_reserved":false,"is_disabled":false,"rental_uris":{"android":"levelo://app?vid=a292451a-57ca-4f76-b002-facf85780792","ios":"levelo://app?vid=a292451a-57ca-4f76-b002-facf85780792"},"vehicle_type_id":"4","last_reported":1742540975,"current_range_meters":8800,"station_id":"ce4bgt12rcd13ifvqcd0","pricing_plan_id":"cebpf4jnsgd1na2vs0mg"},{"bike_id":"614b5350-344b-4548-93db-27f64d6d7f4f","system_id":"levelo_inurba_marseille","lat":43.247399,"lon":5.411621,"is_reserved":false,"is_disabled":false,"rental_uris":{"android":"levelo://app?vid=614b5350-344b-4548-93db-27f64d6d7f4f","ios":"levelo://app?vid=614b5350-344b-4548-93db-27f64d6d7f4f"},"vehicle_type_id":"4","last_reported":1742540975,"current_range_meters":8800,"station_id":"","pricing_plan_id":"cebpf4jnsgd1na2vs0mg"},{"bike_id":"c0196702-1a48-466c-ba11-6749e93050f1","system_id":"levelo_inurba_marseille","lat":43.28414,"lon":5.37502,"is_reserved":false,"is_disabled":true,"rental_uris":{"android":"levelo://app?vid=c0196702-1a48-466c-ba11-6749e93050f1","ios":"levelo://app?vid=c0196702-1a48-466c-ba11-6749e93050f1"},"vehicle_type_id":"4","last_reported":1742540975,"current_range_meters":8800,"station_id":"ce4bh412rcd13ifvqds0","pricing_plan_id":"cebpf4jnsgd1na2vs0mg"},{"bike_id":"3c7a6264-5b61-4386-91fa-0a16d9bedb83","system_id":"levelo_inurba_marseille","lat":43.28405,"lon":5.37526,"is_reserved":false,"is_disabled":false,"rental_uris":{"android":"levelo://app?vid=3c7a6264-5b61-4386-91fa-0a16d9bedb83","ios":"levelo://app?vid=3c7a6264-5b61-4386-91fa-0a16d9bedb83"},"vehicle_type_id":"4","last_reported":1742540975,"current_range_meters":8800,"station_id":"ce4bh412rcd13ifvqds0","pricing_plan_id":"cebpf4jnsgd1na2vs0mg"},{"bike_id":"0a83cc13-1a3f-485e-af9b-939155a309dc","system_id":"levelo_inurba_marseille","lat":43.290222,"lon":5.381261,"is_reserved":false,"is_disabled":false,"rental_uris":{"android":"levelo://app?vid=0a83cc13-1a3f-485e-af9b-939155a309dc","ios":"levelo://app?vid=0a83cc13-1a3f-485e-af9b-939155a309dc"},"vehicle_type_id":"4","last_reported":1742540975,"current_range_meters":8800,"station_id":"ce4bgt92rcd13ifvqcg0","pricing_plan_id":"cebpf4jnsgd1na2vs0mg"},{"bike_id":"a2ece08e-5a0a-4ecb-a8bb-4b5c24cd4f12","system_id":"levelo_inurba_marseille","lat":43.29811,"lon":5.3808,"is_reserved":false,"is_disabled":true,"rental_uris":{"android":"levelo://app?vid=a2ece08e-5a0a-4ecb-a8bb-4b5c24cd4f12","ios":"levelo://app?vid=a2ece08e-5a0a-4ecb-a8bb-4b5c24cd4f12"},"vehicle_type_id":"4","last_reported":1742540975,"current_range_meters":8800,"station_id":"ce4bgip2rcd13ifvqbb0","pricing_plan_id":"cebpf4jnsgd1na2vs0mg"},{"bike_id":"b290a832-9566-47d3-ba61-076568387192","system_id":"levelo_inurba_marseille","lat":43.25725,"lon":5.41115,"is_reserved":false,"is_disabled":false,"rental_uris":{"android":"levelo://app?vid=b290a832-9566-47d3-ba61-076568387192","ios":"levelo://app?vid=b290a832-9566-47d3-ba61-076568387192"},"vehicle_type_id":"4","last_reported":1742540975,"current_range_meters":8800,"station_id":"ce4bhkp2rcd13ifvqgd0","pricing_plan_id":"cebpf4jnsgd1na2vs0mg"},{"bike_id":"6f3b72aa-57d0-43a7-b5d8-c4170d8f83f8","system_id":"levelo_inurba_marseille","lat":43.26572,"lon":5.39059,"is_reserved":false,"is_disabled":false,"rental_uris":{"android":"levelo://app?vid=6f3b72aa-57d0-43a7-b5d8-c4170d8f83f8","ios":"levelo://app?vid=6f3b72aa-57d0-43a7-b5d8-c4170d8f83f8"},"vehicle_type_id":"4","last_reported":1742540975,"current_range_meters":9200,"station_id":"ce4bhe12rcd13ifvqf30","pricing_plan_id":"cebpf4jnsgd1na2vs0mg"},{"bike_id":"62bf2f5c-9819-4816-afad-4a268d7a76b8","system_id":"levelo_inurba_marseille","lat":43.24159,"lon":5.36428,"is_reserved":false,"is_disabled":false,"rental_uris":{"android":"levelo://app?vid=62bf2f5c-9819-4816-afad-4a268d7a76b8","ios":"levelo://app?vid=62bf2f5c-9819-4816-afad-4a268d7a76b8"},"vehicle_type_id":"4","last_reported":1742540975,"current_range_meters":9200,"station_id":"cpo36qri1sfpv3e86is0","pricing_plan_id":"cebpf4jnsgd1na2vs0mg"},{"bike_id":"b5acc6c1-f2ed-46ae-ac6d-f87b22ac88b5","system_id":"levelo_inurba_marseille","lat":43.30313,"lon":5.36898,"is_reserved":false,"is_disabled":false,"rental_uris":{"android":"levelo://app?vid=b5acc6c1-f2ed-46ae-ac6d-f87b22ac88b5","ios":"levelo://app?vid=b5acc6c1-f2ed-46ae-ac6d-f87b22ac88b5"},"vehicle_type_id":"4","last_reported":1742540975,"current_range_meters":9200,"station_id":"ce4bgqh2rcd13ifvqc5g","pricing_plan_id":"cebpf4jnsgd1na2vs0mg"},{"bike_id":"e629cc30-f6eb-48a2-be4f-7682b4147afb","system_id":"levelo_inurba_marseille","lat":43.28942,"lon":5.36642,"is_reserved":false,"is_disabled":false,"rental_uris":{"android":"levelo://app?vid=e629cc30-f6eb-48a2-be4f-7682b4147afb","ios":"levelo://app?vid=e629cc30-f6eb-48a2-be4f-7682b4147afb"},"vehicle_type_id":"4","last_reported":1742540975,"current_range_meters":9200,"station_id":"ce4bhap2rcd13ifvqek0","pricing_plan_id":"cebpf4jnsgd1na2vs0mg"},{"bike_id":"fa3cb838-2c6f-46fa-b31b-ea15cb240fd9","system_id":"levelo_inurba_marseille","lat":43.281103,"lon":5.378287,"is_reserved":false,"is_disabled":false,"rental_uris":{"android":"levelo://app?vid=fa3cb838-2c6f-46fa-b31b-ea15cb240fd9","ios":"levelo://app?vid=fa3cb838-2c6f-46fa-b31b-ea15cb240fd9"},"vehicle_type_id":"4","last_reported":1742540975,"current_range_meters":9200,"station_id":"ce4bh3h2rcd13ifvqdn0","pricing_plan_id":"cebpf4jnsgd1na2vs0mg"},{"bike_id":"15dd2415-808e-4142-8f05-d0f08ddfa8fe","system_id":"levelo_inurba_marseille","lat":43.3155,"lon":5.37594,"is_reserved":false,"is_disabled":false,"rental_uris":{"android":"levelo://app?vid=15dd2415-808e-4142-8f05-d0f08ddfa8fe","ios":"levelo://app?vid=15dd2415-808e-4142-8f05-d0f08ddfa8fe"},"vehicle_type_id":"4","last_reported":1742540975,"current_range_meters":9200,"station_id":"","pricing_plan_id":"cebpf4jnsgd1na2vs0mg"},{"bike_id":"8afcfe9a-0575-4a9f-9c4a-ccbe23f1c462","system_id":"levelo_inurba_marseille","lat":43.30426,"lon":5.38896,"is_reserved":false,"is_disabled":false,"rental_uris":{"android":"levelo://app?vid=8afcfe9a-0575-4a9f-9c4a-ccbe23f1c462","ios":"levelo://app?vid=8afcfe9a-0575-4a9f-9c4a-ccbe23f1c462"},"vehicle_type_id":"4","last_reported":1742540975,"current_range_meters":9200,"station_id":"ce4bgk12rcd13ifvqbi0","pricing_plan_id":"cebpf4jnsgd1na2vs0mg"},{"bike_id":"6b1f13e0-d36d-46dc-a543-f4a2c333ca10","system_id":"levelo_inurba_marseille","lat":43.2407,"lon":5.37761,"is_reserved":false,"is_disabled":false,"rental_uris":{"android":"levelo://app?vid=6b1f13e0-d36d-46dc-a543-f4a2c333ca10","ios":"levelo://app?vid=6b1f13e0-d36d-46dc-a543-f4a2c333ca10"},"vehicle_type_id":"4","last_reported":1742540975,"current_range_meters":9200,"station_id":"ce4bhnp2rcd13ifvqgvg","pricing_plan_id":"cebpf4jnsgd1na2vs0mg"},{"bike_id":"02dc4c75-1890-4742-8824-7340eaeb7b56","system_id":"levelo_inurba_marseille","lat":43.33027,"lon":5.39036,"is_reserved":false,"is_disabled":false,"rental_uris":{"android":"levelo://app?vid=02dc4c75-1890-4742-8824-7340eaeb7b56","ios":"levelo://app?vid=02dc4c75-1890-4742-8824-7340eaeb7b56"},"vehicle_type_id":"4","last_reported":1742540975,"current_range_meters":9200,"station_id":"ce4bhr92rcd13ifvqhrg","pricing_plan_id":"cebpf4jnsgd1na2vs0mg"},{"bike_id":"1c3b5361-695c-4ccc-94f9-aca7f37b6d45","system_id":"levelo_inurba_marseille","lat":43.23192,"lon":5.355506,"is_reserved":false,"is_disabled":false,"rental_uris":{"android":"levelo://app?vid=1c3b5361-695c-4ccc-94f9-aca7f37b6d45","ios":"levelo://app?vid=1c3b5361-695c-4ccc-94f9-aca7f37b6d45"},"vehicle_type_id":"4","last_reported":1742540975,"current_range_meters":9600,"station_id":"ce4bhu92rcd13ifvqi70","pricing_plan_id":"cebpf4jnsgd1na2vs0mg"},{"bike_id":"92d540b9-6bc5-4263-933a-6ade2d6be28e","system_id":"levelo_inurba_marseille","lat":43.27419,"lon":5.43499,"is_reserved":false,"is_disabled":false,"rental_uris":{"android":"levelo://app?vid=92d540b9-6bc5-4263-933a-6ade2d6be28e","ios":"levelo://app?vid=92d540b9-6bc5-4263-933a-6ade2d6be28e"},"vehicle_type_id":"4","last_reported":1742540975,"current_range_meters":9600,"station_id":"ce4bhn92rcd13ifvqgrg","pricing_plan_id":"cebpf4jnsgd1na2vs0mg"},{"bike_id":"2678929a-312d-4089-b116-1e816de7db90","system_id":"levelo_inurba_marseille","lat":43.32123,"lon":5.36774,"is_reserved":false,"is_disabled":false,"rental_uris":{"android":"levelo://app?vid=2678929a-312d-4089-b116-1e816de7db90","ios":"levelo://app?vid=2678929a-312d-4089-b116-1e816de7db90"},"vehicle_type_id":"4","last_reported":1742540975,"current_range_meters":9600,"station_id":"ce4bhrh2rcd13ifvqhug","pricing_plan_id":"cebpf4jnsgd1na2vs0mg"},{"bike_id":"cfd69d0c-780d-4b40-abbc-c1e3f0f8b67c","system_id":"levelo_inurba_marseille","lat":43.24073,"lon":5.37759,"is_reserved":false,"is_disabled":false,"rental_uris":{"android":"levelo://app?vid=cfd69d0c-780d-4b40-abbc-c1e3f0f8b67c","ios":"levelo://app?vid=cfd69d0c-780d-4b40-abbc-c1e3f0f8b67c"},"vehicle_type_id":"4","last_reported":1742540975,"current_range_meters":9600,"station_id":"ce4bhnp2rcd13ifvqgvg","pricing_plan_id":"cebpf4jnsgd1na2vs0mg"},{"bike_id":"1295e912-beee-47fe-a5c8-2ae149d6d129","system_id":"levelo_inurba_marseille","lat":43.31736,"lon":5.37744,"is_reserved":false,"is_disabled":false,"rental_uris":{"android":"levelo://app?vid=1295e912-beee-47fe-a5c8-2ae149d6d129","ios":"levelo://app?vid=1295e912-beee-47fe-a5c8-2ae149d6d129"},"vehicle_type_id":"4","last_reported":1742540975,"current_range_meters":9600,"station_id":"ce4bgth2rcd13ifvqch0","pricing_plan_id":"cebpf4jnsgd1na2vs0mg"},{"bike_id":"31ba5937-48f4-487d-85b0-bd6c0014621f","system_id":"levelo_inurba_marseille","lat":43.314846,"lon":5.372907,"is_reserved":false,"is_disabled":false,"rental_uris":{"android":"levelo://app?vid=31ba5937-48f4-487d-85b0-bd6c0014621f","ios":"levelo://app?vid=31ba5937-48f4-487d-85b0-bd6c0014621f"},"vehicle_type_id":"4","last_reported":1742540975,"current_range_meters":9600,"station_id":"ce4bgt12rcd13ifvqcd0","pricing_plan_id":"cebpf4jnsgd1na2vs0mg"},{"bike_id":"0db71d9c-a9a3-4782-a327-f050112263d2","system_id":"levelo_inurba_marseille","lat":43.2607,"lon":5.39393,"is_reserved":false,"is_disabled":false,"rental_uris":{"android":"levelo://app?vid=0db71d9c-a9a3-4782-a327-f050112263d2","ios":"levelo://app?vid=0db71d9c-a9a3-4782-a327-f050112263d2"},"vehicle_type_id":"4","last_reported":1742540975,"current_range_meters":9600,"station_id":"ce4bhh92rcd13ifvqfj0","pricing_plan_id":"cebpf4jnsgd1na2vs0mg"},{"bike_id":"86859bc8-cdf3-4c55-a231-e1ff87943727","system_id":"levelo_inurba_marseille","lat":43.31482,"lon":5.37292,"is_reserved":false,"is_disabled":false,"rental_uris":{"android":"levelo://app?vid=86859bc8-cdf3-4c55-a231-e1ff87943727","ios":"levelo://app?vid=86859bc8-cdf3-4c55-a231-e1ff87943727"},"vehicle_type_id":"4","last_reported":1742540975,"current_range_meters":10000,"station_id":"ce4bgt12rcd13ifvqcd0","pricing_plan_id":"cebpf4jnsgd1na2vs0mg"},{"bike_id":"f2387910-c486-4275-a7ab-dbeb87afdc12","system_id":"levelo_inurba_marseille","lat":43.337327,"lon":5.39181,"is_reserved":false,"is_disabled":false,"rental_uris":{"android":"levelo://app?vid=f2387910-c486-4275-a7ab-dbeb87afdc12","ios":"levelo://app?vid=f2387910-c486-4275-a7ab-dbeb87afdc12"},"vehicle_type_id":"4","last_reported":1742540975,"current_range_meters":10000,"station_id":"ce4bhr92rcd13ifvqhsg","pricing_plan_id":"cebpf4jnsgd1na2vs0mg"},{"bike_id":"a8e54271-f43e-4238-be61-5a0d0f7d1259","system_id":"levelo_inurba_marseille","lat":43.24669,"lon":5.38147,"is_reserved":false,"is_disabled":false,"rental_uris":{"android":"levelo://app?vid=a8e54271-f43e-4238-be61-5a0d0f7d1259","ios":"levelo://app?vid=a8e54271-f43e-4238-be61-5a0d0f7d1259"},"vehicle_type_id":"4","last_reported":1742540975,"current_range_meters":10000,"station_id":"ce4bhih2rcd13ifvqfr0","pricing_plan_id":"cebpf4jnsgd1na2vs0mg"},{"bike_id":"24016567-79c9-417a-ad0a-921105cb0978","system_id":"levelo_inurba_marseille","lat":43.32339,"lon":5.38943,"is_reserved":false,"is_disabled":false,"rental_uris":{"android":"levelo://app?vid=24016567-79c9-417a-ad0a-921105cb0978","ios":"levelo://app?vid=24016567-79c9-417a-ad0a-921105cb0978"},"vehicle_type_id":"4","last_reported":1742540975,"current_range_meters":10000,"station_id":"","pricing_plan_id":"cebpf4jnsgd1na2vs0mg"},{"bike_id":"a67c54b6-5ce9-4632-8070-5ca7d5b7fc9e","system_id":"levelo_inurba_marseille","lat":43.230598,"lon":5.354984,"is_reserved":false,"is_disabled":false,"rental_uris":{"android":"levelo://app?vid=a67c54b6-5ce9-4632-8070-5ca7d5b7fc9e","ios":"levelo://app?vid=a67c54b6-5ce9-4632-8070-5ca7d5b7fc9e"},"vehicle_type_id":"4","last_reported":1742540975,"current_range_meters":10000,"station_id":"cpo3342slgdg3j2ifvpg","pricing_plan_id":"cebpf4jnsgd1na2vs0mg"},{"bike_id":"5ef2432c-8b14-42cf-8e2a-1af923562f84","system_id":"levelo_inurba_marseille","lat":43.314859,"lon":5.372993,"is_reserved":false,"is_disabled":false,"rental_uris":{"android":"levelo://app?vid=5ef2432c-8b14-42cf-8e2a-1af923562f84","ios":"levelo://app?vid=5ef2432c-8b14-42cf-8e2a-1af923562f84"},"vehicle_type_id":"4","last_reported":1742540975,"current_range_meters":10000,"station_id":"ce4bgt12rcd13ifvqcd0","pricing_plan_id":"cebpf4jnsgd1na2vs0mg"},{"bike_id":"e7099a91-f011-4f51-8f8e-c8f0d1018eb5","system_id":"levelo_inurba_marseille","lat":43.23173,"lon":5.40003,"is_reserved":false,"is_disabled":false,"rental_uris":{"android":"levelo://app?vid=e7099a91-f011-4f51-8f8e-c8f0d1018eb5","ios":"levelo://app?vid=e7099a91-f011-4f51-8f8e-c8f0d1018eb5"},"vehicle_type_id":"4","last_reported":1742540975,"current_range_meters":10000,"station_id":"ce4bhn12rcd13ifvqgqg","pricing_plan_id":"cebpf4jnsgd1na2vs0mg"},{"bike_id":"d6f1de65-3560-4255-b64d-759f35578285","system_id":"levelo_inurba_marseille","lat":43.314844,"lon":5.373039,"is_reserved":false,"is_disabled":false,"rental_uris":{"android":"levelo://app?vid=d6f1de65-3560-4255-b64d-759f35578285","ios":"levelo://app?vid=d6f1de65-3560-4255-b64d-759f35578285"},"vehicle_type_id":"4","last_reported":1742540975,"current_range_meters":10800,"station_id":"ce4bgt12rcd13ifvqcd0","pricing_plan_id":"cebpf4jnsgd1na2vs0mg"},{"bike_id":"bf5d7bdb-65a8-4310-b955-6a76e2cbd7fe","system_id":"levelo_inurba_marseille","lat":43.33727,"lon":5.39198,"is_reserved":false,"is_disabled":false,"rental_uris":{"android":"levelo://app?vid=bf5d7bdb-65a8-4310-b955-6a76e2cbd7fe","ios":"levelo://app?vid=bf5d7bdb-65a8-4310-b955-6a76e2cbd7fe"},"vehicle_type_id":"4","last_reported":1742540975,"current_range_meters":10800,"station_id":"ce4bhr92rcd13ifvqhsg","pricing_plan_id":"cebpf4jnsgd1na2vs0mg"},{"bike_id":"b874fcb6-02ab-4714-bd16-11a6d15e7c3f","system_id":"levelo_inurba_marseille","lat":43.28856,"lon":5.35862,"is_reserved":false,"is_disabled":false,"rental_uris":{"android":"levelo://app?vid=b874fcb6-02ab-4714-bd16-11a6d15e7c3f","ios":"levelo://app?vid=b874fcb6-02ab-4714-bd16-11a6d15e7c3f"},"vehicle_type_id":"4","last_reported":1742540975,"current_range_meters":10800,"station_id":"ce4bhb12rcd13ifvqem0","pricing_plan_id":"cebpf4jnsgd1na2vs0mg"},{"bike_id":"a7fe0957-19c5-4692-9769-cafab82db1eb","system_id":"levelo_inurba_marseille","lat":43.28947,"lon":5.36399,"is_reserved":false,"is_disabled":false,"rental_uris":{"android":"levelo://app?vid=a7fe0957-19c5-4692-9769-cafab82db1eb","ios":"levelo://app?vid=a7fe0957-19c5-4692-9769-cafab82db1eb"},"vehicle_type_id":"4","last_reported":1742540975,"current_range_meters":10800,"station_id":"ce4bhc92rcd13ifvqetg","pricing_plan_id":"cebpf4jnsgd1na2vs0mg"},{"bike_id":"560146d0-39b2-44b5-960a-9d19851965a8","system_id":"levelo_inurba_marseille","lat":43.27212,"lon":5.39181,"is_reserved":false,"is_disabled":false,"rental_uris":{"android":"levelo://app?vid=560146d0-39b2-44b5-960a-9d19851965a8","ios":"levelo://app?vid=560146d0-39b2-44b5-960a-9d19851965a8"},"vehicle_type_id":"4","last_reported":1742540975,"current_range_meters":10000,"station_id":"ce4bhhp2rcd13ifvqfm0","pricing_plan_id":"cebpf4jnsgd1na2vs0mg"},{"bike_id":"64f3f160-3d41-4047-a7c4-5d9924ce80c7","system_id":"levelo_inurba_marseille","lat":43.25811,"lon":5.39436,"is_reserved":false,"is_disabled":false,"rental_uris":{"android":"levelo://app?vid=64f3f160-3d41-4047-a7c4-5d9924ce80c7","ios":"levelo://app?vid=64f3f160-3d41-4047-a7c4-5d9924ce80c7"},"vehicle_type_id":"4","last_reported":1742540975,"current_range_meters":10800,"station_id":"ce4bhip2rcd13ifvqft0","pricing_plan_id":"cebpf4jnsgd1na2vs0mg"},{"bike_id":"d4d3aa33-7f82-4c5f-a6a1-2c645da45f2a","system_id":"levelo_inurba_marseille","lat":43.29255,"lon":5.40919,"is_reserved":false,"is_disabled":false,"rental_uris":{"android":"levelo://app?vid=d4d3aa33-7f82-4c5f-a6a1-2c645da45f2a","ios":"levelo://app?vid=d4d3aa33-7f82-4c5f-a6a1-2c645da45f2a"},"vehicle_type_id":"4","last_reported":1742540975,"current_range_meters":10800,"station_id":"ce4bh192rcd13ifvqdc0","pricing_plan_id":"cebpf4jnsgd1na2vs0mg"},{"bike_id":"899ab87e-4ea4-40e5-9304-e09f83aad3d0","system_id":"levelo_inurba_marseille","lat":43.23956,"lon":5.36649,"is_reserved":false,"is_disabled":false,"rental_uris":{"android":"levelo://app?vid=899ab87e-4ea4-40e5-9304-e09f83aad3d0","ios":"levelo://app?vid=899ab87e-4ea4-40e5-9304-e09f83aad3d0"},"vehicle_type_id":"4","last_reported":1742540975,"current_range_meters":11200,"station_id":"ce4bhi12rcd13ifvqfp0","pricing_plan_id":"cebpf4jnsgd1na2vs0mg"},{"bike_id":"41a0e539-729c-4684-bf35-6a19f93098bb","system_id":"levelo_inurba_marseille","lat":43.29029,"lon":5.38634,"is_reserved":false,"is_disabled":false,"rental_uris":{"android":"levelo://app?vid=41a0e539-729c-4684-bf35-6a19f93098bb","ios":"levelo://app?vid=41a0e539-729c-4684-bf35-6a19f93098bb"},"vehicle_type_id":"4","last_reported":1742540975,"current_range_meters":11200,"station_id":"ce4bh4p2rcd13ifvqe0g","pricing_plan_id":"cebpf4jnsgd1na2vs0mg"},{"bike_id":"652d4655-47ef-4510-99b6-c23e7995fb93","system_id":"levelo_inurba_marseille","lat":43.31065,"lon":5.37516,"is_reserved":false,"is_disabled":true,"rental_uris":{"android":"levelo://app?vid=652d4655-47ef-4510-99b6-c23e7995fb93","ios":"levelo://app?vid=652d4655-47ef-4510-99b6-c23e7995fb93"},"vehicle_type_id":"4","last_reported":1742540975,"current_range_meters":11200,"station_id":"","pricing_plan_id":"cebpf4jnsgd1na2vs0mg"},{"bike_id":"32c136b5-47bb-4db2-974c-debde23c849b","system_id":"levelo_inurba_marseille","lat":43.29259,"lon":5.37632,"is_reserved":false,"is_disabled":false,"rental_uris":{"android":"levelo://app?vid=32c136b5-47bb-4db2-974c-debde23c849b","ios":"levelo://app?vid=32c136b5-47bb-4db2-974c-debde23c849b"},"vehicle_type_id":"4","last_reported":1742540975,"current_range_meters":11200,"station_id":"ce4bgi12rcd13ifvqb80","pricing_plan_id":"cebpf4jnsgd1na2vs0mg"},{"bike_id":"aba7a31c-d1db-4bb4-ba56-e84838fed699","system_id":"levelo_inurba_marseille","lat":43.24643,"lon":5.38912,"is_reserved":false,"is_disabled":false,"rental_uris":{"android":"levelo://app?vid=aba7a31c-d1db-4bb4-ba56-e84838fed699","ios":"levelo://app?vid=aba7a31c-d1db-4bb4-ba56-e84838fed699"},"vehicle_type_id":"4","last_reported":1742540975,"current_range_meters":11200,"station_id":"ce4bhg12rcd13ifvqf60","pricing_plan_id":"cebpf4jnsgd1na2vs0mg"},{"bike_id":"9f71b25d-9206-481d-ac8c-220bc4ce65d9","system_id":"levelo_inurba_marseille","lat":43.24164,"lon":5.36397,"is_reserved":false,"is_disabled":false,"rental_uris":{"android":"levelo://app?vid=9f71b25d-9206-481d-ac8c-220bc4ce65d9","ios":"levelo://app?vid=9f71b25d-9206-481d-ac8c-220bc4ce65d9"},"vehicle_type_id":"4","last_reported":1742540975,"current_range_meters":11200,"station_id":"cpo36qri1sfpv3e86is0","pricing_plan_id":"cebpf4jnsgd1na2vs0mg"},{"bike_id":"93fe469e-26f6-4fd7-960c-a5d230581527","system_id":"levelo_inurba_marseille","lat":43.28683,"lon":5.38966,"is_reserved":false,"is_disabled":false,"rental_uris":{"android":"levelo://app?vid=93fe469e-26f6-4fd7-960c-a5d230581527","ios":"levelo://app?vid=93fe469e-26f6-4fd7-960c-a5d230581527"},"vehicle_type_id":"4","last_reported":1742540975,"current_range_meters":11600,"station_id":"","pricing_plan_id":"cebpf4jnsgd1na2vs0mg"},{"bike_id":"563086a8-8515-4d07-a2d8-6c7fc246f529","system_id":"levelo_inurba_marseille","lat":43.25816,"lon":5.39436,"is_reserved":false,"is_disabled":false,"rental_uris":{"android":"levelo://app?vid=563086a8-8515-4d07-a2d8-6c7fc246f529","ios":"levelo://app?vid=563086a8-8515-4d07-a2d8-6c7fc246f529"},"vehicle_type_id":"4","last_reported":1742540975,"current_range_meters":11600,"station_id":"ce4bhip2rcd13ifvqft0","pricing_plan_id":"cebpf4jnsgd1na2vs0mg"},{"bike_id":"0116ab83-be77-432f-8ce0-f24ea3e362ed","system_id":"levelo_inurba_marseille","lat":43.31761,"lon":5.39018,"is_reserved":false,"is_disabled":false,"rental_uris":{"android":"levelo://app?vid=0116ab83-be77-432f-8ce0-f24ea3e362ed","ios":"levelo://app?vid=0116ab83-be77-432f-8ce0-f24ea3e362ed"},"vehicle_type_id":"4","last_reported":1742540975,"current_range_meters":11600,"station_id":"ce4bhqp2rcd13ifvqhng","pricing_plan_id":"cebpf4jnsgd1na2vs0mg"},{"bike_id":"c28b70a6-4944-46dd-b986-791c037aeaa5","system_id":"levelo_inurba_marseille","lat":43.23208,"lon":5.43687,"is_reserved":false,"is_disabled":false,"rental_uris":{"android":"levelo://app?vid=c28b70a6-4944-46dd-b986-791c037aeaa5","ios":"levelo://app?vid=c28b70a6-4944-46dd-b986-791c037aeaa5"},"vehicle_type_id":"4","last_reported":1742540975,"current_range_meters":11600,"station_id":"ce4bhmp2rcd13ifvqgog","pricing_plan_id":"cebpf4jnsgd1na2vs0mg"},{"bike_id":"998c83f2-812f-42b0-b9a3-058959b89cd5","system_id":"levelo_inurba_marseille","lat":43.29802,"lon":5.381,"is_reserved":false,"is_disabled":false,"rental_uris":{"android":"levelo://app?vid=998c83f2-812f-42b0-b9a3-058959b89cd5","ios":"levelo://app?vid=998c83f2-812f-42b0-b9a3-058959b89cd5"},"vehicle_type_id":"4","last_reported":1742540975,"current_range_meters":11600,"station_id":"ce4bgip2rcd13ifvqbb0","pricing_plan_id":"cebpf4jnsgd1na2vs0mg"},{"bike_id":"57e057ea-fb99-4f7e-81aa-52b9a870f0dc","system_id":"levelo_inurba_marseille","lat":43.24069,"lon":5.37761,"is_reserved":false,"is_disabled":false,"rental_uris":{"android":"levelo://app?vid=57e057ea-fb99-4f7e-81aa-52b9a870f0dc","ios":"levelo://app?vid=57e057ea-fb99-4f7e-81aa-52b9a870f0dc"},"vehicle_type_id":"4","last_reported":1742540975,"current_range_meters":11600,"station_id":"ce4bhnp2rcd13ifvqgvg","pricing_plan_id":"cebpf4jnsgd1na2vs0mg"},{"bike_id":"96ea2c80-d4e0-4d7f-8b8c-7fa496620b15","system_id":"levelo_inurba_marseille","lat":43.2893,"lon":5.3641,"is_reserved":false,"is_disabled":false,"rental_uris":{"android":"levelo://app?vid=96ea2c80-d4e0-4d7f-8b8c-7fa496620b15","ios":"levelo://app?vid=96ea2c80-d4e0-4d7f-8b8c-7fa496620b15"},"vehicle_type_id":"4","last_reported":1742540975,"current_range_meters":11600,"station_id":"ce4bhc92rcd13ifvqetg","pricing_plan_id":"cebpf4jnsgd1na2vs0mg"},{"bike_id":"acedcbad-f439-4ac2-b583-efb5f44eba1d","system_id":"levelo_inurba_marseille","lat":43.294186,"lon":5.386106,"is_reserved":false,"is_disabled":true,"rental_uris":{"android":"levelo://app?vid=acedcbad-f439-4ac2-b583-efb5f44eba1d","ios":"levelo://app?vid=acedcbad-f439-4ac2-b583-efb5f44eba1d"},"vehicle_type_id":"4","last_reported":1742540975,"current_range_meters":11600,"station_id":"ce4bh2h2rcd13ifvqdh0","pricing_plan_id":"cebpf4jnsgd1na2vs0mg"},{"bike_id":"9b513519-6571-4512-9426-8178711eafb7","system_id":"levelo_inurba_marseille","lat":43.294436,"lon":5.397538,"is_reserved":false,"is_disabled":true,"rental_uris":{"android":"levelo://app?vid=9b513519-6571-4512-9426-8178711eafb7","ios":"levelo://app?vid=9b513519-6571-4512-9426-8178711eafb7"},"vehicle_type_id":"4","last_reported":1742540975,"current_range_meters":11600,"station_id":"ce4bh3h2rcd13ifvqdo0","pricing_plan_id":"cebpf4jnsgd1na2vs0mg"},{"bike_id":"142c479d-55f6-4d75-a95f-1caafdd1dfbf","system_id":"levelo_inurba_marseille","lat":43.23151,"lon":5.43726,"is_reserved":false,"is_disabled":false,"rental_uris":{"android":"levelo://app?vid=142c479d-55f6-4d75-a95f-1caafdd1dfbf","ios":"levelo://app?vid=142c479d-55f6-4d75-a95f-1caafdd1dfbf"},"vehicle_type_id":"4","last_reported":1742540975,"current_range_meters":12000,"station_id":"ce4bhmp2rcd13ifvqgog","pricing_plan_id":"cebpf4jnsgd1na2vs0mg"},{"bike_id":"611cf6a7-c612-4e85-9234-539bfc7b6df7","system_id":"levelo_inurba_marseille","lat":43.34143,"lon":5.40883,"is_reserved":false,"is_disabled":false,"rental_uris":{"android":"levelo://app?vid=611cf6a7-c612-4e85-9234-539bfc7b6df7","ios":"levelo://app?vid=611cf6a7-c612-4e85-9234-539bfc7b6df7"},"vehicle_type_id":"4","last_reported":1742540975,"current_range_meters":12000,"station_id":"ce4bhqh2rcd13ifvqhlg","pricing_plan_id":"cebpf4jnsgd1na2vs0mg"},{"bike_id":"cff5c5d7-b2c2-4661-bcba-b7a09aa5def1","system_id":"levelo_inurba_marseille","lat":43.303035,"lon":5.369049,"is_reserved":false,"is_disabled":false,"rental_uris":{"android":"levelo://app?vid=cff5c5d7-b2c2-4661-bcba-b7a09aa5def1","ios":"levelo://app?vid=cff5c5d7-b2c2-4661-bcba-b7a09aa5def1"},"vehicle_type_id":"4","last_reported":1742540975,"current_range_meters":12000,"station_id":"ce4bgqh2rcd13ifvqc5g","pricing_plan_id":"cebpf4jnsgd1na2vs0mg"},{"bike_id":"addc9e43-cb17-41f3-a0d8-a264d0dc9a57","system_id":"levelo_inurba_marseille","lat":43.34853,"lon":5.38168,"is_reserved":false,"is_disabled":false,"rental_uris":{"android":"levelo://app?vid=addc9e43-cb17-41f3-a0d8-a264d0dc9a57","ios":"levelo://app?vid=addc9e43-cb17-41f3-a0d8-a264d0dc9a57"},"vehicle_type_id":"4","last_reported":1742540975,"current_range_meters":12000,"station_id":"","pricing_plan_id":"cebpf4jnsgd1na2vs0mg"},{"bike_id":"e62dac40-44c1-4bd0-960d-9e1c5df60e4a","system_id":"levelo_inurba_marseille","lat":43.303104,"lon":5.368972,"is_reserved":false,"is_disabled":false,"rental_uris":{"android":"levelo://app?vid=e62dac40-44c1-4bd0-960d-9e1c5df60e4a","ios":"levelo://app?vid=e62dac40-44c1-4bd0-960d-9e1c5df60e4a"},"vehicle_type_id":"4","last_reported":1742540975,"current_range_meters":12000,"station_id":"ce4bgqh2rcd13ifvqc5g","pricing_plan_id":"cebpf4jnsgd1na2vs0mg"},{"bike_id":"018007ac-45db-4500-9619-ca6c178680de","system_id":"levelo_inurba_marseille","lat":43.28944,"lon":5.3664,"is_reserved":false,"is_disabled":false,"rental_uris":{"android":"levelo://app?vid=018007ac-45db-4500-9619-ca6c178680de","ios":"levelo://app?vid=018007ac-45db-4500-9619-ca6c178680de"},"vehicle_type_id":"4","last_reported":1742540975,"current_range_meters":12000,"station_id":"ce4bhap2rcd13ifvqek0","pricing_plan_id":"cebpf4jnsgd1na2vs0mg"},{"bike_id":"a06df953-ee24-4eee-acd9-cfb685fc1c62","system_id":"levelo_inurba_marseille","lat":43.31429,"lon":5.37456,"is_reserved":false,"is_disabled":false,"rental_uris":{"android":"levelo://app?vid=a06df953-ee24-4eee-acd9-cfb685fc1c62","ios":"levelo://app?vid=a06df953-ee24-4eee-acd9-cfb685fc1c62"},"vehicle_type_id":"4","last_reported":1742540975,"current_range_meters":12400,"station_id":"","pricing_plan_id":"cebpf4jnsgd1na2vs0mg"},{"bike_id":"127f04cb-152d-4157-a29d-035e26177aec","system_id":"levelo_inurba_marseille","lat":43.28559,"lon":5.39497,"is_reserved":false,"is_disabled":false,"rental_uris":{"android":"levelo://app?vid=127f04cb-152d-4157-a29d-035e26177aec","ios":"levelo://app?vid=127f04cb-152d-4157-a29d-035e26177aec"},"vehicle_type_id":"4","last_reported":1742540975,"current_range_meters":12400,"station_id":"ce4bh292rcd13ifvqdg0","pricing_plan_id":"cebpf4jnsgd1na2vs0mg"},{"bike_id":"52c16ac5-3447-4053-956c-78fc8bf0dc7c","system_id":"levelo_inurba_marseille","lat":43.32367,"lon":5.36775,"is_reserved":false,"is_disabled":false,"rental_uris":{"android":"levelo://app?vid=52c16ac5-3447-4053-956c-78fc8bf0dc7c","ios":"levelo://app?vid=52c16ac5-3447-4053-956c-78fc8bf0dc7c"},"vehicle_type_id":"4","last_reported":1742540975,"current_range_meters":12400,"station_id":"ce4bhsh2rcd13ifvqi2g","pricing_plan_id":"cebpf4jnsgd1na2vs0mg"},{"bike_id":"5518e5d7-0ebe-4ab1-8335-709b16b77f36","system_id":"levelo_inurba_marseille","lat":43.28353,"lon":5.3811,"is_reserved":false,"is_disabled":false,"rental_uris":{"android":"levelo://app?vid=5518e5d7-0ebe-4ab1-8335-709b16b77f36","ios":"levelo://app?vid=5518e5d7-0ebe-4ab1-8335-709b16b77f36"},"vehicle_type_id":"4","last_reported":1742540975,"current_range_meters":12400,"station_id":"ce4bh412rcd13ifvqdr0","pricing_plan_id":"cebpf4jnsgd1na2vs0mg"},{"bike_id":"68658dbb-17a0-42dc-9e1a-0bbb7b174165","system_id":"levelo_inurba_marseille","lat":43.30169,"lon":5.38896,"is_reserved":false,"is_disabled":false,"rental_uris":{"android":"levelo://app?vid=68658dbb-17a0-42dc-9e1a-0bbb7b174165","ios":"levelo://app?vid=68658dbb-17a0-42dc-9e1a-0bbb7b174165"},"vehicle_type_id":"4","last_reported":1742540975,"current_range_meters":12400,"station_id":"","pricing_plan_id":"cebpf4jnsgd1na2vs0mg"},{"bike_id":"0e559a38-2ed2-4443-96b4-ffe9db3474fa","system_id":"levelo_inurba_marseille","lat":43.28409,"lon":5.37527,"is_reserved":false,"is_disabled":false,"rental_uris":{"android":"levelo://app?vid=0e559a38-2ed2-4443-96b4-ffe9db3474fa","ios":"levelo://app?vid=0e559a38-2ed2-4443-96b4-ffe9db3474fa"},"vehicle_type_id":"4","last_reported":1742540975,"current_range_meters":12400,"station_id":"ce4bh412rcd13ifvqds0","pricing_plan_id":"cebpf4jnsgd1na2vs0mg"},{"bike_id":"77f92300-e338-4d46-9e7b-99dd9ee50d48","system_id":"levelo_inurba_marseille","lat":43.298647,"lon":5.397325,"is_reserved":false,"is_disabled":false,"rental_uris":{"android":"levelo://app?vid=77f92300-e338-4d46-9e7b-99dd9ee50d48","ios":"levelo://app?vid=77f92300-e338-4d46-9e7b-99dd9ee50d48"},"vehicle_type_id":"4","last_reported":1742540975,"current_range_meters":12400,"station_id":"ce4bhqp2rcd13ifvqhng","pricing_plan_id":"cebpf4jnsgd1na2vs0mg"},{"bike_id":"317d6b69-7893-4d6a-bcf4-3a5c81de488e","system_id":"levelo_inurba_marseille","lat":43.27486,"lon":5.42465,"is_reserved":false,"is_disabled":false,"rental_uris":{"android":"levelo://app?vid=317d6b69-7893-4d6a-bcf4-3a5c81de488e","ios":"levelo://app?vid=317d6b69-7893-4d6a-bcf4-3a5c81de488e"},"vehicle_type_id":"4","last_reported":1742540975,"current_range_meters":12400,"station_id":"ce4bhn92rcd13ifvqgrg","pricing_plan_id":"cebpf4jnsgd1na2vs0mg"},{"bike_id":"037899d0-e21b-462b-9d5e-70d4617c699d","system_id":"levelo_inurba_marseille","lat":43.32365,"lon":5.38886,"is_reserved":false,"is_disabled":false,"rental_uris":{"android":"levelo://app?vid=037899d0-e21b-462b-9d5e-70d4617c699d","ios":"levelo://app?vid=037899d0-e21b-462b-9d5e-70d4617c699d"},"vehicle_type_id":"4","last_reported":1742540975,"current_range_meters":12800,"station_id":"ce4bhqp2rcd13ifvqhog","pricing_plan_id":"cebpf4jnsgd1na2vs0mg"},{"bike_id":"9f1c3e5c-869d-4869-b7c6-0c926f2da6bf","system_id":"levelo_inurba_marseille","lat":43.283738,"lon":5.397995,"is_reserved":false,"is_disabled":false,"rental_uris":{"android":"levelo://app?vid=9f1c3e5c-869d-4869-b7c6-0c926f2da6bf","ios":"levelo://app?vid=9f1c3e5c-869d-4869-b7c6-0c926f2da6bf"},"vehicle_type_id":"4","last_reported":1742540975,"current_range_meters":12800,"station_id":"","pricing_plan_id":"cebpf4jnsgd1na2vs0mg"},{"bike_id":"9cd3b074-b88d-43eb-910b-b2d60af67ba5","system_id":"levelo_inurba_marseille","lat":43.31706,"lon":5.37745,"is_reserved":false,"is_disabled":false,"rental_uris":{"android":"levelo://app?vid=9cd3b074-b88d-43eb-910b-b2d60af67ba5","ios":"levelo://app?vid=9cd3b074-b88d-43eb-910b-b2d60af67ba5"},"vehicle_type_id":"4","last_reported":1742540975,"current_range_meters":12800,"station_id":"ce4bgth2rcd13ifvqch0","pricing_plan_id":"cebpf4jnsgd1na2vs0mg"},{"bike_id":"fbbb3028-b15b-4750-98dc-ac90972ecc9b","system_id":"levelo_inurba_marseille","lat":43.32108,"lon":5.36775,"is_reserved":false,"is_disabled":false,"rental_uris":{"android":"levelo://app?vid=fbbb3028-b15b-4750-98dc-ac90972ecc9b","ios":"levelo://app?vid=fbbb3028-b15b-4750-98dc-ac90972ecc9b"},"vehicle_type_id":"4","last_reported":1742540975,"current_range_meters":12800,"station_id":"ce4bhrh2rcd13ifvqhug","pricing_plan_id":"cebpf4jnsgd1na2vs0mg"},{"bike_id":"73360c0c-d4eb-4b27-a6c6-a7287187d1f9","system_id":"levelo_inurba_marseille","lat":43.30527,"lon":5.36719,"is_reserved":false,"is_disabled":false,"rental_uris":{"android":"levelo://app?vid=73360c0c-d4eb-4b27-a6c6-a7287187d1f9","ios":"levelo://app?vid=73360c0c-d4eb-4b27-a6c6-a7287187d1f9"},"vehicle_type_id":"4","last_reported":1742540975,"current_range_meters":12800,"station_id":"ce4bgrp2rcd13ifvqc9g","pricing_plan_id":"cebpf4jnsgd1na2vs0mg"},{"bike_id":"eca27a81-a303-407b-9584-1b4a67bf83d4","system_id":"levelo_inurba_marseille","lat":43.24069,"lon":5.3777,"is_reserved":false,"is_disabled":false,"rental_uris":{"android":"levelo://app?vid=eca27a81-a303-407b-9584-1b4a67bf83d4","ios":"levelo://app?vid=eca27a81-a303-407b-9584-1b4a67bf83d4"},"vehicle_type_id":"4","last_reported":1742540975,"current_range_meters":13600,"station_id":"ce4bhnp2rcd13ifvqgvg","pricing_plan_id":"cebpf4jnsgd1na2vs0mg"},{"bike_id":"efe37adc-d48c-4f29-9feb-64ec320e7884","system_id":"levelo_inurba_marseille","lat":43.27835,"lon":5.39205,"is_reserved":false,"is_disabled":false,"rental_uris":{"android":"levelo://app?vid=efe37adc-d48c-4f29-9feb-64ec320e7884","ios":"levelo://app?vid=efe37adc-d48c-4f29-9feb-64ec320e7884"},"vehicle_type_id":"4","last_reported":1742540975,"current_range_meters":13600,"station_id":"ce4bhjp2rcd13ifvqga0","pricing_plan_id":"cebpf4jnsgd1na2vs0mg"},{"bike_id":"c4da3e5f-f28d-48ce-84f4-64d467a44628","system_id":"levelo_inurba_marseille","lat":43.29562,"lon":5.37525,"is_reserved":false,"is_disabled":false,"rental_uris":{"android":"levelo://app?vid=c4da3e5f-f28d-48ce-84f4-64d467a44628","ios":"levelo://app?vid=c4da3e5f-f28d-48ce-84f4-64d467a44628"},"vehicle_type_id":"4","last_reported":1742540975,"current_range_meters":13600,"station_id":"ce4bgh92rcd13ifvqb50","pricing_plan_id":"cebpf4jnsgd1na2vs0mg"},{"bike_id":"b3424025-c59a-4292-8ab2-ccd147cbd42f","system_id":"levelo_inurba_marseille","lat":43.32368,"lon":5.38881,"is_reserved":false,"is_disabled":false,"rental_uris":{"android":"levelo://app?vid=b3424025-c59a-4292-8ab2-ccd147cbd42f","ios":"levelo://app?vid=b3424025-c59a-4292-8ab2-ccd147cbd42f"},"vehicle_type_id":"4","last_reported":1742540975,"current_range_meters":13600,"station_id":"ce4bhqp2rcd13ifvqhog","pricing_plan_id":"cebpf4jnsgd1na2vs0mg"},{"bike_id":"0b3370c4-773c-4250-9b8b-c260e573902f","system_id":"levelo_inurba_marseille","lat":43.32282,"lon":5.38273,"is_reserved":false,"is_disabled":false,"rental_uris":{"android":"levelo://app?vid=0b3370c4-773c-4250-9b8b-c260e573902f","ios":"levelo://app?vid=0b3370c4-773c-4250-9b8b-c260e573902f"},"vehicle_type_id":"4","last_reported":1742540975,"current_range_meters":13600,"station_id":"ce4bhr12rcd13ifvqhqg","pricing_plan_id":"cebpf4jnsgd1na2vs0mg"},{"bike_id":"3f7d6cde-7911-4e85-a37f-700b24691ccd","system_id":"levelo_inurba_marseille","lat":43.242273,"lon":5.367975,"is_reserved":false,"is_disabled":false,"rental_uris":{"android":"levelo://app?vid=3f7d6cde-7911-4e85-a37f-700b24691ccd","ios":"levelo://app?vid=3f7d6cde-7911-4e85-a37f-700b24691ccd"},"vehicle_type_id":"4","last_reported":1742540975,"current_range_meters":13600,"station_id":"cpo36qri1sfpv3e86is0","pricing_plan_id":"cebpf4jnsgd1na2vs0mg"},{"bike_id":"c5c72dbc-bdee-478c-8ffc-2a91e1c31a40","system_id":"levelo_inurba_marseille","lat":43.30168,"lon":5.38537,"is_reserved":false,"is_disabled":false,"rental_uris":{"android":"levelo://app?vid=c5c72dbc-bdee-478c-8ffc-2a91e1c31a40","ios":"levelo://app?vid=c5c72dbc-bdee-478c-8ffc-2a91e1c31a40"},"vehicle_type_id":"4","last_reported":1742540975,"current_range_meters":14000,"station_id":"","pricing_plan_id":"cebpf4jnsgd1na2vs0mg"},{"bike_id":"556b5e08-97ea-4f47-9aee-0ddb89816c84","system_id":"levelo_inurba_marseille","lat":43.30525,"lon":5.36716,"is_reserved":false,"is_disabled":false,"rental_uris":{"android":"levelo://app?vid=556b5e08-97ea-4f47-9aee-0ddb89816c84","ios":"levelo://app?vid=556b5e08-97ea-4f47-9aee-0ddb89816c84"},"vehicle_type_id":"4","last_reported":1742540975,"current_range_meters":14000,"station_id":"ce4bgrp2rcd13ifvqc9g","pricing_plan_id":"cebpf4jnsgd1na2vs0mg"},{"bike_id":"dc537980-6042-493d-8080-0667efb1d6ad","system_id":"levelo_inurba_marseille","lat":43.245471,"lon":5.395214,"is_reserved":false,"is_disabled":false,"rental_uris":{"android":"levelo://app?vid=dc537980-6042-493d-8080-0667efb1d6ad","ios":"levelo://app?vid=dc537980-6042-493d-8080-0667efb1d6ad"},"vehicle_type_id":"4","last_reported":1742540975,"current_range_meters":14000,"station_id":"ce4bhlp2rcd13ifvqgjg","pricing_plan_id":"cebpf4jnsgd1na2vs0mg"},{"bike_id":"e66793e3-2da6-4d2f-ba3e-dad4dec04a88","system_id":"levelo_inurba_marseille","lat":43.298,"lon":5.38089,"is_reserved":false,"is_disabled":false,"rental_uris":{"android":"levelo://app?vid=e66793e3-2da6-4d2f-ba3e-dad4dec04a88","ios":"levelo://app?vid=e66793e3-2da6-4d2f-ba3e-dad4dec04a88"},"vehicle_type_id":"4","last_reported":1742540975,"current_range_meters":14000,"station_id":"ce4bgip2rcd13ifvqbb0","pricing_plan_id":"cebpf4jnsgd1na2vs0mg"},{"bike_id":"f7b19721-c68b-4280-b653-43eff6dbb1fd","system_id":"levelo_inurba_marseille","lat":43.32094,"lon":5.36789,"is_reserved":false,"is_disabled":false,"rental_uris":{"android":"levelo://app?vid=f7b19721-c68b-4280-b653-43eff6dbb1fd","ios":"levelo://app?vid=f7b19721-c68b-4280-b653-43eff6dbb1fd"},"vehicle_type_id":"4","last_reported":1742540975,"current_range_meters":14000,"station_id":"ce4bhrh2rcd13ifvqhug","pricing_plan_id":"cebpf4jnsgd1na2vs0mg"},{"bike_id":"c08be578-5d71-4906-bdd8-c1f8d20a53e3","system_id":"levelo_inurba_marseille","lat":43.30884,"lon":5.37195,"is_reserved":false,"is_disabled":false,"rental_uris":{"android":"levelo://app?vid=c08be578-5d71-4906-bdd8-c1f8d20a53e3","ios":"levelo://app?vid=c08be578-5d71-4906-bdd8-c1f8d20a53e3"},"vehicle_type_id":"4","last_reported":1742540975,"current_range_meters":14000,"station_id":"ce4bguh2rcd13ifvqckg","pricing_plan_id":"cebpf4jnsgd1na2vs0mg"},{"bike_id":"15ecf1da-a7e5-4f8a-a83b-5761a6e31ae3","system_id":"levelo_inurba_marseille","lat":43.23199,"lon":5.35557,"is_reserved":false,"is_disabled":false,"rental_uris":{"android":"levelo://app?vid=15ecf1da-a7e5-4f8a-a83b-5761a6e31ae3","ios":"levelo://app?vid=15ecf1da-a7e5-4f8a-a83b-5761a6e31ae3"},"vehicle_type_id":"4","last_reported":1742540975,"current_range_meters":14000,"station_id":"ce4bhu92rcd13ifvqi70","pricing_plan_id":"cebpf4jnsgd1na2vs0mg"},{"bike_id":"90ba48e9-986d-41cb-9a84-76f3f4b2a277","system_id":"levelo_inurba_marseille","lat":43.30163,"lon":5.38049,"is_reserved":false,"is_disabled":false,"rental_uris":{"android":"levelo://app?vid=90ba48e9-986d-41cb-9a84-76f3f4b2a277","ios":"levelo://app?vid=90ba48e9-986d-41cb-9a84-76f3f4b2a277"},"vehicle_type_id":"4","last_reported":1742540975,"current_range_meters":14000,"station_id":"ce4bgjp2rcd13ifvqbh0","pricing_plan_id":"cebpf4jnsgd1na2vs0mg"},{"bike_id":"60489768-70a1-4f3b-a334-8d7bb79d79eb","system_id":"levelo_inurba_marseille","lat":43.292506,"lon":5.409127,"is_reserved":false,"is_disabled":false,"rental_uris":{"android":"levelo://app?vid=60489768-70a1-4f3b-a334-8d7bb79d79eb","ios":"levelo://app?vid=60489768-70a1-4f3b-a334-8d7bb79d79eb"},"vehicle_type_id":"4","last_reported":1742540975,"current_range_meters":14000,"station_id":"ce4bh192rcd13ifvqdc0","pricing_plan_id":"cebpf4jnsgd1na2vs0mg"},{"bike_id":"948116bb-95c6-4da6-8c33-0ff679c6e9bf","system_id":"levelo_inurba_marseille","lat":43.32366,"lon":5.38881,"is_reserved":false,"is_disabled":false,"rental_uris":{"android":"levelo://app?vid=948116bb-95c6-4da6-8c33-0ff679c6e9bf","ios":"levelo://app?vid=948116bb-95c6-4da6-8c33-0ff679c6e9bf"},"vehicle_type_id":"4","last_reported":1742540975,"current_range_meters":14000,"station_id":"ce4bhqp2rcd13ifvqhog","pricing_plan_id":"cebpf4jnsgd1na2vs0mg"},{"bike_id":"0fb54bf1-2224-4fef-b967-32b447b8fc33","system_id":"levelo_inurba_marseille","lat":43.24649,"lon":5.38871,"is_reserved":false,"is_disabled":false,"rental_uris":{"android":"levelo://app?vid=0fb54bf1-2224-4fef-b967-32b447b8fc33","ios":"levelo://app?vid=0fb54bf1-2224-4fef-b967-32b447b8fc33"},"vehicle_type_id":"4","last_reported":1742540975,"current_range_meters":14400,"station_id":"ce4bhg12rcd13ifvqf60","pricing_plan_id":"cebpf4jnsgd1na2vs0mg"},{"bike_id":"ebbf9246-a490-4e3e-9cac-61845a6ba8b7","system_id":"levelo_inurba_marseille","lat":43.26956,"lon":5.38631,"is_reserved":false,"is_disabled":false,"rental_uris":{"android":"levelo://app?vid=ebbf9246-a490-4e3e-9cac-61845a6ba8b7","ios":"levelo://app?vid=ebbf9246-a490-4e3e-9cac-61845a6ba8b7"},"vehicle_type_id":"4","last_reported":1742540975,"current_range_meters":14400,"station_id":"ce4bhh92rcd13ifvqfh0","pricing_plan_id":"cebpf4jnsgd1na2vs0mg"},{"bike_id":"495d67fb-311c-4157-a54d-b808f182608e","system_id":"levelo_inurba_marseille","lat":43.32535,"lon":5.4143,"is_reserved":false,"is_disabled":false,"rental_uris":{"android":"levelo://app?vid=495d67fb-311c-4157-a54d-b808f182608e","ios":"levelo://app?vid=495d67fb-311c-4157-a54d-b808f182608e"},"vehicle_type_id":"4","last_reported":1742540975,"current_range_meters":14400,"station_id":"ce4bhq12rcd13ifvqhhg","pricing_plan_id":"cebpf4jnsgd1na2vs0mg"},{"bike_id":"41804280-39ec-4761-bff3-63aaa5772b18","system_id":"levelo_inurba_marseille","lat":43.27074,"lon":5.42279,"is_reserved":false,"is_disabled":false,"rental_uris":{"android":"levelo://app?vid=41804280-39ec-4761-bff3-63aaa5772b18","ios":"levelo://app?vid=41804280-39ec-4761-bff3-63aaa5772b18"},"vehicle_type_id":"4","last_reported":1742540975,"current_range_meters":14400,"station_id":"ce4bhk92rcd13ifvqgb0","pricing_plan_id":"cebpf4jnsgd1na2vs0mg"},{"bike_id":"c8a4e633-b202-40aa-be5e-ed5ab47762d9","system_id":"levelo_inurba_marseille","lat":43.28151,"lon":5.42643,"is_reserved":false,"is_disabled":false,"rental_uris":{"android":"levelo://app?vid=c8a4e633-b202-40aa-be5e-ed5ab47762d9","ios":"levelo://app?vid=c8a4e633-b202-40aa-be5e-ed5ab47762d9"},"vehicle_type_id":"4","last_reported":1742540975,"current_range_meters":14400,"station_id":"ce4bhnh2rcd13ifvqgug","pricing_plan_id":"cebpf4jnsgd1na2vs0mg"},{"bike_id":"2f608053-a475-4cd0-9217-fb6dc09de981","system_id":"levelo_inurba_marseille","lat":43.24645,"lon":5.38909,"is_reserved":false,"is_disabled":false,"rental_uris":{"android":"levelo://app?vid=2f608053-a475-4cd0-9217-fb6dc09de981","ios":"levelo://app?vid=2f608053-a475-4cd0-9217-fb6dc09de981"},"vehicle_type_id":"4","last_reported":1742540975,"current_range_meters":14800,"station_id":"ce4bhg12rcd13ifvqf60","pricing_plan_id":"cebpf4jnsgd1na2vs0mg"},{"bike_id":"f857e3ee-7b86-4ccd-8116-6a58a1cacb60","system_id":"levelo_inurba_marseille","lat":43.33077,"lon":5.40837,"is_reserved":false,"is_disabled":false,"rental_uris":{"android":"levelo://app?vid=f857e3ee-7b86-4ccd-8116-6a58a1cacb60","ios":"levelo://app?vid=f857e3ee-7b86-4ccd-8116-6a58a1cacb60"},"vehicle_type_id":"4","last_reported":1742540975,"current_range_meters":14800,"station_id":"","pricing_plan_id":"cebpf4jnsgd1na2vs0mg"},{"bike_id":"aa38de45-471a-40c6-9431-1f537c7b1dbb","system_id":"levelo_inurba_marseille","lat":43.29028,"lon":5.39951,"is_reserved":false,"is_disabled":false,"rental_uris":{"android":"levelo://app?vid=aa38de45-471a-40c6-9431-1f537c7b1dbb","ios":"levelo://app?vid=aa38de45-471a-40c6-9431-1f537c7b1dbb"},"vehicle_type_id":"4","last_reported":1742540975,"current_range_meters":14800,"station_id":"ce4bh392rcd13ifvqdm0","pricing_plan_id":"cebpf4jnsgd1na2vs0mg"},{"bike_id":"4def3774-7758-4702-9646-aaf08838e585","system_id":"levelo_inurba_marseille","lat":43.30595,"lon":5.39355,"is_reserved":false,"is_disabled":false,"rental_uris":{"android":"levelo://app?vid=4def3774-7758-4702-9646-aaf08838e585","ios":"levelo://app?vid=4def3774-7758-4702-9646-aaf08838e585"},"vehicle_type_id":"4","last_reported":1742540975,"current_range_meters":15200,"station_id":"ce4bh0p2rcd13ifvqd80","pricing_plan_id":"cebpf4jnsgd1na2vs0mg"},{"bike_id":"acc3f6e6-1628-4be6-a9a4-7aa7d79293e4","system_id":"levelo_inurba_marseille","lat":43.28724,"lon":5.39964,"is_reserved":false,"is_disabled":true,"rental_uris":{"android":"levelo://app?vid=acc3f6e6-1628-4be6-a9a4-7aa7d79293e4","ios":"levelo://app?vid=acc3f6e6-1628-4be6-a9a4-7aa7d79293e4"},"vehicle_type_id":"4","last_reported":1742540975,"current_range_meters":15200,"station_id":"ce4bho92rcd13ifvqh3g","pricing_plan_id":"cebpf4jnsgd1na2vs0mg"},{"bike_id":"e29598c6-76b1-40c9-843c-f569fc14e43c","system_id":"levelo_inurba_marseille","lat":43.299061,"lon":5.436581,"is_reserved":false,"is_disabled":false,"rental_uris":{"android":"levelo://app?vid=e29598c6-76b1-40c9-843c-f569fc14e43c","ios":"levelo://app?vid=e29598c6-76b1-40c9-843c-f569fc14e43c"},"vehicle_type_id":"4","last_reported":1742540975,"current_range_meters":15200,"station_id":"ce4bhpp2rcd13ifvqhfg","pricing_plan_id":"cebpf4jnsgd1na2vs0mg"},{"bike_id":"714f5962-601b-42ce-8d42-61b5e9b27247","system_id":"levelo_inurba_marseille","lat":43.29907,"lon":5.37483,"is_reserved":false,"is_disabled":false,"rental_uris":{"android":"levelo://app?vid=714f5962-601b-42ce-8d42-61b5e9b27247","ios":"levelo://app?vid=714f5962-601b-42ce-8d42-61b5e9b27247"},"vehicle_type_id":"4","last_reported":1742540975,"current_range_meters":15200,"station_id":"ce4bgjh2rcd13ifvqbg0","pricing_plan_id":"cebpf4jnsgd1na2vs0mg"},{"bike_id":"42c0cc46-f12a-49e7-ab17-19a0d33e2d30","system_id":"levelo_inurba_marseille","lat":43.26553,"lon":5.39022,"is_reserved":false,"is_disabled":false,"rental_uris":{"android":"levelo://app?vid=42c0cc46-f12a-49e7-ab17-19a0d33e2d30","ios":"levelo://app?vid=42c0cc46-f12a-49e7-ab17-19a0d33e2d30"},"vehicle_type_id":"4","last_reported":1742540975,"current_range_meters":15200,"station_id":"ce4bhe12rcd13ifvqf30","pricing_plan_id":"cebpf4jnsgd1na2vs0mg"},{"bike_id":"63623bba-b9df-4a8d-a5e5-77f3b604929c","system_id":"levelo_inurba_marseille","lat":43.30465,"lon":5.37913,"is_reserved":false,"is_disabled":false,"rental_uris":{"android":"levelo://app?vid=63623bba-b9df-4a8d-a5e5-77f3b604929c","ios":"levelo://app?vid=63623bba-b9df-4a8d-a5e5-77f3b604929c"},"vehicle_type_id":"4","last_reported":1742540975,"current_range_meters":15200,"station_id":"","pricing_plan_id":"cebpf4jnsgd1na2vs0mg"},{"bike_id":"295b2b96-8a22-4b6f-a45b-df5a7ed58969","system_id":"levelo_inurba_marseille","lat":43.33732,"lon":5.39176,"is_reserved":false,"is_disabled":false,"rental_uris":{"android":"levelo://app?vid=295b2b96-8a22-4b6f-a45b-df5a7ed58969","ios":"levelo://app?vid=295b2b96-8a22-4b6f-a45b-df5a7ed58969"},"vehicle_type_id":"4","last_reported":1742540975,"current_range_meters":16000,"station_id":"ce4bhr92rcd13ifvqhsg","pricing_plan_id":"cebpf4jnsgd1na2vs0mg"},{"bike_id":"b27c565b-0798-4129-b9a7-1c2eac3fa281","system_id":"levelo_inurba_marseille","lat":43.27495,"lon":5.42449,"is_reserved":false,"is_disabled":false,"rental_uris":{"android":"levelo://app?vid=b27c565b-0798-4129-b9a7-1c2eac3fa281","ios":"levelo://app?vid=b27c565b-0798-4129-b9a7-1c2eac3fa281"},"vehicle_type_id":"4","last_reported":1742540975,"current_range_meters":16000,"station_id":"ce4bhn92rcd13ifvqgrg","pricing_plan_id":"cebpf4jnsgd1na2vs0mg"},{"bike_id":"7cdd1ecb-8bf3-4a2b-a42a-de95891c89dc","system_id":"levelo_inurba_marseille","lat":43.23219,"lon":5.35533,"is_reserved":false,"is_disabled":false,"rental_uris":{"android":"levelo://app?vid=7cdd1ecb-8bf3-4a2b-a42a-de95891c89dc","ios":"levelo://app?vid=7cdd1ecb-8bf3-4a2b-a42a-de95891c89dc"},"vehicle_type_id":"4","last_reported":1742540975,"current_range_meters":16000,"station_id":"ce4bhu92rcd13ifvqi70","pricing_plan_id":"cebpf4jnsgd1na2vs0mg"},{"bike_id":"83ee902e-ca1a-4e47-a8af-2a0865a4d384","system_id":"levelo_inurba_marseille","lat":43.30931,"lon":5.36859,"is_reserved":false,"is_disabled":false,"rental_uris":{"android":"levelo://app?vid=83ee902e-ca1a-4e47-a8af-2a0865a4d384","ios":"levelo://app?vid=83ee902e-ca1a-4e47-a8af-2a0865a4d384"},"vehicle_type_id":"4","last_reported":1742540975,"current_range_meters":16000,"station_id":"ce4bgn92rcd13ifvqbvg","pricing_plan_id":"cebpf4jnsgd1na2vs0mg"},{"bike_id":"758d6121-2739-47f8-baa5-39507cb03d50","system_id":"levelo_inurba_marseille","lat":43.31525,"lon":5.37344,"is_reserved":false,"is_disabled":false,"rental_uris":{"android":"levelo://app?vid=758d6121-2739-47f8-baa5-39507cb03d50","ios":"levelo://app?vid=758d6121-2739-47f8-baa5-39507cb03d50"},"vehicle_type_id":"4","last_reported":1742540975,"current_range_meters":16000,"station_id":"","pricing_plan_id":"cebpf4jnsgd1na2vs0mg"},{"bike_id":"6c2d259d-cc39-462c-94d1-46efd2f019c7","system_id":"levelo_inurba_marseille","lat":43.29019,"lon":5.38136,"is_reserved":false,"is_disabled":false,"rental_uris":{"android":"levelo://app?vid=6c2d259d-cc39-462c-94d1-46efd2f019c7","ios":"levelo://app?vid=6c2d259d-cc39-462c-94d1-46efd2f019c7"},"vehicle_type_id":"4","last_reported":1742540975,"current_range_meters":16000,"station_id":"ce4bh4p2rcd13ifvqe1g","pricing_plan_id":"cebpf4jnsgd1na2vs0mg"},{"bike_id":"8cb4b404-5e7a-42bc-b5e0-e683fc595020","system_id":"levelo_inurba_marseille","lat":43.29579,"lon":5.36734,"is_reserved":false,"is_disabled":false,"rental_uris":{"android":"levelo://app?vid=8cb4b404-5e7a-42bc-b5e0-e683fc595020","ios":"levelo://app?vid=8cb4b404-5e7a-42bc-b5e0-e683fc595020"},"vehicle_type_id":"4","last_reported":1742540975,"current_range_meters":16000,"station_id":"ce4bgph2rcd13ifvqc2g","pricing_plan_id":"cebpf4jnsgd1na2vs0mg"},{"bike_id":"23244345-4a28-4de8-bbbe-a514eaf3e03c","system_id":"levelo_inurba_marseille","lat":43.231894,"lon":5.35554,"is_reserved":false,"is_disabled":false,"rental_uris":{"android":"levelo://app?vid=23244345-4a28-4de8-bbbe-a514eaf3e03c","ios":"levelo://app?vid=23244345-4a28-4de8-bbbe-a514eaf3e03c"},"vehicle_type_id":"4","last_reported":1742540975,"current_range_meters":16000,"station_id":"ce4bhu92rcd13ifvqi70","pricing_plan_id":"cebpf4jnsgd1na2vs0mg"},{"bike_id":"f1c1254d-d9d6-4485-8910-4ae2a7c84bc0","system_id":"levelo_inurba_marseille","lat":43.23187,"lon":5.3998,"is_reserved":false,"is_disabled":false,"rental_uris":{"android":"levelo://app?vid=f1c1254d-d9d6-4485-8910-4ae2a7c84bc0","ios":"levelo://app?vid=f1c1254d-d9d6-4485-8910-4ae2a7c84bc0"},"vehicle_type_id":"4","last_reported":1742540975,"current_range_meters":16000,"station_id":"ce4bhn12rcd13ifvqgqg","pricing_plan_id":"cebpf4jnsgd1na2vs0mg"},{"bike_id":"0a202c2b-9cf7-4674-bd24-0ef28929a884","system_id":"levelo_inurba_marseille","lat":43.27989,"lon":5.41667,"is_reserved":false,"is_disabled":false,"rental_uris":{"android":"levelo://app?vid=0a202c2b-9cf7-4674-bd24-0ef28929a884","ios":"levelo://app?vid=0a202c2b-9cf7-4674-bd24-0ef28929a884"},"vehicle_type_id":"4","last_reported":1742540975,"current_range_meters":16000,"station_id":"ce4bho12rcd13ifvqh1g","pricing_plan_id":"cebpf4jnsgd1na2vs0mg"},{"bike_id":"0f8c039e-c3f2-416c-a4af-b6ba21960b93","system_id":"levelo_inurba_marseille","lat":43.29781,"lon":5.39344,"is_reserved":false,"is_disabled":true,"rental_uris":{"android":"levelo://app?vid=0f8c039e-c3f2-416c-a4af-b6ba21960b93","ios":"levelo://app?vid=0f8c039e-c3f2-416c-a4af-b6ba21960b93"},"vehicle_type_id":"4","last_reported":1742540975,"current_range_meters":16400,"station_id":"chh1huq6cuj3fo74tm60","pricing_plan_id":"cebpf4jnsgd1na2vs0mg"},{"bike_id":"8d02b3d5-ca05-46db-89dd-234a28942a11","system_id":"levelo_inurba_marseille","lat":43.30462,"lon":5.37912,"is_reserved":false,"is_disabled":false,"rental_uris":{"android":"levelo://app?vid=8d02b3d5-ca05-46db-89dd-234a28942a11","ios":"levelo://app?vid=8d02b3d5-ca05-46db-89dd-234a28942a11"},"vehicle_type_id":"4","last_reported":1742540975,"current_range_meters":16400,"station_id":"ce4bgup2rcd13ifvqcn0","pricing_plan_id":"cebpf4jnsgd1na2vs0mg"},{"bike_id":"27370c4f-6644-4fae-a290-ff6e5f4fe8b8","system_id":"levelo_inurba_marseille","lat":43.2418,"lon":5.39725,"is_reserved":false,"is_disabled":false,"rental_uris":{"android":"levelo://app?vid=27370c4f-6644-4fae-a290-ff6e5f4fe8b8","ios":"levelo://app?vid=27370c4f-6644-4fae-a290-ff6e5f4fe8b8"},"vehicle_type_id":"4","last_reported":1742540975,"current_range_meters":16400,"station_id":"ce4bhn12rcd13ifvqgpg","pricing_plan_id":"cebpf4jnsgd1na2vs0mg"},{"bike_id":"c74601ad-d75a-42d9-87c7-02a643915d81","system_id":"levelo_inurba_marseille","lat":43.25693,"lon":5.41133,"is_reserved":false,"is_disabled":false,"rental_uris":{"android":"levelo://app?vid=c74601ad-d75a-42d9-87c7-02a643915d81","ios":"levelo://app?vid=c74601ad-d75a-42d9-87c7-02a643915d81"},"vehicle_type_id":"4","last_reported":1742540975,"current_range_meters":16400,"station_id":"ce4bhkp2rcd13ifvqgd0","pricing_plan_id":"cebpf4jnsgd1na2vs0mg"},{"bike_id":"29fc05d7-378e-46df-94b4-058e1ab8bf70","system_id":"levelo_inurba_marseille","lat":43.305858,"lon":5.372299,"is_reserved":false,"is_disabled":false,"rental_uris":{"android":"levelo://app?vid=29fc05d7-378e-46df-94b4-058e1ab8bf70","ios":"levelo://app?vid=29fc05d7-378e-46df-94b4-058e1ab8bf70"},"vehicle_type_id":"4","last_reported":1742540975,"current_range_meters":16400,"station_id":"ce4bgqh2rcd13ifvqc4g","pricing_plan_id":"cebpf4jnsgd1na2vs0mg"},{"bike_id":"c2e83226-9eac-42ab-a096-f2b99303ffdf","system_id":"levelo_inurba_marseille","lat":43.26787,"lon":5.39447,"is_reserved":false,"is_disabled":true,"rental_uris":{"android":"levelo://app?vid=c2e83226-9eac-42ab-a096-f2b99303ffdf","ios":"levelo://app?vid=c2e83226-9eac-42ab-a096-f2b99303ffdf"},"vehicle_type_id":"4","last_reported":1742540975,"current_range_meters":16400,"station_id":"ce4bhh12rcd13ifvqfg0","pricing_plan_id":"cebpf4jnsgd1na2vs0mg"},{"bike_id":"3803bc20-72dd-45cf-8533-5170aca8531b","system_id":"levelo_inurba_marseille","lat":43.33721,"lon":5.39224,"is_reserved":false,"is_disabled":false,"rental_uris":{"android":"levelo://app?vid=3803bc20-72dd-45cf-8533-5170aca8531b","ios":"levelo://app?vid=3803bc20-72dd-45cf-8533-5170aca8531b"},"vehicle_type_id":"4","last_reported":1742540975,"current_range_meters":16400,"station_id":"ce4bhr92rcd13ifvqhsg","pricing_plan_id":"cebpf4jnsgd1na2vs0mg"},{"bike_id":"61209007-b715-4d6f-84a9-e2947f6256e3","system_id":"levelo_inurba_marseille","lat":43.28354,"lon":5.38111,"is_reserved":false,"is_disabled":false,"rental_uris":{"android":"levelo://app?vid=61209007-b715-4d6f-84a9-e2947f6256e3","ios":"levelo://app?vid=61209007-b715-4d6f-84a9-e2947f6256e3"},"vehicle_type_id":"4","last_reported":1742540975,"current_range_meters":16400,"station_id":"ce4bh412rcd13ifvqdr0","pricing_plan_id":"cebpf4jnsgd1na2vs0mg"},{"bike_id":"9683555e-fe04-4de7-b706-7a9b0019a6a7","system_id":"levelo_inurba_marseille","lat":43.33753,"lon":5.37495,"is_reserved":false,"is_disabled":false,"rental_uris":{"android":"levelo://app?vid=9683555e-fe04-4de7-b706-7a9b0019a6a7","ios":"levelo://app?vid=9683555e-fe04-4de7-b706-7a9b0019a6a7"},"vehicle_type_id":"4","last_reported":1742540975,"current_range_meters":16400,"station_id":"ce4bh2h2rcd13ifvqdh0","pricing_plan_id":"cebpf4jnsgd1na2vs0mg"},{"bike_id":"37594dc6-7b7b-443e-be1d-af6d9708c1db","system_id":"levelo_inurba_marseille","lat":43.29916,"lon":5.38135,"is_reserved":false,"is_disabled":false,"rental_uris":{"android":"levelo://app?vid=37594dc6-7b7b-443e-be1d-af6d9708c1db","ios":"levelo://app?vid=37594dc6-7b7b-443e-be1d-af6d9708c1db"},"vehicle_type_id":"4","last_reported":1742540975,"current_range_meters":16400,"station_id":"ce4bgj12rcd13ifvqbc0","pricing_plan_id":"cebpf4jnsgd1na2vs0mg"},{"bike_id":"4dfe19bd-5cb1-4207-b875-1d4c3f7ae04d","system_id":"levelo_inurba_marseille","lat":43.24068,"lon":5.37769,"is_reserved":false,"is_disabled":false,"rental_uris":{"android":"levelo://app?vid=4dfe19bd-5cb1-4207-b875-1d4c3f7ae04d","ios":"levelo://app?vid=4dfe19bd-5cb1-4207-b875-1d4c3f7ae04d"},"vehicle_type_id":"4","last_reported":1742540975,"current_range_meters":16400,"station_id":"ce4bhnp2rcd13ifvqgvg","pricing_plan_id":"cebpf4jnsgd1na2vs0mg"},{"bike_id":"f1ecda2a-13a0-4b22-a2db-19b5346de8e3","system_id":"levelo_inurba_marseille","lat":43.32462,"lon":5.36584,"is_reserved":false,"is_disabled":false,"rental_uris":{"android":"levelo://app?vid=f1ecda2a-13a0-4b22-a2db-19b5346de8e3","ios":"levelo://app?vid=f1ecda2a-13a0-4b22-a2db-19b5346de8e3"},"vehicle_type_id":"4","last_reported":1742540975,"current_range_meters":16400,"station_id":"ce4bhs12rcd13ifvqhvg","pricing_plan_id":"cebpf4jnsgd1na2vs0mg"},{"bike_id":"228141fb-0eb9-4309-9a34-b7e5508d04ad","system_id":"levelo_inurba_marseille","lat":43.311107,"lon":5.383973,"is_reserved":false,"is_disabled":false,"rental_uris":{"android":"levelo://app?vid=228141fb-0eb9-4309-9a34-b7e5508d04ad","ios":"levelo://app?vid=228141fb-0eb9-4309-9a34-b7e5508d04ad"},"vehicle_type_id":"4","last_reported":1742540975,"current_range_meters":16400,"station_id":"ce4bh412rcd13ifvqdr0","pricing_plan_id":"cebpf4jnsgd1na2vs0mg"},