{"last_updated":1752214640,"ttl":60,"version":"2.2","data":{"bikes":[{"bike_id":"159fe00e-1605-4a3a-a906-ef8dcd52b1db","system_id":"levelo_inurba_marseille","lat":43.30862,"lon":5.37345,"is_reserved":false,"is_disabled":false,"rental_uris":{"android":"levelo://app?vid=159fe00e-1605-4a3a-a906-ef8dcd52b1db","ios":"levelo://app?vid=159fe00e-1605-4a3a-a906-ef8dcd52b1db"},"vehicle_type_id":"4","last_reported":1752214640,"current_range_meters":2800,"station_id":"","pricing_plan_id":"cebpf4jnsgd1na2vs0mg"},{"bike_id":"52095bda-1811-42c1-839c-69dcf40cb112","system_id":"levelo_inurba_marseille","lat":43.30598,"lon":5.39362,"is_reserved":false,"is_disabled":false,"rental_uris":{"android":"levelo://app?vid=52095bda-1811-42c1-839c-69dcf40cb112","ios":"levelo://app?vid=52095bda-1811-42c1-839c-69dcf40cb112"},"vehicle_type_id":"4","last_reported":1752214640,"current_range_meters":3200,"station_id":"ce4bh0p2rcd13ifvqd80","pricing_plan_id":"cebpf4jnsgd1na2vs0mg"},{"bike_id":"ec4ab4bc-9875-4b0f-8000-a698aff90c89","system_id":"levelo_inurba_marseille","lat":43.29297,"lon":5.4011,"is_reserved":false,"is_disabled":false,"rental_uris":{"android":"levelo://app?vid=ec4ab4bc-9875-4b0f-8000-a698aff90c89","ios":"levelo://app?vid=ec4ab4bc-9875-4b0f-8000-a698aff90c89"},"vehicle_type_id":"4","last_reported":1752214640,"current_range_meters":3200,"station_id":"ce4bh312rcd13ifvqdk0","pricing_plan_id":"cebpf4jnsgd1na2vs0mg"},{"bike_id":"92600b69-2fb5-4bbe-ad2e-f93e21c08c88","system_id":"levelo_inurba_marseille","lat":43.30531,"lon":5.36717,"is_reserved":false,"is_disabled":false,"rental_uris":{"android":"levelo://app?vid=92600b69-2fb5-4bbe-ad2e-f93e21c08c88","ios":"levelo://app?vid=92600b69-2fb5-4bbe-ad2e-f93e21c08c88"},"vehicle_type_id":"4","last_reported":1752214640,"current_range_meters":3600,"station_id":"ce4bgrp2rcd13ifvqc9g","pricing_plan_id":"cebpf4jnsgd1na2vs0mg"},{"bike_id":"864830cd-471c-4ae8-8ff1-495934107509","system_id":"levelo_inurba_marseille","lat":43.31896,"lon":5.40735,"is_reserved":false,"is_disabled":true,"rental_uris":{"android":"levelo://app?vid=864830cd-471c-4ae8-8ff1-495934107509","ios":"levelo://app?vid=864830cd-471c-4ae8-8ff1-495934107509"},"vehicle_type_id":"4","last_reported":1752214640,"current_range_meters":3600,"station_id":"ce4bhq12rcd13ifvqhig","pricing_plan_id":"cebpf4jnsgd1na2vs0mg"},{"bike_id":"8cbe0e8f-8727-4c79-8a57-25bcc1096fac","system_id":"levelo_inurba_marseille","lat":43.24191,"lon":5.39753,"is_reserved":false,"is_disabled":false,"rental_uris":{"android":"levelo://app?vid=8cbe0e8f-8727-4c79-8a57-25bcc1096fac","ios":"levelo://app?vid=8cbe0e8f-8727-4c79-8a57-25bcc1096fac"},"vehicle_type_id":"4","last_reported":1752214640,"current_range_meters":4000,"station_id":"ce4bhn12rcd13ifvqgpg","pricing_plan_id":"cebpf4jnsgd1na2vs0mg"},{"bike_id":"207f2105-537f-4f38-9ae1-9ec3a6429f82","system_id":"levelo_inurba_marseille","lat":43.30145,"lon":5.38099,"is_reserved":false,"is_disabled":false,"rental_uris":{"android":"levelo://app?vid=207f2105-537f-4f38-9ae1-9ec3a6429f82","ios":"levelo://app?vid=207f2105-537f-4f38-9ae1-9ec3a6429f82"},"vehicle_type_id":"4","last_reported":1752214640,"current_range_meters":4400,"station_id":"ce4bgjp2rcd13ifvqbh0","pricing_plan_id":"cebpf4jnsgd1na2vs0mg"},{"bike_id":"eafc038e-feaf-4fe9-b765-5f7700c48ba6","system_id":"levelo_inurba_marseille","lat":43.2847,"lon":5.38563,"is_reserved":false,"is_disabled":false,"rental_uris":{"android":"levelo://app?vid=eafc038e-feaf-4fe9-b765-5f7700c48ba6","ios":"levelo://app?vid=eafc038e-feaf-4fe9-b765-5f7700c48ba6"},"vehicle_type_id":"4","last_reported":1752214640,"current_range_meters":4400,"station_id":"ce4bh8p2rcd13ifvqeb0","pricing_plan_id":"cebpf4jnsgd1na2vs0mg"},{"bike_id":"b8d6bf6b-ecbb-4c40-8ce7-0169ef070b49","system_id":"levelo_inurba_marseille","lat":43.29586,"lon":5.37398,"is_reserved":false,"is_disabled":false,"rental_uris":{"android":"levelo://app?vid=b8d6bf6b-ecbb-4c40-8ce7-0169ef070b49","ios":"levelo://app?vid=b8d6bf6b-ecbb-4c40-8ce7-0169ef070b49"},"vehicle_type_id":"4","last_reported":1752214640,"current_range_meters":4800,"station_id":"","pricing_plan_id":"cebpf4jnsgd1na2vs0mg"},{"bike_id":"f8850064-2102-4305-b524-c3781d9e22a1","system_id":"levelo_inurba_marseille","lat":43.288597,"lon":5.384531,"is_reserved":false,"is_disabled":false,"rental_uris":{"android":"levelo://app?vid=f8850064-2102-4305-b524-c3781d9e22a1","ios":"levelo://app?vid=f8850064-2102-4305-b524-c3781d9e22a1"},"vehicle_type_id":"4","last_reported":1752214640,"current_range_meters":4800,"station_id":"","pricing_plan_id":"cebpf4jnsgd1na2vs0mg"},{"bike_id":"272a3601-553f-49c9-8b3d-322dd30fbb6e","system_id":"levelo_inurba_marseille","lat":43.27315,"lon":5.39082,"is_reserved":false,"is_disabled":false,"rental_uris":{"android":"levelo://app?vid=272a3601-553f-49c9-8b3d-322dd30fbb6e","ios":"levelo://app?vid=272a3601-553f-49c9-8b3d-322dd30fbb6e"},"vehicle_type_id":"4","last_reported":1752214640,"current_range_meters":4800,"station_id":"ce4bhgp2rcd13ifvqfe0","pricing_plan_id":"cebpf4jnsgd1na2vs0mg"},{"bike_id":"95a2ace8-4a75-4b1b-965a-ef2fcc0aa09f","system_id":"levelo_inurba_marseille","lat":43.25117,"lon":5.40322,"is_reserved":false,"is_disabled":false,"rental_uris":{"android":"levelo://app?vid=95a2ace8-4a75-4b1b-965a-ef2fcc0aa09f","ios":"levelo://app?vid=95a2ace8-4a75-4b1b-965a-ef2fcc0aa09f"},"vehicle_type_id":"4","last_reported":1752214640,"current_range_meters":5600,"station_id":"ce4bhlh2rcd13ifvqgig","pricing_plan_id":"cebpf4jnsgd1na2vs0mg"},{"bike_id":"2bd2509c-8e69-46fb-904c-1c65a6340b60","system_id":"levelo_inurba_marseille","lat":43.21747,"lon":5.34635,"is_reserved":false,"is_disabled":false,"rental_uris":{"android":"levelo://app?vid=2bd2509c-8e69-46fb-904c-1c65a6340b60","ios":"levelo://app?vid=2bd2509c-8e69-46fb-904c-1c65a6340b60"},"vehicle_type_id":"4","last_reported":1752214640,"current_range_meters":6000,"station_id":"st_cvj6r9ubvosntc0bgbag","pricing_plan_id":"cebpf4jnsgd1na2vs0mg"},{"bike_id":"ba480b1d-fbef-4d54-9bb0-c2fa8b787212","system_id":"levelo_inurba_marseille","lat":43.21193,"lon":5.35067,"is_reserved":false,"is_disabled":false,"rental_uris":{"android":"levelo://app?vid=ba480b1d-fbef-4d54-9bb0-c2fa8b787212","ios":"levelo://app?vid=ba480b1d-fbef-4d54-9bb0-c2fa8b787212"},"vehicle_type_id":"4","last_reported":1752214640,"current_range_meters":6400,"station_id":"st_cvj6sg6p6f1abm77japg","pricing_plan_id":"cebpf4jnsgd1na2vs0mg"},{"bike_id":"526dc334-b67f-420b-913d-085337838b95","system_id":"levelo_inurba_marseille","lat":43.33719,"lon":5.39187,"is_reserved":false,"is_disabled":false,"rental_uris":{"android":"levelo://app?vid=526dc334-b67f-420b-913d-085337838b95","ios":"levelo://app?vid=526dc334-b67f-420b-913d-085337838b95"},"vehicle_type_id":"4","last_reported":1752214640,"current_range_meters":6400,"station_id":"ce4bhr92rcd13ifvqhsg","pricing_plan_id":"cebpf4jnsgd1na2vs0mg"},{"bike_id":"18a3cb15-d329-450f-b9ad-69f534daf986","system_id":"levelo_inurba_marseille","lat":43.28607,"lon":5.37062,"is_reserved":false,"is_disabled":false,"rental_uris":{"android":"levelo://app?vid=18a3cb15-d329-450f-b9ad-69f534daf986","ios":"levelo://app?vid=18a3cb15-d329-450f-b9ad-69f534daf986"},"vehicle_type_id":"4","last_reported":1752214640,"current_range_meters":6400,"station_id":"ce4bht12rcd13ifvqi60","pricing_plan_id":"cebpf4jnsgd1na2vs0mg"},{"bike_id":"3108e78c-759c-4d11-b361-5abb833e983c","system_id":"levelo_inurba_marseille","lat":43.28866,"lon":5.39417,"is_reserved":false,"is_disabled":false,"rental_uris":{"android":"levelo://app?vid=3108e78c-759c-4d11-b361-5abb833e983c","ios":"levelo://app?vid=3108e78c-759c-4d11-b361-5abb833e983c"},"vehicle_type_id":"4","last_reported":1752214640,"current_range_meters":6800,"station_id":"","pricing_plan_id":"cebpf4jnsgd1na2vs0mg"},{"bike_id":"c9ec8264-b1f7-41db-a127-5dfa02fc980f","system_id":"levelo_inurba_marseille","lat":43.3157,"lon":5.40174,"is_reserved":false,"is_disabled":false,"rental_uris":{"android":"levelo://app?vid=c9ec8264-b1f7-41db-a127-5dfa02fc980f","ios":"levelo://app?vid=c9ec8264-b1f7-41db-a127-5dfa02fc980f"},"vehicle_type_id":"4","last_reported":1752214640,"current_range_meters":6800,"station_id":"","pricing_plan_id":"cebpf4jnsgd1na2vs0mg"},{"bike_id":"d0c2ba9c-6dd8-445b-98ac-5fa250014856","system_id":"levelo_inurba_marseille","lat":43.28611,"lon":5.37061,"is_reserved":false,"is_disabled":false,"rental_uris":{"android":"levelo://app?vid=d0c2ba9c-6dd8-445b-98ac-5fa250014856","ios":"levelo://app?vid=d0c2ba9c-6dd8-445b-98ac-5fa250014856"},"vehicle_type_id":"4","last_reported":1752214640,"current_range_meters":6400,"station_id":"ce4bht12rcd13ifvqi60","pricing_plan_id":"cebpf4jnsgd1na2vs0mg"},{"bike_id":"56d4fdaf-ae4c-4003-8a74-738d4b9be60f","system_id":"levelo_inurba_marseille","lat":43.28709,"lon":5.40017,"is_reserved":false,"is_disabled":true,"rental_uris":{"android":"levelo://app?vid=56d4fdaf-ae4c-4003-8a74-738d4b9be60f","ios":"levelo://app?vid=56d4fdaf-ae4c-4003-8a74-738d4b9be60f"},"vehicle_type_id":"4","last_reported":1752214640,"current_range_meters":7200,"station_id":"ce4bho92rcd13ifvqh3g","pricing_plan_id":"cebpf4jnsgd1na2vs0mg"},{"bike_id":"6e5c2657-ccb8-4153-8b94-2143bc427a03","system_id":"levelo_inurba_marseille","lat":43.22498,"lon":5.3477,"is_reserved":false,"is_disabled":false,"rental_uris":{"android":"levelo://app?vid=6e5c2657-ccb8-4153-8b94-2143bc427a03","ios":"levelo://app?vid=6e5c2657-ccb8-4153-8b94-2143bc427a03"},"vehicle_type_id":"4","last_reported":1752214640,"current_range_meters":7200,"station_id":"st_cvj5dfep6f1abm77gieg","pricing_plan_id":"cebpf4jnsgd1na2vs0mg"},{"bike_id":"2a3b510a-2dd9-48bf-9477-dc291faf8f79","system_id":"levelo_inurba_marseille","lat":43.28724,"lon":5.40008,"is_reserved":false,"is_disabled":false,"rental_uris":{"android":"levelo://app?vid=2a3b510a-2dd9-48bf-9477-dc291faf8f79","ios":"levelo://app?vid=2a3b510a-2dd9-48bf-9477-dc291faf8f79"},"vehicle_type_id":"4","last_reported":1752214640,"current_range_meters":7200,"station_id":"ce4bho92rcd13ifvqh3g","pricing_plan_id":"cebpf4jnsgd1na2vs0mg"},{"bike_id":"21ae54b9-7375-4101-b8a7-bff9d6e1fa32","system_id":"levelo_inurba_marseille","lat":43.30003,"lon":5.37583,"is_reserved":false,"is_disabled":false,"rental_uris":{"android":"levelo://app?vid=21ae54b9-7375-4101-b8a7-bff9d6e1fa32","ios":"levelo://app?vid=21ae54b9-7375-4101-b8a7-bff9d6e1fa32"},"vehicle_type_id":"4","last_reported":1752214640,"current_range_meters":8000,"station_id":"","pricing_plan_id":"cebpf4jnsgd1na2vs0mg"},{"bike_id":"13d6e247-795f-44d9-bafe-31cbd3d5d525","system_id":"levelo_inurba_marseille","lat":43.26558,"lon":5.37284,"is_reserved":false,"is_disabled":false,"rental_uris":{"android":"levelo://app?vid=13d6e247-795f-44d9-bafe-31cbd3d5d525","ios":"levelo://app?vid=13d6e247-795f-44d9-bafe-31cbd3d5d525"},"vehicle_type_id":"4","last_reported":1752214640,"current_range_meters":8000,"station_id":"ce4bhg12rcd13ifvqf70","pricing_plan_id":"cebpf4jnsgd1na2vs0mg"},{"bike_id":"b2caa530-bb19-4cc6-a6bd-61e3e1d7432e","system_id":"levelo_inurba_marseille","lat":43.33763,"lon":5.37461,"is_reserved":false,"is_disabled":false,"rental_uris":{"android":"levelo://app?vid=b2caa530-bb19-4cc6-a6bd-61e3e1d7432e","ios":"levelo://app?vid=b2caa530-bb19-4cc6-a6bd-61e3e1d7432e"},"vehicle_type_id":"4","last_reported":1752214640,"current_range_meters":8000,"station_id":"","pricing_plan_id":"cebpf4jnsgd1na2vs0mg"},{"bike_id":"8e3258b7-090e-494d-bf87-dc77e065cdb5","system_id":"levelo_inurba_marseille","lat":43.324794,"lon":5.365674,"is_reserved":false,"is_disabled":false,"rental_uris":{"android":"levelo://app?vid=8e3258b7-090e-494d-bf87-dc77e065cdb5","ios":"levelo://app?vid=8e3258b7-090e-494d-bf87-dc77e065cdb5"},"vehicle_type_id":"4","last_reported":1752214640,"current_range_meters":8000,"station_id":"ce4bhs12rcd13ifvqhvg","pricing_plan_id":"cebpf4jnsgd1na2vs0mg"},{"bike_id":"b757ffbb-2b71-4330-9f60-5f8a9d46d16e","system_id":"levelo_inurba_marseille","lat":43.29651,"lon":5.37129,"is_reserved":false,"is_disabled":false,"rental_uris":{"android":"levelo://app?vid=b757ffbb-2b71-4330-9f60-5f8a9d46d16e","ios":"levelo://app?vid=b757ffbb-2b71-4330-9f60-5f8a9d46d16e"},"vehicle_type_id":"4","last_reported":1752214640,"current_range_meters":8400,"station_id":"ce4bgnh2rcd13ifvqc0g","pricing_plan_id":"cebpf4jnsgd1na2vs0mg"},{"bike_id":"311503ae-4643-4dd6-97a0-450f82109f95","system_id":"levelo_inurba_marseille","lat":43.28634,"lon":5.36427,"is_reserved":false,"is_disabled":false,"rental_uris":{"android":"levelo://app?vid=311503ae-4643-4dd6-97a0-450f82109f95","ios":"levelo://app?vid=311503ae-4643-4dd6-97a0-450f82109f95"},"vehicle_type_id":"4","last_reported":1752214640,"current_range_meters":8400,"station_id":"","pricing_plan_id":"cebpf4jnsgd1na2vs0mg"},{"bike_id":"7c62ad67-1ca5-47af-a06f-570a871bd8d2","system_id":"levelo_inurba_marseille","lat":43.298776,"lon":5.397372,"is_reserved":false,"is_disabled":false,"rental_uris":{"android":"levelo://app?vid=7c62ad67-1ca5-47af-a06f-570a871bd8d2","ios":"levelo://app?vid=7c62ad67-1ca5-47af-a06f-570a871bd8d2"},"vehicle_type_id":"4","last_reported":1752214640,"current_range_meters":8800,"station_id":"ce4bh0h2rcd13ifvqd50","pricing_plan_id":"cebpf4jnsgd1na2vs0mg"},{"bike_id":"833f97ec-e704-4051-ab3b-2e9eb58f71d0","system_id":"levelo_inurba_marseille","lat":43.30262,"lon":5.37583,"is_reserved":false,"is_disabled":false,"rental_uris":{"android":"levelo://app?vid=833f97ec-e704-4051-ab3b-2e9eb58f71d0","ios":"levelo://app?vid=833f97ec-e704-4051-ab3b-2e9eb58f71d0"},"vehicle_type_id":"4","last_reported":1752214640,"current_range_meters":8800,"station_id":"","pricing_plan_id":"cebpf4jnsgd1na2vs0mg"},{"bike_id":"292a7bbd-04a1-45b6-b833-4f27a695e5d3","system_id":"levelo_inurba_marseille","lat":43.28687,"lon":5.39994,"is_reserved":false,"is_disabled":false,"rental_uris":{"android":"levelo://app?vid=292a7bbd-04a1-45b6-b833-4f27a695e5d3","ios":"levelo://app?vid=292a7bbd-04a1-45b6-b833-4f27a695e5d3"},"vehicle_type_id":"4","last_reported":1752214640,"current_range_meters":9200,"station_id":"ce4bho92rcd13ifvqh3g","pricing_plan_id":"cebpf4jnsgd1na2vs0mg"},{"bike_id":"50fb9811-853c-47c4-a8a5-c155ef348b22","system_id":"levelo_inurba_marseille","lat":43.26783,"lon":5.39421,"is_reserved":false,"is_disabled":false,"rental_uris":{"android":"levelo://app?vid=50fb9811-853c-47c4-a8a5-c155ef348b22","ios":"levelo://app?vid=50fb9811-853c-47c4-a8a5-c155ef348b22"},"vehicle_type_id":"4","last_reported":1752214640,"current_range_meters":8800,"station_id":"ce4bhh12rcd13ifvqfg0","pricing_plan_id":"cebpf4jnsgd1na2vs0mg"},{"bike_id":"a697cf44-a091-426c-8859-336458356474","system_id":"levelo_inurba_marseille","lat":43.29242,"lon":5.40155,"is_reserved":false,"is_disabled":false,"rental_uris":{"android":"levelo://app?vid=a697cf44-a091-426c-8859-336458356474","ios":"levelo://app?vid=a697cf44-a091-426c-8859-336458356474"},"vehicle_type_id":"4","last_reported":1752214640,"current_range_meters":9600,"station_id":"ce4bh312rcd13ifvqdk0","pricing_plan_id":"cebpf4jnsgd1na2vs0mg"},{"bike_id":"92b21758-9711-46e9-b785-20d1c61b8b2e","system_id":"levelo_inurba_marseille","lat":43.296162,"lon":5.376945,"is_reserved":false,"is_disabled":true,"rental_uris":{"android":"levelo://app?vid=92b21758-9711-46e9-b785-20d1c61b8b2e","ios":"levelo://app?vid=92b21758-9711-46e9-b785-20d1c61b8b2e"},"vehicle_type_id":"4","last_reported":1752214640,"current_range_meters":9600,"station_id":"","pricing_plan_id":"cebpf4jnsgd1na2vs0mg"},{"bike_id":"eab7127a-2d0e-409a-b2f8-d3808d090eb9","system_id":"levelo_inurba_marseille","lat":43.33607,"lon":5.40996,"is_reserved":false,"is_disabled":false,"rental_uris":{"android":"levelo://app?vid=eab7127a-2d0e-409a-b2f8-d3808d090eb9","ios":"levelo://app?vid=eab7127a-2d0e-409a-b2f8-d3808d090eb9"},"vehicle_type_id":"4","last_reported":1752214640,"current_range_meters":9600,"station_id":"ce4bhqh2rcd13ifvqhmg","pricing_plan_id":"cebpf4jnsgd1na2vs0mg"},{"bike_id":"892867f7-e98d-42c5-a738-2883935fb499","system_id":"levelo_inurba_marseille","lat":43.28713,"lon":5.39991,"is_reserved":false,"is_disabled":false,"rental_uris":{"android":"levelo://app?vid=892867f7-e98d-42c5-a738-2883935fb499","ios":"levelo://app?vid=892867f7-e98d-42c5-a738-2883935fb499"},"vehicle_type_id":"4","last_reported":1752214640,"current_range_meters":9600,"station_id":"ce4bho92rcd13ifvqh3g","pricing_plan_id":"cebpf4jnsgd1na2vs0mg"},{"bike_id":"d4fef870-f3df-418c-b45a-632453acc9ad","system_id":"levelo_inurba_marseille","lat":43.22535,"lon":5.34777,"is_reserved":false,"is_disabled":false,"rental_uris":{"android":"levelo://app?vid=d4fef870-f3df-418c-b45a-632453acc9ad","ios":"levelo://app?vid=d4fef870-f3df-418c-b45a-632453acc9ad"},"vehicle_type_id":"4","last_reported":1752214640,"current_range_meters":9600,"station_id":"st_cvj5dfep6f1abm77gieg","pricing_plan_id":"cebpf4jnsgd1na2vs0mg"},{"bike_id":"e204274b-73ad-4c6f-862d-8af730ce2e2b","system_id":"levelo_inurba_marseille","lat":43.295558,"lon":5.422805,"is_reserved":false,"is_disabled":false,"rental_uris":{"android":"levelo://app?vid=e204274b-73ad-4c6f-862d-8af730ce2e2b","ios":"levelo://app?vid=e204274b-73ad-4c6f-862d-8af730ce2e2b"},"vehicle_type_id":"4","last_reported":1752214640,"current_range_meters":9600,"station_id":"ce4bhph2rcd13ifvqhdg","pricing_plan_id":"cebpf4jnsgd1na2vs0mg"},{"bike_id":"617e783f-a9d7-4849-ad46-77a5a2df45f2","system_id":"levelo_inurba_marseille","lat":43.29576,"lon":5.37523,"is_reserved":false,"is_disabled":false,"rental_uris":{"android":"levelo://app?vid=617e783f-a9d7-4849-ad46-77a5a2df45f2","ios":"levelo://app?vid=617e783f-a9d7-4849-ad46-77a5a2df45f2"},"vehicle_type_id":"4","last_reported":1752214640,"current_range_meters":10000,"station_id":"ce4bgh92rcd13ifvqb50","pricing_plan_id":"cebpf4jnsgd1na2vs0mg"},{"bike_id":"67af2fe7-f535-4afe-8f2e-b36dad8bb280","system_id":"levelo_inurba_marseille","lat":43.28482,"lon":5.38567,"is_reserved":false,"is_disabled":false,"rental_uris":{"android":"levelo://app?vid=67af2fe7-f535-4afe-8f2e-b36dad8bb280","ios":"levelo://app?vid=67af2fe7-f535-4afe-8f2e-b36dad8bb280"},"vehicle_type_id":"4","last_reported":1752214640,"current_range_meters":10000,"station_id":"ce4bh8p2rcd13ifvqeb0","pricing_plan_id":"cebpf4jnsgd1na2vs0mg"},{"bike_id":"9ba559f9-bf26-4b8e-8ce9-3c3bcae8f1ab","system_id":"levelo_inurba_marseille","lat":43.302527,"lon":5.40072,"is_reserved":false,"is_disabled":false,"rental_uris":{"android":"levelo://app?vid=9ba559f9-bf26-4b8e-8ce9-3c3bcae8f1ab","ios":"levelo://app?vid=9ba559f9-bf26-4b8e-8ce9-3c3bcae8f1ab"},"vehicle_type_id":"4","last_reported":1752214640,"current_range_meters":10000,"station_id":"ce4bgvh2rcd13ifvqcs0","pricing_plan_id":"cebpf4jnsgd1na2vs0mg"},{"bike_id":"917f0309-7507-4aea-ad1d-0e62f1075ddc","system_id":"levelo_inurba_marseille","lat":43.30156,"lon":5.38089,"is_reserved":false,"is_disabled":false,"rental_uris":{"android":"levelo://app?vid=917f0309-7507-4aea-ad1d-0e62f1075ddc","ios":"levelo://app?vid=917f0309-7507-4aea-ad1d-0e62f1075ddc"},"vehicle_type_id":"4","last_reported":1752214640,"current_range_meters":10000,"station_id":"ce4bgjp2rcd13ifvqbh0","pricing_plan_id":"cebpf4jnsgd1na2vs0mg"},{"bike_id":"feaa7e3a-cbe4-4489-be11-8a12d7eec173","system_id":"levelo_inurba_marseille","lat":43.251699,"lon":5.424989,"is_reserved":false,"is_disabled":true,"rental_uris":{"android":"levelo://app?vid=feaa7e3a-cbe4-4489-be11-8a12d7eec173","ios":"levelo://app?vid=feaa7e3a-cbe4-4489-be11-8a12d7eec173"},"vehicle_type_id":"4","last_reported":1752214640,"current_range_meters":10000,"station_id":"","pricing_plan_id":"cebpf4jnsgd1na2vs0mg"},{"bike_id":"aee6ff8e-4de0-4868-938c-577609723fbf","system_id":"levelo_inurba_marseille","lat":43.292584,"lon":5.36846,"is_reserved":false,"is_disabled":false,"rental_uris":{"android":"levelo://app?vid=aee6ff8e-4de0-4868-938c-577609723fbf","ios":"levelo://app?vid=aee6ff8e-4de0-4868-938c-577609723fbf"},"vehicle_type_id":"4","last_reported":1752214640,"current_range_meters":10000,"station_id":"","pricing_plan_id":"cebpf4jnsgd1na2vs0mg"},{"bike_id":"73fe94e8-74f9-41f0-85e9-7d8c52adf2fc","system_id":"levelo_inurba_marseille","lat":43.212604,"lon":5.352909,"is_reserved":false,"is_disabled":false,"rental_uris":{"android":"levelo://app?vid=73fe94e8-74f9-41f0-85e9-7d8c52adf2fc","ios":"levelo://app?vid=73fe94e8-74f9-41f0-85e9-7d8c52adf2fc"},"vehicle_type_id":"4","last_reported":1752214640,"current_range_meters":10800,"station_id":"","pricing_plan_id":"cebpf4jnsgd1na2vs0mg"},{"bike_id":"ddb9be4f-f3f8-43f9-aa75-a62ae12dac83","system_id":"levelo_inurba_marseille","lat":43.29036,"lon":5.39971,"is_reserved":false,"is_disabled":false,"rental_uris":{"android":"levelo://app?vid=ddb9be4f-f3f8-43f9-aa75-a62ae12dac83","ios":"levelo://app?vid=ddb9be4f-f3f8-43f9-aa75-a62ae12dac83"},"vehicle_type_id":"4","last_reported":1752214640,"current_range_meters":10800,"station_id":"ce4bh392rcd13ifvqdm0","pricing_plan_id":"cebpf4jnsgd1na2vs0mg"},{"bike_id":"6fa0df8f-9ff1-40c3-a15b-344b5a0d383b","system_id":"levelo_inurba_marseille","lat":43.32326,"lon":5.36723,"is_reserved":false,"is_disabled":false,"rental_uris":{"android":"levelo://app?vid=6fa0df8f-9ff1-40c3-a15b-344b5a0d383b","ios":"levelo://app?vid=6fa0df8f-9ff1-40c3-a15b-344b5a0d383b"},"vehicle_type_id":"4","last_reported":1752214640,"current_range_meters":10800,"station_id":"ce4bhsh2rcd13ifvqi2g","pricing_plan_id":"cebpf4jnsgd1na2vs0mg"},{"bike_id":"f373e4a8-33e3-4f72-ae8e-e7ab386910f4","system_id":"levelo_inurba_marseille","lat":43.22502,"lon":5.3477,"is_reserved":false,"is_disabled":false,"rental_uris":{"android":"levelo://app?vid=f373e4a8-33e3-4f72-ae8e-e7ab386910f4","ios":"levelo://app?vid=f373e4a8-33e3-4f72-ae8e-e7ab386910f4"},"vehicle_type_id":"4","last_reported":1752214640,"current_range_meters":10800,"station_id":"st_cvj5dfep6f1abm77gieg","pricing_plan_id":"cebpf4jnsgd1na2vs0mg"},{"bike_id":"ea7f713a-f8eb-4f16-8168-36d2161084e8","system_id":"levelo_inurba_marseille","lat":43.27891,"lon":5.39462,"is_reserved":false,"is_disabled":false,"rental_uris":{"android":"levelo://app?vid=ea7f713a-f8eb-4f16-8168-36d2161084e8","ios":"levelo://app?vid=ea7f713a-f8eb-4f16-8168-36d2161084e8"},"vehicle_type_id":"4","last_reported":1752214640,"current_range_meters":10800,"station_id":"","pricing_plan_id":"cebpf4jnsgd1na2vs0mg"},{"bike_id":"327c05a0-88d6-46d5-829f-37056c043786","system_id":"levelo_inurba_marseille","lat":43.301345,"lon":5.398796,"is_reserved":false,"is_disabled":true,"rental_uris":{"android":"levelo://app?vid=327c05a0-88d6-46d5-829f-37056c043786","ios":"levelo://app?vid=327c05a0-88d6-46d5-829f-37056c043786"},"vehicle_type_id":"4","last_reported":1752214640,"current_range_meters":10800,"station_id":"ce4bh0h2rcd13ifvqd40","pricing_plan_id":"cebpf4jnsgd1na2vs0mg"},{"bike_id":"7c2d071d-3793-47df-b931-9d1ad060c48c","system_id":"levelo_inurba_marseille","lat":43.29542,"lon":5.4227,"is_reserved":false,"is_disabled":false,"rental_uris":{"android":"levelo://app?vid=7c2d071d-3793-47df-b931-9d1ad060c48c","ios":"levelo://app?vid=7c2d071d-3793-47df-b931-9d1ad060c48c"},"vehicle_type_id":"4","last_reported":1752214640,"current_range_meters":10800,"station_id":"ce4bhph2rcd13ifvqhdg","pricing_plan_id":"cebpf4jnsgd1na2vs0mg"},{"bike_id":"95ed45be-0cbe-4ada-ab9b-3d6fe6e0c22e","system_id":"levelo_inurba_marseille","lat":43.27607,"lon":5.36108,"is_reserved":false,"is_disabled":true,"rental_uris":{"android":"levelo://app?vid=95ed45be-0cbe-4ada-ab9b-3d6fe6e0c22e","ios":"levelo://app?vid=95ed45be-0cbe-4ada-ab9b-3d6fe6e0c22e"},"vehicle_type_id":"4","last_reported":1752214640,"current_range_meters":10800,"station_id":"ce4bgj92rcd13ifvqbe0","pricing_plan_id":"cebpf4jnsgd1na2vs0mg"},{"bike_id":"e9b76731-5231-4660-9aec-8e72181f2310","system_id":"levelo_inurba_marseille","lat":43.29263,"lon":5.409397,"is_reserved":false,"is_disabled":false,"rental_uris":{"android":"levelo://app?vid=e9b76731-5231-4660-9aec-8e72181f2310","ios":"levelo://app?vid=e9b76731-5231-4660-9aec-8e72181f2310"},"vehicle_type_id":"4","last_reported":1752214640,"current_range_meters":10800,"station_id":"ce4bh192rcd13ifvqdc0","pricing_plan_id":"cebpf4jnsgd1na2vs0mg"},{"bike_id":"bca04ca1-6bb8-405a-b33b-f36688d1a725","system_id":"levelo_inurba_marseille","lat":43.28957,"lon":5.36404,"is_reserved":false,"is_disabled":false,"rental_uris":{"android":"levelo://app?vid=bca04ca1-6bb8-405a-b33b-f36688d1a725","ios":"levelo://app?vid=bca04ca1-6bb8-405a-b33b-f36688d1a725"},"vehicle_type_id":"4","last_reported":1752214640,"current_range_meters":11200,"station_id":"ce4bhc92rcd13ifvqetg","pricing_plan_id":"cebpf4jnsgd1na2vs0mg"},{"bike_id":"eca64889-4724-4f1b-8726-940d84846d38","system_id":"levelo_inurba_marseille","lat":43.26194,"lon":5.374481,"is_reserved":false,"is_disabled":true,"rental_uris":{"android":"levelo://app?vid=eca64889-4724-4f1b-8726-940d84846d38","ios":"levelo://app?vid=eca64889-4724-4f1b-8726-940d84846d38"},"vehicle_type_id":"4","last_reported":1752214640,"current_range_meters":11200,"station_id":"","pricing_plan_id":"cebpf4jnsgd1na2vs0mg"},{"bike_id":"10f8aea1-5630-4ba2-b8fe-754eb0dc72bb","system_id":"levelo_inurba_marseille","lat":43.32536,"lon":5.41482,"is_reserved":false,"is_disabled":false,"rental_uris":{"android":"levelo://app?vid=10f8aea1-5630-4ba2-b8fe-754eb0dc72bb","ios":"levelo://app?vid=10f8aea1-5630-4ba2-b8fe-754eb0dc72bb"},"vehicle_type_id":"4","last_reported":1752214640,"current_range_meters":11600,"station_id":"ce4bhq12rcd13ifvqhhg","pricing_plan_id":"cebpf4jnsgd1na2vs0mg"},{"bike_id":"ba3a3e1f-1ea1-46de-9149-79f9cac5b7f4","system_id":"levelo_inurba_marseille","lat":43.2848,"lon":5.38552,"is_reserved":false,"is_disabled":false,"rental_uris":{"android":"levelo://app?vid=ba3a3e1f-1ea1-46de-9149-79f9cac5b7f4","ios":"levelo://app?vid=ba3a3e1f-1ea1-46de-9149-79f9cac5b7f4"},"vehicle_type_id":"4","last_reported":1752214640,"current_range_meters":11200,"station_id":"ce4bh8p2rcd13ifvqeb0","pricing_plan_id":"cebpf4jnsgd1na2vs0mg"},{"bike_id":"0a0790cf-50a8-48f4-bdbf-28c908058f24","system_id":"levelo_inurba_marseille","lat":43.27066,"lon":5.42267,"is_reserved":false,"is_disabled":false,"rental_uris":{"android":"levelo://app?vid=0a0790cf-50a8-48f4-bdbf-28c908058f24","ios":"levelo://app?vid=0a0790cf-50a8-48f4-bdbf-28c908058f24"},"vehicle_type_id":"4","last_reported":1752214640,"current_range_meters":11200,"station_id":"ce4bhk92rcd13ifvqgb0","pricing_plan_id":"cebpf4jnsgd1na2vs0mg"},{"bike_id":"b3d60eb0-7aa4-4c31-880d-886f21433e0c","system_id":"levelo_inurba_marseille","lat":43.31725,"lon":5.4047,"is_reserved":false,"is_disabled":false,"rental_uris":{"android":"levelo://app?vid=b3d60eb0-7aa4-4c31-880d-886f21433e0c","ios":"levelo://app?vid=b3d60eb0-7aa4-4c31-880d-886f21433e0c"},"vehicle_type_id":"4","last_reported":1752214640,"current_range_meters":11200,"station_id":"ce4bh012rcd13ifvqd00","pricing_plan_id":"cebpf4jnsgd1na2vs0mg"},{"bike_id":"5e3de7c8-3182-4a73-8e5c-d4ae2028ef6e","system_id":"levelo_inurba_marseille","lat":43.21748,"lon":5.3461,"is_reserved":false,"is_disabled":false,"rental_uris":{"android":"levelo://app?vid=5e3de7c8-3182-4a73-8e5c-d4ae2028ef6e","ios":"levelo://app?vid=5e3de7c8-3182-4a73-8e5c-d4ae2028ef6e"},"vehicle_type_id":"4","last_reported":1752214640,"current_range_meters":11200,"station_id":"","pricing_plan_id":"cebpf4jnsgd1na2vs0mg"},{"bike_id":"f4d8afa1-8f4d-42c0-b795-8a2d2ea9a8de","system_id":"levelo_inurba_marseille","lat":43.27829,"lon":5.40718,"is_reserved":false,"is_disabled":false,"rental_uris":{"android":"levelo://app?vid=f4d8afa1-8f4d-42c0-b795-8a2d2ea9a8de","ios":"levelo://app?vid=f4d8afa1-8f4d-42c0-b795-8a2d2ea9a8de"},"vehicle_type_id":"4","last_reported":1752214640,"current_range_meters":11200,"station_id":"ce4bhnh2rcd13ifvqgtg","pricing_plan_id":"cebpf4jnsgd1na2vs0mg"},{"bike_id":"9247873e-48c2-4f4f-a7bb-d1bacaf2bcd7","system_id":"levelo_inurba_marseille","lat":43.28463,"lon":5.35901,"is_reserved":false,"is_disabled":false,"rental_uris":{"android":"levelo://app?vid=9247873e-48c2-4f4f-a7bb-d1bacaf2bcd7","ios":"levelo://app?vid=9247873e-48c2-4f4f-a7bb-d1bacaf2bcd7"},"vehicle_type_id":"4","last_reported":1752214640,"current_range_meters":11600,"station_id":"ce4bhah2rcd13ifvqei0","pricing_plan_id":"cebpf4jnsgd1na2vs0mg"},{"bike_id":"77a895c0-f47c-4ec3-a855-a3289edee2ca","system_id":"levelo_inurba_marseille","lat":43.27852,"lon":5.39178,"is_reserved":false,"is_disabled":true,"rental_uris":{"android":"levelo://app?vid=77a895c0-f47c-4ec3-a855-a3289edee2ca","ios":"levelo://app?vid=77a895c0-f47c-4ec3-a855-a3289edee2ca"},"vehicle_type_id":"4","last_reported":1752214640,"current_range_meters":11600,"station_id":"ce4bhjp2rcd13ifvqga0","pricing_plan_id":"cebpf4jnsgd1na2vs0mg"},{"bike_id":"9f5e74ce-2459-4c6f-a171-f6d1e8a1ed83","system_id":"levelo_inurba_marseille","lat":43.31848,"lon":5.37568,"is_reserved":false,"is_disabled":false,"rental_uris":{"android":"levelo://app?vid=9f5e74ce-2459-4c6f-a171-f6d1e8a1ed83","ios":"levelo://app?vid=9f5e74ce-2459-4c6f-a171-f6d1e8a1ed83"},"vehicle_type_id":"4","last_reported":1752214640,"current_range_meters":11600,"station_id":"","pricing_plan_id":"cebpf4jnsgd1na2vs0mg"},{"bike_id":"7be1ec9c-88c8-43b7-8e14-415f1785bb42","system_id":"levelo_inurba_marseille","lat":43.31131,"lon":5.37714,"is_reserved":false,"is_disabled":false,"rental_uris":{"android":"levelo://app?vid=7be1ec9c-88c8-43b7-8e14-415f1785bb42","ios":"levelo://app?vid=7be1ec9c-88c8-43b7-8e14-415f1785bb42"},"vehicle_type_id":"4","last_reported":1752214640,"current_range_meters":11600,"station_id":"ce4bgt92rcd13ifvqcg0","pricing_plan_id":"cebpf4jnsgd1na2vs0mg"},{"bike_id":"d3e8264f-5e78-41b8-b5b0-557e389e6623","system_id":"levelo_inurba_marseille","lat":43.31371,"lon":5.37159,"is_reserved":false,"is_disabled":true,"rental_uris":{"android":"levelo://app?vid=d3e8264f-5e78-41b8-b5b0-557e389e6623","ios":"levelo://app?vid=d3e8264f-5e78-41b8-b5b0-557e389e6623"},"vehicle_type_id":"4","last_reported":1752214640,"current_range_meters":11600,"station_id":"","pricing_plan_id":"cebpf4jnsgd1na2vs0mg"},{"bike_id":"b842d059-27fe-4429-89c7-250a43e69f81","system_id":"levelo_inurba_marseille","lat":43.28674,"lon":5.38011,"is_reserved":false,"is_disabled":true,"rental_uris":{"android":"levelo://app?vid=b842d059-27fe-4429-89c7-250a43e69f81","ios":"levelo://app?vid=b842d059-27fe-4429-89c7-250a43e69f81"},"vehicle_type_id":"4","last_reported":1752214640,"current_range_meters":12000,"station_id":"ce4bh9p2rcd13ifvqec0","pricing_plan_id":"cebpf4jnsgd1na2vs0mg"},{"bike_id":"c07bd1cf-f3fd-4a08-8e34-5b31f9155f97","system_id":"levelo_inurba_marseille","lat":43.31284,"lon":5.40167,"is_reserved":false,"is_disabled":false,"rental_uris":{"android":"levelo://app?vid=c07bd1cf-f3fd-4a08-8e34-5b31f9155f97","ios":"levelo://app?vid=c07bd1cf-f3fd-4a08-8e34-5b31f9155f97"},"vehicle_type_id":"4","last_reported":1752214640,"current_range_meters":12000,"station_id":"ce4bh092rcd13ifvqd30","pricing_plan_id":"cebpf4jnsgd1na2vs0mg"},{"bike_id":"4e209b0c-855f-4b51-8120-2faef8673853","system_id":"levelo_inurba_marseille","lat":43.306149,"lon":5.368807,"is_reserved":false,"is_disabled":false,"rental_uris":{"android":"levelo://app?vid=4e209b0c-855f-4b51-8120-2faef8673853","ios":"levelo://app?vid=4e209b0c-855f-4b51-8120-2faef8673853"},"vehicle_type_id":"4","last_reported":1752214640,"current_range_meters":12000,"station_id":"","pricing_plan_id":"cebpf4jnsgd1na2vs0mg"},{"bike_id":"1ffc805c-8736-438b-9a4f-0dd7804275b4","system_id":"levelo_inurba_marseille","lat":43.29232,"lon":5.36061,"is_reserved":false,"is_disabled":false,"rental_uris":{"android":"levelo://app?vid=1ffc805c-8736-438b-9a4f-0dd7804275b4","ios":"levelo://app?vid=1ffc805c-8736-438b-9a4f-0dd7804275b4"},"vehicle_type_id":"4","last_reported":1752214640,"current_range_meters":12400,"station_id":"ce4bhbh2rcd13ifvqeqg","pricing_plan_id":"cebpf4jnsgd1na2vs0mg"},{"bike_id":"12a0a7d5-bd16-4db6-9d97-49b871905ee5","system_id":"levelo_inurba_marseille","lat":43.29435,"lon":5.3977,"is_reserved":false,"is_disabled":false,"rental_uris":{"android":"levelo://app?vid=12a0a7d5-bd16-4db6-9d97-49b871905ee5","ios":"levelo://app?vid=12a0a7d5-bd16-4db6-9d97-49b871905ee5"},"vehicle_type_id":"4","last_reported":1752214640,"current_range_meters":12400,"station_id":"ce4bh3h2rcd13ifvqdo0","pricing_plan_id":"cebpf4jnsgd1na2vs0mg"},{"bike_id":"fb151c7d-47c6-477a-882b-bc952f1c9a8d","system_id":"levelo_inurba_marseille","lat":43.31931,"lon":5.373135,"is_reserved":false,"is_disabled":false,"rental_uris":{"android":"levelo://app?vid=fb151c7d-47c6-477a-882b-bc952f1c9a8d","ios":"levelo://app?vid=fb151c7d-47c6-477a-882b-bc952f1c9a8d"},"vehicle_type_id":"4","last_reported":1752214640,"current_range_meters":12400,"station_id":"","pricing_plan_id":"cebpf4jnsgd1na2vs0mg"},{"bike_id":"2d770725-67ca-4330-bd6e-642a0ad20097","system_id":"levelo_inurba_marseille","lat":43.3173,"lon":5.404569,"is_reserved":false,"is_disabled":false,"rental_uris":{"android":"levelo://app?vid=2d770725-67ca-4330-bd6e-642a0ad20097","ios":"levelo://app?vid=2d770725-67ca-4330-bd6e-642a0ad20097"},"vehicle_type_id":"4","last_reported":1752214640,"current_range_meters":12400,"station_id":"ce4bh012rcd13ifvqd00","pricing_plan_id":"cebpf4jnsgd1na2vs0mg"},{"bike_id":"3b42bf26-8d11-45fd-9faf-8f270ccdee1a","system_id":"levelo_inurba_marseille","lat":43.29302,"lon":5.3716,"is_reserved":false,"is_disabled":true,"rental_uris":{"android":"levelo://app?vid=3b42bf26-8d11-45fd-9faf-8f270ccdee1a","ios":"levelo://app?vid=3b42bf26-8d11-45fd-9faf-8f270ccdee1a"},"vehicle_type_id":"4","last_reported":1752214640,"current_range_meters":12400,"station_id":"ce4bgh92rcd13ifvqb40","pricing_plan_id":"cebpf4jnsgd1na2vs0mg"},{"bike_id":"fa87fcb5-aacb-41a1-a789-0296bbd02085","system_id":"levelo_inurba_marseille","lat":43.24583,"lon":5.37376,"is_reserved":false,"is_disabled":false,"rental_uris":{"android":"levelo://app?vid=fa87fcb5-aacb-41a1-a789-0296bbd02085","ios":"levelo://app?vid=fa87fcb5-aacb-41a1-a789-0296bbd02085"},"vehicle_type_id":"4","last_reported":1752214640,"current_range_meters":12400,"station_id":"","pricing_plan_id":"cebpf4jnsgd1na2vs0mg"},{"bike_id":"eb808631-7f2b-4efe-a9e5-541032677921","system_id":"levelo_inurba_marseille","lat":43.23195,"lon":5.35575,"is_reserved":false,"is_disabled":false,"rental_uris":{"android":"levelo://app?vid=eb808631-7f2b-4efe-a9e5-541032677921","ios":"levelo://app?vid=eb808631-7f2b-4efe-a9e5-541032677921"},"vehicle_type_id":"4","last_reported":1752214640,"current_range_meters":12400,"station_id":"ce4bhu92rcd13ifvqi70","pricing_plan_id":"cebpf4jnsgd1na2vs0mg"},{"bike_id":"02531485-2ac4-456b-a216-436aea5642f9","system_id":"levelo_inurba_marseille","lat":43.30935,"lon":5.40148,"is_reserved":false,"is_disabled":false,"rental_uris":{"android":"levelo://app?vid=02531485-2ac4-456b-a216-436aea5642f9","ios":"levelo://app?vid=02531485-2ac4-456b-a216-436aea5642f9"},"vehicle_type_id":"4","last_reported":1752214640,"current_range_meters":12800,"station_id":"ce4bgvp2rcd13ifvqct0","pricing_plan_id":"cebpf4jnsgd1na2vs0mg"},{"bike_id":"bd8d4369-2273-4c6e-a97d-ccabc9f387cd","system_id":"levelo_inurba_marseille","lat":43.25101,"lon":5.39496,"is_reserved":false,"is_disabled":false,"rental_uris":{"android":"levelo://app?vid=bd8d4369-2273-4c6e-a97d-ccabc9f387cd","ios":"levelo://app?vid=bd8d4369-2273-4c6e-a97d-ccabc9f387cd"},"vehicle_type_id":"4","last_reported":1752214640,"current_range_meters":12800,"station_id":"ce4bhm12rcd13ifvqgkg","pricing_plan_id":"cebpf4jnsgd1na2vs0mg"},{"bike_id":"5a7b57ef-a00d-4d19-853c-d49c119db95f","system_id":"levelo_inurba_marseille","lat":43.24566,"lon":5.3734,"is_reserved":false,"is_disabled":false,"rental_uris":{"android":"levelo://app?vid=5a7b57ef-a00d-4d19-853c-d49c119db95f","ios":"levelo://app?vid=5a7b57ef-a00d-4d19-853c-d49c119db95f"},"vehicle_type_id":"4","last_reported":1752214640,"current_range_meters":12800,"station_id":"","pricing_plan_id":"cebpf4jnsgd1na2vs0mg"},{"bike_id":"8330a68f-2f6e-4337-9657-35d7d87c04ca","system_id":"levelo_inurba_marseille","lat":43.25451,"lon":5.37946,"is_reserved":false,"is_disabled":false,"rental_uris":{"android":"levelo://app?vid=8330a68f-2f6e-4337-9657-35d7d87c04ca","ios":"levelo://app?vid=8330a68f-2f6e-4337-9657-35d7d87c04ca"},"vehicle_type_id":"4","last_reported":1752214640,"current_range_meters":12800,"station_id":"","pricing_plan_id":"cebpf4jnsgd1na2vs0mg"},{"bike_id":"ee1ac907-8623-4d00-ac01-d41dd90be9fe","system_id":"levelo_inurba_marseille","lat":43.21189,"lon":5.350735,"is_reserved":false,"is_disabled":false,"rental_uris":{"android":"levelo://app?vid=ee1ac907-8623-4d00-ac01-d41dd90be9fe","ios":"levelo://app?vid=ee1ac907-8623-4d00-ac01-d41dd90be9fe"},"vehicle_type_id":"4","last_reported":1752214640,"current_range_meters":12800,"station_id":"st_cvj6sg6p6f1abm77japg","pricing_plan_id":"cebpf4jnsgd1na2vs0mg"},{"bike_id":"1830d799-57e9-4ec2-b486-66d995653d72","system_id":"levelo_inurba_marseille","lat":43.29621,"lon":5.381997,"is_reserved":false,"is_disabled":false,"rental_uris":{"android":"levelo://app?vid=1830d799-57e9-4ec2-b486-66d995653d72","ios":"levelo://app?vid=1830d799-57e9-4ec2-b486-66d995653d72"},"vehicle_type_id":"4","last_reported":1752214640,"current_range_meters":12800,"station_id":"","pricing_plan_id":"cebpf4jnsgd1na2vs0mg"},{"bike_id":"ce9b45a6-4af9-455d-a9e7-81b197b68d37","system_id":"levelo_inurba_marseille","lat":43.28273,"lon":5.35059,"is_reserved":false,"is_disabled":false,"rental_uris":{"android":"levelo://app?vid=ce9b45a6-4af9-455d-a9e7-81b197b68d37","ios":"levelo://app?vid=ce9b45a6-4af9-455d-a9e7-81b197b68d37"},"vehicle_type_id":"4","last_reported":1752214640,"current_range_meters":12800,"station_id":"ce4bhbp2rcd13ifvqerg","pricing_plan_id":"cebpf4jnsgd1na2vs0mg"},{"bike_id":"1746d397-612f-47c9-94f0-ae0e40fad68b","system_id":"levelo_inurba_marseille","lat":43.23959,"lon":5.36633,"is_reserved":false,"is_disabled":true,"rental_uris":{"android":"levelo://app?vid=1746d397-612f-47c9-94f0-ae0e40fad68b","ios":"levelo://app?vid=1746d397-612f-47c9-94f0-ae0e40fad68b"},"vehicle_type_id":"4","last_reported":1752214640,"current_range_meters":12800,"station_id":"ce4bhi12rcd13ifvqfp0","pricing_plan_id":"cebpf4jnsgd1na2vs0mg"},{"bike_id":"5017c449-38fe-4160-848e-225e9c2e04c7","system_id":"levelo_inurba_marseille","lat":43.280748,"lon":5.407685,"is_reserved":false,"is_disabled":false,"rental_uris":{"android":"levelo://app?vid=5017c449-38fe-4160-848e-225e9c2e04c7","ios":"levelo://app?vid=5017c449-38fe-4160-848e-225e9c2e04c7"},"vehicle_type_id":"4","last_reported":1752214640,"current_range_meters":13600,"station_id":"","pricing_plan_id":"cebpf4jnsgd1na2vs0mg"},{"bike_id":"2b267503-c82c-4788-a302-ba1d9923bfd2","system_id":"levelo_inurba_marseille","lat":43.320398,"lon":5.415381,"is_reserved":false,"is_disabled":false,"rental_uris":{"android":"levelo://app?vid=2b267503-c82c-4788-a302-ba1d9923bfd2","ios":"levelo://app?vid=2b267503-c82c-4788-a302-ba1d9923bfd2"},"vehicle_type_id":"4","last_reported":1752214640,"current_range_meters":13600,"station_id":"ce4bhq92rcd13ifvqhkg","pricing_plan_id":"cebpf4jnsgd1na2vs0mg"},{"bike_id":"5758ced1-04d2-4cdd-844a-af47deac8c9f","system_id":"levelo_inurba_marseille","lat":43.3078,"lon":5.3765,"is_reserved":false,"is_disabled":false,"rental_uris":{"android":"levelo://app?vid=5758ced1-04d2-4cdd-844a-af47deac8c9f","ios":"levelo://app?vid=5758ced1-04d2-4cdd-844a-af47deac8c9f"},"vehicle_type_id":"4","last_reported":1752214640,"current_range_meters":13600,"station_id":"ce4bgv92rcd13ifvqcq0","pricing_plan_id":"cebpf4jnsgd1na2vs0mg"},{"bike_id":"6521e789-0000-44ca-a5cb-067f82af0bad","system_id":"levelo_inurba_marseille","lat":43.30529,"lon":5.36528,"is_reserved":false,"is_disabled":false,"rental_uris":{"android":"levelo://app?vid=6521e789-0000-44ca-a5cb-067f82af0bad","ios":"levelo://app?vid=6521e789-0000-44ca-a5cb-067f82af0bad"},"vehicle_type_id":"4","last_reported":1752214640,"current_range_meters":13600,"station_id":"ce4bgs12rcd13ifvqcag","pricing_plan_id":"cebpf4jnsgd1na2vs0mg"},{"bike_id":"9a38b8ae-de57-4388-9942-2cd602d3a5ea","system_id":"levelo_inurba_marseille","lat":43.29561,"lon":5.422908,"is_reserved":false,"is_disabled":false,"rental_uris":{"android":"levelo://app?vid=9a38b8ae-de57-4388-9942-2cd602d3a5ea","ios":"levelo://app?vid=9a38b8ae-de57-4388-9942-2cd602d3a5ea"},"vehicle_type_id":"4","last_reported":1752214640,"current_range_meters":13600,"station_id":"ce4bhph2rcd13ifvqhdg","pricing_plan_id":"cebpf4jnsgd1na2vs0mg"},{"bike_id":"24b17f7b-dff1-4936-b27a-7c2c6813a894","system_id":"levelo_inurba_marseille","lat":43.245828,"lon":5.373781,"is_reserved":false,"is_disabled":false,"rental_uris":{"android":"levelo://app?vid=24b17f7b-dff1-4936-b27a-7c2c6813a894","ios":"levelo://app?vid=24b17f7b-dff1-4936-b27a-7c2c6813a894"},"vehicle_type_id":"4","last_reported":1752214640,"current_range_meters":13600,"station_id":"","pricing_plan_id":"cebpf4jnsgd1na2vs0mg"},{"bike_id":"0e5dcf8f-8fdf-4c25-8ea3-61654a1893f9","system_id":"levelo_inurba_marseille","lat":43.25492,"lon":5.37647,"is_reserved":false,"is_disabled":false,"rental_uris":{"android":"levelo://app?vid=0e5dcf8f-8fdf-4c25-8ea3-61654a1893f9","ios":"levelo://app?vid=0e5dcf8f-8fdf-4c25-8ea3-61654a1893f9"},"vehicle_type_id":"4","last_reported":1752214640,"current_range_meters":14000,"station_id":"ce4bhh12rcd13ifvqff0","pricing_plan_id":"cebpf4jnsgd1na2vs0mg"},{"bike_id":"67a1c8bb-4e10-4d4c-8446-8fe730f54574","system_id":"levelo_inurba_marseille","lat":43.294243,"lon":5.386049,"is_reserved":false,"is_disabled":true,"rental_uris":{"android":"levelo://app?vid=67a1c8bb-4e10-4d4c-8446-8fe730f54574","ios":"levelo://app?vid=67a1c8bb-4e10-4d4c-8446-8fe730f54574"},"vehicle_type_id":"4","last_reported":1752214640,"current_range_meters":14000,"station_id":"ce4bh2h2rcd13ifvqdh0","pricing_plan_id":"cebpf4jnsgd1na2vs0mg"},{"bike_id":"6737467a-fe5d-470c-a191-2df05ebbb3bb","system_id":"levelo_inurba_marseille","lat":43.22496,"lon":5.34734,"is_reserved":false,"is_disabled":false,"rental_uris":{"android":"levelo://app?vid=6737467a-fe5d-470c-a191-2df05ebbb3bb","ios":"levelo://app?vid=6737467a-fe5d-470c-a191-2df05ebbb3bb"},"vehicle_type_id":"4","last_reported":1752214640,"current_range_meters":14000,"station_id":"st_cvj5dfep6f1abm77gieg","pricing_plan_id":"cebpf4jnsgd1na2vs0mg"},{"bike_id":"8f89e4f3-495a-4317-bd6d-37a19186d65b","system_id":"levelo_inurba_marseille","lat":43.33734,"lon":5.39216,"is_reserved":false,"is_disabled":false,"rental_uris":{"android":"levelo://app?vid=8f89e4f3-495a-4317-bd6d-37a19186d65b","ios":"levelo://app?vid=8f89e4f3-495a-4317-bd6d-37a19186d65b"},"vehicle_type_id":"4","last_reported":1752214640,"current_range_meters":14000,"station_id":"ce4bhr92rcd13ifvqhsg","pricing_plan_id":"cebpf4jnsgd1na2vs0mg"},{"bike_id":"4018485f-3d49-463e-bed7-d890e4ff7869","system_id":"levelo_inurba_marseille","lat":43.29011,"lon":5.38624,"is_reserved":false,"is_disabled":true,"rental_uris":{"android":"levelo://app?vid=4018485f-3d49-463e-bed7-d890e4ff7869","ios":"levelo://app?vid=4018485f-3d49-463e-bed7-d890e4ff7869"},"vehicle_type_id":"4","last_reported":1752214640,"current_range_meters":14400,"station_id":"ce4bh4p2rcd13ifvqe0g","pricing_plan_id":"cebpf4jnsgd1na2vs0mg"},{"bike_id":"20298669-51c1-4292-ad92-d0fa61c941d3","system_id":"levelo_inurba_marseille","lat":43.23103,"lon":5.43692,"is_reserved":false,"is_disabled":true,"rental_uris":{"android":"levelo://app?vid=20298669-51c1-4292-ad92-d0fa61c941d3","ios":"levelo://app?vid=20298669-51c1-4292-ad92-d0fa61c941d3"},"vehicle_type_id":"4","last_reported":1752214640,"current_range_meters":14400,"station_id":"ce4bhmp2rcd13ifvqgog","pricing_plan_id":"cebpf4jnsgd1na2vs0mg"},{"bike_id":"29a0a180-d29f-4a4e-a71b-d1d9d42cb217","system_id":"levelo_inurba_marseille","lat":43.212,"lon":5.35058,"is_reserved":false,"is_disabled":false,"rental_uris":{"android":"levelo://app?vid=29a0a180-d29f-4a4e-a71b-d1d9d42cb217","ios":"levelo://app?vid=29a0a180-d29f-4a4e-a71b-d1d9d42cb217"},"vehicle_type_id":"4","last_reported":1752214640,"current_range_meters":14400,"station_id":"st_cvj6sg6p6f1abm77japg","pricing_plan_id":"cebpf4jnsgd1na2vs0mg"},{"bike_id":"c3c5b26c-e834-4db6-994b-52abb31f20f1","system_id":"levelo_inurba_marseille","lat":43.24068,"lon":5.37754,"is_reserved":false,"is_disabled":false,"rental_uris":{"android":"levelo://app?vid=c3c5b26c-e834-4db6-994b-52abb31f20f1","ios":"levelo://app?vid=c3c5b26c-e834-4db6-994b-52abb31f20f1"},"vehicle_type_id":"4","last_reported":1752214640,"current_range_meters":14800,"station_id":"ce4bhnp2rcd13ifvqgvg","pricing_plan_id":"cebpf4jnsgd1na2vs0mg"},{"bike_id":"2c702aa4-2ac5-4550-b697-5b3cdcd314b3","system_id":"levelo_inurba_marseille","lat":43.3204,"lon":5.41541,"is_reserved":false,"is_disabled":false,"rental_uris":{"android":"levelo://app?vid=2c702aa4-2ac5-4550-b697-5b3cdcd314b3","ios":"levelo://app?vid=2c702aa4-2ac5-4550-b697-5b3cdcd314b3"},"vehicle_type_id":"4","last_reported":1752214640,"current_range_meters":14800,"station_id":"ce4bhq92rcd13ifvqhkg","pricing_plan_id":"cebpf4jnsgd1na2vs0mg"},{"bike_id":"d849a247-c2c0-4619-bac8-f5a6994e0014","system_id":"levelo_inurba_marseille","lat":43.32027,"lon":5.41577,"is_reserved":false,"is_disabled":true,"rental_uris":{"android":"levelo://app?vid=d849a247-c2c0-4619-bac8-f5a6994e0014","ios":"levelo://app?vid=d849a247-c2c0-4619-bac8-f5a6994e0014"},"vehicle_type_id":"4","last_reported":1752214640,"current_range_meters":14800,"station_id":"ce4bhq92rcd13ifvqhkg","pricing_plan_id":"cebpf4jnsgd1na2vs0mg"},{"bike_id":"c6a80404-0b82-4bac-a58d-0caa47987300","system_id":"levelo_inurba_marseille","lat":43.30132,"lon":5.37433,"is_reserved":false,"is_disabled":false,"rental_uris":{"android":"levelo://app?vid=c6a80404-0b82-4bac-a58d-0caa47987300","ios":"levelo://app?vid=c6a80404-0b82-4bac-a58d-0caa47987300"},"vehicle_type_id":"4","last_reported":1752214640,"current_range_meters":14800,"station_id":"ce4bgs92rcd13ifvqcc0","pricing_plan_id":"cebpf4jnsgd1na2vs0mg"},{"bike_id":"6994c34f-7b9e-4588-9c5d-f80e030067a1","system_id":"levelo_inurba_marseille","lat":43.32353,"lon":5.38893,"is_reserved":false,"is_disabled":false,"rental_uris":{"android":"levelo://app?vid=6994c34f-7b9e-4588-9c5d-f80e030067a1","ios":"levelo://app?vid=6994c34f-7b9e-4588-9c5d-f80e030067a1"},"vehicle_type_id":"4","last_reported":1752214640,"current_range_meters":15200,"station_id":"ce4bhqp2rcd13ifvqhog","pricing_plan_id":"cebpf4jnsgd1na2vs0mg"},{"bike_id":"942c8330-8f39-48d0-a0b2-de1771e69fd6","system_id":"levelo_inurba_marseille","lat":43.295739,"lon":5.399743,"is_reserved":false,"is_disabled":false,"rental_uris":{"android":"levelo://app?vid=942c8330-8f39-48d0-a0b2-de1771e69fd6","ios":"levelo://app?vid=942c8330-8f39-48d0-a0b2-de1771e69fd6"},"vehicle_type_id":"4","last_reported":1752214640,"current_range_meters":16000,"station_id":"ce4bh312rcd13ifvqdj0","pricing_plan_id":"cebpf4jnsgd1na2vs0mg"},{"bike_id":"96f82260-718a-4e3a-9802-28ac9d732e83","system_id":"levelo_inurba_marseille","lat":43.26161,"lon":5.37468,"is_reserved":false,"is_disabled":true,"rental_uris":{"android":"levelo://app?vid=96f82260-718a-4e3a-9802-28ac9d732e83","ios":"levelo://app?vid=96f82260-718a-4e3a-9802-28ac9d732e83"},"vehicle_type_id":"4","last_reported":1752214640,"current_range_meters":16000,"station_id":"ce4bhgp2rcd13ifvqfc0","pricing_plan_id":"cebpf4jnsgd1na2vs0mg"},{"bike_id":"4d4b9e28-a4f6-4d45-ac6b-64a63a768bd8","system_id":"levelo_inurba_marseille","lat":43.31518,"lon":5.37408,"is_reserved":false,"is_disabled":false,"rental_uris":{"android":"levelo://app?vid=4d4b9e28-a4f6-4d45-ac6b-64a63a768bd8","ios":"levelo://app?vid=4d4b9e28-a4f6-4d45-ac6b-64a63a768bd8"},"vehicle_type_id":"4","last_reported":1752214640,"current_range_meters":16000,"station_id":"","pricing_plan_id":"cebpf4jnsgd1na2vs0mg"},{"bike_id":"595e9351-a7ce-45de-8995-771f7d9fe86e","system_id":"levelo_inurba_marseille","lat":43.309243,"lon":5.378088,"is_reserved":false,"is_disabled":false,"rental_uris":{"android":"levelo://app?vid=595e9351-a7ce-45de-8995-771f7d9fe86e","ios":"levelo://app?vid=595e9351-a7ce-45de-8995-771f7d9fe86e"},"vehicle_type_id":"4","last_reported":1752214640,"current_range_meters":16000,"station_id":"","pricing_plan_id":"cebpf4jnsgd1na2vs0mg"},{"bike_id":"6e44525d-ed45-445a-a877-081b94eb5813","system_id":"levelo_inurba_marseille","lat":43.303602,"lon":5.418832,"is_reserved":false,"is_disabled":true,"rental_uris":{"android":"levelo://app?vid=6e44525d-ed45-445a-a877-081b94eb5813","ios":"levelo://app?vid=6e44525d-ed45-445a-a877-081b94eb5813"},"vehicle_type_id":"4","last_reported":1752214640,"current_range_meters":16000,"station_id":"ce4bhop2rcd13ifvqh7g","pricing_plan_id":"cebpf4jnsgd1na2vs0mg"},{"bike_id":"b2744915-51cf-4d6c-a617-6a8720cef808","system_id":"levelo_inurba_marseille","lat":43.26041,"lon":5.4065,"is_reserved":false,"is_disabled":false,"rental_uris":{"android":"levelo://app?vid=b2744915-51cf-4d6c-a617-6a8720cef808","ios":"levelo://app?vid=b2744915-51cf-4d6c-a617-6a8720cef808"},"vehicle_type_id":"4","last_reported":1752214640,"current_range_meters":16000,"station_id":"","pricing_plan_id":"cebpf4jnsgd1na2vs0mg"},{"bike_id":"1759f181-392e-4b24-8def-fd99e66fc4b1","system_id":"levelo_inurba_marseille","lat":43.30161,"lon":5.38103,"is_reserved":false,"is_disabled":false,"rental_uris":{"android":"levelo://app?vid=1759f181-392e-4b24-8def-fd99e66fc4b1","ios":"levelo://app?vid=1759f181-392e-4b24-8def-fd99e66fc4b1"},"vehicle_type_id":"4","last_reported":1752214640,"current_range_meters":16000,"station_id":"ce4bgjp2rcd13ifvqbh0","pricing_plan_id":"cebpf4jnsgd1na2vs0mg"},{"bike_id":"fa75eb09-2485-461e-a43f-972b4e1718a7","system_id":"levelo_inurba_marseille","lat":43.241751,"lon":5.397419,"is_reserved":false,"is_disabled":false,"rental_uris":{"android":"levelo://app?vid=fa75eb09-2485-461e-a43f-972b4e1718a7","ios":"levelo://app?vid=fa75eb09-2485-461e-a43f-972b4e1718a7"},"vehicle_type_id":"4","last_reported":1752214640,"current_range_meters":16000,"station_id":"ce4bhn12rcd13ifvqgpg","pricing_plan_id":"cebpf4jnsgd1na2vs0mg"},{"bike_id":"2850cfd5-2110-4cbb-b6a3-2e06e17c78e6","system_id":"levelo_inurba_marseille","lat":43.254915,"lon":5.376405,"is_reserved":false,"is_disabled":true,"rental_uris":{"android":"levelo://app?vid=2850cfd5-2110-4cbb-b6a3-2e06e17c78e6","ios":"levelo://app?vid=2850cfd5-2110-4cbb-b6a3-2e06e17c78e6"},"vehicle_type_id":"4","last_reported":1752214640,"current_range_meters":16400,"station_id":"ce4bhh12rcd13ifvqff0","pricing_plan_id":"cebpf4jnsgd1na2vs0mg"},{"bike_id":"7097363b-955f-4a5e-8ede-9bb14b7f1708","system_id":"levelo_inurba_marseille","lat":43.21209,"lon":5.35058,"is_reserved":false,"is_disabled":false,"rental_uris":{"android":"levelo://app?vid=7097363b-955f-4a5e-8ede-9bb14b7f1708","ios":"levelo://app?vid=7097363b-955f-4a5e-8ede-9bb14b7f1708"},"vehicle_type_id":"4","last_reported":1752214640,"current_range_meters":16000,"station_id":"st_cvj6sg6p6f1abm77japg","pricing_plan_id":"cebpf4jnsgd1na2vs0mg"},{"bike_id":"5423e7d5-07f9-4264-9d42-219884898d7f","system_id":"levelo_inurba_marseille","lat":43.24163,"lon":5.3643,"is_reserved":false,"is_disabled":false,"rental_uris":{"android":"levelo://app?vid=5423e7d5-07f9-4264-9d42-219884898d7f","ios":"levelo://app?vid=5423e7d5-07f9-4264-9d42-219884898d7f"},"vehicle_type_id":"4","last_reported":1752214640,"current_range_meters":16000,"station_id":"cpo36qri1sfpv3e86is0","pricing_plan_id":"cebpf4jnsgd1na2vs0mg"},{"bike_id":"544ec108-796d-413d-8a7c-7e4ffa805fe3","system_id":"levelo_inurba_marseille","lat":43.273401,"lon":5.392941,"is_reserved":false,"is_disabled":false,"rental_uris":{"android":"levelo://app?vid=544ec108-796d-413d-8a7c-7e4ffa805fe3","ios":"levelo://app?vid=544ec108-796d-413d-8a7c-7e4ffa805fe3"},"vehicle_type_id":"4","last_reported":1752214640,"current_range_meters":16000,"station_id":"","pricing_plan_id":"cebpf4jnsgd1na2vs0mg"},{"bike_id":"8ae5a0ad-240b-48a8-97a8-df6a061438c8","system_id":"levelo_inurba_marseille","lat":43.29277,"lon":5.40123,"is_reserved":false,"is_disabled":false,"rental_uris":{"android":"levelo://app?vid=8ae5a0ad-240b-48a8-97a8-df6a061438c8","ios":"levelo://app?vid=8ae5a0ad-240b-48a8-97a8-df6a061438c8"},"vehicle_type_id":"4","last_reported":1752214640,"current_range_meters":16000,"station_id":"ce4bh312rcd13ifvqdk0","pricing_plan_id":"cebpf4jnsgd1na2vs0mg"},{"bike_id":"e3a75ee9-c614-467b-8cc2-f813bcef2ab1","system_id":"levelo_inurba_marseille","lat":43.33743,"lon":5.3919,"is_reserved":false,"is_disabled":false,"rental_uris":{"android":"levelo://app?vid=e3a75ee9-c614-467b-8cc2-f813bcef2ab1","ios":"levelo://app?vid=e3a75ee9-c614-467b-8cc2-f813bcef2ab1"},"vehicle_type_id":"4","last_reported":1752214640,"current_range_meters":16000,"station_id":"ce4bhr92rcd13ifvqhsg","pricing_plan_id":"cebpf4jnsgd1na2vs0mg"},{"bike_id":"cd3ad621-81d5-486b-8d9d-ec2d2d715d0a","system_id":"levelo_inurba_marseille","lat":43.30325,"lon":5.40453,"is_reserved":false,"is_disabled":false,"rental_uris":{"android":"levelo://app?vid=cd3ad621-81d5-486b-8d9d-ec2d2d715d0a","ios":"levelo://app?vid=cd3ad621-81d5-486b-8d9d-ec2d2d715d0a"},"vehicle_type_id":"4","last_reported":1752214640,"current_range_meters":16000,"station_id":"ce4bh012rcd13ifvqd10","pricing_plan_id":"cebpf4jnsgd1na2vs0mg"},{"bike_id":"7ee929a1-c383-431b-93eb-b66952760f6c","system_id":"levelo_inurba_marseille","lat":43.30473,"lon":5.37913,"is_reserved":false,"is_disabled":false,"rental_uris":{"android":"levelo://app?vid=7ee929a1-c383-431b-93eb-b66952760f6c","ios":"levelo://app?vid=7ee929a1-c383-431b-93eb-b66952760f6c"},"vehicle_type_id":"4","last_reported":1752214640,"current_range_meters":16000,"station_id":"ce4bgup2rcd13ifvqcn0","pricing_plan_id":"cebpf4jnsgd1na2vs0mg"},{"bike_id":"5086513f-38b2-4d32-bf7b-ef747c2370bc","system_id":"levelo_inurba_marseille","lat":43.27908,"lon":5.39593,"is_reserved":false,"is_disabled":false,"rental_uris":{"android":"levelo://app?vid=5086513f-38b2-4d32-bf7b-ef747c2370bc","ios":"levelo://app?vid=5086513f-38b2-4d32-bf7b-ef747c2370bc"},"vehicle_type_id":"4","last_reported":1752214640,"current_range_meters":16000,"station_id":"ce4bhf92rcd13ifvqf40","pricing_plan_id":"cebpf4jnsgd1na2vs0mg"},{"bike_id":"017c2730-824b-4d90-921f-3fa4819e4728","system_id":"levelo_inurba_marseille","lat":43.27203,"lon":5.39192,"is_reserved":false,"is_disabled":false,"rental_uris":{"android":"levelo://app?vid=017c2730-824b-4d90-921f-3fa4819e4728","ios":"levelo://app?vid=017c2730-824b-4d90-921f-3fa4819e4728"},"vehicle_type_id":"4","last_reported":1752214640,"current_range_meters":16400,"station_id":"ce4bhhp2rcd13ifvqfm0","pricing_plan_id":"cebpf4jnsgd1na2vs0mg"},{"bike_id":"a57ea438-d14c-4a30-9aba-c87c42dd735d","system_id":"levelo_inurba_marseille","lat":43.31233,"lon":5.36872,"is_reserved":false,"is_disabled":false,"rental_uris":{"android":"levelo://app?vid=a57ea438-d14c-4a30-9aba-c87c42dd735d","ios":"levelo://app?vid=a57ea438-d14c-4a30-9aba-c87c42dd735d"},"vehicle_type_id":"4","last_reported":1752214640,"current_range_meters":16400,"station_id":"ce4bgl92rcd13ifvqbq0","pricing_plan_id":"cebpf4jnsgd1na2vs0mg"},{"bike_id":"5ccd13af-ab7a-427a-b178-3044795b2677","system_id":"levelo_inurba_marseille","lat":43.2928,"lon":5.40117,"is_reserved":false,"is_disabled":false,"rental_uris":{"android":"levelo://app?vid=5ccd13af-ab7a-427a-b178-3044795b2677","ios":"levelo://app?vid=5ccd13af-ab7a-427a-b178-3044795b2677"},"vehicle_type_id":"4","last_reported":1752214640,"current_range_meters":16400,"station_id":"ce4bh312rcd13ifvqdk0","pricing_plan_id":"cebpf4jnsgd1na2vs0mg"},{"bike_id":"36d841ea-e6f4-4ff1-8465-d05e720a58e5","system_id":"levelo_inurba_marseille","lat":43.28756,"lon":5.40029,"is_reserved":false,"is_disabled":true,"rental_uris":{"android":"levelo://app?vid=36d841ea-e6f4-4ff1-8465-d05e720a58e5","ios":"levelo://app?vid=36d841ea-e6f4-4ff1-8465-d05e720a58e5"},"vehicle_type_id":"4","last_reported":1752214640,"current_range_meters":16400,"station_id":"ce4bho92rcd13ifvqh3g","pricing_plan_id":"cebpf4jnsgd1na2vs0mg"},{"bike_id":"05b12b26-6200-40d0-8e27-60aba547aa54","system_id":"levelo_inurba_marseille","lat":43.27942,"lon":5.4105,"is_reserved":false,"is_disabled":false,"rental_uris":{"android":"levelo://app?vid=05b12b26-6200-40d0-8e27-60aba547aa54","ios":"levelo://app?vid=05b12b26-6200-40d0-8e27-60aba547aa54"},"vehicle_type_id":"4","last_reported":1752214640,"current_range_meters":16400,"station_id":"ce4bhnp2rcd13ifvqh0g","pricing_plan_id":"cebpf4jnsgd1na2vs0mg"},{"bike_id":"9d4f14f9-e9e1-4507-8658-c8951cc4b985","system_id":"levelo_inurba_marseille","lat":43.284733,"lon":5.384453,"is_reserved":false,"is_disabled":false,"rental_uris":{"android":"levelo://app?vid=9d4f14f9-e9e1-4507-8658-c8951cc4b985","ios":"levelo://app?vid=9d4f14f9-e9e1-4507-8658-c8951cc4b985"},"vehicle_type_id":"4","last_reported":1752214640,"current_range_meters":16400,"station_id":"ce4bh512rcd13ifvqe3g","pricing_plan_id":"cebpf4jnsgd1na2vs0mg"},{"bike_id":"c1985a59-e9b6-44ee-b888-e5dc75f883bd","system_id":"levelo_inurba_marseille","lat":43.30632,"lon":5.40084,"is_reserved":false,"is_disabled":false,"rental_uris":{"android":"levelo://app?vid=c1985a59-e9b6-44ee-b888-e5dc75f883bd","ios":"levelo://app?vid=c1985a59-e9b6-44ee-b888-e5dc75f883bd"},"vehicle_type_id":"4","last_reported":1752214640,"current_range_meters":16400,"station_id":"ce4bh112rcd13ifvqda0","pricing_plan_id":"cebpf4jnsgd1na2vs0mg"},{"bike_id":"f9378e51-1ec5-4bcd-8475-8cfc9f9818d1","system_id":"levelo_inurba_marseille","lat":43.311222,"lon":5.377563,"is_reserved":false,"is_disabled":false,"rental_uris":{"android":"levelo://app?vid=f9378e51-1ec5-4bcd-8475-8cfc9f9818d1","ios":"levelo://app?vid=f9378e51-1ec5-4bcd-8475-8cfc9f9818d1"},"vehicle_type_id":"4","last_reported":1752214640,"current_range_meters":16400,"station_id":"ce4bgt92rcd13ifvqcg0","pricing_plan_id":"cebpf4jnsgd1na2vs0mg"},{"bike_id":"46e76d63-dcce-4084-828e-9cffe437f4b6","system_id":"levelo_inurba_marseille","lat":43.28711,"lon":5.37939,"is_reserved":false,"is_disabled":false,"rental_uris":{"android":"levelo://app?vid=46e76d63-dcce-4084-828e-9cffe437f4b6","ios":"levelo://app?vid=46e76d63-dcce-4084-828e-9cffe437f4b6"},"vehicle_type_id":"4","last_reported":1752214640,"current_range_meters":16400,"station_id":"ce4bh9p2rcd13ifvqec0","pricing_plan_id":"cebpf4jnsgd1na2vs0mg"},{"bike_id":"03d285ad-fd72-47fb-9975-6f1db5bfd76f","system_id":"levelo_inurba_marseille","lat":43.2986,"lon":5.39735,"is_reserved":false,"is_disabled":true,"rental_uris":{"android":"levelo://app?vid=03d285ad-fd72-47fb-9975-6f1db5bfd76f","ios":"levelo://app?vid=03d285ad-fd72-47fb-9975-6f1db5bfd76f"},"vehicle_type_id":"4","last_reported":1752214640,"current_range_meters":16400,"station_id":"ce4bh0h2rcd13ifvqd50","pricing_plan_id":"cebpf4jnsgd1na2vs0mg"},{"bike_id":"959e9e15-c8fe-4fd7-a388-570e3c4e34bd","system_id":"levelo_inurba_marseille","lat":43.30664,"lon":5.40091,"is_reserved":false,"is_disabled":false,"rental_uris":{"android":"levelo://app?vid=959e9e15-c8fe-4fd7-a388-570e3c4e34bd","ios":"levelo://app?vid=959e9e15-c8fe-4fd7-a388-570e3c4e34bd"},"vehicle_type_id":"4","last_reported":1752214640,"current_range_meters":16400,"station_id":"ce4bh112rcd13ifvqda0","pricing_plan_id":"cebpf4jnsgd1na2vs0mg"},{"bike_id":"03e64300-c9c7-4231-a992-9dda12de8de2","system_id":"levelo_inurba_marseille","lat":43.287105,"lon":5.399866,"is_reserved":false,"is_disabled":false,"rental_uris":{"android":"levelo://app?vid=03e64300-c9c7-4231-a992-9dda12de8de2","ios":"levelo://app?vid=03e64300-c9c7-4231-a992-9dda12de8de2"},"vehicle_type_id":"4","last_reported":1752214640,"current_range_meters":16800,"station_id":"ce4bho92rcd13ifvqh3g","pricing_plan_id":"cebpf4jnsgd1na2vs0mg"},{"bike_id":"530fdaa0-3dcf-48bd-ae6d-18f67ca1c283","system_id":"levelo_inurba_marseille","lat":43.297111,"lon":5.366155,"is_reserved":false,"is_disabled":false,"rental_uris":{"android":"levelo://app?vid=530fdaa0-3dcf-48bd-ae6d-18f67ca1c283","ios":"levelo://app?vid=530fdaa0-3dcf-48bd-ae6d-18f67ca1c283"},"vehicle_type_id":"4","last_reported":1752214640,"current_range_meters":16800,"station_id":"","pricing_plan_id":"cebpf4jnsgd1na2vs0mg"},{"bike_id":"cb8db05c-7ef4-4fcf-b321-cdc13d7cccad","system_id":"levelo_inurba_marseille","lat":43.29092,"lon":5.35555,"is_reserved":false,"is_disabled":false,"rental_uris":{"android":"levelo://app?vid=cb8db05c-7ef4-4fcf-b321-cdc13d7cccad","ios":"levelo://app?vid=cb8db05c-7ef4-4fcf-b321-cdc13d7cccad"},"vehicle_type_id":"4","last_reported":1752214640,"current_range_meters":16800,"station_id":"","pricing_plan_id":"cebpf4jnsgd1na2vs0mg"},{"bike_id":"647a1903-1834-4730-b34e-6397917620f0","system_id":"levelo_inurba_marseille","lat":43.31675,"lon":5.37019,"is_reserved":false,"is_disabled":false,"rental_uris":{"android":"levelo://app?vid=647a1903-1834-4730-b34e-6397917620f0","ios":"levelo://app?vid=647a1903-1834-4730-b34e-6397917620f0"},"vehicle_type_id":"4","last_reported":1752214640,"current_range_meters":16800,"station_id":"","pricing_plan_id":"cebpf4jnsgd1na2vs0mg"},{"bike_id":"7f941e81-3761-4ae9-a1ad-e3246230c081","system_id":"levelo_inurba_marseille","lat":43.3149,"lon":5.37299,"is_reserved":false,"is_disabled":false,"rental_uris":{"android":"levelo://app?vid=7f941e81-3761-4ae9-a1ad-e3246230c081","ios":"levelo://app?vid=7f941e81-3761-4ae9-a1ad-e3246230c081"},"vehicle_type_id":"4","last_reported":1752214640,"current_range_meters":16800,"station_id":"ce4bgt12rcd13ifvqcd0","pricing_plan_id":"cebpf4jnsgd1na2vs0mg"},{"bike_id":"036de619-0b34-4246-8188-bf2e71e79569","system_id":"levelo_inurba_marseille","lat":43.30143,"lon":5.38094,"is_reserved":false,"is_disabled":false,"rental_uris":{"android":"levelo://app?vid=036de619-0b34-4246-8188-bf2e71e79569","ios":"levelo://app?vid=036de619-0b34-4246-8188-bf2e71e79569"},"vehicle_type_id":"4","last_reported":1752214640,"current_range_meters":16800,"station_id":"ce4bgjp2rcd13ifvqbh0","pricing_plan_id":"cebpf4jnsgd1na2vs0mg"},{"bike_id":"ecec5a70-47e2-4076-ac88-b63310387724","system_id":"levelo_inurba_marseille","lat":43.21746,"lon":5.34607,"is_reserved":false,"is_disabled":false,"rental_uris":{"android":"levelo://app?vid=ecec5a70-47e2-4076-ac88-b63310387724","ios":"levelo://app?vid=ecec5a70-47e2-4076-ac88-b63310387724"},"vehicle_type_id":"4","last_reported":1752214640,"current_range_meters":16800,"station_id":"st_cvj6r9ubvosntc0bgbag","pricing_plan_id":"cebpf4jnsgd1na2vs0mg"},{"bike_id":"4cca035e-1c48-4ce6-a762-95e4b4249c57","system_id":"levelo_inurba_marseille","lat":43.30649,"lon":5.40107,"is_reserved":false,"is_disabled":false,"rental_uris":{"android":"levelo://app?vid=4cca035e-1c48-4ce6-a762-95e4b4249c57","ios":"levelo://app?vid=4cca035e-1c48-4ce6-a762-95e4b4249c57"},"vehicle_type_id":"4","last_reported":1752214640,"current_range_meters":16800,"station_id":"ce4bh112rcd13ifvqda0","pricing_plan_id":"cebpf4jnsgd1na2vs0mg"},{"bike_id":"bd69f1e7-b901-41a0-b2c9-aee4bd027443","system_id":"levelo_inurba_marseille","lat":43.212,"lon":5.35065,"is_reserved":false,"is_disabled":false,"rental_uris":{"android":"levelo://app?vid=bd69f1e7-b901-41a0-b2c9-aee4bd027443","ios":"levelo://app?vid=bd69f1e7-b901-41a0-b2c9-aee4bd027443"},"vehicle_type_id":"4","last_reported":1752214640,"current_range_meters":16800,"station_id":"st_cvj6sg6p6f1abm77japg","pricing_plan_id":"cebpf4jnsgd1na2vs0mg"},{"bike_id":"ab4d382b-f79f-4b1b-ae31-19d2e6028151","system_id":"levelo_inurba_marseille","lat":43.311708,"lon":5.387132,"is_reserved":false,"is_disabled":false,"rental_uris":{"android":"levelo://app?vid=ab4d382b-f79f-4b1b-ae31-19d2e6028151","ios":"levelo://app?vid=ab4d382b-f79f-4b1b-ae31-19d2e6028151"},"vehicle_type_id":"4","last_reported":1752214640,"current_range_meters":16800,"station_id":"ce4bgv12rcd13ifvqcp0","pricing_plan_id":"cebpf4jnsgd1na2vs0mg"},{"bike_id":"8929c1bf-fd4d-44e4-aa66-b3eb6538c998","system_id":"levelo_inurba_marseille","lat":43.2857,"lon":5.42962,"is_reserved":false,"is_disabled":false,"rental_uris":{"android":"levelo://app?vid=8929c1bf-fd4d-44e4-aa66-b3eb6538c998","ios":"levelo://app?vid=8929c1bf-fd4d-44e4-aa66-b3eb6538c998"},"vehicle_type_id":"4","last_reported":1752214640,"current_range_meters":17200,"station_id":"","pricing_plan_id":"cebpf4jnsgd1na2vs0mg"},{"bike_id":"c2f79b5d-8fed-42ba-b667-d247fffa17e5","system_id":"levelo_inurba_marseille","lat":43.28653,"lon":5.37334,"is_reserved":false,"is_disabled":false,"rental_uris":{"android":"levelo://app?vid=c2f79b5d-8fed-42ba-b667-d247fffa17e5","ios":"levelo://app?vid=c2f79b5d-8fed-42ba-b667-d247fffa17e5"},"vehicle_type_id":"4","last_reported":1752214640,"current_range_meters":17200,"station_id":"","pricing_plan_id":"cebpf4jnsgd1na2vs0mg"},{"bike_id":"5a1ebe51-0feb-4bc8-bfb6-f899fcb73b87","system_id":"levelo_inurba_marseille","lat":43.29199,"lon":5.358004,"is_reserved":false,"is_disabled":false,"rental_uris":{"android":"levelo://app?vid=5a1ebe51-0feb-4bc8-bfb6-f899fcb73b87","ios":"levelo://app?vid=5a1ebe51-0feb-4bc8-bfb6-f899fcb73b87"},"vehicle_type_id":"4","last_reported":1752214640,"current_range_meters":17200,"station_id":"","pricing_plan_id":"cebpf4jnsgd1na2vs0mg"},{"bike_id":"af1cde33-5506-4304-9bde-62aa1392a4b6","system_id":"levelo_inurba_marseille","lat":43.323632,"lon":5.388878,"is_reserved":false,"is_disabled":false,"rental_uris":{"android":"levelo://app?vid=af1cde33-5506-4304-9bde-62aa1392a4b6","ios":"levelo://app?vid=af1cde33-5506-4304-9bde-62aa1392a4b6"},"vehicle_type_id":"4","last_reported":1752214640,"current_range_meters":17200,"station_id":"ce4bhqp2rcd13ifvqhog","pricing_plan_id":"cebpf4jnsgd1na2vs0mg"},{"bike_id":"dafa5a87-b26d-4379-9a6b-1f02133b78a6","system_id":"levelo_inurba_marseille","lat":43.211876,"lon":5.350754,"is_reserved":false,"is_disabled":false,"rental_uris":{"android":"levelo://app?vid=dafa5a87-b26d-4379-9a6b-1f02133b78a6","ios":"levelo://app?vid=dafa5a87-b26d-4379-9a6b-1f02133b78a6"},"vehicle_type_id":"4","last_reported":1752214640,"current_range_meters":17200,"station_id":"st_cvj6sg6p6f1abm77japg","pricing_plan_id":"cebpf4jnsgd1na2vs0mg"},{"bike_id":"7b5cd6ce-df57-4328-854d-cb2d1407ab18","system_id":"levelo_inurba_marseille","lat":43.33039,"lon":5.3897,"is_reserved":false,"is_disabled":false,"rental_uris":{"android":"levelo://app?vid=7b5cd6ce-df57-4328-854d-cb2d1407ab18","ios":"levelo://app?vid=7b5cd6ce-df57-4328-854d-cb2d1407ab18"},"vehicle_type_id":"4","last_reported":1752214640,"current_range_meters":17200,"station_id":"","pricing_plan_id":"cebpf4jnsgd1na2vs0mg"},{"bike_id":"e413f0da-2079-4e9e-9eef-8a4fb1edf4b1","system_id":"levelo_inurba_marseille","lat":43.30309,"lon":5.369,"is_reserved":false,"is_disabled":false,"rental_uris":{"android":"levelo://app?vid=e413f0da-2079-4e9e-9eef-8a4fb1edf4b1","ios":"levelo://app?vid=e413f0da-2079-4e9e-9eef-8a4fb1edf4b1"},"vehicle_type_id":"4","last_reported":1752214640,"current_range_meters":17200,"station_id":"ce4bgqh2rcd13ifvqc5g","pricing_plan_id":"cebpf4jnsgd1na2vs0mg"},{"bike_id":"ce4c243c-89f2-4d19-9fcb-5ce4c089db94","system_id":"levelo_inurba_marseille","lat":43.28421,"lon":5.37519,"is_reserved":false,"is_disabled":true,"rental_uris":{"android":"levelo://app?vid=ce4c243c-89f2-4d19-9fcb-5ce4c089db94","ios":"levelo://app?vid=ce4c243c-89f2-4d19-9fcb-5ce4c089db94"},"vehicle_type_id":"4","last_reported":1752214640,"current_range_meters":17600,"station_id":"ce4bh412rcd13ifvqds0","pricing_plan_id":"cebpf4jnsgd1na2vs0mg"},{"bike_id":"e9fd0cf8-573b-4177-88a6-f1faf33e8aca","system_id":"levelo_inurba_marseille","lat":43.290022,"lon":5.3561,"is_reserved":false,"is_disabled":true,"rental_uris":{"android":"levelo://app?vid=e9fd0cf8-573b-4177-88a6-f1faf33e8aca","ios":"levelo://app?vid=e9fd0cf8-573b-4177-88a6-f1faf33e8aca"},"vehicle_type_id":"4","last_reported":1752214640,"current_range_meters":17600,"station_id":"ce4bhb92rcd13ifvqen0","pricing_plan_id":"cebpf4jnsgd1na2vs0mg"},{"bike_id":"ff6a6306-6063-42e5-940d-f00631e3dcc1","system_id":"levelo_inurba_marseille","lat":43.26068,"lon":5.37525,"is_reserved":false,"is_disabled":false,"rental_uris":{"android":"levelo://app?vid=ff6a6306-6063-42e5-940d-f00631e3dcc1","ios":"levelo://app?vid=ff6a6306-6063-42e5-940d-f00631e3dcc1"},"vehicle_type_id":"4","last_reported":1752214640,"current_range_meters":17600,"station_id":"","pricing_plan_id":"cebpf4jnsgd1na2vs0mg"},{"bike_id":"43b90c82-97e0-4fa7-8b67-2448f07d529e","system_id":"levelo_inurba_marseille","lat":43.211892,"lon":5.350736,"is_reserved":false,"is_disabled":false,"rental_uris":{"android":"levelo://app?vid=43b90c82-97e0-4fa7-8b67-2448f07d529e","ios":"levelo://app?vid=43b90c82-97e0-4fa7-8b67-2448f07d529e"},"vehicle_type_id":"4","last_reported":1752214640,"current_range_meters":17600,"station_id":"","pricing_plan_id":"cebpf4jnsgd1na2vs0mg"},{"bike_id":"947c8261-50a2-46e4-a6ac-9c4343aea72c","system_id":"levelo_inurba_marseille","lat":43.306473,"lon":5.400804,"is_reserved":false,"is_disabled":false,"rental_uris":{"android":"levelo://app?vid=947c8261-50a2-46e4-a6ac-9c4343aea72c","ios":"levelo://app?vid=947c8261-50a2-46e4-a6ac-9c4343aea72c"},"vehicle_type_id":"4","last_reported":1752214640,"current_range_meters":17600,"station_id":"ce4bh112rcd13ifvqda0","pricing_plan_id":"cebpf4jnsgd1na2vs0mg"},{"bike_id":"90bc1451-ed8f-4f1a-807c-2488b3557cb8","system_id":"levelo_inurba_marseille","lat":43.30649,"lon":5.40097,"is_reserved":false,"is_disabled":false,"rental_uris":{"android":"levelo://app?vid=90bc1451-ed8f-4f1a-807c-2488b3557cb8","ios":"levelo://app?vid=90bc1451-ed8f-4f1a-807c-2488b3557cb8"},"vehicle_type_id":"4","last_reported":1752214640,"current_range_meters":17600,"station_id":"ce4bh112rcd13ifvqda0","pricing_plan_id":"cebpf4jnsgd1na2vs0mg"},{"bike_id":"37b84a38-055a-4a6e-a56a-8ff3d0c1b2ec","system_id":"levelo_inurba_marseille","lat":43.211916,"lon":5.350739,"is_reserved":false,"is_disabled":false,"rental_uris":{"android":"levelo://app?vid=37b84a38-055a-4a6e-a56a-8ff3d0c1b2ec","ios":"levelo://app?vid=37b84a38-055a-4a6e-a56a-8ff3d0c1b2ec"},"vehicle_type_id":"4","last_reported":1752214640,"current_range_meters":17600,"station_id":"st_cvj6sg6p6f1abm77japg","pricing_plan_id":"cebpf4jnsgd1na2vs0mg"},{"bike_id":"1f6319d1-76b6-4064-a557-5b53d02eec91","system_id":"levelo_inurba_marseille","lat":43.2802,"lon":5.39993,"is_reserved":false,"is_disabled":false,"rental_uris":{"android":"levelo://app?vid=1f6319d1-76b6-4064-a557-5b53d02eec91","ios":"levelo://app?vid=1f6319d1-76b6-4064-a557-5b53d02eec91"},"vehicle_type_id":"4","last_reported":1752214640,"current_range_meters":17600,"station_id":"ce4bho92rcd13ifvqh4g","pricing_plan_id":"cebpf4jnsgd1na2vs0mg"},{"bike_id":"db4ebb74-d042-4dc2-94d6-2717486dd31f","system_id":"levelo_inurba_marseille","lat":43.308,"lon":5.37653,"is_reserved":false,"is_disabled":false,"rental_uris":{"android":"levelo://app?vid=db4ebb74-d042-4dc2-94d6-2717486dd31f","ios":"levelo://app?vid=db4ebb74-d042-4dc2-94d6-2717486dd31f"},"vehicle_type_id":"4","last_reported":1752214640,"current_range_meters":17600,"station_id":"ce4bgv92rcd13ifvqcq0","pricing_plan_id":"cebpf4jnsgd1na2vs0mg"},{"bike_id":"c8b423c9-7d56-4df7-bdcc-1b935bdb1a15","system_id":"levelo_inurba_marseille","lat":43.2943,"lon":5.38597,"is_reserved":false,"is_disabled":true,"rental_uris":{"android":"levelo://app?vid=c8b423c9-7d56-4df7-bdcc-1b935bdb1a15","ios":"levelo://app?vid=c8b423c9-7d56-4df7-bdcc-1b935bdb1a15"},"vehicle_type_id":"4","last_reported":1752214640,"current_range_meters":18000,"station_id":"ce4bh2h2rcd13ifvqdh0","pricing_plan_id":"cebpf4jnsgd1na2vs0mg"},{"bike_id":"1744f415-c350-4174-a8b6-6bda87e9874e","system_id":"levelo_inurba_marseille","lat":43.31627,"lon":5.37303,"is_reserved":false,"is_disabled":false,"rental_uris":{"android":"levelo://app?vid=1744f415-c350-4174-a8b6-6bda87e9874e","ios":"levelo://app?vid=1744f415-c350-4174-a8b6-6bda87e9874e"},"vehicle_type_id":"4","last_reported":1752214640,"current_range_meters":18000,"station_id":"ce4bgt12rcd13ifvqcd0","pricing_plan_id":"cebpf4jnsgd1na2vs0mg"},{"bike_id":"8fccf46e-4269-459a-bd9a-cdd93f6b32bc","system_id":"levelo_inurba_marseille","lat":43.303566,"lon":5.418881,"is_reserved":false,"is_disabled":true,"rental_uris":{"android":"levelo://app?vid=8fccf46e-4269-459a-bd9a-cdd93f6b32bc","ios":"levelo://app?vid=8fccf46e-4269-459a-bd9a-cdd93f6b32bc"},"vehicle_type_id":"4","last_reported":1752214640,"current_range_meters":18000,"station_id":"ce4bhop2rcd13ifvqh7g","pricing_plan_id":"cebpf4jnsgd1na2vs0mg"},{"bike_id":"47312462-9f41-4733-b40b-a723bbda6333","system_id":"levelo_inurba_marseille","lat":43.28396,"lon":5.37528,"is_reserved":false,"is_disabled":true,"rental_uris":{"android":"levelo://app?vid=47312462-9f41-4733-b40b-a723bbda6333","ios":"levelo://app?vid=47312462-9f41-4733-b40b-a723bbda6333"},"vehicle_type_id":"4","last_reported":1752214640,"current_range_meters":18000,"station_id":"ce4bh412rcd13ifvqds0","pricing_plan_id":"cebpf4jnsgd1na2vs0mg"},{"bike_id":"cf87d91a-869d-4f08-9c8f-54bb51e0b3f1","system_id":"levelo_inurba_marseille","lat":43.29235,"lon":5.36495,"is_reserved":false,"is_disabled":false,"rental_uris":{"android":"levelo://app?vid=cf87d91a-869d-4f08-9c8f-54bb51e0b3f1","ios":"levelo://app?vid=cf87d91a-869d-4f08-9c8f-54bb51e0b3f1"},"vehicle_type_id":"4","last_reported":1752214640,"current_range_meters":18000,"station_id":"","pricing_plan_id":"cebpf4jnsgd1na2vs0mg"},{"bike_id":"fa6c1e70-92e1-480d-99ef-da8251691875","system_id":"levelo_inurba_marseille","lat":43.29281,"lon":5.40127,"is_reserved":false,"is_disabled":false,"rental_uris":{"android":"levelo://app?vid=fa6c1e70-92e1-480d-99ef-da8251691875","ios":"levelo://app?vid=fa6c1e70-92e1-480d-99ef-da8251691875"},"vehicle_type_id":"4","last_reported":1752214640,"current_range_meters":18000,"station_id":"ce4bh312rcd13ifvqdk0","pricing_plan_id":"cebpf4jnsgd1na2vs0mg"},{"bike_id":"eb6a2290-40e2-4780-bdeb-a149c699215d","system_id":"levelo_inurba_marseille","lat":43.27948,"lon":5.41052,"is_reserved":false,"is_disabled":false,"rental_uris":{"android":"levelo://app?vid=eb6a2290-40e2-4780-bdeb-a149c699215d","ios":"levelo://app?vid=eb6a2290-40e2-4780-bdeb-a149c699215d"},"vehicle_type_id":"4","last_reported":1752214640,"current_range_meters":18000,"station_id":"ce4bhnp2rcd13ifvqh0g","pricing_plan_id":"cebpf4jnsgd1na2vs0mg"},{"bike_id":"e6239d58-ea00-4f00-ac0c-3a9b4d23d16e","system_id":"levelo_inurba_marseille","lat":43.3095,"lon":5.39031,"is_reserved":false,"is_disabled":false,"rental_uris":{"android":"levelo://app?vid=e6239d58-ea00-4f00-ac0c-3a9b4d23d16e","ios":"levelo://app?vid=e6239d58-ea00-4f00-ac0c-3a9b4d23d16e"},"vehicle_type_id":"4","last_reported":1752214640,"current_range_meters":18000,"station_id":"ce4bgup2rcd13ifvqco0","pricing_plan_id":"cebpf4jnsgd1na2vs0mg"},{"bike_id":"2a16ae50-7dbe-4fc6-bba2-cf897e5fa99d","system_id":"levelo_inurba_marseille","lat":43.29018,"lon":5.38134,"is_reserved":false,"is_disabled":true,"rental_uris":{"android":"levelo://app?vid=2a16ae50-7dbe-4fc6-bba2-cf897e5fa99d","ios":"levelo://app?vid=2a16ae50-7dbe-4fc6-bba2-cf897e5fa99d"},"vehicle_type_id":"4","last_reported":1752214640,"current_range_meters":18000,"station_id":"ce4bh4p2rcd13ifvqe1g","pricing_plan_id":"cebpf4jnsgd1na2vs0mg"},{"bike_id":"6471854f-7a02-4ed0-9b48-f4756d1b1a89","system_id":"levelo_inurba_marseille","lat":43.311695,"lon":5.387114,"is_reserved":false,"is_disabled":true,"rental_uris":{"android":"levelo://app?vid=6471854f-7a02-4ed0-9b48-f4756d1b1a89","ios":"levelo://app?vid=6471854f-7a02-4ed0-9b48-f4756d1b1a89"},"vehicle_type_id":"4","last_reported":1752214640,"current_range_meters":18000,"station_id":"","pricing_plan_id":"cebpf4jnsgd1na2vs0mg"},{"bike_id":"dbba3321-20c7-4989-a7b5-ea9ab2c4b3e8","system_id":"levelo_inurba_marseille","lat":43.261935,"lon":5.374477,"is_reserved":false,"is_disabled":false,"rental_uris":{"android":"levelo://app?vid=dbba3321-20c7-4989-a7b5-ea9ab2c4b3e8","ios":"levelo://app?vid=dbba3321-20c7-4989-a7b5-ea9ab2c4b3e8"},"vehicle_type_id":"4","last_reported":1752214640,"current_range_meters":18000,"station_id":"ce4bhgp2rcd13ifvqfc0","pricing_plan_id":"cebpf4jnsgd1na2vs0mg"},{"bike_id":"6615db23-fe36-4741-85da-a9da8940823a","system_id":"levelo_inurba_marseille","lat":43.283609,"lon":5.386426,"is_reserved":false,"is_disabled":false,"rental_uris":{"android":"levelo://app?vid=6615db23-fe36-4741-85da-a9da8940823a","ios":"levelo://app?vid=6615db23-fe36-4741-85da-a9da8940823a"},"vehicle_type_id":"4","last_reported":1752214640,"current_range_meters":18800,"station_id":"ce4bh492rcd13ifvqdvg","pricing_plan_id":"cebpf4jnsgd1na2vs0mg"},{"bike_id":"f84d414b-b83e-4804-9933-e2e4067ccad4","system_id":"levelo_inurba_marseille","lat":43.31705,"lon":5.40473,"is_reserved":false,"is_disabled":false,"rental_uris":{"android":"levelo://app?vid=f84d414b-b83e-4804-9933-e2e4067ccad4","ios":"levelo://app?vid=f84d414b-b83e-4804-9933-e2e4067ccad4"},"vehicle_type_id":"4","last_reported":1752214640,"current_range_meters":18800,"station_id":"ce4bh012rcd13ifvqd00","pricing_plan_id":"cebpf4jnsgd1na2vs0mg"},{"bike_id":"5f9facdb-d1e1-40e1-8ceb-766e4b9ac193","system_id":"levelo_inurba_marseille","lat":43.21754,"lon":5.345992,"is_reserved":false,"is_disabled":false,"rental_uris":{"android":"levelo://app?vid=5f9facdb-d1e1-40e1-8ceb-766e4b9ac193","ios":"levelo://app?vid=5f9facdb-d1e1-40e1-8ceb-766e4b9ac193"},"vehicle_type_id":"4","last_reported":1752214640,"current_range_meters":18800,"station_id":"","pricing_plan_id":"cebpf4jnsgd1na2vs0mg"},{"bike_id":"61198919-e72c-4fce-bc96-126627987dc0","system_id":"levelo_inurba_marseille","lat":43.29578,"lon":5.37888,"is_reserved":false,"is_disabled":false,"rental_uris":{"android":"levelo://app?vid=61198919-e72c-4fce-bc96-126627987dc0","ios":"levelo://app?vid=61198919-e72c-4fce-bc96-126627987dc0"},"vehicle_type_id":"4","last_reported":1752214640,"current_range_meters":18800,"station_id":"","pricing_plan_id":"cebpf4jnsgd1na2vs0mg"},{"bike_id":"e755442d-8544-4152-b94a-842e80ebaddd","system_id":"levelo_inurba_marseille","lat":43.24808,"lon":5.37459,"is_reserved":false,"is_disabled":false,"rental_uris":{"android":"levelo://app?vid=e755442d-8544-4152-b94a-842e80ebaddd","ios":"levelo://app?vid=e755442d-8544-4152-b94a-842e80ebaddd"},"vehicle_type_id":"4","last_reported":1752214640,"current_range_meters":18800,"station_id":"ce4bhgh2rcd13ifvqfb0","pricing_plan_id":"cebpf4jnsgd1na2vs0mg"},{"bike_id":"19ff4f7a-c655-4804-a485-70447a4ef665","system_id":"levelo_inurba_marseille","lat":43.311209,"lon":5.37764,"is_reserved":false,"is_disabled":false,"rental_uris":{"android":"levelo://app?vid=19ff4f7a-c655-4804-a485-70447a4ef665","ios":"levelo://app?vid=19ff4f7a-c655-4804-a485-70447a4ef665"},"vehicle_type_id":"4","last_reported":1752214640,"current_range_meters":18800,"station_id":"ce4bgt92rcd13ifvqcg0","pricing_plan_id":"cebpf4jnsgd1na2vs0mg"},{"bike_id":"452e8211-4f44-45d0-814a-3e9e25b8c44e","system_id":"levelo_inurba_marseille","lat":43.211911,"lon":5.350755,"is_reserved":false,"is_disabled":false,"rental_uris":{"android":"levelo://app?vid=452e8211-4f44-45d0-814a-3e9e25b8c44e","ios":"levelo://app?vid=452e8211-4f44-45d0-814a-3e9e25b8c44e"},"vehicle_type_id":"4","last_reported":1752214640,"current_range_meters":18800,"station_id":"st_cvj6sg6p6f1abm77japg","pricing_plan_id":"cebpf4jnsgd1na2vs0mg"},{"bike_id":"25de748d-7efb-434a-a817-ba9fadff05e4","system_id":"levelo_inurba_marseille","lat":43.301047,"lon":5.388014,"is_reserved":false,"is_disabled":false,"rental_uris":{"android":"levelo://app?vid=25de748d-7efb-434a-a817-ba9fadff05e4","ios":"levelo://app?vid=25de748d-7efb-434a-a817-ba9fadff05e4"},"vehicle_type_id":"4","last_reported":1752214640,"current_range_meters":18800,"station_id":"ce4bgup2rcd13ifvqcn0","pricing_plan_id":"cebpf4jnsgd1na2vs0mg"},{"bike_id":"e86ba8c9-208d-482c-a826-4c100938472a","system_id":"levelo_inurba_marseille","lat":43.21199,"lon":5.35053,"is_reserved":false,"is_disabled":false,"rental_uris":{"android":"levelo://app?vid=e86ba8c9-208d-482c-a826-4c100938472a","ios":"levelo://app?vid=e86ba8c9-208d-482c-a826-4c100938472a"},"vehicle_type_id":"4","last_reported":1752214640,"current_range_meters":18800,"station_id":"st_cvj6sg6p6f1abm77japg","pricing_plan_id":"cebpf4jnsgd1na2vs0mg"},{"bike_id":"1780c8dc-4362-48ef-92b2-a427e38a65e4","system_id":"levelo_inurba_marseille","lat":43.270667,"lon":5.422493,"is_reserved":false,"is_disabled":false,"rental_uris":{"android":"levelo://app?vid=1780c8dc-4362-48ef-92b2-a427e38a65e4","ios":"levelo://app?vid=1780c8dc-4362-48ef-92b2-a427e38a65e4"},"vehicle_type_id":"4","last_reported":1752214640,"current_range_meters":18800,"station_id":"ce4bhk92rcd13ifvqgb0","pricing_plan_id":"cebpf4jnsgd1na2vs0mg"},{"bike_id":"85512058-0851-4083-ad75-1b0f1fd73b1f","system_id":"levelo_inurba_marseille","lat":43.30951,"lon":5.3907,"is_reserved":false,"is_disabled":false,"rental_uris":{"android":"levelo://app?vid=85512058-0851-4083-ad75-1b0f1fd73b1f","ios":"levelo://app?vid=85512058-0851-4083-ad75-1b0f1fd73b1f"},"vehicle_type_id":"4","last_reported":1752214640,"current_range_meters":19200,"station_id":"ce4bgup2rcd13ifvqco0","pricing_plan_id":"cebpf4jnsgd1na2vs0mg"},{"bike_id":"6f1df150-ab73-4353-a7dc-6c8c631a2797","system_id":"levelo_inurba_marseille","lat":43.3122,"lon":5.36864,"is_reserved":false,"is_disabled":false,"rental_uris":{"android":"levelo://app?vid=6f1df150-ab73-4353-a7dc-6c8c631a2797","ios":"levelo://app?vid=6f1df150-ab73-4353-a7dc-6c8c631a2797"},"vehicle_type_id":"4","last_reported":1752214640,"current_range_meters":19200,"station_id":"ce4bgl92rcd13ifvqbq0","pricing_plan_id":"cebpf4jnsgd1na2vs0mg"},{"bike_id":"9d0d85e3-ee19-452d-93c5-fbfc98a09acf","system_id":"levelo_inurba_marseille","lat":43.295051,"lon":5.438568,"is_reserved":false,"is_disabled":false,"rental_uris":{"android":"levelo://app?vid=9d0d85e3-ee19-452d-93c5-fbfc98a09acf","ios":"levelo://app?vid=9d0d85e3-ee19-452d-93c5-fbfc98a09acf"},"vehicle_type_id":"4","last_reported":1752214640,"current_range_meters":19200,"station_id":"","pricing_plan_id":"cebpf4jnsgd1na2vs0mg"},{"bike_id":"d3f29d99-e711-4bc8-8b5b-38429ea6fb2b","system_id":"levelo_inurba_marseille","lat":43.25493,"lon":5.37649,"is_reserved":false,"is_disabled":false,"rental_uris":{"android":"levelo://app?vid=d3f29d99-e711-4bc8-8b5b-38429ea6fb2b","ios":"levelo://app?vid=d3f29d99-e711-4bc8-8b5b-38429ea6fb2b"},"vehicle_type_id":"4","last_reported":1752214640,"current_range_meters":19200,"station_id":"ce4bhh12rcd13ifvqff0","pricing_plan_id":"cebpf4jnsgd1na2vs0mg"},{"bike_id":"a81ede20-43a9-47cd-942d-8fb15c54f5f7","system_id":"levelo_inurba_marseille","lat":43.300656,"lon":5.451596,"is_reserved":false,"is_disabled":false,"rental_uris":{"android":"levelo://app?vid=a81ede20-43a9-47cd-942d-8fb15c54f5f7","ios":"levelo://app?vid=a81ede20-43a9-47cd-942d-8fb15c54f5f7"},"vehicle_type_id":"4","last_reported":1752214640,"current_range_meters":19600,"station_id":"","pricing_plan_id":"cebpf4jnsgd1na2vs0mg"},{"bike_id":"73fc64ba-06ad-4b61-a38f-6d393ed934b2","system_id":"levelo_inurba_marseille","lat":43.29283,"lon":5.40118,"is_reserved":false,"is_disabled":false,"rental_uris":{"android":"levelo://app?vid=73fc64ba-06ad-4b61-a38f-6d393ed934b2","ios":"levelo://app?vid=73fc64ba-06ad-4b61-a38f-6d393ed934b2"},"vehicle_type_id":"4","last_reported":1752214640,"current_range_meters":19600,"station_id":"ce4bh312rcd13ifvqdk0","pricing_plan_id":"cebpf4jnsgd1na2vs0mg"},{"bike_id":"bf8645e7-f76d-45d1-94a8-0f3eceaf53e0","system_id":"levelo_inurba_marseille","lat":43.261871,"lon":5.374458,"is_reserved":false,"is_disabled":true,"rental_uris":{"android":"levelo://app?vid=bf8645e7-f76d-45d1-94a8-0f3eceaf53e0","ios":"levelo://app?vid=bf8645e7-f76d-45d1-94a8-0f3eceaf53e0"},"vehicle_type_id":"4","last_reported":1752214640,"current_range_meters":19600,"station_id":"ce4bhgp2rcd13ifvqfc0","pricing_plan_id":"cebpf4jnsgd1na2vs0mg"},{"bike_id":"e0fee408-fe90-46fa-9121-f56a69d3a17f","system_id":"levelo_inurba_marseille","lat":43.292639,"lon":5.391149,"is_reserved":false,"is_disabled":false,"rental_uris":{"android":"levelo://app?vid=e0fee408-fe90-46fa-9121-f56a69d3a17f","ios":"levelo://app?vid=e0fee408-fe90-46fa-9121-f56a69d3a17f"},"vehicle_type_id":"4","last_reported":1752214640,"current_range_meters":19600,"station_id":"ce4bh312rcd13ifvqdk0","pricing_plan_id":"cebpf4jnsgd1na2vs0mg"},{"bike_id":"548305b1-fa79-46fd-a796-f7d488f08666","system_id":"levelo_inurba_marseille","lat":43.260179,"lon":5.417471,"is_reserved":false,"is_disabled":false,"rental_uris":{"android":"levelo://app?vid=548305b1-fa79-46fd-a796-f7d488f08666","ios":"levelo://app?vid=548305b1-fa79-46fd-a796-f7d488f08666"},"vehicle_type_id":"4","last_reported":1752214640,"current_range_meters":20000,"station_id":"","pricing_plan_id":"cebpf4jnsgd1na2vs0mg"},{"bike_id":"394d4120-2502-4f30-a562-0b786feeb7b9","system_id":"levelo_inurba_marseille","lat":43.30923,"lon":5.40142,"is_reserved":false,"is_disabled":false,"rental_uris":{"android":"levelo://app?vid=394d4120-2502-4f30-a562-0b786feeb7b9","ios":"levelo://app?vid=394d4120-2502-4f30-a562-0b786feeb7b9"},"vehicle_type_id":"4","last_reported":1752214640,"current_range_meters":20000,"station_id":"ce4bgvp2rcd13ifvqct0","pricing_plan_id":"cebpf4jnsgd1na2vs0mg"},{"bike_id":"72b39aad-c91e-4545-8fe5-aa395b7d62ba","system_id":"levelo_inurba_marseille","lat":43.31715,"lon":5.37774,"is_reserved":false,"is_disabled":false,"rental_uris":{"android":"levelo://app?vid=72b39aad-c91e-4545-8fe5-aa395b7d62ba","ios":"levelo://app?vid=72b39aad-c91e-4545-8fe5-aa395b7d62ba"},"vehicle_type_id":"4","last_reported":1752214640,"current_range_meters":20800,"station_id":"ce4bgth2rcd13ifvqch0","pricing_plan_id":"cebpf4jnsgd1na2vs0mg"},{"bike_id":"eb920e53-39ef-41ea-bcc3-7f901a6e4b93","system_id":"levelo_inurba_marseille","lat":43.30143,"lon":5.38087,"is_reserved":false,"is_disabled":false,"rental_uris":{"android":"levelo://app?vid=eb920e53-39ef-41ea-bcc3-7f901a6e4b93","ios":"levelo://app?vid=eb920e53-39ef-41ea-bcc3-7f901a6e4b93"},"vehicle_type_id":"4","last_reported":1752214640,"current_range_meters":20800,"station_id":"ce4bgjp2rcd13ifvqbh0","pricing_plan_id":"cebpf4jnsgd1na2vs0mg"},{"bike_id":"e7284686-9f77-4d51-bbbf-87716870e454","system_id":"levelo_inurba_marseille","lat":43.25275,"lon":5.42186,"is_reserved":false,"is_disabled":false,"rental_uris":{"android":"levelo://app?vid=e7284686-9f77-4d51-bbbf-87716870e454","ios":"levelo://app?vid=e7284686-9f77-4d51-bbbf-87716870e454"},"vehicle_type_id":"4","last_reported":1752214640,"current_range_meters":20800,"station_id":"","pricing_plan_id":"cebpf4jnsgd1na2vs0mg"},{"bike_id":"54e396f9-9d94-4b8f-95e4-893836693cd7","system_id":"levelo_inurba_marseille","lat":43.279866,"lon":5.416565,"is_reserved":false,"is_disabled":false,"rental_uris":{"android":"levelo://app?vid=54e396f9-9d94-4b8f-95e4-893836693cd7","ios":"levelo://app?vid=54e396f9-9d94-4b8f-95e4-893836693cd7"},"vehicle_type_id":"4","last_reported":1752214640,"current_range_meters":21600,"station_id":"ce4bho12rcd13ifvqh1g","pricing_plan_id":"cebpf4jnsgd1na2vs0mg"},{"bike_id":"00bc0b3b-e317-4a17-a011-a3a9a29d816a","system_id":"levelo_inurba_marseille","lat":43.212,"lon":5.35079,"is_reserved":false,"is_disabled":false,"rental_uris":{"android":"levelo://app?vid=00bc0b3b-e317-4a17-a011-a3a9a29d816a","ios":"levelo://app?vid=00bc0b3b-e317-4a17-a011-a3a9a29d816a"},"vehicle_type_id":"4","last_reported":1752214640,"current_range_meters":21600,"station_id":"st_cvj6sg6p6f1abm77japg","pricing_plan_id":"cebpf4jnsgd1na2vs0mg"},{"bike_id":"6e05dff0-695d-43fd-9da6-360c4ffbda0c","system_id":"levelo_inurba_marseille","lat":43.231469,"lon":5.437212,"is_reserved":false,"is_disabled":false,"rental_uris":{"android":"levelo://app?vid=6e05dff0-695d-43fd-9da6-360c4ffbda0c","ios":"levelo://app?vid=6e05dff0-695d-43fd-9da6-360c4ffbda0c"},"vehicle_type_id":"4","last_reported":1752214640,"current_range_meters":21600,"station_id":"ce4bhmp2rcd13ifvqgog","pricing_plan_id":"cebpf4jnsgd1na2vs0mg"},{"bike_id":"aa63d30e-953d-4105-8ac5-bed9688ff832","system_id":"levelo_inurba_marseille","lat":43.31079,"lon":5.38351,"is_reserved":false,"is_disabled":false,"rental_uris":{"android":"levelo://app?vid=aa63d30e-953d-4105-8ac5-bed9688ff832","ios":"levelo://app?vid=aa63d30e-953d-4105-8ac5-bed9688ff832"},"vehicle_type_id":"4","last_reported":1752214640,"current_range_meters":21600,"station_id":"ce4bgv92rcd13ifvqcr0","pricing_plan_id":"cebpf4jnsgd1na2vs0mg"},{"bike_id":"0b5568ad-5cb1-43dd-96ea-ac921d768809","system_id":"levelo_inurba_marseille","lat":43.30463,"lon":5.3791,"is_reserved":false,"is_disabled":false,"rental_uris":{"android":"levelo://app?vid=0b5568ad-5cb1-43dd-96ea-ac921d768809","ios":"levelo://app?vid=0b5568ad-5cb1-43dd-96ea-ac921d768809"},"vehicle_type_id":"4","last_reported":1752214640,"current_range_meters":22000,"station_id":"ce4bgup2rcd13ifvqcn0","pricing_plan_id":"cebpf4jnsgd1na2vs0mg"},{"bike_id":"7487770c-a268-4451-a043-ef731288e1cc","system_id":"levelo_inurba_marseille","lat":43.30948,"lon":5.40168,"is_reserved":false,"is_disabled":false,"rental_uris":{"android":"levelo://app?vid=7487770c-a268-4451-a043-ef731288e1cc","ios":"levelo://app?vid=7487770c-a268-4451-a043-ef731288e1cc"},"vehicle_type_id":"4","last_reported":1752214640,"current_range_meters":22000,"station_id":"ce4bgvp2rcd13ifvqct0","pricing_plan_id":"cebpf4jnsgd1na2vs0mg"},{"bike_id":"f2aa76a8-0108-4aaa-8504-061f5f4b25e0","system_id":"levelo_inurba_marseille","lat":43.287084,"lon":5.399691,"is_reserved":false,"is_disabled":false,"rental_uris":{"android":"levelo://app?vid=f2aa76a8-0108-4aaa-8504-061f5f4b25e0","ios":"levelo://app?vid=f2aa76a8-0108-4aaa-8504-061f5f4b25e0"},"vehicle_type_id":"4","last_reported":1752214640,"current_range_meters":22000,"station_id":"ce4bho92rcd13ifvqh3g","pricing_plan_id":"cebpf4jnsgd1na2vs0mg"},{"bike_id":"687dc3b3-ca48-4af0-96ab-4b9f404a7130","system_id":"levelo_inurba_marseille","lat":43.29578,"lon":5.39978,"is_reserved":false,"is_disabled":false,"rental_uris":{"android":"levelo://app?vid=687dc3b3-ca48-4af0-96ab-4b9f404a7130","ios":"levelo://app?vid=687dc3b3-ca48-4af0-96ab-4b9f404a7130"},"vehicle_type_id":"4","last_reported":1752214640,"current_range_meters":22000,"station_id":"ce4bh312rcd13ifvqdj0","pricing_plan_id":"cebpf4jnsgd1na2vs0mg"},{"bike_id":"2364bcc7-8d20-4be6-b92c-57542d5509b1","system_id":"levelo_inurba_marseille","lat":43.27338,"lon":5.3923,"is_reserved":false,"is_disabled":false,"rental_uris":{"android":"levelo://app?vid=2364bcc7-8d20-4be6-b92c-57542d5509b1","ios":"levelo://app?vid=2364bcc7-8d20-4be6-b92c-57542d5509b1"},"vehicle_type_id":"4","last_reported":1752214640,"current_range_meters":22000,"station_id":"ce4bhgp2rcd13ifvqfe0","pricing_plan_id":"cebpf4jnsgd1na2vs0mg"},{"bike_id":"078fab8e-0d4a-4bfc-867e-c4adfc2ac53b","system_id":"levelo_inurba_marseille","lat":43.2721,"lon":5.391574,"is_reserved":false,"is_disabled":true,"rental_uris":{"android":"levelo://app?vid=078fab8e-0d4a-4bfc-867e-c4adfc2ac53b","ios":"levelo://app?vid=078fab8e-0d4a-4bfc-867e-c4adfc2ac53b"},"vehicle_type_id":"4","last_reported":1752214640,"current_range_meters":22000,"station_id":"ce4bhhp2rcd13ifvqfm0","pricing_plan_id":"cebpf4jnsgd1na2vs0mg"},{"bike_id":"04919df2-efe6-4717-84a7-e6a7b20a93f3","system_id":"levelo_inurba_marseille","lat":43.274938,"lon":5.424506,"is_reserved":false,"is_disabled":false,"rental_uris":{"android":"levelo://app?vid=04919df2-efe6-4717-84a7-e6a7b20a93f3","ios":"levelo://app?vid=04919df2-efe6-4717-84a7-e6a7b20a93f3"},"vehicle_type_id":"4","last_reported":1752214640,"current_range_meters":22400,"station_id":"ce4bhn92rcd13ifvqgrg","pricing_plan_id":"cebpf4jnsgd1na2vs0mg"},{"bike_id":"24e3b2f1-00cf-4dc1-941d-0810a1eb0857","system_id":"levelo_inurba_marseille","lat":43.297883,"lon":5.393407,"is_reserved":false,"is_disabled":false,"rental_uris":{"android":"levelo://app?vid=24e3b2f1-00cf-4dc1-941d-0810a1eb0857","ios":"levelo://app?vid=24e3b2f1-00cf-4dc1-941d-0810a1eb0857"},"vehicle_type_id":"4","last_reported":1752214640,"current_range_meters":22400,"station_id":"","pricing_plan_id":"cebpf4jnsgd1na2vs0mg"},{"bike_id":"51890362-46b0-4ee7-9f02-afbf036d064e","system_id":"levelo_inurba_marseille","lat":43.211916,"lon":5.350795,"is_reserved":false,"is_disabled":false,"rental_uris":{"android":"levelo://app?vid=51890362-46b0-4ee7-9f02-afbf036d064e","ios":"levelo://app?vid=51890362-46b0-4ee7-9f02-afbf036d064e"},"vehicle_type_id":"4","last_reported":1752214640,"current_range_meters":22400,"station_id":"st_cvj6sg6p6f1abm77japg","pricing_plan_id":"cebpf4jnsgd1na2vs0mg"},{"bike_id":"1550d62c-ac23-4182-a92a-927896c39981","system_id":"levelo_inurba_marseille","lat":43.32977,"lon":5.38248,"is_reserved":false,"is_disabled":true,"rental_uris":{"android":"levelo://app?vid=1550d62c-ac23-4182-a92a-927896c39981","ios":"levelo://app?vid=1550d62c-ac23-4182-a92a-927896c39981"},"vehicle_type_id":"4","last_reported":1752214640,"current_range_meters":22400,"station_id":"","pricing_plan_id":"cebpf4jnsgd1na2vs0mg"},{"bike_id":"52841a6c-79ad-4704-9979-2e1431da4ee0","system_id":"levelo_inurba_marseille","lat":43.313545,"lon":5.367011,"is_reserved":false,"is_disabled":false,"rental_uris":{"android":"levelo://app?vid=52841a6c-79ad-4704-9979-2e1431da4ee0","ios":"levelo://app?vid=52841a6c-79ad-4704-9979-2e1431da4ee0"},"vehicle_type_id":"4","last_reported":1752214640,"current_range_meters":22000,"station_id":"ce4bgr92rcd13ifvqc6g","pricing_plan_id":"cebpf4jnsgd1na2vs0mg"},{"bike_id":"b84a44a2-1eb1-45d8-aee4-9e526aaca5e8","system_id":"levelo_inurba_marseille","lat":43.243902,"lon":5.370637,"is_reserved":false,"is_disabled":false,"rental_uris":{"android":"levelo://app?vid=b84a44a2-1eb1-45d8-aee4-9e526aaca5e8","ios":"levelo://app?vid=b84a44a2-1eb1-45d8-aee4-9e526aaca5e8"},"vehicle_type_id":"4","last_reported":1752214640,"current_range_meters":22400,"station_id":"ce4bhhh2rcd13ifvqfk0","pricing_plan_id":"cebpf4jnsgd1na2vs0mg"},{"bike_id":"85d2aee3-4fe4-4c9f-9f31-cc4fe835c04e","system_id":"levelo_inurba_marseille","lat":43.211921,"lon":5.350731,"is_reserved":false,"is_disabled":false,"rental_uris":{"android":"levelo://app?vid=85d2aee3-4fe4-4c9f-9f31-cc4fe835c04e","ios":"levelo://app?vid=85d2aee3-4fe4-4c9f-9f31-cc4fe835c04e"},"vehicle_type_id":"4","last_reported":1752214640,"current_range_meters":22400,"station_id":"st_cvj6sg6p6f1abm77japg","pricing_plan_id":"cebpf4jnsgd1na2vs0mg"},{"bike_id":"176e83b9-3fcd-4b78-83f5-689cd63587d4","system_id":"levelo_inurba_marseille","lat":43.30462,"lon":5.37905,"is_reserved":false,"is_disabled":false,"rental_uris":{"android":"levelo://app?vid=176e83b9-3fcd-4b78-83f5-689cd63587d4","ios":"levelo://app?vid=176e83b9-3fcd-4b78-83f5-689cd63587d4"},"vehicle_type_id":"4","last_reported":1752214640,"current_range_meters":22400,"station_id":"ce4bgup2rcd13ifvqcn0","pricing_plan_id":"cebpf4jnsgd1na2vs0mg"},{"bike_id":"7743c761-6fef-4983-9ec9-dc1358ee835d","system_id":"levelo_inurba_marseille","lat":43.32629,"lon":5.38268,"is_reserved":false,"is_disabled":false,"rental_uris":{"android":"levelo://app?vid=7743c761-6fef-4983-9ec9-dc1358ee835d","ios":"levelo://app?vid=7743c761-6fef-4983-9ec9-dc1358ee835d"},"vehicle_type_id":"4","last_reported":1752214640,"current_range_meters":22800,"station_id":"","pricing_plan_id":"cebpf4jnsgd1na2vs0mg"},{"bike_id":"61311c34-8ad3-46f2-97a6-24b285751e2f","system_id":"levelo_inurba_marseille","lat":43.32339,"lon":5.40613,"is_reserved":false,"is_disabled":false,"rental_uris":{"android":"levelo://app?vid=61311c34-8ad3-46f2-97a6-24b285751e2f","ios":"levelo://app?vid=61311c34-8ad3-46f2-97a6-24b285751e2f"},"vehicle_type_id":"4","last_reported":1752214640,"current_range_meters":22800,"station_id":"ce4bhq92rcd13ifvqhjg","pricing_plan_id":"cebpf4jnsgd1na2vs0mg"},{"bike_id":"00bb04d2-087b-4ba0-958b-5c83f2321f0a","system_id":"levelo_inurba_marseille","lat":43.295487,"lon":5.422829,"is_reserved":false,"is_disabled":false,"rental_uris":{"android":"levelo://app?vid=00bb04d2-087b-4ba0-958b-5c83f2321f0a","ios":"levelo://app?vid=00bb04d2-087b-4ba0-958b-5c83f2321f0a"},"vehicle_type_id":"4","last_reported":1752214640,"current_range_meters":22800,"station_id":"ce4bhph2rcd13ifvqhdg","pricing_plan_id":"cebpf4jnsgd1na2vs0mg"},{"bike_id":"c9530cf7-7826-4c14-97ac-865f186d0bb6","system_id":"levelo_inurba_marseille","lat":43.29275,"lon":5.40143,"is_reserved":false,"is_disabled":false,"rental_uris":{"android":"levelo://app?vid=c9530cf7-7826-4c14-97ac-865f186d0bb6","ios":"levelo://app?vid=c9530cf7-7826-4c14-97ac-865f186d0bb6"},"vehicle_type_id":"4","last_reported":1752214640,"current_range_meters":22800,"station_id":"ce4bh312rcd13ifvqdk0","pricing_plan_id":"cebpf4jnsgd1na2vs0mg"},{"bike_id":"028c8301-8e99-4f6b-983c-d8b1eaa0aa1d","system_id":"levelo_inurba_marseille","lat":43.30008,"lon":5.38602,"is_reserved":false,"is_disabled":false,"rental_uris":{"android":"levelo://app?vid=028c8301-8e99-4f6b-983c-d8b1eaa0aa1d","ios":"levelo://app?vid=028c8301-8e99-4f6b-983c-d8b1eaa0aa1d"},"vehicle_type_id":"4","last_reported":1752214640,"current_range_meters":22800,"station_id":"","pricing_plan_id":"cebpf4jnsgd1na2vs0mg"},{"bike_id":"ae790f9d-4b42-408e-8659-37a80e946e03","system_id":"levelo_inurba_marseille","lat":43.32341,"lon":5.38858,"is_reserved":false,"is_disabled":false,"rental_uris":{"android":"levelo://app?vid=ae790f9d-4b42-408e-8659-37a80e946e03","ios":"levelo://app?vid=ae790f9d-4b42-408e-8659-37a80e946e03"},"vehicle_type_id":"4","last_reported":1752214640,"current_range_meters":22800,"station_id":"ce4bhqp2rcd13ifvqhog","pricing_plan_id":"cebpf4jnsgd1na2vs0mg"},{"bike_id":"8b37f03f-f226-4bbc-8648-b109da7ba145","system_id":"levelo_inurba_marseille","lat":43.30536,"lon":5.366999,"is_reserved":false,"is_disabled":false,"rental_uris":{"android":"levelo://app?vid=8b37f03f-f226-4bbc-8648-b109da7ba145","ios":"levelo://app?vid=8b37f03f-f226-4bbc-8648-b109da7ba145"},"vehicle_type_id":"4","last_reported":1752214640,"current_range_meters":22800,"station_id":"","pricing_plan_id":"cebpf4jnsgd1na2vs0mg"},{"bike_id":"42abc01b-608e-4eb8-85e4-f45caa02d7fa","system_id":"levelo_inurba_marseille","lat":43.23145,"lon":5.43717,"is_reserved":false,"is_disabled":false,"rental_uris":{"android":"levelo://app?vid=42abc01b-608e-4eb8-85e4-f45caa02d7fa","ios":"levelo://app?vid=42abc01b-608e-4eb8-85e4-f45caa02d7fa"},"vehicle_type_id":"4","last_reported":1752214640,"current_range_meters":22800,"station_id":"ce4bhmp2rcd13ifvqgog","pricing_plan_id":"cebpf4jnsgd1na2vs0mg"},{"bike_id":"d799b321-3a7d-4201-b46e-ffe2ad124f19","system_id":"levelo_inurba_marseille","lat":43.32882,"lon":5.383971,"is_reserved":false,"is_disabled":false,"rental_uris":{"android":"levelo://app?vid=d799b321-3a7d-4201-b46e-ffe2ad124f19","ios":"levelo://app?vid=d799b321-3a7d-4201-b46e-ffe2ad124f19"},"vehicle_type_id":"4","last_reported":1752214640,"current_range_meters":22800,"station_id":"","pricing_plan_id":"cebpf4jnsgd1na2vs0mg"},{"bike_id":"0fd6c78d-9958-4b43-afd1-c57ce2fd1d97","system_id":"levelo_inurba_marseille","lat":43.271833,"lon":5.409862,"is_reserved":false,"is_disabled":false,"rental_uris":{"android":"levelo://app?vid=0fd6c78d-9958-4b43-afd1-c57ce2fd1d97","ios":"levelo://app?vid=0fd6c78d-9958-4b43-afd1-c57ce2fd1d97"},"vehicle_type_id":"4","last_reported":1752214640,"current_range_meters":22800,"station_id":"ce4bhl12rcd13ifvqgf0","pricing_plan_id":"cebpf4jnsgd1na2vs0mg"},{"bike_id":"07860224-5de3-45bc-a921-381cb182c3c5","system_id":"levelo_inurba_marseille","lat":43.29008,"lon":5.38144,"is_reserved":false,"is_disabled":false,"rental_uris":{"android":"levelo://app?vid=07860224-5de3-45bc-a921-381cb182c3c5","ios":"levelo://app?vid=07860224-5de3-45bc-a921-381cb182c3c5"},"vehicle_type_id":"4","last_reported":1752214640,"current_range_meters":23200,"station_id":"ce4bh4p2rcd13ifvqe1g","pricing_plan_id":"cebpf4jnsgd1na2vs0mg"},{"bike_id":"0ab3f00c-4b54-424c-8e6d-e6b4e5865f8f","system_id":"levelo_inurba_marseille","lat":43.29636,"lon":5.4061,"is_reserved":false,"is_disabled":false,"rental_uris":{"android":"levelo://app?vid=0ab3f00c-4b54-424c-8e6d-e6b4e5865f8f","ios":"levelo://app?vid=0ab3f00c-4b54-424c-8e6d-e6b4e5865f8f"},"vehicle_type_id":"4","last_reported":1752214640,"current_range_meters":23200,"station_id":"ce4bh0h2rcd13ifvqd60","pricing_plan_id":"cebpf4jnsgd1na2vs0mg"},{"bike_id":"64b5aef6-e300-41a9-a308-e78c5106a024","system_id":"levelo_inurba_marseille","lat":43.314453,"lon":5.380012,"is_reserved":false,"is_disabled":false,"rental_uris":{"android":"levelo://app?vid=64b5aef6-e300-41a9-a308-e78c5106a024","ios":"levelo://app?vid=64b5aef6-e300-41a9-a308-e78c5106a024"},