{"last_updated":1745960973,"ttl":60,"version":"2.2","data":{"bikes":[{"bike_id":"0d42d741-2505-42aa-b79a-41df572094e2","system_id":"levelo_inurba_marseille","lat":43.27626,"lon":5.39307,"is_reserved":false,"is_disabled":true,"rental_uris":{"android":"levelo://app?vid=0d42d741-2505-42aa-b79a-41df572094e2","ios":"levelo://app?vid=0d42d741-2505-42aa-b79a-41df572094e2"},"vehicle_type_id":"4","last_reported":1745960973,"current_range_meters":0,"station_id":"","pricing_plan_id":"cebpf4jnsgd1na2vs0mg"},{"bike_id":"b156cb3a-a131-4c8b-b3b5-13ae6db8151f","system_id":"levelo_inurba_marseille","lat":43.26873,"lon":5.38222,"is_reserved":false,"is_disabled":true,"rental_uris":{"android":"levelo://app?vid=b156cb3a-a131-4c8b-b3b5-13ae6db8151f","ios":"levelo://app?vid=b156cb3a-a131-4c8b-b3b5-13ae6db8151f"},"vehicle_type_id":"4","last_reported":1745960973,"current_range_meters":0,"station_id":"","pricing_plan_id":"cebpf4jnsgd1na2vs0mg"},{"bike_id":"2b6b7bcc-8628-473a-9134-84c7ea90ae25","system_id":"levelo_inurba_marseille","lat":43.275428,"lon":5.389948,"is_reserved":false,"is_disabled":true,"rental_uris":{"android":"levelo://app?vid=2b6b7bcc-8628-473a-9134-84c7ea90ae25","ios":"levelo://app?vid=2b6b7bcc-8628-473a-9134-84c7ea90ae25"},"vehicle_type_id":"4","last_reported":1745960973,"current_range_meters":0,"station_id":"","pricing_plan_id":"cebpf4jnsgd1na2vs0mg"},{"bike_id":"8f515858-71d6-4b47-b989-20758303e199","system_id":"levelo_inurba_marseille","lat":43.26824,"lon":5.42659,"is_reserved":false,"is_disabled":true,"rental_uris":{"android":"levelo://app?vid=8f515858-71d6-4b47-b989-20758303e199","ios":"levelo://app?vid=8f515858-71d6-4b47-b989-20758303e199"},"vehicle_type_id":"4","last_reported":1745960973,"current_range_meters":0,"station_id":"","pricing_plan_id":"cebpf4jnsgd1na2vs0mg"},{"bike_id":"2f06a072-bc6b-4067-a65a-93c068d77fd4","system_id":"levelo_inurba_marseille","lat":43.21245,"lon":5.35056,"is_reserved":false,"is_disabled":true,"rental_uris":{"android":"levelo://app?vid=2f06a072-bc6b-4067-a65a-93c068d77fd4","ios":"levelo://app?vid=2f06a072-bc6b-4067-a65a-93c068d77fd4"},"vehicle_type_id":"4","last_reported":1745960973,"current_range_meters":0,"station_id":"","pricing_plan_id":"cebpf4jnsgd1na2vs0mg"},{"bike_id":"80718686-899b-4cd1-9e6d-b04f236aacda","system_id":"levelo_inurba_marseille","lat":43.30715,"lon":5.39746,"is_reserved":false,"is_disabled":true,"rental_uris":{"android":"levelo://app?vid=80718686-899b-4cd1-9e6d-b04f236aacda","ios":"levelo://app?vid=80718686-899b-4cd1-9e6d-b04f236aacda"},"vehicle_type_id":"4","last_reported":1745960973,"current_range_meters":0,"station_id":"","pricing_plan_id":"cebpf4jnsgd1na2vs0mg"},{"bike_id":"74677f28-3596-4c5b-98de-ba4120a70f9d","system_id":"levelo_inurba_marseille","lat":43.25621,"lon":5.4119,"is_reserved":false,"is_disabled":true,"rental_uris":{"android":"levelo://app?vid=74677f28-3596-4c5b-98de-ba4120a70f9d","ios":"levelo://app?vid=74677f28-3596-4c5b-98de-ba4120a70f9d"},"vehicle_type_id":"4","last_reported":1745960973,"current_range_meters":0,"station_id":"","pricing_plan_id":"cebpf4jnsgd1na2vs0mg"},{"bike_id":"9e2ed24c-a8e8-4759-b396-7d820551a1cd","system_id":"levelo_inurba_marseille","lat":43.26712,"lon":5.4022,"is_reserved":false,"is_disabled":true,"rental_uris":{"android":"levelo://app?vid=9e2ed24c-a8e8-4759-b396-7d820551a1cd","ios":"levelo://app?vid=9e2ed24c-a8e8-4759-b396-7d820551a1cd"},"vehicle_type_id":"4","last_reported":1745960973,"current_range_meters":0,"station_id":"","pricing_plan_id":"cebpf4jnsgd1na2vs0mg"},{"bike_id":"705db5aa-feb0-4862-923d-cfb22bced0d3","system_id":"levelo_inurba_marseille","lat":43.21477,"lon":5.3481,"is_reserved":false,"is_disabled":true,"rental_uris":{"android":"levelo://app?vid=705db5aa-feb0-4862-923d-cfb22bced0d3","ios":"levelo://app?vid=705db5aa-feb0-4862-923d-cfb22bced0d3"},"vehicle_type_id":"4","last_reported":1745960973,"current_range_meters":0,"station_id":"","pricing_plan_id":"cebpf4jnsgd1na2vs0mg"},{"bike_id":"e969d885-b3b8-4ea8-9ec1-8bf7482bb162","system_id":"levelo_inurba_marseille","lat":43.287104,"lon":5.400007,"is_reserved":false,"is_disabled":true,"rental_uris":{"android":"levelo://app?vid=e969d885-b3b8-4ea8-9ec1-8bf7482bb162","ios":"levelo://app?vid=e969d885-b3b8-4ea8-9ec1-8bf7482bb162"},"vehicle_type_id":"4","last_reported":1745960973,"current_range_meters":0,"station_id":"ce4bho92rcd13ifvqh3g","pricing_plan_id":"cebpf4jnsgd1na2vs0mg"},{"bike_id":"0c9399e7-8af3-4669-848f-ec52f56fba71","system_id":"levelo_inurba_marseille","lat":43.274491,"lon":5.407353,"is_reserved":false,"is_disabled":true,"rental_uris":{"android":"levelo://app?vid=0c9399e7-8af3-4669-848f-ec52f56fba71","ios":"levelo://app?vid=0c9399e7-8af3-4669-848f-ec52f56fba71"},"vehicle_type_id":"4","last_reported":1745960973,"current_range_meters":400,"station_id":"","pricing_plan_id":"cebpf4jnsgd1na2vs0mg"},{"bike_id":"3ad3c3f2-6fde-4d3e-bca4-90f890e95280","system_id":"levelo_inurba_marseille","lat":43.27974,"lon":5.38748,"is_reserved":false,"is_disabled":true,"rental_uris":{"android":"levelo://app?vid=3ad3c3f2-6fde-4d3e-bca4-90f890e95280","ios":"levelo://app?vid=3ad3c3f2-6fde-4d3e-bca4-90f890e95280"},"vehicle_type_id":"4","last_reported":1745960973,"current_range_meters":400,"station_id":"ce4bhg12rcd13ifvqf80","pricing_plan_id":"cebpf4jnsgd1na2vs0mg"},{"bike_id":"79b6bfcc-d304-4b91-9f60-928356f04f15","system_id":"levelo_inurba_marseille","lat":43.26694,"lon":5.38262,"is_reserved":false,"is_disabled":true,"rental_uris":{"android":"levelo://app?vid=79b6bfcc-d304-4b91-9f60-928356f04f15","ios":"levelo://app?vid=79b6bfcc-d304-4b91-9f60-928356f04f15"},"vehicle_type_id":"4","last_reported":1745960973,"current_range_meters":800,"station_id":"ce4bhg92rcd13ifvqf90","pricing_plan_id":"cebpf4jnsgd1na2vs0mg"},{"bike_id":"584ced00-3d7b-4e77-854e-b5d529790bd3","system_id":"levelo_inurba_marseille","lat":43.31738,"lon":5.424,"is_reserved":false,"is_disabled":true,"rental_uris":{"android":"levelo://app?vid=584ced00-3d7b-4e77-854e-b5d529790bd3","ios":"levelo://app?vid=584ced00-3d7b-4e77-854e-b5d529790bd3"},"vehicle_type_id":"4","last_reported":1745960973,"current_range_meters":800,"station_id":"ce4bhp92rcd13ifvqhbg","pricing_plan_id":"cebpf4jnsgd1na2vs0mg"},{"bike_id":"15308a48-abed-4fa2-9135-19f806d78613","system_id":"levelo_inurba_marseille","lat":43.25408,"lon":5.41433,"is_reserved":false,"is_disabled":true,"rental_uris":{"android":"levelo://app?vid=15308a48-abed-4fa2-9135-19f806d78613","ios":"levelo://app?vid=15308a48-abed-4fa2-9135-19f806d78613"},"vehicle_type_id":"4","last_reported":1745960973,"current_range_meters":1200,"station_id":"","pricing_plan_id":"cebpf4jnsgd1na2vs0mg"},{"bike_id":"af2baa02-626d-4353-9386-7627a67b7b27","system_id":"levelo_inurba_marseille","lat":43.28785,"lon":5.44889,"is_reserved":false,"is_disabled":true,"rental_uris":{"android":"levelo://app?vid=af2baa02-626d-4353-9386-7627a67b7b27","ios":"levelo://app?vid=af2baa02-626d-4353-9386-7627a67b7b27"},"vehicle_type_id":"4","last_reported":1745960973,"current_range_meters":1200,"station_id":"","pricing_plan_id":"cebpf4jnsgd1na2vs0mg"},{"bike_id":"dd058625-25d4-4b64-8474-77357bb4b5d8","system_id":"levelo_inurba_marseille","lat":43.26577,"lon":5.39011,"is_reserved":false,"is_disabled":true,"rental_uris":{"android":"levelo://app?vid=dd058625-25d4-4b64-8474-77357bb4b5d8","ios":"levelo://app?vid=dd058625-25d4-4b64-8474-77357bb4b5d8"},"vehicle_type_id":"4","last_reported":1745960973,"current_range_meters":1200,"station_id":"ce4bhe12rcd13ifvqf30","pricing_plan_id":"cebpf4jnsgd1na2vs0mg"},{"bike_id":"6392f5ae-c720-44ae-8680-ce4176674427","system_id":"levelo_inurba_marseille","lat":43.245473,"lon":5.395233,"is_reserved":false,"is_disabled":true,"rental_uris":{"android":"levelo://app?vid=6392f5ae-c720-44ae-8680-ce4176674427","ios":"levelo://app?vid=6392f5ae-c720-44ae-8680-ce4176674427"},"vehicle_type_id":"4","last_reported":1745960973,"current_range_meters":1200,"station_id":"ce4bhlp2rcd13ifvqgjg","pricing_plan_id":"cebpf4jnsgd1na2vs0mg"},{"bike_id":"27f12008-0d11-4af1-8b7a-4070d86332d5","system_id":"levelo_inurba_marseille","lat":43.21746,"lon":5.34613,"is_reserved":false,"is_disabled":true,"rental_uris":{"android":"levelo://app?vid=27f12008-0d11-4af1-8b7a-4070d86332d5","ios":"levelo://app?vid=27f12008-0d11-4af1-8b7a-4070d86332d5"},"vehicle_type_id":"4","last_reported":1745960973,"current_range_meters":1600,"station_id":"","pricing_plan_id":"cebpf4jnsgd1na2vs0mg"},{"bike_id":"a4c8a335-745b-4d95-97e0-7bac3cb18549","system_id":"levelo_inurba_marseille","lat":43.28097,"lon":5.39853,"is_reserved":false,"is_disabled":true,"rental_uris":{"android":"levelo://app?vid=a4c8a335-745b-4d95-97e0-7bac3cb18549","ios":"levelo://app?vid=a4c8a335-745b-4d95-97e0-7bac3cb18549"},"vehicle_type_id":"4","last_reported":1745960973,"current_range_meters":1600,"station_id":"","pricing_plan_id":"cebpf4jnsgd1na2vs0mg"},{"bike_id":"7f0d9ca3-7c96-47cc-945d-8a7614438313","system_id":"levelo_inurba_marseille","lat":43.29806,"lon":5.38096,"is_reserved":false,"is_disabled":true,"rental_uris":{"android":"levelo://app?vid=7f0d9ca3-7c96-47cc-945d-8a7614438313","ios":"levelo://app?vid=7f0d9ca3-7c96-47cc-945d-8a7614438313"},"vehicle_type_id":"4","last_reported":1745960973,"current_range_meters":1600,"station_id":"ce4bgip2rcd13ifvqbb0","pricing_plan_id":"cebpf4jnsgd1na2vs0mg"},{"bike_id":"52f55795-b05e-4b26-9880-bccf318077fd","system_id":"levelo_inurba_marseille","lat":43.295166,"lon":5.394013,"is_reserved":false,"is_disabled":false,"rental_uris":{"android":"levelo://app?vid=52f55795-b05e-4b26-9880-bccf318077fd","ios":"levelo://app?vid=52f55795-b05e-4b26-9880-bccf318077fd"},"vehicle_type_id":"4","last_reported":1745960973,"current_range_meters":2800,"station_id":"ce4bh292rcd13ifvqdf0","pricing_plan_id":"cebpf4jnsgd1na2vs0mg"},{"bike_id":"26deac1f-c435-40bc-9469-9ae0b266bb77","system_id":"levelo_inurba_marseille","lat":43.30191,"lon":5.38485,"is_reserved":false,"is_disabled":false,"rental_uris":{"android":"levelo://app?vid=26deac1f-c435-40bc-9469-9ae0b266bb77","ios":"levelo://app?vid=26deac1f-c435-40bc-9469-9ae0b266bb77"},"vehicle_type_id":"4","last_reported":1745960973,"current_range_meters":3200,"station_id":"","pricing_plan_id":"cebpf4jnsgd1na2vs0mg"},{"bike_id":"b1040775-cdbd-4461-a120-155006f740eb","system_id":"levelo_inurba_marseille","lat":43.21194,"lon":5.35074,"is_reserved":false,"is_disabled":false,"rental_uris":{"android":"levelo://app?vid=b1040775-cdbd-4461-a120-155006f740eb","ios":"levelo://app?vid=b1040775-cdbd-4461-a120-155006f740eb"},"vehicle_type_id":"4","last_reported":1745960973,"current_range_meters":3200,"station_id":"st_cvj6sg6p6f1abm77japg","pricing_plan_id":"cebpf4jnsgd1na2vs0mg"},{"bike_id":"2f30abe4-121e-4b65-a631-ce3d0d117f05","system_id":"levelo_inurba_marseille","lat":43.295258,"lon":5.385424,"is_reserved":false,"is_disabled":false,"rental_uris":{"android":"levelo://app?vid=2f30abe4-121e-4b65-a631-ce3d0d117f05","ios":"levelo://app?vid=2f30abe4-121e-4b65-a631-ce3d0d117f05"},"vehicle_type_id":"4","last_reported":1745960973,"current_range_meters":3600,"station_id":"ce4bgih2rcd13ifvqba0","pricing_plan_id":"cebpf4jnsgd1na2vs0mg"},{"bike_id":"dc5a0f72-86a4-4622-96b2-165ed70d59b6","system_id":"levelo_inurba_marseille","lat":43.2926,"lon":5.40905,"is_reserved":false,"is_disabled":false,"rental_uris":{"android":"levelo://app?vid=dc5a0f72-86a4-4622-96b2-165ed70d59b6","ios":"levelo://app?vid=dc5a0f72-86a4-4622-96b2-165ed70d59b6"},"vehicle_type_id":"4","last_reported":1745960973,"current_range_meters":3600,"station_id":"ce4bh192rcd13ifvqdc0","pricing_plan_id":"cebpf4jnsgd1na2vs0mg"},{"bike_id":"88e69bee-8d93-4dbe-861c-114a36ef4727","system_id":"levelo_inurba_marseille","lat":43.29561,"lon":5.37549,"is_reserved":false,"is_disabled":false,"rental_uris":{"android":"levelo://app?vid=88e69bee-8d93-4dbe-861c-114a36ef4727","ios":"levelo://app?vid=88e69bee-8d93-4dbe-861c-114a36ef4727"},"vehicle_type_id":"4","last_reported":1745960973,"current_range_meters":3600,"station_id":"ce4bhap2rcd13ifvqek0","pricing_plan_id":"cebpf4jnsgd1na2vs0mg"},{"bike_id":"fcf39cbd-8d86-44b1-994d-edea3f417da6","system_id":"levelo_inurba_marseille","lat":43.27178,"lon":5.40999,"is_reserved":false,"is_disabled":false,"rental_uris":{"android":"levelo://app?vid=fcf39cbd-8d86-44b1-994d-edea3f417da6","ios":"levelo://app?vid=fcf39cbd-8d86-44b1-994d-edea3f417da6"},"vehicle_type_id":"4","last_reported":1745960973,"current_range_meters":3600,"station_id":"ce4bhl12rcd13ifvqgf0","pricing_plan_id":"cebpf4jnsgd1na2vs0mg"},{"bike_id":"af4f0c69-e62d-4155-b1d1-a67b45271ae1","system_id":"levelo_inurba_marseille","lat":43.24756,"lon":5.41172,"is_reserved":false,"is_disabled":false,"rental_uris":{"android":"levelo://app?vid=af4f0c69-e62d-4155-b1d1-a67b45271ae1","ios":"levelo://app?vid=af4f0c69-e62d-4155-b1d1-a67b45271ae1"},"vehicle_type_id":"4","last_reported":1745960973,"current_range_meters":4400,"station_id":"","pricing_plan_id":"cebpf4jnsgd1na2vs0mg"},{"bike_id":"4495444d-abd9-4d15-ae65-abeb5470be26","system_id":"levelo_inurba_marseille","lat":43.30548,"lon":5.3843,"is_reserved":false,"is_disabled":false,"rental_uris":{"android":"levelo://app?vid=4495444d-abd9-4d15-ae65-abeb5470be26","ios":"levelo://app?vid=4495444d-abd9-4d15-ae65-abeb5470be26"},"vehicle_type_id":"4","last_reported":1745960973,"current_range_meters":4800,"station_id":"ce4bgg92rcd13ifvqb30","pricing_plan_id":"cebpf4jnsgd1na2vs0mg"},{"bike_id":"f0f1ba02-1129-4c1a-874f-736ed611f0f0","system_id":"levelo_inurba_marseille","lat":43.30602,"lon":5.37214,"is_reserved":false,"is_disabled":false,"rental_uris":{"android":"levelo://app?vid=f0f1ba02-1129-4c1a-874f-736ed611f0f0","ios":"levelo://app?vid=f0f1ba02-1129-4c1a-874f-736ed611f0f0"},"vehicle_type_id":"4","last_reported":1745960973,"current_range_meters":4800,"station_id":"ce4bgqh2rcd13ifvqc4g","pricing_plan_id":"cebpf4jnsgd1na2vs0mg"},{"bike_id":"c2e0fb55-e129-41ac-bf18-40c9ee496eab","system_id":"levelo_inurba_marseille","lat":43.29264,"lon":5.40907,"is_reserved":false,"is_disabled":false,"rental_uris":{"android":"levelo://app?vid=c2e0fb55-e129-41ac-bf18-40c9ee496eab","ios":"levelo://app?vid=c2e0fb55-e129-41ac-bf18-40c9ee496eab"},"vehicle_type_id":"4","last_reported":1745960973,"current_range_meters":5600,"station_id":"ce4bh192rcd13ifvqdc0","pricing_plan_id":"cebpf4jnsgd1na2vs0mg"},{"bike_id":"938176cc-183e-4557-bea4-ba005e3f81d3","system_id":"levelo_inurba_marseille","lat":43.286957,"lon":5.373863,"is_reserved":false,"is_disabled":false,"rental_uris":{"android":"levelo://app?vid=938176cc-183e-4557-bea4-ba005e3f81d3","ios":"levelo://app?vid=938176cc-183e-4557-bea4-ba005e3f81d3"},"vehicle_type_id":"4","last_reported":1745960973,"current_range_meters":5600,"station_id":"ce4bh3p2rcd13ifvqdq0","pricing_plan_id":"cebpf4jnsgd1na2vs0mg"},{"bike_id":"57bd0096-57bd-4067-87b2-0bfd38900db1","system_id":"levelo_inurba_marseille","lat":43.31502,"lon":5.37304,"is_reserved":false,"is_disabled":false,"rental_uris":{"android":"levelo://app?vid=57bd0096-57bd-4067-87b2-0bfd38900db1","ios":"levelo://app?vid=57bd0096-57bd-4067-87b2-0bfd38900db1"},"vehicle_type_id":"4","last_reported":1745960973,"current_range_meters":6000,"station_id":"ce4bgt12rcd13ifvqcd0","pricing_plan_id":"cebpf4jnsgd1na2vs0mg"},{"bike_id":"b039c152-f87b-436a-9b54-3e5c0bb27b9c","system_id":"levelo_inurba_marseille","lat":43.28954,"lon":5.39621,"is_reserved":false,"is_disabled":false,"rental_uris":{"android":"levelo://app?vid=b039c152-f87b-436a-9b54-3e5c0bb27b9c","ios":"levelo://app?vid=b039c152-f87b-436a-9b54-3e5c0bb27b9c"},"vehicle_type_id":"4","last_reported":1745960973,"current_range_meters":6000,"station_id":"ce4bh3h2rcd13ifvqdn0","pricing_plan_id":"cebpf4jnsgd1na2vs0mg"},{"bike_id":"775481df-05c4-4f0e-8a67-b66aedbeddcf","system_id":"levelo_inurba_marseille","lat":43.24165,"lon":5.39707,"is_reserved":false,"is_disabled":false,"rental_uris":{"android":"levelo://app?vid=775481df-05c4-4f0e-8a67-b66aedbeddcf","ios":"levelo://app?vid=775481df-05c4-4f0e-8a67-b66aedbeddcf"},"vehicle_type_id":"4","last_reported":1745960973,"current_range_meters":6000,"station_id":"ce4bhn12rcd13ifvqgpg","pricing_plan_id":"cebpf4jnsgd1na2vs0mg"},{"bike_id":"3a3adc5f-c46c-4ddb-9f5b-addbfa5853df","system_id":"levelo_inurba_marseille","lat":43.30212,"lon":5.39477,"is_reserved":false,"is_disabled":false,"rental_uris":{"android":"levelo://app?vid=3a3adc5f-c46c-4ddb-9f5b-addbfa5853df","ios":"levelo://app?vid=3a3adc5f-c46c-4ddb-9f5b-addbfa5853df"},"vehicle_type_id":"4","last_reported":1745960973,"current_range_meters":6400,"station_id":"ce4bh0p2rcd13ifvqd70","pricing_plan_id":"cebpf4jnsgd1na2vs0mg"},{"bike_id":"83825a2b-3736-49ed-aeea-be993f789935","system_id":"levelo_inurba_marseille","lat":43.27498,"lon":5.42464,"is_reserved":false,"is_disabled":false,"rental_uris":{"android":"levelo://app?vid=83825a2b-3736-49ed-aeea-be993f789935","ios":"levelo://app?vid=83825a2b-3736-49ed-aeea-be993f789935"},"vehicle_type_id":"4","last_reported":1745960973,"current_range_meters":6400,"station_id":"ce4bhn92rcd13ifvqgrg","pricing_plan_id":"cebpf4jnsgd1na2vs0mg"},{"bike_id":"f3762a9a-8ba8-406c-820e-a3cb3a347c9e","system_id":"levelo_inurba_marseille","lat":43.32937,"lon":5.36553,"is_reserved":false,"is_disabled":false,"rental_uris":{"android":"levelo://app?vid=f3762a9a-8ba8-406c-820e-a3cb3a347c9e","ios":"levelo://app?vid=f3762a9a-8ba8-406c-820e-a3cb3a347c9e"},"vehicle_type_id":"4","last_reported":1745960973,"current_range_meters":6800,"station_id":"","pricing_plan_id":"cebpf4jnsgd1na2vs0mg"},{"bike_id":"2ac783cb-f625-4e18-98ba-c256f5e12461","system_id":"levelo_inurba_marseille","lat":43.29191,"lon":5.39326,"is_reserved":false,"is_disabled":false,"rental_uris":{"android":"levelo://app?vid=2ac783cb-f625-4e18-98ba-c256f5e12461","ios":"levelo://app?vid=2ac783cb-f625-4e18-98ba-c256f5e12461"},"vehicle_type_id":"4","last_reported":1745960973,"current_range_meters":6800,"station_id":"ce4bh192rcd13ifvqdd0","pricing_plan_id":"cebpf4jnsgd1na2vs0mg"},{"bike_id":"abaed6b1-32e2-474f-89df-6a6076715ab4","system_id":"levelo_inurba_marseille","lat":43.289987,"lon":5.366268,"is_reserved":false,"is_disabled":false,"rental_uris":{"android":"levelo://app?vid=abaed6b1-32e2-474f-89df-6a6076715ab4","ios":"levelo://app?vid=abaed6b1-32e2-474f-89df-6a6076715ab4"},"vehicle_type_id":"4","last_reported":1745960973,"current_range_meters":6800,"station_id":"ce4bhap2rcd13ifvqek0","pricing_plan_id":"cebpf4jnsgd1na2vs0mg"},{"bike_id":"97cd527e-0be5-4876-a368-4ca625a49f3f","system_id":"levelo_inurba_marseille","lat":43.26579,"lon":5.39001,"is_reserved":false,"is_disabled":false,"rental_uris":{"android":"levelo://app?vid=97cd527e-0be5-4876-a368-4ca625a49f3f","ios":"levelo://app?vid=97cd527e-0be5-4876-a368-4ca625a49f3f"},"vehicle_type_id":"4","last_reported":1745960973,"current_range_meters":6800,"station_id":"ce4bhe12rcd13ifvqf30","pricing_plan_id":"cebpf4jnsgd1na2vs0mg"},{"bike_id":"33ef0de7-be64-4bbc-af28-b6ff231cbc2d","system_id":"levelo_inurba_marseille","lat":43.292959,"lon":5.401431,"is_reserved":false,"is_disabled":false,"rental_uris":{"android":"levelo://app?vid=33ef0de7-be64-4bbc-af28-b6ff231cbc2d","ios":"levelo://app?vid=33ef0de7-be64-4bbc-af28-b6ff231cbc2d"},"vehicle_type_id":"4","last_reported":1745960973,"current_range_meters":7200,"station_id":"","pricing_plan_id":"cebpf4jnsgd1na2vs0mg"},{"bike_id":"e5b4b90d-e268-4de2-98f4-f6d0513f8801","system_id":"levelo_inurba_marseille","lat":43.26556,"lon":5.42227,"is_reserved":false,"is_disabled":false,"rental_uris":{"android":"levelo://app?vid=e5b4b90d-e268-4de2-98f4-f6d0513f8801","ios":"levelo://app?vid=e5b4b90d-e268-4de2-98f4-f6d0513f8801"},"vehicle_type_id":"4","last_reported":1745960973,"current_range_meters":7200,"station_id":"","pricing_plan_id":"cebpf4jnsgd1na2vs0mg"},{"bike_id":"d2e0acb7-3756-4aa5-830e-2a8cb914029b","system_id":"levelo_inurba_marseille","lat":43.29247,"lon":5.37616,"is_reserved":false,"is_disabled":false,"rental_uris":{"android":"levelo://app?vid=d2e0acb7-3756-4aa5-830e-2a8cb914029b","ios":"levelo://app?vid=d2e0acb7-3756-4aa5-830e-2a8cb914029b"},"vehicle_type_id":"4","last_reported":1745960973,"current_range_meters":7200,"station_id":"ce4bgi12rcd13ifvqb80","pricing_plan_id":"cebpf4jnsgd1na2vs0mg"},{"bike_id":"5599477c-5cca-4dc5-8cc4-a3cb6d7cf67e","system_id":"levelo_inurba_marseille","lat":43.299344,"lon":5.373387,"is_reserved":false,"is_disabled":false,"rental_uris":{"android":"levelo://app?vid=5599477c-5cca-4dc5-8cc4-a3cb6d7cf67e","ios":"levelo://app?vid=5599477c-5cca-4dc5-8cc4-a3cb6d7cf67e"},"vehicle_type_id":"4","last_reported":1745960973,"current_range_meters":7200,"station_id":"ce4bgr92rcd13ifvqc7g","pricing_plan_id":"cebpf4jnsgd1na2vs0mg"},{"bike_id":"fabf3e12-589c-44fa-84b5-5a86cfe0e425","system_id":"levelo_inurba_marseille","lat":43.308,"lon":5.38166,"is_reserved":false,"is_disabled":false,"rental_uris":{"android":"levelo://app?vid=fabf3e12-589c-44fa-84b5-5a86cfe0e425","ios":"levelo://app?vid=fabf3e12-589c-44fa-84b5-5a86cfe0e425"},"vehicle_type_id":"4","last_reported":1745960973,"current_range_meters":7200,"station_id":"ce4bgt12rcd13ifvqce0","pricing_plan_id":"cebpf4jnsgd1na2vs0mg"},{"bike_id":"44422e97-6f3f-4749-8149-d4b2456b89a8","system_id":"levelo_inurba_marseille","lat":43.28484,"lon":5.38555,"is_reserved":false,"is_disabled":false,"rental_uris":{"android":"levelo://app?vid=44422e97-6f3f-4749-8149-d4b2456b89a8","ios":"levelo://app?vid=44422e97-6f3f-4749-8149-d4b2456b89a8"},"vehicle_type_id":"4","last_reported":1745960973,"current_range_meters":7200,"station_id":"ce4bh8p2rcd13ifvqeb0","pricing_plan_id":"cebpf4jnsgd1na2vs0mg"},{"bike_id":"c3701277-3ef8-4af1-aceb-6364bb93ea9e","system_id":"levelo_inurba_marseille","lat":43.322793,"lon":5.382983,"is_reserved":false,"is_disabled":false,"rental_uris":{"android":"levelo://app?vid=c3701277-3ef8-4af1-aceb-6364bb93ea9e","ios":"levelo://app?vid=c3701277-3ef8-4af1-aceb-6364bb93ea9e"},"vehicle_type_id":"4","last_reported":1745960973,"current_range_meters":7200,"station_id":"ce4bhr12rcd13ifvqhqg","pricing_plan_id":"cebpf4jnsgd1na2vs0mg"},{"bike_id":"f1e3c12a-02a3-4893-b9e1-1aacd74f3f49","system_id":"levelo_inurba_marseille","lat":43.32104,"lon":5.36764,"is_reserved":false,"is_disabled":false,"rental_uris":{"android":"levelo://app?vid=f1e3c12a-02a3-4893-b9e1-1aacd74f3f49","ios":"levelo://app?vid=f1e3c12a-02a3-4893-b9e1-1aacd74f3f49"},"vehicle_type_id":"4","last_reported":1745960973,"current_range_meters":7200,"station_id":"ce4bhrh2rcd13ifvqhug","pricing_plan_id":"cebpf4jnsgd1na2vs0mg"},{"bike_id":"39005b1b-6e96-4686-bb28-b095d607b266","system_id":"levelo_inurba_marseille","lat":43.29977,"lon":5.37174,"is_reserved":false,"is_disabled":false,"rental_uris":{"android":"levelo://app?vid=39005b1b-6e96-4686-bb28-b095d607b266","ios":"levelo://app?vid=39005b1b-6e96-4686-bb28-b095d607b266"},"vehicle_type_id":"4","last_reported":1745960973,"current_range_meters":8000,"station_id":"ce4bgr92rcd13ifvqc7g","pricing_plan_id":"cebpf4jnsgd1na2vs0mg"},{"bike_id":"d693c143-5944-42c7-b7b1-448d4c6d229b","system_id":"levelo_inurba_marseille","lat":43.312793,"lon":5.40168,"is_reserved":false,"is_disabled":false,"rental_uris":{"android":"levelo://app?vid=d693c143-5944-42c7-b7b1-448d4c6d229b","ios":"levelo://app?vid=d693c143-5944-42c7-b7b1-448d4c6d229b"},"vehicle_type_id":"4","last_reported":1745960973,"current_range_meters":8000,"station_id":"ce4bh092rcd13ifvqd30","pricing_plan_id":"cebpf4jnsgd1na2vs0mg"},{"bike_id":"cfd5c621-b7be-4d89-a08a-92fa3fd53b1e","system_id":"levelo_inurba_marseille","lat":43.28933,"lon":5.38406,"is_reserved":false,"is_disabled":false,"rental_uris":{"android":"levelo://app?vid=cfd5c621-b7be-4d89-a08a-92fa3fd53b1e","ios":"levelo://app?vid=cfd5c621-b7be-4d89-a08a-92fa3fd53b1e"},"vehicle_type_id":"4","last_reported":1745960973,"current_range_meters":8000,"station_id":"ce4bh612rcd13ifvqe6g","pricing_plan_id":"cebpf4jnsgd1na2vs0mg"},{"bike_id":"d9d65adf-6c62-4fb9-b5a0-e8f6922a2a7d","system_id":"levelo_inurba_marseille","lat":43.28462,"lon":5.35889,"is_reserved":false,"is_disabled":false,"rental_uris":{"android":"levelo://app?vid=d9d65adf-6c62-4fb9-b5a0-e8f6922a2a7d","ios":"levelo://app?vid=d9d65adf-6c62-4fb9-b5a0-e8f6922a2a7d"},"vehicle_type_id":"4","last_reported":1745960973,"current_range_meters":8000,"station_id":"ce4bhah2rcd13ifvqei0","pricing_plan_id":"cebpf4jnsgd1na2vs0mg"},{"bike_id":"83acd443-6f06-458b-a9e4-d55370ac4e3d","system_id":"levelo_inurba_marseille","lat":43.26806,"lon":5.40246,"is_reserved":false,"is_disabled":false,"rental_uris":{"android":"levelo://app?vid=83acd443-6f06-458b-a9e4-d55370ac4e3d","ios":"levelo://app?vid=83acd443-6f06-458b-a9e4-d55370ac4e3d"},"vehicle_type_id":"4","last_reported":1745960973,"current_range_meters":8000,"station_id":"ce501612rcd8frsf0b60","pricing_plan_id":"cebpf4jnsgd1na2vs0mg"},{"bike_id":"738568dc-408d-4c2d-88de-35ad23a92b23","system_id":"levelo_inurba_marseille","lat":43.2415,"lon":5.364,"is_reserved":false,"is_disabled":false,"rental_uris":{"android":"levelo://app?vid=738568dc-408d-4c2d-88de-35ad23a92b23","ios":"levelo://app?vid=738568dc-408d-4c2d-88de-35ad23a92b23"},"vehicle_type_id":"4","last_reported":1745960973,"current_range_meters":8000,"station_id":"cpo36qri1sfpv3e86is0","pricing_plan_id":"cebpf4jnsgd1na2vs0mg"},{"bike_id":"7497e739-0c50-4aa1-9f39-dfb008e37b83","system_id":"levelo_inurba_marseille","lat":43.30963,"lon":5.37161,"is_reserved":false,"is_disabled":false,"rental_uris":{"android":"levelo://app?vid=7497e739-0c50-4aa1-9f39-dfb008e37b83","ios":"levelo://app?vid=7497e739-0c50-4aa1-9f39-dfb008e37b83"},"vehicle_type_id":"4","last_reported":1745960973,"current_range_meters":8400,"station_id":"","pricing_plan_id":"cebpf4jnsgd1na2vs0mg"},{"bike_id":"1a782ab5-00d7-41b3-8080-63d5ddefda0e","system_id":"levelo_inurba_marseille","lat":43.2978,"lon":5.37103,"is_reserved":false,"is_disabled":false,"rental_uris":{"android":"levelo://app?vid=1a782ab5-00d7-41b3-8080-63d5ddefda0e","ios":"levelo://app?vid=1a782ab5-00d7-41b3-8080-63d5ddefda0e"},"vehicle_type_id":"4","last_reported":1745960973,"current_range_meters":8400,"station_id":"ce4bgop2rcd13ifvqc1g","pricing_plan_id":"cebpf4jnsgd1na2vs0mg"},{"bike_id":"675f622c-7d55-4692-8fa9-36cb9fe77410","system_id":"levelo_inurba_marseille","lat":43.30327,"lon":5.40447,"is_reserved":false,"is_disabled":false,"rental_uris":{"android":"levelo://app?vid=675f622c-7d55-4692-8fa9-36cb9fe77410","ios":"levelo://app?vid=675f622c-7d55-4692-8fa9-36cb9fe77410"},"vehicle_type_id":"4","last_reported":1745960973,"current_range_meters":8400,"station_id":"ce4bh012rcd13ifvqd10","pricing_plan_id":"cebpf4jnsgd1na2vs0mg"},{"bike_id":"c6a1d831-77e7-404d-a13e-ff5c61b44c83","system_id":"levelo_inurba_marseille","lat":43.2904,"lon":5.39983,"is_reserved":false,"is_disabled":false,"rental_uris":{"android":"levelo://app?vid=c6a1d831-77e7-404d-a13e-ff5c61b44c83","ios":"levelo://app?vid=c6a1d831-77e7-404d-a13e-ff5c61b44c83"},"vehicle_type_id":"4","last_reported":1745960973,"current_range_meters":8400,"station_id":"ce4bh392rcd13ifvqdm0","pricing_plan_id":"cebpf4jnsgd1na2vs0mg"},{"bike_id":"2aca1c18-24ba-40b2-b53c-be21b3f10a9f","system_id":"levelo_inurba_marseille","lat":43.289608,"lon":5.364601,"is_reserved":false,"is_disabled":false,"rental_uris":{"android":"levelo://app?vid=2aca1c18-24ba-40b2-b53c-be21b3f10a9f","ios":"levelo://app?vid=2aca1c18-24ba-40b2-b53c-be21b3f10a9f"},"vehicle_type_id":"4","last_reported":1745960973,"current_range_meters":8400,"station_id":"ce4bhc92rcd13ifvqetg","pricing_plan_id":"cebpf4jnsgd1na2vs0mg"},{"bike_id":"d5ec15d5-cbc9-4d64-be0b-b8e3d4e57339","system_id":"levelo_inurba_marseille","lat":43.26216,"lon":5.40452,"is_reserved":false,"is_disabled":false,"rental_uris":{"android":"levelo://app?vid=d5ec15d5-cbc9-4d64-be0b-b8e3d4e57339","ios":"levelo://app?vid=d5ec15d5-cbc9-4d64-be0b-b8e3d4e57339"},"vehicle_type_id":"4","last_reported":1745960973,"current_range_meters":8400,"station_id":"ce4bhmh2rcd13ifvqgmg","pricing_plan_id":"cebpf4jnsgd1na2vs0mg"},{"bike_id":"b96f21bb-69d8-4cbf-b464-f36a8f53d6e0","system_id":"levelo_inurba_marseille","lat":43.26032,"lon":5.41727,"is_reserved":false,"is_disabled":false,"rental_uris":{"android":"levelo://app?vid=b96f21bb-69d8-4cbf-b464-f36a8f53d6e0","ios":"levelo://app?vid=b96f21bb-69d8-4cbf-b464-f36a8f53d6e0"},"vehicle_type_id":"4","last_reported":1745960973,"current_range_meters":8800,"station_id":"","pricing_plan_id":"cebpf4jnsgd1na2vs0mg"},{"bike_id":"e928a172-98a0-4de9-ad19-a40afeb6ec34","system_id":"levelo_inurba_marseille","lat":43.29872,"lon":5.39741,"is_reserved":false,"is_disabled":false,"rental_uris":{"android":"levelo://app?vid=e928a172-98a0-4de9-ad19-a40afeb6ec34","ios":"levelo://app?vid=e928a172-98a0-4de9-ad19-a40afeb6ec34"},"vehicle_type_id":"4","last_reported":1745960973,"current_range_meters":8800,"station_id":"ce4bh0h2rcd13ifvqd50","pricing_plan_id":"cebpf4jnsgd1na2vs0mg"},{"bike_id":"4477591e-a7f6-45bd-b543-4f7c7df364cb","system_id":"levelo_inurba_marseille","lat":43.29032,"lon":5.38644,"is_reserved":false,"is_disabled":false,"rental_uris":{"android":"levelo://app?vid=4477591e-a7f6-45bd-b543-4f7c7df364cb","ios":"levelo://app?vid=4477591e-a7f6-45bd-b543-4f7c7df364cb"},"vehicle_type_id":"4","last_reported":1745960973,"current_range_meters":8800,"station_id":"ce4bh4p2rcd13ifvqe0g","pricing_plan_id":"cebpf4jnsgd1na2vs0mg"},{"bike_id":"3c10f98c-2cb9-4204-927c-152300f9b3ce","system_id":"levelo_inurba_marseille","lat":43.3475,"lon":5.35122,"is_reserved":false,"is_disabled":false,"rental_uris":{"android":"levelo://app?vid=3c10f98c-2cb9-4204-927c-152300f9b3ce","ios":"levelo://app?vid=3c10f98c-2cb9-4204-927c-152300f9b3ce"},"vehicle_type_id":"4","last_reported":1745960973,"current_range_meters":9200,"station_id":"","pricing_plan_id":"cebpf4jnsgd1na2vs0mg"},{"bike_id":"475bd0ef-e94b-45ff-892d-4bb6b6d2797f","system_id":"levelo_inurba_marseille","lat":43.30823,"lon":5.38139,"is_reserved":false,"is_disabled":false,"rental_uris":{"android":"levelo://app?vid=475bd0ef-e94b-45ff-892d-4bb6b6d2797f","ios":"levelo://app?vid=475bd0ef-e94b-45ff-892d-4bb6b6d2797f"},"vehicle_type_id":"4","last_reported":1745960973,"current_range_meters":9200,"station_id":"ce4bgt12rcd13ifvqce0","pricing_plan_id":"cebpf4jnsgd1na2vs0mg"},{"bike_id":"5e5e7f3a-b98c-4a88-83dc-43eeac54eabf","system_id":"levelo_inurba_marseille","lat":43.23964,"lon":5.36638,"is_reserved":false,"is_disabled":false,"rental_uris":{"android":"levelo://app?vid=5e5e7f3a-b98c-4a88-83dc-43eeac54eabf","ios":"levelo://app?vid=5e5e7f3a-b98c-4a88-83dc-43eeac54eabf"},"vehicle_type_id":"4","last_reported":1745960973,"current_range_meters":9200,"station_id":"ce4bhi12rcd13ifvqfp0","pricing_plan_id":"cebpf4jnsgd1na2vs0mg"},{"bike_id":"561b2f84-08e7-4121-bad8-f7a2a19f1511","system_id":"levelo_inurba_marseille","lat":43.28077,"lon":5.39632,"is_reserved":false,"is_disabled":false,"rental_uris":{"android":"levelo://app?vid=561b2f84-08e7-4121-bad8-f7a2a19f1511","ios":"levelo://app?vid=561b2f84-08e7-4121-bad8-f7a2a19f1511"},"vehicle_type_id":"4","last_reported":1745960973,"current_range_meters":9200,"station_id":"ce4bho12rcd13ifvqh2g","pricing_plan_id":"cebpf4jnsgd1na2vs0mg"},{"bike_id":"7e3c650a-4197-4ac0-8278-14125c7761e5","system_id":"levelo_inurba_marseille","lat":43.28724,"lon":5.36085,"is_reserved":false,"is_disabled":false,"rental_uris":{"android":"levelo://app?vid=7e3c650a-4197-4ac0-8278-14125c7761e5","ios":"levelo://app?vid=7e3c650a-4197-4ac0-8278-14125c7761e5"},"vehicle_type_id":"4","last_reported":1745960973,"current_range_meters":9200,"station_id":"cki0cbj6b192h4jlfktg","pricing_plan_id":"cebpf4jnsgd1na2vs0mg"},{"bike_id":"c7d4ca92-020f-4c6f-815a-ddc6fdf77b1f","system_id":"levelo_inurba_marseille","lat":43.23481,"lon":5.38041,"is_reserved":false,"is_disabled":false,"rental_uris":{"android":"levelo://app?vid=c7d4ca92-020f-4c6f-815a-ddc6fdf77b1f","ios":"levelo://app?vid=c7d4ca92-020f-4c6f-815a-ddc6fdf77b1f"},"vehicle_type_id":"4","last_reported":1745960973,"current_range_meters":9600,"station_id":"","pricing_plan_id":"cebpf4jnsgd1na2vs0mg"},{"bike_id":"872218fb-5ce0-4cf2-a4bf-c4423f48b0cc","system_id":"levelo_inurba_marseille","lat":43.31213,"lon":5.36847,"is_reserved":false,"is_disabled":false,"rental_uris":{"android":"levelo://app?vid=872218fb-5ce0-4cf2-a4bf-c4423f48b0cc","ios":"levelo://app?vid=872218fb-5ce0-4cf2-a4bf-c4423f48b0cc"},"vehicle_type_id":"4","last_reported":1745960973,"current_range_meters":9600,"station_id":"ce4bgl92rcd13ifvqbq0","pricing_plan_id":"cebpf4jnsgd1na2vs0mg"},{"bike_id":"9c68c416-b63e-4646-876b-a6ce563ad522","system_id":"levelo_inurba_marseille","lat":43.30936,"lon":5.40144,"is_reserved":false,"is_disabled":false,"rental_uris":{"android":"levelo://app?vid=9c68c416-b63e-4646-876b-a6ce563ad522","ios":"levelo://app?vid=9c68c416-b63e-4646-876b-a6ce563ad522"},"vehicle_type_id":"4","last_reported":1745960973,"current_range_meters":9600,"station_id":"ce4bgvp2rcd13ifvqct0","pricing_plan_id":"cebpf4jnsgd1na2vs0mg"},{"bike_id":"b3dfd309-f806-4510-bbd2-cde732387cfe","system_id":"levelo_inurba_marseille","lat":43.292878,"lon":5.40185,"is_reserved":false,"is_disabled":false,"rental_uris":{"android":"levelo://app?vid=b3dfd309-f806-4510-bbd2-cde732387cfe","ios":"levelo://app?vid=b3dfd309-f806-4510-bbd2-cde732387cfe"},"vehicle_type_id":"4","last_reported":1745960973,"current_range_meters":9600,"station_id":"ce4bh312rcd13ifvqdk0","pricing_plan_id":"cebpf4jnsgd1na2vs0mg"},{"bike_id":"ea432587-6275-4566-9214-32e9d1d38a78","system_id":"levelo_inurba_marseille","lat":43.31881,"lon":5.40736,"is_reserved":false,"is_disabled":false,"rental_uris":{"android":"levelo://app?vid=ea432587-6275-4566-9214-32e9d1d38a78","ios":"levelo://app?vid=ea432587-6275-4566-9214-32e9d1d38a78"},"vehicle_type_id":"4","last_reported":1745960973,"current_range_meters":9600,"station_id":"ce4bhq12rcd13ifvqhig","pricing_plan_id":"cebpf4jnsgd1na2vs0mg"},{"bike_id":"bcbdece9-18a4-4ced-8494-9c131639e5f6","system_id":"levelo_inurba_marseille","lat":43.26123,"lon":5.41461,"is_reserved":false,"is_disabled":false,"rental_uris":{"android":"levelo://app?vid=bcbdece9-18a4-4ced-8494-9c131639e5f6","ios":"levelo://app?vid=bcbdece9-18a4-4ced-8494-9c131639e5f6"},"vehicle_type_id":"4","last_reported":1745960973,"current_range_meters":10000,"station_id":"","pricing_plan_id":"cebpf4jnsgd1na2vs0mg"},{"bike_id":"98ee01d4-3f32-439d-9e67-141de2548fbb","system_id":"levelo_inurba_marseille","lat":43.31178,"lon":5.38711,"is_reserved":false,"is_disabled":false,"rental_uris":{"android":"levelo://app?vid=98ee01d4-3f32-439d-9e67-141de2548fbb","ios":"levelo://app?vid=98ee01d4-3f32-439d-9e67-141de2548fbb"},"vehicle_type_id":"4","last_reported":1745960973,"current_range_meters":10000,"station_id":"ce4bgv12rcd13ifvqcp0","pricing_plan_id":"cebpf4jnsgd1na2vs0mg"},{"bike_id":"950539c0-c2a7-4f10-9505-afe3371972fa","system_id":"levelo_inurba_marseille","lat":43.30648,"lon":5.4005,"is_reserved":false,"is_disabled":false,"rental_uris":{"android":"levelo://app?vid=950539c0-c2a7-4f10-9505-afe3371972fa","ios":"levelo://app?vid=950539c0-c2a7-4f10-9505-afe3371972fa"},"vehicle_type_id":"4","last_reported":1745960973,"current_range_meters":10000,"station_id":"ce4bh112rcd13ifvqda0","pricing_plan_id":"cebpf4jnsgd1na2vs0mg"},{"bike_id":"b58528bd-3b5d-4b87-a718-f0f048b59e8b","system_id":"levelo_inurba_marseille","lat":43.29526,"lon":5.39027,"is_reserved":false,"is_disabled":false,"rental_uris":{"android":"levelo://app?vid=b58528bd-3b5d-4b87-a718-f0f048b59e8b","ios":"levelo://app?vid=b58528bd-3b5d-4b87-a718-f0f048b59e8b"},"vehicle_type_id":"4","last_reported":1745960973,"current_range_meters":10000,"station_id":"ce4bh3p2rcd13ifvqdp0","pricing_plan_id":"cebpf4jnsgd1na2vs0mg"},{"bike_id":"0fbda7cd-f00d-4938-8e1e-60366b309981","system_id":"levelo_inurba_marseille","lat":43.28036,"lon":5.36944,"is_reserved":false,"is_disabled":false,"rental_uris":{"android":"levelo://app?vid=0fbda7cd-f00d-4938-8e1e-60366b309981","ios":"levelo://app?vid=0fbda7cd-f00d-4938-8e1e-60366b309981"},"vehicle_type_id":"4","last_reported":1745960973,"current_range_meters":10000,"station_id":"ce4bha12rcd13ifvqef0","pricing_plan_id":"cebpf4jnsgd1na2vs0mg"},{"bike_id":"7744fc4a-a864-4a95-995b-a7a1e63cfe78","system_id":"levelo_inurba_marseille","lat":43.31732,"lon":5.42376,"is_reserved":false,"is_disabled":false,"rental_uris":{"android":"levelo://app?vid=7744fc4a-a864-4a95-995b-a7a1e63cfe78","ios":"levelo://app?vid=7744fc4a-a864-4a95-995b-a7a1e63cfe78"},"vehicle_type_id":"4","last_reported":1745960973,"current_range_meters":10000,"station_id":"ce4bhp92rcd13ifvqhbg","pricing_plan_id":"cebpf4jnsgd1na2vs0mg"},{"bike_id":"c339bc39-8027-4a12-ba75-2c773ffe98b5","system_id":"levelo_inurba_marseille","lat":43.25726,"lon":5.41101,"is_reserved":false,"is_disabled":false,"rental_uris":{"android":"levelo://app?vid=c339bc39-8027-4a12-ba75-2c773ffe98b5","ios":"levelo://app?vid=c339bc39-8027-4a12-ba75-2c773ffe98b5"},"vehicle_type_id":"4","last_reported":1745960973,"current_range_meters":10800,"station_id":"ce4bhkp2rcd13ifvqgd0","pricing_plan_id":"cebpf4jnsgd1na2vs0mg"},{"bike_id":"27e2acdd-2add-407a-a835-796f76c27c03","system_id":"levelo_inurba_marseille","lat":43.32112,"lon":5.36769,"is_reserved":false,"is_disabled":false,"rental_uris":{"android":"levelo://app?vid=27e2acdd-2add-407a-a835-796f76c27c03","ios":"levelo://app?vid=27e2acdd-2add-407a-a835-796f76c27c03"},"vehicle_type_id":"4","last_reported":1745960973,"current_range_meters":10800,"station_id":"ce4bhrh2rcd13ifvqhug","pricing_plan_id":"cebpf4jnsgd1na2vs0mg"},{"bike_id":"a015aa72-4883-446b-a9a9-e16d84a5a524","system_id":"levelo_inurba_marseille","lat":43.30891,"lon":5.39623,"is_reserved":false,"is_disabled":false,"rental_uris":{"android":"levelo://app?vid=a015aa72-4883-446b-a9a9-e16d84a5a524","ios":"levelo://app?vid=a015aa72-4883-446b-a9a9-e16d84a5a524"},"vehicle_type_id":"4","last_reported":1745960973,"current_range_meters":11200,"station_id":"ce4bh012rcd13ifvqcv0","pricing_plan_id":"cebpf4jnsgd1na2vs0mg"},{"bike_id":"f25e3889-6edc-4533-9360-4c8d66e74ee1","system_id":"levelo_inurba_marseille","lat":43.30142,"lon":5.39862,"is_reserved":false,"is_disabled":false,"rental_uris":{"android":"levelo://app?vid=f25e3889-6edc-4533-9360-4c8d66e74ee1","ios":"levelo://app?vid=f25e3889-6edc-4533-9360-4c8d66e74ee1"},"vehicle_type_id":"4","last_reported":1745960973,"current_range_meters":11200,"station_id":"ce4bh0h2rcd13ifvqd40","pricing_plan_id":"cebpf4jnsgd1na2vs0mg"},{"bike_id":"197839f2-0234-459c-be6d-43045265e278","system_id":"levelo_inurba_marseille","lat":43.30639,"lon":5.40092,"is_reserved":false,"is_disabled":false,"rental_uris":{"android":"levelo://app?vid=197839f2-0234-459c-be6d-43045265e278","ios":"levelo://app?vid=197839f2-0234-459c-be6d-43045265e278"},"vehicle_type_id":"4","last_reported":1745960973,"current_range_meters":11200,"station_id":"ce4bh112rcd13ifvqda0","pricing_plan_id":"cebpf4jnsgd1na2vs0mg"},{"bike_id":"1c6e2801-d406-4688-a913-a775da6b0f13","system_id":"levelo_inurba_marseille","lat":43.229282,"lon":5.353725,"is_reserved":false,"is_disabled":false,"rental_uris":{"android":"levelo://app?vid=1c6e2801-d406-4688-a913-a775da6b0f13","ios":"levelo://app?vid=1c6e2801-d406-4688-a913-a775da6b0f13"},"vehicle_type_id":"4","last_reported":1745960973,"current_range_meters":11200,"station_id":"cpo3532slgdg3j2ikp40","pricing_plan_id":"cebpf4jnsgd1na2vs0mg"},{"bike_id":"489415b8-9254-45c1-b00c-e7554d56755c","system_id":"levelo_inurba_marseille","lat":43.245338,"lon":5.412171,"is_reserved":false,"is_disabled":false,"rental_uris":{"android":"levelo://app?vid=489415b8-9254-45c1-b00c-e7554d56755c","ios":"levelo://app?vid=489415b8-9254-45c1-b00c-e7554d56755c"},"vehicle_type_id":"4","last_reported":1745960973,"current_range_meters":11600,"station_id":"","pricing_plan_id":"cebpf4jnsgd1na2vs0mg"},{"bike_id":"140f7be3-726c-41cd-aa20-2bedd4ddf2bb","system_id":"levelo_inurba_marseille","lat":43.29541,"lon":5.38521,"is_reserved":false,"is_disabled":false,"rental_uris":{"android":"levelo://app?vid=140f7be3-726c-41cd-aa20-2bedd4ddf2bb","ios":"levelo://app?vid=140f7be3-726c-41cd-aa20-2bedd4ddf2bb"},"vehicle_type_id":"4","last_reported":1745960973,"current_range_meters":11600,"station_id":"ce4bgih2rcd13ifvqba0","pricing_plan_id":"cebpf4jnsgd1na2vs0mg"},{"bike_id":"6ff32f17-7b9c-463f-a13f-79ee01c6a7e8","system_id":"levelo_inurba_marseille","lat":43.302604,"lon":5.400754,"is_reserved":false,"is_disabled":false,"rental_uris":{"android":"levelo://app?vid=6ff32f17-7b9c-463f-a13f-79ee01c6a7e8","ios":"levelo://app?vid=6ff32f17-7b9c-463f-a13f-79ee01c6a7e8"},"vehicle_type_id":"4","last_reported":1745960973,"current_range_meters":11600,"station_id":"ce4bgvh2rcd13ifvqcs0","pricing_plan_id":"cebpf4jnsgd1na2vs0mg"},{"bike_id":"5e122a88-e9ff-4688-ab39-82005b04d2e7","system_id":"levelo_inurba_marseille","lat":43.30651,"lon":5.40089,"is_reserved":false,"is_disabled":false,"rental_uris":{"android":"levelo://app?vid=5e122a88-e9ff-4688-ab39-82005b04d2e7","ios":"levelo://app?vid=5e122a88-e9ff-4688-ab39-82005b04d2e7"},"vehicle_type_id":"4","last_reported":1745960973,"current_range_meters":11600,"station_id":"ce4bh112rcd13ifvqda0","pricing_plan_id":"cebpf4jnsgd1na2vs0mg"},{"bike_id":"ecbbddad-df5a-4350-ae18-5856230db5e5","system_id":"levelo_inurba_marseille","lat":43.26231,"lon":5.40454,"is_reserved":false,"is_disabled":false,"rental_uris":{"android":"levelo://app?vid=ecbbddad-df5a-4350-ae18-5856230db5e5","ios":"levelo://app?vid=ecbbddad-df5a-4350-ae18-5856230db5e5"},"vehicle_type_id":"4","last_reported":1745960973,"current_range_meters":11600,"station_id":"ce4bhmh2rcd13ifvqgmg","pricing_plan_id":"cebpf4jnsgd1na2vs0mg"},{"bike_id":"b08f7d09-a997-47bd-984a-ad1550a893d4","system_id":"levelo_inurba_marseille","lat":43.30604,"lon":5.372193,"is_reserved":false,"is_disabled":false,"rental_uris":{"android":"levelo://app?vid=b08f7d09-a997-47bd-984a-ad1550a893d4","ios":"levelo://app?vid=b08f7d09-a997-47bd-984a-ad1550a893d4"},"vehicle_type_id":"4","last_reported":1745960973,"current_range_meters":12000,"station_id":"ce4bgqh2rcd13ifvqc4g","pricing_plan_id":"cebpf4jnsgd1na2vs0mg"},{"bike_id":"312629db-7553-4f57-8655-a25196d01b88","system_id":"levelo_inurba_marseille","lat":43.30373,"lon":5.42486,"is_reserved":false,"is_disabled":false,"rental_uris":{"android":"levelo://app?vid=312629db-7553-4f57-8655-a25196d01b88","ios":"levelo://app?vid=312629db-7553-4f57-8655-a25196d01b88"},"vehicle_type_id":"4","last_reported":1745960973,"current_range_meters":12000,"station_id":"ce4bhoh2rcd13ifvqh6g","pricing_plan_id":"cebpf4jnsgd1na2vs0mg"},{"bike_id":"071a671b-fb53-468b-ba8f-96ef79b57233","system_id":"levelo_inurba_marseille","lat":43.32362,"lon":5.36785,"is_reserved":false,"is_disabled":false,"rental_uris":{"android":"levelo://app?vid=071a671b-fb53-468b-ba8f-96ef79b57233","ios":"levelo://app?vid=071a671b-fb53-468b-ba8f-96ef79b57233"},"vehicle_type_id":"4","last_reported":1745960973,"current_range_meters":12000,"station_id":"ce4bhsh2rcd13ifvqi2g","pricing_plan_id":"cebpf4jnsgd1na2vs0mg"},{"bike_id":"07edfd45-c3fa-4b57-b865-cf1bf9963264","system_id":"levelo_inurba_marseille","lat":43.23397,"lon":5.36416,"is_reserved":false,"is_disabled":false,"rental_uris":{"android":"levelo://app?vid=07edfd45-c3fa-4b57-b865-cf1bf9963264","ios":"levelo://app?vid=07edfd45-c3fa-4b57-b865-cf1bf9963264"},"vehicle_type_id":"4","last_reported":1745960973,"current_range_meters":12400,"station_id":"","pricing_plan_id":"cebpf4jnsgd1na2vs0mg"},{"bike_id":"4d4778ed-b855-40e3-aed9-6ce2157d0719","system_id":"levelo_inurba_marseille","lat":43.3133,"lon":5.39712,"is_reserved":false,"is_disabled":false,"rental_uris":{"android":"levelo://app?vid=4d4778ed-b855-40e3-aed9-6ce2157d0719","ios":"levelo://app?vid=4d4778ed-b855-40e3-aed9-6ce2157d0719"},"vehicle_type_id":"4","last_reported":1745960973,"current_range_meters":12400,"station_id":"ce4bgvp2rcd13ifvqcu0","pricing_plan_id":"cebpf4jnsgd1na2vs0mg"},{"bike_id":"14b63850-3166-4f5f-b595-0b51806abde4","system_id":"levelo_inurba_marseille","lat":43.26951,"lon":5.38629,"is_reserved":false,"is_disabled":false,"rental_uris":{"android":"levelo://app?vid=14b63850-3166-4f5f-b595-0b51806abde4","ios":"levelo://app?vid=14b63850-3166-4f5f-b595-0b51806abde4"},"vehicle_type_id":"4","last_reported":1745960973,"current_range_meters":12400,"station_id":"ce4bhh92rcd13ifvqfh0","pricing_plan_id":"cebpf4jnsgd1na2vs0mg"},{"bike_id":"9627ed92-1d6d-407f-b5d3-4936c6624818","system_id":"levelo_inurba_marseille","lat":43.25119,"lon":5.40316,"is_reserved":false,"is_disabled":false,"rental_uris":{"android":"levelo://app?vid=9627ed92-1d6d-407f-b5d3-4936c6624818","ios":"levelo://app?vid=9627ed92-1d6d-407f-b5d3-4936c6624818"},"vehicle_type_id":"4","last_reported":1745960973,"current_range_meters":12400,"station_id":"ce4bhlh2rcd13ifvqgig","pricing_plan_id":"cebpf4jnsgd1na2vs0mg"},{"bike_id":"3da4f807-a9a7-4e80-80cc-47afecae7882","system_id":"levelo_inurba_marseille","lat":43.28003,"lon":5.40007,"is_reserved":false,"is_disabled":false,"rental_uris":{"android":"levelo://app?vid=3da4f807-a9a7-4e80-80cc-47afecae7882","ios":"levelo://app?vid=3da4f807-a9a7-4e80-80cc-47afecae7882"},"vehicle_type_id":"4","last_reported":1745960973,"current_range_meters":12400,"station_id":"ce4bho92rcd13ifvqh4g","pricing_plan_id":"cebpf4jnsgd1na2vs0mg"},{"bike_id":"9c0a2b7a-3777-4c79-ba9d-71b3ed8aa068","system_id":"levelo_inurba_marseille","lat":43.31165,"lon":5.38715,"is_reserved":false,"is_disabled":false,"rental_uris":{"android":"levelo://app?vid=9c0a2b7a-3777-4c79-ba9d-71b3ed8aa068","ios":"levelo://app?vid=9c0a2b7a-3777-4c79-ba9d-71b3ed8aa068"},"vehicle_type_id":"4","last_reported":1745960973,"current_range_meters":12800,"station_id":"ce4bgv12rcd13ifvqcp0","pricing_plan_id":"cebpf4jnsgd1na2vs0mg"},{"bike_id":"8677ec73-cb78-43f6-8771-8f65730b3bed","system_id":"levelo_inurba_marseille","lat":43.310762,"lon":5.383307,"is_reserved":false,"is_disabled":false,"rental_uris":{"android":"levelo://app?vid=8677ec73-cb78-43f6-8771-8f65730b3bed","ios":"levelo://app?vid=8677ec73-cb78-43f6-8771-8f65730b3bed"},"vehicle_type_id":"4","last_reported":1745960973,"current_range_meters":12800,"station_id":"ce4bgv92rcd13ifvqcr0","pricing_plan_id":"cebpf4jnsgd1na2vs0mg"},{"bike_id":"9ecf076f-7bd8-490a-8c5a-c7a759e90882","system_id":"levelo_inurba_marseille","lat":43.28453,"lon":5.35899,"is_reserved":false,"is_disabled":false,"rental_uris":{"android":"levelo://app?vid=9ecf076f-7bd8-490a-8c5a-c7a759e90882","ios":"levelo://app?vid=9ecf076f-7bd8-490a-8c5a-c7a759e90882"},"vehicle_type_id":"4","last_reported":1745960973,"current_range_meters":12800,"station_id":"ce4bhah2rcd13ifvqei0","pricing_plan_id":"cebpf4jnsgd1na2vs0mg"},{"bike_id":"40cd9c09-5d6c-4b2c-a5ec-3d25d8f86287","system_id":"levelo_inurba_marseille","lat":43.25083,"lon":5.39526,"is_reserved":false,"is_disabled":false,"rental_uris":{"android":"levelo://app?vid=40cd9c09-5d6c-4b2c-a5ec-3d25d8f86287","ios":"levelo://app?vid=40cd9c09-5d6c-4b2c-a5ec-3d25d8f86287"},"vehicle_type_id":"4","last_reported":1745960973,"current_range_meters":12800,"station_id":"ce4bhm12rcd13ifvqgkg","pricing_plan_id":"cebpf4jnsgd1na2vs0mg"},{"bike_id":"fe0c4d1a-9874-47df-b868-a5e70081d8ce","system_id":"levelo_inurba_marseille","lat":43.229349,"lon":5.353821,"is_reserved":false,"is_disabled":false,"rental_uris":{"android":"levelo://app?vid=fe0c4d1a-9874-47df-b868-a5e70081d8ce","ios":"levelo://app?vid=fe0c4d1a-9874-47df-b868-a5e70081d8ce"},"vehicle_type_id":"4","last_reported":1745960973,"current_range_meters":12800,"station_id":"cpo3532slgdg3j2ikp40","pricing_plan_id":"cebpf4jnsgd1na2vs0mg"},{"bike_id":"ddf42e2f-5ba3-456f-b6b9-71a4fb220f7c","system_id":"levelo_inurba_marseille","lat":43.217665,"lon":5.346204,"is_reserved":false,"is_disabled":false,"rental_uris":{"android":"levelo://app?vid=ddf42e2f-5ba3-456f-b6b9-71a4fb220f7c","ios":"levelo://app?vid=ddf42e2f-5ba3-456f-b6b9-71a4fb220f7c"},"vehicle_type_id":"4","last_reported":1745960973,"current_range_meters":12800,"station_id":"st_cvj6r9ubvosntc0bgbag","pricing_plan_id":"cebpf4jnsgd1na2vs0mg"},{"bike_id":"561a6021-d676-41d6-beca-778ae018bc9f","system_id":"levelo_inurba_marseille","lat":43.295167,"lon":5.393998,"is_reserved":false,"is_disabled":false,"rental_uris":{"android":"levelo://app?vid=561a6021-d676-41d6-beca-778ae018bc9f","ios":"levelo://app?vid=561a6021-d676-41d6-beca-778ae018bc9f"},"vehicle_type_id":"4","last_reported":1745960973,"current_range_meters":13600,"station_id":"ce4bh292rcd13ifvqdf0","pricing_plan_id":"cebpf4jnsgd1na2vs0mg"},{"bike_id":"f81729f7-ef3e-4d13-9b41-3027d900ed62","system_id":"levelo_inurba_marseille","lat":43.2857,"lon":5.39499,"is_reserved":false,"is_disabled":false,"rental_uris":{"android":"levelo://app?vid=f81729f7-ef3e-4d13-9b41-3027d900ed62","ios":"levelo://app?vid=f81729f7-ef3e-4d13-9b41-3027d900ed62"},"vehicle_type_id":"4","last_reported":1745960973,"current_range_meters":13600,"station_id":"ce4bh292rcd13ifvqdg0","pricing_plan_id":"cebpf4jnsgd1na2vs0mg"},{"bike_id":"610f8cd6-deec-4daf-b96d-e7e448fb7507","system_id":"levelo_inurba_marseille","lat":43.26558,"lon":5.372863,"is_reserved":false,"is_disabled":false,"rental_uris":{"android":"levelo://app?vid=610f8cd6-deec-4daf-b96d-e7e448fb7507","ios":"levelo://app?vid=610f8cd6-deec-4daf-b96d-e7e448fb7507"},"vehicle_type_id":"4","last_reported":1745960973,"current_range_meters":14000,"station_id":"ce4bhg12rcd13ifvqf70","pricing_plan_id":"cebpf4jnsgd1na2vs0mg"},{"bike_id":"6d1c5eaf-041b-4e46-be6f-e55c97ecb5cb","system_id":"levelo_inurba_marseille","lat":43.31994,"lon":5.38149,"is_reserved":false,"is_disabled":false,"rental_uris":{"android":"levelo://app?vid=6d1c5eaf-041b-4e46-be6f-e55c97ecb5cb","ios":"levelo://app?vid=6d1c5eaf-041b-4e46-be6f-e55c97ecb5cb"},"vehicle_type_id":"4","last_reported":1745960973,"current_range_meters":14000,"station_id":"ce4bhr12rcd13ifvqhpg","pricing_plan_id":"cebpf4jnsgd1na2vs0mg"},{"bike_id":"ac80e985-cfdf-4940-bf6d-bf2ebe2c2fd0","system_id":"levelo_inurba_marseille","lat":43.32105,"lon":5.36771,"is_reserved":false,"is_disabled":false,"rental_uris":{"android":"levelo://app?vid=ac80e985-cfdf-4940-bf6d-bf2ebe2c2fd0","ios":"levelo://app?vid=ac80e985-cfdf-4940-bf6d-bf2ebe2c2fd0"},"vehicle_type_id":"4","last_reported":1745960973,"current_range_meters":14000,"station_id":"ce4bhrh2rcd13ifvqhug","pricing_plan_id":"cebpf4jnsgd1na2vs0mg"},{"bike_id":"dcb0b990-89f9-495c-a9c1-10b17ae39667","system_id":"levelo_inurba_marseille","lat":43.23532,"lon":5.38028,"is_reserved":false,"is_disabled":false,"rental_uris":{"android":"levelo://app?vid=dcb0b990-89f9-495c-a9c1-10b17ae39667","ios":"levelo://app?vid=dcb0b990-89f9-495c-a9c1-10b17ae39667"},"vehicle_type_id":"4","last_reported":1745960973,"current_range_meters":14400,"station_id":"","pricing_plan_id":"cebpf4jnsgd1na2vs0mg"},{"bike_id":"ac474a0a-04d9-46e6-b9e4-e0c77493640d","system_id":"levelo_inurba_marseille","lat":43.30888,"lon":5.37205,"is_reserved":false,"is_disabled":false,"rental_uris":{"android":"levelo://app?vid=ac474a0a-04d9-46e6-b9e4-e0c77493640d","ios":"levelo://app?vid=ac474a0a-04d9-46e6-b9e4-e0c77493640d"},"vehicle_type_id":"4","last_reported":1745960973,"current_range_meters":14400,"station_id":"ce4bguh2rcd13ifvqckg","pricing_plan_id":"cebpf4jnsgd1na2vs0mg"},{"bike_id":"3415adec-0f76-4a09-8a43-4fc526a369c9","system_id":"levelo_inurba_marseille","lat":43.31175,"lon":5.38715,"is_reserved":false,"is_disabled":false,"rental_uris":{"android":"levelo://app?vid=3415adec-0f76-4a09-8a43-4fc526a369c9","ios":"levelo://app?vid=3415adec-0f76-4a09-8a43-4fc526a369c9"},"vehicle_type_id":"4","last_reported":1745960973,"current_range_meters":14400,"station_id":"ce4bgv12rcd13ifvqcp0","pricing_plan_id":"cebpf4jnsgd1na2vs0mg"},{"bike_id":"d80dd30a-de8b-4035-b5cb-36684994461c","system_id":"levelo_inurba_marseille","lat":43.29197,"lon":5.39312,"is_reserved":false,"is_disabled":false,"rental_uris":{"android":"levelo://app?vid=d80dd30a-de8b-4035-b5cb-36684994461c","ios":"levelo://app?vid=d80dd30a-de8b-4035-b5cb-36684994461c"},"vehicle_type_id":"4","last_reported":1745960973,"current_range_meters":14400,"station_id":"ce4bh192rcd13ifvqdd0","pricing_plan_id":"cebpf4jnsgd1na2vs0mg"},{"bike_id":"0374089d-dbd8-4e66-9edd-173152c8a71f","system_id":"levelo_inurba_marseille","lat":43.29192,"lon":5.39317,"is_reserved":false,"is_disabled":false,"rental_uris":{"android":"levelo://app?vid=0374089d-dbd8-4e66-9edd-173152c8a71f","ios":"levelo://app?vid=0374089d-dbd8-4e66-9edd-173152c8a71f"},"vehicle_type_id":"4","last_reported":1745960973,"current_range_meters":14400,"station_id":"ce4bh192rcd13ifvqdd0","pricing_plan_id":"cebpf4jnsgd1na2vs0mg"},{"bike_id":"23ee87b9-f6c0-4dc4-afcb-68b5ea6f4da2","system_id":"levelo_inurba_marseille","lat":43.28562,"lon":5.39502,"is_reserved":false,"is_disabled":false,"rental_uris":{"android":"levelo://app?vid=23ee87b9-f6c0-4dc4-afcb-68b5ea6f4da2","ios":"levelo://app?vid=23ee87b9-f6c0-4dc4-afcb-68b5ea6f4da2"},"vehicle_type_id":"4","last_reported":1745960973,"current_range_meters":14400,"station_id":"ce4bh292rcd13ifvqdg0","pricing_plan_id":"cebpf4jnsgd1na2vs0mg"},{"bike_id":"07fd015a-c321-4747-988e-5a04d55d2eb2","system_id":"levelo_inurba_marseille","lat":43.29299,"lon":5.40093,"is_reserved":false,"is_disabled":false,"rental_uris":{"android":"levelo://app?vid=07fd015a-c321-4747-988e-5a04d55d2eb2","ios":"levelo://app?vid=07fd015a-c321-4747-988e-5a04d55d2eb2"},"vehicle_type_id":"4","last_reported":1745960973,"current_range_meters":14400,"station_id":"ce4bh312rcd13ifvqdk0","pricing_plan_id":"cebpf4jnsgd1na2vs0mg"},{"bike_id":"d50cb595-81a6-406b-90c1-e39a8ffa9f99","system_id":"levelo_inurba_marseille","lat":43.24182,"lon":5.39725,"is_reserved":false,"is_disabled":false,"rental_uris":{"android":"levelo://app?vid=d50cb595-81a6-406b-90c1-e39a8ffa9f99","ios":"levelo://app?vid=d50cb595-81a6-406b-90c1-e39a8ffa9f99"},"vehicle_type_id":"4","last_reported":1745960973,"current_range_meters":14400,"station_id":"ce4bhn12rcd13ifvqgpg","pricing_plan_id":"cebpf4jnsgd1na2vs0mg"},{"bike_id":"67946696-e1b4-48e1-9aea-70b477d4f50c","system_id":"levelo_inurba_marseille","lat":43.30661,"lon":5.40088,"is_reserved":false,"is_disabled":false,"rental_uris":{"android":"levelo://app?vid=67946696-e1b4-48e1-9aea-70b477d4f50c","ios":"levelo://app?vid=67946696-e1b4-48e1-9aea-70b477d4f50c"},"vehicle_type_id":"4","last_reported":1745960973,"current_range_meters":14800,"station_id":"ce4bh112rcd13ifvqda0","pricing_plan_id":"cebpf4jnsgd1na2vs0mg"},{"bike_id":"4efa05db-6c6e-40a0-95a6-0ff3974dd921","system_id":"levelo_inurba_marseille","lat":43.30114,"lon":5.39064,"is_reserved":false,"is_disabled":false,"rental_uris":{"android":"levelo://app?vid=4efa05db-6c6e-40a0-95a6-0ff3974dd921","ios":"levelo://app?vid=4efa05db-6c6e-40a0-95a6-0ff3974dd921"},"vehicle_type_id":"4","last_reported":1745960973,"current_range_meters":14800,"station_id":"ce4bh192rcd13ifvqdb0","pricing_plan_id":"cebpf4jnsgd1na2vs0mg"},{"bike_id":"0157e7b2-ed00-422f-b6b6-659a5e4f10fe","system_id":"levelo_inurba_marseille","lat":43.2758,"lon":5.3843,"is_reserved":false,"is_disabled":false,"rental_uris":{"android":"levelo://app?vid=0157e7b2-ed00-422f-b6b6-659a5e4f10fe","ios":"levelo://app?vid=0157e7b2-ed00-422f-b6b6-659a5e4f10fe"},"vehicle_type_id":"4","last_reported":1745960973,"current_range_meters":14800,"station_id":"ce4bhh92rcd13ifvqfi0","pricing_plan_id":"cebpf4jnsgd1na2vs0mg"},{"bike_id":"0b9e193c-e04d-45a4-b4be-e078f8d508b6","system_id":"levelo_inurba_marseille","lat":43.29554,"lon":5.4228,"is_reserved":false,"is_disabled":false,"rental_uris":{"android":"levelo://app?vid=0b9e193c-e04d-45a4-b4be-e078f8d508b6","ios":"levelo://app?vid=0b9e193c-e04d-45a4-b4be-e078f8d508b6"},"vehicle_type_id":"4","last_reported":1745960973,"current_range_meters":14800,"station_id":"ce4bhph2rcd13ifvqhdg","pricing_plan_id":"cebpf4jnsgd1na2vs0mg"},{"bike_id":"1db9ca2a-10b1-4b9e-aa56-164f2c2ac111","system_id":"levelo_inurba_marseille","lat":43.28372,"lon":5.41855,"is_reserved":false,"is_disabled":false,"rental_uris":{"android":"levelo://app?vid=1db9ca2a-10b1-4b9e-aa56-164f2c2ac111","ios":"levelo://app?vid=1db9ca2a-10b1-4b9e-aa56-164f2c2ac111"},"vehicle_type_id":"4","last_reported":1745960973,"current_range_meters":15200,"station_id":"","pricing_plan_id":"cebpf4jnsgd1na2vs0mg"},{"bike_id":"3ba94bcc-0b44-454b-9f8d-4d1668ee8f97","system_id":"levelo_inurba_marseille","lat":43.31177,"lon":5.38713,"is_reserved":false,"is_disabled":false,"rental_uris":{"android":"levelo://app?vid=3ba94bcc-0b44-454b-9f8d-4d1668ee8f97","ios":"levelo://app?vid=3ba94bcc-0b44-454b-9f8d-4d1668ee8f97"},"vehicle_type_id":"4","last_reported":1745960973,"current_range_meters":15200,"station_id":"ce4bgv12rcd13ifvqcp0","pricing_plan_id":"cebpf4jnsgd1na2vs0mg"},{"bike_id":"ad8be273-51c9-4041-b2bf-d530e1e4ef54","system_id":"levelo_inurba_marseille","lat":43.27059,"lon":5.40258,"is_reserved":false,"is_disabled":false,"rental_uris":{"android":"levelo://app?vid=ad8be273-51c9-4041-b2bf-d530e1e4ef54","ios":"levelo://app?vid=ad8be273-51c9-4041-b2bf-d530e1e4ef54"},"vehicle_type_id":"4","last_reported":1745960973,"current_range_meters":15200,"station_id":"ce4bhk92rcd13ifvqgc0","pricing_plan_id":"cebpf4jnsgd1na2vs0mg"},{"bike_id":"d4419d63-a761-4549-93ae-28d986e6728a","system_id":"levelo_inurba_marseille","lat":43.27175,"lon":5.40994,"is_reserved":false,"is_disabled":false,"rental_uris":{"android":"levelo://app?vid=d4419d63-a761-4549-93ae-28d986e6728a","ios":"levelo://app?vid=d4419d63-a761-4549-93ae-28d986e6728a"},"vehicle_type_id":"4","last_reported":1745960973,"current_range_meters":15200,"station_id":"ce4bhl12rcd13ifvqgf0","pricing_plan_id":"cebpf4jnsgd1na2vs0mg"},{"bike_id":"af2b610f-46de-4fdf-9ba6-e6b10d94b717","system_id":"levelo_inurba_marseille","lat":43.29792,"lon":5.39345,"is_reserved":false,"is_disabled":false,"rental_uris":{"android":"levelo://app?vid=af2b610f-46de-4fdf-9ba6-e6b10d94b717","ios":"levelo://app?vid=af2b610f-46de-4fdf-9ba6-e6b10d94b717"},"vehicle_type_id":"4","last_reported":1745960973,"current_range_meters":15200,"station_id":"chh1huq6cuj3fo74tm60","pricing_plan_id":"cebpf4jnsgd1na2vs0mg"},{"bike_id":"a083dd87-c68e-4ae0-b50d-cafd8e4610b9","system_id":"levelo_inurba_marseille","lat":43.3093,"lon":5.40145,"is_reserved":false,"is_disabled":false,"rental_uris":{"android":"levelo://app?vid=a083dd87-c68e-4ae0-b50d-cafd8e4610b9","ios":"levelo://app?vid=a083dd87-c68e-4ae0-b50d-cafd8e4610b9"},"vehicle_type_id":"4","last_reported":1745960973,"current_range_meters":16000,"station_id":"ce4bgvp2rcd13ifvqct0","pricing_plan_id":"cebpf4jnsgd1na2vs0mg"},{"bike_id":"0946df0c-8b25-4d89-8f93-affc2e1828f1","system_id":"levelo_inurba_marseille","lat":43.30138,"lon":5.39859,"is_reserved":false,"is_disabled":false,"rental_uris":{"android":"levelo://app?vid=0946df0c-8b25-4d89-8f93-affc2e1828f1","ios":"levelo://app?vid=0946df0c-8b25-4d89-8f93-affc2e1828f1"},"vehicle_type_id":"4","last_reported":1745960973,"current_range_meters":16000,"station_id":"ce4bh0h2rcd13ifvqd40","pricing_plan_id":"cebpf4jnsgd1na2vs0mg"},{"bike_id":"6f463030-df34-4436-aa9a-f1c4451d420a","system_id":"levelo_inurba_marseille","lat":43.28853,"lon":5.35866,"is_reserved":false,"is_disabled":false,"rental_uris":{"android":"levelo://app?vid=6f463030-df34-4436-aa9a-f1c4451d420a","ios":"levelo://app?vid=6f463030-df34-4436-aa9a-f1c4451d420a"},"vehicle_type_id":"4","last_reported":1745960973,"current_range_meters":16000,"station_id":"ce4bhb12rcd13ifvqem0","pricing_plan_id":"cebpf4jnsgd1na2vs0mg"},{"bike_id":"bcb4a4d9-1d50-4d0e-94cb-4a3fe436984b","system_id":"levelo_inurba_marseille","lat":43.32289,"lon":5.38277,"is_reserved":false,"is_disabled":false,"rental_uris":{"android":"levelo://app?vid=bcb4a4d9-1d50-4d0e-94cb-4a3fe436984b","ios":"levelo://app?vid=bcb4a4d9-1d50-4d0e-94cb-4a3fe436984b"},"vehicle_type_id":"4","last_reported":1745960973,"current_range_meters":16000,"station_id":"ce4bhr12rcd13ifvqhqg","pricing_plan_id":"cebpf4jnsgd1na2vs0mg"},{"bike_id":"e5e92a64-e709-4b1a-a9b1-cbffe85789ca","system_id":"levelo_inurba_marseille","lat":43.25528,"lon":5.3814,"is_reserved":false,"is_disabled":false,"rental_uris":{"android":"levelo://app?vid=e5e92a64-e709-4b1a-a9b1-cbffe85789ca","ios":"levelo://app?vid=e5e92a64-e709-4b1a-a9b1-cbffe85789ca"},"vehicle_type_id":"4","last_reported":1745960973,"current_range_meters":16400,"station_id":"","pricing_plan_id":"cebpf4jnsgd1na2vs0mg"},{"bike_id":"142b21fe-e15a-4a65-b770-44381c311d71","system_id":"levelo_inurba_marseille","lat":43.31322,"lon":5.39709,"is_reserved":false,"is_disabled":false,"rental_uris":{"android":"levelo://app?vid=142b21fe-e15a-4a65-b770-44381c311d71","ios":"levelo://app?vid=142b21fe-e15a-4a65-b770-44381c311d71"},"vehicle_type_id":"4","last_reported":1745960973,"current_range_meters":16400,"station_id":"ce4bgvp2rcd13ifvqcu0","pricing_plan_id":"cebpf4jnsgd1na2vs0mg"},{"bike_id":"8ea7d30a-b97c-4706-97ec-a6ba2a126e44","system_id":"levelo_inurba_marseille","lat":43.28406,"lon":5.37516,"is_reserved":false,"is_disabled":false,"rental_uris":{"android":"levelo://app?vid=8ea7d30a-b97c-4706-97ec-a6ba2a126e44","ios":"levelo://app?vid=8ea7d30a-b97c-4706-97ec-a6ba2a126e44"},"vehicle_type_id":"4","last_reported":1745960973,"current_range_meters":16400,"station_id":"ce4bh412rcd13ifvqds0","pricing_plan_id":"cebpf4jnsgd1na2vs0mg"},{"bike_id":"2ea88097-f637-48c0-834a-65258344bb71","system_id":"levelo_inurba_marseille","lat":43.289493,"lon":5.366268,"is_reserved":false,"is_disabled":false,"rental_uris":{"android":"levelo://app?vid=2ea88097-f637-48c0-834a-65258344bb71","ios":"levelo://app?vid=2ea88097-f637-48c0-834a-65258344bb71"},"vehicle_type_id":"4","last_reported":1745960973,"current_range_meters":16400,"station_id":"ce4bhap2rcd13ifvqek0","pricing_plan_id":"cebpf4jnsgd1na2vs0mg"},{"bike_id":"a3985f59-fd97-4afa-8291-7cd6045ca270","system_id":"levelo_inurba_marseille","lat":43.32489,"lon":5.36567,"is_reserved":false,"is_disabled":false,"rental_uris":{"android":"levelo://app?vid=a3985f59-fd97-4afa-8291-7cd6045ca270","ios":"levelo://app?vid=a3985f59-fd97-4afa-8291-7cd6045ca270"},"vehicle_type_id":"4","last_reported":1745960973,"current_range_meters":16400,"station_id":"ce4bhs12rcd13ifvqhvg","pricing_plan_id":"cebpf4jnsgd1na2vs0mg"},{"bike_id":"760b60e9-75ef-4049-b9d3-91877d77a86e","system_id":"levelo_inurba_marseille","lat":43.3153,"lon":5.38037,"is_reserved":false,"is_disabled":false,"rental_uris":{"android":"levelo://app?vid=760b60e9-75ef-4049-b9d3-91877d77a86e","ios":"levelo://app?vid=760b60e9-75ef-4049-b9d3-91877d77a86e"},"vehicle_type_id":"4","last_reported":1745960973,"current_range_meters":16400,"station_id":"ce4bhsp2rcd13ifvqi50","pricing_plan_id":"cebpf4jnsgd1na2vs0mg"},{"bike_id":"b01cbeff-8157-416f-a4f0-9990745aa5ff","system_id":"levelo_inurba_marseille","lat":43.28032,"lon":5.36948,"is_reserved":false,"is_disabled":false,"rental_uris":{"android":"levelo://app?vid=b01cbeff-8157-416f-a4f0-9990745aa5ff","ios":"levelo://app?vid=b01cbeff-8157-416f-a4f0-9990745aa5ff"},"vehicle_type_id":"4","last_reported":1745960973,"current_range_meters":16800,"station_id":"ce4bha12rcd13ifvqef0","pricing_plan_id":"cebpf4jnsgd1na2vs0mg"},{"bike_id":"cfc6e216-3d70-4234-b0a4-f1de0c194624","system_id":"levelo_inurba_marseille","lat":43.28722,"lon":5.39983,"is_reserved":false,"is_disabled":false,"rental_uris":{"android":"levelo://app?vid=cfc6e216-3d70-4234-b0a4-f1de0c194624","ios":"levelo://app?vid=cfc6e216-3d70-4234-b0a4-f1de0c194624"},"vehicle_type_id":"4","last_reported":1745960973,"current_range_meters":16800,"station_id":"ce4bho92rcd13ifvqh3g","pricing_plan_id":"cebpf4jnsgd1na2vs0mg"},{"bike_id":"7861d36c-9390-416e-9c9d-7af848fcad66","system_id":"levelo_inurba_marseille","lat":43.29545,"lon":5.38527,"is_reserved":false,"is_disabled":false,"rental_uris":{"android":"levelo://app?vid=7861d36c-9390-416e-9c9d-7af848fcad66","ios":"levelo://app?vid=7861d36c-9390-416e-9c9d-7af848fcad66"},"vehicle_type_id":"4","last_reported":1745960973,"current_range_meters":17200,"station_id":"ce4bgih2rcd13ifvqba0","pricing_plan_id":"cebpf4jnsgd1na2vs0mg"},{"bike_id":"23c7aa15-1d16-489f-80aa-05926d360723","system_id":"levelo_inurba_marseille","lat":43.30432,"lon":5.38889,"is_reserved":false,"is_disabled":false,"rental_uris":{"android":"levelo://app?vid=23c7aa15-1d16-489f-80aa-05926d360723","ios":"levelo://app?vid=23c7aa15-1d16-489f-80aa-05926d360723"},"vehicle_type_id":"4","last_reported":1745960973,"current_range_meters":17200,"station_id":"ce4bgk12rcd13ifvqbi0","pricing_plan_id":"cebpf4jnsgd1na2vs0mg"},{"bike_id":"46a3af41-9ed8-4d65-93bf-0afbcc39594c","system_id":"levelo_inurba_marseille","lat":43.29976,"lon":5.37185,"is_reserved":false,"is_disabled":false,"rental_uris":{"android":"levelo://app?vid=46a3af41-9ed8-4d65-93bf-0afbcc39594c","ios":"levelo://app?vid=46a3af41-9ed8-4d65-93bf-0afbcc39594c"},"vehicle_type_id":"4","last_reported":1745960973,"current_range_meters":17200,"station_id":"ce4bgr92rcd13ifvqc7g","pricing_plan_id":"cebpf4jnsgd1na2vs0mg"},{"bike_id":"657dd7f1-8927-48c0-9f5a-b8b60efd5be1","system_id":"levelo_inurba_marseille","lat":43.28875,"lon":5.393,"is_reserved":false,"is_disabled":false,"rental_uris":{"android":"levelo://app?vid=657dd7f1-8927-48c0-9f5a-b8b60efd5be1","ios":"levelo://app?vid=657dd7f1-8927-48c0-9f5a-b8b60efd5be1"},"vehicle_type_id":"4","last_reported":1745960973,"current_range_meters":17200,"station_id":"ce4bh2p2rcd13ifvqdi0","pricing_plan_id":"cebpf4jnsgd1na2vs0mg"},{"bike_id":"fce2c520-92d3-4d18-810b-8d643fc15a1a","system_id":"levelo_inurba_marseille","lat":43.23059,"lon":5.35484,"is_reserved":false,"is_disabled":false,"rental_uris":{"android":"levelo://app?vid=fce2c520-92d3-4d18-810b-8d643fc15a1a","ios":"levelo://app?vid=fce2c520-92d3-4d18-810b-8d643fc15a1a"},"vehicle_type_id":"4","last_reported":1745960973,"current_range_meters":17200,"station_id":"cpo3342slgdg3j2ifvpg","pricing_plan_id":"cebpf4jnsgd1na2vs0mg"},{"bike_id":"a56f0186-6742-4321-af55-54f04b4d7b71","system_id":"levelo_inurba_marseille","lat":43.3088,"lon":5.3964,"is_reserved":false,"is_disabled":false,"rental_uris":{"android":"levelo://app?vid=a56f0186-6742-4321-af55-54f04b4d7b71","ios":"levelo://app?vid=a56f0186-6742-4321-af55-54f04b4d7b71"},"vehicle_type_id":"4","last_reported":1745960973,"current_range_meters":17600,"station_id":"ce4bh012rcd13ifvqcv0","pricing_plan_id":"cebpf4jnsgd1na2vs0mg"},{"bike_id":"4b603d04-0f8e-4c24-b8d9-05da2ec98230","system_id":"levelo_inurba_marseille","lat":43.2953,"lon":5.39388,"is_reserved":false,"is_disabled":false,"rental_uris":{"android":"levelo://app?vid=4b603d04-0f8e-4c24-b8d9-05da2ec98230","ios":"levelo://app?vid=4b603d04-0f8e-4c24-b8d9-05da2ec98230"},"vehicle_type_id":"4","last_reported":1745960973,"current_range_meters":17600,"station_id":"ce4bh292rcd13ifvqdf0","pricing_plan_id":"cebpf4jnsgd1na2vs0mg"},{"bike_id":"ef2a5eed-770f-4651-814b-127f481e0817","system_id":"levelo_inurba_marseille","lat":43.294414,"lon":5.39744,"is_reserved":false,"is_disabled":false,"rental_uris":{"android":"levelo://app?vid=ef2a5eed-770f-4651-814b-127f481e0817","ios":"levelo://app?vid=ef2a5eed-770f-4651-814b-127f481e0817"},"vehicle_type_id":"4","last_reported":1745960973,"current_range_meters":17600,"station_id":"ce4bh3h2rcd13ifvqdo0","pricing_plan_id":"cebpf4jnsgd1na2vs0mg"},{"bike_id":"a3c4d844-7a9b-46d4-828c-51dbb676bfb9","system_id":"levelo_inurba_marseille","lat":43.28462,"lon":5.35888,"is_reserved":false,"is_disabled":false,"rental_uris":{"android":"levelo://app?vid=a3c4d844-7a9b-46d4-828c-51dbb676bfb9","ios":"levelo://app?vid=a3c4d844-7a9b-46d4-828c-51dbb676bfb9"},"vehicle_type_id":"4","last_reported":1745960973,"current_range_meters":17600,"station_id":"ce4bhah2rcd13ifvqei0","pricing_plan_id":"cebpf4jnsgd1na2vs0mg"},{"bike_id":"86c2979e-8cf6-48ed-bdb1-835ff11e3adc","system_id":"levelo_inurba_marseille","lat":43.25379,"lon":5.41841,"is_reserved":false,"is_disabled":false,"rental_uris":{"android":"levelo://app?vid=86c2979e-8cf6-48ed-bdb1-835ff11e3adc","ios":"levelo://app?vid=86c2979e-8cf6-48ed-bdb1-835ff11e3adc"},"vehicle_type_id":"4","last_reported":1745960973,"current_range_meters":18000,"station_id":"","pricing_plan_id":"cebpf4jnsgd1na2vs0mg"},{"bike_id":"8a481e0f-4998-4a62-89ce-ebc4db8cc29d","system_id":"levelo_inurba_marseille","lat":43.287044,"lon":5.373798,"is_reserved":false,"is_disabled":false,"rental_uris":{"android":"levelo://app?vid=8a481e0f-4998-4a62-89ce-ebc4db8cc29d","ios":"levelo://app?vid=8a481e0f-4998-4a62-89ce-ebc4db8cc29d"},"vehicle_type_id":"4","last_reported":1745960973,"current_range_meters":18000,"station_id":"ce4bh3p2rcd13ifvqdq0","pricing_plan_id":"cebpf4jnsgd1na2vs0mg"},{"bike_id":"9df9b88e-192f-4082-8618-a77e8c2aff16","system_id":"levelo_inurba_marseille","lat":43.28702,"lon":5.37397,"is_reserved":false,"is_disabled":false,"rental_uris":{"android":"levelo://app?vid=9df9b88e-192f-4082-8618-a77e8c2aff16","ios":"levelo://app?vid=9df9b88e-192f-4082-8618-a77e8c2aff16"},"vehicle_type_id":"4","last_reported":1745960973,"current_range_meters":18000,"station_id":"ce4bh3p2rcd13ifvqdq0","pricing_plan_id":"cebpf4jnsgd1na2vs0mg"},{"bike_id":"857f4636-b116-4abe-bf1e-74d7e0a8bda9","system_id":"levelo_inurba_marseille","lat":43.29267,"lon":5.38437,"is_reserved":false,"is_disabled":false,"rental_uris":{"android":"levelo://app?vid=857f4636-b116-4abe-bf1e-74d7e0a8bda9","ios":"levelo://app?vid=857f4636-b116-4abe-bf1e-74d7e0a8bda9"},"vehicle_type_id":"4","last_reported":1745960973,"current_range_meters":18000,"station_id":"ce4bh692rcd13ifvqea0","pricing_plan_id":"cebpf4jnsgd1na2vs0mg"},{"bike_id":"f77c4f3e-02e2-4078-9a0d-044676f14d36","system_id":"levelo_inurba_marseille","lat":43.24663,"lon":5.38905,"is_reserved":false,"is_disabled":false,"rental_uris":{"android":"levelo://app?vid=f77c4f3e-02e2-4078-9a0d-044676f14d36","ios":"levelo://app?vid=f77c4f3e-02e2-4078-9a0d-044676f14d36"},"vehicle_type_id":"4","last_reported":1745960973,"current_range_meters":18000,"station_id":"ce4bhg12rcd13ifvqf60","pricing_plan_id":"cebpf4jnsgd1na2vs0mg"},{"bike_id":"80ebd813-d55d-43a7-b7dc-643c0e5fe631","system_id":"levelo_inurba_marseille","lat":43.30922,"lon":5.40151,"is_reserved":false,"is_disabled":false,"rental_uris":{"android":"levelo://app?vid=80ebd813-d55d-43a7-b7dc-643c0e5fe631","ios":"levelo://app?vid=80ebd813-d55d-43a7-b7dc-643c0e5fe631"},"vehicle_type_id":"4","last_reported":1745960973,"current_range_meters":18800,"station_id":"ce4bgvp2rcd13ifvqct0","pricing_plan_id":"cebpf4jnsgd1na2vs0mg"},{"bike_id":"b3a5d772-2205-4c8b-9b69-e745366b34c4","system_id":"levelo_inurba_marseille","lat":43.3014,"lon":5.3986,"is_reserved":false,"is_disabled":false,"rental_uris":{"android":"levelo://app?vid=b3a5d772-2205-4c8b-9b69-e745366b34c4","ios":"levelo://app?vid=b3a5d772-2205-4c8b-9b69-e745366b34c4"},"vehicle_type_id":"4","last_reported":1745960973,"current_range_meters":18800,"station_id":"ce4bh0h2rcd13ifvqd40","pricing_plan_id":"cebpf4jnsgd1na2vs0mg"},{"bike_id":"6207df0a-86e1-486e-a6ec-0f7f12aacc09","system_id":"levelo_inurba_marseille","lat":43.28832,"lon":5.39264,"is_reserved":false,"is_disabled":false,"rental_uris":{"android":"levelo://app?vid=6207df0a-86e1-486e-a6ec-0f7f12aacc09","ios":"levelo://app?vid=6207df0a-86e1-486e-a6ec-0f7f12aacc09"},"vehicle_type_id":"4","last_reported":1745960973,"current_range_meters":18800,"station_id":"ce4bh2p2rcd13ifvqdi0","pricing_plan_id":"cebpf4jnsgd1na2vs0mg"},{"bike_id":"51756818-75ba-43be-8091-d7f8562b0842","system_id":"levelo_inurba_marseille","lat":43.28077,"lon":5.39653,"is_reserved":false,"is_disabled":false,"rental_uris":{"android":"levelo://app?vid=51756818-75ba-43be-8091-d7f8562b0842","ios":"levelo://app?vid=51756818-75ba-43be-8091-d7f8562b0842"},"vehicle_type_id":"4","last_reported":1745960973,"current_range_meters":18800,"station_id":"ce4bho12rcd13ifvqh2g","pricing_plan_id":"cebpf4jnsgd1na2vs0mg"},{"bike_id":"f9b80217-8521-4f2a-aff9-e18baa4e82fb","system_id":"levelo_inurba_marseille","lat":43.3043,"lon":5.3889,"is_reserved":false,"is_disabled":false,"rental_uris":{"android":"levelo://app?vid=f9b80217-8521-4f2a-aff9-e18baa4e82fb","ios":"levelo://app?vid=f9b80217-8521-4f2a-aff9-e18baa4e82fb"},"vehicle_type_id":"4","last_reported":1745960973,"current_range_meters":19200,"station_id":"ce4bgk12rcd13ifvqbi0","pricing_plan_id":"cebpf4jnsgd1na2vs0mg"},{"bike_id":"3c3adeff-9ed5-43bf-9048-65f51e004140","system_id":"levelo_inurba_marseille","lat":43.30108,"lon":5.3908,"is_reserved":false,"is_disabled":false,"rental_uris":{"android":"levelo://app?vid=3c3adeff-9ed5-43bf-9048-65f51e004140","ios":"levelo://app?vid=3c3adeff-9ed5-43bf-9048-65f51e004140"},"vehicle_type_id":"4","last_reported":1745960973,"current_range_meters":19200,"station_id":"ce4bh192rcd13ifvqdb0","pricing_plan_id":"cebpf4jnsgd1na2vs0mg"},{"bike_id":"c664bae0-5573-409b-9e67-da14d19e0c37","system_id":"levelo_inurba_marseille","lat":43.28465,"lon":5.35882,"is_reserved":false,"is_disabled":false,"rental_uris":{"android":"levelo://app?vid=c664bae0-5573-409b-9e67-da14d19e0c37","ios":"levelo://app?vid=c664bae0-5573-409b-9e67-da14d19e0c37"},"vehicle_type_id":"4","last_reported":1745960973,"current_range_meters":19200,"station_id":"ce4bhah2rcd13ifvqei0","pricing_plan_id":"cebpf4jnsgd1na2vs0mg"},{"bike_id":"dd1d5a3f-d140-4e61-a85f-9fd03b0cfd3a","system_id":"levelo_inurba_marseille","lat":43.31533,"lon":5.38029,"is_reserved":false,"is_disabled":false,"rental_uris":{"android":"levelo://app?vid=dd1d5a3f-d140-4e61-a85f-9fd03b0cfd3a","ios":"levelo://app?vid=dd1d5a3f-d140-4e61-a85f-9fd03b0cfd3a"},"vehicle_type_id":"4","last_reported":1745960973,"current_range_meters":19200,"station_id":"ce4bhsp2rcd13ifvqi50","pricing_plan_id":"cebpf4jnsgd1na2vs0mg"},{"bike_id":"7940bc1b-eaa7-4f49-a435-46dc9391f6a1","system_id":"levelo_inurba_marseille","lat":43.21195,"lon":5.35091,"is_reserved":false,"is_disabled":false,"rental_uris":{"android":"levelo://app?vid=7940bc1b-eaa7-4f49-a435-46dc9391f6a1","ios":"levelo://app?vid=7940bc1b-eaa7-4f49-a435-46dc9391f6a1"},"vehicle_type_id":"4","last_reported":1745960973,"current_range_meters":19200,"station_id":"st_cvj6sg6p6f1abm77japg","pricing_plan_id":"cebpf4jnsgd1na2vs0mg"},{"bike_id":"baf04520-9ae4-4d4b-b441-fcfa2c6e3d2a","system_id":"levelo_inurba_marseille","lat":43.314995,"lon":5.372541,"is_reserved":false,"is_disabled":false,"rental_uris":{"android":"levelo://app?vid=baf04520-9ae4-4d4b-b441-fcfa2c6e3d2a","ios":"levelo://app?vid=baf04520-9ae4-4d4b-b441-fcfa2c6e3d2a"},"vehicle_type_id":"4","last_reported":1745960973,"current_range_meters":19600,"station_id":"ce4bgt12rcd13ifvqcd0","pricing_plan_id":"cebpf4jnsgd1na2vs0mg"},{"bike_id":"2faf3e59-608e-42bf-b6fb-77a80ede3797","system_id":"levelo_inurba_marseille","lat":43.29528,"lon":5.39404,"is_reserved":false,"is_disabled":false,"rental_uris":{"android":"levelo://app?vid=2faf3e59-608e-42bf-b6fb-77a80ede3797","ios":"levelo://app?vid=2faf3e59-608e-42bf-b6fb-77a80ede3797"},"vehicle_type_id":"4","last_reported":1745960973,"current_range_meters":19600,"station_id":"ce4bh292rcd13ifvqdf0","pricing_plan_id":"cebpf4jnsgd1na2vs0mg"},{"bike_id":"f1c2e018-3f8b-4fd2-9ebe-c2e1e6f4b3cc","system_id":"levelo_inurba_marseille","lat":43.290374,"lon":5.399592,"is_reserved":false,"is_disabled":false,"rental_uris":{"android":"levelo://app?vid=f1c2e018-3f8b-4fd2-9ebe-c2e1e6f4b3cc","ios":"levelo://app?vid=f1c2e018-3f8b-4fd2-9ebe-c2e1e6f4b3cc"},"vehicle_type_id":"4","last_reported":1745960973,"current_range_meters":19600,"station_id":"ce4bh392rcd13ifvqdm0","pricing_plan_id":"cebpf4jnsgd1na2vs0mg"},{"bike_id":"bdf665ad-6df7-4182-b22e-b38d25b44bab","system_id":"levelo_inurba_marseille","lat":43.260591,"lon":5.394041,"is_reserved":false,"is_disabled":false,"rental_uris":{"android":"levelo://app?vid=bdf665ad-6df7-4182-b22e-b38d25b44bab","ios":"levelo://app?vid=bdf665ad-6df7-4182-b22e-b38d25b44bab"},"vehicle_type_id":"4","last_reported":1745960973,"current_range_meters":19600,"station_id":"ce4bhh92rcd13ifvqfj0","pricing_plan_id":"cebpf4jnsgd1na2vs0mg"},{"bike_id":"501d46ce-09c9-40d7-92b5-8ea772a9cc4a","system_id":"levelo_inurba_marseille","lat":43.29565,"lon":5.3856,"is_reserved":false,"is_disabled":false,"rental_uris":{"android":"levelo://app?vid=501d46ce-09c9-40d7-92b5-8ea772a9cc4a","ios":"levelo://app?vid=501d46ce-09c9-40d7-92b5-8ea772a9cc4a"},"vehicle_type_id":"4","last_reported":1745960973,"current_range_meters":20000,"station_id":"ce4bgih2rcd13ifvqba0","pricing_plan_id":"cebpf4jnsgd1na2vs0mg"},{"bike_id":"e2089ce8-b914-494c-ad65-854076ca3475","system_id":"levelo_inurba_marseille","lat":43.2997,"lon":5.37178,"is_reserved":false,"is_disabled":false,"rental_uris":{"android":"levelo://app?vid=e2089ce8-b914-494c-ad65-854076ca3475","ios":"levelo://app?vid=e2089ce8-b914-494c-ad65-854076ca3475"},"vehicle_type_id":"4","last_reported":1745960973,"current_range_meters":20000,"station_id":"ce4bgr92rcd13ifvqc7g","pricing_plan_id":"cebpf4jnsgd1na2vs0mg"},{"bike_id":"6957e6fe-7d74-4dea-b2ec-970998048803","system_id":"levelo_inurba_marseille","lat":43.29516,"lon":5.39053,"is_reserved":false,"is_disabled":false,"rental_uris":{"android":"levelo://app?vid=6957e6fe-7d74-4dea-b2ec-970998048803","ios":"levelo://app?vid=6957e6fe-7d74-4dea-b2ec-970998048803"},"vehicle_type_id":"4","last_reported":1745960973,"current_range_meters":20000,"station_id":"ce4bh3p2rcd13ifvqdp0","pricing_plan_id":"cebpf4jnsgd1na2vs0mg"},{"bike_id":"56e9946c-3fa2-42a9-b9d4-ef8dbbb498d3","system_id":"levelo_inurba_marseille","lat":43.3117,"lon":5.38724,"is_reserved":false,"is_disabled":false,"rental_uris":{"android":"levelo://app?vid=56e9946c-3fa2-42a9-b9d4-ef8dbbb498d3","ios":"levelo://app?vid=56e9946c-3fa2-42a9-b9d4-ef8dbbb498d3"},"vehicle_type_id":"4","last_reported":1745960973,"current_range_meters":20400,"station_id":"ce4bgv12rcd13ifvqcp0","pricing_plan_id":"cebpf4jnsgd1na2vs0mg"},{"bike_id":"91ef6787-91b8-4385-80d8-4611df67bc4c","system_id":"levelo_inurba_marseille","lat":43.31265,"lon":5.40175,"is_reserved":false,"is_disabled":false,"rental_uris":{"android":"levelo://app?vid=91ef6787-91b8-4385-80d8-4611df67bc4c","ios":"levelo://app?vid=91ef6787-91b8-4385-80d8-4611df67bc4c"},"vehicle_type_id":"4","last_reported":1745960973,"current_range_meters":20400,"station_id":"ce4bh092rcd13ifvqd30","pricing_plan_id":"cebpf4jnsgd1na2vs0mg"},{"bike_id":"a81d0497-478d-4148-9095-ee30f28d9860","system_id":"levelo_inurba_marseille","lat":43.26575,"lon":5.39009,"is_reserved":false,"is_disabled":false,"rental_uris":{"android":"levelo://app?vid=a81d0497-478d-4148-9095-ee30f28d9860","ios":"levelo://app?vid=a81d0497-478d-4148-9095-ee30f28d9860"},"vehicle_type_id":"4","last_reported":1745960973,"current_range_meters":20400,"station_id":"ce4bhe12rcd13ifvqf30","pricing_plan_id":"cebpf4jnsgd1na2vs0mg"},{"bike_id":"ba407973-a485-4e01-85e4-74652143c8fd","system_id":"levelo_inurba_marseille","lat":43.31721,"lon":5.42395,"is_reserved":false,"is_disabled":false,"rental_uris":{"android":"levelo://app?vid=ba407973-a485-4e01-85e4-74652143c8fd","ios":"levelo://app?vid=ba407973-a485-4e01-85e4-74652143c8fd"},"vehicle_type_id":"4","last_reported":1745960973,"current_range_meters":20400,"station_id":"ce4bhp92rcd13ifvqhbg","pricing_plan_id":"cebpf4jnsgd1na2vs0mg"},{"bike_id":"b6065ae9-5ee9-4604-9aea-4d7e9392a4fc","system_id":"levelo_inurba_marseille","lat":43.305878,"lon":5.393613,"is_reserved":false,"is_disabled":false,"rental_uris":{"android":"levelo://app?vid=b6065ae9-5ee9-4604-9aea-4d7e9392a4fc","ios":"levelo://app?vid=b6065ae9-5ee9-4604-9aea-4d7e9392a4fc"},"vehicle_type_id":"4","last_reported":1745960973,"current_range_meters":20800,"station_id":"","pricing_plan_id":"cebpf4jnsgd1na2vs0mg"},{"bike_id":"f9a017b6-ec1e-49c4-ad0e-7d5eda553f97","system_id":"levelo_inurba_marseille","lat":43.30913,"lon":5.36841,"is_reserved":false,"is_disabled":false,"rental_uris":{"android":"levelo://app?vid=f9a017b6-ec1e-49c4-ad0e-7d5eda553f97","ios":"levelo://app?vid=f9a017b6-ec1e-49c4-ad0e-7d5eda553f97"},"vehicle_type_id":"4","last_reported":1745960973,"current_range_meters":20800,"station_id":"ce4bgn92rcd13ifvqbvg","pricing_plan_id":"cebpf4jnsgd1na2vs0mg"},{"bike_id":"330ae0d8-2228-407b-80de-905ccac38fed","system_id":"levelo_inurba_marseille","lat":43.31485,"lon":5.37303,"is_reserved":false,"is_disabled":false,"rental_uris":{"android":"levelo://app?vid=330ae0d8-2228-407b-80de-905ccac38fed","ios":"levelo://app?vid=330ae0d8-2228-407b-80de-905ccac38fed"},"vehicle_type_id":"4","last_reported":1745960973,"current_range_meters":20800,"station_id":"ce4bgt12rcd13ifvqcd0","pricing_plan_id":"cebpf4jnsgd1na2vs0mg"},{"bike_id":"c0c8d5cd-b1b6-485b-995b-e8f1d29e4490","system_id":"levelo_inurba_marseille","lat":43.28094,"lon":5.37844,"is_reserved":false,"is_disabled":false,"rental_uris":{"android":"levelo://app?vid=c0c8d5cd-b1b6-485b-995b-e8f1d29e4490","ios":"levelo://app?vid=c0c8d5cd-b1b6-485b-995b-e8f1d29e4490"},"vehicle_type_id":"4","last_reported":1745960973,"current_range_meters":20800,"station_id":"ce4bha12rcd13ifvqee0","pricing_plan_id":"cebpf4jnsgd1na2vs0mg"},{"bike_id":"edaae8ad-5882-4d8d-9ea8-483bb3337260","system_id":"levelo_inurba_marseille","lat":43.28718,"lon":5.39997,"is_reserved":false,"is_disabled":false,"rental_uris":{"android":"levelo://app?vid=edaae8ad-5882-4d8d-9ea8-483bb3337260","ios":"levelo://app?vid=edaae8ad-5882-4d8d-9ea8-483bb3337260"},"vehicle_type_id":"4","last_reported":1745960973,"current_range_meters":20800,"station_id":"ce4bho92rcd13ifvqh3g","pricing_plan_id":"cebpf4jnsgd1na2vs0mg"},{"bike_id":"9a580912-e5dc-4324-896d-5a84cef781c1","system_id":"levelo_inurba_marseille","lat":43.33608,"lon":5.41045,"is_reserved":false,"is_disabled":false,"rental_uris":{"android":"levelo://app?vid=9a580912-e5dc-4324-896d-5a84cef781c1","ios":"levelo://app?vid=9a580912-e5dc-4324-896d-5a84cef781c1"},"vehicle_type_id":"4","last_reported":1745960973,"current_range_meters":20800,"station_id":"ce4bhqh2rcd13ifvqhmg","pricing_plan_id":"cebpf4jnsgd1na2vs0mg"},{"bike_id":"c4c65eaf-87c7-4943-bf95-1bb3c742d30b","system_id":"levelo_inurba_marseille","lat":43.2861,"lon":5.37068,"is_reserved":false,"is_disabled":false,"rental_uris":{"android":"levelo://app?vid=c4c65eaf-87c7-4943-bf95-1bb3c742d30b","ios":"levelo://app?vid=c4c65eaf-87c7-4943-bf95-1bb3c742d30b"},"vehicle_type_id":"4","last_reported":1745960973,"current_range_meters":20800,"station_id":"ce4bht12rcd13ifvqi60","pricing_plan_id":"cebpf4jnsgd1na2vs0mg"},{"bike_id":"d24668ae-aa9d-4e6e-9740-2a9d1fdd6c9c","system_id":"levelo_inurba_marseille","lat":43.29658,"lon":5.38038,"is_reserved":false,"is_disabled":false,"rental_uris":{"android":"levelo://app?vid=d24668ae-aa9d-4e6e-9740-2a9d1fdd6c9c","ios":"levelo://app?vid=d24668ae-aa9d-4e6e-9740-2a9d1fdd6c9c"},"vehicle_type_id":"4","last_reported":1745960973,"current_range_meters":21600,"station_id":"","pricing_plan_id":"cebpf4jnsgd1na2vs0mg"},{"bike_id":"1ed1a301-a862-4162-9fb7-6977a173f9c8","system_id":"levelo_inurba_marseille","lat":43.3133,"lon":5.39708,"is_reserved":false,"is_disabled":false,"rental_uris":{"android":"levelo://app?vid=1ed1a301-a862-4162-9fb7-6977a173f9c8","ios":"levelo://app?vid=1ed1a301-a862-4162-9fb7-6977a173f9c8"},"vehicle_type_id":"4","last_reported":1745960973,"current_range_meters":21600,"station_id":"ce4bgvp2rcd13ifvqcu0","pricing_plan_id":"cebpf4jnsgd1na2vs0mg"},{"bike_id":"e40cc893-9f07-486d-a1fe-7586df50779c","system_id":"levelo_inurba_marseille","lat":43.30215,"lon":5.39468,"is_reserved":false,"is_disabled":false,"rental_uris":{"android":"levelo://app?vid=e40cc893-9f07-486d-a1fe-7586df50779c","ios":"levelo://app?vid=e40cc893-9f07-486d-a1fe-7586df50779c"},"vehicle_type_id":"4","last_reported":1745960973,"current_range_meters":21600,"station_id":"ce4bh0p2rcd13ifvqd70","pricing_plan_id":"cebpf4jnsgd1na2vs0mg"},{"bike_id":"74379a1c-6a06-462c-a4cb-5f1f7d4e4288","system_id":"levelo_inurba_marseille","lat":43.295698,"lon":5.399748,"is_reserved":false,"is_disabled":false,"rental_uris":{"android":"levelo://app?vid=74379a1c-6a06-462c-a4cb-5f1f7d4e4288","ios":"levelo://app?vid=74379a1c-6a06-462c-a4cb-5f1f7d4e4288"},"vehicle_type_id":"4","last_reported":1745960973,"current_range_meters":21600,"station_id":"ce4bh312rcd13ifvqdj0","pricing_plan_id":"cebpf4jnsgd1na2vs0mg"},{"bike_id":"4c4798b4-c688-4431-94b4-9fdc0f8b9723","system_id":"levelo_inurba_marseille","lat":43.26686,"lon":5.38273,"is_reserved":false,"is_disabled":false,"rental_uris":{"android":"levelo://app?vid=4c4798b4-c688-4431-94b4-9fdc0f8b9723","ios":"levelo://app?vid=4c4798b4-c688-4431-94b4-9fdc0f8b9723"},"vehicle_type_id":"4","last_reported":1745960973,"current_range_meters":21600,"station_id":"ce4bhg92rcd13ifvqf90","pricing_plan_id":"cebpf4jnsgd1na2vs0mg"},{"bike_id":"ffbe88e3-5408-4fe8-b3b1-0e4bbb437a26","system_id":"levelo_inurba_marseille","lat":43.28449,"lon":5.39184,"is_reserved":false,"is_disabled":false,"rental_uris":{"android":"levelo://app?vid=ffbe88e3-5408-4fe8-b3b1-0e4bbb437a26","ios":"levelo://app?vid=ffbe88e3-5408-4fe8-b3b1-0e4bbb437a26"},"vehicle_type_id":"4","last_reported":1745960973,"current_range_meters":21600,"station_id":"ce4bhoh2rcd13ifvqh5g","pricing_plan_id":"cebpf4jnsgd1na2vs0mg"},{"bike_id":"5bb930cb-f687-4afc-a3b1-7d364bf87093","system_id":"levelo_inurba_marseille","lat":43.323733,"lon":5.387994,"is_reserved":false,"is_disabled":false,"rental_uris":{"android":"levelo://app?vid=5bb930cb-f687-4afc-a3b1-7d364bf87093","ios":"levelo://app?vid=5bb930cb-f687-4afc-a3b1-7d364bf87093"},"vehicle_type_id":"4","last_reported":1745960973,"current_range_meters":21600,"station_id":"ce4bhqp2rcd13ifvqhog","pricing_plan_id":"cebpf4jnsgd1na2vs0mg"},{"bike_id":"9a6d1a0d-0520-4c44-b0a9-74ddbe754418","system_id":"levelo_inurba_marseille","lat":43.27114,"lon":5.40696,"is_reserved":false,"is_disabled":false,"rental_uris":{"android":"levelo://app?vid=9a6d1a0d-0520-4c44-b0a9-74ddbe754418","ios":"levelo://app?vid=9a6d1a0d-0520-4c44-b0a9-74ddbe754418"},"vehicle_type_id":"4","last_reported":1745960973,"current_range_meters":22000,"station_id":"","pricing_plan_id":"cebpf4jnsgd1na2vs0mg"},{"bike_id":"856b9cea-619f-4c91-8452-1e096f8abfc3","system_id":"levelo_inurba_marseille","lat":43.30888,"lon":5.39644,"is_reserved":false,"is_disabled":false,"rental_uris":{"android":"levelo://app?vid=856b9cea-619f-4c91-8452-1e096f8abfc3","ios":"levelo://app?vid=856b9cea-619f-4c91-8452-1e096f8abfc3"},"vehicle_type_id":"4","last_reported":1745960973,"current_range_meters":22000,"station_id":"ce4bh012rcd13ifvqcv0","pricing_plan_id":"cebpf4jnsgd1na2vs0mg"},{"bike_id":"fd668eb6-0436-4c24-a23f-f2fc14ffa3be","system_id":"levelo_inurba_marseille","lat":43.30097,"lon":5.39082,"is_reserved":false,"is_disabled":false,"rental_uris":{"android":"levelo://app?vid=fd668eb6-0436-4c24-a23f-f2fc14ffa3be","ios":"levelo://app?vid=fd668eb6-0436-4c24-a23f-f2fc14ffa3be"},"vehicle_type_id":"4","last_reported":1745960973,"current_range_meters":22000,"station_id":"ce4bh192rcd13ifvqdb0","pricing_plan_id":"cebpf4jnsgd1na2vs0mg"},{"bike_id":"ed109d56-bd00-4276-9adb-48be6f4fbfdf","system_id":"levelo_inurba_marseille","lat":43.2846,"lon":5.35899,"is_reserved":false,"is_disabled":false,"rental_uris":{"android":"levelo://app?vid=ed109d56-bd00-4276-9adb-48be6f4fbfdf","ios":"levelo://app?vid=ed109d56-bd00-4276-9adb-48be6f4fbfdf"},"vehicle_type_id":"4","last_reported":1745960973,"current_range_meters":22000,"station_id":"ce4bhah2rcd13ifvqei0","pricing_plan_id":"cebpf4jnsgd1na2vs0mg"},{"bike_id":"310d622f-a5db-4e3b-a8a9-748b6065bef9","system_id":"levelo_inurba_marseille","lat":43.28454,"lon":5.35891,"is_reserved":false,"is_disabled":false,"rental_uris":{"android":"levelo://app?vid=310d622f-a5db-4e3b-a8a9-748b6065bef9","ios":"levelo://app?vid=310d622f-a5db-4e3b-a8a9-748b6065bef9"},"vehicle_type_id":"4","last_reported":1745960973,"current_range_meters":22000,"station_id":"ce4bhah2rcd13ifvqei0","pricing_plan_id":"cebpf4jnsgd1na2vs0mg"},{"bike_id":"4845f557-e62c-46d2-8b28-f22d1e612576","system_id":"levelo_inurba_marseille","lat":43.25128,"lon":5.40316,"is_reserved":false,"is_disabled":false,"rental_uris":{"android":"levelo://app?vid=4845f557-e62c-46d2-8b28-f22d1e612576","ios":"levelo://app?vid=4845f557-e62c-46d2-8b28-f22d1e612576"},"vehicle_type_id":"4","last_reported":1745960973,"current_range_meters":22000,"station_id":"ce4bhlh2rcd13ifvqgig","pricing_plan_id":"cebpf4jnsgd1na2vs0mg"},{"bike_id":"b7fddfc1-cd86-42e3-864f-d2f2fea08b79","system_id":"levelo_inurba_marseille","lat":43.28446,"lon":5.39211,"is_reserved":false,"is_disabled":false,"rental_uris":{"android":"levelo://app?vid=b7fddfc1-cd86-42e3-864f-d2f2fea08b79","ios":"levelo://app?vid=b7fddfc1-cd86-42e3-864f-d2f2fea08b79"},"vehicle_type_id":"4","last_reported":1745960973,"current_range_meters":22000,"station_id":"ce4bhoh2rcd13ifvqh5g","pricing_plan_id":"cebpf4jnsgd1na2vs0mg"},{"bike_id":"3a1c6b65-5f0e-4cf0-b640-52fefa98b0b8","system_id":"levelo_inurba_marseille","lat":43.32047,"lon":5.41548,"is_reserved":false,"is_disabled":false,"rental_uris":{"android":"levelo://app?vid=3a1c6b65-5f0e-4cf0-b640-52fefa98b0b8","ios":"levelo://app?vid=3a1c6b65-5f0e-4cf0-b640-52fefa98b0b8"},"vehicle_type_id":"4","last_reported":1745960973,"current_range_meters":22000,"station_id":"ce4bhq92rcd13ifvqhkg","pricing_plan_id":"cebpf4jnsgd1na2vs0mg"},{"bike_id":"059bb2ba-dcc5-47ab-9804-33629a38b922","system_id":"levelo_inurba_marseille","lat":43.29607,"lon":5.38104,"is_reserved":false,"is_disabled":false,"rental_uris":{"android":"levelo://app?vid=059bb2ba-dcc5-47ab-9804-33629a38b922","ios":"levelo://app?vid=059bb2ba-dcc5-47ab-9804-33629a38b922"},"vehicle_type_id":"4","last_reported":1745960973,"current_range_meters":22400,"station_id":"ce4bgl12rcd13ifvqbo0","pricing_plan_id":"cebpf4jnsgd1na2vs0mg"},{"bike_id":"d8c1856b-cd1d-4412-9e4e-dfbccee9e410","system_id":"levelo_inurba_marseille","lat":43.30932,"lon":5.40136,"is_reserved":false,"is_disabled":false,"rental_uris":{"android":"levelo://app?vid=d8c1856b-cd1d-4412-9e4e-dfbccee9e410","ios":"levelo://app?vid=d8c1856b-cd1d-4412-9e4e-dfbccee9e410"},"vehicle_type_id":"4","last_reported":1745960973,"current_range_meters":22400,"station_id":"ce4bgvp2rcd13ifvqct0","pricing_plan_id":"cebpf4jnsgd1na2vs0mg"},{"bike_id":"ce32f884-8111-48ff-84e3-be114354a449","system_id":"levelo_inurba_marseille","lat":43.30213,"lon":5.3946,"is_reserved":false,"is_disabled":false,"rental_uris":{"android":"levelo://app?vid=ce32f884-8111-48ff-84e3-be114354a449","ios":"levelo://app?vid=ce32f884-8111-48ff-84e3-be114354a449"},"vehicle_type_id":"4","last_reported":1745960973,"current_range_meters":22400,"station_id":"ce4bh0p2rcd13ifvqd70","pricing_plan_id":"cebpf4jnsgd1na2vs0mg"},{"bike_id":"5fb05020-8fd6-4ee3-9884-4b48edd6b10f","system_id":"levelo_inurba_marseille","lat":43.295217,"lon":5.390346,"is_reserved":false,"is_disabled":false,"rental_uris":{"android":"levelo://app?vid=5fb05020-8fd6-4ee3-9884-4b48edd6b10f","ios":"levelo://app?vid=5fb05020-8fd6-4ee3-9884-4b48edd6b10f"},"vehicle_type_id":"4","last_reported":1745960973,"current_range_meters":22400,"station_id":"ce4bh3p2rcd13ifvqdp0","pricing_plan_id":"cebpf4jnsgd1na2vs0mg"},{"bike_id":"cfeda04c-02c8-4df2-b843-e87cedd38c29","system_id":"levelo_inurba_marseille","lat":43.283657,"lon":5.38624,"is_reserved":false,"is_disabled":false,"rental_uris":{"android":"levelo://app?vid=cfeda04c-02c8-4df2-b843-e87cedd38c29","ios":"levelo://app?vid=cfeda04c-02c8-4df2-b843-e87cedd38c29"},"vehicle_type_id":"4","last_reported":1745960973,"current_range_meters":22400,"station_id":"ce4bh492rcd13ifvqdvg","pricing_plan_id":"cebpf4jnsgd1na2vs0mg"},{"bike_id":"2414e797-5d23-44b4-acbf-f988ed3a01fc","system_id":"levelo_inurba_marseille","lat":43.24116,"lon":5.37739,"is_reserved":false,"is_disabled":false,"rental_uris":{"android":"levelo://app?vid=2414e797-5d23-44b4-acbf-f988ed3a01fc","ios":"levelo://app?vid=2414e797-5d23-44b4-acbf-f988ed3a01fc"},"vehicle_type_id":"4","last_reported":1745960973,"current_range_meters":22400,"station_id":"ce4bhnp2rcd13ifvqgvg","pricing_plan_id":"cebpf4jnsgd1na2vs0mg"},{"bike_id":"7a73f0f2-804c-4b81-a304-0e5e30e7092d","system_id":"levelo_inurba_marseille","lat":43.30438,"lon":5.38884,"is_reserved":false,"is_disabled":false,"rental_uris":{"android":"levelo://app?vid=7a73f0f2-804c-4b81-a304-0e5e30e7092d","ios":"levelo://app?vid=7a73f0f2-804c-4b81-a304-0e5e30e7092d"},"vehicle_type_id":"4","last_reported":1745960973,"current_range_meters":22800,"station_id":"ce4bgk12rcd13ifvqbi0","pricing_plan_id":"cebpf4jnsgd1na2vs0mg"},{"bike_id":"4d0b1a2e-48df-400b-8534-b420da0aa098","system_id":"levelo_inurba_marseille","lat":43.31168,"lon":5.38716,"is_reserved":false,"is_disabled":false,"rental_uris":{"android":"levelo://app?vid=4d0b1a2e-48df-400b-8534-b420da0aa098","ios":"levelo://app?vid=4d0b1a2e-48df-400b-8534-b420da0aa098"},"vehicle_type_id":"4","last_reported":1745960973,"current_range_meters":22800,"station_id":"ce4bgv12rcd13ifvqcp0","pricing_plan_id":"cebpf4jnsgd1na2vs0mg"},{"bike_id":"a3b59473-5007-422e-b51a-76b868bf56bd","system_id":"levelo_inurba_marseille","lat":43.28417,"lon":5.37511,"is_reserved":false,"is_disabled":false,"rental_uris":{"android":"levelo://app?vid=a3b59473-5007-422e-b51a-76b868bf56bd","ios":"levelo://app?vid=a3b59473-5007-422e-b51a-76b868bf56bd"},"vehicle_type_id":"4","last_reported":1745960973,"current_range_meters":22800,"station_id":"ce4bh412rcd13ifvqds0","pricing_plan_id":"cebpf4jnsgd1na2vs0mg"},{"bike_id":"6d3d8a27-e3f8-42d0-974a-5c2363642d2e","system_id":"levelo_inurba_marseille","lat":43.28115,"lon":5.37838,"is_reserved":false,"is_disabled":false,"rental_uris":{"android":"levelo://app?vid=6d3d8a27-e3f8-42d0-974a-5c2363642d2e","ios":"levelo://app?vid=6d3d8a27-e3f8-42d0-974a-5c2363642d2e"},"vehicle_type_id":"4","last_reported":1745960973,"current_range_meters":22800,"station_id":"ce4bha12rcd13ifvqee0","pricing_plan_id":"cebpf4jnsgd1na2vs0mg"},{"bike_id":"ac136c3c-d8ab-4f51-937d-afc9aa4575e2","system_id":"levelo_inurba_marseille","lat":43.2811,"lon":5.37814,"is_reserved":false,"is_disabled":false,"rental_uris":{"android":"levelo://app?vid=ac136c3c-d8ab-4f51-937d-afc9aa4575e2","ios":"levelo://app?vid=ac136c3c-d8ab-4f51-937d-afc9aa4575e2"},"vehicle_type_id":"4","last_reported":1745960973,"current_range_meters":22800,"station_id":"ce4bha12rcd13ifvqee0","pricing_plan_id":"cebpf4jnsgd1na2vs0mg"},{"bike_id":"8a5ef15b-08e5-4866-9542-282ce1544826","system_id":"levelo_inurba_marseille","lat":43.23191,"lon":5.39983,"is_reserved":false,"is_disabled":false,"rental_uris":{"android":"levelo://app?vid=8a5ef15b-08e5-4866-9542-282ce1544826","ios":"levelo://app?vid=8a5ef15b-08e5-4866-9542-282ce1544826"},"vehicle_type_id":"4","last_reported":1745960973,"current_range_meters":22800,"station_id":"ce4bhn12rcd13ifvqgqg","pricing_plan_id":"cebpf4jnsgd1na2vs0mg"},{"bike_id":"809a2870-3fd0-4e73-bfea-9c4ae9526ab9","system_id":"levelo_inurba_marseille","lat":43.23202,"lon":5.35592,"is_reserved":false,"is_disabled":false,"rental_uris":{"android":"levelo://app?vid=809a2870-3fd0-4e73-bfea-9c4ae9526ab9","ios":"levelo://app?vid=809a2870-3fd0-4e73-bfea-9c4ae9526ab9"},"vehicle_type_id":"4","last_reported":1745960973,"current_range_meters":22800,"station_id":"ce4bhu92rcd13ifvqi70","pricing_plan_id":"cebpf4jnsgd1na2vs0mg"},{"bike_id":"17aa317d-4e03-45eb-b995-f8fe874ed55b","system_id":"levelo_inurba_marseille","lat":43.3046,"lon":5.379,"is_reserved":false,"is_disabled":false,"rental_uris":{"android":"levelo://app?vid=17aa317d-4e03-45eb-b995-f8fe874ed55b","ios":"levelo://app?vid=17aa317d-4e03-45eb-b995-f8fe874ed55b"},"vehicle_type_id":"4","last_reported":1745960973,"current_range_meters":23200,"station_id":"ce4bgup2rcd13ifvqcn0","pricing_plan_id":"cebpf4jnsgd1na2vs0mg"},{"bike_id":"cfb3915b-d5c6-4a7a-a0bd-94674f22060e","system_id":"levelo_inurba_marseille","lat":43.3065,"lon":5.40099,"is_reserved":false,"is_disabled":false,"rental_uris":{"android":"levelo://app?vid=cfb3915b-d5c6-4a7a-a0bd-94674f22060e","ios":"levelo://app?vid=cfb3915b-d5c6-4a7a-a0bd-94674f22060e"},"vehicle_type_id":"4","last_reported":1745960973,"current_range_meters":23200,"station_id":"ce4bh112rcd13ifvqda0","pricing_plan_id":"cebpf4jnsgd1na2vs0mg"},{"bike_id":"0957d982-4b63-4542-aeb0-da7c54fd4b51","system_id":"levelo_inurba_marseille","lat":43.27421,"lon":5.39417,"is_reserved":false,"is_disabled":false,"rental_uris":{"android":"levelo://app?vid=0957d982-4b63-4542-aeb0-da7c54fd4b51","ios":"levelo://app?vid=0957d982-4b63-4542-aeb0-da7c54fd4b51"},"vehicle_type_id":"4","last_reported":1745960973,"current_range_meters":23200,"station_id":"ce4bhdp2rcd13ifvqf20","pricing_plan_id":"cebpf4jnsgd1na2vs0mg"},{"bike_id":"c52399ae-6620-4637-8978-15fd1c845c96","system_id":"levelo_inurba_marseille","lat":43.2668,"lon":5.38273,"is_reserved":false,"is_disabled":false,"rental_uris":{"android":"levelo://app?vid=c52399ae-6620-4637-8978-15fd1c845c96","ios":"levelo://app?vid=c52399ae-6620-4637-8978-15fd1c845c96"},"vehicle_type_id":"4","last_reported":1745960973,"current_range_meters":23200,"station_id":"ce4bhg92rcd13ifvqf90","pricing_plan_id":"cebpf4jnsgd1na2vs0mg"},{"bike_id":"44bad974-0dd9-45f2-9c88-13e0ef90b385","system_id":"levelo_inurba_marseille","lat":43.2808,"lon":5.396665,"is_reserved":false,"is_disabled":false,"rental_uris":{"android":"levelo://app?vid=44bad974-0dd9-45f2-9c88-13e0ef90b385","ios":"levelo://app?vid=44bad974-0dd9-45f2-9c88-13e0ef90b385"},"vehicle_type_id":"4","last_reported":1745960973,"current_range_meters":24000,"station_id":"ce4bho12rcd13ifvqh2g","pricing_plan_id":"cebpf4jnsgd1na2vs0mg"},{"bike_id":"ee23ae3c-73a2-4bde-91be-fc5b6defe29c","system_id":"levelo_inurba_marseille","lat":43.297803,"lon":5.393373,"is_reserved":false,"is_disabled":false,"rental_uris":{"android":"levelo://app?vid=ee23ae3c-73a2-4bde-91be-fc5b6defe29c","ios":"levelo://app?vid=ee23ae3c-73a2-4bde-91be-fc5b6defe29c"},"vehicle_type_id":"4","last_reported":1745960973,"current_range_meters":24000,"station_id":"chh1huq6cuj3fo74tm60","pricing_plan_id":"cebpf4jnsgd1na2vs0mg"},{"bike_id":"7b2e585e-36d9-4c13-9e13-7851cae067d5","system_id":"levelo_inurba_marseille","lat":43.31493,"lon":5.37309,"is_reserved":false,"is_disabled":false,"rental_uris":{"android":"levelo://app?vid=7b2e585e-36d9-4c13-9e13-7851cae067d5","ios":"levelo://app?vid=7b2e585e-36d9-4c13-9e13-7851cae067d5"},"vehicle_type_id":"4","last_reported":1745960973,"current_range_meters":24400,"station_id":"ce4bgt12rcd13ifvqcd0","pricing_plan_id":"cebpf4jnsgd1na2vs0mg"},{"bike_id":"c183a72f-1f5f-458b-8590-300b8c0612fa","system_id":"levelo_inurba_marseille","lat":43.3093,"lon":5.4014,"is_reserved":false,"is_disabled":false,"rental_uris":{"android":"levelo://app?vid=c183a72f-1f5f-458b-8590-300b8c0612fa","ios":"levelo://app?vid=c183a72f-1f5f-458b-8590-300b8c0612fa"},"vehicle_type_id":"4","last_reported":1745960973,"current_range_meters":24400,"station_id":"ce4bgvp2rcd13ifvqct0","pricing_plan_id":"cebpf4jnsgd1na2vs0mg"},{"bike_id":"a71c5ca1-1706-458c-89ad-9aee3075f310","system_id":"levelo_inurba_marseille","lat":43.26228,"lon":5.40451,"is_reserved":false,"is_disabled":false,"rental_uris":{"android":"levelo://app?vid=a71c5ca1-1706-458c-89ad-9aee3075f310","ios":"levelo://app?vid=a71c5ca1-1706-458c-89ad-9aee3075f310"},"vehicle_type_id":"4","last_reported":1745960973,"current_range_meters":24400,"station_id":"ce4bhmh2rcd13ifvqgmg","pricing_plan_id":"cebpf4jnsgd1na2vs0mg"},{"bike_id":"f1754abc-8701-4b34-9b64-cfb587a8f187","system_id":"levelo_inurba_marseille","lat":43.29541,"lon":5.38564,"is_reserved":false,"is_disabled":false,"rental_uris":{"android":"levelo://app?vid=f1754abc-8701-4b34-9b64-cfb587a8f187","ios":"levelo://app?vid=f1754abc-8701-4b34-9b64-cfb587a8f187"},"vehicle_type_id":"4","last_reported":1745960973,"current_range_meters":24800,"station_id":"ce4bgih2rcd13ifvqba0","pricing_plan_id":"cebpf4jnsgd1na2vs0mg"},{"bike_id":"a92f8291-b176-49f8-abb5-251c8d3109d6","system_id":"levelo_inurba_marseille","lat":43.31172,"lon":5.38713,"is_reserved":false,"is_disabled":false,"rental_uris":{"android":"levelo://app?vid=a92f8291-b176-49f8-abb5-251c8d3109d6","ios":"levelo://app?vid=a92f8291-b176-49f8-abb5-251c8d3109d6"},"vehicle_type_id":"4","last_reported":1745960973,"current_range_meters":24800,"station_id":"ce4bgv12rcd13ifvqcp0","pricing_plan_id":"cebpf4jnsgd1na2vs0mg"},