{"last_updated":1744283311,"ttl":60,"version":"2.2","data":{"bikes":[{"bike_id":"46156e5f-25cc-45da-83c4-da2aa986f209","system_id":"levelo_inurba_marseille","lat":43.24726,"lon":5.4119,"is_reserved":false,"is_disabled":false,"rental_uris":{"android":"levelo://app?vid=46156e5f-25cc-45da-83c4-da2aa986f209","ios":"levelo://app?vid=46156e5f-25cc-45da-83c4-da2aa986f209"},"vehicle_type_id":"4","last_reported":1744283311,"current_range_meters":2800,"station_id":"","pricing_plan_id":"cebpf4jnsgd1na2vs0mg"},{"bike_id":"1618be3e-17cf-4cbf-b5b4-1c07222abc5d","system_id":"levelo_inurba_marseille","lat":43.30952,"lon":5.39034,"is_reserved":false,"is_disabled":false,"rental_uris":{"android":"levelo://app?vid=1618be3e-17cf-4cbf-b5b4-1c07222abc5d","ios":"levelo://app?vid=1618be3e-17cf-4cbf-b5b4-1c07222abc5d"},"vehicle_type_id":"4","last_reported":1744283311,"current_range_meters":3200,"station_id":"ce4bgup2rcd13ifvqco0","pricing_plan_id":"cebpf4jnsgd1na2vs0mg"},{"bike_id":"2dea5513-82d8-49fe-8be3-05b77a306f53","system_id":"levelo_inurba_marseille","lat":43.328471,"lon":5.387678,"is_reserved":false,"is_disabled":false,"rental_uris":{"android":"levelo://app?vid=2dea5513-82d8-49fe-8be3-05b77a306f53","ios":"levelo://app?vid=2dea5513-82d8-49fe-8be3-05b77a306f53"},"vehicle_type_id":"4","last_reported":1744283311,"current_range_meters":3200,"station_id":"ce4bhr92rcd13ifvqhsg","pricing_plan_id":"cebpf4jnsgd1na2vs0mg"},{"bike_id":"c40a2e2c-2a66-4aa2-81cf-c4ae98211b54","system_id":"levelo_inurba_marseille","lat":43.21738,"lon":5.34596,"is_reserved":false,"is_disabled":false,"rental_uris":{"android":"levelo://app?vid=c40a2e2c-2a66-4aa2-81cf-c4ae98211b54","ios":"levelo://app?vid=c40a2e2c-2a66-4aa2-81cf-c4ae98211b54"},"vehicle_type_id":"4","last_reported":1744283311,"current_range_meters":3200,"station_id":"st_cvj6r9ubvosntc0bgbag","pricing_plan_id":"cebpf4jnsgd1na2vs0mg"},{"bike_id":"68d1cc33-0218-451e-8e10-d32225c21263","system_id":"levelo_inurba_marseille","lat":43.23167,"lon":5.43675,"is_reserved":false,"is_disabled":true,"rental_uris":{"android":"levelo://app?vid=68d1cc33-0218-451e-8e10-d32225c21263","ios":"levelo://app?vid=68d1cc33-0218-451e-8e10-d32225c21263"},"vehicle_type_id":"4","last_reported":1744283311,"current_range_meters":3200,"station_id":"ce4bhmp2rcd13ifvqgog","pricing_plan_id":"cebpf4jnsgd1na2vs0mg"},{"bike_id":"c6cd68f3-67f4-45ee-ad41-db69c3e2fd20","system_id":"levelo_inurba_marseille","lat":43.28608,"lon":5.37064,"is_reserved":false,"is_disabled":false,"rental_uris":{"android":"levelo://app?vid=c6cd68f3-67f4-45ee-ad41-db69c3e2fd20","ios":"levelo://app?vid=c6cd68f3-67f4-45ee-ad41-db69c3e2fd20"},"vehicle_type_id":"4","last_reported":1744283311,"current_range_meters":3200,"station_id":"ce4bht12rcd13ifvqi60","pricing_plan_id":"cebpf4jnsgd1na2vs0mg"},{"bike_id":"145c69da-ac08-412e-938f-a86096f4ab75","system_id":"levelo_inurba_marseille","lat":43.29221,"lon":5.36071,"is_reserved":false,"is_disabled":false,"rental_uris":{"android":"levelo://app?vid=145c69da-ac08-412e-938f-a86096f4ab75","ios":"levelo://app?vid=145c69da-ac08-412e-938f-a86096f4ab75"},"vehicle_type_id":"4","last_reported":1744283311,"current_range_meters":3600,"station_id":"ce4bhbh2rcd13ifvqeqg","pricing_plan_id":"cebpf4jnsgd1na2vs0mg"},{"bike_id":"c05df656-912b-48bb-b7c7-e784997c4a99","system_id":"levelo_inurba_marseille","lat":43.27034,"lon":5.39296,"is_reserved":false,"is_disabled":false,"rental_uris":{"android":"levelo://app?vid=c05df656-912b-48bb-b7c7-e784997c4a99","ios":"levelo://app?vid=c05df656-912b-48bb-b7c7-e784997c4a99"},"vehicle_type_id":"4","last_reported":1744283311,"current_range_meters":4400,"station_id":"ce4bhhp2rcd13ifvqfm0","pricing_plan_id":"cebpf4jnsgd1na2vs0mg"},{"bike_id":"30045e66-82fd-4348-bd3e-4bb91bd22145","system_id":"levelo_inurba_marseille","lat":43.281582,"lon":5.426458,"is_reserved":false,"is_disabled":false,"rental_uris":{"android":"levelo://app?vid=30045e66-82fd-4348-bd3e-4bb91bd22145","ios":"levelo://app?vid=30045e66-82fd-4348-bd3e-4bb91bd22145"},"vehicle_type_id":"4","last_reported":1744283311,"current_range_meters":4400,"station_id":"ce4bhnh2rcd13ifvqgug","pricing_plan_id":"cebpf4jnsgd1na2vs0mg"},{"bike_id":"97d9f5c7-5601-4024-8218-e080850705e4","system_id":"levelo_inurba_marseille","lat":43.28447,"lon":5.35006,"is_reserved":false,"is_disabled":true,"rental_uris":{"android":"levelo://app?vid=97d9f5c7-5601-4024-8218-e080850705e4","ios":"levelo://app?vid=97d9f5c7-5601-4024-8218-e080850705e4"},"vehicle_type_id":"4","last_reported":1744283311,"current_range_meters":4400,"station_id":"ce4bhbh2rcd13ifvqepg","pricing_plan_id":"cebpf4jnsgd1na2vs0mg"},{"bike_id":"18caad1c-5fb3-42f2-8342-9f21833ec2ba","system_id":"levelo_inurba_marseille","lat":43.29589,"lon":5.3809,"is_reserved":false,"is_disabled":false,"rental_uris":{"android":"levelo://app?vid=18caad1c-5fb3-42f2-8342-9f21833ec2ba","ios":"levelo://app?vid=18caad1c-5fb3-42f2-8342-9f21833ec2ba"},"vehicle_type_id":"4","last_reported":1744283311,"current_range_meters":4800,"station_id":"ce4bgl12rcd13ifvqbo0","pricing_plan_id":"cebpf4jnsgd1na2vs0mg"},{"bike_id":"758e8708-ecd2-494d-80c8-3ff8f0fbc44b","system_id":"levelo_inurba_marseille","lat":43.29961,"lon":5.41338,"is_reserved":false,"is_disabled":false,"rental_uris":{"android":"levelo://app?vid=758e8708-ecd2-494d-80c8-3ff8f0fbc44b","ios":"levelo://app?vid=758e8708-ecd2-494d-80c8-3ff8f0fbc44b"},"vehicle_type_id":"4","last_reported":1744283311,"current_range_meters":4800,"station_id":"ce4bhp12rcd13ifvqh9g","pricing_plan_id":"cebpf4jnsgd1na2vs0mg"},{"bike_id":"b1ce9412-af88-40da-ab66-35f21e975814","system_id":"levelo_inurba_marseille","lat":43.275095,"lon":5.38962,"is_reserved":false,"is_disabled":false,"rental_uris":{"android":"levelo://app?vid=b1ce9412-af88-40da-ab66-35f21e975814","ios":"levelo://app?vid=b1ce9412-af88-40da-ab66-35f21e975814"},"vehicle_type_id":"4","last_reported":1744283311,"current_range_meters":4800,"station_id":"ce4bhgp2rcd13ifvqfe0","pricing_plan_id":"cebpf4jnsgd1na2vs0mg"},{"bike_id":"80663e12-6b64-446d-88c9-20255bde1a8a","system_id":"levelo_inurba_marseille","lat":43.30883,"lon":5.3963,"is_reserved":false,"is_disabled":true,"rental_uris":{"android":"levelo://app?vid=80663e12-6b64-446d-88c9-20255bde1a8a","ios":"levelo://app?vid=80663e12-6b64-446d-88c9-20255bde1a8a"},"vehicle_type_id":"4","last_reported":1744283311,"current_range_meters":4800,"station_id":"ce4bh012rcd13ifvqcv0","pricing_plan_id":"cebpf4jnsgd1na2vs0mg"},{"bike_id":"bf0c585e-5b41-4721-a51a-71274899cf15","system_id":"levelo_inurba_marseille","lat":43.29672,"lon":5.37866,"is_reserved":false,"is_disabled":false,"rental_uris":{"android":"levelo://app?vid=bf0c585e-5b41-4721-a51a-71274899cf15","ios":"levelo://app?vid=bf0c585e-5b41-4721-a51a-71274899cf15"},"vehicle_type_id":"4","last_reported":1744283311,"current_range_meters":4800,"station_id":"","pricing_plan_id":"cebpf4jnsgd1na2vs0mg"},{"bike_id":"43c7218f-4c71-4aa2-b4a6-06ad39a70725","system_id":"levelo_inurba_marseille","lat":43.26948,"lon":5.40273,"is_reserved":false,"is_disabled":false,"rental_uris":{"android":"levelo://app?vid=43c7218f-4c71-4aa2-b4a6-06ad39a70725","ios":"levelo://app?vid=43c7218f-4c71-4aa2-b4a6-06ad39a70725"},"vehicle_type_id":"4","last_reported":1744283311,"current_range_meters":4800,"station_id":"cjm6bp8fraef2m0cb0m0","pricing_plan_id":"cebpf4jnsgd1na2vs0mg"},{"bike_id":"a0dadc6e-06c6-4e02-99bc-cbac11bb6480","system_id":"levelo_inurba_marseille","lat":43.28701,"lon":5.39976,"is_reserved":false,"is_disabled":false,"rental_uris":{"android":"levelo://app?vid=a0dadc6e-06c6-4e02-99bc-cbac11bb6480","ios":"levelo://app?vid=a0dadc6e-06c6-4e02-99bc-cbac11bb6480"},"vehicle_type_id":"4","last_reported":1744283311,"current_range_meters":4800,"station_id":"ce4bho92rcd13ifvqh3g","pricing_plan_id":"cebpf4jnsgd1na2vs0mg"},{"bike_id":"1adcfecd-7da9-485c-b40f-e62ffc130e51","system_id":"levelo_inurba_marseille","lat":43.217514,"lon":5.345986,"is_reserved":false,"is_disabled":false,"rental_uris":{"android":"levelo://app?vid=1adcfecd-7da9-485c-b40f-e62ffc130e51","ios":"levelo://app?vid=1adcfecd-7da9-485c-b40f-e62ffc130e51"},"vehicle_type_id":"4","last_reported":1744283311,"current_range_meters":5600,"station_id":"st_cvj6r9ubvosntc0bgbag","pricing_plan_id":"cebpf4jnsgd1na2vs0mg"},{"bike_id":"ff5c2472-a66a-4ff1-b4f2-42d6e0659cc4","system_id":"levelo_inurba_marseille","lat":43.31225,"lon":5.36873,"is_reserved":false,"is_disabled":false,"rental_uris":{"android":"levelo://app?vid=ff5c2472-a66a-4ff1-b4f2-42d6e0659cc4","ios":"levelo://app?vid=ff5c2472-a66a-4ff1-b4f2-42d6e0659cc4"},"vehicle_type_id":"4","last_reported":1744283311,"current_range_meters":5600,"station_id":"ce4bgl92rcd13ifvqbq0","pricing_plan_id":"cebpf4jnsgd1na2vs0mg"},{"bike_id":"c264c877-75ac-428a-bede-022521eb0138","system_id":"levelo_inurba_marseille","lat":43.30905,"lon":5.36864,"is_reserved":false,"is_disabled":false,"rental_uris":{"android":"levelo://app?vid=c264c877-75ac-428a-bede-022521eb0138","ios":"levelo://app?vid=c264c877-75ac-428a-bede-022521eb0138"},"vehicle_type_id":"4","last_reported":1744283311,"current_range_meters":5600,"station_id":"ce4bgn92rcd13ifvqbvg","pricing_plan_id":"cebpf4jnsgd1na2vs0mg"},{"bike_id":"a1ea2eb5-d7be-4314-afaf-819c7b28cdf1","system_id":"levelo_inurba_marseille","lat":43.23185,"lon":5.39984,"is_reserved":false,"is_disabled":false,"rental_uris":{"android":"levelo://app?vid=a1ea2eb5-d7be-4314-afaf-819c7b28cdf1","ios":"levelo://app?vid=a1ea2eb5-d7be-4314-afaf-819c7b28cdf1"},"vehicle_type_id":"4","last_reported":1744283311,"current_range_meters":5600,"station_id":"ce4bhn12rcd13ifvqgqg","pricing_plan_id":"cebpf4jnsgd1na2vs0mg"},{"bike_id":"e3f814a2-923d-41c7-96b9-3c81b68d76a0","system_id":"levelo_inurba_marseille","lat":43.26789,"lon":5.39407,"is_reserved":false,"is_disabled":false,"rental_uris":{"android":"levelo://app?vid=e3f814a2-923d-41c7-96b9-3c81b68d76a0","ios":"levelo://app?vid=e3f814a2-923d-41c7-96b9-3c81b68d76a0"},"vehicle_type_id":"4","last_reported":1744283311,"current_range_meters":5600,"station_id":"ce4bhh12rcd13ifvqfg0","pricing_plan_id":"cebpf4jnsgd1na2vs0mg"},{"bike_id":"c88ba6fb-84e0-430c-b471-b499c27f6ffe","system_id":"levelo_inurba_marseille","lat":43.275708,"lon":5.384272,"is_reserved":false,"is_disabled":false,"rental_uris":{"android":"levelo://app?vid=c88ba6fb-84e0-430c-b471-b499c27f6ffe","ios":"levelo://app?vid=c88ba6fb-84e0-430c-b471-b499c27f6ffe"},"vehicle_type_id":"4","last_reported":1744283311,"current_range_meters":5600,"station_id":"ce4bhh92rcd13ifvqfi0","pricing_plan_id":"cebpf4jnsgd1na2vs0mg"},{"bike_id":"f9fde33d-3e05-4f24-9670-2ad2d1cacdc1","system_id":"levelo_inurba_marseille","lat":43.28818,"lon":5.37328,"is_reserved":false,"is_disabled":true,"rental_uris":{"android":"levelo://app?vid=f9fde33d-3e05-4f24-9670-2ad2d1cacdc1","ios":"levelo://app?vid=f9fde33d-3e05-4f24-9670-2ad2d1cacdc1"},"vehicle_type_id":"4","last_reported":1744283311,"current_range_meters":5600,"station_id":"","pricing_plan_id":"cebpf4jnsgd1na2vs0mg"},{"bike_id":"4a9a2a88-b7aa-410e-bfe8-10ac7056326d","system_id":"levelo_inurba_marseille","lat":43.28943,"lon":5.39639,"is_reserved":false,"is_disabled":true,"rental_uris":{"android":"levelo://app?vid=4a9a2a88-b7aa-410e-bfe8-10ac7056326d","ios":"levelo://app?vid=4a9a2a88-b7aa-410e-bfe8-10ac7056326d"},"vehicle_type_id":"4","last_reported":1744283311,"current_range_meters":6000,"station_id":"ce4bh3h2rcd13ifvqdn0","pricing_plan_id":"cebpf4jnsgd1na2vs0mg"},{"bike_id":"0b14e020-b594-4567-92b1-5652d62501cd","system_id":"levelo_inurba_marseille","lat":43.24162,"lon":5.36397,"is_reserved":false,"is_disabled":false,"rental_uris":{"android":"levelo://app?vid=0b14e020-b594-4567-92b1-5652d62501cd","ios":"levelo://app?vid=0b14e020-b594-4567-92b1-5652d62501cd"},"vehicle_type_id":"4","last_reported":1744283311,"current_range_meters":6000,"station_id":"cpo36qri1sfpv3e86is0","pricing_plan_id":"cebpf4jnsgd1na2vs0mg"},{"bike_id":"08f9c0c8-8b33-4578-8a03-20f44d582241","system_id":"levelo_inurba_marseille","lat":43.305586,"lon":5.36968,"is_reserved":false,"is_disabled":false,"rental_uris":{"android":"levelo://app?vid=08f9c0c8-8b33-4578-8a03-20f44d582241","ios":"levelo://app?vid=08f9c0c8-8b33-4578-8a03-20f44d582241"},"vehicle_type_id":"4","last_reported":1744283311,"current_range_meters":6000,"station_id":"","pricing_plan_id":"cebpf4jnsgd1na2vs0mg"},{"bike_id":"0bae9246-94ff-464d-82c5-dde871189d3e","system_id":"levelo_inurba_marseille","lat":43.29969,"lon":5.3851,"is_reserved":false,"is_disabled":false,"rental_uris":{"android":"levelo://app?vid=0bae9246-94ff-464d-82c5-dde871189d3e","ios":"levelo://app?vid=0bae9246-94ff-464d-82c5-dde871189d3e"},"vehicle_type_id":"4","last_reported":1744283311,"current_range_meters":6000,"station_id":"ce4bgj92rcd13ifvqbd0","pricing_plan_id":"cebpf4jnsgd1na2vs0mg"},{"bike_id":"10a4b254-7355-4a63-9173-5e64693ec6c3","system_id":"levelo_inurba_marseille","lat":43.29275,"lon":5.36845,"is_reserved":false,"is_disabled":false,"rental_uris":{"android":"levelo://app?vid=10a4b254-7355-4a63-9173-5e64693ec6c3","ios":"levelo://app?vid=10a4b254-7355-4a63-9173-5e64693ec6c3"},"vehicle_type_id":"4","last_reported":1744283311,"current_range_meters":6000,"station_id":"ce4bhbp2rcd13ifvqesg","pricing_plan_id":"cebpf4jnsgd1na2vs0mg"},{"bike_id":"34c4894f-d938-42eb-8653-6d38bf5d26a6","system_id":"levelo_inurba_marseille","lat":43.296369,"lon":5.390784,"is_reserved":false,"is_disabled":false,"rental_uris":{"android":"levelo://app?vid=34c4894f-d938-42eb-8653-6d38bf5d26a6","ios":"levelo://app?vid=34c4894f-d938-42eb-8653-6d38bf5d26a6"},"vehicle_type_id":"4","last_reported":1744283311,"current_range_meters":6400,"station_id":"ce4bh192rcd13ifvqdd0","pricing_plan_id":"cebpf4jnsgd1na2vs0mg"},{"bike_id":"ae533bfc-f55a-4360-9a03-5e17793e77dd","system_id":"levelo_inurba_marseille","lat":43.24394,"lon":5.37059,"is_reserved":false,"is_disabled":false,"rental_uris":{"android":"levelo://app?vid=ae533bfc-f55a-4360-9a03-5e17793e77dd","ios":"levelo://app?vid=ae533bfc-f55a-4360-9a03-5e17793e77dd"},"vehicle_type_id":"4","last_reported":1744283311,"current_range_meters":6400,"station_id":"ce4bhhh2rcd13ifvqfk0","pricing_plan_id":"cebpf4jnsgd1na2vs0mg"},{"bike_id":"10790b2b-c447-40cf-871b-6bee3f31059c","system_id":"levelo_inurba_marseille","lat":43.31717,"lon":5.43711,"is_reserved":false,"is_disabled":false,"rental_uris":{"android":"levelo://app?vid=10790b2b-c447-40cf-871b-6bee3f31059c","ios":"levelo://app?vid=10790b2b-c447-40cf-871b-6bee3f31059c"},"vehicle_type_id":"4","last_reported":1744283311,"current_range_meters":6800,"station_id":"ce4bhp92rcd13ifvqhcg","pricing_plan_id":"cebpf4jnsgd1na2vs0mg"},{"bike_id":"841cc48f-644f-4c42-a397-236e943da4b4","system_id":"levelo_inurba_marseille","lat":43.270793,"lon":5.422794,"is_reserved":false,"is_disabled":false,"rental_uris":{"android":"levelo://app?vid=841cc48f-644f-4c42-a397-236e943da4b4","ios":"levelo://app?vid=841cc48f-644f-4c42-a397-236e943da4b4"},"vehicle_type_id":"4","last_reported":1744283311,"current_range_meters":6800,"station_id":"ce4bhk92rcd13ifvqgb0","pricing_plan_id":"cebpf4jnsgd1na2vs0mg"},{"bike_id":"f830551c-37ec-4118-a0f7-98850f2a2427","system_id":"levelo_inurba_marseille","lat":43.23152,"lon":5.43721,"is_reserved":false,"is_disabled":false,"rental_uris":{"android":"levelo://app?vid=f830551c-37ec-4118-a0f7-98850f2a2427","ios":"levelo://app?vid=f830551c-37ec-4118-a0f7-98850f2a2427"},"vehicle_type_id":"4","last_reported":1744283311,"current_range_meters":6800,"station_id":"ce4bhmp2rcd13ifvqgog","pricing_plan_id":"cebpf4jnsgd1na2vs0mg"},{"bike_id":"55a1e3e0-9f7d-4094-a33f-d38d06a29a08","system_id":"levelo_inurba_marseille","lat":43.21187,"lon":5.35073,"is_reserved":false,"is_disabled":false,"rental_uris":{"android":"levelo://app?vid=55a1e3e0-9f7d-4094-a33f-d38d06a29a08","ios":"levelo://app?vid=55a1e3e0-9f7d-4094-a33f-d38d06a29a08"},"vehicle_type_id":"4","last_reported":1744283311,"current_range_meters":7200,"station_id":"st_cvj6sg6p6f1abm77japg","pricing_plan_id":"cebpf4jnsgd1na2vs0mg"},{"bike_id":"f0bf4e59-5178-4232-9b12-802037eba459","system_id":"levelo_inurba_marseille","lat":43.31351,"lon":5.36753,"is_reserved":false,"is_disabled":false,"rental_uris":{"android":"levelo://app?vid=f0bf4e59-5178-4232-9b12-802037eba459","ios":"levelo://app?vid=f0bf4e59-5178-4232-9b12-802037eba459"},"vehicle_type_id":"4","last_reported":1744283311,"current_range_meters":7200,"station_id":"ce4bgr92rcd13ifvqc6g","pricing_plan_id":"cebpf4jnsgd1na2vs0mg"},{"bike_id":"523f199e-c50d-4cd7-8cb0-ecd6da8f7fb1","system_id":"levelo_inurba_marseille","lat":43.31727,"lon":5.42397,"is_reserved":false,"is_disabled":false,"rental_uris":{"android":"levelo://app?vid=523f199e-c50d-4cd7-8cb0-ecd6da8f7fb1","ios":"levelo://app?vid=523f199e-c50d-4cd7-8cb0-ecd6da8f7fb1"},"vehicle_type_id":"4","last_reported":1744283311,"current_range_meters":8000,"station_id":"ce4bhp92rcd13ifvqhbg","pricing_plan_id":"cebpf4jnsgd1na2vs0mg"},{"bike_id":"f6da3727-6ae8-420e-a1d8-d48e19124f9e","system_id":"levelo_inurba_marseille","lat":43.26485,"lon":5.39545,"is_reserved":false,"is_disabled":false,"rental_uris":{"android":"levelo://app?vid=f6da3727-6ae8-420e-a1d8-d48e19124f9e","ios":"levelo://app?vid=f6da3727-6ae8-420e-a1d8-d48e19124f9e"},"vehicle_type_id":"4","last_reported":1744283311,"current_range_meters":8000,"station_id":"ce4bhi12rcd13ifvqfq0","pricing_plan_id":"cebpf4jnsgd1na2vs0mg"},{"bike_id":"871b5dd6-c5fa-4fe6-8453-2905d65d776c","system_id":"levelo_inurba_marseille","lat":43.32287,"lon":5.38262,"is_reserved":false,"is_disabled":false,"rental_uris":{"android":"levelo://app?vid=871b5dd6-c5fa-4fe6-8453-2905d65d776c","ios":"levelo://app?vid=871b5dd6-c5fa-4fe6-8453-2905d65d776c"},"vehicle_type_id":"4","last_reported":1744283311,"current_range_meters":8000,"station_id":"ce4bhr12rcd13ifvqhqg","pricing_plan_id":"cebpf4jnsgd1na2vs0mg"},{"bike_id":"ee5c4e99-b034-475b-92f5-05eb82ff5ab9","system_id":"levelo_inurba_marseille","lat":43.27324,"lon":5.39081,"is_reserved":false,"is_disabled":false,"rental_uris":{"android":"levelo://app?vid=ee5c4e99-b034-475b-92f5-05eb82ff5ab9","ios":"levelo://app?vid=ee5c4e99-b034-475b-92f5-05eb82ff5ab9"},"vehicle_type_id":"4","last_reported":1744283311,"current_range_meters":8000,"station_id":"ce4bhgp2rcd13ifvqfe0","pricing_plan_id":"cebpf4jnsgd1na2vs0mg"},{"bike_id":"0034db4b-efd6-4119-a358-80e858a45e83","system_id":"levelo_inurba_marseille","lat":43.31758,"lon":5.38898,"is_reserved":false,"is_disabled":false,"rental_uris":{"android":"levelo://app?vid=0034db4b-efd6-4119-a358-80e858a45e83","ios":"levelo://app?vid=0034db4b-efd6-4119-a358-80e858a45e83"},"vehicle_type_id":"4","last_reported":1744283311,"current_range_meters":8000,"station_id":"","pricing_plan_id":"cebpf4jnsgd1na2vs0mg"},{"bike_id":"d4000f93-8cfd-4f2d-8fa2-9e60acb9b129","system_id":"levelo_inurba_marseille","lat":43.29527,"lon":5.37506,"is_reserved":false,"is_disabled":false,"rental_uris":{"android":"levelo://app?vid=d4000f93-8cfd-4f2d-8fa2-9e60acb9b129","ios":"levelo://app?vid=d4000f93-8cfd-4f2d-8fa2-9e60acb9b129"},"vehicle_type_id":"4","last_reported":1744283311,"current_range_meters":8000,"station_id":"ce4bgkp2rcd13ifvqbmg","pricing_plan_id":"cebpf4jnsgd1na2vs0mg"},{"bike_id":"a14f72ed-ad11-4871-a779-6f279cf67eeb","system_id":"levelo_inurba_marseille","lat":43.21752,"lon":5.34616,"is_reserved":false,"is_disabled":true,"rental_uris":{"android":"levelo://app?vid=a14f72ed-ad11-4871-a779-6f279cf67eeb","ios":"levelo://app?vid=a14f72ed-ad11-4871-a779-6f279cf67eeb"},"vehicle_type_id":"4","last_reported":1744283311,"current_range_meters":8000,"station_id":"ce4bhoh2rcd13ifvqh5g","pricing_plan_id":"cebpf4jnsgd1na2vs0mg"},{"bike_id":"271129b4-7511-40a4-9e04-dd1a6e12c7ad","system_id":"levelo_inurba_marseille","lat":43.303192,"lon":5.402865,"is_reserved":false,"is_disabled":false,"rental_uris":{"android":"levelo://app?vid=271129b4-7511-40a4-9e04-dd1a6e12c7ad","ios":"levelo://app?vid=271129b4-7511-40a4-9e04-dd1a6e12c7ad"},"vehicle_type_id":"4","last_reported":1744283311,"current_range_meters":8400,"station_id":"ce4bh012rcd13ifvqd10","pricing_plan_id":"cebpf4jnsgd1na2vs0mg"},{"bike_id":"2b98ce9a-91b4-42df-8444-a982a1b51fc1","system_id":"levelo_inurba_marseille","lat":43.25943,"lon":5.40903,"is_reserved":false,"is_disabled":false,"rental_uris":{"android":"levelo://app?vid=2b98ce9a-91b4-42df-8444-a982a1b51fc1","ios":"levelo://app?vid=2b98ce9a-91b4-42df-8444-a982a1b51fc1"},"vehicle_type_id":"4","last_reported":1744283311,"current_range_meters":8400,"station_id":"ce4bhm92rcd13ifvqglg","pricing_plan_id":"cebpf4jnsgd1na2vs0mg"},{"bike_id":"0e84bdce-95cd-4fd2-a8ef-ae69909a4237","system_id":"levelo_inurba_marseille","lat":43.28275,"lon":5.35062,"is_reserved":false,"is_disabled":false,"rental_uris":{"android":"levelo://app?vid=0e84bdce-95cd-4fd2-a8ef-ae69909a4237","ios":"levelo://app?vid=0e84bdce-95cd-4fd2-a8ef-ae69909a4237"},"vehicle_type_id":"4","last_reported":1744283311,"current_range_meters":8400,"station_id":"ce4bhbp2rcd13ifvqerg","pricing_plan_id":"cebpf4jnsgd1na2vs0mg"},{"bike_id":"1bded073-d497-42d3-9fda-07daed6d7973","system_id":"levelo_inurba_marseille","lat":43.337444,"lon":5.374475,"is_reserved":false,"is_disabled":false,"rental_uris":{"android":"levelo://app?vid=1bded073-d497-42d3-9fda-07daed6d7973","ios":"levelo://app?vid=1bded073-d497-42d3-9fda-07daed6d7973"},"vehicle_type_id":"4","last_reported":1744283311,"current_range_meters":8800,"station_id":"","pricing_plan_id":"cebpf4jnsgd1na2vs0mg"},{"bike_id":"00e2d78d-9817-444c-8bee-f4c5099e32ca","system_id":"levelo_inurba_marseille","lat":43.28487,"lon":5.38535,"is_reserved":false,"is_disabled":false,"rental_uris":{"android":"levelo://app?vid=00e2d78d-9817-444c-8bee-f4c5099e32ca","ios":"levelo://app?vid=00e2d78d-9817-444c-8bee-f4c5099e32ca"},"vehicle_type_id":"4","last_reported":1744283311,"current_range_meters":8800,"station_id":"ce4bh8p2rcd13ifvqeb0","pricing_plan_id":"cebpf4jnsgd1na2vs0mg"},{"bike_id":"a21989ec-9f04-4674-bff3-ea3762ba55b8","system_id":"levelo_inurba_marseille","lat":43.25717,"lon":5.41125,"is_reserved":false,"is_disabled":false,"rental_uris":{"android":"levelo://app?vid=a21989ec-9f04-4674-bff3-ea3762ba55b8","ios":"levelo://app?vid=a21989ec-9f04-4674-bff3-ea3762ba55b8"},"vehicle_type_id":"4","last_reported":1744283311,"current_range_meters":8800,"station_id":"ce4bhkp2rcd13ifvqgd0","pricing_plan_id":"cebpf4jnsgd1na2vs0mg"},{"bike_id":"8d0d0154-272b-40ef-a9ef-9f6b01f780ef","system_id":"levelo_inurba_marseille","lat":43.26491,"lon":5.3954,"is_reserved":false,"is_disabled":false,"rental_uris":{"android":"levelo://app?vid=8d0d0154-272b-40ef-a9ef-9f6b01f780ef","ios":"levelo://app?vid=8d0d0154-272b-40ef-a9ef-9f6b01f780ef"},"vehicle_type_id":"4","last_reported":1744283311,"current_range_meters":6400,"station_id":"ce4bhi12rcd13ifvqfq0","pricing_plan_id":"cebpf4jnsgd1na2vs0mg"},{"bike_id":"01e31f15-bc9b-4d18-bebd-edf19bcedef2","system_id":"levelo_inurba_marseille","lat":43.287226,"lon":5.379377,"is_reserved":false,"is_disabled":true,"rental_uris":{"android":"levelo://app?vid=01e31f15-bc9b-4d18-bebd-edf19bcedef2","ios":"levelo://app?vid=01e31f15-bc9b-4d18-bebd-edf19bcedef2"},"vehicle_type_id":"4","last_reported":1744283311,"current_range_meters":8800,"station_id":"ce4bh9p2rcd13ifvqec0","pricing_plan_id":"cebpf4jnsgd1na2vs0mg"},{"bike_id":"5f30a5a4-de9f-499e-b151-b811ebb3b43a","system_id":"levelo_inurba_marseille","lat":43.31077,"lon":5.38349,"is_reserved":false,"is_disabled":true,"rental_uris":{"android":"levelo://app?vid=5f30a5a4-de9f-499e-b151-b811ebb3b43a","ios":"levelo://app?vid=5f30a5a4-de9f-499e-b151-b811ebb3b43a"},"vehicle_type_id":"4","last_reported":1744283311,"current_range_meters":8800,"station_id":"ce4bgv92rcd13ifvqcr0","pricing_plan_id":"cebpf4jnsgd1na2vs0mg"},{"bike_id":"800d5909-daea-44ff-a7cd-18c4fe90c5ad","system_id":"levelo_inurba_marseille","lat":43.2119,"lon":5.3507,"is_reserved":false,"is_disabled":false,"rental_uris":{"android":"levelo://app?vid=800d5909-daea-44ff-a7cd-18c4fe90c5ad","ios":"levelo://app?vid=800d5909-daea-44ff-a7cd-18c4fe90c5ad"},"vehicle_type_id":"4","last_reported":1744283311,"current_range_meters":9200,"station_id":"st_cvj6sg6p6f1abm77japg","pricing_plan_id":"cebpf4jnsgd1na2vs0mg"},{"bike_id":"c243072f-6bd2-4d94-ba83-04162cf2a05c","system_id":"levelo_inurba_marseille","lat":43.27186,"lon":5.40153,"is_reserved":false,"is_disabled":false,"rental_uris":{"android":"levelo://app?vid=c243072f-6bd2-4d94-ba83-04162cf2a05c","ios":"levelo://app?vid=c243072f-6bd2-4d94-ba83-04162cf2a05c"},"vehicle_type_id":"4","last_reported":1744283311,"current_range_meters":9200,"station_id":"","pricing_plan_id":"cebpf4jnsgd1na2vs0mg"},{"bike_id":"3ff7bdad-5979-4cca-baae-bc181cfeebbe","system_id":"levelo_inurba_marseille","lat":43.26042,"lon":5.37542,"is_reserved":false,"is_disabled":false,"rental_uris":{"android":"levelo://app?vid=3ff7bdad-5979-4cca-baae-bc181cfeebbe","ios":"levelo://app?vid=3ff7bdad-5979-4cca-baae-bc181cfeebbe"},"vehicle_type_id":"4","last_reported":1744283311,"current_range_meters":9600,"station_id":"ce4bhgh2rcd13ifvqfa0","pricing_plan_id":"cebpf4jnsgd1na2vs0mg"},{"bike_id":"b1d7b236-b360-4682-9183-42d033869c1b","system_id":"levelo_inurba_marseille","lat":43.24381,"lon":5.37067,"is_reserved":false,"is_disabled":false,"rental_uris":{"android":"levelo://app?vid=b1d7b236-b360-4682-9183-42d033869c1b","ios":"levelo://app?vid=b1d7b236-b360-4682-9183-42d033869c1b"},"vehicle_type_id":"4","last_reported":1744283311,"current_range_meters":8800,"station_id":"ce4bhhh2rcd13ifvqfk0","pricing_plan_id":"cebpf4jnsgd1na2vs0mg"},{"bike_id":"d1afc0fc-ecb5-4336-a85d-04a73a08fadb","system_id":"levelo_inurba_marseille","lat":43.21761,"lon":5.34596,"is_reserved":false,"is_disabled":false,"rental_uris":{"android":"levelo://app?vid=d1afc0fc-ecb5-4336-a85d-04a73a08fadb","ios":"levelo://app?vid=d1afc0fc-ecb5-4336-a85d-04a73a08fadb"},"vehicle_type_id":"4","last_reported":1744283311,"current_range_meters":9600,"station_id":"st_cvj6r9ubvosntc0bgbag","pricing_plan_id":"cebpf4jnsgd1na2vs0mg"},{"bike_id":"9fce7fb9-26b6-4832-9f96-ea1b75c489f0","system_id":"levelo_inurba_marseille","lat":43.21198,"lon":5.3508,"is_reserved":false,"is_disabled":false,"rental_uris":{"android":"levelo://app?vid=9fce7fb9-26b6-4832-9f96-ea1b75c489f0","ios":"levelo://app?vid=9fce7fb9-26b6-4832-9f96-ea1b75c489f0"},"vehicle_type_id":"4","last_reported":1744283311,"current_range_meters":9600,"station_id":"st_cvj6sg6p6f1abm77japg","pricing_plan_id":"cebpf4jnsgd1na2vs0mg"},{"bike_id":"3cfa414a-56ce-4678-b27b-88f21f1ddfeb","system_id":"levelo_inurba_marseille","lat":43.30302,"lon":5.3772,"is_reserved":false,"is_disabled":false,"rental_uris":{"android":"levelo://app?vid=3cfa414a-56ce-4678-b27b-88f21f1ddfeb","ios":"levelo://app?vid=3cfa414a-56ce-4678-b27b-88f21f1ddfeb"},"vehicle_type_id":"4","last_reported":1744283311,"current_range_meters":9600,"station_id":"ce4bguh2rcd13ifvqcj0","pricing_plan_id":"cebpf4jnsgd1na2vs0mg"},{"bike_id":"122cdde6-9512-4fc1-b3dd-8da01087c3ed","system_id":"levelo_inurba_marseille","lat":43.21192,"lon":5.35075,"is_reserved":false,"is_disabled":false,"rental_uris":{"android":"levelo://app?vid=122cdde6-9512-4fc1-b3dd-8da01087c3ed","ios":"levelo://app?vid=122cdde6-9512-4fc1-b3dd-8da01087c3ed"},"vehicle_type_id":"4","last_reported":1744283311,"current_range_meters":9600,"station_id":"st_cvj6sg6p6f1abm77japg","pricing_plan_id":"cebpf4jnsgd1na2vs0mg"},{"bike_id":"3daf3483-c330-4563-ba63-4baa607346ed","system_id":"levelo_inurba_marseille","lat":43.30946,"lon":5.36821,"is_reserved":false,"is_disabled":false,"rental_uris":{"android":"levelo://app?vid=3daf3483-c330-4563-ba63-4baa607346ed","ios":"levelo://app?vid=3daf3483-c330-4563-ba63-4baa607346ed"},"vehicle_type_id":"4","last_reported":1744283311,"current_range_meters":9600,"station_id":"ce4bgn92rcd13ifvqbvg","pricing_plan_id":"cebpf4jnsgd1na2vs0mg"},{"bike_id":"6b383df4-9571-4b6b-8882-b1538f985b7f","system_id":"levelo_inurba_marseille","lat":43.30518,"lon":5.36537,"is_reserved":false,"is_disabled":false,"rental_uris":{"android":"levelo://app?vid=6b383df4-9571-4b6b-8882-b1538f985b7f","ios":"levelo://app?vid=6b383df4-9571-4b6b-8882-b1538f985b7f"},"vehicle_type_id":"4","last_reported":1744283311,"current_range_meters":9600,"station_id":"ce4bgs12rcd13ifvqcag","pricing_plan_id":"cebpf4jnsgd1na2vs0mg"},{"bike_id":"d60930b2-5e28-45d1-880c-4072e733f590","system_id":"levelo_inurba_marseille","lat":43.28696,"lon":5.39983,"is_reserved":false,"is_disabled":false,"rental_uris":{"android":"levelo://app?vid=d60930b2-5e28-45d1-880c-4072e733f590","ios":"levelo://app?vid=d60930b2-5e28-45d1-880c-4072e733f590"},"vehicle_type_id":"4","last_reported":1744283311,"current_range_meters":10000,"station_id":"ce4bho92rcd13ifvqh3g","pricing_plan_id":"cebpf4jnsgd1na2vs0mg"},{"bike_id":"a4c7b3a6-6dea-40f7-b736-0558ab67bcc2","system_id":"levelo_inurba_marseille","lat":43.31262,"lon":5.40162,"is_reserved":false,"is_disabled":false,"rental_uris":{"android":"levelo://app?vid=a4c7b3a6-6dea-40f7-b736-0558ab67bcc2","ios":"levelo://app?vid=a4c7b3a6-6dea-40f7-b736-0558ab67bcc2"},"vehicle_type_id":"4","last_reported":1744283311,"current_range_meters":10000,"station_id":"ce4bh092rcd13ifvqd30","pricing_plan_id":"cebpf4jnsgd1na2vs0mg"},{"bike_id":"ed3b79aa-5aad-4516-bad9-b267517662c1","system_id":"levelo_inurba_marseille","lat":43.29418,"lon":5.3863,"is_reserved":false,"is_disabled":false,"rental_uris":{"android":"levelo://app?vid=ed3b79aa-5aad-4516-bad9-b267517662c1","ios":"levelo://app?vid=ed3b79aa-5aad-4516-bad9-b267517662c1"},"vehicle_type_id":"4","last_reported":1744283311,"current_range_meters":10000,"station_id":"ce4bh2h2rcd13ifvqdh0","pricing_plan_id":"cebpf4jnsgd1na2vs0mg"},{"bike_id":"924a65d8-8ba7-467e-bfe9-bc400cc766dd","system_id":"levelo_inurba_marseille","lat":43.23203,"lon":5.35548,"is_reserved":false,"is_disabled":false,"rental_uris":{"android":"levelo://app?vid=924a65d8-8ba7-467e-bfe9-bc400cc766dd","ios":"levelo://app?vid=924a65d8-8ba7-467e-bfe9-bc400cc766dd"},"vehicle_type_id":"4","last_reported":1744283311,"current_range_meters":10800,"station_id":"ce4bhu92rcd13ifvqi70","pricing_plan_id":"cebpf4jnsgd1na2vs0mg"},{"bike_id":"c66e0227-8dab-43f7-959d-ad39878fa71f","system_id":"levelo_inurba_marseille","lat":43.23056,"lon":5.35489,"is_reserved":false,"is_disabled":false,"rental_uris":{"android":"levelo://app?vid=c66e0227-8dab-43f7-959d-ad39878fa71f","ios":"levelo://app?vid=c66e0227-8dab-43f7-959d-ad39878fa71f"},"vehicle_type_id":"4","last_reported":1744283311,"current_range_meters":10800,"station_id":"cpo3342slgdg3j2ifvpg","pricing_plan_id":"cebpf4jnsgd1na2vs0mg"},{"bike_id":"aeb5d532-a5df-474f-a469-24b81f00135c","system_id":"levelo_inurba_marseille","lat":43.3036,"lon":5.4187,"is_reserved":false,"is_disabled":true,"rental_uris":{"android":"levelo://app?vid=aeb5d532-a5df-474f-a469-24b81f00135c","ios":"levelo://app?vid=aeb5d532-a5df-474f-a469-24b81f00135c"},"vehicle_type_id":"4","last_reported":1744283311,"current_range_meters":10800,"station_id":"ce4bhop2rcd13ifvqh7g","pricing_plan_id":"cebpf4jnsgd1na2vs0mg"},{"bike_id":"12c6416d-10cd-40d3-a9a3-2baecc321285","system_id":"levelo_inurba_marseille","lat":43.29932,"lon":5.36549,"is_reserved":false,"is_disabled":false,"rental_uris":{"android":"levelo://app?vid=12c6416d-10cd-40d3-a9a3-2baecc321285","ios":"levelo://app?vid=12c6416d-10cd-40d3-a9a3-2baecc321285"},"vehicle_type_id":"4","last_reported":1744283311,"current_range_meters":10800,"station_id":"ce4bgm92rcd13ifvqbr0","pricing_plan_id":"cebpf4jnsgd1na2vs0mg"},{"bike_id":"e6b27e51-7a6f-4c87-9cdb-e0dbaf392783","system_id":"levelo_inurba_marseille","lat":43.30919,"lon":5.39612,"is_reserved":false,"is_disabled":false,"rental_uris":{"android":"levelo://app?vid=e6b27e51-7a6f-4c87-9cdb-e0dbaf392783","ios":"levelo://app?vid=e6b27e51-7a6f-4c87-9cdb-e0dbaf392783"},"vehicle_type_id":"4","last_reported":1744283311,"current_range_meters":10800,"station_id":"ce4bh012rcd13ifvqcv0","pricing_plan_id":"cebpf4jnsgd1na2vs0mg"},{"bike_id":"bff67837-c676-4b88-9fdc-8db7fe587121","system_id":"levelo_inurba_marseille","lat":43.30263,"lon":5.40037,"is_reserved":false,"is_disabled":true,"rental_uris":{"android":"levelo://app?vid=bff67837-c676-4b88-9fdc-8db7fe587121","ios":"levelo://app?vid=bff67837-c676-4b88-9fdc-8db7fe587121"},"vehicle_type_id":"4","last_reported":1744283311,"current_range_meters":10800,"station_id":"ce4bgvh2rcd13ifvqcs0","pricing_plan_id":"cebpf4jnsgd1na2vs0mg"},{"bike_id":"680dc35d-f5f1-4cdc-899b-eabd55db9342","system_id":"levelo_inurba_marseille","lat":43.21198,"lon":5.35062,"is_reserved":false,"is_disabled":false,"rental_uris":{"android":"levelo://app?vid=680dc35d-f5f1-4cdc-899b-eabd55db9342","ios":"levelo://app?vid=680dc35d-f5f1-4cdc-899b-eabd55db9342"},"vehicle_type_id":"4","last_reported":1744283311,"current_range_meters":10800,"station_id":"ce4bhu92rcd13ifvqi70","pricing_plan_id":"cebpf4jnsgd1na2vs0mg"},{"bike_id":"5d1aa3b1-5b02-4bc9-b8f3-2a15c2b79714","system_id":"levelo_inurba_marseille","lat":43.3014,"lon":5.39858,"is_reserved":false,"is_disabled":false,"rental_uris":{"android":"levelo://app?vid=5d1aa3b1-5b02-4bc9-b8f3-2a15c2b79714","ios":"levelo://app?vid=5d1aa3b1-5b02-4bc9-b8f3-2a15c2b79714"},"vehicle_type_id":"4","last_reported":1744283311,"current_range_meters":10800,"station_id":"ce4bh0h2rcd13ifvqd40","pricing_plan_id":"cebpf4jnsgd1na2vs0mg"},{"bike_id":"88b81c37-5f9b-494f-8b1a-584cc1caf0e2","system_id":"levelo_inurba_marseille","lat":43.28272,"lon":5.35077,"is_reserved":false,"is_disabled":false,"rental_uris":{"android":"levelo://app?vid=88b81c37-5f9b-494f-8b1a-584cc1caf0e2","ios":"levelo://app?vid=88b81c37-5f9b-494f-8b1a-584cc1caf0e2"},"vehicle_type_id":"4","last_reported":1744283311,"current_range_meters":10800,"station_id":"ce4bhbp2rcd13ifvqerg","pricing_plan_id":"cebpf4jnsgd1na2vs0mg"},{"bike_id":"e8e61ec0-24ba-41bc-af68-5ad4ae819140","system_id":"levelo_inurba_marseille","lat":43.21193,"lon":5.3507,"is_reserved":false,"is_disabled":false,"rental_uris":{"android":"levelo://app?vid=e8e61ec0-24ba-41bc-af68-5ad4ae819140","ios":"levelo://app?vid=e8e61ec0-24ba-41bc-af68-5ad4ae819140"},"vehicle_type_id":"4","last_reported":1744283311,"current_range_meters":11200,"station_id":"st_cvj6sg6p6f1abm77japg","pricing_plan_id":"cebpf4jnsgd1na2vs0mg"},{"bike_id":"5a0fa541-6fc2-4ae1-99ec-a2e2ec69a941","system_id":"levelo_inurba_marseille","lat":43.330006,"lon":5.438616,"is_reserved":false,"is_disabled":false,"rental_uris":{"android":"levelo://app?vid=5a0fa541-6fc2-4ae1-99ec-a2e2ec69a941","ios":"levelo://app?vid=5a0fa541-6fc2-4ae1-99ec-a2e2ec69a941"},"vehicle_type_id":"4","last_reported":1744283311,"current_range_meters":11200,"station_id":"","pricing_plan_id":"cebpf4jnsgd1na2vs0mg"},{"bike_id":"59733973-d18a-4bc6-a27c-58baa49abd56","system_id":"levelo_inurba_marseille","lat":43.30424,"lon":5.397428,"is_reserved":false,"is_disabled":false,"rental_uris":{"android":"levelo://app?vid=59733973-d18a-4bc6-a27c-58baa49abd56","ios":"levelo://app?vid=59733973-d18a-4bc6-a27c-58baa49abd56"},"vehicle_type_id":"4","last_reported":1744283311,"current_range_meters":11200,"station_id":"ce4bh312rcd13ifvqdk0","pricing_plan_id":"cebpf4jnsgd1na2vs0mg"},{"bike_id":"47198e1f-7bec-4866-80f8-b60a2a4caca7","system_id":"levelo_inurba_marseille","lat":43.29224,"lon":5.36072,"is_reserved":false,"is_disabled":false,"rental_uris":{"android":"levelo://app?vid=47198e1f-7bec-4866-80f8-b60a2a4caca7","ios":"levelo://app?vid=47198e1f-7bec-4866-80f8-b60a2a4caca7"},"vehicle_type_id":"4","last_reported":1744283311,"current_range_meters":11200,"station_id":"ce4bhbh2rcd13ifvqeqg","pricing_plan_id":"cebpf4jnsgd1na2vs0mg"},{"bike_id":"958b363d-ffc7-4ece-b59b-0689b9e2f204","system_id":"levelo_inurba_marseille","lat":43.26036,"lon":5.3756,"is_reserved":false,"is_disabled":false,"rental_uris":{"android":"levelo://app?vid=958b363d-ffc7-4ece-b59b-0689b9e2f204","ios":"levelo://app?vid=958b363d-ffc7-4ece-b59b-0689b9e2f204"},"vehicle_type_id":"4","last_reported":1744283311,"current_range_meters":11200,"station_id":"ce4bhgh2rcd13ifvqfa0","pricing_plan_id":"cebpf4jnsgd1na2vs0mg"},{"bike_id":"597998b1-a029-4c47-bd19-24c38ec6c5cc","system_id":"levelo_inurba_marseille","lat":43.28721,"lon":5.36079,"is_reserved":false,"is_disabled":false,"rental_uris":{"android":"levelo://app?vid=597998b1-a029-4c47-bd19-24c38ec6c5cc","ios":"levelo://app?vid=597998b1-a029-4c47-bd19-24c38ec6c5cc"},"vehicle_type_id":"4","last_reported":1744283311,"current_range_meters":11600,"station_id":"cki0cbj6b192h4jlfktg","pricing_plan_id":"cebpf4jnsgd1na2vs0mg"},{"bike_id":"245ce5fe-7351-4dcf-baad-550d47ea2d8a","system_id":"levelo_inurba_marseille","lat":43.217463,"lon":5.346036,"is_reserved":false,"is_disabled":false,"rental_uris":{"android":"levelo://app?vid=245ce5fe-7351-4dcf-baad-550d47ea2d8a","ios":"levelo://app?vid=245ce5fe-7351-4dcf-baad-550d47ea2d8a"},"vehicle_type_id":"4","last_reported":1744283311,"current_range_meters":11600,"station_id":"st_cvj6r9ubvosntc0bgbag","pricing_plan_id":"cebpf4jnsgd1na2vs0mg"},{"bike_id":"2af03918-443f-4c15-a5e0-1383bc7a7fa8","system_id":"levelo_inurba_marseille","lat":43.26197,"lon":5.37441,"is_reserved":false,"is_disabled":false,"rental_uris":{"android":"levelo://app?vid=2af03918-443f-4c15-a5e0-1383bc7a7fa8","ios":"levelo://app?vid=2af03918-443f-4c15-a5e0-1383bc7a7fa8"},"vehicle_type_id":"4","last_reported":1744283311,"current_range_meters":11600,"station_id":"ce4bhgp2rcd13ifvqfc0","pricing_plan_id":"cebpf4jnsgd1na2vs0mg"},{"bike_id":"6e9744df-a894-43cd-97a7-dc1cff75055b","system_id":"levelo_inurba_marseille","lat":43.28961,"lon":5.35567,"is_reserved":false,"is_disabled":false,"rental_uris":{"android":"levelo://app?vid=6e9744df-a894-43cd-97a7-dc1cff75055b","ios":"levelo://app?vid=6e9744df-a894-43cd-97a7-dc1cff75055b"},"vehicle_type_id":"4","last_reported":1744283311,"current_range_meters":11600,"station_id":"ce4bhb92rcd13ifvqen0","pricing_plan_id":"cebpf4jnsgd1na2vs0mg"},{"bike_id":"99260628-93ca-4816-84c2-7509aaf9aff8","system_id":"levelo_inurba_marseille","lat":43.312,"lon":5.36875,"is_reserved":false,"is_disabled":false,"rental_uris":{"android":"levelo://app?vid=99260628-93ca-4816-84c2-7509aaf9aff8","ios":"levelo://app?vid=99260628-93ca-4816-84c2-7509aaf9aff8"},"vehicle_type_id":"4","last_reported":1744283311,"current_range_meters":11600,"station_id":"ce4bgl92rcd13ifvqbq0","pricing_plan_id":"cebpf4jnsgd1na2vs0mg"},{"bike_id":"899bcf40-20ba-43d6-98aa-5e261c572491","system_id":"levelo_inurba_marseille","lat":43.30146,"lon":5.39879,"is_reserved":false,"is_disabled":false,"rental_uris":{"android":"levelo://app?vid=899bcf40-20ba-43d6-98aa-5e261c572491","ios":"levelo://app?vid=899bcf40-20ba-43d6-98aa-5e261c572491"},"vehicle_type_id":"4","last_reported":1744283311,"current_range_meters":11600,"station_id":"ce4bh0h2rcd13ifvqd40","pricing_plan_id":"cebpf4jnsgd1na2vs0mg"},{"bike_id":"e75e504c-08b0-44c4-badb-815739c26486","system_id":"levelo_inurba_marseille","lat":43.30949,"lon":5.39026,"is_reserved":false,"is_disabled":false,"rental_uris":{"android":"levelo://app?vid=e75e504c-08b0-44c4-badb-815739c26486","ios":"levelo://app?vid=e75e504c-08b0-44c4-badb-815739c26486"},"vehicle_type_id":"4","last_reported":1744283311,"current_range_meters":12000,"station_id":"ce4bgup2rcd13ifvqco0","pricing_plan_id":"cebpf4jnsgd1na2vs0mg"},{"bike_id":"da0870d8-7fdf-4454-8a3f-e3e875b98dcb","system_id":"levelo_inurba_marseille","lat":43.29267,"lon":5.36845,"is_reserved":false,"is_disabled":false,"rental_uris":{"android":"levelo://app?vid=da0870d8-7fdf-4454-8a3f-e3e875b98dcb","ios":"levelo://app?vid=da0870d8-7fdf-4454-8a3f-e3e875b98dcb"},"vehicle_type_id":"4","last_reported":1744283311,"current_range_meters":12000,"station_id":"ce4bhbp2rcd13ifvqesg","pricing_plan_id":"cebpf4jnsgd1na2vs0mg"},{"bike_id":"c1c7ca60-b5bb-4107-8f49-35ca01c60f71","system_id":"levelo_inurba_marseille","lat":43.29511,"lon":5.37542,"is_reserved":false,"is_disabled":false,"rental_uris":{"android":"levelo://app?vid=c1c7ca60-b5bb-4107-8f49-35ca01c60f71","ios":"levelo://app?vid=c1c7ca60-b5bb-4107-8f49-35ca01c60f71"},"vehicle_type_id":"4","last_reported":1744283311,"current_range_meters":12400,"station_id":"ce4bgkp2rcd13ifvqbmg","pricing_plan_id":"cebpf4jnsgd1na2vs0mg"},{"bike_id":"54fd9e7d-d49b-4d31-a45c-3c21ef19c991","system_id":"levelo_inurba_marseille","lat":43.30404,"lon":5.41297,"is_reserved":false,"is_disabled":false,"rental_uris":{"android":"levelo://app?vid=54fd9e7d-d49b-4d31-a45c-3c21ef19c991","ios":"levelo://app?vid=54fd9e7d-d49b-4d31-a45c-3c21ef19c991"},"vehicle_type_id":"4","last_reported":1744283311,"current_range_meters":12400,"station_id":"ce4bhop2rcd13ifvqh8g","pricing_plan_id":"cebpf4jnsgd1na2vs0mg"},{"bike_id":"0ace2bf1-3948-4c86-abf7-e7f685eeb3cd","system_id":"levelo_inurba_marseille","lat":43.28857,"lon":5.35849,"is_reserved":false,"is_disabled":false,"rental_uris":{"android":"levelo://app?vid=0ace2bf1-3948-4c86-abf7-e7f685eeb3cd","ios":"levelo://app?vid=0ace2bf1-3948-4c86-abf7-e7f685eeb3cd"},"vehicle_type_id":"4","last_reported":1744283311,"current_range_meters":12400,"station_id":"ce4bhb12rcd13ifvqem0","pricing_plan_id":"cebpf4jnsgd1na2vs0mg"},{"bike_id":"c8550575-5ec0-4177-83b8-fcfc351113ab","system_id":"levelo_inurba_marseille","lat":43.29108,"lon":5.38144,"is_reserved":false,"is_disabled":true,"rental_uris":{"android":"levelo://app?vid=c8550575-5ec0-4177-83b8-fcfc351113ab","ios":"levelo://app?vid=c8550575-5ec0-4177-83b8-fcfc351113ab"},"vehicle_type_id":"4","last_reported":1744283311,"current_range_meters":12400,"station_id":"ce4bh512rcd13ifvqe2g","pricing_plan_id":"cebpf4jnsgd1na2vs0mg"},{"bike_id":"a7c3a0f9-fa44-4142-bbeb-0cac9979a26a","system_id":"levelo_inurba_marseille","lat":43.24161,"lon":5.36398,"is_reserved":false,"is_disabled":false,"rental_uris":{"android":"levelo://app?vid=a7c3a0f9-fa44-4142-bbeb-0cac9979a26a","ios":"levelo://app?vid=a7c3a0f9-fa44-4142-bbeb-0cac9979a26a"},"vehicle_type_id":"4","last_reported":1744283311,"current_range_meters":12400,"station_id":"cpo36qri1sfpv3e86is0","pricing_plan_id":"cebpf4jnsgd1na2vs0mg"},{"bike_id":"5047455d-c97a-4875-9440-a0dd56a0356d","system_id":"levelo_inurba_marseille","lat":43.3236,"lon":5.36763,"is_reserved":false,"is_disabled":false,"rental_uris":{"android":"levelo://app?vid=5047455d-c97a-4875-9440-a0dd56a0356d","ios":"levelo://app?vid=5047455d-c97a-4875-9440-a0dd56a0356d"},"vehicle_type_id":"4","last_reported":1744283311,"current_range_meters":12400,"station_id":"ce4bhsh2rcd13ifvqi2g","pricing_plan_id":"cebpf4jnsgd1na2vs0mg"},{"bike_id":"d8077749-8390-4b01-8f34-90cebe556043","system_id":"levelo_inurba_marseille","lat":43.29892,"lon":5.388914,"is_reserved":false,"is_disabled":false,"rental_uris":{"android":"levelo://app?vid=d8077749-8390-4b01-8f34-90cebe556043","ios":"levelo://app?vid=d8077749-8390-4b01-8f34-90cebe556043"},"vehicle_type_id":"4","last_reported":1744283311,"current_range_meters":12800,"station_id":"ce4bh392rcd13ifvqdl0","pricing_plan_id":"cebpf4jnsgd1na2vs0mg"},{"bike_id":"8862cbfc-18f6-407d-b64c-6f3fe4667e2b","system_id":"levelo_inurba_marseille","lat":43.25088,"lon":5.39525,"is_reserved":false,"is_disabled":false,"rental_uris":{"android":"levelo://app?vid=8862cbfc-18f6-407d-b64c-6f3fe4667e2b","ios":"levelo://app?vid=8862cbfc-18f6-407d-b64c-6f3fe4667e2b"},"vehicle_type_id":"4","last_reported":1744283311,"current_range_meters":13600,"station_id":"ce4bhm12rcd13ifvqgkg","pricing_plan_id":"cebpf4jnsgd1na2vs0mg"},{"bike_id":"58a06d5c-23f8-466b-a88d-449307d0c901","system_id":"levelo_inurba_marseille","lat":43.3149,"lon":5.3685,"is_reserved":false,"is_disabled":false,"rental_uris":{"android":"levelo://app?vid=58a06d5c-23f8-466b-a88d-449307d0c901","ios":"levelo://app?vid=58a06d5c-23f8-466b-a88d-449307d0c901"},"vehicle_type_id":"4","last_reported":1744283311,"current_range_meters":13600,"station_id":"","pricing_plan_id":"cebpf4jnsgd1na2vs0mg"},{"bike_id":"b39310b3-5ee5-4fe1-8020-0636b520bdc5","system_id":"levelo_inurba_marseille","lat":43.29048,"lon":5.35913,"is_reserved":false,"is_disabled":false,"rental_uris":{"android":"levelo://app?vid=b39310b3-5ee5-4fe1-8020-0636b520bdc5","ios":"levelo://app?vid=b39310b3-5ee5-4fe1-8020-0636b520bdc5"},"vehicle_type_id":"4","last_reported":1744283311,"current_range_meters":15200,"station_id":"ce4bha92rcd13ifvqeg0","pricing_plan_id":"cebpf4jnsgd1na2vs0mg"},{"bike_id":"3edddd02-919d-4186-b933-1d6a0628347a","system_id":"levelo_inurba_marseille","lat":43.27623,"lon":5.36099,"is_reserved":false,"is_disabled":true,"rental_uris":{"android":"levelo://app?vid=3edddd02-919d-4186-b933-1d6a0628347a","ios":"levelo://app?vid=3edddd02-919d-4186-b933-1d6a0628347a"},"vehicle_type_id":"4","last_reported":1744283311,"current_range_meters":13600,"station_id":"ce4bgj92rcd13ifvqbe0","pricing_plan_id":"cebpf4jnsgd1na2vs0mg"},{"bike_id":"cb986afa-0706-475e-8f3c-11ee95eb1194","system_id":"levelo_inurba_marseille","lat":43.2315,"lon":5.43723,"is_reserved":false,"is_disabled":false,"rental_uris":{"android":"levelo://app?vid=cb986afa-0706-475e-8f3c-11ee95eb1194","ios":"levelo://app?vid=cb986afa-0706-475e-8f3c-11ee95eb1194"},"vehicle_type_id":"4","last_reported":1744283311,"current_range_meters":14000,"station_id":"ce4bhmp2rcd13ifvqgog","pricing_plan_id":"cebpf4jnsgd1na2vs0mg"},{"bike_id":"5381ce2f-527f-43f0-9348-84b5d43086ef","system_id":"levelo_inurba_marseille","lat":43.27322,"lon":5.39092,"is_reserved":false,"is_disabled":false,"rental_uris":{"android":"levelo://app?vid=5381ce2f-527f-43f0-9348-84b5d43086ef","ios":"levelo://app?vid=5381ce2f-527f-43f0-9348-84b5d43086ef"},"vehicle_type_id":"4","last_reported":1744283311,"current_range_meters":14000,"station_id":"ce4bhgp2rcd13ifvqfe0","pricing_plan_id":"cebpf4jnsgd1na2vs0mg"},{"bike_id":"28f2cce3-7387-4471-8fa1-c023eec063a2","system_id":"levelo_inurba_marseille","lat":43.284298,"lon":5.349943,"is_reserved":false,"is_disabled":false,"rental_uris":{"android":"levelo://app?vid=28f2cce3-7387-4471-8fa1-c023eec063a2","ios":"levelo://app?vid=28f2cce3-7387-4471-8fa1-c023eec063a2"},"vehicle_type_id":"4","last_reported":1744283311,"current_range_meters":14000,"station_id":"","pricing_plan_id":"cebpf4jnsgd1na2vs0mg"},{"bike_id":"e65cfcc4-52d4-4018-b926-59584f3b4625","system_id":"levelo_inurba_marseille","lat":43.2619,"lon":5.37464,"is_reserved":false,"is_disabled":false,"rental_uris":{"android":"levelo://app?vid=e65cfcc4-52d4-4018-b926-59584f3b4625","ios":"levelo://app?vid=e65cfcc4-52d4-4018-b926-59584f3b4625"},"vehicle_type_id":"4","last_reported":1744283311,"current_range_meters":14400,"station_id":"ce4bhgp2rcd13ifvqfc0","pricing_plan_id":"cebpf4jnsgd1na2vs0mg"},{"bike_id":"e3c3a051-8134-4ed3-913b-374aa217874c","system_id":"levelo_inurba_marseille","lat":43.256115,"lon":5.405147,"is_reserved":false,"is_disabled":false,"rental_uris":{"android":"levelo://app?vid=e3c3a051-8134-4ed3-913b-374aa217874c","ios":"levelo://app?vid=e3c3a051-8134-4ed3-913b-374aa217874c"},"vehicle_type_id":"4","last_reported":1744283311,"current_range_meters":14400,"station_id":"","pricing_plan_id":"cebpf4jnsgd1na2vs0mg"},{"bike_id":"5620f491-8cc5-4df3-9c76-3f2ba92da503","system_id":"levelo_inurba_marseille","lat":43.311859,"lon":5.387384,"is_reserved":false,"is_disabled":false,"rental_uris":{"android":"levelo://app?vid=5620f491-8cc5-4df3-9c76-3f2ba92da503","ios":"levelo://app?vid=5620f491-8cc5-4df3-9c76-3f2ba92da503"},"vehicle_type_id":"4","last_reported":1744283311,"current_range_meters":14400,"station_id":"ce4bgv12rcd13ifvqcp0","pricing_plan_id":"cebpf4jnsgd1na2vs0mg"},{"bike_id":"8d4fb897-d05a-4a05-acc3-831deed53338","system_id":"levelo_inurba_marseille","lat":43.28278,"lon":5.35074,"is_reserved":false,"is_disabled":false,"rental_uris":{"android":"levelo://app?vid=8d4fb897-d05a-4a05-acc3-831deed53338","ios":"levelo://app?vid=8d4fb897-d05a-4a05-acc3-831deed53338"},"vehicle_type_id":"4","last_reported":1744283311,"current_range_meters":14400,"station_id":"ce4bhbp2rcd13ifvqerg","pricing_plan_id":"cebpf4jnsgd1na2vs0mg"},{"bike_id":"7eb4b029-c928-4b9d-8ea7-10fe50a9d4d7","system_id":"levelo_inurba_marseille","lat":43.292463,"lon":5.401048,"is_reserved":false,"is_disabled":false,"rental_uris":{"android":"levelo://app?vid=7eb4b029-c928-4b9d-8ea7-10fe50a9d4d7","ios":"levelo://app?vid=7eb4b029-c928-4b9d-8ea7-10fe50a9d4d7"},"vehicle_type_id":"4","last_reported":1744283311,"current_range_meters":14400,"station_id":"","pricing_plan_id":"cebpf4jnsgd1na2vs0mg"},{"bike_id":"a20a6451-8d3a-4ff4-aba0-6a4367e7db94","system_id":"levelo_inurba_marseille","lat":43.21187,"lon":5.35079,"is_reserved":false,"is_disabled":false,"rental_uris":{"android":"levelo://app?vid=a20a6451-8d3a-4ff4-aba0-6a4367e7db94","ios":"levelo://app?vid=a20a6451-8d3a-4ff4-aba0-6a4367e7db94"},"vehicle_type_id":"4","last_reported":1744283311,"current_range_meters":14400,"station_id":"st_cvj6sg6p6f1abm77japg","pricing_plan_id":"cebpf4jnsgd1na2vs0mg"},{"bike_id":"8d897ab1-dc1e-4b83-af18-feccdd23db49","system_id":"levelo_inurba_marseille","lat":43.28152,"lon":5.42647,"is_reserved":false,"is_disabled":false,"rental_uris":{"android":"levelo://app?vid=8d897ab1-dc1e-4b83-af18-feccdd23db49","ios":"levelo://app?vid=8d897ab1-dc1e-4b83-af18-feccdd23db49"},"vehicle_type_id":"4","last_reported":1744283311,"current_range_meters":14400,"station_id":"ce4bhnh2rcd13ifvqgug","pricing_plan_id":"cebpf4jnsgd1na2vs0mg"},{"bike_id":"8fc75a06-b383-4356-9ce0-507c4c1bc08f","system_id":"levelo_inurba_marseille","lat":43.27065,"lon":5.42272,"is_reserved":false,"is_disabled":false,"rental_uris":{"android":"levelo://app?vid=8fc75a06-b383-4356-9ce0-507c4c1bc08f","ios":"levelo://app?vid=8fc75a06-b383-4356-9ce0-507c4c1bc08f"},"vehicle_type_id":"4","last_reported":1744283311,"current_range_meters":14400,"station_id":"ce4bhk92rcd13ifvqgb0","pricing_plan_id":"cebpf4jnsgd1na2vs0mg"},{"bike_id":"6d76978a-2740-4f57-9972-fcce06d4c9a8","system_id":"levelo_inurba_marseille","lat":43.31374,"lon":5.36715,"is_reserved":false,"is_disabled":false,"rental_uris":{"android":"levelo://app?vid=6d76978a-2740-4f57-9972-fcce06d4c9a8","ios":"levelo://app?vid=6d76978a-2740-4f57-9972-fcce06d4c9a8"},"vehicle_type_id":"4","last_reported":1744283311,"current_range_meters":14800,"station_id":"ce4bgr92rcd13ifvqc6g","pricing_plan_id":"cebpf4jnsgd1na2vs0mg"},{"bike_id":"dea55ed2-9f9e-4d55-b98e-68a01c967c3a","system_id":"levelo_inurba_marseille","lat":43.30151,"lon":5.3808,"is_reserved":false,"is_disabled":false,"rental_uris":{"android":"levelo://app?vid=dea55ed2-9f9e-4d55-b98e-68a01c967c3a","ios":"levelo://app?vid=dea55ed2-9f9e-4d55-b98e-68a01c967c3a"},"vehicle_type_id":"4","last_reported":1744283311,"current_range_meters":14800,"station_id":"ce4bgjp2rcd13ifvqbh0","pricing_plan_id":"cebpf4jnsgd1na2vs0mg"},{"bike_id":"7c86ebaf-c9fe-4bc4-bc7c-bb16ccfd1fa7","system_id":"levelo_inurba_marseille","lat":43.27388,"lon":5.36264,"is_reserved":false,"is_disabled":false,"rental_uris":{"android":"levelo://app?vid=7c86ebaf-c9fe-4bc4-bc7c-bb16ccfd1fa7","ios":"levelo://app?vid=7c86ebaf-c9fe-4bc4-bc7c-bb16ccfd1fa7"},"vehicle_type_id":"4","last_reported":1744283311,"current_range_meters":14800,"station_id":"ce4bhbh2rcd13ifvqeo0","pricing_plan_id":"cebpf4jnsgd1na2vs0mg"},{"bike_id":"e66766e5-f44c-4d10-a829-cd67ab7304d6","system_id":"levelo_inurba_marseille","lat":43.26501,"lon":5.39542,"is_reserved":false,"is_disabled":false,"rental_uris":{"android":"levelo://app?vid=e66766e5-f44c-4d10-a829-cd67ab7304d6","ios":"levelo://app?vid=e66766e5-f44c-4d10-a829-cd67ab7304d6"},"vehicle_type_id":"4","last_reported":1744283311,"current_range_meters":14800,"station_id":"ce4bhi12rcd13ifvqfq0","pricing_plan_id":"cebpf4jnsgd1na2vs0mg"},{"bike_id":"6aea74ed-ea0d-40c2-9455-d10b07283bfc","system_id":"levelo_inurba_marseille","lat":43.24188,"lon":5.39729,"is_reserved":false,"is_disabled":false,"rental_uris":{"android":"levelo://app?vid=6aea74ed-ea0d-40c2-9455-d10b07283bfc","ios":"levelo://app?vid=6aea74ed-ea0d-40c2-9455-d10b07283bfc"},"vehicle_type_id":"4","last_reported":1744283311,"current_range_meters":14800,"station_id":"ce4bhn12rcd13ifvqgpg","pricing_plan_id":"cebpf4jnsgd1na2vs0mg"},{"bike_id":"d1f92f28-9609-4256-bd4a-880c7b09d4e8","system_id":"levelo_inurba_marseille","lat":43.29324,"lon":5.41151,"is_reserved":false,"is_disabled":false,"rental_uris":{"android":"levelo://app?vid=d1f92f28-9609-4256-bd4a-880c7b09d4e8","ios":"levelo://app?vid=d1f92f28-9609-4256-bd4a-880c7b09d4e8"},"vehicle_type_id":"4","last_reported":1744283311,"current_range_meters":14800,"station_id":"","pricing_plan_id":"cebpf4jnsgd1na2vs0mg"},{"bike_id":"80fc962d-bb9c-4a32-a859-fac37768aa3b","system_id":"levelo_inurba_marseille","lat":43.29803,"lon":5.38104,"is_reserved":false,"is_disabled":false,"rental_uris":{"android":"levelo://app?vid=80fc962d-bb9c-4a32-a859-fac37768aa3b","ios":"levelo://app?vid=80fc962d-bb9c-4a32-a859-fac37768aa3b"},"vehicle_type_id":"4","last_reported":1744283311,"current_range_meters":15200,"station_id":"ce4bgip2rcd13ifvqbb0","pricing_plan_id":"cebpf4jnsgd1na2vs0mg"},{"bike_id":"f78bf8a8-b506-43e9-9fc4-9ec4cb688e82","system_id":"levelo_inurba_marseille","lat":43.32117,"lon":5.36752,"is_reserved":false,"is_disabled":false,"rental_uris":{"android":"levelo://app?vid=f78bf8a8-b506-43e9-9fc4-9ec4cb688e82","ios":"levelo://app?vid=f78bf8a8-b506-43e9-9fc4-9ec4cb688e82"},"vehicle_type_id":"4","last_reported":1744283311,"current_range_meters":15200,"station_id":"ce4bhrh2rcd13ifvqhug","pricing_plan_id":"cebpf4jnsgd1na2vs0mg"},{"bike_id":"0a9bfd40-df42-45ef-9b54-76c12d47eaf4","system_id":"levelo_inurba_marseille","lat":43.284183,"lon":5.375039,"is_reserved":false,"is_disabled":false,"rental_uris":{"android":"levelo://app?vid=0a9bfd40-df42-45ef-9b54-76c12d47eaf4","ios":"levelo://app?vid=0a9bfd40-df42-45ef-9b54-76c12d47eaf4"},"vehicle_type_id":"4","last_reported":1744283311,"current_range_meters":15200,"station_id":"ce4bh412rcd13ifvqds0","pricing_plan_id":"cebpf4jnsgd1na2vs0mg"},{"bike_id":"c74893b0-7990-42e1-81ba-6333fadd7f5e","system_id":"levelo_inurba_marseille","lat":43.30529,"lon":5.36544,"is_reserved":false,"is_disabled":false,"rental_uris":{"android":"levelo://app?vid=c74893b0-7990-42e1-81ba-6333fadd7f5e","ios":"levelo://app?vid=c74893b0-7990-42e1-81ba-6333fadd7f5e"},"vehicle_type_id":"4","last_reported":1744283311,"current_range_meters":15200,"station_id":"ce4bgs12rcd13ifvqcag","pricing_plan_id":"cebpf4jnsgd1na2vs0mg"},{"bike_id":"083e46db-7202-4d81-a11b-6c85cd648e16","system_id":"levelo_inurba_marseille","lat":43.31766,"lon":5.39011,"is_reserved":false,"is_disabled":false,"rental_uris":{"android":"levelo://app?vid=083e46db-7202-4d81-a11b-6c85cd648e16","ios":"levelo://app?vid=083e46db-7202-4d81-a11b-6c85cd648e16"},"vehicle_type_id":"4","last_reported":1744283311,"current_range_meters":15200,"station_id":"ce4bhqp2rcd13ifvqhng","pricing_plan_id":"cebpf4jnsgd1na2vs0mg"},{"bike_id":"83921a73-74b2-47da-9dd2-bc0073e7e584","system_id":"levelo_inurba_marseille","lat":43.28438,"lon":5.39208,"is_reserved":false,"is_disabled":false,"rental_uris":{"android":"levelo://app?vid=83921a73-74b2-47da-9dd2-bc0073e7e584","ios":"levelo://app?vid=83921a73-74b2-47da-9dd2-bc0073e7e584"},"vehicle_type_id":"4","last_reported":1744283311,"current_range_meters":15200,"station_id":"ce4bhoh2rcd13ifvqh5g","pricing_plan_id":"cebpf4jnsgd1na2vs0mg"},{"bike_id":"a502d460-5ad6-420f-a919-18d96366cefb","system_id":"levelo_inurba_marseille","lat":43.29796,"lon":5.38091,"is_reserved":false,"is_disabled":false,"rental_uris":{"android":"levelo://app?vid=a502d460-5ad6-420f-a919-18d96366cefb","ios":"levelo://app?vid=a502d460-5ad6-420f-a919-18d96366cefb"},"vehicle_type_id":"4","last_reported":1744283311,"current_range_meters":15200,"station_id":"ce4bgip2rcd13ifvqbb0","pricing_plan_id":"cebpf4jnsgd1na2vs0mg"},{"bike_id":"c71ba034-d3b4-4331-83cc-728d2514bdb4","system_id":"levelo_inurba_marseille","lat":43.29599,"lon":5.38103,"is_reserved":false,"is_disabled":false,"rental_uris":{"android":"levelo://app?vid=c71ba034-d3b4-4331-83cc-728d2514bdb4","ios":"levelo://app?vid=c71ba034-d3b4-4331-83cc-728d2514bdb4"},"vehicle_type_id":"4","last_reported":1744283311,"current_range_meters":16000,"station_id":"ce4bgl12rcd13ifvqbo0","pricing_plan_id":"cebpf4jnsgd1na2vs0mg"},{"bike_id":"740ed816-09b2-41bd-867d-52a35d1745f1","system_id":"levelo_inurba_marseille","lat":43.24657,"lon":5.38176,"is_reserved":false,"is_disabled":true,"rental_uris":{"android":"levelo://app?vid=740ed816-09b2-41bd-867d-52a35d1745f1","ios":"levelo://app?vid=740ed816-09b2-41bd-867d-52a35d1745f1"},"vehicle_type_id":"4","last_reported":1744283311,"current_range_meters":16000,"station_id":"","pricing_plan_id":"cebpf4jnsgd1na2vs0mg"},{"bike_id":"cc3d342b-d482-4417-a9e9-7704f4b43477","system_id":"levelo_inurba_marseille","lat":43.28665,"lon":5.38661,"is_reserved":false,"is_disabled":false,"rental_uris":{"android":"levelo://app?vid=cc3d342b-d482-4417-a9e9-7704f4b43477","ios":"levelo://app?vid=cc3d342b-d482-4417-a9e9-7704f4b43477"},"vehicle_type_id":"4","last_reported":1744283311,"current_range_meters":16800,"station_id":"ce4bh492rcd13ifvqdug","pricing_plan_id":"cebpf4jnsgd1na2vs0mg"},{"bike_id":"8ee9f686-4549-4aad-af30-9017baadcb23","system_id":"levelo_inurba_marseille","lat":43.314433,"lon":5.375843,"is_reserved":false,"is_disabled":false,"rental_uris":{"android":"levelo://app?vid=8ee9f686-4549-4aad-af30-9017baadcb23","ios":"levelo://app?vid=8ee9f686-4549-4aad-af30-9017baadcb23"},"vehicle_type_id":"4","last_reported":1744283311,"current_range_meters":16000,"station_id":"","pricing_plan_id":"cebpf4jnsgd1na2vs0mg"},{"bike_id":"854ecbf0-278b-439b-8c0c-487029586674","system_id":"levelo_inurba_marseille","lat":43.30545,"lon":5.36539,"is_reserved":false,"is_disabled":false,"rental_uris":{"android":"levelo://app?vid=854ecbf0-278b-439b-8c0c-487029586674","ios":"levelo://app?vid=854ecbf0-278b-439b-8c0c-487029586674"},"vehicle_type_id":"4","last_reported":1744283311,"current_range_meters":16000,"station_id":"ce4bgs12rcd13ifvqcag","pricing_plan_id":"cebpf4jnsgd1na2vs0mg"},{"bike_id":"d1cd1b25-6432-4bde-87f0-3f927aac83c2","system_id":"levelo_inurba_marseille","lat":43.30537,"lon":5.36543,"is_reserved":false,"is_disabled":false,"rental_uris":{"android":"levelo://app?vid=d1cd1b25-6432-4bde-87f0-3f927aac83c2","ios":"levelo://app?vid=d1cd1b25-6432-4bde-87f0-3f927aac83c2"},"vehicle_type_id":"4","last_reported":1744283311,"current_range_meters":16000,"station_id":"ce4bgs12rcd13ifvqcag","pricing_plan_id":"cebpf4jnsgd1na2vs0mg"},{"bike_id":"69453b73-2d1a-4d69-a56c-2a033ab4613a","system_id":"levelo_inurba_marseille","lat":43.30543,"lon":5.36527,"is_reserved":false,"is_disabled":false,"rental_uris":{"android":"levelo://app?vid=69453b73-2d1a-4d69-a56c-2a033ab4613a","ios":"levelo://app?vid=69453b73-2d1a-4d69-a56c-2a033ab4613a"},"vehicle_type_id":"4","last_reported":1744283311,"current_range_meters":16000,"station_id":"ce4bgs12rcd13ifvqcag","pricing_plan_id":"cebpf4jnsgd1na2vs0mg"},{"bike_id":"8ecbc85f-3b18-4c5e-a8da-e58b9aea0390","system_id":"levelo_inurba_marseille","lat":43.28419,"lon":5.34993,"is_reserved":false,"is_disabled":false,"rental_uris":{"android":"levelo://app?vid=8ecbc85f-3b18-4c5e-a8da-e58b9aea0390","ios":"levelo://app?vid=8ecbc85f-3b18-4c5e-a8da-e58b9aea0390"},"vehicle_type_id":"4","last_reported":1744283311,"current_range_meters":16400,"station_id":"ce4bhbh2rcd13ifvqepg","pricing_plan_id":"cebpf4jnsgd1na2vs0mg"},{"bike_id":"de4669ff-b9cc-43d6-95d6-96a615c4f6f1","system_id":"levelo_inurba_marseille","lat":43.21184,"lon":5.35063,"is_reserved":false,"is_disabled":false,"rental_uris":{"android":"levelo://app?vid=de4669ff-b9cc-43d6-95d6-96a615c4f6f1","ios":"levelo://app?vid=de4669ff-b9cc-43d6-95d6-96a615c4f6f1"},"vehicle_type_id":"4","last_reported":1744283311,"current_range_meters":16400,"station_id":"st_cvj6sg6p6f1abm77japg","pricing_plan_id":"cebpf4jnsgd1na2vs0mg"},{"bike_id":"edcc2472-e7bf-4e0c-91d2-956f1c779ee1","system_id":"levelo_inurba_marseille","lat":43.24146,"lon":5.39732,"is_reserved":false,"is_disabled":false,"rental_uris":{"android":"levelo://app?vid=edcc2472-e7bf-4e0c-91d2-956f1c779ee1","ios":"levelo://app?vid=edcc2472-e7bf-4e0c-91d2-956f1c779ee1"},"vehicle_type_id":"4","last_reported":1744283311,"current_range_meters":16400,"station_id":"ce4bhn12rcd13ifvqgpg","pricing_plan_id":"cebpf4jnsgd1na2vs0mg"},{"bike_id":"e139e07c-853d-4291-9cb5-876e6ac7cbf2","system_id":"levelo_inurba_marseille","lat":43.29685,"lon":5.37281,"is_reserved":false,"is_disabled":false,"rental_uris":{"android":"levelo://app?vid=e139e07c-853d-4291-9cb5-876e6ac7cbf2","ios":"levelo://app?vid=e139e07c-853d-4291-9cb5-876e6ac7cbf2"},"vehicle_type_id":"4","last_reported":1744283311,"current_range_meters":12000,"station_id":"ce4bgk12rcd13ifvqbj0","pricing_plan_id":"cebpf4jnsgd1na2vs0mg"},{"bike_id":"7928f85f-6603-4b62-a9f0-1785aa6fb49a","system_id":"levelo_inurba_marseille","lat":43.30793,"lon":5.37397,"is_reserved":false,"is_disabled":true,"rental_uris":{"android":"levelo://app?vid=7928f85f-6603-4b62-a9f0-1785aa6fb49a","ios":"levelo://app?vid=7928f85f-6603-4b62-a9f0-1785aa6fb49a"},"vehicle_type_id":"4","last_reported":1744283311,"current_range_meters":16400,"station_id":"","pricing_plan_id":"cebpf4jnsgd1na2vs0mg"},{"bike_id":"59242871-87d2-4724-a154-c0b7da171930","system_id":"levelo_inurba_marseille","lat":43.29266,"lon":5.3762,"is_reserved":false,"is_disabled":false,"rental_uris":{"android":"levelo://app?vid=59242871-87d2-4724-a154-c0b7da171930","ios":"levelo://app?vid=59242871-87d2-4724-a154-c0b7da171930"},"vehicle_type_id":"4","last_reported":1744283311,"current_range_meters":16400,"station_id":"ce4bgi12rcd13ifvqb80","pricing_plan_id":"cebpf4jnsgd1na2vs0mg"},{"bike_id":"7217ea4b-d081-4d83-b44a-5c5d5e38b156","system_id":"levelo_inurba_marseille","lat":43.2928,"lon":5.3685,"is_reserved":false,"is_disabled":false,"rental_uris":{"android":"levelo://app?vid=7217ea4b-d081-4d83-b44a-5c5d5e38b156","ios":"levelo://app?vid=7217ea4b-d081-4d83-b44a-5c5d5e38b156"},"vehicle_type_id":"4","last_reported":1744283311,"current_range_meters":16400,"station_id":"ce4bhbp2rcd13ifvqesg","pricing_plan_id":"cebpf4jnsgd1na2vs0mg"},{"bike_id":"dd97e3ce-11bd-464e-8136-78b254038d3d","system_id":"levelo_inurba_marseille","lat":43.24176,"lon":5.39737,"is_reserved":false,"is_disabled":false,"rental_uris":{"android":"levelo://app?vid=dd97e3ce-11bd-464e-8136-78b254038d3d","ios":"levelo://app?vid=dd97e3ce-11bd-464e-8136-78b254038d3d"},"vehicle_type_id":"4","last_reported":1744283311,"current_range_meters":16400,"station_id":"ce4bhn12rcd13ifvqgpg","pricing_plan_id":"cebpf4jnsgd1na2vs0mg"},{"bike_id":"eab6cbfa-cb8e-47d7-b0d6-226ab7facec7","system_id":"levelo_inurba_marseille","lat":43.31713,"lon":5.424,"is_reserved":false,"is_disabled":true,"rental_uris":{"android":"levelo://app?vid=eab6cbfa-cb8e-47d7-b0d6-226ab7facec7","ios":"levelo://app?vid=eab6cbfa-cb8e-47d7-b0d6-226ab7facec7"},"vehicle_type_id":"4","last_reported":1744283311,"current_range_meters":16400,"station_id":"ce4bhp92rcd13ifvqhbg","pricing_plan_id":"cebpf4jnsgd1na2vs0mg"},{"bike_id":"4159b778-5a3c-4999-8a77-c569e3ebb259","system_id":"levelo_inurba_marseille","lat":43.305369,"lon":5.366983,"is_reserved":false,"is_disabled":false,"rental_uris":{"android":"levelo://app?vid=4159b778-5a3c-4999-8a77-c569e3ebb259","ios":"levelo://app?vid=4159b778-5a3c-4999-8a77-c569e3ebb259"},"vehicle_type_id":"4","last_reported":1744283311,"current_range_meters":16400,"station_id":"ce4bgrp2rcd13ifvqc9g","pricing_plan_id":"cebpf4jnsgd1na2vs0mg"},{"bike_id":"9b5307e9-242c-4ee9-a5bb-3a99f05e0287","system_id":"levelo_inurba_marseille","lat":43.30186,"lon":5.36608,"is_reserved":false,"is_disabled":false,"rental_uris":{"android":"levelo://app?vid=9b5307e9-242c-4ee9-a5bb-3a99f05e0287","ios":"levelo://app?vid=9b5307e9-242c-4ee9-a5bb-3a99f05e0287"},"vehicle_type_id":"4","last_reported":1744283311,"current_range_meters":16800,"station_id":"ce4bgrh2rcd13ifvqc8g","pricing_plan_id":"cebpf4jnsgd1na2vs0mg"},{"bike_id":"3ed2cdff-7b68-4bb4-8a91-0a09828d802e","system_id":"levelo_inurba_marseille","lat":43.25091,"lon":5.395165,"is_reserved":false,"is_disabled":false,"rental_uris":{"android":"levelo://app?vid=3ed2cdff-7b68-4bb4-8a91-0a09828d802e","ios":"levelo://app?vid=3ed2cdff-7b68-4bb4-8a91-0a09828d802e"},"vehicle_type_id":"4","last_reported":1744283311,"current_range_meters":16800,"station_id":"ce4bhm12rcd13ifvqgkg","pricing_plan_id":"cebpf4jnsgd1na2vs0mg"},{"bike_id":"e9de0814-a494-49f5-8c0e-9baffbf3d3bc","system_id":"levelo_inurba_marseille","lat":43.29897,"lon":5.43673,"is_reserved":false,"is_disabled":false,"rental_uris":{"android":"levelo://app?vid=e9de0814-a494-49f5-8c0e-9baffbf3d3bc","ios":"levelo://app?vid=e9de0814-a494-49f5-8c0e-9baffbf3d3bc"},"vehicle_type_id":"4","last_reported":1744283311,"current_range_meters":16800,"station_id":"ce4bhpp2rcd13ifvqhfg","pricing_plan_id":"cebpf4jnsgd1na2vs0mg"},{"bike_id":"747cb9b1-e0e4-42d6-b5a0-d1deded52679","system_id":"levelo_inurba_marseille","lat":43.30139,"lon":5.3986,"is_reserved":false,"is_disabled":false,"rental_uris":{"android":"levelo://app?vid=747cb9b1-e0e4-42d6-b5a0-d1deded52679","ios":"levelo://app?vid=747cb9b1-e0e4-42d6-b5a0-d1deded52679"},"vehicle_type_id":"4","last_reported":1744283311,"current_range_meters":16800,"station_id":"ce4bh0h2rcd13ifvqd40","pricing_plan_id":"cebpf4jnsgd1na2vs0mg"},{"bike_id":"d5d36d5b-0c3f-4de2-92e0-a47a4f0b2b41","system_id":"levelo_inurba_marseille","lat":43.24167,"lon":5.39729,"is_reserved":false,"is_disabled":false,"rental_uris":{"android":"levelo://app?vid=d5d36d5b-0c3f-4de2-92e0-a47a4f0b2b41","ios":"levelo://app?vid=d5d36d5b-0c3f-4de2-92e0-a47a4f0b2b41"},"vehicle_type_id":"4","last_reported":1744283311,"current_range_meters":16800,"station_id":"ce4bhn12rcd13ifvqgpg","pricing_plan_id":"cebpf4jnsgd1na2vs0mg"},{"bike_id":"278860d5-a125-48a5-ab18-10651ae580bc","system_id":"levelo_inurba_marseille","lat":43.217499,"lon":5.346035,"is_reserved":false,"is_disabled":false,"rental_uris":{"android":"levelo://app?vid=278860d5-a125-48a5-ab18-10651ae580bc","ios":"levelo://app?vid=278860d5-a125-48a5-ab18-10651ae580bc"},"vehicle_type_id":"4","last_reported":1744283311,"current_range_meters":16800,"station_id":"st_cvj6r9ubvosntc0bgbag","pricing_plan_id":"cebpf4jnsgd1na2vs0mg"},{"bike_id":"0922821c-4e1d-4817-9469-860e55f8f0d1","system_id":"levelo_inurba_marseille","lat":43.337444,"lon":5.374475,"is_reserved":false,"is_disabled":false,"rental_uris":{"android":"levelo://app?vid=0922821c-4e1d-4817-9469-860e55f8f0d1","ios":"levelo://app?vid=0922821c-4e1d-4817-9469-860e55f8f0d1"},"vehicle_type_id":"4","last_reported":1744283311,"current_range_meters":16800,"station_id":"","pricing_plan_id":"cebpf4jnsgd1na2vs0mg"},{"bike_id":"0d4ef44c-0a37-4792-8dbc-558d584626b6","system_id":"levelo_inurba_marseille","lat":43.30327,"lon":5.40438,"is_reserved":false,"is_disabled":false,"rental_uris":{"android":"levelo://app?vid=0d4ef44c-0a37-4792-8dbc-558d584626b6","ios":"levelo://app?vid=0d4ef44c-0a37-4792-8dbc-558d584626b6"},"vehicle_type_id":"4","last_reported":1744283311,"current_range_meters":17200,"station_id":"ce4bh012rcd13ifvqd10","pricing_plan_id":"cebpf4jnsgd1na2vs0mg"},{"bike_id":"8e46a7c9-0913-4240-9bb6-c932573dd483","system_id":"levelo_inurba_marseille","lat":43.23152,"lon":5.43718,"is_reserved":false,"is_disabled":false,"rental_uris":{"android":"levelo://app?vid=8e46a7c9-0913-4240-9bb6-c932573dd483","ios":"levelo://app?vid=8e46a7c9-0913-4240-9bb6-c932573dd483"},"vehicle_type_id":"4","last_reported":1744283311,"current_range_meters":17200,"station_id":"ce4bhmp2rcd13ifvqgog","pricing_plan_id":"cebpf4jnsgd1na2vs0mg"},{"bike_id":"733bc1ce-0a06-4986-9a6f-36ac5bc63fc8","system_id":"levelo_inurba_marseille","lat":43.28278,"lon":5.35083,"is_reserved":false,"is_disabled":false,"rental_uris":{"android":"levelo://app?vid=733bc1ce-0a06-4986-9a6f-36ac5bc63fc8","ios":"levelo://app?vid=733bc1ce-0a06-4986-9a6f-36ac5bc63fc8"},"vehicle_type_id":"4","last_reported":1744283311,"current_range_meters":17200,"station_id":"ce4bhbp2rcd13ifvqerg","pricing_plan_id":"cebpf4jnsgd1na2vs0mg"},{"bike_id":"23718e9a-5ce7-4d28-99a5-8f754f56e13c","system_id":"levelo_inurba_marseille","lat":43.22503,"lon":5.34786,"is_reserved":false,"is_disabled":false,"rental_uris":{"android":"levelo://app?vid=23718e9a-5ce7-4d28-99a5-8f754f56e13c","ios":"levelo://app?vid=23718e9a-5ce7-4d28-99a5-8f754f56e13c"},"vehicle_type_id":"4","last_reported":1744283311,"current_range_meters":17200,"station_id":"","pricing_plan_id":"cebpf4jnsgd1na2vs0mg"},{"bike_id":"dcca7115-10b6-4af0-b027-2032559866f9","system_id":"levelo_inurba_marseille","lat":43.25497,"lon":5.37644,"is_reserved":false,"is_disabled":false,"rental_uris":{"android":"levelo://app?vid=dcca7115-10b6-4af0-b027-2032559866f9","ios":"levelo://app?vid=dcca7115-10b6-4af0-b027-2032559866f9"},"vehicle_type_id":"4","last_reported":1744283311,"current_range_meters":17200,"station_id":"ce4bhh12rcd13ifvqff0","pricing_plan_id":"cebpf4jnsgd1na2vs0mg"},{"bike_id":"dba033a5-5f48-45c4-ac87-fd4d7fd9b1e7","system_id":"levelo_inurba_marseille","lat":43.2737,"lon":5.36249,"is_reserved":false,"is_disabled":false,"rental_uris":{"android":"levelo://app?vid=dba033a5-5f48-45c4-ac87-fd4d7fd9b1e7","ios":"levelo://app?vid=dba033a5-5f48-45c4-ac87-fd4d7fd9b1e7"},"vehicle_type_id":"4","last_reported":1744283311,"current_range_meters":16800,"station_id":"ce4bhbh2rcd13ifvqeo0","pricing_plan_id":"cebpf4jnsgd1na2vs0mg"},{"bike_id":"13be7fea-e9e2-4515-8179-954cc16a5aa1","system_id":"levelo_inurba_marseille","lat":43.30908,"lon":5.36858,"is_reserved":false,"is_disabled":false,"rental_uris":{"android":"levelo://app?vid=13be7fea-e9e2-4515-8179-954cc16a5aa1","ios":"levelo://app?vid=13be7fea-e9e2-4515-8179-954cc16a5aa1"},"vehicle_type_id":"4","last_reported":1744283311,"current_range_meters":17200,"station_id":"ce4bgn92rcd13ifvqbvg","pricing_plan_id":"cebpf4jnsgd1na2vs0mg"},{"bike_id":"d194dee7-69c6-405e-adcc-599c0f1f5603","system_id":"levelo_inurba_marseille","lat":43.31173,"lon":5.38727,"is_reserved":false,"is_disabled":false,"rental_uris":{"android":"levelo://app?vid=d194dee7-69c6-405e-adcc-599c0f1f5603","ios":"levelo://app?vid=d194dee7-69c6-405e-adcc-599c0f1f5603"},"vehicle_type_id":"4","last_reported":1744283311,"current_range_meters":17200,"station_id":"ce4bgv12rcd13ifvqcp0","pricing_plan_id":"cebpf4jnsgd1na2vs0mg"},{"bike_id":"a4ddd049-3c97-46ea-b5c7-2455c80b0e34","system_id":"levelo_inurba_marseille","lat":43.28637,"lon":5.37061,"is_reserved":false,"is_disabled":false,"rental_uris":{"android":"levelo://app?vid=a4ddd049-3c97-46ea-b5c7-2455c80b0e34","ios":"levelo://app?vid=a4ddd049-3c97-46ea-b5c7-2455c80b0e34"},"vehicle_type_id":"4","last_reported":1744283311,"current_range_meters":17200,"station_id":"ce4bht12rcd13ifvqi60","pricing_plan_id":"cebpf4jnsgd1na2vs0mg"},{"bike_id":"5336beb7-2639-49ce-9068-8e72e61fc789","system_id":"levelo_inurba_marseille","lat":43.28701,"lon":5.39968,"is_reserved":false,"is_disabled":false,"rental_uris":{"android":"levelo://app?vid=5336beb7-2639-49ce-9068-8e72e61fc789","ios":"levelo://app?vid=5336beb7-2639-49ce-9068-8e72e61fc789"},"vehicle_type_id":"4","last_reported":1744283311,"current_range_meters":17200,"station_id":"ce4bho92rcd13ifvqh3g","pricing_plan_id":"cebpf4jnsgd1na2vs0mg"},{"bike_id":"a737f5db-dfb3-4dd8-aeff-67617975e190","system_id":"levelo_inurba_marseille","lat":43.296082,"lon":5.377146,"is_reserved":false,"is_disabled":true,"rental_uris":{"android":"levelo://app?vid=a737f5db-dfb3-4dd8-aeff-67617975e190","ios":"levelo://app?vid=a737f5db-dfb3-4dd8-aeff-67617975e190"},"vehicle_type_id":"4","last_reported":1744283311,"current_range_meters":17600,"station_id":"ce4bgi92rcd13ifvqb90","pricing_plan_id":"cebpf4jnsgd1na2vs0mg"},{"bike_id":"a363ed4f-f392-4850-b0c2-ef2a243693f7","system_id":"levelo_inurba_marseille","lat":43.26027,"lon":5.37565,"is_reserved":false,"is_disabled":false,"rental_uris":{"android":"levelo://app?vid=a363ed4f-f392-4850-b0c2-ef2a243693f7","ios":"levelo://app?vid=a363ed4f-f392-4850-b0c2-ef2a243693f7"},"vehicle_type_id":"4","last_reported":1744283311,"current_range_meters":17600,"station_id":"ce4bhgh2rcd13ifvqfa0","pricing_plan_id":"cebpf4jnsgd1na2vs0mg"},{"bike_id":"b5ca0173-860f-4e09-8ae0-f89867ca9dd6","system_id":"levelo_inurba_marseille","lat":43.31815,"lon":5.37349,"is_reserved":false,"is_disabled":false,"rental_uris":{"android":"levelo://app?vid=b5ca0173-860f-4e09-8ae0-f89867ca9dd6","ios":"levelo://app?vid=b5ca0173-860f-4e09-8ae0-f89867ca9dd6"},"vehicle_type_id":"4","last_reported":1744283311,"current_range_meters":17600,"station_id":"","pricing_plan_id":"cebpf4jnsgd1na2vs0mg"},{"bike_id":"fdb9a177-c24c-4f0f-9254-83bcecdc8eca","system_id":"levelo_inurba_marseille","lat":43.30951,"lon":5.39025,"is_reserved":false,"is_disabled":false,"rental_uris":{"android":"levelo://app?vid=fdb9a177-c24c-4f0f-9254-83bcecdc8eca","ios":"levelo://app?vid=fdb9a177-c24c-4f0f-9254-83bcecdc8eca"},"vehicle_type_id":"4","last_reported":1744283311,"current_range_meters":17600,"station_id":"ce4bgup2rcd13ifvqco0","pricing_plan_id":"cebpf4jnsgd1na2vs0mg"},{"bike_id":"630ae79d-70f6-4f06-a76d-e79c5d557a7d","system_id":"levelo_inurba_marseille","lat":43.31363,"lon":5.36735,"is_reserved":false,"is_disabled":false,"rental_uris":{"android":"levelo://app?vid=630ae79d-70f6-4f06-a76d-e79c5d557a7d","ios":"levelo://app?vid=630ae79d-70f6-4f06-a76d-e79c5d557a7d"},"vehicle_type_id":"4","last_reported":1744283311,"current_range_meters":17600,"station_id":"ce4bgr92rcd13ifvqc6g","pricing_plan_id":"cebpf4jnsgd1na2vs0mg"},{"bike_id":"221b5d38-61dc-40aa-b23e-5b0391fc47a1","system_id":"levelo_inurba_marseille","lat":43.26239,"lon":5.4042,"is_reserved":false,"is_disabled":false,"rental_uris":{"android":"levelo://app?vid=221b5d38-61dc-40aa-b23e-5b0391fc47a1","ios":"levelo://app?vid=221b5d38-61dc-40aa-b23e-5b0391fc47a1"},"vehicle_type_id":"4","last_reported":1744283311,"current_range_meters":17600,"station_id":"ce4bhmh2rcd13ifvqgmg","pricing_plan_id":"cebpf4jnsgd1na2vs0mg"},{"bike_id":"94455896-0f19-4fae-bd72-9879f01fcd6e","system_id":"levelo_inurba_marseille","lat":43.29547,"lon":5.42286,"is_reserved":false,"is_disabled":true,"rental_uris":{"android":"levelo://app?vid=94455896-0f19-4fae-bd72-9879f01fcd6e","ios":"levelo://app?vid=94455896-0f19-4fae-bd72-9879f01fcd6e"},"vehicle_type_id":"4","last_reported":1744283311,"current_range_meters":17600,"station_id":"ce4bhph2rcd13ifvqhdg","pricing_plan_id":"cebpf4jnsgd1na2vs0mg"},{"bike_id":"1487c5e0-fefb-43fe-879d-c6f0a9e161c1","system_id":"levelo_inurba_marseille","lat":43.30881,"lon":5.39627,"is_reserved":false,"is_disabled":false,"rental_uris":{"android":"levelo://app?vid=1487c5e0-fefb-43fe-879d-c6f0a9e161c1","ios":"levelo://app?vid=1487c5e0-fefb-43fe-879d-c6f0a9e161c1"},"vehicle_type_id":"4","last_reported":1744283311,"current_range_meters":17600,"station_id":"ce4bh012rcd13ifvqcv0","pricing_plan_id":"cebpf4jnsgd1na2vs0mg"},{"bike_id":"761ab4c6-4800-4be8-a1fe-1b0640d4f959","system_id":"levelo_inurba_marseille","lat":43.32271,"lon":5.37657,"is_reserved":false,"is_disabled":false,"rental_uris":{"android":"levelo://app?vid=761ab4c6-4800-4be8-a1fe-1b0640d4f959","ios":"levelo://app?vid=761ab4c6-4800-4be8-a1fe-1b0640d4f959"},"vehicle_type_id":"4","last_reported":1744283311,"current_range_meters":17600,"station_id":"","pricing_plan_id":"cebpf4jnsgd1na2vs0mg"},{"bike_id":"80f1bf52-bc86-4244-97ed-6252c92999f4","system_id":"levelo_inurba_marseille","lat":43.29915,"lon":5.37461,"is_reserved":false,"is_disabled":false,"rental_uris":{"android":"levelo://app?vid=80f1bf52-bc86-4244-97ed-6252c92999f4","ios":"levelo://app?vid=80f1bf52-bc86-4244-97ed-6252c92999f4"},"vehicle_type_id":"4","last_reported":1744283311,"current_range_meters":16000,"station_id":"ce4bgjh2rcd13ifvqbg0","pricing_plan_id":"cebpf4jnsgd1na2vs0mg"},{"bike_id":"1bc6279e-aae9-4cb3-a127-04219d10bf9d","system_id":"levelo_inurba_marseille","lat":43.30144,"lon":5.39886,"is_reserved":false,"is_disabled":false,"rental_uris":{"android":"levelo://app?vid=1bc6279e-aae9-4cb3-a127-04219d10bf9d","ios":"levelo://app?vid=1bc6279e-aae9-4cb3-a127-04219d10bf9d"},"vehicle_type_id":"4","last_reported":1744283311,"current_range_meters":18000,"station_id":"ce4bh0h2rcd13ifvqd40","pricing_plan_id":"cebpf4jnsgd1na2vs0mg"},{"bike_id":"35b36e91-763a-4885-8944-e030c3a30dcf","system_id":"levelo_inurba_marseille","lat":43.31223,"lon":5.36855,"is_reserved":false,"is_disabled":false,"rental_uris":{"android":"levelo://app?vid=35b36e91-763a-4885-8944-e030c3a30dcf","ios":"levelo://app?vid=35b36e91-763a-4885-8944-e030c3a30dcf"},"vehicle_type_id":"4","last_reported":1744283311,"current_range_meters":18000,"station_id":"ce4bgl92rcd13ifvqbq0","pricing_plan_id":"cebpf4jnsgd1na2vs0mg"},{"bike_id":"6f5a3fba-5124-42a7-b36e-1ce41590f370","system_id":"levelo_inurba_marseille","lat":43.32388,"lon":5.3678,"is_reserved":false,"is_disabled":false,"rental_uris":{"android":"levelo://app?vid=6f5a3fba-5124-42a7-b36e-1ce41590f370","ios":"levelo://app?vid=6f5a3fba-5124-42a7-b36e-1ce41590f370"},"vehicle_type_id":"4","last_reported":1744283311,"current_range_meters":18000,"station_id":"ce4bhsh2rcd13ifvqi2g","pricing_plan_id":"cebpf4jnsgd1na2vs0mg"},{"bike_id":"0b73b15a-9d08-4a64-a420-9110a325b597","system_id":"levelo_inurba_marseille","lat":43.23147,"lon":5.43717,"is_reserved":false,"is_disabled":false,"rental_uris":{"android":"levelo://app?vid=0b73b15a-9d08-4a64-a420-9110a325b597","ios":"levelo://app?vid=0b73b15a-9d08-4a64-a420-9110a325b597"},"vehicle_type_id":"4","last_reported":1744283311,"current_range_meters":18000,"station_id":"ce4bhmp2rcd13ifvqgog","pricing_plan_id":"cebpf4jnsgd1na2vs0mg"},{"bike_id":"8e0980e7-f650-4478-82b2-cdec5bb55d65","system_id":"levelo_inurba_marseille","lat":43.28615,"lon":5.37036,"is_reserved":false,"is_disabled":false,"rental_uris":{"android":"levelo://app?vid=8e0980e7-f650-4478-82b2-cdec5bb55d65","ios":"levelo://app?vid=8e0980e7-f650-4478-82b2-cdec5bb55d65"},"vehicle_type_id":"4","last_reported":1744283311,"current_range_meters":18000,"station_id":"ce4bht12rcd13ifvqi60","pricing_plan_id":"cebpf4jnsgd1na2vs0mg"},{"bike_id":"182650a6-9433-4951-80ba-44b6e3878dab","system_id":"levelo_inurba_marseille","lat":43.30545,"lon":5.38437,"is_reserved":false,"is_disabled":true,"rental_uris":{"android":"levelo://app?vid=182650a6-9433-4951-80ba-44b6e3878dab","ios":"levelo://app?vid=182650a6-9433-4951-80ba-44b6e3878dab"},"vehicle_type_id":"4","last_reported":1744283311,"current_range_meters":18000,"station_id":"ce4bgg92rcd13ifvqb30","pricing_plan_id":"cebpf4jnsgd1na2vs0mg"},{"bike_id":"d2991d92-f477-4b31-b207-530975b736c1","system_id":"levelo_inurba_marseille","lat":43.33028,"lon":5.39026,"is_reserved":false,"is_disabled":false,"rental_uris":{"android":"levelo://app?vid=d2991d92-f477-4b31-b207-530975b736c1","ios":"levelo://app?vid=d2991d92-f477-4b31-b207-530975b736c1"},"vehicle_type_id":"4","last_reported":1744283311,"current_range_meters":18000,"station_id":"ce4bhr92rcd13ifvqhrg","pricing_plan_id":"cebpf4jnsgd1na2vs0mg"},{"bike_id":"c5cf3859-e5ab-46d4-997d-f0b04c7f1e17","system_id":"levelo_inurba_marseille","lat":43.257182,"lon":5.382942,"is_reserved":false,"is_disabled":false,"rental_uris":{"android":"levelo://app?vid=c5cf3859-e5ab-46d4-997d-f0b04c7f1e17","ios":"levelo://app?vid=c5cf3859-e5ab-46d4-997d-f0b04c7f1e17"},"vehicle_type_id":"4","last_reported":1744283311,"current_range_meters":17200,"station_id":"ce4bhih2rcd13ifvqfs0","pricing_plan_id":"cebpf4jnsgd1na2vs0mg"},{"bike_id":"d4d6a83f-920a-41cf-8117-21f994bb6df4","system_id":"levelo_inurba_marseille","lat":43.26192,"lon":5.37445,"is_reserved":false,"is_disabled":false,"rental_uris":{"android":"levelo://app?vid=d4d6a83f-920a-41cf-8117-21f994bb6df4","ios":"levelo://app?vid=d4d6a83f-920a-41cf-8117-21f994bb6df4"},"vehicle_type_id":"4","last_reported":1744283311,"current_range_meters":18000,"station_id":"ce4bhgp2rcd13ifvqfc0","pricing_plan_id":"cebpf4jnsgd1na2vs0mg"},{"bike_id":"cbc4d964-4d58-4891-a1a0-a908875052fd","system_id":"levelo_inurba_marseille","lat":43.26018,"lon":5.37547,"is_reserved":false,"is_disabled":false,"rental_uris":{"android":"levelo://app?vid=cbc4d964-4d58-4891-a1a0-a908875052fd","ios":"levelo://app?vid=cbc4d964-4d58-4891-a1a0-a908875052fd"},"vehicle_type_id":"4","last_reported":1744283311,"current_range_meters":18000,"station_id":"ce4bhgh2rcd13ifvqfa0","pricing_plan_id":"cebpf4jnsgd1na2vs0mg"},{"bike_id":"4ec28906-815d-48fa-8760-6ea007626226","system_id":"levelo_inurba_marseille","lat":43.298947,"lon":5.436799,"is_reserved":false,"is_disabled":false,"rental_uris":{"android":"levelo://app?vid=4ec28906-815d-48fa-8760-6ea007626226","ios":"levelo://app?vid=4ec28906-815d-48fa-8760-6ea007626226"},"vehicle_type_id":"4","last_reported":1744283311,"current_range_meters":18800,"station_id":"ce4bhph2rcd13ifvqheg","pricing_plan_id":"cebpf4jnsgd1na2vs0mg"},{"bike_id":"9fca1da7-adaf-482c-9435-e7ed9daf7b6e","system_id":"levelo_inurba_marseille","lat":43.26951,"lon":5.38917,"is_reserved":false,"is_disabled":false,"rental_uris":{"android":"levelo://app?vid=9fca1da7-adaf-482c-9435-e7ed9daf7b6e","ios":"levelo://app?vid=9fca1da7-adaf-482c-9435-e7ed9daf7b6e"},"vehicle_type_id":"4","last_reported":1744283311,"current_range_meters":18800,"station_id":"ce4bhhh2rcd13ifvqfl0","pricing_plan_id":"cebpf4jnsgd1na2vs0mg"},{"bike_id":"463b41fd-37bb-48c0-a6e4-12f737a3d7cf","system_id":"levelo_inurba_marseille","lat":43.26923,"lon":5.40255,"is_reserved":false,"is_disabled":true,"rental_uris":{"android":"levelo://app?vid=463b41fd-37bb-48c0-a6e4-12f737a3d7cf","ios":"levelo://app?vid=463b41fd-37bb-48c0-a6e4-12f737a3d7cf"},"vehicle_type_id":"4","last_reported":1744283311,"current_range_meters":18800,"station_id":"cjm6bp8fraef2m0cb0m0","pricing_plan_id":"cebpf4jnsgd1na2vs0mg"},{"bike_id":"aeb315f8-5663-4264-8421-f5acbb6ac33d","system_id":"levelo_inurba_marseille","lat":43.26223,"lon":5.40444,"is_reserved":false,"is_disabled":false,"rental_uris":{"android":"levelo://app?vid=aeb315f8-5663-4264-8421-f5acbb6ac33d","ios":"levelo://app?vid=aeb315f8-5663-4264-8421-f5acbb6ac33d"},"vehicle_type_id":"4","last_reported":1744283311,"current_range_meters":18800,"station_id":"ce4bhmh2rcd13ifvqgmg","pricing_plan_id":"cebpf4jnsgd1na2vs0mg"},{"bike_id":"64efb840-04c4-4912-8381-1a0550d60928","system_id":"levelo_inurba_marseille","lat":43.279034,"lon":5.395763,"is_reserved":false,"is_disabled":false,"rental_uris":{"android":"levelo://app?vid=64efb840-04c4-4912-8381-1a0550d60928","ios":"levelo://app?vid=64efb840-04c4-4912-8381-1a0550d60928"},"vehicle_type_id":"4","last_reported":1744283311,"current_range_meters":18800,"station_id":"ce4bhgp2rcd13ifvqfc0","pricing_plan_id":"cebpf4jnsgd1na2vs0mg"},{"bike_id":"6d1f80b1-80e0-4012-99d1-3f8172cadb63","system_id":"levelo_inurba_marseille","lat":43.24169,"lon":5.36387,"is_reserved":false,"is_disabled":false,"rental_uris":{"android":"levelo://app?vid=6d1f80b1-80e0-4012-99d1-3f8172cadb63","ios":"levelo://app?vid=6d1f80b1-80e0-4012-99d1-3f8172cadb63"},"vehicle_type_id":"4","last_reported":1744283311,"current_range_meters":18800,"station_id":"cpo36qri1sfpv3e86is0","pricing_plan_id":"cebpf4jnsgd1na2vs0mg"},{"bike_id":"d9d18a26-51e9-4f0e-9513-2a2e69cec979","system_id":"levelo_inurba_marseille","lat":43.282816,"lon":5.350679,"is_reserved":false,"is_disabled":false,"rental_uris":{"android":"levelo://app?vid=d9d18a26-51e9-4f0e-9513-2a2e69cec979","ios":"levelo://app?vid=d9d18a26-51e9-4f0e-9513-2a2e69cec979"},"vehicle_type_id":"4","last_reported":1744283311,"current_range_meters":18800,"station_id":"ce4bhh12rcd13ifvqff0","pricing_plan_id":"cebpf4jnsgd1na2vs0mg"},{"bike_id":"c38fd428-f6dc-40d9-9cb8-3daa861347f3","system_id":"levelo_inurba_marseille","lat":43.30146,"lon":5.38081,"is_reserved":false,"is_disabled":false,"rental_uris":{"android":"levelo://app?vid=c38fd428-f6dc-40d9-9cb8-3daa861347f3","ios":"levelo://app?vid=c38fd428-f6dc-40d9-9cb8-3daa861347f3"},"vehicle_type_id":"4","last_reported":1744283311,"current_range_meters":19200,"station_id":"ce4bgjp2rcd13ifvqbh0","pricing_plan_id":"cebpf4jnsgd1na2vs0mg"},{"bike_id":"9e278470-9190-42e2-b41a-931e1b5fbbe4","system_id":"levelo_inurba_marseille","lat":43.249999,"lon":5.389191,"is_reserved":false,"is_disabled":false,"rental_uris":{"android":"levelo://app?vid=9e278470-9190-42e2-b41a-931e1b5fbbe4","ios":"levelo://app?vid=9e278470-9190-42e2-b41a-931e1b5fbbe4"},"vehicle_type_id":"4","last_reported":1744283311,"current_range_meters":19200,"station_id":"ce4bhgp2rcd13ifvqfd0","pricing_plan_id":"cebpf4jnsgd1na2vs0mg"},{"bike_id":"94c7794a-6d48-406f-b5c8-69da2480bb40","system_id":"levelo_inurba_marseille","lat":43.31385,"lon":5.36732,"is_reserved":false,"is_disabled":false,"rental_uris":{"android":"levelo://app?vid=94c7794a-6d48-406f-b5c8-69da2480bb40","ios":"levelo://app?vid=94c7794a-6d48-406f-b5c8-69da2480bb40"},"vehicle_type_id":"4","last_reported":1744283311,"current_range_meters":19200,"station_id":"","pricing_plan_id":"cebpf4jnsgd1na2vs0mg"},{"bike_id":"89e18915-d30e-41cb-bb03-ba8ebbb23625","system_id":"levelo_inurba_marseille","lat":43.26662,"lon":5.38295,"is_reserved":false,"is_disabled":false,"rental_uris":{"android":"levelo://app?vid=89e18915-d30e-41cb-bb03-ba8ebbb23625","ios":"levelo://app?vid=89e18915-d30e-41cb-bb03-ba8ebbb23625"},"vehicle_type_id":"4","last_reported":1744283311,"current_range_meters":19200,"station_id":"ce4bhg92rcd13ifvqf90","pricing_plan_id":"cebpf4jnsgd1na2vs0mg"},{"bike_id":"70333d08-b89a-4e2b-ae7b-375ce248ec2b","system_id":"levelo_inurba_marseille","lat":43.29303,"lon":5.37472,"is_reserved":false,"is_disabled":true,"rental_uris":{"android":"levelo://app?vid=70333d08-b89a-4e2b-ae7b-375ce248ec2b","ios":"levelo://app?vid=70333d08-b89a-4e2b-ae7b-375ce248ec2b"},"vehicle_type_id":"4","last_reported":1744283311,"current_range_meters":19200,"station_id":"","pricing_plan_id":"cebpf4jnsgd1na2vs0mg"},{"bike_id":"74b26f4a-6d3d-4ac2-b681-1e6162ab2ff1","system_id":"levelo_inurba_marseille","lat":43.31222,"lon":5.36844,"is_reserved":false,"is_disabled":false,"rental_uris":{"android":"levelo://app?vid=74b26f4a-6d3d-4ac2-b681-1e6162ab2ff1","ios":"levelo://app?vid=74b26f4a-6d3d-4ac2-b681-1e6162ab2ff1"},"vehicle_type_id":"4","last_reported":1744283311,"current_range_meters":19200,"station_id":"ce4bgl92rcd13ifvqbq0","pricing_plan_id":"cebpf4jnsgd1na2vs0mg"},{"bike_id":"4d2f64b2-5cf7-464e-8bda-2b24d6c531ad","system_id":"levelo_inurba_marseille","lat":43.26212,"lon":5.37448,"is_reserved":false,"is_disabled":false,"rental_uris":{"android":"levelo://app?vid=4d2f64b2-5cf7-464e-8bda-2b24d6c531ad","ios":"levelo://app?vid=4d2f64b2-5cf7-464e-8bda-2b24d6c531ad"},"vehicle_type_id":"4","last_reported":1744283311,"current_range_meters":19200,"station_id":"ce4bhgp2rcd13ifvqfc0","pricing_plan_id":"cebpf4jnsgd1na2vs0mg"},{"bike_id":"93f6c20e-fdcc-4c01-9916-921a5772f9f1","system_id":"levelo_inurba_marseille","lat":43.29194,"lon":5.35808,"is_reserved":false,"is_disabled":false,"rental_uris":{"android":"levelo://app?vid=93f6c20e-fdcc-4c01-9916-921a5772f9f1","ios":"levelo://app?vid=93f6c20e-fdcc-4c01-9916-921a5772f9f1"},"vehicle_type_id":"4","last_reported":1744283311,"current_range_meters":19200,"station_id":"ce4bhb12rcd13ifvqel0","pricing_plan_id":"cebpf4jnsgd1na2vs0mg"},{"bike_id":"501fa997-908f-46c4-b868-f7df51633695","system_id":"levelo_inurba_marseille","lat":43.29556,"lon":5.37506,"is_reserved":false,"is_disabled":false,"rental_uris":{"android":"levelo://app?vid=501fa997-908f-46c4-b868-f7df51633695","ios":"levelo://app?vid=501fa997-908f-46c4-b868-f7df51633695"},"vehicle_type_id":"4","last_reported":1744283311,"current_range_meters":19600,"station_id":"ce4bgh92rcd13ifvqb50","pricing_plan_id":"cebpf4jnsgd1na2vs0mg"},{"bike_id":"fca61430-90fe-4ff4-bcbe-ae60a6851e6a","system_id":"levelo_inurba_marseille","lat":43.30941,"lon":5.39046,"is_reserved":false,"is_disabled":false,"rental_uris":{"android":"levelo://app?vid=fca61430-90fe-4ff4-bcbe-ae60a6851e6a","ios":"levelo://app?vid=fca61430-90fe-4ff4-bcbe-ae60a6851e6a"},"vehicle_type_id":"4","last_reported":1744283311,"current_range_meters":17200,"station_id":"ce4bgup2rcd13ifvqco0","pricing_plan_id":"cebpf4jnsgd1na2vs0mg"},{"bike_id":"a2502cc4-c8ba-41fb-8438-c46bdc0c1f25","system_id":"levelo_inurba_marseille","lat":43.29981,"lon":5.38496,"is_reserved":false,"is_disabled":false,"rental_uris":{"android":"levelo://app?vid=a2502cc4-c8ba-41fb-8438-c46bdc0c1f25","ios":"levelo://app?vid=a2502cc4-c8ba-41fb-8438-c46bdc0c1f25"},"vehicle_type_id":"4","last_reported":1744283311,"current_range_meters":19600,"station_id":"ce4bgj92rcd13ifvqbd0","pricing_plan_id":"cebpf4jnsgd1na2vs0mg"},{"bike_id":"b1ee2f60-4328-4282-bd37-761fb5f2d37b","system_id":"levelo_inurba_marseille","lat":43.31377,"lon":5.36731,"is_reserved":false,"is_disabled":false,"rental_uris":{"android":"levelo://app?vid=b1ee2f60-4328-4282-bd37-761fb5f2d37b","ios":"levelo://app?vid=b1ee2f60-4328-4282-bd37-761fb5f2d37b"},"vehicle_type_id":"4","last_reported":1744283311,"current_range_meters":19600,"station_id":"ce4bgr92rcd13ifvqc6g","pricing_plan_id":"cebpf4jnsgd1na2vs0mg"},{"bike_id":"41296d85-37fc-42bb-838c-0d3e19348df6","system_id":"levelo_inurba_marseille","lat":43.22506,"lon":5.34783,"is_reserved":false,"is_disabled":false,"rental_uris":{"android":"levelo://app?vid=41296d85-37fc-42bb-838c-0d3e19348df6","ios":"levelo://app?vid=41296d85-37fc-42bb-838c-0d3e19348df6"},"vehicle_type_id":"4","last_reported":1744283311,"current_range_meters":19600,"station_id":"st_cvj5dfep6f1abm77gieg","pricing_plan_id":"cebpf4jnsgd1na2vs0mg"},{"bike_id":"ad8253a1-48f9-4a09-891a-2d7866351f65","system_id":"levelo_inurba_marseille","lat":43.2926,"lon":5.37613,"is_reserved":false,"is_disabled":false,"rental_uris":{"android":"levelo://app?vid=ad8253a1-48f9-4a09-891a-2d7866351f65","ios":"levelo://app?vid=ad8253a1-48f9-4a09-891a-2d7866351f65"},"vehicle_type_id":"4","last_reported":1744283311,"current_range_meters":19600,"station_id":"ce4bgi12rcd13ifvqb80","pricing_plan_id":"cebpf4jnsgd1na2vs0mg"},{"bike_id":"413a4128-63ae-4aff-92ab-a8ad42ef8c74","system_id":"levelo_inurba_marseille","lat":43.28669,"lon":5.38663,"is_reserved":false,"is_disabled":false,"rental_uris":{"android":"levelo://app?vid=413a4128-63ae-4aff-92ab-a8ad42ef8c74","ios":"levelo://app?vid=413a4128-63ae-4aff-92ab-a8ad42ef8c74"},"vehicle_type_id":"4","last_reported":1744283311,"current_range_meters":19200,"station_id":"ce4bh492rcd13ifvqdug","pricing_plan_id":"cebpf4jnsgd1na2vs0mg"},{"bike_id":"f8a75475-cf38-4522-966f-691ab70920f1","system_id":"levelo_inurba_marseille","lat":43.23963,"lon":5.36627,"is_reserved":false,"is_disabled":false,"rental_uris":{"android":"levelo://app?vid=f8a75475-cf38-4522-966f-691ab70920f1","ios":"levelo://app?vid=f8a75475-cf38-4522-966f-691ab70920f1"},"vehicle_type_id":"4","last_reported":1744283311,"current_range_meters":19600,"station_id":"ce4bhi12rcd13ifvqfp0","pricing_plan_id":"cebpf4jnsgd1na2vs0mg"},{"bike_id":"44439bf1-bfee-4ae8-b7d0-77cb10c77c14","system_id":"levelo_inurba_marseille","lat":43.28651,"lon":5.36335,"is_reserved":false,"is_disabled":false,"rental_uris":{"android":"levelo://app?vid=44439bf1-bfee-4ae8-b7d0-77cb10c77c14","ios":"levelo://app?vid=44439bf1-bfee-4ae8-b7d0-77cb10c77c14"},"vehicle_type_id":"4","last_reported":1744283311,"current_range_meters":20000,"station_id":"ce4bhah2rcd13ifvqej0","pricing_plan_id":"cebpf4jnsgd1na2vs0mg"},{"bike_id":"25fb06f4-18a8-47b2-8f0c-a4e815a75645","system_id":"levelo_inurba_marseille","lat":43.33719,"lon":5.39192,"is_reserved":false,"is_disabled":false,"rental_uris":{"android":"levelo://app?vid=25fb06f4-18a8-47b2-8f0c-a4e815a75645","ios":"levelo://app?vid=25fb06f4-18a8-47b2-8f0c-a4e815a75645"},"vehicle_type_id":"4","last_reported":1744283311,"current_range_meters":20000,"station_id":"ce4bhr92rcd13ifvqhsg","pricing_plan_id":"cebpf4jnsgd1na2vs0mg"},{"bike_id":"dabaf53f-3b51-48ae-986b-e8c37b4f2156","system_id":"levelo_inurba_marseille","lat":43.31516,"lon":5.38049,"is_reserved":false,"is_disabled":false,"rental_uris":{"android":"levelo://app?vid=dabaf53f-3b51-48ae-986b-e8c37b4f2156","ios":"levelo://app?vid=dabaf53f-3b51-48ae-986b-e8c37b4f2156"},"vehicle_type_id":"4","last_reported":1744283311,"current_range_meters":20000,"station_id":"ce4bhsp2rcd13ifvqi50","pricing_plan_id":"cebpf4jnsgd1na2vs0mg"},{"bike_id":"df1933e7-ec7d-4e65-ae83-cc0b0edd81df","system_id":"levelo_inurba_marseille","lat":43.28927,"lon":5.36407,"is_reserved":false,"is_disabled":false,"rental_uris":{"android":"levelo://app?vid=df1933e7-ec7d-4e65-ae83-cc0b0edd81df","ios":"levelo://app?vid=df1933e7-ec7d-4e65-ae83-cc0b0edd81df"},"vehicle_type_id":"4","last_reported":1744283311,"current_range_meters":20000,"station_id":"ce4bhc92rcd13ifvqetg","pricing_plan_id":"cebpf4jnsgd1na2vs0mg"},{"bike_id":"4f7a9a75-b340-46a3-8f69-52ae9295a11a","system_id":"levelo_inurba_marseille","lat":43.28617,"lon":5.35108,"is_reserved":false,"is_disabled":false,"rental_uris":{"android":"levelo://app?vid=4f7a9a75-b340-46a3-8f69-52ae9295a11a","ios":"levelo://app?vid=4f7a9a75-b340-46a3-8f69-52ae9295a11a"},"vehicle_type_id":"4","last_reported":1744283311,"current_range_meters":20000,"station_id":"ce4bhch2rcd13ifvqeug","pricing_plan_id":"cebpf4jnsgd1na2vs0mg"},{"bike_id":"ecabc87a-f065-421f-b491-97020e6e275c","system_id":"levelo_inurba_marseille","lat":43.23181,"lon":5.39984,"is_reserved":false,"is_disabled":false,"rental_uris":{"android":"levelo://app?vid=ecabc87a-f065-421f-b491-97020e6e275c","ios":"levelo://app?vid=ecabc87a-f065-421f-b491-97020e6e275c"},"vehicle_type_id":"4","last_reported":1744283311,"current_range_meters":20000,"station_id":"ce4bhn12rcd13ifvqgqg","pricing_plan_id":"cebpf4jnsgd1na2vs0mg"},{"bike_id":"3e405538-dbe1-4dcb-af44-a3d15512812d","system_id":"levelo_inurba_marseille","lat":43.33599,"lon":5.41001,"is_reserved":false,"is_disabled":false,"rental_uris":{"android":"levelo://app?vid=3e405538-dbe1-4dcb-af44-a3d15512812d","ios":"levelo://app?vid=3e405538-dbe1-4dcb-af44-a3d15512812d"},"vehicle_type_id":"4","last_reported":1744283311,"current_range_meters":20000,"station_id":"ce4bhqh2rcd13ifvqhmg","pricing_plan_id":"cebpf4jnsgd1na2vs0mg"},{"bike_id":"e61839bf-f681-4d70-a315-33f71f01e45f","system_id":"levelo_inurba_marseille","lat":43.30537,"lon":5.36686,"is_reserved":false,"is_disabled":false,"rental_uris":{"android":"levelo://app?vid=e61839bf-f681-4d70-a315-33f71f01e45f","ios":"levelo://app?vid=e61839bf-f681-4d70-a315-33f71f01e45f"},"vehicle_type_id":"4","last_reported":1744283311,"current_range_meters":20000,"station_id":"ce4bgrp2rcd13ifvqc9g","pricing_plan_id":"cebpf4jnsgd1na2vs0mg"},{"bike_id":"d43b77db-9bd3-4428-badc-36b3eeadc6b1","system_id":"levelo_inurba_marseille","lat":43.313547,"lon":5.367144,"is_reserved":false,"is_disabled":false,"rental_uris":{"android":"levelo://app?vid=d43b77db-9bd3-4428-badc-36b3eeadc6b1","ios":"levelo://app?vid=d43b77db-9bd3-4428-badc-36b3eeadc6b1"},"vehicle_type_id":"4","last_reported":1744283311,"current_range_meters":20000,"station_id":"ce4bgr92rcd13ifvqc6g","pricing_plan_id":"cebpf4jnsgd1na2vs0mg"},{"bike_id":"d41ae61a-63da-4c5b-9ca3-0fc5a06df94c","system_id":"levelo_inurba_marseille","lat":43.312256,"lon":5.368627,"is_reserved":false,"is_disabled":false,"rental_uris":{"android":"levelo://app?vid=d41ae61a-63da-4c5b-9ca3-0fc5a06df94c","ios":"levelo://app?vid=d41ae61a-63da-4c5b-9ca3-0fc5a06df94c"},"vehicle_type_id":"4","last_reported":1744283311,"current_range_meters":20400,"station_id":"ce4bgl92rcd13ifvqbq0","pricing_plan_id":"cebpf4jnsgd1na2vs0mg"},{"bike_id":"ef291804-1477-432e-b153-82ea15725418","system_id":"levelo_inurba_marseille","lat":43.33742,"lon":5.37454,"is_reserved":false,"is_disabled":false,"rental_uris":{"android":"levelo://app?vid=ef291804-1477-432e-b153-82ea15725418","ios":"levelo://app?vid=ef291804-1477-432e-b153-82ea15725418"},"vehicle_type_id":"4","last_reported":1744283311,"current_range_meters":20400,"station_id":"","pricing_plan_id":"cebpf4jnsgd1na2vs0mg"},{"bike_id":"2dbc48bd-dc29-4a13-ae41-9d5130cb6453","system_id":"levelo_inurba_marseille","lat":43.30414,"lon":5.39739,"is_reserved":false,"is_disabled":false,"rental_uris":{"android":"levelo://app?vid=2dbc48bd-dc29-4a13-ae41-9d5130cb6453","ios":"levelo://app?vid=2dbc48bd-dc29-4a13-ae41-9d5130cb6453"},"vehicle_type_id":"4","last_reported":1744283311,"current_range_meters":20400,"station_id":"ce4bh092rcd13ifvqd20","pricing_plan_id":"cebpf4jnsgd1na2vs0mg"},{"bike_id":"8c58f2fa-99e1-41f8-bf90-9c1648b679b1","system_id":"levelo_inurba_marseille","lat":43.27304,"lon":5.41448,"is_reserved":false,"is_disabled":false,"rental_uris":{"android":"levelo://app?vid=8c58f2fa-99e1-41f8-bf90-9c1648b679b1","ios":"levelo://app?vid=8c58f2fa-99e1-41f8-bf90-9c1648b679b1"},"vehicle_type_id":"4","last_reported":1744283311,"current_range_meters":20400,"station_id":"","pricing_plan_id":"cebpf4jnsgd1na2vs0mg"},{"bike_id":"489c2cfc-9f26-4f3e-8ae9-bb4a1299d65e","system_id":"levelo_inurba_marseille","lat":43.3132,"lon":5.39686,"is_reserved":false,"is_disabled":false,"rental_uris":{"android":"levelo://app?vid=489c2cfc-9f26-4f3e-8ae9-bb4a1299d65e","ios":"levelo://app?vid=489c2cfc-9f26-4f3e-8ae9-bb4a1299d65e"},"vehicle_type_id":"4","last_reported":1744283311,"current_range_meters":20800,"station_id":"ce4bgvp2rcd13ifvqcu0","pricing_plan_id":"cebpf4jnsgd1na2vs0mg"},{"bike_id":"e6b46440-0b2a-45ad-a7e2-d77403e9665a","system_id":"levelo_inurba_marseille","lat":43.27375,"lon":5.36257,"is_reserved":false,"is_disabled":false,"rental_uris":{"android":"levelo://app?vid=e6b46440-0b2a-45ad-a7e2-d77403e9665a","ios":"levelo://app?vid=e6b46440-0b2a-45ad-a7e2-d77403e9665a"},"vehicle_type_id":"4","last_reported":1744283311,"current_range_meters":20800,"station_id":"ce4bhbh2rcd13ifvqeo0","pricing_plan_id":"cebpf4jnsgd1na2vs0mg"},{"bike_id":"4c893399-b4ed-40ed-a49f-713da320f269","system_id":"levelo_inurba_marseille","lat":43.29861,"lon":5.37841,"is_reserved":false,"is_disabled":false,"rental_uris":{"android":"levelo://app?vid=4c893399-b4ed-40ed-a49f-713da320f269","ios":"levelo://app?vid=4c893399-b4ed-40ed-a49f-713da320f269"},"vehicle_type_id":"4","last_reported":1744283311,"current_range_meters":20800,"station_id":"","pricing_plan_id":"cebpf4jnsgd1na2vs0mg"},{"bike_id":"cfa1fdc0-c03e-46f7-847c-c6f9ddfd292b","system_id":"levelo_inurba_marseille","lat":43.28632,"lon":5.3508,"is_reserved":false,"is_disabled":false,"rental_uris":{"android":"levelo://app?vid=cfa1fdc0-c03e-46f7-847c-c6f9ddfd292b","ios":"levelo://app?vid=cfa1fdc0-c03e-46f7-847c-c6f9ddfd292b"},"vehicle_type_id":"4","last_reported":1744283311,"current_range_meters":20800,"station_id":"ce4bhch2rcd13ifvqeug","pricing_plan_id":"cebpf4jnsgd1na2vs0mg"},{"bike_id":"252e6331-d82e-408c-8de8-c218ac5ed3fe","system_id":"levelo_inurba_marseille","lat":43.295401,"lon":5.374975,"is_reserved":false,"is_disabled":false,"rental_uris":{"android":"levelo://app?vid=252e6331-d82e-408c-8de8-c218ac5ed3fe","ios":"levelo://app?vid=252e6331-d82e-408c-8de8-c218ac5ed3fe"},"vehicle_type_id":"4","last_reported":1744283311,"current_range_meters":20800,"station_id":"ce4bhq12rcd13ifvqhig","pricing_plan_id":"cebpf4jnsgd1na2vs0mg"},{"bike_id":"6ec63e92-17be-489a-b180-fcee840b9925","system_id":"levelo_inurba_marseille","lat":43.27941,"lon":5.41053,"is_reserved":false,"is_disabled":false,"rental_uris":{"android":"levelo://app?vid=6ec63e92-17be-489a-b180-fcee840b9925","ios":"levelo://app?vid=6ec63e92-17be-489a-b180-fcee840b9925"},"vehicle_type_id":"4","last_reported":1744283311,"current_range_meters":20800,"station_id":"ce4bhnp2rcd13ifvqh0g","pricing_plan_id":"cebpf4jnsgd1na2vs0mg"},{"bike_id":"1aa34441-ec76-4ac1-80df-a2652e96e795","system_id":"levelo_inurba_marseille","lat":43.29056,"lon":5.35924,"is_reserved":false,"is_disabled":false,"rental_uris":{"android":"levelo://app?vid=1aa34441-ec76-4ac1-80df-a2652e96e795","ios":"levelo://app?vid=1aa34441-ec76-4ac1-80df-a2652e96e795"},"vehicle_type_id":"4","last_reported":1744283311,"current_range_meters":21600,"station_id":"ce4bha92rcd13ifvqeg0","pricing_plan_id":"cebpf4jnsgd1na2vs0mg"},{"bike_id":"21cbca67-db8f-4552-8442-c4dac0cca857","system_id":"levelo_inurba_marseille","lat":43.2318,"lon":5.39993,"is_reserved":false,"is_disabled":false,"rental_uris":{"android":"levelo://app?vid=21cbca67-db8f-4552-8442-c4dac0cca857","ios":"levelo://app?vid=21cbca67-db8f-4552-8442-c4dac0cca857"},