{"last_updated":1730243323,"ttl":60,"version":"2.2","data":{"bikes":[{"bike_id":"e0594c9b-1912-4f09-958a-91f8a4561c29","system_id":"levelo_inurba_marseille","lat":43.24389,"lon":5.37049,"is_reserved":false,"is_disabled":false,"rental_uris":{"android":"levelo://app?vid=e0594c9b-1912-4f09-958a-91f8a4561c29","ios":"levelo://app?vid=e0594c9b-1912-4f09-958a-91f8a4561c29"},"vehicle_type_id":"4","last_reported":1730243323,"current_range_meters":39200,"station_id":"ce4bhhh2rcd13ifvqfk0","pricing_plan_id":"cebpf4jnsgd1na2vs0mg"},{"bike_id":"4ec6463a-7997-42f6-88b2-6fda5a71c163","system_id":"levelo_inurba_marseille","lat":43.25105,"lon":5.40324,"is_reserved":false,"is_disabled":false,"rental_uris":{"android":"levelo://app?vid=4ec6463a-7997-42f6-88b2-6fda5a71c163","ios":"levelo://app?vid=4ec6463a-7997-42f6-88b2-6fda5a71c163"},"vehicle_type_id":"4","last_reported":1730243323,"current_range_meters":38800,"station_id":"ce4bhlh2rcd13ifvqgig","pricing_plan_id":"cebpf4jnsgd1na2vs0mg"},{"bike_id":"6523fb91-c5ac-49f8-b7fa-5c815f2eea77","system_id":"levelo_inurba_marseille","lat":43.27305,"lon":5.43803,"is_reserved":false,"is_disabled":false,"rental_uris":{"android":"levelo://app?vid=6523fb91-c5ac-49f8-b7fa-5c815f2eea77","ios":"levelo://app?vid=6523fb91-c5ac-49f8-b7fa-5c815f2eea77"},"vehicle_type_id":"4","last_reported":1730243323,"current_range_meters":27200,"station_id":"","pricing_plan_id":"cebpf4jnsgd1na2vs0mg"},{"bike_id":"6daefb7d-890b-4927-bca4-1e9b57c2727d","system_id":"levelo_inurba_marseille","lat":43.27186,"lon":5.40993,"is_reserved":false,"is_disabled":false,"rental_uris":{"android":"levelo://app?vid=6daefb7d-890b-4927-bca4-1e9b57c2727d","ios":"levelo://app?vid=6daefb7d-890b-4927-bca4-1e9b57c2727d"},"vehicle_type_id":"4","last_reported":1730243323,"current_range_meters":4800,"station_id":"ce4bhl12rcd13ifvqgf0","pricing_plan_id":"cebpf4jnsgd1na2vs0mg"},{"bike_id":"e1d18b81-986d-4e87-b61a-22535be9c7fe","system_id":"levelo_inurba_marseille","lat":43.27068,"lon":5.42274,"is_reserved":false,"is_disabled":false,"rental_uris":{"android":"levelo://app?vid=e1d18b81-986d-4e87-b61a-22535be9c7fe","ios":"levelo://app?vid=e1d18b81-986d-4e87-b61a-22535be9c7fe"},"vehicle_type_id":"4","last_reported":1730243323,"current_range_meters":30000,"station_id":"ce4bhk92rcd13ifvqgb0","pricing_plan_id":"cebpf4jnsgd1na2vs0mg"},{"bike_id":"389a0521-41ae-44e7-b647-f0e587e1b12f","system_id":"levelo_inurba_marseille","lat":43.24186,"lon":5.39736,"is_reserved":false,"is_disabled":false,"rental_uris":{"android":"levelo://app?vid=389a0521-41ae-44e7-b647-f0e587e1b12f","ios":"levelo://app?vid=389a0521-41ae-44e7-b647-f0e587e1b12f"},"vehicle_type_id":"4","last_reported":1730243323,"current_range_meters":13600,"station_id":"ce4bhn12rcd13ifvqgpg","pricing_plan_id":"cebpf4jnsgd1na2vs0mg"},{"bike_id":"1a5154eb-f122-438b-b30e-b16adba008c7","system_id":"levelo_inurba_marseille","lat":43.31489,"lon":5.37296,"is_reserved":false,"is_disabled":false,"rental_uris":{"android":"levelo://app?vid=1a5154eb-f122-438b-b30e-b16adba008c7","ios":"levelo://app?vid=1a5154eb-f122-438b-b30e-b16adba008c7"},"vehicle_type_id":"4","last_reported":1730243323,"current_range_meters":16400,"station_id":"ce4bgt12rcd13ifvqcd0","pricing_plan_id":"cebpf4jnsgd1na2vs0mg"},{"bike_id":"e69003c5-61d9-410c-8600-03d60dc443c9","system_id":"levelo_inurba_marseille","lat":43.3249,"lon":5.36582,"is_reserved":false,"is_disabled":false,"rental_uris":{"android":"levelo://app?vid=e69003c5-61d9-410c-8600-03d60dc443c9","ios":"levelo://app?vid=e69003c5-61d9-410c-8600-03d60dc443c9"},"vehicle_type_id":"4","last_reported":1730243323,"current_range_meters":32800,"station_id":"ce4bhs12rcd13ifvqhvg","pricing_plan_id":"cebpf4jnsgd1na2vs0mg"},{"bike_id":"9cd28ed1-51d4-469f-80b1-db1aa7224fd9","system_id":"levelo_inurba_marseille","lat":43.3189,"lon":5.40734,"is_reserved":false,"is_disabled":false,"rental_uris":{"android":"levelo://app?vid=9cd28ed1-51d4-469f-80b1-db1aa7224fd9","ios":"levelo://app?vid=9cd28ed1-51d4-469f-80b1-db1aa7224fd9"},"vehicle_type_id":"4","last_reported":1730243323,"current_range_meters":32400,"station_id":"ce4bhq12rcd13ifvqhig","pricing_plan_id":"cebpf4jnsgd1na2vs0mg"},{"bike_id":"00408809-526a-4e3b-bd4d-a27fc6e05da8","system_id":"levelo_inurba_marseille","lat":43.24807,"lon":5.37462,"is_reserved":false,"is_disabled":false,"rental_uris":{"android":"levelo://app?vid=00408809-526a-4e3b-bd4d-a27fc6e05da8","ios":"levelo://app?vid=00408809-526a-4e3b-bd4d-a27fc6e05da8"},"vehicle_type_id":"4","last_reported":1730243323,"current_range_meters":38800,"station_id":"ce4bhgh2rcd13ifvqfb0","pricing_plan_id":"cebpf4jnsgd1na2vs0mg"},{"bike_id":"515e3cda-ebf4-4224-a67b-bc5f9d833f60","system_id":"levelo_inurba_marseille","lat":43.24544,"lon":5.39519,"is_reserved":false,"is_disabled":false,"rental_uris":{"android":"levelo://app?vid=515e3cda-ebf4-4224-a67b-bc5f9d833f60","ios":"levelo://app?vid=515e3cda-ebf4-4224-a67b-bc5f9d833f60"},"vehicle_type_id":"4","last_reported":1730243323,"current_range_meters":24800,"station_id":"ce4bhlp2rcd13ifvqgjg","pricing_plan_id":"cebpf4jnsgd1na2vs0mg"},{"bike_id":"a0f5d9ec-bdca-49ed-9410-eea9bb121fec","system_id":"levelo_inurba_marseille","lat":43.32661,"lon":5.40989,"is_reserved":false,"is_disabled":false,"rental_uris":{"android":"levelo://app?vid=a0f5d9ec-bdca-49ed-9410-eea9bb121fec","ios":"levelo://app?vid=a0f5d9ec-bdca-49ed-9410-eea9bb121fec"},"vehicle_type_id":"4","last_reported":1730243323,"current_range_meters":7200,"station_id":"ce4bhpp2rcd13ifvqhgg","pricing_plan_id":"cebpf4jnsgd1na2vs0mg"},{"bike_id":"66a04495-273a-47df-ac95-d7c1740f1ef3","system_id":"levelo_inurba_marseille","lat":43.278245,"lon":5.406905,"is_reserved":false,"is_disabled":false,"rental_uris":{"android":"levelo://app?vid=66a04495-273a-47df-ac95-d7c1740f1ef3","ios":"levelo://app?vid=66a04495-273a-47df-ac95-d7c1740f1ef3"},"vehicle_type_id":"4","last_reported":1730243323,"current_range_meters":25600,"station_id":"ce4bhnh2rcd13ifvqgtg","pricing_plan_id":"cebpf4jnsgd1na2vs0mg"},{"bike_id":"15933160-4316-4941-9faf-5c83148d9fb7","system_id":"levelo_inurba_marseille","lat":43.2407,"lon":5.37747,"is_reserved":false,"is_disabled":false,"rental_uris":{"android":"levelo://app?vid=15933160-4316-4941-9faf-5c83148d9fb7","ios":"levelo://app?vid=15933160-4316-4941-9faf-5c83148d9fb7"},"vehicle_type_id":"4","last_reported":1730243323,"current_range_meters":35200,"station_id":"ce4bhnp2rcd13ifvqgvg","pricing_plan_id":"cebpf4jnsgd1na2vs0mg"},{"bike_id":"c35448b9-cc2f-40e5-b9a8-99e3d90dc779","system_id":"levelo_inurba_marseille","lat":43.28695,"lon":5.37399,"is_reserved":false,"is_disabled":false,"rental_uris":{"android":"levelo://app?vid=c35448b9-cc2f-40e5-b9a8-99e3d90dc779","ios":"levelo://app?vid=c35448b9-cc2f-40e5-b9a8-99e3d90dc779"},"vehicle_type_id":"4","last_reported":1730243323,"current_range_meters":29600,"station_id":"ce4bh3p2rcd13ifvqdq0","pricing_plan_id":"cebpf4jnsgd1na2vs0mg"},{"bike_id":"76ea27d3-8d3c-4f97-a1d8-37bf21c583fb","system_id":"levelo_inurba_marseille","lat":43.306,"lon":5.3722,"is_reserved":false,"is_disabled":false,"rental_uris":{"android":"levelo://app?vid=76ea27d3-8d3c-4f97-a1d8-37bf21c583fb","ios":"levelo://app?vid=76ea27d3-8d3c-4f97-a1d8-37bf21c583fb"},"vehicle_type_id":"4","last_reported":1730243323,"current_range_meters":38800,"station_id":"ce4bgqh2rcd13ifvqc4g","pricing_plan_id":"cebpf4jnsgd1na2vs0mg"},{"bike_id":"98af7aaf-680f-4013-9acb-3127feae2bb0","system_id":"levelo_inurba_marseille","lat":43.33027,"lon":5.39031,"is_reserved":false,"is_disabled":false,"rental_uris":{"android":"levelo://app?vid=98af7aaf-680f-4013-9acb-3127feae2bb0","ios":"levelo://app?vid=98af7aaf-680f-4013-9acb-3127feae2bb0"},"vehicle_type_id":"4","last_reported":1730243323,"current_range_meters":38400,"station_id":"ce4bhr92rcd13ifvqhrg","pricing_plan_id":"cebpf4jnsgd1na2vs0mg"},{"bike_id":"7521e550-9a43-4fd3-a3fd-d34415b2a0c9","system_id":"levelo_inurba_marseille","lat":43.28851,"lon":5.35857,"is_reserved":false,"is_disabled":false,"rental_uris":{"android":"levelo://app?vid=7521e550-9a43-4fd3-a3fd-d34415b2a0c9","ios":"levelo://app?vid=7521e550-9a43-4fd3-a3fd-d34415b2a0c9"},"vehicle_type_id":"4","last_reported":1730243323,"current_range_meters":25200,"station_id":"ce4bhb12rcd13ifvqem0","pricing_plan_id":"cebpf4jnsgd1na2vs0mg"},{"bike_id":"f609e916-5d35-4b69-9f00-3c09379a75df","system_id":"levelo_inurba_marseille","lat":43.27205,"lon":5.39142,"is_reserved":false,"is_disabled":false,"rental_uris":{"android":"levelo://app?vid=f609e916-5d35-4b69-9f00-3c09379a75df","ios":"levelo://app?vid=f609e916-5d35-4b69-9f00-3c09379a75df"},"vehicle_type_id":"4","last_reported":1730243323,"current_range_meters":38800,"station_id":"ce4bhhp2rcd13ifvqfm0","pricing_plan_id":"cebpf4jnsgd1na2vs0mg"},{"bike_id":"50068b71-3d0b-4b19-bdbd-00e391d8fdc1","system_id":"levelo_inurba_marseille","lat":43.31269,"lon":5.40172,"is_reserved":false,"is_disabled":false,"rental_uris":{"android":"levelo://app?vid=50068b71-3d0b-4b19-bdbd-00e391d8fdc1","ios":"levelo://app?vid=50068b71-3d0b-4b19-bdbd-00e391d8fdc1"},"vehicle_type_id":"4","last_reported":1730243323,"current_range_meters":22000,"station_id":"ce4bh092rcd13ifvqd30","pricing_plan_id":"cebpf4jnsgd1na2vs0mg"},{"bike_id":"9f536bbb-1184-45c8-b6cd-9f3efa3b0c88","system_id":"levelo_inurba_marseille","lat":43.32368,"lon":5.3888,"is_reserved":false,"is_disabled":false,"rental_uris":{"android":"levelo://app?vid=9f536bbb-1184-45c8-b6cd-9f3efa3b0c88","ios":"levelo://app?vid=9f536bbb-1184-45c8-b6cd-9f3efa3b0c88"},"vehicle_type_id":"4","last_reported":1730243323,"current_range_meters":37600,"station_id":"ce4bhqp2rcd13ifvqhog","pricing_plan_id":"cebpf4jnsgd1na2vs0mg"},{"bike_id":"0c074560-8ac3-46f4-bbf6-3d47e9833728","system_id":"levelo_inurba_marseille","lat":43.25006,"lon":5.38914,"is_reserved":false,"is_disabled":false,"rental_uris":{"android":"levelo://app?vid=0c074560-8ac3-46f4-bbf6-3d47e9833728","ios":"levelo://app?vid=0c074560-8ac3-46f4-bbf6-3d47e9833728"},"vehicle_type_id":"4","last_reported":1730243323,"current_range_meters":38800,"station_id":"ce4bhgp2rcd13ifvqfd0","pricing_plan_id":"cebpf4jnsgd1na2vs0mg"},{"bike_id":"aa8e5bc8-4af6-4a20-b890-90006b3b95bd","system_id":"levelo_inurba_marseille","lat":43.27909,"lon":5.39585,"is_reserved":false,"is_disabled":false,"rental_uris":{"android":"levelo://app?vid=aa8e5bc8-4af6-4a20-b890-90006b3b95bd","ios":"levelo://app?vid=aa8e5bc8-4af6-4a20-b890-90006b3b95bd"},"vehicle_type_id":"4","last_reported":1730243323,"current_range_meters":38800,"station_id":"ce4bhf92rcd13ifvqf40","pricing_plan_id":"cebpf4jnsgd1na2vs0mg"},{"bike_id":"6b17b8c2-e4c3-4a48-b5ea-96c0e708e870","system_id":"levelo_inurba_marseille","lat":43.31328,"lon":5.39693,"is_reserved":false,"is_disabled":false,"rental_uris":{"android":"levelo://app?vid=6b17b8c2-e4c3-4a48-b5ea-96c0e708e870","ios":"levelo://app?vid=6b17b8c2-e4c3-4a48-b5ea-96c0e708e870"},"vehicle_type_id":"4","last_reported":1730243323,"current_range_meters":16800,"station_id":"ce4bgvp2rcd13ifvqcu0","pricing_plan_id":"cebpf4jnsgd1na2vs0mg"},{"bike_id":"aac1fadb-3d5d-46a5-966a-8048815a5d7b","system_id":"levelo_inurba_marseille","lat":43.29865,"lon":5.39729,"is_reserved":false,"is_disabled":false,"rental_uris":{"android":"levelo://app?vid=aac1fadb-3d5d-46a5-966a-8048815a5d7b","ios":"levelo://app?vid=aac1fadb-3d5d-46a5-966a-8048815a5d7b"},"vehicle_type_id":"4","last_reported":1730243323,"current_range_meters":38800,"station_id":"ce4bh0h2rcd13ifvqd50","pricing_plan_id":"cebpf4jnsgd1na2vs0mg"},{"bike_id":"3713ca50-eced-45b1-bf48-4c2e0879cc91","system_id":"levelo_inurba_marseille","lat":43.24542,"lon":5.39535,"is_reserved":false,"is_disabled":false,"rental_uris":{"android":"levelo://app?vid=3713ca50-eced-45b1-bf48-4c2e0879cc91","ios":"levelo://app?vid=3713ca50-eced-45b1-bf48-4c2e0879cc91"},"vehicle_type_id":"4","last_reported":1730243323,"current_range_meters":16400,"station_id":"ce4bhlp2rcd13ifvqgjg","pricing_plan_id":"cebpf4jnsgd1na2vs0mg"},{"bike_id":"7e1dac73-d14a-4cac-9a8f-3d04b3161b4c","system_id":"levelo_inurba_marseille","lat":43.26535,"lon":5.37293,"is_reserved":false,"is_disabled":false,"rental_uris":{"android":"levelo://app?vid=7e1dac73-d14a-4cac-9a8f-3d04b3161b4c","ios":"levelo://app?vid=7e1dac73-d14a-4cac-9a8f-3d04b3161b4c"},"vehicle_type_id":"4","last_reported":1730243323,"current_range_meters":38800,"station_id":"ce4bhg12rcd13ifvqf70","pricing_plan_id":"cebpf4jnsgd1na2vs0mg"},{"bike_id":"44452cab-0ed3-46c5-ae89-8653a35bc3ed","system_id":"levelo_inurba_marseille","lat":43.292608,"lon":5.409096,"is_reserved":false,"is_disabled":false,"rental_uris":{"android":"levelo://app?vid=44452cab-0ed3-46c5-ae89-8653a35bc3ed","ios":"levelo://app?vid=44452cab-0ed3-46c5-ae89-8653a35bc3ed"},"vehicle_type_id":"4","last_reported":1730243323,"current_range_meters":21600,"station_id":"ce4bh192rcd13ifvqdc0","pricing_plan_id":"cebpf4jnsgd1na2vs0mg"},{"bike_id":"caf349c8-ed3b-4304-909b-160d602b00a5","system_id":"levelo_inurba_marseille","lat":43.317077,"lon":5.377496,"is_reserved":false,"is_disabled":false,"rental_uris":{"android":"levelo://app?vid=caf349c8-ed3b-4304-909b-160d602b00a5","ios":"levelo://app?vid=caf349c8-ed3b-4304-909b-160d602b00a5"},"vehicle_type_id":"4","last_reported":1730243323,"current_range_meters":8000,"station_id":"ce4bgth2rcd13ifvqch0","pricing_plan_id":"cebpf4jnsgd1na2vs0mg"},{"bike_id":"3cc74485-2795-4d4f-aa5a-b06c312e894e","system_id":"levelo_inurba_marseille","lat":43.22932,"lon":5.35376,"is_reserved":false,"is_disabled":false,"rental_uris":{"android":"levelo://app?vid=3cc74485-2795-4d4f-aa5a-b06c312e894e","ios":"levelo://app?vid=3cc74485-2795-4d4f-aa5a-b06c312e894e"},"vehicle_type_id":"4","last_reported":1730243323,"current_range_meters":38800,"station_id":"cpo3532slgdg3j2ikp40","pricing_plan_id":"cebpf4jnsgd1na2vs0mg"},{"bike_id":"f806c707-4ddf-44ce-9465-396ac5def657","system_id":"levelo_inurba_marseille","lat":43.24802,"lon":5.37453,"is_reserved":false,"is_disabled":false,"rental_uris":{"android":"levelo://app?vid=f806c707-4ddf-44ce-9465-396ac5def657","ios":"levelo://app?vid=f806c707-4ddf-44ce-9465-396ac5def657"},"vehicle_type_id":"4","last_reported":1730243323,"current_range_meters":28000,"station_id":"ce4bhgh2rcd13ifvqfb0","pricing_plan_id":"cebpf4jnsgd1na2vs0mg"},{"bike_id":"197951b6-f51d-4e0e-9015-1307af51213e","system_id":"levelo_inurba_marseille","lat":43.31467,"lon":5.372935,"is_reserved":false,"is_disabled":false,"rental_uris":{"android":"levelo://app?vid=197951b6-f51d-4e0e-9015-1307af51213e","ios":"levelo://app?vid=197951b6-f51d-4e0e-9015-1307af51213e"},"vehicle_type_id":"4","last_reported":1730243323,"current_range_meters":8400,"station_id":"ce4bgt12rcd13ifvqcd0","pricing_plan_id":"cebpf4jnsgd1na2vs0mg"},{"bike_id":"b9b4828d-0123-48c1-afec-56ec62c16223","system_id":"levelo_inurba_marseille","lat":43.31359,"lon":5.38504,"is_reserved":false,"is_disabled":false,"rental_uris":{"android":"levelo://app?vid=b9b4828d-0123-48c1-afec-56ec62c16223","ios":"levelo://app?vid=b9b4828d-0123-48c1-afec-56ec62c16223"},"vehicle_type_id":"4","last_reported":1730243323,"current_range_meters":38800,"station_id":"ce4bgt92rcd13ifvqcf0","pricing_plan_id":"cebpf4jnsgd1na2vs0mg"},{"bike_id":"5350987e-6b1e-48a4-9d22-80eb92ebd932","system_id":"levelo_inurba_marseille","lat":43.31707,"lon":5.43702,"is_reserved":false,"is_disabled":false,"rental_uris":{"android":"levelo://app?vid=5350987e-6b1e-48a4-9d22-80eb92ebd932","ios":"levelo://app?vid=5350987e-6b1e-48a4-9d22-80eb92ebd932"},"vehicle_type_id":"4","last_reported":1730243323,"current_range_meters":16000,"station_id":"ce4bhp92rcd13ifvqhcg","pricing_plan_id":"cebpf4jnsgd1na2vs0mg"},{"bike_id":"84f26cf8-5f63-4734-b9e0-23c9b5de6ad1","system_id":"levelo_inurba_marseille","lat":43.30803,"lon":5.3815,"is_reserved":false,"is_disabled":false,"rental_uris":{"android":"levelo://app?vid=84f26cf8-5f63-4734-b9e0-23c9b5de6ad1","ios":"levelo://app?vid=84f26cf8-5f63-4734-b9e0-23c9b5de6ad1"},"vehicle_type_id":"4","last_reported":1730243323,"current_range_meters":15200,"station_id":"ce4bgt12rcd13ifvqce0","pricing_plan_id":"cebpf4jnsgd1na2vs0mg"},{"bike_id":"a7df28aa-87c8-4736-aecb-96c1ea5fecdb","system_id":"levelo_inurba_marseille","lat":43.27626,"lon":5.36112,"is_reserved":false,"is_disabled":false,"rental_uris":{"android":"levelo://app?vid=a7df28aa-87c8-4736-aecb-96c1ea5fecdb","ios":"levelo://app?vid=a7df28aa-87c8-4736-aecb-96c1ea5fecdb"},"vehicle_type_id":"4","last_reported":1730243323,"current_range_meters":22400,"station_id":"ce4bgj92rcd13ifvqbe0","pricing_plan_id":"cebpf4jnsgd1na2vs0mg"},{"bike_id":"79753c44-2696-48d8-8503-a28f55e7f2ea","system_id":"levelo_inurba_marseille","lat":43.31332,"lon":5.39697,"is_reserved":false,"is_disabled":false,"rental_uris":{"android":"levelo://app?vid=79753c44-2696-48d8-8503-a28f55e7f2ea","ios":"levelo://app?vid=79753c44-2696-48d8-8503-a28f55e7f2ea"},"vehicle_type_id":"4","last_reported":1730243323,"current_range_meters":30400,"station_id":"ce4bgvp2rcd13ifvqcu0","pricing_plan_id":"cebpf4jnsgd1na2vs0mg"},{"bike_id":"323b14c8-d0c0-4d87-8455-760ba32def1b","system_id":"levelo_inurba_marseille","lat":43.29797,"lon":5.39344,"is_reserved":false,"is_disabled":false,"rental_uris":{"android":"levelo://app?vid=323b14c8-d0c0-4d87-8455-760ba32def1b","ios":"levelo://app?vid=323b14c8-d0c0-4d87-8455-760ba32def1b"},"vehicle_type_id":"4","last_reported":1730243323,"current_range_meters":32800,"station_id":"chh1huq6cuj3fo74tm60","pricing_plan_id":"cebpf4jnsgd1na2vs0mg"},{"bike_id":"77ef2a38-e3ef-4510-81b3-93939981e4f1","system_id":"levelo_inurba_marseille","lat":43.30589,"lon":5.39345,"is_reserved":false,"is_disabled":false,"rental_uris":{"android":"levelo://app?vid=77ef2a38-e3ef-4510-81b3-93939981e4f1","ios":"levelo://app?vid=77ef2a38-e3ef-4510-81b3-93939981e4f1"},"vehicle_type_id":"4","last_reported":1730243323,"current_range_meters":19200,"station_id":"ce4bh0p2rcd13ifvqd80","pricing_plan_id":"cebpf4jnsgd1na2vs0mg"},{"bike_id":"04074040-bacb-4d8e-9554-b6d48202d7e9","system_id":"levelo_inurba_marseille","lat":43.27912,"lon":5.39582,"is_reserved":false,"is_disabled":false,"rental_uris":{"android":"levelo://app?vid=04074040-bacb-4d8e-9554-b6d48202d7e9","ios":"levelo://app?vid=04074040-bacb-4d8e-9554-b6d48202d7e9"},"vehicle_type_id":"4","last_reported":1730243323,"current_range_meters":38000,"station_id":"ce4bhf92rcd13ifvqf40","pricing_plan_id":"cebpf4jnsgd1na2vs0mg"},{"bike_id":"34630d18-75dd-4aec-9bb1-0ce7aab0afdf","system_id":"levelo_inurba_marseille","lat":43.2468,"lon":5.38163,"is_reserved":false,"is_disabled":false,"rental_uris":{"android":"levelo://app?vid=34630d18-75dd-4aec-9bb1-0ce7aab0afdf","ios":"levelo://app?vid=34630d18-75dd-4aec-9bb1-0ce7aab0afdf"},"vehicle_type_id":"4","last_reported":1730243323,"current_range_meters":32400,"station_id":"ce4bhih2rcd13ifvqfr0","pricing_plan_id":"cebpf4jnsgd1na2vs0mg"},{"bike_id":"c5ab8f86-3c93-447c-b767-f885bdebd2ff","system_id":"levelo_inurba_marseille","lat":43.27073,"lon":5.42272,"is_reserved":false,"is_disabled":false,"rental_uris":{"android":"levelo://app?vid=c5ab8f86-3c93-447c-b767-f885bdebd2ff","ios":"levelo://app?vid=c5ab8f86-3c93-447c-b767-f885bdebd2ff"},"vehicle_type_id":"4","last_reported":1730243323,"current_range_meters":39200,"station_id":"ce4bhk92rcd13ifvqgb0","pricing_plan_id":"cebpf4jnsgd1na2vs0mg"},{"bike_id":"6bfb62a6-63c3-4bd5-8676-7b2f3dd6580d","system_id":"levelo_inurba_marseille","lat":43.28155,"lon":5.42637,"is_reserved":false,"is_disabled":false,"rental_uris":{"android":"levelo://app?vid=6bfb62a6-63c3-4bd5-8676-7b2f3dd6580d","ios":"levelo://app?vid=6bfb62a6-63c3-4bd5-8676-7b2f3dd6580d"},"vehicle_type_id":"4","last_reported":1730243323,"current_range_meters":16800,"station_id":"ce4bhnh2rcd13ifvqgug","pricing_plan_id":"cebpf4jnsgd1na2vs0mg"},{"bike_id":"70bb78fe-4bef-4d56-a833-affc0bdfc9f3","system_id":"levelo_inurba_marseille","lat":43.23193,"lon":5.35558,"is_reserved":false,"is_disabled":false,"rental_uris":{"android":"levelo://app?vid=70bb78fe-4bef-4d56-a833-affc0bdfc9f3","ios":"levelo://app?vid=70bb78fe-4bef-4d56-a833-affc0bdfc9f3"},"vehicle_type_id":"4","last_reported":1730243323,"current_range_meters":38800,"station_id":"ce4bhu92rcd13ifvqi70","pricing_plan_id":"cebpf4jnsgd1na2vs0mg"},{"bike_id":"296d1ed8-f229-48e4-ac59-fe25b08d7434","system_id":"levelo_inurba_marseille","lat":43.29573,"lon":5.39974,"is_reserved":false,"is_disabled":false,"rental_uris":{"android":"levelo://app?vid=296d1ed8-f229-48e4-ac59-fe25b08d7434","ios":"levelo://app?vid=296d1ed8-f229-48e4-ac59-fe25b08d7434"},"vehicle_type_id":"4","last_reported":1730243323,"current_range_meters":38800,"station_id":"ce4bh312rcd13ifvqdj0","pricing_plan_id":"cebpf4jnsgd1na2vs0mg"},{"bike_id":"f93e13e9-5e33-4f80-b6e9-8ad091302a43","system_id":"levelo_inurba_marseille","lat":43.28846,"lon":5.35859,"is_reserved":false,"is_disabled":false,"rental_uris":{"android":"levelo://app?vid=f93e13e9-5e33-4f80-b6e9-8ad091302a43","ios":"levelo://app?vid=f93e13e9-5e33-4f80-b6e9-8ad091302a43"},"vehicle_type_id":"4","last_reported":1730243323,"current_range_meters":38400,"station_id":"ce4bhb12rcd13ifvqem0","pricing_plan_id":"cebpf4jnsgd1na2vs0mg"},{"bike_id":"1a23e5a8-eaa2-49bf-921e-448b5e886ed3","system_id":"levelo_inurba_marseille","lat":43.28107,"lon":5.3784,"is_reserved":false,"is_disabled":false,"rental_uris":{"android":"levelo://app?vid=1a23e5a8-eaa2-49bf-921e-448b5e886ed3","ios":"levelo://app?vid=1a23e5a8-eaa2-49bf-921e-448b5e886ed3"},"vehicle_type_id":"4","last_reported":1730243323,"current_range_meters":40000,"station_id":"ce4bha12rcd13ifvqee0","pricing_plan_id":"cebpf4jnsgd1na2vs0mg"},{"bike_id":"0790b19d-aa7b-4cc8-b334-e3c9e4892b72","system_id":"levelo_inurba_marseille","lat":43.28571,"lon":5.39482,"is_reserved":false,"is_disabled":false,"rental_uris":{"android":"levelo://app?vid=0790b19d-aa7b-4cc8-b334-e3c9e4892b72","ios":"levelo://app?vid=0790b19d-aa7b-4cc8-b334-e3c9e4892b72"},"vehicle_type_id":"4","last_reported":1730243323,"current_range_meters":26800,"station_id":"ce4bh292rcd13ifvqdg0","pricing_plan_id":"cebpf4jnsgd1na2vs0mg"},{"bike_id":"5c244c3d-8fd7-4c95-b825-2f7fe2f15994","system_id":"levelo_inurba_marseille","lat":43.23187,"lon":5.35546,"is_reserved":false,"is_disabled":false,"rental_uris":{"android":"levelo://app?vid=5c244c3d-8fd7-4c95-b825-2f7fe2f15994","ios":"levelo://app?vid=5c244c3d-8fd7-4c95-b825-2f7fe2f15994"},"vehicle_type_id":"4","last_reported":1730243323,"current_range_meters":39200,"station_id":"ce4bhu92rcd13ifvqi70","pricing_plan_id":"cebpf4jnsgd1na2vs0mg"},{"bike_id":"e16d5169-3d88-4409-adc2-393d6d4b963a","system_id":"levelo_inurba_marseille","lat":43.27498,"lon":5.42446,"is_reserved":false,"is_disabled":false,"rental_uris":{"android":"levelo://app?vid=e16d5169-3d88-4409-adc2-393d6d4b963a","ios":"levelo://app?vid=e16d5169-3d88-4409-adc2-393d6d4b963a"},"vehicle_type_id":"4","last_reported":1730243323,"current_range_meters":14000,"station_id":"ce4bhn92rcd13ifvqgrg","pricing_plan_id":"cebpf4jnsgd1na2vs0mg"},{"bike_id":"a55cec75-7211-434d-8bb2-95f2a4066741","system_id":"levelo_inurba_marseille","lat":43.24805,"lon":5.37458,"is_reserved":false,"is_disabled":false,"rental_uris":{"android":"levelo://app?vid=a55cec75-7211-434d-8bb2-95f2a4066741","ios":"levelo://app?vid=a55cec75-7211-434d-8bb2-95f2a4066741"},"vehicle_type_id":"4","last_reported":1730243323,"current_range_meters":6400,"station_id":"ce4bhgh2rcd13ifvqfb0","pricing_plan_id":"cebpf4jnsgd1na2vs0mg"},{"bike_id":"04818e08-2f69-464f-9b15-8e8b71b562c2","system_id":"levelo_inurba_marseille","lat":43.30271,"lon":5.39638,"is_reserved":false,"is_disabled":false,"rental_uris":{"android":"levelo://app?vid=04818e08-2f69-464f-9b15-8e8b71b562c2","ios":"levelo://app?vid=04818e08-2f69-464f-9b15-8e8b71b562c2"},"vehicle_type_id":"4","last_reported":1730243323,"current_range_meters":26800,"station_id":"ce4bh612rcd13ifvqe6g","pricing_plan_id":"cebpf4jnsgd1na2vs0mg"},{"bike_id":"e10ff328-93b2-4d6a-af26-12f189d78479","system_id":"levelo_inurba_marseille","lat":43.33721,"lon":5.39187,"is_reserved":false,"is_disabled":false,"rental_uris":{"android":"levelo://app?vid=e10ff328-93b2-4d6a-af26-12f189d78479","ios":"levelo://app?vid=e10ff328-93b2-4d6a-af26-12f189d78479"},"vehicle_type_id":"4","last_reported":1730243323,"current_range_meters":20000,"station_id":"ce4bhr92rcd13ifvqhsg","pricing_plan_id":"cebpf4jnsgd1na2vs0mg"},{"bike_id":"8fe952c7-d1f5-486e-a32b-0e7b70cce917","system_id":"levelo_inurba_marseille","lat":43.3237,"lon":5.38878,"is_reserved":false,"is_disabled":false,"rental_uris":{"android":"levelo://app?vid=8fe952c7-d1f5-486e-a32b-0e7b70cce917","ios":"levelo://app?vid=8fe952c7-d1f5-486e-a32b-0e7b70cce917"},"vehicle_type_id":"4","last_reported":1730243323,"current_range_meters":33200,"station_id":"ce4bhqp2rcd13ifvqhog","pricing_plan_id":"cebpf4jnsgd1na2vs0mg"},{"bike_id":"c6472a4b-15fb-475c-a800-9db188055ce2","system_id":"levelo_inurba_marseille","lat":43.25826,"lon":5.39423,"is_reserved":false,"is_disabled":false,"rental_uris":{"android":"levelo://app?vid=c6472a4b-15fb-475c-a800-9db188055ce2","ios":"levelo://app?vid=c6472a4b-15fb-475c-a800-9db188055ce2"},"vehicle_type_id":"4","last_reported":1730243323,"current_range_meters":16400,"station_id":"ce4bhip2rcd13ifvqft0","pricing_plan_id":"cebpf4jnsgd1na2vs0mg"},{"bike_id":"8cf45733-7884-4d00-89cb-dcc5bdeb6bc8","system_id":"levelo_inurba_marseille","lat":43.27906,"lon":5.38005,"is_reserved":false,"is_disabled":false,"rental_uris":{"android":"levelo://app?vid=8cf45733-7884-4d00-89cb-dcc5bdeb6bc8","ios":"levelo://app?vid=8cf45733-7884-4d00-89cb-dcc5bdeb6bc8"},"vehicle_type_id":"4","last_reported":1730243323,"current_range_meters":8000,"station_id":"ce4bhf92rcd13ifvqf50","pricing_plan_id":"cebpf4jnsgd1na2vs0mg"},{"bike_id":"5605e7e8-7b5f-4b34-8547-b7b667c952c4","system_id":"levelo_inurba_marseille","lat":43.2467,"lon":5.3816,"is_reserved":false,"is_disabled":false,"rental_uris":{"android":"levelo://app?vid=5605e7e8-7b5f-4b34-8547-b7b667c952c4","ios":"levelo://app?vid=5605e7e8-7b5f-4b34-8547-b7b667c952c4"},"vehicle_type_id":"4","last_reported":1730243323,"current_range_meters":28800,"station_id":"ce4bhih2rcd13ifvqfr0","pricing_plan_id":"cebpf4jnsgd1na2vs0mg"},{"bike_id":"56dc04b7-06b7-4e88-ac29-730a7abdd49b","system_id":"levelo_inurba_marseille","lat":43.31375,"lon":5.38492,"is_reserved":false,"is_disabled":false,"rental_uris":{"android":"levelo://app?vid=56dc04b7-06b7-4e88-ac29-730a7abdd49b","ios":"levelo://app?vid=56dc04b7-06b7-4e88-ac29-730a7abdd49b"},"vehicle_type_id":"4","last_reported":1730243323,"current_range_meters":39200,"station_id":"ce4bgt92rcd13ifvqcf0","pricing_plan_id":"cebpf4jnsgd1na2vs0mg"},{"bike_id":"db4b8c10-bd44-4b0c-9ca0-2277f894c08c","system_id":"levelo_inurba_marseille","lat":43.301666,"lon":5.38093,"is_reserved":false,"is_disabled":false,"rental_uris":{"android":"levelo://app?vid=db4b8c10-bd44-4b0c-9ca0-2277f894c08c","ios":"levelo://app?vid=db4b8c10-bd44-4b0c-9ca0-2277f894c08c"},"vehicle_type_id":"4","last_reported":1730243323,"current_range_meters":11200,"station_id":"ce4bgjp2rcd13ifvqbh0","pricing_plan_id":"cebpf4jnsgd1na2vs0mg"},{"bike_id":"92adf987-4779-4b78-ad9c-8e29ab9175f3","system_id":"levelo_inurba_marseille","lat":43.23197,"lon":5.35554,"is_reserved":false,"is_disabled":false,"rental_uris":{"android":"levelo://app?vid=92adf987-4779-4b78-ad9c-8e29ab9175f3","ios":"levelo://app?vid=92adf987-4779-4b78-ad9c-8e29ab9175f3"},"vehicle_type_id":"4","last_reported":1730243323,"current_range_meters":16800,"station_id":"ce4bhu92rcd13ifvqi70","pricing_plan_id":"cebpf4jnsgd1na2vs0mg"},{"bike_id":"6ccddc45-787b-4e0a-8482-1abb83f99cfc","system_id":"levelo_inurba_marseille","lat":43.28457,"lon":5.35892,"is_reserved":false,"is_disabled":false,"rental_uris":{"android":"levelo://app?vid=6ccddc45-787b-4e0a-8482-1abb83f99cfc","ios":"levelo://app?vid=6ccddc45-787b-4e0a-8482-1abb83f99cfc"},"vehicle_type_id":"4","last_reported":1730243323,"current_range_meters":24800,"station_id":"ce4bhah2rcd13ifvqei0","pricing_plan_id":"cebpf4jnsgd1na2vs0mg"},{"bike_id":"c03f3456-93bb-418a-8ce0-ca351e254b4e","system_id":"levelo_inurba_marseille","lat":43.31765,"lon":5.3901,"is_reserved":false,"is_disabled":false,"rental_uris":{"android":"levelo://app?vid=c03f3456-93bb-418a-8ce0-ca351e254b4e","ios":"levelo://app?vid=c03f3456-93bb-418a-8ce0-ca351e254b4e"},"vehicle_type_id":"4","last_reported":1730243323,"current_range_meters":39200,"station_id":"ce4bhqp2rcd13ifvqhng","pricing_plan_id":"cebpf4jnsgd1na2vs0mg"},{"bike_id":"37cb0773-ba21-47be-9d4f-f925cfb4f6e7","system_id":"levelo_inurba_marseille","lat":43.29052,"lon":5.37732,"is_reserved":false,"is_disabled":false,"rental_uris":{"android":"levelo://app?vid=37cb0773-ba21-47be-9d4f-f925cfb4f6e7","ios":"levelo://app?vid=37cb0773-ba21-47be-9d4f-f925cfb4f6e7"},"vehicle_type_id":"4","last_reported":1730243323,"current_range_meters":30800,"station_id":"","pricing_plan_id":"cebpf4jnsgd1na2vs0mg"},{"bike_id":"3f42b5bf-2a79-45d5-b497-6ae8dd1c3625","system_id":"levelo_inurba_marseille","lat":43.279293,"lon":5.395615,"is_reserved":false,"is_disabled":false,"rental_uris":{"android":"levelo://app?vid=3f42b5bf-2a79-45d5-b497-6ae8dd1c3625","ios":"levelo://app?vid=3f42b5bf-2a79-45d5-b497-6ae8dd1c3625"},"vehicle_type_id":"4","last_reported":1730243323,"current_range_meters":38800,"station_id":"ce4bhf92rcd13ifvqf40","pricing_plan_id":"cebpf4jnsgd1na2vs0mg"},{"bike_id":"f9f1fac0-f85f-464b-8d90-12df2d11e889","system_id":"levelo_inurba_marseille","lat":43.26201,"lon":5.37912,"is_reserved":false,"is_disabled":false,"rental_uris":{"android":"levelo://app?vid=f9f1fac0-f85f-464b-8d90-12df2d11e889","ios":"levelo://app?vid=f9f1fac0-f85f-464b-8d90-12df2d11e889"},"vehicle_type_id":"4","last_reported":1730243323,"current_range_meters":39200,"station_id":"ce4bhjp2rcd13ifvqg90","pricing_plan_id":"cebpf4jnsgd1na2vs0mg"},{"bike_id":"3b95239d-7ba0-48d2-b5b0-0f26d502652b","system_id":"levelo_inurba_marseille","lat":43.28102,"lon":5.37846,"is_reserved":false,"is_disabled":false,"rental_uris":{"android":"levelo://app?vid=3b95239d-7ba0-48d2-b5b0-0f26d502652b","ios":"levelo://app?vid=3b95239d-7ba0-48d2-b5b0-0f26d502652b"},"vehicle_type_id":"4","last_reported":1730243323,"current_range_meters":26800,"station_id":"ce4bha12rcd13ifvqee0","pricing_plan_id":"cebpf4jnsgd1na2vs0mg"},{"bike_id":"f05c9e2e-0b4f-41ba-9d75-2d2a5fa93533","system_id":"levelo_inurba_marseille","lat":43.28722,"lon":5.37937,"is_reserved":false,"is_disabled":false,"rental_uris":{"android":"levelo://app?vid=f05c9e2e-0b4f-41ba-9d75-2d2a5fa93533","ios":"levelo://app?vid=f05c9e2e-0b4f-41ba-9d75-2d2a5fa93533"},"vehicle_type_id":"4","last_reported":1730243323,"current_range_meters":38800,"station_id":"ce4bh9p2rcd13ifvqec0","pricing_plan_id":"cebpf4jnsgd1na2vs0mg"},{"bike_id":"b8d52686-684b-41ab-98da-6a866bdffb33","system_id":"levelo_inurba_marseille","lat":43.33602,"lon":5.41021,"is_reserved":false,"is_disabled":false,"rental_uris":{"android":"levelo://app?vid=b8d52686-684b-41ab-98da-6a866bdffb33","ios":"levelo://app?vid=b8d52686-684b-41ab-98da-6a866bdffb33"},"vehicle_type_id":"4","last_reported":1730243323,"current_range_meters":24000,"station_id":"ce4bhqh2rcd13ifvqhmg","pricing_plan_id":"cebpf4jnsgd1na2vs0mg"},{"bike_id":"3928d2b2-5322-4bfc-935c-f02931565366","system_id":"levelo_inurba_marseille","lat":43.27993,"lon":5.41657,"is_reserved":false,"is_disabled":false,"rental_uris":{"android":"levelo://app?vid=3928d2b2-5322-4bfc-935c-f02931565366","ios":"levelo://app?vid=3928d2b2-5322-4bfc-935c-f02931565366"},"vehicle_type_id":"4","last_reported":1730243323,"current_range_meters":14000,"station_id":"ce4bho12rcd13ifvqh1g","pricing_plan_id":"cebpf4jnsgd1na2vs0mg"},{"bike_id":"669541bb-ec23-44c5-bb83-c3650de83fee","system_id":"levelo_inurba_marseille","lat":43.279899,"lon":5.416518,"is_reserved":false,"is_disabled":false,"rental_uris":{"android":"levelo://app?vid=669541bb-ec23-44c5-bb83-c3650de83fee","ios":"levelo://app?vid=669541bb-ec23-44c5-bb83-c3650de83fee"},"vehicle_type_id":"4","last_reported":1730243323,"current_range_meters":4000,"station_id":"ce4bho12rcd13ifvqh1g","pricing_plan_id":"cebpf4jnsgd1na2vs0mg"},{"bike_id":"d42f4a6b-23fc-4c16-b6cf-e48fe37c5c2e","system_id":"levelo_inurba_marseille","lat":43.28468,"lon":5.35886,"is_reserved":false,"is_disabled":false,"rental_uris":{"android":"levelo://app?vid=d42f4a6b-23fc-4c16-b6cf-e48fe37c5c2e","ios":"levelo://app?vid=d42f4a6b-23fc-4c16-b6cf-e48fe37c5c2e"},"vehicle_type_id":"4","last_reported":1730243323,"current_range_meters":39200,"station_id":"ce4bhah2rcd13ifvqei0","pricing_plan_id":"cebpf4jnsgd1na2vs0mg"},{"bike_id":"c99ff333-d4ed-4459-be44-9baffe10ada9","system_id":"levelo_inurba_marseille","lat":43.30599,"lon":5.3722,"is_reserved":false,"is_disabled":false,"rental_uris":{"android":"levelo://app?vid=c99ff333-d4ed-4459-be44-9baffe10ada9","ios":"levelo://app?vid=c99ff333-d4ed-4459-be44-9baffe10ada9"},"vehicle_type_id":"4","last_reported":1730243323,"current_range_meters":38800,"station_id":"ce4bgqh2rcd13ifvqc4g","pricing_plan_id":"cebpf4jnsgd1na2vs0mg"},{"bike_id":"84bdbe5c-b05e-46a0-9e86-37be3e570984","system_id":"levelo_inurba_marseille","lat":43.30785,"lon":5.37653,"is_reserved":false,"is_disabled":false,"rental_uris":{"android":"levelo://app?vid=84bdbe5c-b05e-46a0-9e86-37be3e570984","ios":"levelo://app?vid=84bdbe5c-b05e-46a0-9e86-37be3e570984"},"vehicle_type_id":"4","last_reported":1730243323,"current_range_meters":28000,"station_id":"ce4bgv92rcd13ifvqcq0","pricing_plan_id":"cebpf4jnsgd1na2vs0mg"},{"bike_id":"be8ded3c-178d-4dbf-ae6a-eb6d6e8855cc","system_id":"levelo_inurba_marseille","lat":43.29283,"lon":5.40119,"is_reserved":false,"is_disabled":false,"rental_uris":{"android":"levelo://app?vid=be8ded3c-178d-4dbf-ae6a-eb6d6e8855cc","ios":"levelo://app?vid=be8ded3c-178d-4dbf-ae6a-eb6d6e8855cc"},"vehicle_type_id":"4","last_reported":1730243323,"current_range_meters":36400,"station_id":"ce4bh312rcd13ifvqdk0","pricing_plan_id":"cebpf4jnsgd1na2vs0mg"},{"bike_id":"491171d5-0527-410a-ada1-acc25421f1b3","system_id":"levelo_inurba_marseille","lat":43.30787,"lon":5.37643,"is_reserved":false,"is_disabled":false,"rental_uris":{"android":"levelo://app?vid=491171d5-0527-410a-ada1-acc25421f1b3","ios":"levelo://app?vid=491171d5-0527-410a-ada1-acc25421f1b3"},"vehicle_type_id":"4","last_reported":1730243323,"current_range_meters":18800,"station_id":"ce4bgv92rcd13ifvqcq0","pricing_plan_id":"cebpf4jnsgd1na2vs0mg"},{"bike_id":"98068fff-0ea9-402a-83fe-c96429d47f95","system_id":"levelo_inurba_marseille","lat":43.30445,"lon":5.38889,"is_reserved":false,"is_disabled":false,"rental_uris":{"android":"levelo://app?vid=98068fff-0ea9-402a-83fe-c96429d47f95","ios":"levelo://app?vid=98068fff-0ea9-402a-83fe-c96429d47f95"},"vehicle_type_id":"4","last_reported":1730243323,"current_range_meters":12800,"station_id":"ce4bgk12rcd13ifvqbi0","pricing_plan_id":"cebpf4jnsgd1na2vs0mg"},{"bike_id":"99a3f4d5-9ad7-4614-a88f-03f2ed75ead3","system_id":"levelo_inurba_marseille","lat":43.31703,"lon":5.37758,"is_reserved":false,"is_disabled":false,"rental_uris":{"android":"levelo://app?vid=99a3f4d5-9ad7-4614-a88f-03f2ed75ead3","ios":"levelo://app?vid=99a3f4d5-9ad7-4614-a88f-03f2ed75ead3"},"vehicle_type_id":"4","last_reported":1730243323,"current_range_meters":6800,"station_id":"ce4bgth2rcd13ifvqch0","pricing_plan_id":"cebpf4jnsgd1na2vs0mg"},{"bike_id":"5867dd38-1697-41f0-976b-2886f1b58d27","system_id":"levelo_inurba_marseille","lat":43.28433,"lon":5.39186,"is_reserved":false,"is_disabled":false,"rental_uris":{"android":"levelo://app?vid=5867dd38-1697-41f0-976b-2886f1b58d27","ios":"levelo://app?vid=5867dd38-1697-41f0-976b-2886f1b58d27"},"vehicle_type_id":"4","last_reported":1730243323,"current_range_meters":38800,"station_id":"ce4bhoh2rcd13ifvqh5g","pricing_plan_id":"cebpf4jnsgd1na2vs0mg"},{"bike_id":"29ddf642-e5ca-4d50-ae49-ef90354a92aa","system_id":"levelo_inurba_marseille","lat":43.29519,"lon":5.39402,"is_reserved":false,"is_disabled":false,"rental_uris":{"android":"levelo://app?vid=29ddf642-e5ca-4d50-ae49-ef90354a92aa","ios":"levelo://app?vid=29ddf642-e5ca-4d50-ae49-ef90354a92aa"},"vehicle_type_id":"4","last_reported":1730243323,"current_range_meters":28000,"station_id":"ce4bh292rcd13ifvqdf0","pricing_plan_id":"cebpf4jnsgd1na2vs0mg"},{"bike_id":"a499e673-4f57-4342-9063-be4db69af0ba","system_id":"levelo_inurba_marseille","lat":43.31493,"lon":5.37304,"is_reserved":false,"is_disabled":false,"rental_uris":{"android":"levelo://app?vid=a499e673-4f57-4342-9063-be4db69af0ba","ios":"levelo://app?vid=a499e673-4f57-4342-9063-be4db69af0ba"},"vehicle_type_id":"4","last_reported":1730243323,"current_range_meters":38800,"station_id":"ce4bgt12rcd13ifvqcd0","pricing_plan_id":"cebpf4jnsgd1na2vs0mg"},{"bike_id":"54454bef-56f4-4fd7-9cf7-c57a75a8c623","system_id":"levelo_inurba_marseille","lat":43.31704,"lon":5.37747,"is_reserved":false,"is_disabled":false,"rental_uris":{"android":"levelo://app?vid=54454bef-56f4-4fd7-9cf7-c57a75a8c623","ios":"levelo://app?vid=54454bef-56f4-4fd7-9cf7-c57a75a8c623"},"vehicle_type_id":"4","last_reported":1730243323,"current_range_meters":40000,"station_id":"ce4bgth2rcd13ifvqch0","pricing_plan_id":"cebpf4jnsgd1na2vs0mg"},{"bike_id":"c9dcfc33-c5fb-4b35-8de9-548372be2713","system_id":"levelo_inurba_marseille","lat":43.29789,"lon":5.39349,"is_reserved":false,"is_disabled":false,"rental_uris":{"android":"levelo://app?vid=c9dcfc33-c5fb-4b35-8de9-548372be2713","ios":"levelo://app?vid=c9dcfc33-c5fb-4b35-8de9-548372be2713"},"vehicle_type_id":"4","last_reported":1730243323,"current_range_meters":32400,"station_id":"chh1huq6cuj3fo74tm60","pricing_plan_id":"cebpf4jnsgd1na2vs0mg"},{"bike_id":"9e2bc93c-3cbe-4933-9d34-027b7a5b1a0d","system_id":"levelo_inurba_marseille","lat":43.24689,"lon":5.38158,"is_reserved":false,"is_disabled":false,"rental_uris":{"android":"levelo://app?vid=9e2bc93c-3cbe-4933-9d34-027b7a5b1a0d","ios":"levelo://app?vid=9e2bc93c-3cbe-4933-9d34-027b7a5b1a0d"},"vehicle_type_id":"4","last_reported":1730243323,"current_range_meters":10800,"station_id":"ce4bhih2rcd13ifvqfr0","pricing_plan_id":"cebpf4jnsgd1na2vs0mg"},{"bike_id":"6cc12f25-2a5a-49c0-908d-411499841c14","system_id":"levelo_inurba_marseille","lat":43.2679,"lon":5.39414,"is_reserved":false,"is_disabled":false,"rental_uris":{"android":"levelo://app?vid=6cc12f25-2a5a-49c0-908d-411499841c14","ios":"levelo://app?vid=6cc12f25-2a5a-49c0-908d-411499841c14"},"vehicle_type_id":"4","last_reported":1730243323,"current_range_meters":27200,"station_id":"ce4bhh12rcd13ifvqfg0","pricing_plan_id":"cebpf4jnsgd1na2vs0mg"},{"bike_id":"255ddd6c-98e3-4f21-85d8-6dda0beedbe4","system_id":"levelo_inurba_marseille","lat":43.29096,"lon":5.38136,"is_reserved":false,"is_disabled":false,"rental_uris":{"android":"levelo://app?vid=255ddd6c-98e3-4f21-85d8-6dda0beedbe4","ios":"levelo://app?vid=255ddd6c-98e3-4f21-85d8-6dda0beedbe4"},"vehicle_type_id":"4","last_reported":1730243323,"current_range_meters":23200,"station_id":"ce4bh512rcd13ifvqe2g","pricing_plan_id":"cebpf4jnsgd1na2vs0mg"},{"bike_id":"d4f897cd-5722-42fb-bbae-84fadb33bd3a","system_id":"levelo_inurba_marseille","lat":43.28848,"lon":5.35848,"is_reserved":false,"is_disabled":false,"rental_uris":{"android":"levelo://app?vid=d4f897cd-5722-42fb-bbae-84fadb33bd3a","ios":"levelo://app?vid=d4f897cd-5722-42fb-bbae-84fadb33bd3a"},"vehicle_type_id":"4","last_reported":1730243323,"current_range_meters":38800,"station_id":"ce4bhb12rcd13ifvqem0","pricing_plan_id":"cebpf4jnsgd1na2vs0mg"},{"bike_id":"538c6c97-8738-4e40-afde-1ced2fc6b778","system_id":"levelo_inurba_marseille","lat":43.33719,"lon":5.39183,"is_reserved":false,"is_disabled":false,"rental_uris":{"android":"levelo://app?vid=538c6c97-8738-4e40-afde-1ced2fc6b778","ios":"levelo://app?vid=538c6c97-8738-4e40-afde-1ced2fc6b778"},"vehicle_type_id":"4","last_reported":1730243323,"current_range_meters":38400,"station_id":"ce4bhr92rcd13ifvqhsg","pricing_plan_id":"cebpf4jnsgd1na2vs0mg"},{"bike_id":"1d54f9a9-581d-4e82-b989-fb7dda0e194b","system_id":"levelo_inurba_marseille","lat":43.26574,"lon":5.39002,"is_reserved":false,"is_disabled":false,"rental_uris":{"android":"levelo://app?vid=1d54f9a9-581d-4e82-b989-fb7dda0e194b","ios":"levelo://app?vid=1d54f9a9-581d-4e82-b989-fb7dda0e194b"},"vehicle_type_id":"4","last_reported":1730243323,"current_range_meters":12400,"station_id":"ce4bhe12rcd13ifvqf30","pricing_plan_id":"cebpf4jnsgd1na2vs0mg"},{"bike_id":"03e26363-1adc-494c-8098-91070571fba5","system_id":"levelo_inurba_marseille","lat":43.23193,"lon":5.35547,"is_reserved":false,"is_disabled":false,"rental_uris":{"android":"levelo://app?vid=03e26363-1adc-494c-8098-91070571fba5","ios":"levelo://app?vid=03e26363-1adc-494c-8098-91070571fba5"},"vehicle_type_id":"4","last_reported":1730243323,"current_range_meters":34000,"station_id":"ce4bhu92rcd13ifvqi70","pricing_plan_id":"cebpf4jnsgd1na2vs0mg"},{"bike_id":"c497513d-9d1d-4320-a1e3-875a8b21d4c5","system_id":"levelo_inurba_marseille","lat":43.2718,"lon":5.40994,"is_reserved":false,"is_disabled":false,"rental_uris":{"android":"levelo://app?vid=c497513d-9d1d-4320-a1e3-875a8b21d4c5","ios":"levelo://app?vid=c497513d-9d1d-4320-a1e3-875a8b21d4c5"},"vehicle_type_id":"4","last_reported":1730243323,"current_range_meters":35600,"station_id":"ce4bhl12rcd13ifvqgf0","pricing_plan_id":"cebpf4jnsgd1na2vs0mg"},{"bike_id":"3f296890-19ce-46b6-884b-d2e34dba8783","system_id":"levelo_inurba_marseille","lat":43.24811,"lon":5.3746,"is_reserved":false,"is_disabled":false,"rental_uris":{"android":"levelo://app?vid=3f296890-19ce-46b6-884b-d2e34dba8783","ios":"levelo://app?vid=3f296890-19ce-46b6-884b-d2e34dba8783"},"vehicle_type_id":"4","last_reported":1730243323,"current_range_meters":38800,"station_id":"ce4bhgh2rcd13ifvqfb0","pricing_plan_id":"cebpf4jnsgd1na2vs0mg"},{"bike_id":"e0fe10b0-ce38-4f4b-aa95-0e43ac241740","system_id":"levelo_inurba_marseille","lat":43.32366,"lon":5.38886,"is_reserved":false,"is_disabled":false,"rental_uris":{"android":"levelo://app?vid=e0fe10b0-ce38-4f4b-aa95-0e43ac241740","ios":"levelo://app?vid=e0fe10b0-ce38-4f4b-aa95-0e43ac241740"},"vehicle_type_id":"4","last_reported":1730243323,"current_range_meters":31200,"station_id":"ce4bhqp2rcd13ifvqhog","pricing_plan_id":"cebpf4jnsgd1na2vs0mg"},{"bike_id":"b888f11d-4cca-4019-9c0c-d6d69a667f3e","system_id":"levelo_inurba_marseille","lat":43.27561,"lon":5.38426,"is_reserved":false,"is_disabled":false,"rental_uris":{"android":"levelo://app?vid=b888f11d-4cca-4019-9c0c-d6d69a667f3e","ios":"levelo://app?vid=b888f11d-4cca-4019-9c0c-d6d69a667f3e"},"vehicle_type_id":"4","last_reported":1730243323,"current_range_meters":38400,"station_id":"ce4bhh92rcd13ifvqfi0","pricing_plan_id":"cebpf4jnsgd1na2vs0mg"},{"bike_id":"e9141b44-30ab-459c-94b2-99dbe6b7a845","system_id":"levelo_inurba_marseille","lat":43.29547,"lon":5.4228,"is_reserved":false,"is_disabled":false,"rental_uris":{"android":"levelo://app?vid=e9141b44-30ab-459c-94b2-99dbe6b7a845","ios":"levelo://app?vid=e9141b44-30ab-459c-94b2-99dbe6b7a845"},"vehicle_type_id":"4","last_reported":1730243323,"current_range_meters":38000,"station_id":"ce4bhph2rcd13ifvqhdg","pricing_plan_id":"cebpf4jnsgd1na2vs0mg"},{"bike_id":"f490c3ab-626b-499d-8386-3a1696334506","system_id":"levelo_inurba_marseille","lat":43.25819,"lon":5.39437,"is_reserved":false,"is_disabled":false,"rental_uris":{"android":"levelo://app?vid=f490c3ab-626b-499d-8386-3a1696334506","ios":"levelo://app?vid=f490c3ab-626b-499d-8386-3a1696334506"},"vehicle_type_id":"4","last_reported":1730243323,"current_range_meters":30000,"station_id":"ce4bhip2rcd13ifvqft0","pricing_plan_id":"cebpf4jnsgd1na2vs0mg"},{"bike_id":"75313b0b-fea0-43a4-930b-001fbd31ad06","system_id":"levelo_inurba_marseille","lat":43.33604,"lon":5.41023,"is_reserved":false,"is_disabled":false,"rental_uris":{"android":"levelo://app?vid=75313b0b-fea0-43a4-930b-001fbd31ad06","ios":"levelo://app?vid=75313b0b-fea0-43a4-930b-001fbd31ad06"},"vehicle_type_id":"4","last_reported":1730243323,"current_range_meters":18000,"station_id":"ce4bhqh2rcd13ifvqhmg","pricing_plan_id":"cebpf4jnsgd1na2vs0mg"},{"bike_id":"8fc8f69f-228e-4754-8013-e3713d197b92","system_id":"levelo_inurba_marseille","lat":43.24671,"lon":5.38161,"is_reserved":false,"is_disabled":false,"rental_uris":{"android":"levelo://app?vid=8fc8f69f-228e-4754-8013-e3713d197b92","ios":"levelo://app?vid=8fc8f69f-228e-4754-8013-e3713d197b92"},"vehicle_type_id":"4","last_reported":1730243323,"current_range_meters":16400,"station_id":"ce4bhih2rcd13ifvqfr0","pricing_plan_id":"cebpf4jnsgd1na2vs0mg"},{"bike_id":"6b778970-7ca1-4912-8b3b-f071e3ca997e","system_id":"levelo_inurba_marseille","lat":43.31271,"lon":5.40169,"is_reserved":false,"is_disabled":false,"rental_uris":{"android":"levelo://app?vid=6b778970-7ca1-4912-8b3b-f071e3ca997e","ios":"levelo://app?vid=6b778970-7ca1-4912-8b3b-f071e3ca997e"},"vehicle_type_id":"4","last_reported":1730243323,"current_range_meters":37600,"station_id":"ce4bh092rcd13ifvqd30","pricing_plan_id":"cebpf4jnsgd1na2vs0mg"},{"bike_id":"a306c469-7544-4489-af82-e9fb1e9b4215","system_id":"levelo_inurba_marseille","lat":43.23187,"lon":5.39973,"is_reserved":false,"is_disabled":false,"rental_uris":{"android":"levelo://app?vid=a306c469-7544-4489-af82-e9fb1e9b4215","ios":"levelo://app?vid=a306c469-7544-4489-af82-e9fb1e9b4215"},"vehicle_type_id":"4","last_reported":1730243323,"current_range_meters":25200,"station_id":"ce4bhn12rcd13ifvqgqg","pricing_plan_id":"cebpf4jnsgd1na2vs0mg"},{"bike_id":"670dd631-18b7-4713-a903-23b5a1df838c","system_id":"levelo_inurba_marseille","lat":43.28575,"lon":5.39483,"is_reserved":false,"is_disabled":false,"rental_uris":{"android":"levelo://app?vid=670dd631-18b7-4713-a903-23b5a1df838c","ios":"levelo://app?vid=670dd631-18b7-4713-a903-23b5a1df838c"},"vehicle_type_id":"4","last_reported":1730243323,"current_range_meters":39200,"station_id":"ce4bh292rcd13ifvqdg0","pricing_plan_id":"cebpf4jnsgd1na2vs0mg"},{"bike_id":"c8b0ddcb-9c74-47bf-bfe0-29fe3f9c6036","system_id":"levelo_inurba_marseille","lat":43.30587,"lon":5.39357,"is_reserved":false,"is_disabled":false,"rental_uris":{"android":"levelo://app?vid=c8b0ddcb-9c74-47bf-bfe0-29fe3f9c6036","ios":"levelo://app?vid=c8b0ddcb-9c74-47bf-bfe0-29fe3f9c6036"},"vehicle_type_id":"4","last_reported":1730243323,"current_range_meters":40000,"station_id":"ce4bh0p2rcd13ifvqd80","pricing_plan_id":"cebpf4jnsgd1na2vs0mg"},{"bike_id":"952babeb-3864-4f25-98a9-63b355932f90","system_id":"levelo_inurba_marseille","lat":43.28433,"lon":5.39188,"is_reserved":false,"is_disabled":false,"rental_uris":{"android":"levelo://app?vid=952babeb-3864-4f25-98a9-63b355932f90","ios":"levelo://app?vid=952babeb-3864-4f25-98a9-63b355932f90"},"vehicle_type_id":"4","last_reported":1730243323,"current_range_meters":37600,"station_id":"ce4bhoh2rcd13ifvqh5g","pricing_plan_id":"cebpf4jnsgd1na2vs0mg"},{"bike_id":"ad8fd308-ff6f-45fc-9b50-3e03cbf09dc0","system_id":"levelo_inurba_marseille","lat":43.31128,"lon":5.37756,"is_reserved":false,"is_disabled":false,"rental_uris":{"android":"levelo://app?vid=ad8fd308-ff6f-45fc-9b50-3e03cbf09dc0","ios":"levelo://app?vid=ad8fd308-ff6f-45fc-9b50-3e03cbf09dc0"},"vehicle_type_id":"4","last_reported":1730243323,"current_range_meters":23200,"station_id":"ce4bgt92rcd13ifvqcg0","pricing_plan_id":"cebpf4jnsgd1na2vs0mg"},{"bike_id":"65ebd49a-94e0-4731-b170-9f1ac0fc0675","system_id":"levelo_inurba_marseille","lat":43.3153,"lon":5.38027,"is_reserved":false,"is_disabled":false,"rental_uris":{"android":"levelo://app?vid=65ebd49a-94e0-4731-b170-9f1ac0fc0675","ios":"levelo://app?vid=65ebd49a-94e0-4731-b170-9f1ac0fc0675"},"vehicle_type_id":"4","last_reported":1730243323,"current_range_meters":26800,"station_id":"ce4bhsp2rcd13ifvqi50","pricing_plan_id":"cebpf4jnsgd1na2vs0mg"},{"bike_id":"9a7ed57e-82d7-4eac-821d-125d5964faf7","system_id":"levelo_inurba_marseille","lat":43.30647,"lon":5.40075,"is_reserved":false,"is_disabled":false,"rental_uris":{"android":"levelo://app?vid=9a7ed57e-82d7-4eac-821d-125d5964faf7","ios":"levelo://app?vid=9a7ed57e-82d7-4eac-821d-125d5964faf7"},"vehicle_type_id":"4","last_reported":1730243323,"current_range_meters":10800,"station_id":"ce4bh112rcd13ifvqda0","pricing_plan_id":"cebpf4jnsgd1na2vs0mg"},{"bike_id":"b87636ba-074b-49ec-8abf-f6529ae02217","system_id":"levelo_inurba_marseille","lat":43.27898,"lon":5.38006,"is_reserved":false,"is_disabled":false,"rental_uris":{"android":"levelo://app?vid=b87636ba-074b-49ec-8abf-f6529ae02217","ios":"levelo://app?vid=b87636ba-074b-49ec-8abf-f6529ae02217"},"vehicle_type_id":"4","last_reported":1730243323,"current_range_meters":14000,"station_id":"ce4bhf92rcd13ifvqf50","pricing_plan_id":"cebpf4jnsgd1na2vs0mg"},{"bike_id":"ec06eb51-e6dd-407e-90ef-bd6841b0a5f2","system_id":"levelo_inurba_marseille","lat":43.29281,"lon":5.4011,"is_reserved":false,"is_disabled":false,"rental_uris":{"android":"levelo://app?vid=ec06eb51-e6dd-407e-90ef-bd6841b0a5f2","ios":"levelo://app?vid=ec06eb51-e6dd-407e-90ef-bd6841b0a5f2"},"vehicle_type_id":"4","last_reported":1730243323,"current_range_meters":38800,"station_id":"ce4bh312rcd13ifvqdk0","pricing_plan_id":"cebpf4jnsgd1na2vs0mg"},{"bike_id":"aa3c75c1-325f-40f8-8b0b-4a52b3414760","system_id":"levelo_inurba_marseille","lat":43.279388,"lon":5.387284,"is_reserved":false,"is_disabled":false,"rental_uris":{"android":"levelo://app?vid=aa3c75c1-325f-40f8-8b0b-4a52b3414760","ios":"levelo://app?vid=aa3c75c1-325f-40f8-8b0b-4a52b3414760"},"vehicle_type_id":"4","last_reported":1730243323,"current_range_meters":34000,"station_id":"ce4bh0p2rcd13ifvqd80","pricing_plan_id":"cebpf4jnsgd1na2vs0mg"},{"bike_id":"60d8ea4c-a707-440f-9b73-c70e3a871214","system_id":"levelo_inurba_marseille","lat":43.288557,"lon":5.393277,"is_reserved":false,"is_disabled":false,"rental_uris":{"android":"levelo://app?vid=60d8ea4c-a707-440f-9b73-c70e3a871214","ios":"levelo://app?vid=60d8ea4c-a707-440f-9b73-c70e3a871214"},"vehicle_type_id":"4","last_reported":1730243323,"current_range_meters":38400,"station_id":"ce4bh2p2rcd13ifvqdi0","pricing_plan_id":"cebpf4jnsgd1na2vs0mg"},{"bike_id":"f1307045-8336-4a78-aa5d-7b1378f3299d","system_id":"levelo_inurba_marseille","lat":43.29279,"lon":5.40107,"is_reserved":false,"is_disabled":false,"rental_uris":{"android":"levelo://app?vid=f1307045-8336-4a78-aa5d-7b1378f3299d","ios":"levelo://app?vid=f1307045-8336-4a78-aa5d-7b1378f3299d"},"vehicle_type_id":"4","last_reported":1730243323,"current_range_meters":9600,"station_id":"ce4bh312rcd13ifvqdk0","pricing_plan_id":"cebpf4jnsgd1na2vs0mg"},{"bike_id":"46c831fc-4dbc-4c06-a9e6-922f77d18649","system_id":"levelo_inurba_marseille","lat":43.31487,"lon":5.37289,"is_reserved":false,"is_disabled":false,"rental_uris":{"android":"levelo://app?vid=46c831fc-4dbc-4c06-a9e6-922f77d18649","ios":"levelo://app?vid=46c831fc-4dbc-4c06-a9e6-922f77d18649"},"vehicle_type_id":"4","last_reported":1730243323,"current_range_meters":39200,"station_id":"ce4bgt12rcd13ifvqcd0","pricing_plan_id":"cebpf4jnsgd1na2vs0mg"},{"bike_id":"20dfae4b-0d18-410b-9f7f-08675354fd6a","system_id":"levelo_inurba_marseille","lat":43.304374,"lon":5.38895,"is_reserved":false,"is_disabled":false,"rental_uris":{"android":"levelo://app?vid=20dfae4b-0d18-410b-9f7f-08675354fd6a","ios":"levelo://app?vid=20dfae4b-0d18-410b-9f7f-08675354fd6a"},"vehicle_type_id":"4","last_reported":1730243323,"current_range_meters":20000,"station_id":"ce4bgk12rcd13ifvqbi0","pricing_plan_id":"cebpf4jnsgd1na2vs0mg"},{"bike_id":"80523505-fda9-4582-8648-797ace323ef7","system_id":"levelo_inurba_marseille","lat":43.29584,"lon":5.3674,"is_reserved":false,"is_disabled":false,"rental_uris":{"android":"levelo://app?vid=80523505-fda9-4582-8648-797ace323ef7","ios":"levelo://app?vid=80523505-fda9-4582-8648-797ace323ef7"},"vehicle_type_id":"4","last_reported":1730243323,"current_range_meters":15200,"station_id":"ce4bgph2rcd13ifvqc2g","pricing_plan_id":"cebpf4jnsgd1na2vs0mg"},{"bike_id":"fe2904da-4ac6-42de-b232-dbec16338c49","system_id":"levelo_inurba_marseille","lat":43.3369,"lon":5.35738,"is_reserved":false,"is_disabled":false,"rental_uris":{"android":"levelo://app?vid=fe2904da-4ac6-42de-b232-dbec16338c49","ios":"levelo://app?vid=fe2904da-4ac6-42de-b232-dbec16338c49"},"vehicle_type_id":"4","last_reported":1730243323,"current_range_meters":27200,"station_id":"","pricing_plan_id":"cebpf4jnsgd1na2vs0mg"},{"bike_id":"d93e944a-1052-4a26-8348-6ce7ff5a64f1","system_id":"levelo_inurba_marseille","lat":43.32338,"lon":5.406175,"is_reserved":false,"is_disabled":false,"rental_uris":{"android":"levelo://app?vid=d93e944a-1052-4a26-8348-6ce7ff5a64f1","ios":"levelo://app?vid=d93e944a-1052-4a26-8348-6ce7ff5a64f1"},"vehicle_type_id":"4","last_reported":1730243323,"current_range_meters":16000,"station_id":"ce4bhq92rcd13ifvqhjg","pricing_plan_id":"cebpf4jnsgd1na2vs0mg"},{"bike_id":"dbfafde0-c582-408a-8e0f-30168d4bd53c","system_id":"levelo_inurba_marseille","lat":43.25588,"lon":5.38231,"is_reserved":false,"is_disabled":false,"rental_uris":{"android":"levelo://app?vid=dbfafde0-c582-408a-8e0f-30168d4bd53c","ios":"levelo://app?vid=dbfafde0-c582-408a-8e0f-30168d4bd53c"},"vehicle_type_id":"4","last_reported":1730243323,"current_range_meters":29600,"station_id":"ce4bhih2rcd13ifvqfs0","pricing_plan_id":"cebpf4jnsgd1na2vs0mg"},{"bike_id":"a06ded99-242f-48fe-b5be-332d08db9200","system_id":"levelo_inurba_marseille","lat":43.29962,"lon":5.41318,"is_reserved":false,"is_disabled":false,"rental_uris":{"android":"levelo://app?vid=a06ded99-242f-48fe-b5be-332d08db9200","ios":"levelo://app?vid=a06ded99-242f-48fe-b5be-332d08db9200"},"vehicle_type_id":"4","last_reported":1730243323,"current_range_meters":32400,"station_id":"ce4bhp12rcd13ifvqh9g","pricing_plan_id":"cebpf4jnsgd1na2vs0mg"},{"bike_id":"9fb02925-e4c3-48e2-94e9-d105ec3f767a","system_id":"levelo_inurba_marseille","lat":43.30784,"lon":5.37653,"is_reserved":false,"is_disabled":false,"rental_uris":{"android":"levelo://app?vid=9fb02925-e4c3-48e2-94e9-d105ec3f767a","ios":"levelo://app?vid=9fb02925-e4c3-48e2-94e9-d105ec3f767a"},"vehicle_type_id":"4","last_reported":1730243323,"current_range_meters":38800,"station_id":"ce4bgv92rcd13ifvqcq0","pricing_plan_id":"cebpf4jnsgd1na2vs0mg"},{"bike_id":"56e7cf53-9329-4857-afd0-bf9c5007df45","system_id":"levelo_inurba_marseille","lat":43.25824,"lon":5.39419,"is_reserved":false,"is_disabled":false,"rental_uris":{"android":"levelo://app?vid=56e7cf53-9329-4857-afd0-bf9c5007df45","ios":"levelo://app?vid=56e7cf53-9329-4857-afd0-bf9c5007df45"},"vehicle_type_id":"4","last_reported":1730243323,"current_range_meters":29600,"station_id":"ce4bhip2rcd13ifvqft0","pricing_plan_id":"cebpf4jnsgd1na2vs0mg"},{"bike_id":"539f9a48-f3c4-4b3d-b50a-f20cbac5b70d","system_id":"levelo_inurba_marseille","lat":43.3211,"lon":5.36771,"is_reserved":false,"is_disabled":false,"rental_uris":{"android":"levelo://app?vid=539f9a48-f3c4-4b3d-b50a-f20cbac5b70d","ios":"levelo://app?vid=539f9a48-f3c4-4b3d-b50a-f20cbac5b70d"},"vehicle_type_id":"4","last_reported":1730243323,"current_range_meters":32000,"station_id":"ce4bhrh2rcd13ifvqhug","pricing_plan_id":"cebpf4jnsgd1na2vs0mg"},{"bike_id":"679dca57-da96-4bee-8ea5-7e5fca4614c3","system_id":"levelo_inurba_marseille","lat":43.28106,"lon":5.37842,"is_reserved":false,"is_disabled":false,"rental_uris":{"android":"levelo://app?vid=679dca57-da96-4bee-8ea5-7e5fca4614c3","ios":"levelo://app?vid=679dca57-da96-4bee-8ea5-7e5fca4614c3"},"vehicle_type_id":"4","last_reported":1730243323,"current_range_meters":16000,"station_id":"ce4bha12rcd13ifvqee0","pricing_plan_id":"cebpf4jnsgd1na2vs0mg"},{"bike_id":"bf105057-4c6c-4f15-966a-e6bd9ab64fa1","system_id":"levelo_inurba_marseille","lat":43.28406,"lon":5.37521,"is_reserved":false,"is_disabled":false,"rental_uris":{"android":"levelo://app?vid=bf105057-4c6c-4f15-966a-e6bd9ab64fa1","ios":"levelo://app?vid=bf105057-4c6c-4f15-966a-e6bd9ab64fa1"},"vehicle_type_id":"4","last_reported":1730243323,"current_range_meters":38800,"station_id":"ce4bh412rcd13ifvqds0","pricing_plan_id":"cebpf4jnsgd1na2vs0mg"},{"bike_id":"25e90825-819c-494a-9a04-12bbb0c56b6b","system_id":"levelo_inurba_marseille","lat":43.3154,"lon":5.38019,"is_reserved":false,"is_disabled":false,"rental_uris":{"android":"levelo://app?vid=25e90825-819c-494a-9a04-12bbb0c56b6b","ios":"levelo://app?vid=25e90825-819c-494a-9a04-12bbb0c56b6b"},"vehicle_type_id":"4","last_reported":1730243323,"current_range_meters":30800,"station_id":"ce4bhsp2rcd13ifvqi50","pricing_plan_id":"cebpf4jnsgd1na2vs0mg"},{"bike_id":"2dc2e7aa-c9cc-457e-aadf-e56119f0ec59","system_id":"levelo_inurba_marseille","lat":43.2319,"lon":5.3554,"is_reserved":false,"is_disabled":false,"rental_uris":{"android":"levelo://app?vid=2dc2e7aa-c9cc-457e-aadf-e56119f0ec59","ios":"levelo://app?vid=2dc2e7aa-c9cc-457e-aadf-e56119f0ec59"},"vehicle_type_id":"4","last_reported":1730243323,"current_range_meters":33200,"station_id":"ce4bhu92rcd13ifvqi70","pricing_plan_id":"cebpf4jnsgd1na2vs0mg"},{"bike_id":"11797c17-5ee0-4cb5-8ceb-e720ec7225f8","system_id":"levelo_inurba_marseille","lat":43.29537,"lon":5.39356,"is_reserved":false,"is_disabled":false,"rental_uris":{"android":"levelo://app?vid=11797c17-5ee0-4cb5-8ceb-e720ec7225f8","ios":"levelo://app?vid=11797c17-5ee0-4cb5-8ceb-e720ec7225f8"},"vehicle_type_id":"4","last_reported":1730243323,"current_range_meters":23200,"station_id":"ce4bh292rcd13ifvqdf0","pricing_plan_id":"cebpf4jnsgd1na2vs0mg"},{"bike_id":"c4f705f9-cb6e-4d01-b200-9f8930e5dd6b","system_id":"levelo_inurba_marseille","lat":43.24184,"lon":5.39727,"is_reserved":false,"is_disabled":false,"rental_uris":{"android":"levelo://app?vid=c4f705f9-cb6e-4d01-b200-9f8930e5dd6b","ios":"levelo://app?vid=c4f705f9-cb6e-4d01-b200-9f8930e5dd6b"},"vehicle_type_id":"4","last_reported":1730243323,"current_range_meters":38800,"station_id":"ce4bhn12rcd13ifvqgpg","pricing_plan_id":"cebpf4jnsgd1na2vs0mg"},{"bike_id":"32724ce4-79b3-4766-bd7f-1b32301ca45e","system_id":"levelo_inurba_marseille","lat":43.25586,"lon":5.38237,"is_reserved":false,"is_disabled":false,"rental_uris":{"android":"levelo://app?vid=32724ce4-79b3-4766-bd7f-1b32301ca45e","ios":"levelo://app?vid=32724ce4-79b3-4766-bd7f-1b32301ca45e"},"vehicle_type_id":"4","last_reported":1730243323,"current_range_meters":19200,"station_id":"ce4bhih2rcd13ifvqfs0","pricing_plan_id":"cebpf4jnsgd1na2vs0mg"},{"bike_id":"28cbcf23-5ad0-4746-be8b-7a028cbebf33","system_id":"levelo_inurba_marseille","lat":43.32649,"lon":5.38872,"is_reserved":false,"is_disabled":false,"rental_uris":{"android":"levelo://app?vid=28cbcf23-5ad0-4746-be8b-7a028cbebf33","ios":"levelo://app?vid=28cbcf23-5ad0-4746-be8b-7a028cbebf33"},"vehicle_type_id":"4","last_reported":1730243323,"current_range_meters":35200,"station_id":"","pricing_plan_id":"cebpf4jnsgd1na2vs0mg"},{"bike_id":"f1b39d68-8ebd-4024-a59f-097526725f93","system_id":"levelo_inurba_marseille","lat":43.29285,"lon":5.40118,"is_reserved":false,"is_disabled":false,"rental_uris":{"android":"levelo://app?vid=f1b39d68-8ebd-4024-a59f-097526725f93","ios":"levelo://app?vid=f1b39d68-8ebd-4024-a59f-097526725f93"},"vehicle_type_id":"4","last_reported":1730243323,"current_range_meters":9600,"station_id":"ce4bh312rcd13ifvqdk0","pricing_plan_id":"cebpf4jnsgd1na2vs0mg"},{"bike_id":"de737593-af64-40b8-b4b0-cae2e82ea600","system_id":"levelo_inurba_marseille","lat":43.3022,"lon":5.39461,"is_reserved":false,"is_disabled":false,"rental_uris":{"android":"levelo://app?vid=de737593-af64-40b8-b4b0-cae2e82ea600","ios":"levelo://app?vid=de737593-af64-40b8-b4b0-cae2e82ea600"},"vehicle_type_id":"4","last_reported":1730243323,"current_range_meters":22800,"station_id":"ce4bh0p2rcd13ifvqd70","pricing_plan_id":"cebpf4jnsgd1na2vs0mg"},{"bike_id":"a37d3a5d-d5f1-4765-a473-29fdd132fa14","system_id":"levelo_inurba_marseille","lat":43.27816,"lon":5.40716,"is_reserved":false,"is_disabled":false,"rental_uris":{"android":"levelo://app?vid=a37d3a5d-d5f1-4765-a473-29fdd132fa14","ios":"levelo://app?vid=a37d3a5d-d5f1-4765-a473-29fdd132fa14"},"vehicle_type_id":"4","last_reported":1730243323,"current_range_meters":25600,"station_id":"ce4bhnh2rcd13ifvqgtg","pricing_plan_id":"cebpf4jnsgd1na2vs0mg"},{"bike_id":"ba7854d0-62b6-449e-8088-30fc62e53806","system_id":"levelo_inurba_marseille","lat":43.29866,"lon":5.3973,"is_reserved":false,"is_disabled":false,"rental_uris":{"android":"levelo://app?vid=ba7854d0-62b6-449e-8088-30fc62e53806","ios":"levelo://app?vid=ba7854d0-62b6-449e-8088-30fc62e53806"},"vehicle_type_id":"4","last_reported":1730243323,"current_range_meters":36400,"station_id":"ce4bh0h2rcd13ifvqd50","pricing_plan_id":"cebpf4jnsgd1na2vs0mg"},{"bike_id":"e9d5f856-d46f-47de-8318-6124ee5e67ab","system_id":"levelo_inurba_marseille","lat":43.30806,"lon":5.38164,"is_reserved":false,"is_disabled":false,"rental_uris":{"android":"levelo://app?vid=e9d5f856-d46f-47de-8318-6124ee5e67ab","ios":"levelo://app?vid=e9d5f856-d46f-47de-8318-6124ee5e67ab"},"vehicle_type_id":"4","last_reported":1730243323,"current_range_meters":9200,"station_id":"ce4bgt12rcd13ifvqce0","pricing_plan_id":"cebpf4jnsgd1na2vs0mg"},{"bike_id":"2d198377-2c19-4e5f-b7b9-5acc4795c543","system_id":"levelo_inurba_marseille","lat":43.31762,"lon":5.39005,"is_reserved":false,"is_disabled":false,"rental_uris":{"android":"levelo://app?vid=2d198377-2c19-4e5f-b7b9-5acc4795c543","ios":"levelo://app?vid=2d198377-2c19-4e5f-b7b9-5acc4795c543"},"vehicle_type_id":"4","last_reported":1730243323,"current_range_meters":11600,"station_id":"ce4bhqp2rcd13ifvqhng","pricing_plan_id":"cebpf4jnsgd1na2vs0mg"},{"bike_id":"06feb2c7-7cfa-469f-bd05-d6e583079a44","system_id":"levelo_inurba_marseille","lat":43.30587,"lon":5.39352,"is_reserved":false,"is_disabled":false,"rental_uris":{"android":"levelo://app?vid=06feb2c7-7cfa-469f-bd05-d6e583079a44","ios":"levelo://app?vid=06feb2c7-7cfa-469f-bd05-d6e583079a44"},"vehicle_type_id":"4","last_reported":1730243323,"current_range_meters":39200,"station_id":"ce4bh0p2rcd13ifvqd80","pricing_plan_id":"cebpf4jnsgd1na2vs0mg"},{"bike_id":"5da84c8a-0785-4f55-b177-f17040c2e314","system_id":"levelo_inurba_marseille","lat":43.31891,"lon":5.40727,"is_reserved":false,"is_disabled":false,"rental_uris":{"android":"levelo://app?vid=5da84c8a-0785-4f55-b177-f17040c2e314","ios":"levelo://app?vid=5da84c8a-0785-4f55-b177-f17040c2e314"},"vehicle_type_id":"4","last_reported":1730243323,"current_range_meters":10800,"station_id":"ce4bhq12rcd13ifvqhig","pricing_plan_id":"cebpf4jnsgd1na2vs0mg"},{"bike_id":"22f0600a-2691-4760-befa-2ce1f8b909d0","system_id":"levelo_inurba_marseille","lat":43.29048,"lon":5.35904,"is_reserved":false,"is_disabled":false,"rental_uris":{"android":"levelo://app?vid=22f0600a-2691-4760-befa-2ce1f8b909d0","ios":"levelo://app?vid=22f0600a-2691-4760-befa-2ce1f8b909d0"},"vehicle_type_id":"4","last_reported":1730243323,"current_range_meters":17200,"station_id":"ce4bha92rcd13ifvqeg0","pricing_plan_id":"cebpf4jnsgd1na2vs0mg"},{"bike_id":"d2c17046-9896-432f-9e17-bbc2b6ac2460","system_id":"levelo_inurba_marseille","lat":43.29227,"lon":5.36056,"is_reserved":false,"is_disabled":false,"rental_uris":{"android":"levelo://app?vid=d2c17046-9896-432f-9e17-bbc2b6ac2460","ios":"levelo://app?vid=d2c17046-9896-432f-9e17-bbc2b6ac2460"},"vehicle_type_id":"4","last_reported":1730243323,"current_range_meters":38400,"station_id":"ce4bhbh2rcd13ifvqeqg","pricing_plan_id":"cebpf4jnsgd1na2vs0mg"},{"bike_id":"8849160d-9984-48f0-9842-1051293418a2","system_id":"levelo_inurba_marseille","lat":43.24655,"lon":5.38893,"is_reserved":false,"is_disabled":false,"rental_uris":{"android":"levelo://app?vid=8849160d-9984-48f0-9842-1051293418a2","ios":"levelo://app?vid=8849160d-9984-48f0-9842-1051293418a2"},"vehicle_type_id":"4","last_reported":1730243323,"current_range_meters":35600,"station_id":"ce4bhg12rcd13ifvqf60","pricing_plan_id":"cebpf4jnsgd1na2vs0mg"},{"bike_id":"a1f83bf3-eed6-45ed-a98a-d29a1a4fe512","system_id":"levelo_inurba_marseille","lat":43.2993,"lon":5.4131,"is_reserved":false,"is_disabled":false,"rental_uris":{"android":"levelo://app?vid=a1f83bf3-eed6-45ed-a98a-d29a1a4fe512","ios":"levelo://app?vid=a1f83bf3-eed6-45ed-a98a-d29a1a4fe512"},"vehicle_type_id":"4","last_reported":1730243323,"current_range_meters":25600,"station_id":"ce4bhp12rcd13ifvqh9g","pricing_plan_id":"cebpf4jnsgd1na2vs0mg"},{"bike_id":"8c663904-263f-4f11-a08c-ef85e2b66331","system_id":"levelo_inurba_marseille","lat":43.30541,"lon":5.38419,"is_reserved":false,"is_disabled":false,"rental_uris":{"android":"levelo://app?vid=8c663904-263f-4f11-a08c-ef85e2b66331","ios":"levelo://app?vid=8c663904-263f-4f11-a08c-ef85e2b66331"},"vehicle_type_id":"4","last_reported":1730243323,"current_range_meters":25200,"station_id":"ce4bgg92rcd13ifvqb30","pricing_plan_id":"cebpf4jnsgd1na2vs0mg"},{"bike_id":"52a3e921-e914-4145-9e0d-93081e417edd","system_id":"levelo_inurba_marseille","lat":43.31116,"lon":5.37771,"is_reserved":false,"is_disabled":false,"rental_uris":{"android":"levelo://app?vid=52a3e921-e914-4145-9e0d-93081e417edd","ios":"levelo://app?vid=52a3e921-e914-4145-9e0d-93081e417edd"},"vehicle_type_id":"4","last_reported":1730243323,"current_range_meters":10800,"station_id":"ce4bgt92rcd13ifvqcg0","pricing_plan_id":"cebpf4jnsgd1na2vs0mg"},{"bike_id":"4aea2264-7c38-4c9d-b643-fddc90b2caa0","system_id":"levelo_inurba_marseille","lat":43.27496,"lon":5.42445,"is_reserved":false,"is_disabled":false,"rental_uris":{"android":"levelo://app?vid=4aea2264-7c38-4c9d-b643-fddc90b2caa0","ios":"levelo://app?vid=4aea2264-7c38-4c9d-b643-fddc90b2caa0"},"vehicle_type_id":"4","last_reported":1730243323,"current_range_meters":32800,"station_id":"ce4bhn92rcd13ifvqgrg","pricing_plan_id":"cebpf4jnsgd1na2vs0mg"},{"bike_id":"84ab4192-78ed-432b-9976-1559aadfc733","system_id":"levelo_inurba_marseille","lat":43.28105,"lon":5.37849,"is_reserved":false,"is_disabled":false,"rental_uris":{"android":"levelo://app?vid=84ab4192-78ed-432b-9976-1559aadfc733","ios":"levelo://app?vid=84ab4192-78ed-432b-9976-1559aadfc733"},"vehicle_type_id":"4","last_reported":1730243323,"current_range_meters":7200,"station_id":"ce4bha12rcd13ifvqee0","pricing_plan_id":"cebpf4jnsgd1na2vs0mg"},{"bike_id":"31d8acc7-b248-42e9-89fe-8107bf8c6790","system_id":"levelo_inurba_marseille","lat":43.2848,"lon":5.385736,"is_reserved":false,"is_disabled":false,"rental_uris":{"android":"levelo://app?vid=31d8acc7-b248-42e9-89fe-8107bf8c6790","ios":"levelo://app?vid=31d8acc7-b248-42e9-89fe-8107bf8c6790"},"vehicle_type_id":"4","last_reported":1730243323,"current_range_meters":22800,"station_id":"ce4bh8p2rcd13ifvqeb0","pricing_plan_id":"cebpf4jnsgd1na2vs0mg"},{"bike_id":"766801a5-7dbd-464a-bc56-398e14b9cf78","system_id":"levelo_inurba_marseille","lat":43.29805,"lon":5.37136,"is_reserved":false,"is_disabled":false,"rental_uris":{"android":"levelo://app?vid=766801a5-7dbd-464a-bc56-398e14b9cf78","ios":"levelo://app?vid=766801a5-7dbd-464a-bc56-398e14b9cf78"},"vehicle_type_id":"4","last_reported":1730243323,"current_range_meters":8800,"station_id":"","pricing_plan_id":"cebpf4jnsgd1na2vs0mg"},{"bike_id":"afc8a59e-718c-432c-b226-d6be0903e5fb","system_id":"levelo_inurba_marseille","lat":43.24386,"lon":5.3706,"is_reserved":false,"is_disabled":false,"rental_uris":{"android":"levelo://app?vid=afc8a59e-718c-432c-b226-d6be0903e5fb","ios":"levelo://app?vid=afc8a59e-718c-432c-b226-d6be0903e5fb"},"vehicle_type_id":"4","last_reported":1730243323,"current_range_meters":36400,"station_id":"ce4bhhh2rcd13ifvqfk0","pricing_plan_id":"cebpf4jnsgd1na2vs0mg"},{"bike_id":"82b84855-c758-4a47-9f5e-92c4c940506e","system_id":"levelo_inurba_marseille","lat":43.3109,"lon":5.38362,"is_reserved":false,"is_disabled":false,"rental_uris":{"android":"levelo://app?vid=82b84855-c758-4a47-9f5e-92c4c940506e","ios":"levelo://app?vid=82b84855-c758-4a47-9f5e-92c4c940506e"},"vehicle_type_id":"4","last_reported":1730243323,"current_range_meters":36000,"station_id":"ce4bgv92rcd13ifvqcr0","pricing_plan_id":"cebpf4jnsgd1na2vs0mg"},{"bike_id":"dc9fcbc2-25a5-49b0-8f5b-b50909decbe2","system_id":"levelo_inurba_marseille","lat":43.24804,"lon":5.37453,"is_reserved":false,"is_disabled":false,"rental_uris":{"android":"levelo://app?vid=dc9fcbc2-25a5-49b0-8f5b-b50909decbe2","ios":"levelo://app?vid=dc9fcbc2-25a5-49b0-8f5b-b50909decbe2"},"vehicle_type_id":"4","last_reported":1730243323,"current_range_meters":33200,"station_id":"ce4bhgh2rcd13ifvqfb0","pricing_plan_id":"cebpf4jnsgd1na2vs0mg"},{"bike_id":"02323299-241a-41d8-8fb2-e94fc158cdea","system_id":"levelo_inurba_marseille","lat":43.30265,"lon":5.40074,"is_reserved":false,"is_disabled":false,"rental_uris":{"android":"levelo://app?vid=02323299-241a-41d8-8fb2-e94fc158cdea","ios":"levelo://app?vid=02323299-241a-41d8-8fb2-e94fc158cdea"},"vehicle_type_id":"4","last_reported":1730243323,"current_range_meters":25600,"station_id":"ce4bgvh2rcd13ifvqcs0","pricing_plan_id":"cebpf4jnsgd1na2vs0mg"},{"bike_id":"456cbe5f-5d22-41ce-8d7b-d9113261b82f","system_id":"levelo_inurba_marseille","lat":43.26058,"lon":5.39399,"is_reserved":false,"is_disabled":false,"rental_uris":{"android":"levelo://app?vid=456cbe5f-5d22-41ce-8d7b-d9113261b82f","ios":"levelo://app?vid=456cbe5f-5d22-41ce-8d7b-d9113261b82f"},"vehicle_type_id":"4","last_reported":1730243323,"current_range_meters":39200,"station_id":"ce4bhh92rcd13ifvqfj0","pricing_plan_id":"cebpf4jnsgd1na2vs0mg"},{"bike_id":"d41f792f-900e-4e5e-ac9b-bb6a1bdac6dc","system_id":"levelo_inurba_marseille","lat":43.30891,"lon":5.39646,"is_reserved":false,"is_disabled":false,"rental_uris":{"android":"levelo://app?vid=d41f792f-900e-4e5e-ac9b-bb6a1bdac6dc","ios":"levelo://app?vid=d41f792f-900e-4e5e-ac9b-bb6a1bdac6dc"},"vehicle_type_id":"4","last_reported":1730243323,"current_range_meters":27600,"station_id":"ce4bh012rcd13ifvqcv0","pricing_plan_id":"cebpf4jnsgd1na2vs0mg"},{"bike_id":"77dc0b08-ea4e-4b2d-b82f-fcf9cdff2fbe","system_id":"levelo_inurba_marseille","lat":43.28668,"lon":5.36342,"is_reserved":false,"is_disabled":false,"rental_uris":{"android":"levelo://app?vid=77dc0b08-ea4e-4b2d-b82f-fcf9cdff2fbe","ios":"levelo://app?vid=77dc0b08-ea4e-4b2d-b82f-fcf9cdff2fbe"},"vehicle_type_id":"4","last_reported":1730243323,"current_range_meters":39200,"station_id":"ce4bhah2rcd13ifvqej0","pricing_plan_id":"cebpf4jnsgd1na2vs0mg"},{"bike_id":"84a34f64-d710-4f7b-8f16-f367a9f930e0","system_id":"levelo_inurba_marseille","lat":43.26063,"lon":5.3939,"is_reserved":false,"is_disabled":false,"rental_uris":{"android":"levelo://app?vid=84a34f64-d710-4f7b-8f16-f367a9f930e0","ios":"levelo://app?vid=84a34f64-d710-4f7b-8f16-f367a9f930e0"},"vehicle_type_id":"4","last_reported":1730243323,"current_range_meters":28400,"station_id":"ce4bhh92rcd13ifvqfj0","pricing_plan_id":"cebpf4jnsgd1na2vs0mg"},{"bike_id":"a1a6c8b4-85d6-4f26-805f-292d516d4f6e","system_id":"levelo_inurba_marseille","lat":43.30417,"lon":5.41283,"is_reserved":false,"is_disabled":false,"rental_uris":{"android":"levelo://app?vid=a1a6c8b4-85d6-4f26-805f-292d516d4f6e","ios":"levelo://app?vid=a1a6c8b4-85d6-4f26-805f-292d516d4f6e"},"vehicle_type_id":"4","last_reported":1730243323,"current_range_meters":19200,"station_id":"ce4bhop2rcd13ifvqh8g","pricing_plan_id":"cebpf4jnsgd1na2vs0mg"},{"bike_id":"cf1bf93e-b987-4f03-9549-b984bb838aa3","system_id":"levelo_inurba_marseille","lat":43.26799,"lon":5.39411,"is_reserved":false,"is_disabled":false,"rental_uris":{"android":"levelo://app?vid=cf1bf93e-b987-4f03-9549-b984bb838aa3","ios":"levelo://app?vid=cf1bf93e-b987-4f03-9549-b984bb838aa3"},"vehicle_type_id":"4","last_reported":1730243323,"current_range_meters":38800,"station_id":"ce4bhh12rcd13ifvqfg0","pricing_plan_id":"cebpf4jnsgd1na2vs0mg"},{"bike_id":"d4b40456-c3ce-40f0-bc3e-eb9a7b769e61","system_id":"levelo_inurba_marseille","lat":43.28941,"lon":5.38402,"is_reserved":false,"is_disabled":false,"rental_uris":{"android":"levelo://app?vid=d4b40456-c3ce-40f0-bc3e-eb9a7b769e61","ios":"levelo://app?vid=d4b40456-c3ce-40f0-bc3e-eb9a7b769e61"},"vehicle_type_id":"4","last_reported":1730243323,"current_range_meters":36800,"station_id":"ce4bh612rcd13ifvqe6g","pricing_plan_id":"cebpf4jnsgd1na2vs0mg"},{"bike_id":"035a9c05-ee15-4857-b0a9-c8cf213785d3","system_id":"levelo_inurba_marseille","lat":43.28946,"lon":5.36408,"is_reserved":false,"is_disabled":false,"rental_uris":{"android":"levelo://app?vid=035a9c05-ee15-4857-b0a9-c8cf213785d3","ios":"levelo://app?vid=035a9c05-ee15-4857-b0a9-c8cf213785d3"},"vehicle_type_id":"4","last_reported":1730243323,"current_range_meters":12400,"station_id":"ce4bhc92rcd13ifvqetg","pricing_plan_id":"cebpf4jnsgd1na2vs0mg"},{"bike_id":"4e31688e-2ef1-4fcc-b0a7-39d75e5a272a","system_id":"levelo_inurba_marseille","lat":43.30099,"lon":5.39076,"is_reserved":false,"is_disabled":false,"rental_uris":{"android":"levelo://app?vid=4e31688e-2ef1-4fcc-b0a7-39d75e5a272a","ios":"levelo://app?vid=4e31688e-2ef1-4fcc-b0a7-39d75e5a272a"},"vehicle_type_id":"4","last_reported":1730243323,"current_range_meters":36800,"station_id":"ce4bh192rcd13ifvqdb0","pricing_plan_id":"cebpf4jnsgd1na2vs0mg"},{"bike_id":"49b34d6a-4e76-47a8-9689-e9d8edd613f0","system_id":"levelo_inurba_marseille","lat":43.28718,"lon":5.37938,"is_reserved":false,"is_disabled":false,"rental_uris":{"android":"levelo://app?vid=49b34d6a-4e76-47a8-9689-e9d8edd613f0","ios":"levelo://app?vid=49b34d6a-4e76-47a8-9689-e9d8edd613f0"},"vehicle_type_id":"4","last_reported":1730243323,"current_range_meters":38800,"station_id":"ce4bh9p2rcd13ifvqec0","pricing_plan_id":"cebpf4jnsgd1na2vs0mg"},{"bike_id":"a72bae2f-a1fa-4b50-9016-f67bea7bd397","system_id":"levelo_inurba_marseille","lat":43.3019,"lon":5.38942,"is_reserved":false,"is_disabled":false,"rental_uris":{"android":"levelo://app?vid=a72bae2f-a1fa-4b50-9016-f67bea7bd397","ios":"levelo://app?vid=a72bae2f-a1fa-4b50-9016-f67bea7bd397"},"vehicle_type_id":"4","last_reported":1730243323,"current_range_meters":28000,"station_id":"ce4bh312rcd13ifvqdk0","pricing_plan_id":"cebpf4jnsgd1na2vs0mg"},{"bike_id":"a06aaa3a-469c-4c08-9a71-0d7e5c362262","system_id":"levelo_inurba_marseille","lat":43.33716,"lon":5.39178,"is_reserved":false,"is_disabled":false,"rental_uris":{"android":"levelo://app?vid=a06aaa3a-469c-4c08-9a71-0d7e5c362262","ios":"levelo://app?vid=a06aaa3a-469c-4c08-9a71-0d7e5c362262"},"vehicle_type_id":"4","last_reported":1730243323,"current_range_meters":30000,"station_id":"ce4bhr92rcd13ifvqhsg","pricing_plan_id":"cebpf4jnsgd1na2vs0mg"},{"bike_id":"658773aa-24df-4cd9-bf76-abb236a8b05e","system_id":"levelo_inurba_marseille","lat":43.32333,"lon":5.40618,"is_reserved":false,"is_disabled":false,"rental_uris":{"android":"levelo://app?vid=658773aa-24df-4cd9-bf76-abb236a8b05e","ios":"levelo://app?vid=658773aa-24df-4cd9-bf76-abb236a8b05e"},"vehicle_type_id":"4","last_reported":1730243323,"current_range_meters":23200,"station_id":"ce4bhq92rcd13ifvqhjg","pricing_plan_id":"cebpf4jnsgd1na2vs0mg"},{"bike_id":"9db6af96-1243-48a7-88ae-d2f63cb9cb8a","system_id":"levelo_inurba_marseille","lat":43.3233,"lon":5.4062,"is_reserved":false,"is_disabled":false,"rental_uris":{"android":"levelo://app?vid=9db6af96-1243-48a7-88ae-d2f63cb9cb8a","ios":"levelo://app?vid=9db6af96-1243-48a7-88ae-d2f63cb9cb8a"},"vehicle_type_id":"4","last_reported":1730243323,"current_range_meters":27200,"station_id":"ce4bhq92rcd13ifvqhjg","pricing_plan_id":"cebpf4jnsgd1na2vs0mg"},{"bike_id":"5bc359ef-50e6-4cae-b218-6bbff5ce2395","system_id":"levelo_inurba_marseille","lat":43.28858,"lon":5.35873,"is_reserved":false,"is_disabled":false,"rental_uris":{"android":"levelo://app?vid=5bc359ef-50e6-4cae-b218-6bbff5ce2395","ios":"levelo://app?vid=5bc359ef-50e6-4cae-b218-6bbff5ce2395"},"vehicle_type_id":"4","last_reported":1730243323,"current_range_meters":33600,"station_id":"ce4bhb12rcd13ifvqem0","pricing_plan_id":"cebpf4jnsgd1na2vs0mg"},{"bike_id":"1af85e26-afed-47d9-abe0-b9bfe9c2a3a0","system_id":"levelo_inurba_marseille","lat":43.32366,"lon":5.38879,"is_reserved":false,"is_disabled":false,"rental_uris":{"android":"levelo://app?vid=1af85e26-afed-47d9-abe0-b9bfe9c2a3a0","ios":"levelo://app?vid=1af85e26-afed-47d9-abe0-b9bfe9c2a3a0"},"vehicle_type_id":"4","last_reported":1730243323,"current_range_meters":38800,"station_id":"ce4bhqp2rcd13ifvqhog","pricing_plan_id":"cebpf4jnsgd1na2vs0mg"},{"bike_id":"6e097aef-9fa1-4f35-8115-553491fb4a7e","system_id":"levelo_inurba_marseille","lat":43.302313,"lon":5.400457,"is_reserved":false,"is_disabled":false,"rental_uris":{"android":"levelo://app?vid=6e097aef-9fa1-4f35-8115-553491fb4a7e","ios":"levelo://app?vid=6e097aef-9fa1-4f35-8115-553491fb4a7e"},"vehicle_type_id":"4","last_reported":1730243323,"current_range_meters":31200,"station_id":"ce4bgvh2rcd13ifvqcs0","pricing_plan_id":"cebpf4jnsgd1na2vs0mg"},{"bike_id":"c2d36fcd-c05b-4564-962d-c24decfa43a1","system_id":"levelo_inurba_marseille","lat":43.27563,"lon":5.38416,"is_reserved":false,"is_disabled":false,"rental_uris":{"android":"levelo://app?vid=c2d36fcd-c05b-4564-962d-c24decfa43a1","ios":"levelo://app?vid=c2d36fcd-c05b-4564-962d-c24decfa43a1"},"vehicle_type_id":"4","last_reported":1730243323,"current_range_meters":9200,"station_id":"ce4bhh92rcd13ifvqfi0","pricing_plan_id":"cebpf4jnsgd1na2vs0mg"},{"bike_id":"d286e519-bda2-4e77-b545-2cdf7f03129a","system_id":"levelo_inurba_marseille","lat":43.31176,"lon":5.38719,"is_reserved":false,"is_disabled":false,"rental_uris":{"android":"levelo://app?vid=d286e519-bda2-4e77-b545-2cdf7f03129a","ios":"levelo://app?vid=d286e519-bda2-4e77-b545-2cdf7f03129a"},"vehicle_type_id":"4","last_reported":1730243323,"current_range_meters":39200,"station_id":"ce4bgv12rcd13ifvqcp0","pricing_plan_id":"cebpf4jnsgd1na2vs0mg"},{"bike_id":"96cd2a77-e3b6-47fc-955f-5080a2bfaf42","system_id":"levelo_inurba_marseille","lat":43.2319,"lon":5.39983,"is_reserved":false,"is_disabled":false,"rental_uris":{"android":"levelo://app?vid=96cd2a77-e3b6-47fc-955f-5080a2bfaf42","ios":"levelo://app?vid=96cd2a77-e3b6-47fc-955f-5080a2bfaf42"},"vehicle_type_id":"4","last_reported":1730243323,"current_range_meters":38800,"station_id":"ce4bhn12rcd13ifvqgqg","pricing_plan_id":"cebpf4jnsgd1na2vs0mg"},{"bike_id":"13c85d59-c7cb-409d-b7e2-9aa757f7035f","system_id":"levelo_inurba_marseille","lat":43.32658,"lon":5.40995,"is_reserved":false,"is_disabled":false,"rental_uris":{"android":"levelo://app?vid=13c85d59-c7cb-409d-b7e2-9aa757f7035f","ios":"levelo://app?vid=13c85d59-c7cb-409d-b7e2-9aa757f7035f"},"vehicle_type_id":"4","last_reported":1730243323,"current_range_meters":9200,"station_id":"ce4bhpp2rcd13ifvqhgg","pricing_plan_id":"cebpf4jnsgd1na2vs0mg"},{"bike_id":"99d2b6c3-4379-4a9a-933b-2d5a9480f4f1","system_id":"levelo_inurba_marseille","lat":43.31534,"lon":5.38025,"is_reserved":false,"is_disabled":false,"rental_uris":{"android":"levelo://app?vid=99d2b6c3-4379-4a9a-933b-2d5a9480f4f1","ios":"levelo://app?vid=99d2b6c3-4379-4a9a-933b-2d5a9480f4f1"},"vehicle_type_id":"4","last_reported":1730243323,"current_range_meters":38800,"station_id":"ce4bhsp2rcd13ifvqi50","pricing_plan_id":"cebpf4jnsgd1na2vs0mg"},{"bike_id":"b48eacfa-a4c4-4e90-acf3-6e3bbaaa5f6e","system_id":"levelo_inurba_marseille","lat":43.30932,"lon":5.40144,"is_reserved":false,"is_disabled":false,"rental_uris":{"android":"levelo://app?vid=b48eacfa-a4c4-4e90-acf3-6e3bbaaa5f6e","ios":"levelo://app?vid=b48eacfa-a4c4-4e90-acf3-6e3bbaaa5f6e"},"vehicle_type_id":"4","last_reported":1730243323,"current_range_meters":38000,"station_id":"ce4bgvp2rcd13ifvqct0","pricing_plan_id":"cebpf4jnsgd1na2vs0mg"},{"bike_id":"178829a6-3513-4378-82e9-610d5d5943c5","system_id":"levelo_inurba_marseille","lat":43.31276,"lon":5.40176,"is_reserved":false,"is_disabled":false,"rental_uris":{"android":"levelo://app?vid=178829a6-3513-4378-82e9-610d5d5943c5","ios":"levelo://app?vid=178829a6-3513-4378-82e9-610d5d5943c5"},"vehicle_type_id":"4","last_reported":1730243323,"current_range_meters":22800,"station_id":"ce4bh092rcd13ifvqd30","pricing_plan_id":"cebpf4jnsgd1na2vs0mg"},{"bike_id":"5ea475d8-fbf3-460f-872c-01c8b0273f69","system_id":"levelo_inurba_marseille","lat":43.23053,"lon":5.35487,"is_reserved":false,"is_disabled":false,"rental_uris":{"android":"levelo://app?vid=5ea475d8-fbf3-460f-872c-01c8b0273f69","ios":"levelo://app?vid=5ea475d8-fbf3-460f-872c-01c8b0273f69"},"vehicle_type_id":"4","last_reported":1730243323,"current_range_meters":11200,"station_id":"cpo3342slgdg3j2ifvpg","pricing_plan_id":"cebpf4jnsgd1na2vs0mg"},{"bike_id":"2be9bc22-5c5c-4737-9da1-744ca95ac8b4","system_id":"levelo_inurba_marseille","lat":43.32656,"lon":5.40985,"is_reserved":false,"is_disabled":false,"rental_uris":{"android":"levelo://app?vid=2be9bc22-5c5c-4737-9da1-744ca95ac8b4","ios":"levelo://app?vid=2be9bc22-5c5c-4737-9da1-744ca95ac8b4"},"vehicle_type_id":"4","last_reported":1730243323,"current_range_meters":8400,"station_id":"ce4bhpp2rcd13ifvqhgg","pricing_plan_id":"cebpf4jnsgd1na2vs0mg"},{"bike_id":"59c7403a-36af-4ab9-a8fb-4e8f180bdcbe","system_id":"levelo_inurba_marseille","lat":43.24078,"lon":5.37738,"is_reserved":false,"is_disabled":false,"rental_uris":{"android":"levelo://app?vid=59c7403a-36af-4ab9-a8fb-4e8f180bdcbe","ios":"levelo://app?vid=59c7403a-36af-4ab9-a8fb-4e8f180bdcbe"},"vehicle_type_id":"4","last_reported":1730243323,"current_range_meters":9200,"station_id":"ce4bhnp2rcd13ifvqgvg","pricing_plan_id":"cebpf4jnsgd1na2vs0mg"},{"bike_id":"319628af-6ed0-4c6b-85da-8e8cbc64e217","system_id":"levelo_inurba_marseille","lat":43.24393,"lon":5.37058,"is_reserved":false,"is_disabled":false,"rental_uris":{"android":"levelo://app?vid=319628af-6ed0-4c6b-85da-8e8cbc64e217","ios":"levelo://app?vid=319628af-6ed0-4c6b-85da-8e8cbc64e217"},"vehicle_type_id":"4","last_reported":1730243323,"current_range_meters":38400,"station_id":"ce4bhhh2rcd13ifvqfk0","pricing_plan_id":"cebpf4jnsgd1na2vs0mg"},{"bike_id":"5c77d39d-11aa-429c-98b6-75adc29345da","system_id":"levelo_inurba_marseille","lat":43.28406,"lon":5.37512,"is_reserved":false,"is_disabled":false,"rental_uris":{"android":"levelo://app?vid=5c77d39d-11aa-429c-98b6-75adc29345da","ios":"levelo://app?vid=5c77d39d-11aa-429c-98b6-75adc29345da"},"vehicle_type_id":"4","last_reported":1730243323,"current_range_meters":38800,"station_id":"ce4bh412rcd13ifvqds0","pricing_plan_id":"cebpf4jnsgd1na2vs0mg"},{"bike_id":"4a56c94b-d3fd-4e5a-aefb-b74f15f172fd","system_id":"levelo_inurba_marseille","lat":43.29305,"lon":5.37195,"is_reserved":false,"is_disabled":false,"rental_uris":{"android":"levelo://app?vid=4a56c94b-d3fd-4e5a-aefb-b74f15f172fd","ios":"levelo://app?vid=4a56c94b-d3fd-4e5a-aefb-b74f15f172fd"},"vehicle_type_id":"4","last_reported":1730243323,"current_range_meters":17600,"station_id":"ce4bgh92rcd13ifvqb40","pricing_plan_id":"cebpf4jnsgd1na2vs0mg"},{"bike_id":"5aecf52a-143c-4328-8118-c219e78a16dc","system_id":"levelo_inurba_marseille","lat":43.24802,"lon":5.37452,"is_reserved":false,"is_disabled":false,"rental_uris":{"android":"levelo://app?vid=5aecf52a-143c-4328-8118-c219e78a16dc","ios":"levelo://app?vid=5aecf52a-143c-4328-8118-c219e78a16dc"},"vehicle_type_id":"4","last_reported":1730243323,"current_range_meters":34000,"station_id":"ce4bhgh2rcd13ifvqfb0","pricing_plan_id":"cebpf4jnsgd1na2vs0mg"},{"bike_id":"77f9416c-2752-4d2f-ba7e-9dd2db802b3e","system_id":"levelo_inurba_marseille","lat":43.31276,"lon":5.40177,"is_reserved":false,"is_disabled":false,"rental_uris":{"android":"levelo://app?vid=77f9416c-2752-4d2f-ba7e-9dd2db802b3e","ios":"levelo://app?vid=77f9416c-2752-4d2f-ba7e-9dd2db802b3e"},"vehicle_type_id":"4","last_reported":1730243323,"current_range_meters":20000,"station_id":"ce4bh092rcd13ifvqd30","pricing_plan_id":"cebpf4jnsgd1na2vs0mg"},{"bike_id":"b032dfcf-4e26-4322-bd52-698311f945e5","system_id":"levelo_inurba_marseille","lat":43.31165,"lon":5.38712,"is_reserved":false,"is_disabled":false,"rental_uris":{"android":"levelo://app?vid=b032dfcf-4e26-4322-bd52-698311f945e5","ios":"levelo://app?vid=b032dfcf-4e26-4322-bd52-698311f945e5"},"vehicle_type_id":"4","last_reported":1730243323,"current_range_meters":38800,"station_id":"ce4bgv12rcd13ifvqcp0","pricing_plan_id":"cebpf4jnsgd1na2vs0mg"},{"bike_id":"5a0a6089-a30b-4bc3-acd2-1a625f83eeb8","system_id":"levelo_inurba_marseille","lat":43.31893,"lon":5.40727,"is_reserved":false,"is_disabled":false,"rental_uris":{"android":"levelo://app?vid=5a0a6089-a30b-4bc3-acd2-1a625f83eeb8","ios":"levelo://app?vid=5a0a6089-a30b-4bc3-acd2-1a625f83eeb8"},"vehicle_type_id":"4","last_reported":1730243323,"current_range_meters":38400,"station_id":"ce4bhq12rcd13ifvqhig","pricing_plan_id":"cebpf4jnsgd1na2vs0mg"},{"bike_id":"572442fc-4e1c-456d-9c2a-27bcb4264a4b","system_id":"levelo_inurba_marseille","lat":43.31886,"lon":5.40731,"is_reserved":false,"is_disabled":false,"rental_uris":{"android":"levelo://app?vid=572442fc-4e1c-456d-9c2a-27bcb4264a4b","ios":"levelo://app?vid=572442fc-4e1c-456d-9c2a-27bcb4264a4b"},"vehicle_type_id":"4","last_reported":1730243323,"current_range_meters":33600,"station_id":"ce4bhq12rcd13ifvqhig","pricing_plan_id":"cebpf4jnsgd1na2vs0mg"},{"bike_id":"7947d3db-b389-4bc6-a95d-d0e3ee350497","system_id":"levelo_inurba_marseille","lat":43.31759,"lon":5.39017,"is_reserved":false,"is_disabled":false,"rental_uris":{"android":"levelo://app?vid=7947d3db-b389-4bc6-a95d-d0e3ee350497","ios":"levelo://app?vid=7947d3db-b389-4bc6-a95d-d0e3ee350497"},"vehicle_type_id":"4","last_reported":1730243323,"current_range_meters":36400,"station_id":"ce4bhqp2rcd13ifvqhng","pricing_plan_id":"cebpf4jnsgd1na2vs0mg"},{"bike_id":"4a595e2d-8edf-4bb0-9aa0-66a379b7bc81","system_id":"levelo_inurba_marseille","lat":43.31114,"lon":5.37765,"is_reserved":false,"is_disabled":false,"rental_uris":{"android":"levelo://app?vid=4a595e2d-8edf-4bb0-9aa0-66a379b7bc81","ios":"levelo://app?vid=4a595e2d-8edf-4bb0-9aa0-66a379b7bc81"},"vehicle_type_id":"4","last_reported":1730243323,"current_range_meters":38800,"station_id":"ce4bgt92rcd13ifvqcg0","pricing_plan_id":"cebpf4jnsgd1na2vs0mg"},{"bike_id":"80333497-1bc3-4cba-adbc-20f8b45cb3a1","system_id":"levelo_inurba_marseille","lat":43.2508,"lon":5.39509,"is_reserved":false,"is_disabled":false,"rental_uris":{"android":"levelo://app?vid=80333497-1bc3-4cba-adbc-20f8b45cb3a1","ios":"levelo://app?vid=80333497-1bc3-4cba-adbc-20f8b45cb3a1"},"vehicle_type_id":"4","last_reported":1730243323,"current_range_meters":39200,"station_id":"ce4bhm12rcd13ifvqgkg","pricing_plan_id":"cebpf4jnsgd1na2vs0mg"},{"bike_id":"474751a0-4b28-46a9-9221-b9734addf23a","system_id":"levelo_inurba_marseille","lat":43.29199,"lon":5.39323,"is_reserved":false,"is_disabled":false,"rental_uris":{"android":"levelo://app?vid=474751a0-4b28-46a9-9221-b9734addf23a","ios":"levelo://app?vid=474751a0-4b28-46a9-9221-b9734addf23a"},"vehicle_type_id":"4","last_reported":1730243323,"current_range_meters":15200,"station_id":"ce4bh192rcd13ifvqdd0","pricing_plan_id":"cebpf4jnsgd1na2vs0mg"},{"bike_id":"9177b0ec-4fc4-4fa3-8db0-540a3c4999b6","system_id":"levelo_inurba_marseille","lat":43.28722,"lon":5.3611,"is_reserved":false,"is_disabled":false,"rental_uris":{"android":"levelo://app?vid=9177b0ec-4fc4-4fa3-8db0-540a3c4999b6","ios":"levelo://app?vid=9177b0ec-4fc4-4fa3-8db0-540a3c4999b6"},"vehicle_type_id":"4","last_reported":1730243323,"current_range_meters":25600,"station_id":"cki0cbj6b192h4jlfktg","pricing_plan_id":"cebpf4jnsgd1na2vs0mg"},{"bike_id":"cb6da5ef-8d54-462a-ac5c-1582820bec3a","system_id":"levelo_inurba_marseille","lat":43.265,"lon":5.39551,"is_reserved":false,"is_disabled":false,"rental_uris":{"android":"levelo://app?vid=cb6da5ef-8d54-462a-ac5c-1582820bec3a","ios":"levelo://app?vid=cb6da5ef-8d54-462a-ac5c-1582820bec3a"},"vehicle_type_id":"4","last_reported":1730243323,"current_range_meters":4800,"station_id":"ce4bhi12rcd13ifvqfq0","pricing_plan_id":"cebpf4jnsgd1na2vs0mg"},{"bike_id":"c8ef3d06-424b-4084-a839-d037aab9cd63","system_id":"levelo_inurba_marseille","lat":43.31362,"lon":5.38505,"is_reserved":false,"is_disabled":false,"rental_uris":{"android":"levelo://app?vid=c8ef3d06-424b-4084-a839-d037aab9cd63","ios":"levelo://app?vid=c8ef3d06-424b-4084-a839-d037aab9cd63"},"vehicle_type_id":"4","last_reported":1730243323,"current_range_meters":18000,"station_id":"ce4bgt92rcd13ifvqcf0","pricing_plan_id":"cebpf4jnsgd1na2vs0mg"},{"bike_id":"46f2d309-31ac-4b44-9b8c-3d6b64e54188","system_id":"levelo_inurba_marseille","lat":43.30652,"lon":5.40097,"is_reserved":false,"is_disabled":false,"rental_uris":{"android":"levelo://app?vid=46f2d309-31ac-4b44-9b8c-3d6b64e54188","ios":"levelo://app?vid=46f2d309-31ac-4b44-9b8c-3d6b64e54188"},"vehicle_type_id":"4","last_reported":1730243323,"current_range_meters":27600,"station_id":"ce4bh112rcd13ifvqda0","pricing_plan_id":"cebpf4jnsgd1na2vs0mg"},{"bike_id":"d4c87a5e-8e0d-4458-bf88-20b8bfaca958","system_id":"levelo_inurba_marseille","lat":43.29774,"lon":5.37095,"is_reserved":false,"is_disabled":false,"rental_uris":{"android":"levelo://app?vid=d4c87a5e-8e0d-4458-bf88-20b8bfaca958","ios":"levelo://app?vid=d4c87a5e-8e0d-4458-bf88-20b8bfaca958"},"vehicle_type_id":"4","last_reported":1730243323,"current_range_meters":39200,"station_id":"ce4bgop2rcd13ifvqc1g","pricing_plan_id":"cebpf4jnsgd1na2vs0mg"},{"bike_id":"d330032c-578a-40e3-99e4-e077b38f5f89","system_id":"levelo_inurba_marseille","lat":43.30881,"lon":5.39637,"is_reserved":false,"is_disabled":false,"rental_uris":{"android":"levelo://app?vid=d330032c-578a-40e3-99e4-e077b38f5f89","ios":"levelo://app?vid=d330032c-578a-40e3-99e4-e077b38f5f89"},"vehicle_type_id":"4","last_reported":1730243323,"current_range_meters":39200,"station_id":"ce4bh012rcd13ifvqcv0","pricing_plan_id":"cebpf4jnsgd1na2vs0mg"},{"bike_id":"acf8bf78-e96b-4e70-be1e-e1cddf062e95","system_id":"levelo_inurba_marseille","lat":43.28435,"lon":5.36079,"is_reserved":false,"is_disabled":false,"rental_uris":{"android":"levelo://app?vid=acf8bf78-e96b-4e70-be1e-e1cddf062e95","ios":"levelo://app?vid=acf8bf78-e96b-4e70-be1e-e1cddf062e95"},"vehicle_type_id":"4","last_reported":1730243323,"current_range_meters":14000,"station_id":"","pricing_plan_id":"cebpf4jnsgd1na2vs0mg"},{"bike_id":"d04dad51-5abb-432e-8a15-257ead54b0a1","system_id":"levelo_inurba_marseille","lat":43.29582,"lon":5.3674,"is_reserved":false,"is_disabled":false,"rental_uris":{"android":"levelo://app?vid=d04dad51-5abb-432e-8a15-257ead54b0a1","ios":"levelo://app?vid=d04dad51-5abb-432e-8a15-257ead54b0a1"},"vehicle_type_id":"4","last_reported":1730243323,"current_range_meters":34800,"station_id":"ce4bgph2rcd13ifvqc2g","pricing_plan_id":"cebpf4jnsgd1na2vs0mg"},{"bike_id":"d9d37fee-d572-4131-914e-98690801d460","system_id":"levelo_inurba_marseille","lat":43.27809,"lon":5.40709,"is_reserved":false,"is_disabled":false,"rental_uris":{"android":"levelo://app?vid=d9d37fee-d572-4131-914e-98690801d460","ios":"levelo://app?vid=d9d37fee-d572-4131-914e-98690801d460"},"vehicle_type_id":"4","last_reported":1730243323,"current_range_meters":26800,"station_id":"ce4bhnh2rcd13ifvqgtg","pricing_plan_id":"cebpf4jnsgd1na2vs0mg"},{"bike_id":"7ab796da-3d04-4fdd-8eb8-3d45a9efca7f","system_id":"levelo_inurba_marseille","lat":43.30947,"lon":5.39042,"is_reserved":false,"is_disabled":false,"rental_uris":{"android":"levelo://app?vid=7ab796da-3d04-4fdd-8eb8-3d45a9efca7f","ios":"levelo://app?vid=7ab796da-3d04-4fdd-8eb8-3d45a9efca7f"},"vehicle_type_id":"4","last_reported":1730243323,"current_range_meters":29600,"station_id":"ce4bgup2rcd13ifvqco0","pricing_plan_id":"cebpf4jnsgd1na2vs0mg"},{"bike_id":"160c3125-d109-49e3-a687-ede78b99dea2","system_id":"levelo_inurba_marseille","lat":43.23205,"lon":5.35548,"is_reserved":false,"is_disabled":false,"rental_uris":{"android":"levelo://app?vid=160c3125-d109-49e3-a687-ede78b99dea2","ios":"levelo://app?vid=160c3125-d109-49e3-a687-ede78b99dea2"},"vehicle_type_id":"4","last_reported":1730243323,"current_range_meters":14000,"station_id":"ce4bhu92rcd13ifvqi70","pricing_plan_id":"cebpf4jnsgd1na2vs0mg"},{"bike_id":"5dabbc13-411e-42f2-b6b7-494430433cbb","system_id":"levelo_inurba_marseille","lat":43.28467,"lon":5.35878,"is_reserved":false,"is_disabled":false,"rental_uris":{"android":"levelo://app?vid=5dabbc13-411e-42f2-b6b7-494430433cbb","ios":"levelo://app?vid=5dabbc13-411e-42f2-b6b7-494430433cbb"},"vehicle_type_id":"4","last_reported":1730243323,"current_range_meters":35200,"station_id":"ce4bhah2rcd13ifvqei0","pricing_plan_id":"cebpf4jnsgd1na2vs0mg"},{"bike_id":"7a3f60d6-5589-44b2-bea7-8a929e9b6b4e","system_id":"levelo_inurba_marseille","lat":43.29899,"lon":5.43667,"is_reserved":false,"is_disabled":false,"rental_uris":{"android":"levelo://app?vid=7a3f60d6-5589-44b2-bea7-8a929e9b6b4e","ios":"levelo://app?vid=7a3f60d6-5589-44b2-bea7-8a929e9b6b4e"},"vehicle_type_id":"4","last_reported":1730243323,"current_range_meters":15200,"station_id":"ce4bhpp2rcd13ifvqhfg","pricing_plan_id":"cebpf4jnsgd1na2vs0mg"},{"bike_id":"6b172309-c81a-4462-9b18-d1726497603c","system_id":"levelo_inurba_marseille","lat":43.26788,"lon":5.39414,"is_reserved":false,"is_disabled":false,"rental_uris":{"android":"levelo://app?vid=6b172309-c81a-4462-9b18-d1726497603c","ios":"levelo://app?vid=6b172309-c81a-4462-9b18-d1726497603c"},"vehicle_type_id":"4","last_reported":1730243323,"current_range_meters":38800,"station_id":"ce4bhh12rcd13ifvqfg0","pricing_plan_id":"cebpf4jnsgd1na2vs0mg"},{"bike_id":"79bf9c97-a5ea-4f15-9e63-9d99560507ff","system_id":"levelo_inurba_marseille","lat":43.29792,"lon":5.39354,"is_reserved":false,"is_disabled":false,"rental_uris":{"android":"levelo://app?vid=79bf9c97-a5ea-4f15-9e63-9d99560507ff","ios":"levelo://app?vid=79bf9c97-a5ea-4f15-9e63-9d99560507ff"},"vehicle_type_id":"4","last_reported":1730243323,"current_range_meters":24400,"station_id":"chh1huq6cuj3fo74tm60","pricing_plan_id":"cebpf4jnsgd1na2vs0mg"},{"bike_id":"5008d040-1e38-4eef-89ce-b806ce74d233","system_id":"levelo_inurba_marseille","lat":43.29253,"lon":5.40901,"is_reserved":false,"is_disabled":false,"rental_uris":{"android":"levelo://app?vid=5008d040-1e38-4eef-89ce-b806ce74d233","ios":"levelo://app?vid=5008d040-1e38-4eef-89ce-b806ce74d233"},"vehicle_type_id":"4","last_reported":1730243323,"current_range_meters":24400,"station_id":"ce4bh192rcd13ifvqdc0","pricing_plan_id":"cebpf4jnsgd1na2vs0mg"},{"bike_id":"182fb0b7-dba1-41ba-a358-c87eff55f06a","system_id":"levelo_inurba_marseille","lat":43.28463,"lon":5.3588,"is_reserved":false,"is_disabled":false,"rental_uris":{"android":"levelo://app?vid=182fb0b7-dba1-41ba-a358-c87eff55f06a","ios":"levelo://app?vid=182fb0b7-dba1-41ba-a358-c87eff55f06a"},"vehicle_type_id":"4","last_reported":1730243323,"current_range_meters":26800,"station_id":"ce4bhah2rcd13ifvqei0","pricing_plan_id":"cebpf4jnsgd1na2vs0mg"},{"bike_id":"436067c3-32c1-46bc-894e-d7be2d545a26","system_id":"levelo_inurba_marseille","lat":43.3266,"lon":5.40992,"is_reserved":false,"is_disabled":false,"rental_uris":{"android":"levelo://app?vid=436067c3-32c1-46bc-894e-d7be2d545a26","ios":"levelo://app?vid=436067c3-32c1-46bc-894e-d7be2d545a26"},"vehicle_type_id":"4","last_reported":1730243323,"current_range_meters":22400,"station_id":"ce4bhpp2rcd13ifvqhgg","pricing_plan_id":"cebpf4jnsgd1na2vs0mg"},{"bike_id":"0fe14beb-5168-49aa-a3f9-ee00e6d1612f","system_id":"levelo_inurba_marseille","lat":43.24676,"lon":5.38164,"is_reserved":false,"is_disabled":false,"rental_uris":{"android":"levelo://app?vid=0fe14beb-5168-49aa-a3f9-ee00e6d1612f","ios":"levelo://app?vid=0fe14beb-5168-49aa-a3f9-ee00e6d1612f"},"vehicle_type_id":"4","last_reported":1730243323,"current_range_meters":6000,"station_id":"ce4bhih2rcd13ifvqfr0","pricing_plan_id":"cebpf4jnsgd1na2vs0mg"},{"bike_id":"f2c1121c-5c92-4221-a002-33aa3e39f748","system_id":"levelo_inurba_marseille","lat":43.33607,"lon":5.41025,"is_reserved":false,"is_disabled":false,"rental_uris":{"android":"levelo://app?vid=f2c1121c-5c92-4221-a002-33aa3e39f748","ios":"levelo://app?vid=f2c1121c-5c92-4221-a002-33aa3e39f748"},"vehicle_type_id":"4","last_reported":1730243323,"current_range_meters":14800,"station_id":"ce4bhqh2rcd13ifvqhmg","pricing_plan_id":"cebpf4jnsgd1na2vs0mg"},{"bike_id":"8ccfcf84-c06e-46e0-a717-34a9401aa17c","system_id":"levelo_inurba_marseille","lat":43.27949,"lon":5.41038,"is_reserved":false,"is_disabled":false,"rental_uris":{"android":"levelo://app?vid=8ccfcf84-c06e-46e0-a717-34a9401aa17c","ios":"levelo://app?vid=8ccfcf84-c06e-46e0-a717-34a9401aa17c"},"vehicle_type_id":"4","last_reported":1730243323,"current_range_meters":27200,"station_id":"ce4bhnp2rcd13ifvqh0g","pricing_plan_id":"cebpf4jnsgd1na2vs0mg"},{"bike_id":"f0ec3fca-1d44-48b4-ada8-758d4d6b2718","system_id":"levelo_inurba_marseille","lat":43.28454,"lon":5.39197,"is_reserved":false,"is_disabled":false,"rental_uris":{"android":"levelo://app?vid=f0ec3fca-1d44-48b4-ada8-758d4d6b2718","ios":"levelo://app?vid=f0ec3fca-1d44-48b4-ada8-758d4d6b2718"},"vehicle_type_id":"4","last_reported":1730243323,"current_range_meters":14400,"station_id":"ce4bhoh2rcd13ifvqh5g","pricing_plan_id":"cebpf4jnsgd1na2vs0mg"},{"bike_id":"f793c0ab-64cd-4f7d-816d-e95d724f8dcb","system_id":"levelo_inurba_marseille","lat":43.31331,"lon":5.39699,"is_reserved":false,"is_disabled":false,"rental_uris":{"android":"levelo://app?vid=f793c0ab-64cd-4f7d-816d-e95d724f8dcb","ios":"levelo://app?vid=f793c0ab-64cd-4f7d-816d-e95d724f8dcb"},"vehicle_type_id":"4","last_reported":1730243323,"current_range_meters":27600,"station_id":"ce4bgvp2rcd13ifvqcu0","pricing_plan_id":"cebpf4jnsgd1na2vs0mg"},{"bike_id":"2bc253a6-b529-475e-b719-77af0dc4716f","system_id":"levelo_inurba_marseille","lat":43.27917,"lon":5.39583,"is_reserved":false,"is_disabled":false,"rental_uris":{"android":"levelo://app?vid=2bc253a6-b529-475e-b719-77af0dc4716f","ios":"levelo://app?vid=2bc253a6-b529-475e-b719-77af0dc4716f"},"vehicle_type_id":"4","last_reported":1730243323,"current_range_meters":30000,"station_id":"ce4bhf92rcd13ifvqf40","pricing_plan_id":"cebpf4jnsgd1na2vs0mg"},{"bike_id":"53c9fb3b-fe62-416a-9438-599e79f2ba1d","system_id":"levelo_inurba_marseille","lat":43.288452,"lon":5.39272,"is_reserved":false,"is_disabled":false,"rental_uris":{"android":"levelo://app?vid=53c9fb3b-fe62-416a-9438-599e79f2ba1d","ios":"levelo://app?vid=53c9fb3b-fe62-416a-9438-599e79f2ba1d"},"vehicle_type_id":"4","last_reported":1730243323,"current_range_meters":28400,"station_id":"ce4bh2p2rcd13ifvqdi0","pricing_plan_id":"cebpf4jnsgd1na2vs0mg"},{"bike_id":"e507a1d2-c4aa-42e3-bdeb-dc23b90e6b50","system_id":"levelo_inurba_marseille","lat":43.28706,"lon":5.39997,"is_reserved":false,"is_disabled":false,"rental_uris":{"android":"levelo://app?vid=e507a1d2-c4aa-42e3-bdeb-dc23b90e6b50","ios":"levelo://app?vid=e507a1d2-c4aa-42e3-bdeb-dc23b90e6b50"},"vehicle_type_id":"4","last_reported":1730243323,"current_range_meters":38800,"station_id":"ce4bho92rcd13ifvqh3g","pricing_plan_id":"cebpf4jnsgd1na2vs0mg"},{"bike_id":"9aefdc0d-e160-49ef-9457-b633d158fbe4","system_id":"levelo_inurba_marseille","lat":43.31754,"lon":5.3901,"is_reserved":false,"is_disabled":false,"rental_uris":{"android":"levelo://app?vid=9aefdc0d-e160-49ef-9457-b633d158fbe4","ios":"levelo://app?vid=9aefdc0d-e160-49ef-9457-b633d158fbe4"},"vehicle_type_id":"4","last_reported":1730243323,"current_range_meters":38800,"station_id":"ce4bhqp2rcd13ifvqhng","pricing_plan_id":"cebpf4jnsgd1na2vs0mg"},{"bike_id":"09075d4e-05f1-455b-8162-7c14b400dac4","system_id":"levelo_inurba_marseille","lat":43.31176,"lon":5.38701,"is_reserved":false,"is_disabled":false,"rental_uris":{"android":"levelo://app?vid=09075d4e-05f1-455b-8162-7c14b400dac4","ios":"levelo://app?vid=09075d4e-05f1-455b-8162-7c14b400dac4"},"vehicle_type_id":"4","last_reported":1730243323,"current_range_meters":28000,"station_id":"ce4bgv12rcd13ifvqcp0","pricing_plan_id":"cebpf4jnsgd1na2vs0mg"},{"bike_id":"7b2eb177-c758-4d7b-9c02-4b8390ada1a8","system_id":"levelo_inurba_marseille","lat":43.29569,"lon":5.39956,"is_reserved":false,"is_disabled":false,"rental_uris":{"android":"levelo://app?vid=7b2eb177-c758-4d7b-9c02-4b8390ada1a8","ios":"levelo://app?vid=7b2eb177-c758-4d7b-9c02-4b8390ada1a8"},"vehicle_type_id":"4","last_reported":1730243323,"current_range_meters":38800,"station_id":"ce4bh312rcd13ifvqdj0","pricing_plan_id":"cebpf4jnsgd1na2vs0mg"},{"bike_id":"c7752396-b637-4d30-8864-16e880416660","system_id":"levelo_inurba_marseille","lat":43.24665,"lon":5.38169,"is_reserved":false,"is_disabled":false,"rental_uris":{"android":"levelo://app?vid=c7752396-b637-4d30-8864-16e880416660","ios":"levelo://app?vid=c7752396-b637-4d30-8864-16e880416660"},"vehicle_type_id":"4","last_reported":1730243323,"current_range_meters":24000,"station_id":"ce4bhih2rcd13ifvqfr0","pricing_plan_id":"cebpf4jnsgd1na2vs0mg"},