{"last_updated":1729557953,"ttl":60,"version":"2.2","data":{"bikes":[{"bike_id":"9a89681b-50ef-4d7d-98de-b2afb5895f27","system_id":"levelo_inurba_marseille","lat":43.23185,"lon":5.3998,"is_reserved":false,"is_disabled":false,"rental_uris":{"android":"levelo://app?vid=9a89681b-50ef-4d7d-98de-b2afb5895f27","ios":"levelo://app?vid=9a89681b-50ef-4d7d-98de-b2afb5895f27"},"vehicle_type_id":"4","last_reported":1729557953,"current_range_meters":38800,"station_id":"ce4bhn12rcd13ifvqgqg","pricing_plan_id":"cebpf4jnsgd1na2vs0mg"},{"bike_id":"8704e08b-7e31-4439-affd-72da191bf121","system_id":"levelo_inurba_marseille","lat":43.24667,"lon":5.3816,"is_reserved":false,"is_disabled":false,"rental_uris":{"android":"levelo://app?vid=8704e08b-7e31-4439-affd-72da191bf121","ios":"levelo://app?vid=8704e08b-7e31-4439-affd-72da191bf121"},"vehicle_type_id":"4","last_reported":1729557953,"current_range_meters":29600,"station_id":"ce4bhih2rcd13ifvqfr0","pricing_plan_id":"cebpf4jnsgd1na2vs0mg"},{"bike_id":"93fa3798-63dd-4a89-934e-9dcbd5bc93a8","system_id":"levelo_inurba_marseille","lat":43.30886,"lon":5.39644,"is_reserved":false,"is_disabled":false,"rental_uris":{"android":"levelo://app?vid=93fa3798-63dd-4a89-934e-9dcbd5bc93a8","ios":"levelo://app?vid=93fa3798-63dd-4a89-934e-9dcbd5bc93a8"},"vehicle_type_id":"4","last_reported":1729557953,"current_range_meters":39200,"station_id":"ce4bh012rcd13ifvqcv0","pricing_plan_id":"cebpf4jnsgd1na2vs0mg"},{"bike_id":"faa7e7cd-15e9-4ba1-aba2-11bbf3e08543","system_id":"levelo_inurba_marseille","lat":43.28726,"lon":5.36081,"is_reserved":false,"is_disabled":false,"rental_uris":{"android":"levelo://app?vid=faa7e7cd-15e9-4ba1-aba2-11bbf3e08543","ios":"levelo://app?vid=faa7e7cd-15e9-4ba1-aba2-11bbf3e08543"},"vehicle_type_id":"4","last_reported":1729557953,"current_range_meters":39200,"station_id":"cki0cbj6b192h4jlfktg","pricing_plan_id":"cebpf4jnsgd1na2vs0mg"},{"bike_id":"b461e2b3-0977-4dd9-9c8a-2cb8b55c6316","system_id":"levelo_inurba_marseille","lat":43.30611,"lon":5.37209,"is_reserved":false,"is_disabled":false,"rental_uris":{"android":"levelo://app?vid=b461e2b3-0977-4dd9-9c8a-2cb8b55c6316","ios":"levelo://app?vid=b461e2b3-0977-4dd9-9c8a-2cb8b55c6316"},"vehicle_type_id":"4","last_reported":1729557953,"current_range_meters":28000,"station_id":"ce4bgqh2rcd13ifvqc4g","pricing_plan_id":"cebpf4jnsgd1na2vs0mg"},{"bike_id":"db21b9b6-ffa5-4209-856b-c3959b135717","system_id":"levelo_inurba_marseille","lat":43.31704,"lon":5.37769,"is_reserved":false,"is_disabled":false,"rental_uris":{"android":"levelo://app?vid=db21b9b6-ffa5-4209-856b-c3959b135717","ios":"levelo://app?vid=db21b9b6-ffa5-4209-856b-c3959b135717"},"vehicle_type_id":"4","last_reported":1729557953,"current_range_meters":22800,"station_id":"ce4bgth2rcd13ifvqch0","pricing_plan_id":"cebpf4jnsgd1na2vs0mg"},{"bike_id":"34422919-6add-4435-b64f-921cb0a0daae","system_id":"levelo_inurba_marseille","lat":43.28945,"lon":5.39624,"is_reserved":false,"is_disabled":false,"rental_uris":{"android":"levelo://app?vid=34422919-6add-4435-b64f-921cb0a0daae","ios":"levelo://app?vid=34422919-6add-4435-b64f-921cb0a0daae"},"vehicle_type_id":"4","last_reported":1729557953,"current_range_meters":12400,"station_id":"ce4bh3h2rcd13ifvqdn0","pricing_plan_id":"cebpf4jnsgd1na2vs0mg"},{"bike_id":"3ea47522-8b21-4fc3-adf3-11149033ec4a","system_id":"levelo_inurba_marseille","lat":43.29177,"lon":5.37141,"is_reserved":false,"is_disabled":false,"rental_uris":{"android":"levelo://app?vid=3ea47522-8b21-4fc3-adf3-11149033ec4a","ios":"levelo://app?vid=3ea47522-8b21-4fc3-adf3-11149033ec4a"},"vehicle_type_id":"4","last_reported":1729557953,"current_range_meters":39200,"station_id":"ce4bha92rcd13ifvqeh0","pricing_plan_id":"cebpf4jnsgd1na2vs0mg"},{"bike_id":"056124ee-b6f9-468d-94ef-5fa46e18bd36","system_id":"levelo_inurba_marseille","lat":43.33611,"lon":5.41025,"is_reserved":false,"is_disabled":false,"rental_uris":{"android":"levelo://app?vid=056124ee-b6f9-468d-94ef-5fa46e18bd36","ios":"levelo://app?vid=056124ee-b6f9-468d-94ef-5fa46e18bd36"},"vehicle_type_id":"4","last_reported":1729557953,"current_range_meters":39200,"station_id":"ce4bhqh2rcd13ifvqhmg","pricing_plan_id":"cebpf4jnsgd1na2vs0mg"},{"bike_id":"c863ab3d-1edc-4863-a6c7-73e4e0932069","system_id":"levelo_inurba_marseille","lat":43.33601,"lon":5.41015,"is_reserved":false,"is_disabled":false,"rental_uris":{"android":"levelo://app?vid=c863ab3d-1edc-4863-a6c7-73e4e0932069","ios":"levelo://app?vid=c863ab3d-1edc-4863-a6c7-73e4e0932069"},"vehicle_type_id":"4","last_reported":1729557953,"current_range_meters":6800,"station_id":"ce4bhqh2rcd13ifvqhmg","pricing_plan_id":"cebpf4jnsgd1na2vs0mg"},{"bike_id":"3282e7b3-c396-43eb-aa24-95242e00e05d","system_id":"levelo_inurba_marseille","lat":43.26946,"lon":5.40253,"is_reserved":false,"is_disabled":false,"rental_uris":{"android":"levelo://app?vid=3282e7b3-c396-43eb-aa24-95242e00e05d","ios":"levelo://app?vid=3282e7b3-c396-43eb-aa24-95242e00e05d"},"vehicle_type_id":"4","last_reported":1729557953,"current_range_meters":38800,"station_id":"cjm6bp8fraef2m0cb0m0","pricing_plan_id":"cebpf4jnsgd1na2vs0mg"},{"bike_id":"c764f7d7-8419-4e5d-bad6-2070cd11b991","system_id":"levelo_inurba_marseille","lat":43.31359,"lon":5.38496,"is_reserved":false,"is_disabled":false,"rental_uris":{"android":"levelo://app?vid=c764f7d7-8419-4e5d-bad6-2070cd11b991","ios":"levelo://app?vid=c764f7d7-8419-4e5d-bad6-2070cd11b991"},"vehicle_type_id":"4","last_reported":1729557953,"current_range_meters":32000,"station_id":"ce4bgt92rcd13ifvqcf0","pricing_plan_id":"cebpf4jnsgd1na2vs0mg"},{"bike_id":"40a4ee97-8b19-4f27-bfaf-f27262625095","system_id":"levelo_inurba_marseille","lat":43.27173,"lon":5.40999,"is_reserved":false,"is_disabled":false,"rental_uris":{"android":"levelo://app?vid=40a4ee97-8b19-4f27-bfaf-f27262625095","ios":"levelo://app?vid=40a4ee97-8b19-4f27-bfaf-f27262625095"},"vehicle_type_id":"4","last_reported":1729557953,"current_range_meters":26800,"station_id":"ce4bhl12rcd13ifvqgf0","pricing_plan_id":"cebpf4jnsgd1na2vs0mg"},{"bike_id":"dda2d351-1eab-421c-b87f-4111e4062a04","system_id":"levelo_inurba_marseille","lat":43.32288,"lon":5.38272,"is_reserved":false,"is_disabled":false,"rental_uris":{"android":"levelo://app?vid=dda2d351-1eab-421c-b87f-4111e4062a04","ios":"levelo://app?vid=dda2d351-1eab-421c-b87f-4111e4062a04"},"vehicle_type_id":"4","last_reported":1729557953,"current_range_meters":14800,"station_id":"ce4bhr12rcd13ifvqhqg","pricing_plan_id":"cebpf4jnsgd1na2vs0mg"},{"bike_id":"00ab5bd7-d235-4133-b178-d5a6f0798224","system_id":"levelo_inurba_marseille","lat":43.30274,"lon":5.37702,"is_reserved":false,"is_disabled":false,"rental_uris":{"android":"levelo://app?vid=00ab5bd7-d235-4133-b178-d5a6f0798224","ios":"levelo://app?vid=00ab5bd7-d235-4133-b178-d5a6f0798224"},"vehicle_type_id":"4","last_reported":1729557953,"current_range_meters":38800,"station_id":"ce4bguh2rcd13ifvqcj0","pricing_plan_id":"cebpf4jnsgd1na2vs0mg"},{"bike_id":"292f5b88-05b9-4418-b48c-15428cd06311","system_id":"levelo_inurba_marseille","lat":43.29263,"lon":5.38429,"is_reserved":false,"is_disabled":false,"rental_uris":{"android":"levelo://app?vid=292f5b88-05b9-4418-b48c-15428cd06311","ios":"levelo://app?vid=292f5b88-05b9-4418-b48c-15428cd06311"},"vehicle_type_id":"4","last_reported":1729557953,"current_range_meters":36400,"station_id":"ce4bh692rcd13ifvqea0","pricing_plan_id":"cebpf4jnsgd1na2vs0mg"},{"bike_id":"e2f32c24-c928-4a8d-b66e-7262f920a2b4","system_id":"levelo_inurba_marseille","lat":43.31539,"lon":5.38026,"is_reserved":false,"is_disabled":false,"rental_uris":{"android":"levelo://app?vid=e2f32c24-c928-4a8d-b66e-7262f920a2b4","ios":"levelo://app?vid=e2f32c24-c928-4a8d-b66e-7262f920a2b4"},"vehicle_type_id":"4","last_reported":1729557953,"current_range_meters":9600,"station_id":"ce4bhsp2rcd13ifvqi50","pricing_plan_id":"cebpf4jnsgd1na2vs0mg"},{"bike_id":"796f8d9f-fd8f-432a-b630-5d8238bd7c27","system_id":"levelo_inurba_marseille","lat":43.29193,"lon":5.35797,"is_reserved":false,"is_disabled":false,"rental_uris":{"android":"levelo://app?vid=796f8d9f-fd8f-432a-b630-5d8238bd7c27","ios":"levelo://app?vid=796f8d9f-fd8f-432a-b630-5d8238bd7c27"},"vehicle_type_id":"4","last_reported":1729557953,"current_range_meters":38800,"station_id":"ce4bhb12rcd13ifvqel0","pricing_plan_id":"cebpf4jnsgd1na2vs0mg"},{"bike_id":"6599a637-e472-4dc7-bc61-9d6468f143b8","system_id":"levelo_inurba_marseille","lat":43.272522,"lon":5.362672,"is_reserved":false,"is_disabled":false,"rental_uris":{"android":"levelo://app?vid=6599a637-e472-4dc7-bc61-9d6468f143b8","ios":"levelo://app?vid=6599a637-e472-4dc7-bc61-9d6468f143b8"},"vehicle_type_id":"4","last_reported":1729557953,"current_range_meters":35600,"station_id":"cjm6bp8fraef2m0cb0m0","pricing_plan_id":"cebpf4jnsgd1na2vs0mg"},{"bike_id":"d562e3f0-e53a-41a1-b379-d4f85e56d361","system_id":"levelo_inurba_marseille","lat":43.29039,"lon":5.38651,"is_reserved":false,"is_disabled":false,"rental_uris":{"android":"levelo://app?vid=d562e3f0-e53a-41a1-b379-d4f85e56d361","ios":"levelo://app?vid=d562e3f0-e53a-41a1-b379-d4f85e56d361"},"vehicle_type_id":"4","last_reported":1729557953,"current_range_meters":38000,"station_id":"ce4bh4p2rcd13ifvqe0g","pricing_plan_id":"cebpf4jnsgd1na2vs0mg"},{"bike_id":"f320bad5-c890-4726-b6d8-ec012cf400c3","system_id":"levelo_inurba_marseille","lat":43.29002,"lon":5.35619,"is_reserved":false,"is_disabled":false,"rental_uris":{"android":"levelo://app?vid=f320bad5-c890-4726-b6d8-ec012cf400c3","ios":"levelo://app?vid=f320bad5-c890-4726-b6d8-ec012cf400c3"},"vehicle_type_id":"4","last_reported":1729557953,"current_range_meters":38800,"station_id":"ce4bhb92rcd13ifvqen0","pricing_plan_id":"cebpf4jnsgd1na2vs0mg"},{"bike_id":"eb69d266-7f9f-4bad-bf4b-cb0a701a9511","system_id":"levelo_inurba_marseille","lat":43.27931,"lon":5.41755,"is_reserved":false,"is_disabled":false,"rental_uris":{"android":"levelo://app?vid=eb69d266-7f9f-4bad-bf4b-cb0a701a9511","ios":"levelo://app?vid=eb69d266-7f9f-4bad-bf4b-cb0a701a9511"},"vehicle_type_id":"4","last_reported":1729557953,"current_range_meters":7200,"station_id":"","pricing_plan_id":"cebpf4jnsgd1na2vs0mg"},{"bike_id":"5700ca7b-4b04-4654-9ace-208c9e150bc3","system_id":"levelo_inurba_marseille","lat":43.23955,"lon":5.36641,"is_reserved":false,"is_disabled":false,"rental_uris":{"android":"levelo://app?vid=5700ca7b-4b04-4654-9ace-208c9e150bc3","ios":"levelo://app?vid=5700ca7b-4b04-4654-9ace-208c9e150bc3"},"vehicle_type_id":"4","last_reported":1729557953,"current_range_meters":36400,"station_id":"ce4bhi12rcd13ifvqfp0","pricing_plan_id":"cebpf4jnsgd1na2vs0mg"},{"bike_id":"bf57fcae-b767-4def-b990-6a6550660101","system_id":"levelo_inurba_marseille","lat":43.287,"lon":5.37392,"is_reserved":false,"is_disabled":false,"rental_uris":{"android":"levelo://app?vid=bf57fcae-b767-4def-b990-6a6550660101","ios":"levelo://app?vid=bf57fcae-b767-4def-b990-6a6550660101"},"vehicle_type_id":"4","last_reported":1729557953,"current_range_meters":16400,"station_id":"ce4bh3p2rcd13ifvqdq0","pricing_plan_id":"cebpf4jnsgd1na2vs0mg"},{"bike_id":"f6c9be39-c087-4b75-9648-136fc7275428","system_id":"levelo_inurba_marseille","lat":43.30164,"lon":5.38074,"is_reserved":false,"is_disabled":false,"rental_uris":{"android":"levelo://app?vid=f6c9be39-c087-4b75-9648-136fc7275428","ios":"levelo://app?vid=f6c9be39-c087-4b75-9648-136fc7275428"},"vehicle_type_id":"4","last_reported":1729557953,"current_range_meters":25600,"station_id":"ce4bgjp2rcd13ifvqbh0","pricing_plan_id":"cebpf4jnsgd1na2vs0mg"},{"bike_id":"6cdd3cb5-ba15-4e85-8896-0ce16f3566f8","system_id":"levelo_inurba_marseille","lat":43.24071,"lon":5.3776,"is_reserved":false,"is_disabled":false,"rental_uris":{"android":"levelo://app?vid=6cdd3cb5-ba15-4e85-8896-0ce16f3566f8","ios":"levelo://app?vid=6cdd3cb5-ba15-4e85-8896-0ce16f3566f8"},"vehicle_type_id":"4","last_reported":1729557953,"current_range_meters":38800,"station_id":"ce4bhnp2rcd13ifvqgvg","pricing_plan_id":"cebpf4jnsgd1na2vs0mg"},{"bike_id":"1c35994b-cece-4553-a8a1-4af08476c849","system_id":"levelo_inurba_marseille","lat":43.32368,"lon":5.38883,"is_reserved":false,"is_disabled":false,"rental_uris":{"android":"levelo://app?vid=1c35994b-cece-4553-a8a1-4af08476c849","ios":"levelo://app?vid=1c35994b-cece-4553-a8a1-4af08476c849"},"vehicle_type_id":"4","last_reported":1729557953,"current_range_meters":36800,"station_id":"ce4bhqp2rcd13ifvqhog","pricing_plan_id":"cebpf4jnsgd1na2vs0mg"},{"bike_id":"35511628-b114-4f76-99b9-e8810ba711ef","system_id":"levelo_inurba_marseille","lat":43.25869,"lon":5.39909,"is_reserved":false,"is_disabled":false,"rental_uris":{"android":"levelo://app?vid=35511628-b114-4f76-99b9-e8810ba711ef","ios":"levelo://app?vid=35511628-b114-4f76-99b9-e8810ba711ef"},"vehicle_type_id":"4","last_reported":1729557953,"current_range_meters":38000,"station_id":"ce4bhl92rcd13ifvqghg","pricing_plan_id":"cebpf4jnsgd1na2vs0mg"},{"bike_id":"f0d73bb9-c2c4-4b64-a1eb-02b7529993c8","system_id":"levelo_inurba_marseille","lat":43.27563,"lon":5.38437,"is_reserved":false,"is_disabled":false,"rental_uris":{"android":"levelo://app?vid=f0d73bb9-c2c4-4b64-a1eb-02b7529993c8","ios":"levelo://app?vid=f0d73bb9-c2c4-4b64-a1eb-02b7529993c8"},"vehicle_type_id":"4","last_reported":1729557953,"current_range_meters":28400,"station_id":"ce4bhh92rcd13ifvqfi0","pricing_plan_id":"cebpf4jnsgd1na2vs0mg"},{"bike_id":"d446a555-49be-49be-a11a-13447f0374cb","system_id":"levelo_inurba_marseille","lat":43.24073,"lon":5.37758,"is_reserved":false,"is_disabled":false,"rental_uris":{"android":"levelo://app?vid=d446a555-49be-49be-a11a-13447f0374cb","ios":"levelo://app?vid=d446a555-49be-49be-a11a-13447f0374cb"},"vehicle_type_id":"4","last_reported":1729557953,"current_range_meters":14000,"station_id":"ce4bhnp2rcd13ifvqgvg","pricing_plan_id":"cebpf4jnsgd1na2vs0mg"},{"bike_id":"6627fef9-f35d-409d-8306-0c58199b9ac3","system_id":"levelo_inurba_marseille","lat":43.308,"lon":5.38146,"is_reserved":false,"is_disabled":false,"rental_uris":{"android":"levelo://app?vid=6627fef9-f35d-409d-8306-0c58199b9ac3","ios":"levelo://app?vid=6627fef9-f35d-409d-8306-0c58199b9ac3"},"vehicle_type_id":"4","last_reported":1729557953,"current_range_meters":39200,"station_id":"ce4bgt12rcd13ifvqce0","pricing_plan_id":"cebpf4jnsgd1na2vs0mg"},{"bike_id":"d8fcc4fa-ed39-4df3-8a67-0231297479c5","system_id":"levelo_inurba_marseille","lat":43.32653,"lon":5.40998,"is_reserved":false,"is_disabled":false,"rental_uris":{"android":"levelo://app?vid=d8fcc4fa-ed39-4df3-8a67-0231297479c5","ios":"levelo://app?vid=d8fcc4fa-ed39-4df3-8a67-0231297479c5"},"vehicle_type_id":"4","last_reported":1729557953,"current_range_meters":8000,"station_id":"ce4bhpp2rcd13ifvqhgg","pricing_plan_id":"cebpf4jnsgd1na2vs0mg"},{"bike_id":"e73d1adb-8500-4389-9d09-453539232231","system_id":"levelo_inurba_marseille","lat":43.27498,"lon":5.4245,"is_reserved":false,"is_disabled":false,"rental_uris":{"android":"levelo://app?vid=e73d1adb-8500-4389-9d09-453539232231","ios":"levelo://app?vid=e73d1adb-8500-4389-9d09-453539232231"},"vehicle_type_id":"4","last_reported":1729557953,"current_range_meters":16000,"station_id":"ce4bhn92rcd13ifvqgrg","pricing_plan_id":"cebpf4jnsgd1na2vs0mg"},{"bike_id":"03c51820-cb2f-4040-944f-2f970b04d942","system_id":"levelo_inurba_marseille","lat":43.31713,"lon":5.43698,"is_reserved":false,"is_disabled":false,"rental_uris":{"android":"levelo://app?vid=03c51820-cb2f-4040-944f-2f970b04d942","ios":"levelo://app?vid=03c51820-cb2f-4040-944f-2f970b04d942"},"vehicle_type_id":"4","last_reported":1729557953,"current_range_meters":24800,"station_id":"ce4bhp92rcd13ifvqhcg","pricing_plan_id":"cebpf4jnsgd1na2vs0mg"},{"bike_id":"3c625c3c-f5b8-41f4-862b-5684f36bb129","system_id":"levelo_inurba_marseille","lat":43.3107,"lon":5.3835,"is_reserved":false,"is_disabled":false,"rental_uris":{"android":"levelo://app?vid=3c625c3c-f5b8-41f4-862b-5684f36bb129","ios":"levelo://app?vid=3c625c3c-f5b8-41f4-862b-5684f36bb129"},"vehicle_type_id":"4","last_reported":1729557953,"current_range_meters":20400,"station_id":"ce4bgv92rcd13ifvqcr0","pricing_plan_id":"cebpf4jnsgd1na2vs0mg"},{"bike_id":"cba2af9b-3719-4b16-aa61-d05fec60a0ee","system_id":"levelo_inurba_marseille","lat":43.31716,"lon":5.43719,"is_reserved":false,"is_disabled":false,"rental_uris":{"android":"levelo://app?vid=cba2af9b-3719-4b16-aa61-d05fec60a0ee","ios":"levelo://app?vid=cba2af9b-3719-4b16-aa61-d05fec60a0ee"},"vehicle_type_id":"4","last_reported":1729557953,"current_range_meters":39200,"station_id":"ce4bhp92rcd13ifvqhcg","pricing_plan_id":"cebpf4jnsgd1na2vs0mg"},{"bike_id":"71f5ec11-3924-4ba9-9ca8-9e072cfb8650","system_id":"levelo_inurba_marseille","lat":43.306503,"lon":5.401182,"is_reserved":false,"is_disabled":false,"rental_uris":{"android":"levelo://app?vid=71f5ec11-3924-4ba9-9ca8-9e072cfb8650","ios":"levelo://app?vid=71f5ec11-3924-4ba9-9ca8-9e072cfb8650"},"vehicle_type_id":"4","last_reported":1729557953,"current_range_meters":26800,"station_id":"ce4bh112rcd13ifvqda0","pricing_plan_id":"cebpf4jnsgd1na2vs0mg"},{"bike_id":"f7d7e980-5c84-4432-b54b-9d2a213d76b4","system_id":"levelo_inurba_marseille","lat":43.30911,"lon":5.36847,"is_reserved":false,"is_disabled":false,"rental_uris":{"android":"levelo://app?vid=f7d7e980-5c84-4432-b54b-9d2a213d76b4","ios":"levelo://app?vid=f7d7e980-5c84-4432-b54b-9d2a213d76b4"},"vehicle_type_id":"4","last_reported":1729557953,"current_range_meters":38800,"station_id":"ce4bgn92rcd13ifvqbvg","pricing_plan_id":"cebpf4jnsgd1na2vs0mg"},{"bike_id":"abe658d4-12a8-41db-b6b3-738fdbd608a2","system_id":"levelo_inurba_marseille","lat":43.23196,"lon":5.35553,"is_reserved":false,"is_disabled":false,"rental_uris":{"android":"levelo://app?vid=abe658d4-12a8-41db-b6b3-738fdbd608a2","ios":"levelo://app?vid=abe658d4-12a8-41db-b6b3-738fdbd608a2"},"vehicle_type_id":"4","last_reported":1729557953,"current_range_meters":36400,"station_id":"ce4bhu92rcd13ifvqi70","pricing_plan_id":"cebpf4jnsgd1na2vs0mg"},{"bike_id":"fcde1605-ea98-4318-b804-12d50326119e","system_id":"levelo_inurba_marseille","lat":43.25116,"lon":5.40318,"is_reserved":false,"is_disabled":false,"rental_uris":{"android":"levelo://app?vid=fcde1605-ea98-4318-b804-12d50326119e","ios":"levelo://app?vid=fcde1605-ea98-4318-b804-12d50326119e"},"vehicle_type_id":"4","last_reported":1729557953,"current_range_meters":9600,"station_id":"ce4bhlh2rcd13ifvqgig","pricing_plan_id":"cebpf4jnsgd1na2vs0mg"},{"bike_id":"3b630c6a-d3bf-421d-972b-b05b3066b347","system_id":"levelo_inurba_marseille","lat":43.29516,"lon":5.39411,"is_reserved":false,"is_disabled":false,"rental_uris":{"android":"levelo://app?vid=3b630c6a-d3bf-421d-972b-b05b3066b347","ios":"levelo://app?vid=3b630c6a-d3bf-421d-972b-b05b3066b347"},"vehicle_type_id":"4","last_reported":1729557953,"current_range_meters":38000,"station_id":"ce4bh292rcd13ifvqdf0","pricing_plan_id":"cebpf4jnsgd1na2vs0mg"},{"bike_id":"8f033525-bc8f-42c4-9121-468701b80638","system_id":"levelo_inurba_marseille","lat":43.25011,"lon":5.38913,"is_reserved":false,"is_disabled":false,"rental_uris":{"android":"levelo://app?vid=8f033525-bc8f-42c4-9121-468701b80638","ios":"levelo://app?vid=8f033525-bc8f-42c4-9121-468701b80638"},"vehicle_type_id":"4","last_reported":1729557953,"current_range_meters":38800,"station_id":"ce4bhgp2rcd13ifvqfd0","pricing_plan_id":"cebpf4jnsgd1na2vs0mg"},{"bike_id":"27436add-a26d-44df-8506-9f86a55efe32","system_id":"levelo_inurba_marseille","lat":43.31364,"lon":5.38495,"is_reserved":false,"is_disabled":false,"rental_uris":{"android":"levelo://app?vid=27436add-a26d-44df-8506-9f86a55efe32","ios":"levelo://app?vid=27436add-a26d-44df-8506-9f86a55efe32"},"vehicle_type_id":"4","last_reported":1729557953,"current_range_meters":14800,"station_id":"ce4bgt92rcd13ifvqcf0","pricing_plan_id":"cebpf4jnsgd1na2vs0mg"},{"bike_id":"476c1381-131f-4fad-85c7-425454dd3a44","system_id":"levelo_inurba_marseille","lat":43.2873,"lon":5.36089,"is_reserved":false,"is_disabled":false,"rental_uris":{"android":"levelo://app?vid=476c1381-131f-4fad-85c7-425454dd3a44","ios":"levelo://app?vid=476c1381-131f-4fad-85c7-425454dd3a44"},"vehicle_type_id":"4","last_reported":1729557953,"current_range_meters":38800,"station_id":"cki0cbj6b192h4jlfktg","pricing_plan_id":"cebpf4jnsgd1na2vs0mg"},{"bike_id":"1ec16de5-9ac0-497e-b627-148b746fa226","system_id":"levelo_inurba_marseille","lat":43.284661,"lon":5.358868,"is_reserved":false,"is_disabled":false,"rental_uris":{"android":"levelo://app?vid=1ec16de5-9ac0-497e-b627-148b746fa226","ios":"levelo://app?vid=1ec16de5-9ac0-497e-b627-148b746fa226"},"vehicle_type_id":"4","last_reported":1729557953,"current_range_meters":29600,"station_id":"ce4bhah2rcd13ifvqei0","pricing_plan_id":"cebpf4jnsgd1na2vs0mg"},{"bike_id":"f8d4fc2f-6c65-4577-a483-2bded2a41922","system_id":"levelo_inurba_marseille","lat":43.30597,"lon":5.39355,"is_reserved":false,"is_disabled":false,"rental_uris":{"android":"levelo://app?vid=f8d4fc2f-6c65-4577-a483-2bded2a41922","ios":"levelo://app?vid=f8d4fc2f-6c65-4577-a483-2bded2a41922"},"vehicle_type_id":"4","last_reported":1729557953,"current_range_meters":39200,"station_id":"ce4bh0p2rcd13ifvqd80","pricing_plan_id":"cebpf4jnsgd1na2vs0mg"},{"bike_id":"b1d2e2ea-0299-4330-9837-261f19d6de44","system_id":"levelo_inurba_marseille","lat":43.31226,"lon":5.36859,"is_reserved":false,"is_disabled":false,"rental_uris":{"android":"levelo://app?vid=b1d2e2ea-0299-4330-9837-261f19d6de44","ios":"levelo://app?vid=b1d2e2ea-0299-4330-9837-261f19d6de44"},"vehicle_type_id":"4","last_reported":1729557953,"current_range_meters":38400,"station_id":"ce4bgl92rcd13ifvqbq0","pricing_plan_id":"cebpf4jnsgd1na2vs0mg"},{"bike_id":"26abddab-6ce0-4c2b-9407-fece3df4d688","system_id":"levelo_inurba_marseille","lat":43.30098,"lon":5.39073,"is_reserved":false,"is_disabled":false,"rental_uris":{"android":"levelo://app?vid=26abddab-6ce0-4c2b-9407-fece3df4d688","ios":"levelo://app?vid=26abddab-6ce0-4c2b-9407-fece3df4d688"},"vehicle_type_id":"4","last_reported":1729557953,"current_range_meters":39200,"station_id":"ce4bh192rcd13ifvqdb0","pricing_plan_id":"cebpf4jnsgd1na2vs0mg"},{"bike_id":"60717735-8180-439d-aa16-1261afe15895","system_id":"levelo_inurba_marseille","lat":43.24188,"lon":5.39736,"is_reserved":false,"is_disabled":false,"rental_uris":{"android":"levelo://app?vid=60717735-8180-439d-aa16-1261afe15895","ios":"levelo://app?vid=60717735-8180-439d-aa16-1261afe15895"},"vehicle_type_id":"4","last_reported":1729557953,"current_range_meters":35600,"station_id":"ce4bhn12rcd13ifvqgpg","pricing_plan_id":"cebpf4jnsgd1na2vs0mg"},{"bike_id":"825120c1-0038-4916-b709-08b76beaded5","system_id":"levelo_inurba_marseille","lat":43.31327,"lon":5.39693,"is_reserved":false,"is_disabled":false,"rental_uris":{"android":"levelo://app?vid=825120c1-0038-4916-b709-08b76beaded5","ios":"levelo://app?vid=825120c1-0038-4916-b709-08b76beaded5"},"vehicle_type_id":"4","last_reported":1729557953,"current_range_meters":9600,"station_id":"ce4bgvp2rcd13ifvqcu0","pricing_plan_id":"cebpf4jnsgd1na2vs0mg"},{"bike_id":"0508bf3b-2fad-4472-bc91-d782716ac9b1","system_id":"levelo_inurba_marseille","lat":43.27811,"lon":5.40716,"is_reserved":false,"is_disabled":false,"rental_uris":{"android":"levelo://app?vid=0508bf3b-2fad-4472-bc91-d782716ac9b1","ios":"levelo://app?vid=0508bf3b-2fad-4472-bc91-d782716ac9b1"},"vehicle_type_id":"4","last_reported":1729557953,"current_range_meters":23200,"station_id":"ce4bhnh2rcd13ifvqgtg","pricing_plan_id":"cebpf4jnsgd1na2vs0mg"},{"bike_id":"0d9fea0d-5188-4ebc-a956-c466b2766e8c","system_id":"levelo_inurba_marseille","lat":43.27491,"lon":5.42457,"is_reserved":false,"is_disabled":false,"rental_uris":{"android":"levelo://app?vid=0d9fea0d-5188-4ebc-a956-c466b2766e8c","ios":"levelo://app?vid=0d9fea0d-5188-4ebc-a956-c466b2766e8c"},"vehicle_type_id":"4","last_reported":1729557953,"current_range_meters":5600,"station_id":"ce4bhn92rcd13ifvqgrg","pricing_plan_id":"cebpf4jnsgd1na2vs0mg"},{"bike_id":"535e2cfa-a11f-4dd4-b0bb-e852441037d7","system_id":"levelo_inurba_marseille","lat":43.25875,"lon":5.39911,"is_reserved":false,"is_disabled":false,"rental_uris":{"android":"levelo://app?vid=535e2cfa-a11f-4dd4-b0bb-e852441037d7","ios":"levelo://app?vid=535e2cfa-a11f-4dd4-b0bb-e852441037d7"},"vehicle_type_id":"4","last_reported":1729557953,"current_range_meters":38800,"station_id":"ce4bhl92rcd13ifvqghg","pricing_plan_id":"cebpf4jnsgd1na2vs0mg"},{"bike_id":"3c2e9290-6792-4e2d-b00d-712b965be0bd","system_id":"levelo_inurba_marseille","lat":43.26422,"lon":5.38683,"is_reserved":false,"is_disabled":false,"rental_uris":{"android":"levelo://app?vid=3c2e9290-6792-4e2d-b00d-712b965be0bd","ios":"levelo://app?vid=3c2e9290-6792-4e2d-b00d-712b965be0bd"},"vehicle_type_id":"4","last_reported":1729557953,"current_range_meters":10000,"station_id":"","pricing_plan_id":"cebpf4jnsgd1na2vs0mg"},{"bike_id":"69fe908e-69d8-4490-bac8-5621bc5a71f9","system_id":"levelo_inurba_marseille","lat":43.29572,"lon":5.39981,"is_reserved":false,"is_disabled":false,"rental_uris":{"android":"levelo://app?vid=69fe908e-69d8-4490-bac8-5621bc5a71f9","ios":"levelo://app?vid=69fe908e-69d8-4490-bac8-5621bc5a71f9"},"vehicle_type_id":"4","last_reported":1729557953,"current_range_meters":39200,"station_id":"ce4bh312rcd13ifvqdj0","pricing_plan_id":"cebpf4jnsgd1na2vs0mg"},{"bike_id":"b8eb8c89-8773-4616-9dde-180f90e97972","system_id":"levelo_inurba_marseille","lat":43.30936,"lon":5.40145,"is_reserved":false,"is_disabled":false,"rental_uris":{"android":"levelo://app?vid=b8eb8c89-8773-4616-9dde-180f90e97972","ios":"levelo://app?vid=b8eb8c89-8773-4616-9dde-180f90e97972"},"vehicle_type_id":"4","last_reported":1729557953,"current_range_meters":28400,"station_id":"ce4bgvp2rcd13ifvqct0","pricing_plan_id":"cebpf4jnsgd1na2vs0mg"},{"bike_id":"d9a958c1-4f87-4054-a6fd-5a481549deb0","system_id":"levelo_inurba_marseille","lat":43.27999,"lon":5.41664,"is_reserved":false,"is_disabled":false,"rental_uris":{"android":"levelo://app?vid=d9a958c1-4f87-4054-a6fd-5a481549deb0","ios":"levelo://app?vid=d9a958c1-4f87-4054-a6fd-5a481549deb0"},"vehicle_type_id":"4","last_reported":1729557953,"current_range_meters":28800,"station_id":"ce4bho12rcd13ifvqh1g","pricing_plan_id":"cebpf4jnsgd1na2vs0mg"},{"bike_id":"19f09505-edb6-4621-8403-625ad0d0348b","system_id":"levelo_inurba_marseille","lat":43.306,"lon":5.39369,"is_reserved":false,"is_disabled":false,"rental_uris":{"android":"levelo://app?vid=19f09505-edb6-4621-8403-625ad0d0348b","ios":"levelo://app?vid=19f09505-edb6-4621-8403-625ad0d0348b"},"vehicle_type_id":"4","last_reported":1729557953,"current_range_meters":39200,"station_id":"ce4bh0p2rcd13ifvqd80","pricing_plan_id":"cebpf4jnsgd1na2vs0mg"},{"bike_id":"85b4923d-0a05-46d5-b84e-ae3ba8751f34","system_id":"levelo_inurba_marseille","lat":43.30796,"lon":5.38152,"is_reserved":false,"is_disabled":false,"rental_uris":{"android":"levelo://app?vid=85b4923d-0a05-46d5-b84e-ae3ba8751f34","ios":"levelo://app?vid=85b4923d-0a05-46d5-b84e-ae3ba8751f34"},"vehicle_type_id":"4","last_reported":1729557953,"current_range_meters":38800,"station_id":"ce4bgt12rcd13ifvqce0","pricing_plan_id":"cebpf4jnsgd1na2vs0mg"},{"bike_id":"566ef3cd-3e87-4087-a6aa-32a145c590e2","system_id":"levelo_inurba_marseille","lat":43.25576,"lon":5.38235,"is_reserved":false,"is_disabled":false,"rental_uris":{"android":"levelo://app?vid=566ef3cd-3e87-4087-a6aa-32a145c590e2","ios":"levelo://app?vid=566ef3cd-3e87-4087-a6aa-32a145c590e2"},"vehicle_type_id":"4","last_reported":1729557953,"current_range_meters":16000,"station_id":"ce4bhih2rcd13ifvqfs0","pricing_plan_id":"cebpf4jnsgd1na2vs0mg"},{"bike_id":"e73397ec-41ef-401f-966f-7b0b12ace5aa","system_id":"levelo_inurba_marseille","lat":43.23195,"lon":5.35554,"is_reserved":false,"is_disabled":false,"rental_uris":{"android":"levelo://app?vid=e73397ec-41ef-401f-966f-7b0b12ace5aa","ios":"levelo://app?vid=e73397ec-41ef-401f-966f-7b0b12ace5aa"},"vehicle_type_id":"4","last_reported":1729557953,"current_range_meters":19200,"station_id":"ce4bhu92rcd13ifvqi70","pricing_plan_id":"cebpf4jnsgd1na2vs0mg"},{"bike_id":"8d716763-2d1c-4074-b18b-e7392f675dd8","system_id":"levelo_inurba_marseille","lat":43.27836,"lon":5.39211,"is_reserved":false,"is_disabled":false,"rental_uris":{"android":"levelo://app?vid=8d716763-2d1c-4074-b18b-e7392f675dd8","ios":"levelo://app?vid=8d716763-2d1c-4074-b18b-e7392f675dd8"},"vehicle_type_id":"4","last_reported":1729557953,"current_range_meters":37600,"station_id":"ce4bhjp2rcd13ifvqga0","pricing_plan_id":"cebpf4jnsgd1na2vs0mg"},{"bike_id":"d587daae-0a71-435c-957b-ace6ff74f13a","system_id":"levelo_inurba_marseille","lat":43.2396,"lon":5.36641,"is_reserved":false,"is_disabled":false,"rental_uris":{"android":"levelo://app?vid=d587daae-0a71-435c-957b-ace6ff74f13a","ios":"levelo://app?vid=d587daae-0a71-435c-957b-ace6ff74f13a"},"vehicle_type_id":"4","last_reported":1729557953,"current_range_meters":12400,"station_id":"ce4bhi12rcd13ifvqfp0","pricing_plan_id":"cebpf4jnsgd1na2vs0mg"},{"bike_id":"99b5b67c-698a-45ec-924d-4b9367bbacbe","system_id":"levelo_inurba_marseille","lat":43.31488,"lon":5.37296,"is_reserved":false,"is_disabled":false,"rental_uris":{"android":"levelo://app?vid=99b5b67c-698a-45ec-924d-4b9367bbacbe","ios":"levelo://app?vid=99b5b67c-698a-45ec-924d-4b9367bbacbe"},"vehicle_type_id":"4","last_reported":1729557953,"current_range_meters":38800,"station_id":"ce4bgt12rcd13ifvqcd0","pricing_plan_id":"cebpf4jnsgd1na2vs0mg"},{"bike_id":"2e834380-0591-4a5f-a7c6-ec896c58b9ae","system_id":"levelo_inurba_marseille","lat":43.31548,"lon":5.40378,"is_reserved":false,"is_disabled":false,"rental_uris":{"android":"levelo://app?vid=2e834380-0591-4a5f-a7c6-ec896c58b9ae","ios":"levelo://app?vid=2e834380-0591-4a5f-a7c6-ec896c58b9ae"},"vehicle_type_id":"4","last_reported":1729557953,"current_range_meters":28800,"station_id":"","pricing_plan_id":"cebpf4jnsgd1na2vs0mg"},{"bike_id":"827e4aaf-a94f-4f31-84e7-3ed340a3432f","system_id":"levelo_inurba_marseille","lat":43.29282,"lon":5.40119,"is_reserved":false,"is_disabled":false,"rental_uris":{"android":"levelo://app?vid=827e4aaf-a94f-4f31-84e7-3ed340a3432f","ios":"levelo://app?vid=827e4aaf-a94f-4f31-84e7-3ed340a3432f"},"vehicle_type_id":"4","last_reported":1729557953,"current_range_meters":10800,"station_id":"ce4bh312rcd13ifvqdk0","pricing_plan_id":"cebpf4jnsgd1na2vs0mg"},{"bike_id":"4db5f57a-1837-492d-ba97-4e606b1a8f25","system_id":"levelo_inurba_marseille","lat":43.24182,"lon":5.39734,"is_reserved":false,"is_disabled":false,"rental_uris":{"android":"levelo://app?vid=4db5f57a-1837-492d-ba97-4e606b1a8f25","ios":"levelo://app?vid=4db5f57a-1837-492d-ba97-4e606b1a8f25"},"vehicle_type_id":"4","last_reported":1729557953,"current_range_meters":38800,"station_id":"ce4bhn12rcd13ifvqgpg","pricing_plan_id":"cebpf4jnsgd1na2vs0mg"},{"bike_id":"6500c164-02c8-4d61-bd40-ecb76f51559e","system_id":"levelo_inurba_marseille","lat":43.31328,"lon":5.39699,"is_reserved":false,"is_disabled":false,"rental_uris":{"android":"levelo://app?vid=6500c164-02c8-4d61-bd40-ecb76f51559e","ios":"levelo://app?vid=6500c164-02c8-4d61-bd40-ecb76f51559e"},"vehicle_type_id":"4","last_reported":1729557953,"current_range_meters":29600,"station_id":"ce4bgvp2rcd13ifvqcu0","pricing_plan_id":"cebpf4jnsgd1na2vs0mg"},{"bike_id":"18b07491-8d70-49a1-b638-3a7f3b346828","system_id":"levelo_inurba_marseille","lat":43.30323,"lon":5.40448,"is_reserved":false,"is_disabled":false,"rental_uris":{"android":"levelo://app?vid=18b07491-8d70-49a1-b638-3a7f3b346828","ios":"levelo://app?vid=18b07491-8d70-49a1-b638-3a7f3b346828"},"vehicle_type_id":"4","last_reported":1729557953,"current_range_meters":36000,"station_id":"ce4bh012rcd13ifvqd10","pricing_plan_id":"cebpf4jnsgd1na2vs0mg"},{"bike_id":"0542018d-404c-4931-92ac-7d497686214b","system_id":"levelo_inurba_marseille","lat":43.29555,"lon":5.42282,"is_reserved":false,"is_disabled":false,"rental_uris":{"android":"levelo://app?vid=0542018d-404c-4931-92ac-7d497686214b","ios":"levelo://app?vid=0542018d-404c-4931-92ac-7d497686214b"},"vehicle_type_id":"4","last_reported":1729557953,"current_range_meters":38800,"station_id":"ce4bhph2rcd13ifvqhdg","pricing_plan_id":"cebpf4jnsgd1na2vs0mg"},{"bike_id":"4efc070f-0f58-4635-b7ef-85a3dfa8b497","system_id":"levelo_inurba_marseille","lat":43.31179,"lon":5.38718,"is_reserved":false,"is_disabled":false,"rental_uris":{"android":"levelo://app?vid=4efc070f-0f58-4635-b7ef-85a3dfa8b497","ios":"levelo://app?vid=4efc070f-0f58-4635-b7ef-85a3dfa8b497"},"vehicle_type_id":"4","last_reported":1729557953,"current_range_meters":28400,"station_id":"ce4bgv12rcd13ifvqcp0","pricing_plan_id":"cebpf4jnsgd1na2vs0mg"},{"bike_id":"bc1c4b65-b2ef-458a-9377-0e29b328aa0e","system_id":"levelo_inurba_marseille","lat":43.30357,"lon":5.4188,"is_reserved":false,"is_disabled":false,"rental_uris":{"android":"levelo://app?vid=bc1c4b65-b2ef-458a-9377-0e29b328aa0e","ios":"levelo://app?vid=bc1c4b65-b2ef-458a-9377-0e29b328aa0e"},"vehicle_type_id":"4","last_reported":1729557953,"current_range_meters":39200,"station_id":"ce4bhop2rcd13ifvqh7g","pricing_plan_id":"cebpf4jnsgd1na2vs0mg"},{"bike_id":"87fbb144-aad0-4c95-afc2-bb4c53a8e28d","system_id":"levelo_inurba_marseille","lat":43.28354,"lon":5.38084,"is_reserved":false,"is_disabled":false,"rental_uris":{"android":"levelo://app?vid=87fbb144-aad0-4c95-afc2-bb4c53a8e28d","ios":"levelo://app?vid=87fbb144-aad0-4c95-afc2-bb4c53a8e28d"},"vehicle_type_id":"4","last_reported":1729557953,"current_range_meters":38800,"station_id":"ce4bh412rcd13ifvqdr0","pricing_plan_id":"cebpf4jnsgd1na2vs0mg"},{"bike_id":"fe2a8dea-e15c-4b37-acda-a8e3b708d9cf","system_id":"levelo_inurba_marseille","lat":43.28664,"lon":5.36359,"is_reserved":false,"is_disabled":false,"rental_uris":{"android":"levelo://app?vid=fe2a8dea-e15c-4b37-acda-a8e3b708d9cf","ios":"levelo://app?vid=fe2a8dea-e15c-4b37-acda-a8e3b708d9cf"},"vehicle_type_id":"4","last_reported":1729557953,"current_range_meters":38800,"station_id":"ce4bhah2rcd13ifvqej0","pricing_plan_id":"cebpf4jnsgd1na2vs0mg"},{"bike_id":"d5699d3f-ec32-4374-bd94-40f14a0bb240","system_id":"levelo_inurba_marseille","lat":43.28848,"lon":5.35862,"is_reserved":false,"is_disabled":false,"rental_uris":{"android":"levelo://app?vid=d5699d3f-ec32-4374-bd94-40f14a0bb240","ios":"levelo://app?vid=d5699d3f-ec32-4374-bd94-40f14a0bb240"},"vehicle_type_id":"4","last_reported":1729557953,"current_range_meters":26000,"station_id":"ce4bhb12rcd13ifvqem0","pricing_plan_id":"cebpf4jnsgd1na2vs0mg"},{"bike_id":"39ee9764-c305-469f-9d9c-27c097ea855c","system_id":"levelo_inurba_marseille","lat":43.2397,"lon":5.36627,"is_reserved":false,"is_disabled":false,"rental_uris":{"android":"levelo://app?vid=39ee9764-c305-469f-9d9c-27c097ea855c","ios":"levelo://app?vid=39ee9764-c305-469f-9d9c-27c097ea855c"},"vehicle_type_id":"4","last_reported":1729557953,"current_range_meters":34000,"station_id":"ce4bhi12rcd13ifvqfp0","pricing_plan_id":"cebpf4jnsgd1na2vs0mg"},{"bike_id":"0904e3c7-820e-4021-911c-1377a52fe24b","system_id":"levelo_inurba_marseille","lat":43.30146,"lon":5.37424,"is_reserved":false,"is_disabled":false,"rental_uris":{"android":"levelo://app?vid=0904e3c7-820e-4021-911c-1377a52fe24b","ios":"levelo://app?vid=0904e3c7-820e-4021-911c-1377a52fe24b"},"vehicle_type_id":"4","last_reported":1729557953,"current_range_meters":34800,"station_id":"ce4bgs92rcd13ifvqcc0","pricing_plan_id":"cebpf4jnsgd1na2vs0mg"},{"bike_id":"804fb848-57f6-4944-985c-c6acefd10248","system_id":"levelo_inurba_marseille","lat":43.28153,"lon":5.4265,"is_reserved":false,"is_disabled":false,"rental_uris":{"android":"levelo://app?vid=804fb848-57f6-4944-985c-c6acefd10248","ios":"levelo://app?vid=804fb848-57f6-4944-985c-c6acefd10248"},"vehicle_type_id":"4","last_reported":1729557953,"current_range_meters":18000,"station_id":"ce4bhnh2rcd13ifvqgug","pricing_plan_id":"cebpf4jnsgd1na2vs0mg"},{"bike_id":"ce20ddcd-bcdd-4377-be21-52b2312c0048","system_id":"levelo_inurba_marseille","lat":43.29198,"lon":5.35804,"is_reserved":false,"is_disabled":false,"rental_uris":{"android":"levelo://app?vid=ce20ddcd-bcdd-4377-be21-52b2312c0048","ios":"levelo://app?vid=ce20ddcd-bcdd-4377-be21-52b2312c0048"},"vehicle_type_id":"4","last_reported":1729557953,"current_range_meters":38800,"station_id":"ce4bhb12rcd13ifvqel0","pricing_plan_id":"cebpf4jnsgd1na2vs0mg"},{"bike_id":"aeca248f-ee97-4c43-9a77-12fec853d98a","system_id":"levelo_inurba_marseille","lat":43.32659,"lon":5.40989,"is_reserved":false,"is_disabled":false,"rental_uris":{"android":"levelo://app?vid=aeca248f-ee97-4c43-9a77-12fec853d98a","ios":"levelo://app?vid=aeca248f-ee97-4c43-9a77-12fec853d98a"},"vehicle_type_id":"4","last_reported":1729557953,"current_range_meters":10800,"station_id":"ce4bhpp2rcd13ifvqhgg","pricing_plan_id":"cebpf4jnsgd1na2vs0mg"},{"bike_id":"2aad55b5-7653-4273-9c29-0610bfcff7a9","system_id":"levelo_inurba_marseille","lat":43.25105,"lon":5.40327,"is_reserved":false,"is_disabled":false,"rental_uris":{"android":"levelo://app?vid=2aad55b5-7653-4273-9c29-0610bfcff7a9","ios":"levelo://app?vid=2aad55b5-7653-4273-9c29-0610bfcff7a9"},"vehicle_type_id":"4","last_reported":1729557953,"current_range_meters":38800,"station_id":"ce4bhlh2rcd13ifvqgig","pricing_plan_id":"cebpf4jnsgd1na2vs0mg"},{"bike_id":"24b6b600-2f38-40cf-8564-ae9eacd79678","system_id":"levelo_inurba_marseille","lat":43.308,"lon":5.38143,"is_reserved":false,"is_disabled":false,"rental_uris":{"android":"levelo://app?vid=24b6b600-2f38-40cf-8564-ae9eacd79678","ios":"levelo://app?vid=24b6b600-2f38-40cf-8564-ae9eacd79678"},"vehicle_type_id":"4","last_reported":1729557953,"current_range_meters":37600,"station_id":"ce4bgt12rcd13ifvqce0","pricing_plan_id":"cebpf4jnsgd1na2vs0mg"},{"bike_id":"cb1f5b68-1056-4fae-b9dc-c0f0c6b03ec1","system_id":"levelo_inurba_marseille","lat":43.24549,"lon":5.39523,"is_reserved":false,"is_disabled":false,"rental_uris":{"android":"levelo://app?vid=cb1f5b68-1056-4fae-b9dc-c0f0c6b03ec1","ios":"levelo://app?vid=cb1f5b68-1056-4fae-b9dc-c0f0c6b03ec1"},"vehicle_type_id":"4","last_reported":1729557953,"current_range_meters":39200,"station_id":"ce4bhlp2rcd13ifvqgjg","pricing_plan_id":"cebpf4jnsgd1na2vs0mg"},{"bike_id":"9eb1a5f7-26a2-4236-9784-8acf029dcd3d","system_id":"levelo_inurba_marseille","lat":43.28109,"lon":5.37835,"is_reserved":false,"is_disabled":false,"rental_uris":{"android":"levelo://app?vid=9eb1a5f7-26a2-4236-9784-8acf029dcd3d","ios":"levelo://app?vid=9eb1a5f7-26a2-4236-9784-8acf029dcd3d"},"vehicle_type_id":"4","last_reported":1729557953,"current_range_meters":27200,"station_id":"ce4bha12rcd13ifvqee0","pricing_plan_id":"cebpf4jnsgd1na2vs0mg"},{"bike_id":"d67659aa-1879-49ff-9e21-343007f69c6c","system_id":"levelo_inurba_marseille","lat":43.30796,"lon":5.43523,"is_reserved":false,"is_disabled":false,"rental_uris":{"android":"levelo://app?vid=d67659aa-1879-49ff-9e21-343007f69c6c","ios":"levelo://app?vid=d67659aa-1879-49ff-9e21-343007f69c6c"},"vehicle_type_id":"4","last_reported":1729557953,"current_range_meters":38800,"station_id":"ce4bhph2rcd13ifvqheg","pricing_plan_id":"cebpf4jnsgd1na2vs0mg"},{"bike_id":"22f0e9f1-4795-468e-91c9-9da47019dc8a","system_id":"levelo_inurba_marseille","lat":43.25091,"lon":5.39521,"is_reserved":false,"is_disabled":false,"rental_uris":{"android":"levelo://app?vid=22f0e9f1-4795-468e-91c9-9da47019dc8a","ios":"levelo://app?vid=22f0e9f1-4795-468e-91c9-9da47019dc8a"},"vehicle_type_id":"4","last_reported":1729557953,"current_range_meters":39200,"station_id":"ce4bhm12rcd13ifvqgkg","pricing_plan_id":"cebpf4jnsgd1na2vs0mg"},{"bike_id":"0e86522e-0ee2-4680-ae48-3b78dc4c1207","system_id":"levelo_inurba_marseille","lat":43.2903,"lon":5.38655,"is_reserved":false,"is_disabled":false,"rental_uris":{"android":"levelo://app?vid=0e86522e-0ee2-4680-ae48-3b78dc4c1207","ios":"levelo://app?vid=0e86522e-0ee2-4680-ae48-3b78dc4c1207"},"vehicle_type_id":"4","last_reported":1729557953,"current_range_meters":27200,"station_id":"ce4bh4p2rcd13ifvqe0g","pricing_plan_id":"cebpf4jnsgd1na2vs0mg"},{"bike_id":"98845b12-b85b-4bbe-a43b-3cb58ee72a8f","system_id":"levelo_inurba_marseille","lat":43.27063,"lon":5.4027,"is_reserved":false,"is_disabled":false,"rental_uris":{"android":"levelo://app?vid=98845b12-b85b-4bbe-a43b-3cb58ee72a8f","ios":"levelo://app?vid=98845b12-b85b-4bbe-a43b-3cb58ee72a8f"},"vehicle_type_id":"4","last_reported":1729557953,"current_range_meters":20800,"station_id":"ce4bhk92rcd13ifvqgc0","pricing_plan_id":"cebpf4jnsgd1na2vs0mg"},{"bike_id":"3f93d603-921b-4a4e-befa-30d9d8a80713","system_id":"levelo_inurba_marseille","lat":43.31077,"lon":5.38361,"is_reserved":false,"is_disabled":false,"rental_uris":{"android":"levelo://app?vid=3f93d603-921b-4a4e-befa-30d9d8a80713","ios":"levelo://app?vid=3f93d603-921b-4a4e-befa-30d9d8a80713"},"vehicle_type_id":"4","last_reported":1729557953,"current_range_meters":36800,"station_id":"ce4bgv92rcd13ifvqcr0","pricing_plan_id":"cebpf4jnsgd1na2vs0mg"},{"bike_id":"19119e7b-68fe-4a9e-b3d2-d1db016b71a7","system_id":"levelo_inurba_marseille","lat":43.26194,"lon":5.37452,"is_reserved":false,"is_disabled":false,"rental_uris":{"android":"levelo://app?vid=19119e7b-68fe-4a9e-b3d2-d1db016b71a7","ios":"levelo://app?vid=19119e7b-68fe-4a9e-b3d2-d1db016b71a7"},"vehicle_type_id":"4","last_reported":1729557953,"current_range_meters":33600,"station_id":"ce4bhgp2rcd13ifvqfc0","pricing_plan_id":"cebpf4jnsgd1na2vs0mg"},{"bike_id":"3edcc9de-82f8-488a-80ec-7f7f41bf5d14","system_id":"levelo_inurba_marseille","lat":43.32339,"lon":5.40625,"is_reserved":false,"is_disabled":false,"rental_uris":{"android":"levelo://app?vid=3edcc9de-82f8-488a-80ec-7f7f41bf5d14","ios":"levelo://app?vid=3edcc9de-82f8-488a-80ec-7f7f41bf5d14"},"vehicle_type_id":"4","last_reported":1729557953,"current_range_meters":8400,"station_id":"ce4bhq92rcd13ifvqhjg","pricing_plan_id":"cebpf4jnsgd1na2vs0mg"},{"bike_id":"a78a05f6-e187-4669-80d1-9675fd22ff5c","system_id":"levelo_inurba_marseille","lat":43.31358,"lon":5.38495,"is_reserved":false,"is_disabled":false,"rental_uris":{"android":"levelo://app?vid=a78a05f6-e187-4669-80d1-9675fd22ff5c","ios":"levelo://app?vid=a78a05f6-e187-4669-80d1-9675fd22ff5c"},"vehicle_type_id":"4","last_reported":1729557953,"current_range_meters":39200,"station_id":"ce4bgt92rcd13ifvqcf0","pricing_plan_id":"cebpf4jnsgd1na2vs0mg"},{"bike_id":"7bc8993f-b69f-4b96-8190-8b6682b7d70f","system_id":"levelo_inurba_marseille","lat":43.33725,"lon":5.39181,"is_reserved":false,"is_disabled":false,"rental_uris":{"android":"levelo://app?vid=7bc8993f-b69f-4b96-8190-8b6682b7d70f","ios":"levelo://app?vid=7bc8993f-b69f-4b96-8190-8b6682b7d70f"},"vehicle_type_id":"4","last_reported":1729557953,"current_range_meters":38800,"station_id":"ce4bhr92rcd13ifvqhsg","pricing_plan_id":"cebpf4jnsgd1na2vs0mg"},{"bike_id":"864575c1-85b8-4008-92ba-391073d4ed51","system_id":"levelo_inurba_marseille","lat":43.23198,"lon":5.35551,"is_reserved":false,"is_disabled":false,"rental_uris":{"android":"levelo://app?vid=864575c1-85b8-4008-92ba-391073d4ed51","ios":"levelo://app?vid=864575c1-85b8-4008-92ba-391073d4ed51"},"vehicle_type_id":"4","last_reported":1729557953,"current_range_meters":27200,"station_id":"ce4bhu92rcd13ifvqi70","pricing_plan_id":"cebpf4jnsgd1na2vs0mg"},{"bike_id":"d40ab38b-8a2e-45f5-a093-38c43495c185","system_id":"levelo_inurba_marseille","lat":43.265,"lon":5.3954,"is_reserved":false,"is_disabled":false,"rental_uris":{"android":"levelo://app?vid=d40ab38b-8a2e-45f5-a093-38c43495c185","ios":"levelo://app?vid=d40ab38b-8a2e-45f5-a093-38c43495c185"},"vehicle_type_id":"4","last_reported":1729557953,"current_range_meters":38800,"station_id":"ce4bhi12rcd13ifvqfq0","pricing_plan_id":"cebpf4jnsgd1na2vs0mg"},{"bike_id":"e8705935-da04-47d3-a04d-4dc370a8f5d2","system_id":"levelo_inurba_marseille","lat":43.30423,"lon":5.388905,"is_reserved":false,"is_disabled":false,"rental_uris":{"android":"levelo://app?vid=e8705935-da04-47d3-a04d-4dc370a8f5d2","ios":"levelo://app?vid=e8705935-da04-47d3-a04d-4dc370a8f5d2"},"vehicle_type_id":"4","last_reported":1729557953,"current_range_meters":16400,"station_id":"ce4bgk12rcd13ifvqbi0","pricing_plan_id":"cebpf4jnsgd1na2vs0mg"},{"bike_id":"7b0fd21e-069c-4369-8603-9aba1f31fcdc","system_id":"levelo_inurba_marseille","lat":43.27211,"lon":5.3919,"is_reserved":false,"is_disabled":false,"rental_uris":{"android":"levelo://app?vid=7b0fd21e-069c-4369-8603-9aba1f31fcdc","ios":"levelo://app?vid=7b0fd21e-069c-4369-8603-9aba1f31fcdc"},"vehicle_type_id":"4","last_reported":1729557953,"current_range_meters":38000,"station_id":"ce4bhhp2rcd13ifvqfm0","pricing_plan_id":"cebpf4jnsgd1na2vs0mg"},{"bike_id":"13233a05-089d-4489-a8d1-ec98caeae1bf","system_id":"levelo_inurba_marseille","lat":43.28269,"lon":5.35068,"is_reserved":false,"is_disabled":false,"rental_uris":{"android":"levelo://app?vid=13233a05-089d-4489-a8d1-ec98caeae1bf","ios":"levelo://app?vid=13233a05-089d-4489-a8d1-ec98caeae1bf"},"vehicle_type_id":"4","last_reported":1729557953,"current_range_meters":8400,"station_id":"ce4bhbp2rcd13ifvqerg","pricing_plan_id":"cebpf4jnsgd1na2vs0mg"},{"bike_id":"328c4a76-366b-4cdf-a337-bcecf6f81e02","system_id":"levelo_inurba_marseille","lat":43.29376,"lon":5.37858,"is_reserved":false,"is_disabled":false,"rental_uris":{"android":"levelo://app?vid=328c4a76-366b-4cdf-a337-bcecf6f81e02","ios":"levelo://app?vid=328c4a76-366b-4cdf-a337-bcecf6f81e02"},"vehicle_type_id":"4","last_reported":1729557953,"current_range_meters":38800,"station_id":"ce4bgjh2rcd13ifvqbf0","pricing_plan_id":"cebpf4jnsgd1na2vs0mg"},{"bike_id":"0728974d-1ad5-4181-91f2-6035aab7157d","system_id":"levelo_inurba_marseille","lat":43.23196,"lon":5.35547,"is_reserved":false,"is_disabled":false,"rental_uris":{"android":"levelo://app?vid=0728974d-1ad5-4181-91f2-6035aab7157d","ios":"levelo://app?vid=0728974d-1ad5-4181-91f2-6035aab7157d"},"vehicle_type_id":"4","last_reported":1729557953,"current_range_meters":39200,"station_id":"ce4bhu92rcd13ifvqi70","pricing_plan_id":"cebpf4jnsgd1na2vs0mg"},{"bike_id":"157aa534-39be-4db9-b2cb-32ace632428c","system_id":"levelo_inurba_marseille","lat":43.29574,"lon":5.39979,"is_reserved":false,"is_disabled":false,"rental_uris":{"android":"levelo://app?vid=157aa534-39be-4db9-b2cb-32ace632428c","ios":"levelo://app?vid=157aa534-39be-4db9-b2cb-32ace632428c"},"vehicle_type_id":"4","last_reported":1729557953,"current_range_meters":32800,"station_id":"ce4bh312rcd13ifvqdj0","pricing_plan_id":"cebpf4jnsgd1na2vs0mg"},{"bike_id":"40789e63-bb12-414a-9e11-b14620ea6085","system_id":"levelo_inurba_marseille","lat":43.31711,"lon":5.37759,"is_reserved":false,"is_disabled":false,"rental_uris":{"android":"levelo://app?vid=40789e63-bb12-414a-9e11-b14620ea6085","ios":"levelo://app?vid=40789e63-bb12-414a-9e11-b14620ea6085"},"vehicle_type_id":"4","last_reported":1729557953,"current_range_meters":17600,"station_id":"ce4bgth2rcd13ifvqch0","pricing_plan_id":"cebpf4jnsgd1na2vs0mg"},{"bike_id":"2c2f3718-7209-4389-9d1d-d985a7daaef2","system_id":"levelo_inurba_marseille","lat":43.31671,"lon":5.37516,"is_reserved":false,"is_disabled":false,"rental_uris":{"android":"levelo://app?vid=2c2f3718-7209-4389-9d1d-d985a7daaef2","ios":"levelo://app?vid=2c2f3718-7209-4389-9d1d-d985a7daaef2"},"vehicle_type_id":"4","last_reported":1729557953,"current_range_meters":12000,"station_id":"","pricing_plan_id":"cebpf4jnsgd1na2vs0mg"},{"bike_id":"f7c6ebfa-01ca-46c2-8361-1b6286dc7bf5","system_id":"levelo_inurba_marseille","lat":43.30421,"lon":5.41281,"is_reserved":false,"is_disabled":false,"rental_uris":{"android":"levelo://app?vid=f7c6ebfa-01ca-46c2-8361-1b6286dc7bf5","ios":"levelo://app?vid=f7c6ebfa-01ca-46c2-8361-1b6286dc7bf5"},"vehicle_type_id":"4","last_reported":1729557953,"current_range_meters":16000,"station_id":"ce4bhop2rcd13ifvqh8g","pricing_plan_id":"cebpf4jnsgd1na2vs0mg"},{"bike_id":"b9e8c52f-e6bf-42e4-8b4d-e1b4b2997faa","system_id":"levelo_inurba_marseille","lat":43.26789,"lon":5.39416,"is_reserved":false,"is_disabled":false,"rental_uris":{"android":"levelo://app?vid=b9e8c52f-e6bf-42e4-8b4d-e1b4b2997faa","ios":"levelo://app?vid=b9e8c52f-e6bf-42e4-8b4d-e1b4b2997faa"},"vehicle_type_id":"4","last_reported":1729557953,"current_range_meters":27600,"station_id":"ce4bhh12rcd13ifvqfg0","pricing_plan_id":"cebpf4jnsgd1na2vs0mg"},{"bike_id":"52d745c9-427b-4fcd-827c-6a4e25626b52","system_id":"levelo_inurba_marseille","lat":43.31369,"lon":5.38493,"is_reserved":false,"is_disabled":false,"rental_uris":{"android":"levelo://app?vid=52d745c9-427b-4fcd-827c-6a4e25626b52","ios":"levelo://app?vid=52d745c9-427b-4fcd-827c-6a4e25626b52"},"vehicle_type_id":"4","last_reported":1729557953,"current_range_meters":39200,"station_id":"ce4bgt92rcd13ifvqcf0","pricing_plan_id":"cebpf4jnsgd1na2vs0mg"},{"bike_id":"44995a22-033a-4c58-85c7-5fde1a0d1fd1","system_id":"levelo_inurba_marseille","lat":43.31762,"lon":5.39018,"is_reserved":false,"is_disabled":false,"rental_uris":{"android":"levelo://app?vid=44995a22-033a-4c58-85c7-5fde1a0d1fd1","ios":"levelo://app?vid=44995a22-033a-4c58-85c7-5fde1a0d1fd1"},"vehicle_type_id":"4","last_reported":1729557953,"current_range_meters":18000,"station_id":"ce4bhqp2rcd13ifvqhng","pricing_plan_id":"cebpf4jnsgd1na2vs0mg"},{"bike_id":"93bfb70d-d871-43c2-bbe7-1b116e511b36","system_id":"levelo_inurba_marseille","lat":43.26945,"lon":5.38628,"is_reserved":false,"is_disabled":false,"rental_uris":{"android":"levelo://app?vid=93bfb70d-d871-43c2-bbe7-1b116e511b36","ios":"levelo://app?vid=93bfb70d-d871-43c2-bbe7-1b116e511b36"},"vehicle_type_id":"4","last_reported":1729557953,"current_range_meters":38800,"station_id":"ce4bhh92rcd13ifvqfh0","pricing_plan_id":"cebpf4jnsgd1na2vs0mg"},{"bike_id":"f5d50e82-fece-4bbd-b888-8187784dc2e8","system_id":"levelo_inurba_marseille","lat":43.30883,"lon":5.39638,"is_reserved":false,"is_disabled":false,"rental_uris":{"android":"levelo://app?vid=f5d50e82-fece-4bbd-b888-8187784dc2e8","ios":"levelo://app?vid=f5d50e82-fece-4bbd-b888-8187784dc2e8"},"vehicle_type_id":"4","last_reported":1729557953,"current_range_meters":32000,"station_id":"ce4bh012rcd13ifvqcv0","pricing_plan_id":"cebpf4jnsgd1na2vs0mg"},{"bike_id":"e62a894f-aa91-43a8-a8db-f23b8737397d","system_id":"levelo_inurba_marseille","lat":43.31496,"lon":5.37313,"is_reserved":false,"is_disabled":false,"rental_uris":{"android":"levelo://app?vid=e62a894f-aa91-43a8-a8db-f23b8737397d","ios":"levelo://app?vid=e62a894f-aa91-43a8-a8db-f23b8737397d"},"vehicle_type_id":"4","last_reported":1729557953,"current_range_meters":28400,"station_id":"ce4bgt12rcd13ifvqcd0","pricing_plan_id":"cebpf4jnsgd1na2vs0mg"},{"bike_id":"33ceddba-4cde-4193-9e1a-0e1fdb0a2205","system_id":"levelo_inurba_marseille","lat":43.31277,"lon":5.40169,"is_reserved":false,"is_disabled":false,"rental_uris":{"android":"levelo://app?vid=33ceddba-4cde-4193-9e1a-0e1fdb0a2205","ios":"levelo://app?vid=33ceddba-4cde-4193-9e1a-0e1fdb0a2205"},"vehicle_type_id":"4","last_reported":1729557953,"current_range_meters":38800,"station_id":"ce4bh092rcd13ifvqd30","pricing_plan_id":"cebpf4jnsgd1na2vs0mg"},{"bike_id":"a83c7b68-cf4e-46de-88aa-de72078f7bcd","system_id":"levelo_inurba_marseille","lat":43.3117,"lon":5.38719,"is_reserved":false,"is_disabled":false,"rental_uris":{"android":"levelo://app?vid=a83c7b68-cf4e-46de-88aa-de72078f7bcd","ios":"levelo://app?vid=a83c7b68-cf4e-46de-88aa-de72078f7bcd"},"vehicle_type_id":"4","last_reported":1729557953,"current_range_meters":35600,"station_id":"ce4bgv12rcd13ifvqcp0","pricing_plan_id":"cebpf4jnsgd1na2vs0mg"},{"bike_id":"b80433ac-4b37-4869-84e8-91999a3765ef","system_id":"levelo_inurba_marseille","lat":43.33604,"lon":5.41025,"is_reserved":false,"is_disabled":false,"rental_uris":{"android":"levelo://app?vid=b80433ac-4b37-4869-84e8-91999a3765ef","ios":"levelo://app?vid=b80433ac-4b37-4869-84e8-91999a3765ef"},"vehicle_type_id":"4","last_reported":1729557953,"current_range_meters":28800,"station_id":"ce4bhqh2rcd13ifvqhmg","pricing_plan_id":"cebpf4jnsgd1na2vs0mg"},{"bike_id":"79a1e020-318b-42a1-a8c0-a424b1daf69e","system_id":"levelo_inurba_marseille","lat":43.296,"lon":5.36142,"is_reserved":false,"is_disabled":false,"rental_uris":{"android":"levelo://app?vid=79a1e020-318b-42a1-a8c0-a424b1daf69e","ios":"levelo://app?vid=79a1e020-318b-42a1-a8c0-a424b1daf69e"},"vehicle_type_id":"4","last_reported":1729557953,"current_range_meters":8400,"station_id":"","pricing_plan_id":"cebpf4jnsgd1na2vs0mg"},{"bike_id":"93d37b3c-68af-4d6b-8c3b-1b14a8c56809","system_id":"levelo_inurba_marseille","lat":43.30646,"lon":5.40073,"is_reserved":false,"is_disabled":false,"rental_uris":{"android":"levelo://app?vid=93d37b3c-68af-4d6b-8c3b-1b14a8c56809","ios":"levelo://app?vid=93d37b3c-68af-4d6b-8c3b-1b14a8c56809"},"vehicle_type_id":"4","last_reported":1729557953,"current_range_meters":38800,"station_id":"ce4bh112rcd13ifvqda0","pricing_plan_id":"cebpf4jnsgd1na2vs0mg"},{"bike_id":"6398e522-375b-4d8b-96fe-81ff45d58e1e","system_id":"levelo_inurba_marseille","lat":43.27947,"lon":5.41041,"is_reserved":false,"is_disabled":false,"rental_uris":{"android":"levelo://app?vid=6398e522-375b-4d8b-96fe-81ff45d58e1e","ios":"levelo://app?vid=6398e522-375b-4d8b-96fe-81ff45d58e1e"},"vehicle_type_id":"4","last_reported":1729557953,"current_range_meters":6400,"station_id":"ce4bhnp2rcd13ifvqh0g","pricing_plan_id":"cebpf4jnsgd1na2vs0mg"},{"bike_id":"9bf9a108-7d5c-4517-b690-aa3ce06ef443","system_id":"levelo_inurba_marseille","lat":43.30355,"lon":5.41877,"is_reserved":false,"is_disabled":false,"rental_uris":{"android":"levelo://app?vid=9bf9a108-7d5c-4517-b690-aa3ce06ef443","ios":"levelo://app?vid=9bf9a108-7d5c-4517-b690-aa3ce06ef443"},"vehicle_type_id":"4","last_reported":1729557953,"current_range_meters":38800,"station_id":"ce4bhop2rcd13ifvqh7g","pricing_plan_id":"cebpf4jnsgd1na2vs0mg"},{"bike_id":"ab02ee1d-787b-471c-94b6-63687d804895","system_id":"levelo_inurba_marseille","lat":43.28616,"lon":5.35105,"is_reserved":false,"is_disabled":false,"rental_uris":{"android":"levelo://app?vid=ab02ee1d-787b-471c-94b6-63687d804895","ios":"levelo://app?vid=ab02ee1d-787b-471c-94b6-63687d804895"},"vehicle_type_id":"4","last_reported":1729557953,"current_range_meters":39200,"station_id":"ce4bhch2rcd13ifvqeug","pricing_plan_id":"cebpf4jnsgd1na2vs0mg"},{"bike_id":"a380b183-7537-4fff-8060-8ec31643c6dd","system_id":"levelo_inurba_marseille","lat":43.2511,"lon":5.40323,"is_reserved":false,"is_disabled":false,"rental_uris":{"android":"levelo://app?vid=a380b183-7537-4fff-8060-8ec31643c6dd","ios":"levelo://app?vid=a380b183-7537-4fff-8060-8ec31643c6dd"},"vehicle_type_id":"4","last_reported":1729557953,"current_range_meters":27200,"station_id":"ce4bhlh2rcd13ifvqgig","pricing_plan_id":"cebpf4jnsgd1na2vs0mg"},{"bike_id":"8a46d5b2-4f1b-4178-9819-307049f72904","system_id":"levelo_inurba_marseille","lat":43.25088,"lon":5.39518,"is_reserved":false,"is_disabled":false,"rental_uris":{"android":"levelo://app?vid=8a46d5b2-4f1b-4178-9819-307049f72904","ios":"levelo://app?vid=8a46d5b2-4f1b-4178-9819-307049f72904"},"vehicle_type_id":"4","last_reported":1729557953,"current_range_meters":2000,"station_id":"ce4bhm12rcd13ifvqgkg","pricing_plan_id":"cebpf4jnsgd1na2vs0mg"},{"bike_id":"7adf842b-4b8c-4356-a23f-1be0cbaf4d21","system_id":"levelo_inurba_marseille","lat":43.23192,"lon":5.35546,"is_reserved":false,"is_disabled":false,"rental_uris":{"android":"levelo://app?vid=7adf842b-4b8c-4356-a23f-1be0cbaf4d21","ios":"levelo://app?vid=7adf842b-4b8c-4356-a23f-1be0cbaf4d21"},"vehicle_type_id":"4","last_reported":1729557953,"current_range_meters":12400,"station_id":"ce4bhu92rcd13ifvqi70","pricing_plan_id":"cebpf4jnsgd1na2vs0mg"},{"bike_id":"1505e4cd-8219-4389-bb14-ac621babe580","system_id":"levelo_inurba_marseille","lat":43.29027,"lon":5.39971,"is_reserved":false,"is_disabled":false,"rental_uris":{"android":"levelo://app?vid=1505e4cd-8219-4389-bb14-ac621babe580","ios":"levelo://app?vid=1505e4cd-8219-4389-bb14-ac621babe580"},"vehicle_type_id":"4","last_reported":1729557953,"current_range_meters":27600,"station_id":"ce4bh392rcd13ifvqdm0","pricing_plan_id":"cebpf4jnsgd1na2vs0mg"},{"bike_id":"3fbb21dc-457c-4028-8cc7-8a7ddebb915c","system_id":"levelo_inurba_marseille","lat":43.23197,"lon":5.35551,"is_reserved":false,"is_disabled":false,"rental_uris":{"android":"levelo://app?vid=3fbb21dc-457c-4028-8cc7-8a7ddebb915c","ios":"levelo://app?vid=3fbb21dc-457c-4028-8cc7-8a7ddebb915c"},"vehicle_type_id":"4","last_reported":1729557953,"current_range_meters":38000,"station_id":"ce4bhu92rcd13ifvqi70","pricing_plan_id":"cebpf4jnsgd1na2vs0mg"},{"bike_id":"8d66234d-ed10-4a56-b9bf-7024ed1a6c9c","system_id":"levelo_inurba_marseille","lat":43.32565,"lon":5.37909,"is_reserved":false,"is_disabled":false,"rental_uris":{"android":"levelo://app?vid=8d66234d-ed10-4a56-b9bf-7024ed1a6c9c","ios":"levelo://app?vid=8d66234d-ed10-4a56-b9bf-7024ed1a6c9c"},"vehicle_type_id":"4","last_reported":1729557953,"current_range_meters":7200,"station_id":"","pricing_plan_id":"cebpf4jnsgd1na2vs0mg"},{"bike_id":"1a0bbeee-92e7-4799-aa97-dffd6a209b19","system_id":"levelo_inurba_marseille","lat":43.29577,"lon":5.399846,"is_reserved":false,"is_disabled":false,"rental_uris":{"android":"levelo://app?vid=1a0bbeee-92e7-4799-aa97-dffd6a209b19","ios":"levelo://app?vid=1a0bbeee-92e7-4799-aa97-dffd6a209b19"},"vehicle_type_id":"4","last_reported":1729557953,"current_range_meters":32000,"station_id":"ce4bh312rcd13ifvqdj0","pricing_plan_id":"cebpf4jnsgd1na2vs0mg"},{"bike_id":"7e95eacb-60ec-4bcb-8278-5a9357340889","system_id":"levelo_inurba_marseille","lat":43.26806,"lon":5.40273,"is_reserved":false,"is_disabled":false,"rental_uris":{"android":"levelo://app?vid=7e95eacb-60ec-4bcb-8278-5a9357340889","ios":"levelo://app?vid=7e95eacb-60ec-4bcb-8278-5a9357340889"},"vehicle_type_id":"4","last_reported":1729557953,"current_range_meters":38000,"station_id":"ce501612rcd8frsf0b60","pricing_plan_id":"cebpf4jnsgd1na2vs0mg"},{"bike_id":"8636b94d-2fa5-4494-9366-9ee15c62850a","system_id":"levelo_inurba_marseille","lat":43.28042,"lon":5.36953,"is_reserved":false,"is_disabled":false,"rental_uris":{"android":"levelo://app?vid=8636b94d-2fa5-4494-9366-9ee15c62850a","ios":"levelo://app?vid=8636b94d-2fa5-4494-9366-9ee15c62850a"},"vehicle_type_id":"4","last_reported":1729557953,"current_range_meters":38800,"station_id":"ce4bha12rcd13ifvqef0","pricing_plan_id":"cebpf4jnsgd1na2vs0mg"},{"bike_id":"a0749efe-97d9-4183-a72e-c1d2637d69c3","system_id":"levelo_inurba_marseille","lat":43.29809,"lon":5.40408,"is_reserved":false,"is_disabled":false,"rental_uris":{"android":"levelo://app?vid=a0749efe-97d9-4183-a72e-c1d2637d69c3","ios":"levelo://app?vid=a0749efe-97d9-4183-a72e-c1d2637d69c3"},"vehicle_type_id":"4","last_reported":1729557953,"current_range_meters":36800,"station_id":"ce4bh112rcd13ifvqd90","pricing_plan_id":"cebpf4jnsgd1na2vs0mg"},{"bike_id":"355f1dc2-3476-4496-8420-f36b2652912a","system_id":"levelo_inurba_marseille","lat":43.3133,"lon":5.39691,"is_reserved":false,"is_disabled":false,"rental_uris":{"android":"levelo://app?vid=355f1dc2-3476-4496-8420-f36b2652912a","ios":"levelo://app?vid=355f1dc2-3476-4496-8420-f36b2652912a"},"vehicle_type_id":"4","last_reported":1729557953,"current_range_meters":16400,"station_id":"ce4bgvp2rcd13ifvqcu0","pricing_plan_id":"cebpf4jnsgd1na2vs0mg"},{"bike_id":"1d043a7e-e4a0-4b52-a511-dae1798912e1","system_id":"levelo_inurba_marseille","lat":43.28158,"lon":5.4264,"is_reserved":false,"is_disabled":false,"rental_uris":{"android":"levelo://app?vid=1d043a7e-e4a0-4b52-a511-dae1798912e1","ios":"levelo://app?vid=1d043a7e-e4a0-4b52-a511-dae1798912e1"},"vehicle_type_id":"4","last_reported":1729557953,"current_range_meters":38800,"station_id":"ce4bhnh2rcd13ifvqgug","pricing_plan_id":"cebpf4jnsgd1na2vs0mg"},{"bike_id":"2e7e341d-6647-47b6-9b4f-10b43bf22d61","system_id":"levelo_inurba_marseille","lat":43.30418,"lon":5.41284,"is_reserved":false,"is_disabled":false,"rental_uris":{"android":"levelo://app?vid=2e7e341d-6647-47b6-9b4f-10b43bf22d61","ios":"levelo://app?vid=2e7e341d-6647-47b6-9b4f-10b43bf22d61"},"vehicle_type_id":"4","last_reported":1729557953,"current_range_meters":32000,"station_id":"ce4bhop2rcd13ifvqh8g","pricing_plan_id":"cebpf4jnsgd1na2vs0mg"},{"bike_id":"623ff747-a7b7-4736-bc37-2cc382e3060a","system_id":"levelo_inurba_marseille","lat":43.29986,"lon":5.37178,"is_reserved":false,"is_disabled":false,"rental_uris":{"android":"levelo://app?vid=623ff747-a7b7-4736-bc37-2cc382e3060a","ios":"levelo://app?vid=623ff747-a7b7-4736-bc37-2cc382e3060a"},"vehicle_type_id":"4","last_reported":1729557953,"current_range_meters":20000,"station_id":"ce4bgr92rcd13ifvqc7g","pricing_plan_id":"cebpf4jnsgd1na2vs0mg"},{"bike_id":"f17fa479-f2e2-48da-8a91-0c07b8b7f8e8","system_id":"levelo_inurba_marseille","lat":43.28466,"lon":5.359,"is_reserved":false,"is_disabled":false,"rental_uris":{"android":"levelo://app?vid=f17fa479-f2e2-48da-8a91-0c07b8b7f8e8","ios":"levelo://app?vid=f17fa479-f2e2-48da-8a91-0c07b8b7f8e8"},"vehicle_type_id":"4","last_reported":1729557953,"current_range_meters":38800,"station_id":"ce4bhah2rcd13ifvqei0","pricing_plan_id":"cebpf4jnsgd1na2vs0mg"},{"bike_id":"9926919b-200e-4ea0-a4a8-95ae624636d3","system_id":"levelo_inurba_marseille","lat":43.25091,"lon":5.39522,"is_reserved":false,"is_disabled":false,"rental_uris":{"android":"levelo://app?vid=9926919b-200e-4ea0-a4a8-95ae624636d3","ios":"levelo://app?vid=9926919b-200e-4ea0-a4a8-95ae624636d3"},"vehicle_type_id":"4","last_reported":1729557953,"current_range_meters":28800,"station_id":"ce4bhm12rcd13ifvqgkg","pricing_plan_id":"cebpf4jnsgd1na2vs0mg"},{"bike_id":"1eadcc42-de84-4bd1-8d6a-153babdc9369","system_id":"levelo_inurba_marseille","lat":43.28273,"lon":5.35062,"is_reserved":false,"is_disabled":false,"rental_uris":{"android":"levelo://app?vid=1eadcc42-de84-4bd1-8d6a-153babdc9369","ios":"levelo://app?vid=1eadcc42-de84-4bd1-8d6a-153babdc9369"},"vehicle_type_id":"4","last_reported":1729557953,"current_range_meters":38000,"station_id":"ce4bhbp2rcd13ifvqerg","pricing_plan_id":"cebpf4jnsgd1na2vs0mg"},{"bike_id":"4c0f4f34-a519-4401-955c-4839c96f70d3","system_id":"levelo_inurba_marseille","lat":43.29976,"lon":5.38486,"is_reserved":false,"is_disabled":false,"rental_uris":{"android":"levelo://app?vid=4c0f4f34-a519-4401-955c-4839c96f70d3","ios":"levelo://app?vid=4c0f4f34-a519-4401-955c-4839c96f70d3"},"vehicle_type_id":"4","last_reported":1729557953,"current_range_meters":38000,"station_id":"ce4bgj92rcd13ifvqbd0","pricing_plan_id":"cebpf4jnsgd1na2vs0mg"},{"bike_id":"e9358621-e455-44ac-86a0-036a3d1f95b1","system_id":"levelo_inurba_marseille","lat":43.27669,"lon":5.3891,"is_reserved":false,"is_disabled":false,"rental_uris":{"android":"levelo://app?vid=e9358621-e455-44ac-86a0-036a3d1f95b1","ios":"levelo://app?vid=e9358621-e455-44ac-86a0-036a3d1f95b1"},"vehicle_type_id":"4","last_reported":1729557953,"current_range_meters":38800,"station_id":"ce4bhi12rcd13ifvqfo0","pricing_plan_id":"cebpf4jnsgd1na2vs0mg"},{"bike_id":"b3104e33-9459-48f1-a6de-d63ef857c18a","system_id":"levelo_inurba_marseille","lat":43.32659,"lon":5.40989,"is_reserved":false,"is_disabled":false,"rental_uris":{"android":"levelo://app?vid=b3104e33-9459-48f1-a6de-d63ef857c18a","ios":"levelo://app?vid=b3104e33-9459-48f1-a6de-d63ef857c18a"},"vehicle_type_id":"4","last_reported":1729557953,"current_range_meters":32400,"station_id":"ce4bhpp2rcd13ifvqhgg","pricing_plan_id":"cebpf4jnsgd1na2vs0mg"},{"bike_id":"7b896980-63fe-4b12-804d-661b4034cce4","system_id":"levelo_inurba_marseille","lat":43.28664,"lon":5.36358,"is_reserved":false,"is_disabled":false,"rental_uris":{"android":"levelo://app?vid=7b896980-63fe-4b12-804d-661b4034cce4","ios":"levelo://app?vid=7b896980-63fe-4b12-804d-661b4034cce4"},"vehicle_type_id":"4","last_reported":1729557953,"current_range_meters":28000,"station_id":"ce4bhah2rcd13ifvqej0","pricing_plan_id":"cebpf4jnsgd1na2vs0mg"},{"bike_id":"155517ef-0a83-4c87-b2da-fb3d8d259bc7","system_id":"levelo_inurba_marseille","lat":43.25578,"lon":5.3824,"is_reserved":false,"is_disabled":false,"rental_uris":{"android":"levelo://app?vid=155517ef-0a83-4c87-b2da-fb3d8d259bc7","ios":"levelo://app?vid=155517ef-0a83-4c87-b2da-fb3d8d259bc7"},"vehicle_type_id":"4","last_reported":1729557953,"current_range_meters":38400,"station_id":"ce4bhih2rcd13ifvqfs0","pricing_plan_id":"cebpf4jnsgd1na2vs0mg"},{"bike_id":"a28221e9-a1a9-4fdb-abf6-3e4386cfaae2","system_id":"levelo_inurba_marseille","lat":43.31175,"lon":5.38712,"is_reserved":false,"is_disabled":false,"rental_uris":{"android":"levelo://app?vid=a28221e9-a1a9-4fdb-abf6-3e4386cfaae2","ios":"levelo://app?vid=a28221e9-a1a9-4fdb-abf6-3e4386cfaae2"},"vehicle_type_id":"4","last_reported":1729557953,"current_range_meters":36000,"station_id":"ce4bgv12rcd13ifvqcp0","pricing_plan_id":"cebpf4jnsgd1na2vs0mg"},{"bike_id":"94654e52-ac43-4d4d-9100-a81fd158ab8c","system_id":"levelo_inurba_marseille","lat":43.27183,"lon":5.40988,"is_reserved":false,"is_disabled":false,"rental_uris":{"android":"levelo://app?vid=94654e52-ac43-4d4d-9100-a81fd158ab8c","ios":"levelo://app?vid=94654e52-ac43-4d4d-9100-a81fd158ab8c"},"vehicle_type_id":"4","last_reported":1729557953,"current_range_meters":38800,"station_id":"ce4bhl12rcd13ifvqgf0","pricing_plan_id":"cebpf4jnsgd1na2vs0mg"},{"bike_id":"d35aead5-74d9-4a00-baad-d7d1ed435177","system_id":"levelo_inurba_marseille","lat":43.24071,"lon":5.37757,"is_reserved":false,"is_disabled":false,"rental_uris":{"android":"levelo://app?vid=d35aead5-74d9-4a00-baad-d7d1ed435177","ios":"levelo://app?vid=d35aead5-74d9-4a00-baad-d7d1ed435177"},"vehicle_type_id":"4","last_reported":1729557953,"current_range_meters":38000,"station_id":"ce4bhnp2rcd13ifvqgvg","pricing_plan_id":"cebpf4jnsgd1na2vs0mg"},{"bike_id":"45e47b32-b595-42fc-b7b4-fe5c0ba1b09b","system_id":"levelo_inurba_marseille","lat":43.3108,"lon":5.38358,"is_reserved":false,"is_disabled":false,"rental_uris":{"android":"levelo://app?vid=45e47b32-b595-42fc-b7b4-fe5c0ba1b09b","ios":"levelo://app?vid=45e47b32-b595-42fc-b7b4-fe5c0ba1b09b"},"vehicle_type_id":"4","last_reported":1729557953,"current_range_meters":28400,"station_id":"ce4bgv92rcd13ifvqcr0","pricing_plan_id":"cebpf4jnsgd1na2vs0mg"},{"bike_id":"773428ac-f2af-48e2-8731-75abfd73f78c","system_id":"levelo_inurba_marseille","lat":43.31168,"lon":5.3871,"is_reserved":false,"is_disabled":false,"rental_uris":{"android":"levelo://app?vid=773428ac-f2af-48e2-8731-75abfd73f78c","ios":"levelo://app?vid=773428ac-f2af-48e2-8731-75abfd73f78c"},"vehicle_type_id":"4","last_reported":1729557953,"current_range_meters":36000,"station_id":"ce4bgv12rcd13ifvqcp0","pricing_plan_id":"cebpf4jnsgd1na2vs0mg"},{"bike_id":"9497472b-df01-4419-8ccb-4371f577f35f","system_id":"levelo_inurba_marseille","lat":43.25584,"lon":5.38245,"is_reserved":false,"is_disabled":false,"rental_uris":{"android":"levelo://app?vid=9497472b-df01-4419-8ccb-4371f577f35f","ios":"levelo://app?vid=9497472b-df01-4419-8ccb-4371f577f35f"},"vehicle_type_id":"4","last_reported":1729557953,"current_range_meters":19600,"station_id":"ce4bhih2rcd13ifvqfs0","pricing_plan_id":"cebpf4jnsgd1na2vs0mg"},{"bike_id":"3b14897a-daf5-4d7e-8b82-86c5bdae4669","system_id":"levelo_inurba_marseille","lat":43.28616,"lon":5.37077,"is_reserved":false,"is_disabled":false,"rental_uris":{"android":"levelo://app?vid=3b14897a-daf5-4d7e-8b82-86c5bdae4669","ios":"levelo://app?vid=3b14897a-daf5-4d7e-8b82-86c5bdae4669"},"vehicle_type_id":"4","last_reported":1729557953,"current_range_meters":28000,"station_id":"ce4bht12rcd13ifvqi60","pricing_plan_id":"cebpf4jnsgd1na2vs0mg"},{"bike_id":"c3945b60-e38d-4106-8f18-92c7f436cc4f","system_id":"levelo_inurba_marseille","lat":43.33757,"lon":5.37448,"is_reserved":false,"is_disabled":false,"rental_uris":{"android":"levelo://app?vid=c3945b60-e38d-4106-8f18-92c7f436cc4f","ios":"levelo://app?vid=c3945b60-e38d-4106-8f18-92c7f436cc4f"},"vehicle_type_id":"4","last_reported":1729557953,"current_range_meters":34000,"station_id":"","pricing_plan_id":"cebpf4jnsgd1na2vs0mg"},{"bike_id":"74ded6f5-098b-488e-b1a9-15a19e4867f1","system_id":"levelo_inurba_marseille","lat":43.29034,"lon":5.39964,"is_reserved":false,"is_disabled":false,"rental_uris":{"android":"levelo://app?vid=74ded6f5-098b-488e-b1a9-15a19e4867f1","ios":"levelo://app?vid=74ded6f5-098b-488e-b1a9-15a19e4867f1"},"vehicle_type_id":"4","last_reported":1729557953,"current_range_meters":38000,"station_id":"ce4bh392rcd13ifvqdm0","pricing_plan_id":"cebpf4jnsgd1na2vs0mg"},{"bike_id":"de1ff86d-3061-40a1-be1e-8be446e6115e","system_id":"levelo_inurba_marseille","lat":43.29592,"lon":5.38158,"is_reserved":false,"is_disabled":false,"rental_uris":{"android":"levelo://app?vid=de1ff86d-3061-40a1-be1e-8be446e6115e","ios":"levelo://app?vid=de1ff86d-3061-40a1-be1e-8be446e6115e"},"vehicle_type_id":"4","last_reported":1729557953,"current_range_meters":17200,"station_id":"ce4bgl12rcd13ifvqbo0","pricing_plan_id":"cebpf4jnsgd1na2vs0mg"},{"bike_id":"89b3e9b5-e4ed-4c01-8cf5-f5c0f73a8e27","system_id":"levelo_inurba_marseille","lat":43.323458,"lon":5.406343,"is_reserved":false,"is_disabled":false,"rental_uris":{"android":"levelo://app?vid=89b3e9b5-e4ed-4c01-8cf5-f5c0f73a8e27","ios":"levelo://app?vid=89b3e9b5-e4ed-4c01-8cf5-f5c0f73a8e27"},"vehicle_type_id":"4","last_reported":1729557953,"current_range_meters":28800,"station_id":"ce4bhq92rcd13ifvqhjg","pricing_plan_id":"cebpf4jnsgd1na2vs0mg"},{"bike_id":"804059e5-aaa7-42e0-98ea-49434fd7bf0c","system_id":"levelo_inurba_marseille","lat":43.30187,"lon":5.36622,"is_reserved":false,"is_disabled":false,"rental_uris":{"android":"levelo://app?vid=804059e5-aaa7-42e0-98ea-49434fd7bf0c","ios":"levelo://app?vid=804059e5-aaa7-42e0-98ea-49434fd7bf0c"},"vehicle_type_id":"4","last_reported":1729557953,"current_range_meters":25600,"station_id":"ce4bgrh2rcd13ifvqc8g","pricing_plan_id":"cebpf4jnsgd1na2vs0mg"},{"bike_id":"5dd6eb99-99d7-4ccf-a742-a934d3f387cd","system_id":"levelo_inurba_marseille","lat":43.290667,"lon":5.37157,"is_reserved":false,"is_disabled":false,"rental_uris":{"android":"levelo://app?vid=5dd6eb99-99d7-4ccf-a742-a934d3f387cd","ios":"levelo://app?vid=5dd6eb99-99d7-4ccf-a742-a934d3f387cd"},"vehicle_type_id":"4","last_reported":1729557953,"current_range_meters":38800,"station_id":"ce4bh5p2rcd13ifvqe4g","pricing_plan_id":"cebpf4jnsgd1na2vs0mg"},{"bike_id":"187768a6-b7a7-4705-b7cd-5ddf89bff83c","system_id":"levelo_inurba_marseille","lat":43.30891,"lon":5.39639,"is_reserved":false,"is_disabled":false,"rental_uris":{"android":"levelo://app?vid=187768a6-b7a7-4705-b7cd-5ddf89bff83c","ios":"levelo://app?vid=187768a6-b7a7-4705-b7cd-5ddf89bff83c"},"vehicle_type_id":"4","last_reported":1729557953,"current_range_meters":39200,"station_id":"ce4bh012rcd13ifvqcv0","pricing_plan_id":"cebpf4jnsgd1na2vs0mg"},{"bike_id":"1af7e746-f18e-4515-800e-e2caa01909e6","system_id":"levelo_inurba_marseille","lat":43.28354,"lon":5.3811,"is_reserved":false,"is_disabled":false,"rental_uris":{"android":"levelo://app?vid=1af7e746-f18e-4515-800e-e2caa01909e6","ios":"levelo://app?vid=1af7e746-f18e-4515-800e-e2caa01909e6"},"vehicle_type_id":"4","last_reported":1729557953,"current_range_meters":38800,"station_id":"ce4bh412rcd13ifvqdr0","pricing_plan_id":"cebpf4jnsgd1na2vs0mg"},{"bike_id":"fe464ea0-362d-441e-87d4-e9eb2e91d570","system_id":"levelo_inurba_marseille","lat":43.28106,"lon":5.37828,"is_reserved":false,"is_disabled":false,"rental_uris":{"android":"levelo://app?vid=fe464ea0-362d-441e-87d4-e9eb2e91d570","ios":"levelo://app?vid=fe464ea0-362d-441e-87d4-e9eb2e91d570"},"vehicle_type_id":"4","last_reported":1729557953,"current_range_meters":26000,"station_id":"ce4bha12rcd13ifvqee0","pricing_plan_id":"cebpf4jnsgd1na2vs0mg"},{"bike_id":"1cc8c524-3a72-465f-8ebe-e4c35d504abb","system_id":"levelo_inurba_marseille","lat":43.24073,"lon":5.37772,"is_reserved":false,"is_disabled":false,"rental_uris":{"android":"levelo://app?vid=1cc8c524-3a72-465f-8ebe-e4c35d504abb","ios":"levelo://app?vid=1cc8c524-3a72-465f-8ebe-e4c35d504abb"},"vehicle_type_id":"4","last_reported":1729557953,"current_range_meters":18800,"station_id":"ce4bhnp2rcd13ifvqgvg","pricing_plan_id":"cebpf4jnsgd1na2vs0mg"},{"bike_id":"d6302fba-4a4b-48e2-955d-c7fff95e7dbf","system_id":"levelo_inurba_marseille","lat":43.31276,"lon":5.40164,"is_reserved":false,"is_disabled":false,"rental_uris":{"android":"levelo://app?vid=d6302fba-4a4b-48e2-955d-c7fff95e7dbf","ios":"levelo://app?vid=d6302fba-4a4b-48e2-955d-c7fff95e7dbf"},"vehicle_type_id":"4","last_reported":1729557953,"current_range_meters":6400,"station_id":"ce4bh092rcd13ifvqd30","pricing_plan_id":"cebpf4jnsgd1na2vs0mg"},{"bike_id":"b98c53b4-846d-4a89-a172-20ae0f114d2d","system_id":"levelo_inurba_marseille","lat":43.30644,"lon":5.40069,"is_reserved":false,"is_disabled":false,"rental_uris":{"android":"levelo://app?vid=b98c53b4-846d-4a89-a172-20ae0f114d2d","ios":"levelo://app?vid=b98c53b4-846d-4a89-a172-20ae0f114d2d"},"vehicle_type_id":"4","last_reported":1729557953,"current_range_meters":37600,"station_id":"ce4bh112rcd13ifvqda0","pricing_plan_id":"cebpf4jnsgd1na2vs0mg"},{"bike_id":"67964f95-7ec5-456f-a636-5d1f4c4b27bf","system_id":"levelo_inurba_marseille","lat":43.31365,"lon":5.3849,"is_reserved":false,"is_disabled":false,"rental_uris":{"android":"levelo://app?vid=67964f95-7ec5-456f-a636-5d1f4c4b27bf","ios":"levelo://app?vid=67964f95-7ec5-456f-a636-5d1f4c4b27bf"},"vehicle_type_id":"4","last_reported":1729557953,"current_range_meters":35600,"station_id":"ce4bgt92rcd13ifvqcf0","pricing_plan_id":"cebpf4jnsgd1na2vs0mg"},{"bike_id":"9f786ec1-1992-4de8-b2dc-8bc6950749ad","system_id":"levelo_inurba_marseille","lat":43.25107,"lon":5.40328,"is_reserved":false,"is_disabled":false,"rental_uris":{"android":"levelo://app?vid=9f786ec1-1992-4de8-b2dc-8bc6950749ad","ios":"levelo://app?vid=9f786ec1-1992-4de8-b2dc-8bc6950749ad"},"vehicle_type_id":"4","last_reported":1729557953,"current_range_meters":36400,"station_id":"ce4bhlh2rcd13ifvqgig","pricing_plan_id":"cebpf4jnsgd1na2vs0mg"},{"bike_id":"6ba1088e-f6d7-458a-a335-f0b3c3746983","system_id":"levelo_inurba_marseille","lat":43.24178,"lon":5.3973,"is_reserved":false,"is_disabled":false,"rental_uris":{"android":"levelo://app?vid=6ba1088e-f6d7-458a-a335-f0b3c3746983","ios":"levelo://app?vid=6ba1088e-f6d7-458a-a335-f0b3c3746983"},"vehicle_type_id":"4","last_reported":1729557953,"current_range_meters":38800,"station_id":"ce4bhn12rcd13ifvqgpg","pricing_plan_id":"cebpf4jnsgd1na2vs0mg"},{"bike_id":"a0d6e4f9-2707-402c-99da-4ff7466f512f","system_id":"levelo_inurba_marseille","lat":43.24664,"lon":5.38167,"is_reserved":false,"is_disabled":false,"rental_uris":{"android":"levelo://app?vid=a0d6e4f9-2707-402c-99da-4ff7466f512f","ios":"levelo://app?vid=a0d6e4f9-2707-402c-99da-4ff7466f512f"},"vehicle_type_id":"4","last_reported":1729557953,"current_range_meters":34000,"station_id":"ce4bhih2rcd13ifvqfr0","pricing_plan_id":"cebpf4jnsgd1na2vs0mg"},{"bike_id":"7c1a265d-e6b9-4abf-9ea7-bd6155b9c786","system_id":"levelo_inurba_marseille","lat":43.28104,"lon":5.37846,"is_reserved":false,"is_disabled":false,"rental_uris":{"android":"levelo://app?vid=7c1a265d-e6b9-4abf-9ea7-bd6155b9c786","ios":"levelo://app?vid=7c1a265d-e6b9-4abf-9ea7-bd6155b9c786"},"vehicle_type_id":"4","last_reported":1729557953,"current_range_meters":38800,"station_id":"ce4bha12rcd13ifvqee0","pricing_plan_id":"cebpf4jnsgd1na2vs0mg"},{"bike_id":"c6514999-11a6-4cc9-8fdc-53a83e26106a","system_id":"levelo_inurba_marseille","lat":43.25083,"lon":5.39513,"is_reserved":false,"is_disabled":false,"rental_uris":{"android":"levelo://app?vid=c6514999-11a6-4cc9-8fdc-53a83e26106a","ios":"levelo://app?vid=c6514999-11a6-4cc9-8fdc-53a83e26106a"},"vehicle_type_id":"4","last_reported":1729557953,"current_range_meters":38800,"station_id":"ce4bhm12rcd13ifvqgkg","pricing_plan_id":"cebpf4jnsgd1na2vs0mg"},{"bike_id":"24e922d8-f510-48d4-8c7f-6def24068e41","system_id":"levelo_inurba_marseille","lat":43.25494,"lon":5.37644,"is_reserved":false,"is_disabled":false,"rental_uris":{"android":"levelo://app?vid=24e922d8-f510-48d4-8c7f-6def24068e41","ios":"levelo://app?vid=24e922d8-f510-48d4-8c7f-6def24068e41"},"vehicle_type_id":"4","last_reported":1729557953,"current_range_meters":38800,"station_id":"ce4bhh12rcd13ifvqff0","pricing_plan_id":"cebpf4jnsgd1na2vs0mg"},{"bike_id":"72f63983-e112-4b56-a265-24560ff50b47","system_id":"levelo_inurba_marseille","lat":43.31068,"lon":5.383502,"is_reserved":false,"is_disabled":false,"rental_uris":{"android":"levelo://app?vid=72f63983-e112-4b56-a265-24560ff50b47","ios":"levelo://app?vid=72f63983-e112-4b56-a265-24560ff50b47"},"vehicle_type_id":"4","last_reported":1729557953,"current_range_meters":29600,"station_id":"ce4bgv92rcd13ifvqcr0","pricing_plan_id":"cebpf4jnsgd1na2vs0mg"},{"bike_id":"97b6dd41-f6a5-4063-ab96-61be62bf84f9","system_id":"levelo_inurba_marseille","lat":43.30956,"lon":5.39033,"is_reserved":false,"is_disabled":false,"rental_uris":{"android":"levelo://app?vid=97b6dd41-f6a5-4063-ab96-61be62bf84f9","ios":"levelo://app?vid=97b6dd41-f6a5-4063-ab96-61be62bf84f9"},"vehicle_type_id":"4","last_reported":1729557953,"current_range_meters":38400,"station_id":"ce4bgup2rcd13ifvqco0","pricing_plan_id":"cebpf4jnsgd1na2vs0mg"},{"bike_id":"fc173ade-800e-46df-a64c-19fbb4304a28","system_id":"levelo_inurba_marseille","lat":43.28732,"lon":5.36077,"is_reserved":false,"is_disabled":false,"rental_uris":{"android":"levelo://app?vid=fc173ade-800e-46df-a64c-19fbb4304a28","ios":"levelo://app?vid=fc173ade-800e-46df-a64c-19fbb4304a28"},"vehicle_type_id":"4","last_reported":1729557953,"current_range_meters":16800,"station_id":"cki0cbj6b192h4jlfktg","pricing_plan_id":"cebpf4jnsgd1na2vs0mg"},{"bike_id":"c4bd4984-7993-47cd-a212-6b533f74abb4","system_id":"levelo_inurba_marseille","lat":43.31173,"lon":5.38712,"is_reserved":false,"is_disabled":false,"rental_uris":{"android":"levelo://app?vid=c4bd4984-7993-47cd-a212-6b533f74abb4","ios":"levelo://app?vid=c4bd4984-7993-47cd-a212-6b533f74abb4"},"vehicle_type_id":"4","last_reported":1729557953,"current_range_meters":23200,"station_id":"ce4bgv12rcd13ifvqcp0","pricing_plan_id":"cebpf4jnsgd1na2vs0mg"},{"bike_id":"29c9977f-aa8a-42c3-9197-dd81ca49a361","system_id":"levelo_inurba_marseille","lat":43.3044,"lon":5.38894,"is_reserved":false,"is_disabled":false,"rental_uris":{"android":"levelo://app?vid=29c9977f-aa8a-42c3-9197-dd81ca49a361","ios":"levelo://app?vid=29c9977f-aa8a-42c3-9197-dd81ca49a361"},"vehicle_type_id":"4","last_reported":1729557953,"current_range_meters":38400,"station_id":"ce4bgk12rcd13ifvqbi0","pricing_plan_id":"cebpf4jnsgd1na2vs0mg"},{"bike_id":"2f6ccb91-b99c-471c-b9ae-ae42904658f2","system_id":"levelo_inurba_marseille","lat":43.28667,"lon":5.36347,"is_reserved":false,"is_disabled":false,"rental_uris":{"android":"levelo://app?vid=2f6ccb91-b99c-471c-b9ae-ae42904658f2","ios":"levelo://app?vid=2f6ccb91-b99c-471c-b9ae-ae42904658f2"},"vehicle_type_id":"4","last_reported":1729557953,"current_range_meters":32800,"station_id":"ce4bhah2rcd13ifvqej0","pricing_plan_id":"cebpf4jnsgd1na2vs0mg"},{"bike_id":"309b5383-df63-495c-974e-787fe52ca12d","system_id":"levelo_inurba_marseille","lat":43.28265,"lon":5.35063,"is_reserved":false,"is_disabled":false,"rental_uris":{"android":"levelo://app?vid=309b5383-df63-495c-974e-787fe52ca12d","ios":"levelo://app?vid=309b5383-df63-495c-974e-787fe52ca12d"},"vehicle_type_id":"4","last_reported":1729557953,"current_range_meters":39200,"station_id":"ce4bhbp2rcd13ifvqerg","pricing_plan_id":"cebpf4jnsgd1na2vs0mg"},{"bike_id":"838134ea-11b7-4776-aad5-c9292871a849","system_id":"levelo_inurba_marseille","lat":43.31758,"lon":5.39014,"is_reserved":false,"is_disabled":false,"rental_uris":{"android":"levelo://app?vid=838134ea-11b7-4776-aad5-c9292871a849","ios":"levelo://app?vid=838134ea-11b7-4776-aad5-c9292871a849"},"vehicle_type_id":"4","last_reported":1729557953,"current_range_meters":38400,"station_id":"ce4bhqp2rcd13ifvqhng","pricing_plan_id":"cebpf4jnsgd1na2vs0mg"},{"bike_id":"3ea09a10-f162-4757-ba76-6a9d27859e6e","system_id":"levelo_inurba_marseille","lat":43.27676,"lon":5.389,"is_reserved":false,"is_disabled":false,"rental_uris":{"android":"levelo://app?vid=3ea09a10-f162-4757-ba76-6a9d27859e6e","ios":"levelo://app?vid=3ea09a10-f162-4757-ba76-6a9d27859e6e"},"vehicle_type_id":"4","last_reported":1729557953,"current_range_meters":14000,"station_id":"ce4bhi12rcd13ifvqfo0","pricing_plan_id":"cebpf4jnsgd1na2vs0mg"},{"bike_id":"4a3aa950-2095-498f-87de-414e2c498191","system_id":"levelo_inurba_marseille","lat":43.28161,"lon":5.42661,"is_reserved":false,"is_disabled":false,"rental_uris":{"android":"levelo://app?vid=4a3aa950-2095-498f-87de-414e2c498191","ios":"levelo://app?vid=4a3aa950-2095-498f-87de-414e2c498191"},"vehicle_type_id":"4","last_reported":1729557953,"current_range_meters":38800,"station_id":"ce4bhnh2rcd13ifvqgug","pricing_plan_id":"cebpf4jnsgd1na2vs0mg"},{"bike_id":"197fedbc-4ed8-444f-8d0f-6a0456c07a23","system_id":"levelo_inurba_marseille","lat":43.292206,"lon":5.360529,"is_reserved":false,"is_disabled":false,"rental_uris":{"android":"levelo://app?vid=197fedbc-4ed8-444f-8d0f-6a0456c07a23","ios":"levelo://app?vid=197fedbc-4ed8-444f-8d0f-6a0456c07a23"},"vehicle_type_id":"4","last_reported":1729557953,"current_range_meters":32800,"station_id":"ce4bhbh2rcd13ifvqeqg","pricing_plan_id":"cebpf4jnsgd1na2vs0mg"},{"bike_id":"ca832f59-a618-411e-bcce-5749cfbe6484","system_id":"levelo_inurba_marseille","lat":43.27815,"lon":5.40716,"is_reserved":false,"is_disabled":false,"rental_uris":{"android":"levelo://app?vid=ca832f59-a618-411e-bcce-5749cfbe6484","ios":"levelo://app?vid=ca832f59-a618-411e-bcce-5749cfbe6484"},"vehicle_type_id":"4","last_reported":1729557953,"current_range_meters":39200,"station_id":"ce4bhnh2rcd13ifvqgtg","pricing_plan_id":"cebpf4jnsgd1na2vs0mg"},{"bike_id":"8913b4e4-7c4d-48af-ba57-e2c3579843d0","system_id":"levelo_inurba_marseille","lat":43.27614,"lon":5.3611,"is_reserved":false,"is_disabled":false,"rental_uris":{"android":"levelo://app?vid=8913b4e4-7c4d-48af-ba57-e2c3579843d0","ios":"levelo://app?vid=8913b4e4-7c4d-48af-ba57-e2c3579843d0"},"vehicle_type_id":"4","last_reported":1729557953,"current_range_meters":3600,"station_id":"ce4bgj92rcd13ifvqbe0","pricing_plan_id":"cebpf4jnsgd1na2vs0mg"},{"bike_id":"750b2ef7-137d-4205-8c5a-307547607247","system_id":"levelo_inurba_marseille","lat":43.26501,"lon":5.39546,"is_reserved":false,"is_disabled":false,"rental_uris":{"android":"levelo://app?vid=750b2ef7-137d-4205-8c5a-307547607247","ios":"levelo://app?vid=750b2ef7-137d-4205-8c5a-307547607247"},"vehicle_type_id":"4","last_reported":1729557953,"current_range_meters":38800,"station_id":"ce4bhi12rcd13ifvqfq0","pricing_plan_id":"cebpf4jnsgd1na2vs0mg"},{"bike_id":"f3ea317e-004a-440f-9d50-4d1d8d28f4be","system_id":"levelo_inurba_marseille","lat":43.31487,"lon":5.37304,"is_reserved":false,"is_disabled":false,"rental_uris":{"android":"levelo://app?vid=f3ea317e-004a-440f-9d50-4d1d8d28f4be","ios":"levelo://app?vid=f3ea317e-004a-440f-9d50-4d1d8d28f4be"},"vehicle_type_id":"4","last_reported":1729557953,"current_range_meters":38800,"station_id":"ce4bgt12rcd13ifvqcd0","pricing_plan_id":"cebpf4jnsgd1na2vs0mg"},{"bike_id":"dc05d92d-106b-4f33-a138-b3eced1ad12e","system_id":"levelo_inurba_marseille","lat":43.31074,"lon":5.38349,"is_reserved":false,"is_disabled":false,"rental_uris":{"android":"levelo://app?vid=dc05d92d-106b-4f33-a138-b3eced1ad12e","ios":"levelo://app?vid=dc05d92d-106b-4f33-a138-b3eced1ad12e"},"vehicle_type_id":"4","last_reported":1729557953,"current_range_meters":31200,"station_id":"ce4bgv92rcd13ifvqcr0","pricing_plan_id":"cebpf4jnsgd1na2vs0mg"},{"bike_id":"849934f4-23f9-44e2-a115-a17824dd7215","system_id":"levelo_inurba_marseille","lat":43.31759,"lon":5.39024,"is_reserved":false,"is_disabled":false,"rental_uris":{"android":"levelo://app?vid=849934f4-23f9-44e2-a115-a17824dd7215","ios":"levelo://app?vid=849934f4-23f9-44e2-a115-a17824dd7215"},"vehicle_type_id":"4","last_reported":1729557953,"current_range_meters":16000,"station_id":"ce4bhqp2rcd13ifvqhng","pricing_plan_id":"cebpf4jnsgd1na2vs0mg"},{"bike_id":"3a9f3b8f-296d-48c3-bed7-9b1388c0fada","system_id":"levelo_inurba_marseille","lat":43.28941,"lon":5.39633,"is_reserved":false,"is_disabled":false,"rental_uris":{"android":"levelo://app?vid=3a9f3b8f-296d-48c3-bed7-9b1388c0fada","ios":"levelo://app?vid=3a9f3b8f-296d-48c3-bed7-9b1388c0fada"},"vehicle_type_id":"4","last_reported":1729557953,"current_range_meters":13600,"station_id":"ce4bh3h2rcd13ifvqdn0","pricing_plan_id":"cebpf4jnsgd1na2vs0mg"},{"bike_id":"0ce6a187-cd9b-4f08-b247-e6d5d0d87fc5","system_id":"levelo_inurba_marseille","lat":43.31167,"lon":5.38716,"is_reserved":false,"is_disabled":false,"rental_uris":{"android":"levelo://app?vid=0ce6a187-cd9b-4f08-b247-e6d5d0d87fc5","ios":"levelo://app?vid=0ce6a187-cd9b-4f08-b247-e6d5d0d87fc5"},"vehicle_type_id":"4","last_reported":1729557953,"current_range_meters":31200,"station_id":"ce4bgv12rcd13ifvqcp0","pricing_plan_id":"cebpf4jnsgd1na2vs0mg"},{"bike_id":"90c3a7c5-e4e7-4ce2-bfab-27e6176af8a4","system_id":"levelo_inurba_marseille","lat":43.28578,"lon":5.3951,"is_reserved":false,"is_disabled":false,"rental_uris":{"android":"levelo://app?vid=90c3a7c5-e4e7-4ce2-bfab-27e6176af8a4","ios":"levelo://app?vid=90c3a7c5-e4e7-4ce2-bfab-27e6176af8a4"},"vehicle_type_id":"4","last_reported":1729557953,"current_range_meters":38800,"station_id":"ce4bh292rcd13ifvqdg0","pricing_plan_id":"cebpf4jnsgd1na2vs0mg"},{"bike_id":"8273f07f-4a55-425c-8610-6e9ec4f94b46","system_id":"levelo_inurba_marseille","lat":43.33024,"lon":5.3904,"is_reserved":false,"is_disabled":false,"rental_uris":{"android":"levelo://app?vid=8273f07f-4a55-425c-8610-6e9ec4f94b46","ios":"levelo://app?vid=8273f07f-4a55-425c-8610-6e9ec4f94b46"},"vehicle_type_id":"4","last_reported":1729557953,"current_range_meters":39200,"station_id":"ce4bhr92rcd13ifvqhrg","pricing_plan_id":"cebpf4jnsgd1na2vs0mg"},{"bike_id":"815dd284-1bd2-4bb9-992a-b2116e2485bc","system_id":"levelo_inurba_marseille","lat":43.327825,"lon":5.361551,"is_reserved":false,"is_disabled":false,"rental_uris":{"android":"levelo://app?vid=815dd284-1bd2-4bb9-992a-b2116e2485bc","ios":"levelo://app?vid=815dd284-1bd2-4bb9-992a-b2116e2485bc"},"vehicle_type_id":"4","last_reported":1729557953,"current_range_meters":35600,"station_id":"","pricing_plan_id":"cebpf4jnsgd1na2vs0mg"},{"bike_id":"3788abb5-477f-4c60-a2ba-813f159876ac","system_id":"levelo_inurba_marseille","lat":43.27812,"lon":5.40713,"is_reserved":false,"is_disabled":false,"rental_uris":{"android":"levelo://app?vid=3788abb5-477f-4c60-a2ba-813f159876ac","ios":"levelo://app?vid=3788abb5-477f-4c60-a2ba-813f159876ac"},"vehicle_type_id":"4","last_reported":1729557953,"current_range_meters":38800,"station_id":"ce4bhnh2rcd13ifvqgtg","pricing_plan_id":"cebpf4jnsgd1na2vs0mg"},{"bike_id":"a6becff1-00d3-47fa-8898-3ba6d7221fbe","system_id":"levelo_inurba_marseille","lat":43.23193,"lon":5.35548,"is_reserved":false,"is_disabled":false,"rental_uris":{"android":"levelo://app?vid=a6becff1-00d3-47fa-8898-3ba6d7221fbe","ios":"levelo://app?vid=a6becff1-00d3-47fa-8898-3ba6d7221fbe"},"vehicle_type_id":"4","last_reported":1729557953,"current_range_meters":38400,"station_id":"ce4bhu92rcd13ifvqi70","pricing_plan_id":"cebpf4jnsgd1na2vs0mg"},{"bike_id":"735fd6d4-b02c-4acc-844d-002e9e4caa14","system_id":"levelo_inurba_marseille","lat":43.24652,"lon":5.38896,"is_reserved":false,"is_disabled":false,"rental_uris":{"android":"levelo://app?vid=735fd6d4-b02c-4acc-844d-002e9e4caa14","ios":"levelo://app?vid=735fd6d4-b02c-4acc-844d-002e9e4caa14"},"vehicle_type_id":"4","last_reported":1729557953,"current_range_meters":36000,"station_id":"ce4bhg12rcd13ifvqf60","pricing_plan_id":"cebpf4jnsgd1na2vs0mg"},{"bike_id":"26ed67c2-6d41-4c93-a441-367f4791d080","system_id":"levelo_inurba_marseille","lat":43.31123,"lon":5.37761,"is_reserved":false,"is_disabled":false,"rental_uris":{"android":"levelo://app?vid=26ed67c2-6d41-4c93-a441-367f4791d080","ios":"levelo://app?vid=26ed67c2-6d41-4c93-a441-367f4791d080"},"vehicle_type_id":"4","last_reported":1729557953,"current_range_meters":11200,"station_id":"ce4bgt92rcd13ifvqcg0","pricing_plan_id":"cebpf4jnsgd1na2vs0mg"},{"bike_id":"2b884fb0-97a2-4d3d-bedb-051530b2ea5d","system_id":"levelo_inurba_marseille","lat":43.28663,"lon":5.36359,"is_reserved":false,"is_disabled":false,"rental_uris":{"android":"levelo://app?vid=2b884fb0-97a2-4d3d-bedb-051530b2ea5d","ios":"levelo://app?vid=2b884fb0-97a2-4d3d-bedb-051530b2ea5d"},"vehicle_type_id":"4","last_reported":1729557953,"current_range_meters":39200,"station_id":"ce4bhah2rcd13ifvqej0","pricing_plan_id":"cebpf4jnsgd1na2vs0mg"},{"bike_id":"63789488-69ca-4cfc-ab5a-7ccb9e54e62c","system_id":"levelo_inurba_marseille","lat":43.30182,"lon":5.36618,"is_reserved":false,"is_disabled":false,"rental_uris":{"android":"levelo://app?vid=63789488-69ca-4cfc-ab5a-7ccb9e54e62c","ios":"levelo://app?vid=63789488-69ca-4cfc-ab5a-7ccb9e54e62c"},"vehicle_type_id":"4","last_reported":1729557953,"current_range_meters":38000,"station_id":"ce4bgrh2rcd13ifvqc8g","pricing_plan_id":"cebpf4jnsgd1na2vs0mg"},{"bike_id":"dee0d09e-7eb5-4f6e-83a5-90719294f0fc","system_id":"levelo_inurba_marseille","lat":43.27051,"lon":5.4028,"is_reserved":false,"is_disabled":false,"rental_uris":{"android":"levelo://app?vid=dee0d09e-7eb5-4f6e-83a5-90719294f0fc","ios":"levelo://app?vid=dee0d09e-7eb5-4f6e-83a5-90719294f0fc"},"vehicle_type_id":"4","last_reported":1729557953,"current_range_meters":38800,"station_id":"ce4bhk92rcd13ifvqgc0","pricing_plan_id":"cebpf4jnsgd1na2vs0mg"},{"bike_id":"2c1fae55-921d-4a72-86b0-19b559b438c8","system_id":"levelo_inurba_marseille","lat":43.31721,"lon":5.42406,"is_reserved":false,"is_disabled":false,"rental_uris":{"android":"levelo://app?vid=2c1fae55-921d-4a72-86b0-19b559b438c8","ios":"levelo://app?vid=2c1fae55-921d-4a72-86b0-19b559b438c8"},"vehicle_type_id":"4","last_reported":1729557953,"current_range_meters":39200,"station_id":"ce4bhp92rcd13ifvqhbg","pricing_plan_id":"cebpf4jnsgd1na2vs0mg"},{"bike_id":"1f52981c-7bb8-4af1-af37-b4a098cafcb2","system_id":"levelo_inurba_marseille","lat":43.28155,"lon":5.42649,"is_reserved":false,"is_disabled":false,"rental_uris":{"android":"levelo://app?vid=1f52981c-7bb8-4af1-af37-b4a098cafcb2","ios":"levelo://app?vid=1f52981c-7bb8-4af1-af37-b4a098cafcb2"},"vehicle_type_id":"4","last_reported":1729557953,"current_range_meters":12000,"station_id":"ce4bhnh2rcd13ifvqgug","pricing_plan_id":"cebpf4jnsgd1na2vs0mg"},{"bike_id":"9bc3d3cf-ed53-488c-ab4e-603183e83e96","system_id":"levelo_inurba_marseille","lat":43.2846,"lon":5.35884,"is_reserved":false,"is_disabled":false,"rental_uris":{"android":"levelo://app?vid=9bc3d3cf-ed53-488c-ab4e-603183e83e96","ios":"levelo://app?vid=9bc3d3cf-ed53-488c-ab4e-603183e83e96"},"vehicle_type_id":"4","last_reported":1729557953,"current_range_meters":39200,"station_id":"ce4bhah2rcd13ifvqei0","pricing_plan_id":"cebpf4jnsgd1na2vs0mg"},{"bike_id":"2964a11f-51b8-4363-a1c8-8363abf6a1b2","system_id":"levelo_inurba_marseille","lat":43.33607,"lon":5.41022,"is_reserved":false,"is_disabled":false,"rental_uris":{"android":"levelo://app?vid=2964a11f-51b8-4363-a1c8-8363abf6a1b2","ios":"levelo://app?vid=2964a11f-51b8-4363-a1c8-8363abf6a1b2"},"vehicle_type_id":"4","last_reported":1729557953,"current_range_meters":27200,"station_id":"ce4bhqh2rcd13ifvqhmg","pricing_plan_id":"cebpf4jnsgd1na2vs0mg"},{"bike_id":"bf8d0617-6bef-47ca-8c84-936cfebcc97c","system_id":"levelo_inurba_marseille","lat":43.32114,"lon":5.36769,"is_reserved":false,"is_disabled":false,"rental_uris":{"android":"levelo://app?vid=bf8d0617-6bef-47ca-8c84-936cfebcc97c","ios":"levelo://app?vid=bf8d0617-6bef-47ca-8c84-936cfebcc97c"},"vehicle_type_id":"4","last_reported":1729557953,"current_range_meters":19200,"station_id":"ce4bhrh2rcd13ifvqhug","pricing_plan_id":"cebpf4jnsgd1na2vs0mg"},{"bike_id":"629f20cc-dfa1-43ee-b781-b6b2b0f7726e","system_id":"levelo_inurba_marseille","lat":43.25118,"lon":5.40317,"is_reserved":false,"is_disabled":false,"rental_uris":{"android":"levelo://app?vid=629f20cc-dfa1-43ee-b781-b6b2b0f7726e","ios":"levelo://app?vid=629f20cc-dfa1-43ee-b781-b6b2b0f7726e"},"vehicle_type_id":"4","last_reported":1729557953,"current_range_meters":16000,"station_id":"ce4bhlh2rcd13ifvqgig","pricing_plan_id":"cebpf4jnsgd1na2vs0mg"},{"bike_id":"f91cd0e2-7fe1-48d9-8e04-1ed2d04f7c33","system_id":"levelo_inurba_marseille","lat":43.30886,"lon":5.39639,"is_reserved":false,"is_disabled":false,"rental_uris":{"android":"levelo://app?vid=f91cd0e2-7fe1-48d9-8e04-1ed2d04f7c33","ios":"levelo://app?vid=f91cd0e2-7fe1-48d9-8e04-1ed2d04f7c33"},"vehicle_type_id":"4","last_reported":1729557953,"current_range_meters":25600,"station_id":"ce4bh012rcd13ifvqcv0","pricing_plan_id":"cebpf4jnsgd1na2vs0mg"},{"bike_id":"40928ea3-dcd7-49b1-80c8-e0997d5f011b","system_id":"levelo_inurba_marseille","lat":43.257111,"lon":5.410192,"is_reserved":false,"is_disabled":false,"rental_uris":{"android":"levelo://app?vid=40928ea3-dcd7-49b1-80c8-e0997d5f011b","ios":"levelo://app?vid=40928ea3-dcd7-49b1-80c8-e0997d5f011b"},"vehicle_type_id":"4","last_reported":1729557953,"current_range_meters":38800,"station_id":"","pricing_plan_id":"cebpf4jnsgd1na2vs0mg"},{"bike_id":"44b2505f-d298-45bb-ac9a-ed4a09cbbda2","system_id":"levelo_inurba_marseille","lat":43.31175,"lon":5.38711,"is_reserved":false,"is_disabled":false,"rental_uris":{"android":"levelo://app?vid=44b2505f-d298-45bb-ac9a-ed4a09cbbda2","ios":"levelo://app?vid=44b2505f-d298-45bb-ac9a-ed4a09cbbda2"},"vehicle_type_id":"4","last_reported":1729557953,"current_range_meters":28800,"station_id":"ce4bgv12rcd13ifvqcp0","pricing_plan_id":"cebpf4jnsgd1na2vs0mg"},{"bike_id":"c3c340c0-6241-4e31-bdef-d4d01cd29566","system_id":"levelo_inurba_marseille","lat":43.29872,"lon":5.39744,"is_reserved":false,"is_disabled":false,"rental_uris":{"android":"levelo://app?vid=c3c340c0-6241-4e31-bdef-d4d01cd29566","ios":"levelo://app?vid=c3c340c0-6241-4e31-bdef-d4d01cd29566"},"vehicle_type_id":"4","last_reported":1729557953,"current_range_meters":36800,"station_id":"ce4bh0h2rcd13ifvqd50","pricing_plan_id":"cebpf4jnsgd1na2vs0mg"},{"bike_id":"4fa46629-26b5-47a9-98a9-bc741508e7fa","system_id":"levelo_inurba_marseille","lat":43.24542,"lon":5.39524,"is_reserved":false,"is_disabled":false,"rental_uris":{"android":"levelo://app?vid=4fa46629-26b5-47a9-98a9-bc741508e7fa","ios":"levelo://app?vid=4fa46629-26b5-47a9-98a9-bc741508e7fa"},"vehicle_type_id":"4","last_reported":1729557953,"current_range_meters":38800,"station_id":"ce4bhlp2rcd13ifvqgjg","pricing_plan_id":"cebpf4jnsgd1na2vs0mg"},{"bike_id":"44d195bb-cfb4-4f79-a98c-1e55ff1748d3","system_id":"levelo_inurba_marseille","lat":43.31717,"lon":5.43716,"is_reserved":false,"is_disabled":false,"rental_uris":{"android":"levelo://app?vid=44d195bb-cfb4-4f79-a98c-1e55ff1748d3","ios":"levelo://app?vid=44d195bb-cfb4-4f79-a98c-1e55ff1748d3"},"vehicle_type_id":"4","last_reported":1729557953,"current_range_meters":39200,"station_id":"ce4bhp92rcd13ifvqhcg","pricing_plan_id":"cebpf4jnsgd1na2vs0mg"},{"bike_id":"f85dec27-df63-4a18-926e-66f10af2c426","system_id":"levelo_inurba_marseille","lat":43.30185,"lon":5.36609,"is_reserved":false,"is_disabled":false,"rental_uris":{"android":"levelo://app?vid=f85dec27-df63-4a18-926e-66f10af2c426","ios":"levelo://app?vid=f85dec27-df63-4a18-926e-66f10af2c426"},"vehicle_type_id":"4","last_reported":1729557953,"current_range_meters":36400,"station_id":"ce4bgrh2rcd13ifvqc8g","pricing_plan_id":"cebpf4jnsgd1na2vs0mg"},{"bike_id":"6fdf348c-fb83-43a6-b95a-6306c34cb63d","system_id":"levelo_inurba_marseille","lat":43.23965,"lon":5.36636,"is_reserved":false,"is_disabled":false,"rental_uris":{"android":"levelo://app?vid=6fdf348c-fb83-43a6-b95a-6306c34cb63d","ios":"levelo://app?vid=6fdf348c-fb83-43a6-b95a-6306c34cb63d"},"vehicle_type_id":"4","last_reported":1729557953,"current_range_meters":37600,"station_id":"ce4bhi12rcd13ifvqfp0","pricing_plan_id":"cebpf4jnsgd1na2vs0mg"},{"bike_id":"53d7cb12-ac3a-45c2-9ef5-95640ee067a9","system_id":"levelo_inurba_marseille","lat":43.28573,"lon":5.39511,"is_reserved":false,"is_disabled":false,"rental_uris":{"android":"levelo://app?vid=53d7cb12-ac3a-45c2-9ef5-95640ee067a9","ios":"levelo://app?vid=53d7cb12-ac3a-45c2-9ef5-95640ee067a9"},"vehicle_type_id":"4","last_reported":1729557953,"current_range_meters":32800,"station_id":"ce4bh292rcd13ifvqdg0","pricing_plan_id":"cebpf4jnsgd1na2vs0mg"},{"bike_id":"ae3fcb04-be9a-4eda-86cc-c69683243e47","system_id":"levelo_inurba_marseille","lat":43.23956,"lon":5.36646,"is_reserved":false,"is_disabled":false,"rental_uris":{"android":"levelo://app?vid=ae3fcb04-be9a-4eda-86cc-c69683243e47","ios":"levelo://app?vid=ae3fcb04-be9a-4eda-86cc-c69683243e47"},"vehicle_type_id":"4","last_reported":1729557953,"current_range_meters":38800,"station_id":"ce4bhi12rcd13ifvqfp0","pricing_plan_id":"cebpf4jnsgd1na2vs0mg"},{"bike_id":"e01af3fb-a46a-472a-a9ce-4d0d6e75d0db","system_id":"levelo_inurba_marseille","lat":43.284613,"lon":5.358861,"is_reserved":false,"is_disabled":false,"rental_uris":{"android":"levelo://app?vid=e01af3fb-a46a-472a-a9ce-4d0d6e75d0db","ios":"levelo://app?vid=e01af3fb-a46a-472a-a9ce-4d0d6e75d0db"},"vehicle_type_id":"4","last_reported":1729557953,"current_range_meters":39200,"station_id":"ce4bhah2rcd13ifvqei0","pricing_plan_id":"cebpf4jnsgd1na2vs0mg"},{"bike_id":"79d1c28e-5008-47b1-b89b-2a5f5d8adf90","system_id":"levelo_inurba_marseille","lat":43.30316,"lon":5.36902,"is_reserved":false,"is_disabled":false,"rental_uris":{"android":"levelo://app?vid=79d1c28e-5008-47b1-b89b-2a5f5d8adf90","ios":"levelo://app?vid=79d1c28e-5008-47b1-b89b-2a5f5d8adf90"},"vehicle_type_id":"4","last_reported":1729557953,"current_range_meters":30400,"station_id":"ce4bgqh2rcd13ifvqc5g","pricing_plan_id":"cebpf4jnsgd1na2vs0mg"},{"bike_id":"646844c9-add7-45a5-8871-97d72f5946a5","system_id":"levelo_inurba_marseille","lat":43.30368,"lon":5.41874,"is_reserved":false,"is_disabled":false,"rental_uris":{"android":"levelo://app?vid=646844c9-add7-45a5-8871-97d72f5946a5","ios":"levelo://app?vid=646844c9-add7-45a5-8871-97d72f5946a5"},"vehicle_type_id":"4","last_reported":1729557953,"current_range_meters":37600,"station_id":"ce4bhop2rcd13ifvqh7g","pricing_plan_id":"cebpf4jnsgd1na2vs0mg"},{"bike_id":"3286ebef-8744-475a-bc81-c7e2447d6f03","system_id":"levelo_inurba_marseille","lat":43.31717,"lon":5.43715,"is_reserved":false,"is_disabled":false,"rental_uris":{"android":"levelo://app?vid=3286ebef-8744-475a-bc81-c7e2447d6f03","ios":"levelo://app?vid=3286ebef-8744-475a-bc81-c7e2447d6f03"},"vehicle_type_id":"4","last_reported":1729557953,"current_range_meters":20400,"station_id":"ce4bhp92rcd13ifvqhcg","pricing_plan_id":"cebpf4jnsgd1na2vs0mg"},{"bike_id":"7186a4cc-670a-4f5d-956b-51d8aaf8646c","system_id":"levelo_inurba_marseille","lat":43.33726,"lon":5.39188,"is_reserved":false,"is_disabled":false,"rental_uris":{"android":"levelo://app?vid=7186a4cc-670a-4f5d-956b-51d8aaf8646c","ios":"levelo://app?vid=7186a4cc-670a-4f5d-956b-51d8aaf8646c"},"vehicle_type_id":"4","last_reported":1729557953,"current_range_meters":35200,"station_id":"ce4bhr92rcd13ifvqhsg","pricing_plan_id":"cebpf4jnsgd1na2vs0mg"},{"bike_id":"e1a5bcf7-12f0-4ff7-9379-2c94fae4217c","system_id":"levelo_inurba_marseille","lat":43.31276,"lon":5.40164,"is_reserved":false,"is_disabled":false,"rental_uris":{"android":"levelo://app?vid=e1a5bcf7-12f0-4ff7-9379-2c94fae4217c","ios":"levelo://app?vid=e1a5bcf7-12f0-4ff7-9379-2c94fae4217c"},"vehicle_type_id":"4","last_reported":1729557953,"current_range_meters":38800,"station_id":"ce4bh092rcd13ifvqd30","pricing_plan_id":"cebpf4jnsgd1na2vs0mg"},{"bike_id":"333e71ea-7c58-40d6-9727-c78f72ce617c","system_id":"levelo_inurba_marseille","lat":43.28707,"lon":5.37381,"is_reserved":false,"is_disabled":false,"rental_uris":{"android":"levelo://app?vid=333e71ea-7c58-40d6-9727-c78f72ce617c","ios":"levelo://app?vid=333e71ea-7c58-40d6-9727-c78f72ce617c"},"vehicle_type_id":"4","last_reported":1729557953,"current_range_meters":39200,"station_id":"ce4bh3p2rcd13ifvqdq0","pricing_plan_id":"cebpf4jnsgd1na2vs0mg"},{"bike_id":"c5857893-442c-48c0-8e95-134a1c912329","system_id":"levelo_inurba_marseille","lat":43.28153,"lon":5.42639,"is_reserved":false,"is_disabled":false,"rental_uris":{"android":"levelo://app?vid=c5857893-442c-48c0-8e95-134a1c912329","ios":"levelo://app?vid=c5857893-442c-48c0-8e95-134a1c912329"},"vehicle_type_id":"4","last_reported":1729557953,"current_range_meters":28800,"station_id":"ce4bhnh2rcd13ifvqgug","pricing_plan_id":"cebpf4jnsgd1na2vs0mg"},