{"last_updated":1731787780,"ttl":60,"version":"2.2","data":{"bikes":[{"bike_id":"ea97ca90-4204-406d-8300-27e5b90379a8","system_id":"levelo_inurba_marseille","lat":43.27997,"lon":5.4001,"is_reserved":false,"is_disabled":false,"rental_uris":{"android":"levelo://app?vid=ea97ca90-4204-406d-8300-27e5b90379a8","ios":"levelo://app?vid=ea97ca90-4204-406d-8300-27e5b90379a8"},"vehicle_type_id":"4","last_reported":1731787780,"current_range_meters":8400,"station_id":"ce4bho92rcd13ifvqh4g","pricing_plan_id":"cebpf4jnsgd1na2vs0mg"},{"bike_id":"54b43e87-a024-4a8b-94f2-63a14736fa88","system_id":"levelo_inurba_marseille","lat":43.28936,"lon":5.36386,"is_reserved":false,"is_disabled":false,"rental_uris":{"android":"levelo://app?vid=54b43e87-a024-4a8b-94f2-63a14736fa88","ios":"levelo://app?vid=54b43e87-a024-4a8b-94f2-63a14736fa88"},"vehicle_type_id":"4","last_reported":1731787780,"current_range_meters":2800,"station_id":"ce4bhc92rcd13ifvqetg","pricing_plan_id":"cebpf4jnsgd1na2vs0mg"},{"bike_id":"b61ae30b-3a46-42c5-8ec3-702c4e85c8d4","system_id":"levelo_inurba_marseille","lat":43.29588,"lon":5.3807,"is_reserved":false,"is_disabled":false,"rental_uris":{"android":"levelo://app?vid=b61ae30b-3a46-42c5-8ec3-702c4e85c8d4","ios":"levelo://app?vid=b61ae30b-3a46-42c5-8ec3-702c4e85c8d4"},"vehicle_type_id":"4","last_reported":1731787780,"current_range_meters":17200,"station_id":"ce4bgl12rcd13ifvqbo0","pricing_plan_id":"cebpf4jnsgd1na2vs0mg"},{"bike_id":"e9dc7148-4e84-4145-9525-5130b5de7cd1","system_id":"levelo_inurba_marseille","lat":43.297889,"lon":5.371069,"is_reserved":false,"is_disabled":false,"rental_uris":{"android":"levelo://app?vid=e9dc7148-4e84-4145-9525-5130b5de7cd1","ios":"levelo://app?vid=e9dc7148-4e84-4145-9525-5130b5de7cd1"},"vehicle_type_id":"4","last_reported":1731787780,"current_range_meters":31200,"station_id":"ce4bgop2rcd13ifvqc1g","pricing_plan_id":"cebpf4jnsgd1na2vs0mg"},{"bike_id":"1cf9acc5-529e-4317-9457-ffd57028a67c","system_id":"levelo_inurba_marseille","lat":43.30549,"lon":5.36529,"is_reserved":false,"is_disabled":false,"rental_uris":{"android":"levelo://app?vid=1cf9acc5-529e-4317-9457-ffd57028a67c","ios":"levelo://app?vid=1cf9acc5-529e-4317-9457-ffd57028a67c"},"vehicle_type_id":"4","last_reported":1731787780,"current_range_meters":12800,"station_id":"ce4bgs12rcd13ifvqcag","pricing_plan_id":"cebpf4jnsgd1na2vs0mg"},{"bike_id":"0691e34f-697d-482c-a51b-cd08e00209cb","system_id":"levelo_inurba_marseille","lat":43.28928,"lon":5.36385,"is_reserved":false,"is_disabled":false,"rental_uris":{"android":"levelo://app?vid=0691e34f-697d-482c-a51b-cd08e00209cb","ios":"levelo://app?vid=0691e34f-697d-482c-a51b-cd08e00209cb"},"vehicle_type_id":"4","last_reported":1731787780,"current_range_meters":12800,"station_id":"ce4bhc92rcd13ifvqetg","pricing_plan_id":"cebpf4jnsgd1na2vs0mg"},{"bike_id":"fe7748b6-9d91-4994-bdd2-fe51f904eb01","system_id":"levelo_inurba_marseille","lat":43.29966,"lon":5.37373,"is_reserved":false,"is_disabled":false,"rental_uris":{"android":"levelo://app?vid=fe7748b6-9d91-4994-bdd2-fe51f904eb01","ios":"levelo://app?vid=fe7748b6-9d91-4994-bdd2-fe51f904eb01"},"vehicle_type_id":"4","last_reported":1731787780,"current_range_meters":21600,"station_id":"ce4bgjh2rcd13ifvqbg0","pricing_plan_id":"cebpf4jnsgd1na2vs0mg"},{"bike_id":"43038cfa-c3ef-4248-9250-cdda1bec13e6","system_id":"levelo_inurba_marseille","lat":43.24992,"lon":5.38925,"is_reserved":false,"is_disabled":false,"rental_uris":{"android":"levelo://app?vid=43038cfa-c3ef-4248-9250-cdda1bec13e6","ios":"levelo://app?vid=43038cfa-c3ef-4248-9250-cdda1bec13e6"},"vehicle_type_id":"4","last_reported":1731787780,"current_range_meters":24400,"station_id":"ce4bhgp2rcd13ifvqfd0","pricing_plan_id":"cebpf4jnsgd1na2vs0mg"},{"bike_id":"0672d165-d197-4474-bbec-2df95543fd2f","system_id":"levelo_inurba_marseille","lat":43.29891,"lon":5.43658,"is_reserved":false,"is_disabled":false,"rental_uris":{"android":"levelo://app?vid=0672d165-d197-4474-bbec-2df95543fd2f","ios":"levelo://app?vid=0672d165-d197-4474-bbec-2df95543fd2f"},"vehicle_type_id":"4","last_reported":1731787780,"current_range_meters":10800,"station_id":"ce4bhpp2rcd13ifvqhfg","pricing_plan_id":"cebpf4jnsgd1na2vs0mg"},{"bike_id":"d9d8a7d9-cde4-4fab-ab69-fcee8fe6a6da","system_id":"levelo_inurba_marseille","lat":43.25026,"lon":5.38899,"is_reserved":false,"is_disabled":false,"rental_uris":{"android":"levelo://app?vid=d9d8a7d9-cde4-4fab-ab69-fcee8fe6a6da","ios":"levelo://app?vid=d9d8a7d9-cde4-4fab-ab69-fcee8fe6a6da"},"vehicle_type_id":"4","last_reported":1731787780,"current_range_meters":11600,"station_id":"ce4bhgp2rcd13ifvqfd0","pricing_plan_id":"cebpf4jnsgd1na2vs0mg"},{"bike_id":"083dbee0-0e04-4a5e-93ff-4f8789a778b7","system_id":"levelo_inurba_marseille","lat":43.229284,"lon":5.353817,"is_reserved":false,"is_disabled":false,"rental_uris":{"android":"levelo://app?vid=083dbee0-0e04-4a5e-93ff-4f8789a778b7","ios":"levelo://app?vid=083dbee0-0e04-4a5e-93ff-4f8789a778b7"},"vehicle_type_id":"4","last_reported":1731787780,"current_range_meters":40000,"station_id":"cpo3532slgdg3j2ikp40","pricing_plan_id":"cebpf4jnsgd1na2vs0mg"},{"bike_id":"92e7e379-7d0a-4c30-9d59-a0113c87e1bb","system_id":"levelo_inurba_marseille","lat":43.2868,"lon":5.38654,"is_reserved":false,"is_disabled":false,"rental_uris":{"android":"levelo://app?vid=92e7e379-7d0a-4c30-9d59-a0113c87e1bb","ios":"levelo://app?vid=92e7e379-7d0a-4c30-9d59-a0113c87e1bb"},"vehicle_type_id":"4","last_reported":1731787780,"current_range_meters":35600,"station_id":"ce4bh492rcd13ifvqdug","pricing_plan_id":"cebpf4jnsgd1na2vs0mg"},{"bike_id":"c78eb4b0-94e1-433b-a702-32084ee22bff","system_id":"levelo_inurba_marseille","lat":43.286987,"lon":5.373683,"is_reserved":false,"is_disabled":false,"rental_uris":{"android":"levelo://app?vid=c78eb4b0-94e1-433b-a702-32084ee22bff","ios":"levelo://app?vid=c78eb4b0-94e1-433b-a702-32084ee22bff"},"vehicle_type_id":"4","last_reported":1731787780,"current_range_meters":38800,"station_id":"ce4bh3p2rcd13ifvqdq0","pricing_plan_id":"cebpf4jnsgd1na2vs0mg"},{"bike_id":"90c67dce-5fc5-4e41-bda3-5685a1b26ea6","system_id":"levelo_inurba_marseille","lat":43.246101,"lon":5.389286,"is_reserved":false,"is_disabled":false,"rental_uris":{"android":"levelo://app?vid=90c67dce-5fc5-4e41-bda3-5685a1b26ea6","ios":"levelo://app?vid=90c67dce-5fc5-4e41-bda3-5685a1b26ea6"},"vehicle_type_id":"4","last_reported":1731787780,"current_range_meters":36400,"station_id":"ce4bhg12rcd13ifvqf60","pricing_plan_id":"cebpf4jnsgd1na2vs0mg"},{"bike_id":"ee6be0be-c608-4dde-9181-283b87b2fcb5","system_id":"levelo_inurba_marseille","lat":43.26552,"lon":5.37283,"is_reserved":false,"is_disabled":false,"rental_uris":{"android":"levelo://app?vid=ee6be0be-c608-4dde-9181-283b87b2fcb5","ios":"levelo://app?vid=ee6be0be-c608-4dde-9181-283b87b2fcb5"},"vehicle_type_id":"4","last_reported":1731787780,"current_range_meters":12800,"station_id":"ce4bhg12rcd13ifvqf70","pricing_plan_id":"cebpf4jnsgd1na2vs0mg"},{"bike_id":"4c167bc3-2964-4625-adc0-c92e539ad80f","system_id":"levelo_inurba_marseille","lat":43.28284,"lon":5.40792,"is_reserved":false,"is_disabled":false,"rental_uris":{"android":"levelo://app?vid=4c167bc3-2964-4625-adc0-c92e539ad80f","ios":"levelo://app?vid=4c167bc3-2964-4625-adc0-c92e539ad80f"},"vehicle_type_id":"4","last_reported":1731787780,"current_range_meters":37600,"station_id":"","pricing_plan_id":"cebpf4jnsgd1na2vs0mg"},{"bike_id":"55427a38-c132-414c-aa3f-10e35ee4dd0a","system_id":"levelo_inurba_marseille","lat":43.32112,"lon":5.36773,"is_reserved":false,"is_disabled":false,"rental_uris":{"android":"levelo://app?vid=55427a38-c132-414c-aa3f-10e35ee4dd0a","ios":"levelo://app?vid=55427a38-c132-414c-aa3f-10e35ee4dd0a"},"vehicle_type_id":"4","last_reported":1731787780,"current_range_meters":6800,"station_id":"ce4bhrh2rcd13ifvqhug","pricing_plan_id":"cebpf4jnsgd1na2vs0mg"},{"bike_id":"a4d608f8-644b-4ab9-a6a2-842924aabff6","system_id":"levelo_inurba_marseille","lat":43.329376,"lon":5.415099,"is_reserved":false,"is_disabled":false,"rental_uris":{"android":"levelo://app?vid=a4d608f8-644b-4ab9-a6a2-842924aabff6","ios":"levelo://app?vid=a4d608f8-644b-4ab9-a6a2-842924aabff6"},"vehicle_type_id":"4","last_reported":1731787780,"current_range_meters":22000,"station_id":"ce4bhqh2rcd13ifvqhmg","pricing_plan_id":"cebpf4jnsgd1na2vs0mg"},{"bike_id":"40a97675-88c7-4654-941f-612dc5d72fb0","system_id":"levelo_inurba_marseille","lat":43.31532,"lon":5.38022,"is_reserved":false,"is_disabled":false,"rental_uris":{"android":"levelo://app?vid=40a97675-88c7-4654-941f-612dc5d72fb0","ios":"levelo://app?vid=40a97675-88c7-4654-941f-612dc5d72fb0"},"vehicle_type_id":"4","last_reported":1731787780,"current_range_meters":38000,"station_id":"ce4bhsp2rcd13ifvqi50","pricing_plan_id":"cebpf4jnsgd1na2vs0mg"},{"bike_id":"6b0ea79e-cb12-4a50-9845-e4686b3cacc8","system_id":"levelo_inurba_marseille","lat":43.295751,"lon":5.399791,"is_reserved":false,"is_disabled":false,"rental_uris":{"android":"levelo://app?vid=6b0ea79e-cb12-4a50-9845-e4686b3cacc8","ios":"levelo://app?vid=6b0ea79e-cb12-4a50-9845-e4686b3cacc8"},"vehicle_type_id":"4","last_reported":1731787780,"current_range_meters":12800,"station_id":"","pricing_plan_id":"cebpf4jnsgd1na2vs0mg"},{"bike_id":"8673dd0c-262f-4134-8165-c78417a3430a","system_id":"levelo_inurba_marseille","lat":43.30083,"lon":5.39066,"is_reserved":false,"is_disabled":false,"rental_uris":{"android":"levelo://app?vid=8673dd0c-262f-4134-8165-c78417a3430a","ios":"levelo://app?vid=8673dd0c-262f-4134-8165-c78417a3430a"},"vehicle_type_id":"4","last_reported":1731787780,"current_range_meters":32800,"station_id":"ce4bh192rcd13ifvqdb0","pricing_plan_id":"cebpf4jnsgd1na2vs0mg"},{"bike_id":"8b1d9327-4395-447a-a194-51b2e1b2853e","system_id":"levelo_inurba_marseille","lat":43.29534,"lon":5.38541,"is_reserved":false,"is_disabled":false,"rental_uris":{"android":"levelo://app?vid=8b1d9327-4395-447a-a194-51b2e1b2853e","ios":"levelo://app?vid=8b1d9327-4395-447a-a194-51b2e1b2853e"},"vehicle_type_id":"4","last_reported":1731787780,"current_range_meters":32400,"station_id":"ce4bgih2rcd13ifvqba0","pricing_plan_id":"cebpf4jnsgd1na2vs0mg"},{"bike_id":"72499688-a320-4333-843e-c093213a74e4","system_id":"levelo_inurba_marseille","lat":43.23061,"lon":5.35493,"is_reserved":false,"is_disabled":false,"rental_uris":{"android":"levelo://app?vid=72499688-a320-4333-843e-c093213a74e4","ios":"levelo://app?vid=72499688-a320-4333-843e-c093213a74e4"},"vehicle_type_id":"4","last_reported":1731787780,"current_range_meters":8000,"station_id":"cpo3342slgdg3j2ifvpg","pricing_plan_id":"cebpf4jnsgd1na2vs0mg"},{"bike_id":"be7b6632-f3b8-440f-b37a-a743de747592","system_id":"levelo_inurba_marseille","lat":43.24994,"lon":5.38922,"is_reserved":false,"is_disabled":false,"rental_uris":{"android":"levelo://app?vid=be7b6632-f3b8-440f-b37a-a743de747592","ios":"levelo://app?vid=be7b6632-f3b8-440f-b37a-a743de747592"},"vehicle_type_id":"4","last_reported":1731787780,"current_range_meters":33200,"station_id":"ce4bhgp2rcd13ifvqfd0","pricing_plan_id":"cebpf4jnsgd1na2vs0mg"},{"bike_id":"7cf438d8-b1d8-49cd-a040-7a7802b38a16","system_id":"levelo_inurba_marseille","lat":43.28104,"lon":5.37841,"is_reserved":false,"is_disabled":false,"rental_uris":{"android":"levelo://app?vid=7cf438d8-b1d8-49cd-a040-7a7802b38a16","ios":"levelo://app?vid=7cf438d8-b1d8-49cd-a040-7a7802b38a16"},"vehicle_type_id":"4","last_reported":1731787780,"current_range_meters":10800,"station_id":"ce4bha12rcd13ifvqee0","pricing_plan_id":"cebpf4jnsgd1na2vs0mg"},{"bike_id":"0e1d2e7a-8318-45fe-af1b-31857eb1aac8","system_id":"levelo_inurba_marseille","lat":43.23962,"lon":5.36622,"is_reserved":false,"is_disabled":false,"rental_uris":{"android":"levelo://app?vid=0e1d2e7a-8318-45fe-af1b-31857eb1aac8","ios":"levelo://app?vid=0e1d2e7a-8318-45fe-af1b-31857eb1aac8"},"vehicle_type_id":"4","last_reported":1731787780,"current_range_meters":27600,"station_id":"ce4bhi12rcd13ifvqfp0","pricing_plan_id":"cebpf4jnsgd1na2vs0mg"},{"bike_id":"edec2afd-2fd4-49bc-9cc6-2ff866afd30c","system_id":"levelo_inurba_marseille","lat":43.27176,"lon":5.40996,"is_reserved":false,"is_disabled":false,"rental_uris":{"android":"levelo://app?vid=edec2afd-2fd4-49bc-9cc6-2ff866afd30c","ios":"levelo://app?vid=edec2afd-2fd4-49bc-9cc6-2ff866afd30c"},"vehicle_type_id":"4","last_reported":1731787780,"current_range_meters":6400,"station_id":"ce4bhl12rcd13ifvqgf0","pricing_plan_id":"cebpf4jnsgd1na2vs0mg"},{"bike_id":"79b76398-f4aa-422b-b325-2360d07a8784","system_id":"levelo_inurba_marseille","lat":43.33724,"lon":5.39176,"is_reserved":false,"is_disabled":false,"rental_uris":{"android":"levelo://app?vid=79b76398-f4aa-422b-b325-2360d07a8784","ios":"levelo://app?vid=79b76398-f4aa-422b-b325-2360d07a8784"},"vehicle_type_id":"4","last_reported":1731787780,"current_range_meters":32800,"station_id":"ce4bhr92rcd13ifvqhsg","pricing_plan_id":"cebpf4jnsgd1na2vs0mg"},{"bike_id":"e09bbf5f-441f-4fbf-a8b6-eab0f574994b","system_id":"levelo_inurba_marseille","lat":43.30137,"lon":5.37421,"is_reserved":false,"is_disabled":false,"rental_uris":{"android":"levelo://app?vid=e09bbf5f-441f-4fbf-a8b6-eab0f574994b","ios":"levelo://app?vid=e09bbf5f-441f-4fbf-a8b6-eab0f574994b"},"vehicle_type_id":"4","last_reported":1731787780,"current_range_meters":35600,"station_id":"ce4bgs92rcd13ifvqcc0","pricing_plan_id":"cebpf4jnsgd1na2vs0mg"},{"bike_id":"d6c037e0-25f0-4e15-81ff-8e925be38c50","system_id":"levelo_inurba_marseille","lat":43.298248,"lon":5.38526,"is_reserved":false,"is_disabled":false,"rental_uris":{"android":"levelo://app?vid=d6c037e0-25f0-4e15-81ff-8e925be38c50","ios":"levelo://app?vid=d6c037e0-25f0-4e15-81ff-8e925be38c50"},"vehicle_type_id":"4","last_reported":1731787780,"current_range_meters":11200,"station_id":"ce4bh4p2rcd13ifvqe0g","pricing_plan_id":"cebpf4jnsgd1na2vs0mg"},{"bike_id":"9285810a-20e7-4d99-a229-aafe61f891bd","system_id":"levelo_inurba_marseille","lat":43.30302,"lon":5.38628,"is_reserved":false,"is_disabled":false,"rental_uris":{"android":"levelo://app?vid=9285810a-20e7-4d99-a229-aafe61f891bd","ios":"levelo://app?vid=9285810a-20e7-4d99-a229-aafe61f891bd"},"vehicle_type_id":"4","last_reported":1731787780,"current_range_meters":14800,"station_id":"","pricing_plan_id":"cebpf4jnsgd1na2vs0mg"},{"bike_id":"71b54424-ac58-4a3b-9b09-b0094524cf58","system_id":"levelo_inurba_marseille","lat":43.29299,"lon":5.37164,"is_reserved":false,"is_disabled":false,"rental_uris":{"android":"levelo://app?vid=71b54424-ac58-4a3b-9b09-b0094524cf58","ios":"levelo://app?vid=71b54424-ac58-4a3b-9b09-b0094524cf58"},"vehicle_type_id":"4","last_reported":1731787780,"current_range_meters":20000,"station_id":"ce4bgh92rcd13ifvqb40","pricing_plan_id":"cebpf4jnsgd1na2vs0mg"},{"bike_id":"b73a69d4-735e-4d58-bded-288003cc9f43","system_id":"levelo_inurba_marseille","lat":43.24164,"lon":5.36393,"is_reserved":false,"is_disabled":false,"rental_uris":{"android":"levelo://app?vid=b73a69d4-735e-4d58-bded-288003cc9f43","ios":"levelo://app?vid=b73a69d4-735e-4d58-bded-288003cc9f43"},"vehicle_type_id":"4","last_reported":1731787780,"current_range_meters":36800,"station_id":"cpo36qri1sfpv3e86is0","pricing_plan_id":"cebpf4jnsgd1na2vs0mg"},{"bike_id":"51ec102e-6dd5-463f-9847-5d447546ad72","system_id":"levelo_inurba_marseille","lat":43.29414,"lon":5.3863,"is_reserved":false,"is_disabled":false,"rental_uris":{"android":"levelo://app?vid=51ec102e-6dd5-463f-9847-5d447546ad72","ios":"levelo://app?vid=51ec102e-6dd5-463f-9847-5d447546ad72"},"vehicle_type_id":"4","last_reported":1731787780,"current_range_meters":28000,"station_id":"ce4bh2h2rcd13ifvqdh0","pricing_plan_id":"cebpf4jnsgd1na2vs0mg"},{"bike_id":"3fcbe528-45e3-439d-80db-ce667e24fe73","system_id":"levelo_inurba_marseille","lat":43.23059,"lon":5.35494,"is_reserved":false,"is_disabled":false,"rental_uris":{"android":"levelo://app?vid=3fcbe528-45e3-439d-80db-ce667e24fe73","ios":"levelo://app?vid=3fcbe528-45e3-439d-80db-ce667e24fe73"},"vehicle_type_id":"4","last_reported":1731787780,"current_range_meters":20000,"station_id":"cpo3342slgdg3j2ifvpg","pricing_plan_id":"cebpf4jnsgd1na2vs0mg"},{"bike_id":"b2f45d15-d036-4f36-a361-a492e289342e","system_id":"levelo_inurba_marseille","lat":43.22924,"lon":5.35371,"is_reserved":false,"is_disabled":false,"rental_uris":{"android":"levelo://app?vid=b2f45d15-d036-4f36-a361-a492e289342e","ios":"levelo://app?vid=b2f45d15-d036-4f36-a361-a492e289342e"},"vehicle_type_id":"4","last_reported":1731787780,"current_range_meters":38000,"station_id":"cpo3532slgdg3j2ikp40","pricing_plan_id":"cebpf4jnsgd1na2vs0mg"},{"bike_id":"e962bfeb-d932-49c2-8aba-da00977b8a5e","system_id":"levelo_inurba_marseille","lat":43.29821,"lon":5.42938,"is_reserved":false,"is_disabled":false,"rental_uris":{"android":"levelo://app?vid=e962bfeb-d932-49c2-8aba-da00977b8a5e","ios":"levelo://app?vid=e962bfeb-d932-49c2-8aba-da00977b8a5e"},"vehicle_type_id":"4","last_reported":1731787780,"current_range_meters":38400,"station_id":"","pricing_plan_id":"cebpf4jnsgd1na2vs0mg"},{"bike_id":"db0085fb-8c79-4ddd-9c9c-5f619ed839e1","system_id":"levelo_inurba_marseille","lat":43.27619,"lon":5.3612,"is_reserved":false,"is_disabled":false,"rental_uris":{"android":"levelo://app?vid=db0085fb-8c79-4ddd-9c9c-5f619ed839e1","ios":"levelo://app?vid=db0085fb-8c79-4ddd-9c9c-5f619ed839e1"},"vehicle_type_id":"4","last_reported":1731787780,"current_range_meters":36800,"station_id":"ce4bgj92rcd13ifvqbe0","pricing_plan_id":"cebpf4jnsgd1na2vs0mg"},{"bike_id":"6d6a0dde-c067-4493-bad2-5ee0d9b9474d","system_id":"levelo_inurba_marseille","lat":43.29294,"lon":5.37446,"is_reserved":false,"is_disabled":false,"rental_uris":{"android":"levelo://app?vid=6d6a0dde-c067-4493-bad2-5ee0d9b9474d","ios":"levelo://app?vid=6d6a0dde-c067-4493-bad2-5ee0d9b9474d"},"vehicle_type_id":"4","last_reported":1731787780,"current_range_meters":35200,"station_id":"ce4bgi12rcd13ifvqb70","pricing_plan_id":"cebpf4jnsgd1na2vs0mg"},{"bike_id":"17c1da7f-753a-419e-b420-c5c13659a37e","system_id":"levelo_inurba_marseille","lat":43.31998,"lon":5.381597,"is_reserved":false,"is_disabled":false,"rental_uris":{"android":"levelo://app?vid=17c1da7f-753a-419e-b420-c5c13659a37e","ios":"levelo://app?vid=17c1da7f-753a-419e-b420-c5c13659a37e"},"vehicle_type_id":"4","last_reported":1731787780,"current_range_meters":10800,"station_id":"ce4bhr12rcd13ifvqhpg","pricing_plan_id":"cebpf4jnsgd1na2vs0mg"},{"bike_id":"b128a8d7-7942-4d37-9966-cfc17584ff0d","system_id":"levelo_inurba_marseille","lat":43.28063,"lon":5.40775,"is_reserved":false,"is_disabled":false,"rental_uris":{"android":"levelo://app?vid=b128a8d7-7942-4d37-9966-cfc17584ff0d","ios":"levelo://app?vid=b128a8d7-7942-4d37-9966-cfc17584ff0d"},"vehicle_type_id":"4","last_reported":1731787780,"current_range_meters":18000,"station_id":"","pricing_plan_id":"cebpf4jnsgd1na2vs0mg"},{"bike_id":"76115c9c-6a69-4b90-85b6-7213cbed9156","system_id":"levelo_inurba_marseille","lat":43.31164,"lon":5.38716,"is_reserved":false,"is_disabled":false,"rental_uris":{"android":"levelo://app?vid=76115c9c-6a69-4b90-85b6-7213cbed9156","ios":"levelo://app?vid=76115c9c-6a69-4b90-85b6-7213cbed9156"},"vehicle_type_id":"4","last_reported":1731787780,"current_range_meters":12800,"station_id":"ce4bgv12rcd13ifvqcp0","pricing_plan_id":"cebpf4jnsgd1na2vs0mg"},{"bike_id":"ff135798-1167-4c93-873e-85c7c602b8fd","system_id":"levelo_inurba_marseille","lat":43.26203,"lon":5.37923,"is_reserved":false,"is_disabled":false,"rental_uris":{"android":"levelo://app?vid=ff135798-1167-4c93-873e-85c7c602b8fd","ios":"levelo://app?vid=ff135798-1167-4c93-873e-85c7c602b8fd"},"vehicle_type_id":"4","last_reported":1731787780,"current_range_meters":33600,"station_id":"ce4bhjp2rcd13ifvqg90","pricing_plan_id":"cebpf4jnsgd1na2vs0mg"},{"bike_id":"2423f2a9-c81e-48f6-8baa-d86e2049c321","system_id":"levelo_inurba_marseille","lat":43.29272,"lon":5.40934,"is_reserved":false,"is_disabled":false,"rental_uris":{"android":"levelo://app?vid=2423f2a9-c81e-48f6-8baa-d86e2049c321","ios":"levelo://app?vid=2423f2a9-c81e-48f6-8baa-d86e2049c321"},"vehicle_type_id":"4","last_reported":1731787780,"current_range_meters":26800,"station_id":"ce4bh192rcd13ifvqdc0","pricing_plan_id":"cebpf4jnsgd1na2vs0mg"},{"bike_id":"1cc2f62f-cc63-4885-b0f3-a3e619d58894","system_id":"levelo_inurba_marseille","lat":43.29532,"lon":5.39404,"is_reserved":false,"is_disabled":false,"rental_uris":{"android":"levelo://app?vid=1cc2f62f-cc63-4885-b0f3-a3e619d58894","ios":"levelo://app?vid=1cc2f62f-cc63-4885-b0f3-a3e619d58894"},"vehicle_type_id":"4","last_reported":1731787780,"current_range_meters":21600,"station_id":"ce4bh292rcd13ifvqdf0","pricing_plan_id":"cebpf4jnsgd1na2vs0mg"},{"bike_id":"0d090cbd-7bd8-48ce-96b4-17fa666688e1","system_id":"levelo_inurba_marseille","lat":43.3414,"lon":5.40913,"is_reserved":false,"is_disabled":false,"rental_uris":{"android":"levelo://app?vid=0d090cbd-7bd8-48ce-96b4-17fa666688e1","ios":"levelo://app?vid=0d090cbd-7bd8-48ce-96b4-17fa666688e1"},"vehicle_type_id":"4","last_reported":1731787780,"current_range_meters":29600,"station_id":"ce4bhqh2rcd13ifvqhlg","pricing_plan_id":"cebpf4jnsgd1na2vs0mg"},{"bike_id":"d9f7e7f2-419b-4dcd-bc6f-454e193673ad","system_id":"levelo_inurba_marseille","lat":43.2867,"lon":5.38662,"is_reserved":false,"is_disabled":false,"rental_uris":{"android":"levelo://app?vid=d9f7e7f2-419b-4dcd-bc6f-454e193673ad","ios":"levelo://app?vid=d9f7e7f2-419b-4dcd-bc6f-454e193673ad"},"vehicle_type_id":"4","last_reported":1731787780,"current_range_meters":2800,"station_id":"ce4bh492rcd13ifvqdug","pricing_plan_id":"cebpf4jnsgd1na2vs0mg"},{"bike_id":"5f4fcc2a-041d-4ee6-ad12-6841b42ade09","system_id":"levelo_inurba_marseille","lat":43.29702,"lon":5.36585,"is_reserved":false,"is_disabled":false,"rental_uris":{"android":"levelo://app?vid=5f4fcc2a-041d-4ee6-ad12-6841b42ade09","ios":"levelo://app?vid=5f4fcc2a-041d-4ee6-ad12-6841b42ade09"},"vehicle_type_id":"4","last_reported":1731787780,"current_range_meters":5600,"station_id":"ce4bgn12rcd13ifvqbt0","pricing_plan_id":"cebpf4jnsgd1na2vs0mg"},{"bike_id":"4daddc5c-1ca1-458f-b344-1e65d649988b","system_id":"levelo_inurba_marseille","lat":43.30191,"lon":5.36602,"is_reserved":false,"is_disabled":false,"rental_uris":{"android":"levelo://app?vid=4daddc5c-1ca1-458f-b344-1e65d649988b","ios":"levelo://app?vid=4daddc5c-1ca1-458f-b344-1e65d649988b"},"vehicle_type_id":"4","last_reported":1731787780,"current_range_meters":37600,"station_id":"ce4bgrh2rcd13ifvqc8g","pricing_plan_id":"cebpf4jnsgd1na2vs0mg"},{"bike_id":"f6baf4e4-6107-4eb9-937b-c04a8bc6ddad","system_id":"levelo_inurba_marseille","lat":43.29256,"lon":5.3843,"is_reserved":false,"is_disabled":false,"rental_uris":{"android":"levelo://app?vid=f6baf4e4-6107-4eb9-937b-c04a8bc6ddad","ios":"levelo://app?vid=f6baf4e4-6107-4eb9-937b-c04a8bc6ddad"},"vehicle_type_id":"4","last_reported":1731787780,"current_range_meters":3200,"station_id":"ce4bh692rcd13ifvqea0","pricing_plan_id":"cebpf4jnsgd1na2vs0mg"},{"bike_id":"0b580216-b07f-4821-a19d-686462be0488","system_id":"levelo_inurba_marseille","lat":43.2293,"lon":5.35381,"is_reserved":false,"is_disabled":false,"rental_uris":{"android":"levelo://app?vid=0b580216-b07f-4821-a19d-686462be0488","ios":"levelo://app?vid=0b580216-b07f-4821-a19d-686462be0488"},"vehicle_type_id":"4","last_reported":1731787780,"current_range_meters":38400,"station_id":"cpo3532slgdg3j2ikp40","pricing_plan_id":"cebpf4jnsgd1na2vs0mg"},{"bike_id":"8ec12441-0a09-48b5-9b60-4ec15c08e11c","system_id":"levelo_inurba_marseille","lat":43.2319,"lon":5.39968,"is_reserved":false,"is_disabled":false,"rental_uris":{"android":"levelo://app?vid=8ec12441-0a09-48b5-9b60-4ec15c08e11c","ios":"levelo://app?vid=8ec12441-0a09-48b5-9b60-4ec15c08e11c"},"vehicle_type_id":"4","last_reported":1731787780,"current_range_meters":12000,"station_id":"ce4bhn12rcd13ifvqgqg","pricing_plan_id":"cebpf4jnsgd1na2vs0mg"},{"bike_id":"dc148b60-efee-45c2-af1f-26a46263cd7d","system_id":"levelo_inurba_marseille","lat":43.29824,"lon":5.36245,"is_reserved":false,"is_disabled":false,"rental_uris":{"android":"levelo://app?vid=dc148b60-efee-45c2-af1f-26a46263cd7d","ios":"levelo://app?vid=dc148b60-efee-45c2-af1f-26a46263cd7d"},"vehicle_type_id":"4","last_reported":1731787780,"current_range_meters":30400,"station_id":"ce4bgpp2rcd13ifvqc3g","pricing_plan_id":"cebpf4jnsgd1na2vs0mg"},{"bike_id":"9e80fa8f-f0eb-4404-9b0d-a93074af700f","system_id":"levelo_inurba_marseille","lat":43.24172,"lon":5.36397,"is_reserved":false,"is_disabled":false,"rental_uris":{"android":"levelo://app?vid=9e80fa8f-f0eb-4404-9b0d-a93074af700f","ios":"levelo://app?vid=9e80fa8f-f0eb-4404-9b0d-a93074af700f"},"vehicle_type_id":"4","last_reported":1731787780,"current_range_meters":28800,"station_id":"cpo36qri1sfpv3e86is0","pricing_plan_id":"cebpf4jnsgd1na2vs0mg"},{"bike_id":"8c3b373e-69f4-423e-a6fd-d4cc3e96c4bb","system_id":"levelo_inurba_marseille","lat":43.26801,"lon":5.40267,"is_reserved":false,"is_disabled":false,"rental_uris":{"android":"levelo://app?vid=8c3b373e-69f4-423e-a6fd-d4cc3e96c4bb","ios":"levelo://app?vid=8c3b373e-69f4-423e-a6fd-d4cc3e96c4bb"},"vehicle_type_id":"4","last_reported":1731787780,"current_range_meters":37600,"station_id":"ce501612rcd8frsf0b60","pricing_plan_id":"cebpf4jnsgd1na2vs0mg"},{"bike_id":"4138345b-cc1d-40b0-8916-e8013770729a","system_id":"levelo_inurba_marseille","lat":43.24641,"lon":5.38893,"is_reserved":false,"is_disabled":false,"rental_uris":{"android":"levelo://app?vid=4138345b-cc1d-40b0-8916-e8013770729a","ios":"levelo://app?vid=4138345b-cc1d-40b0-8916-e8013770729a"},"vehicle_type_id":"4","last_reported":1731787780,"current_range_meters":38800,"station_id":"ce4bhg12rcd13ifvqf60","pricing_plan_id":"cebpf4jnsgd1na2vs0mg"},{"bike_id":"daab7cd0-25ad-4080-9037-ac0d7187c0c7","system_id":"levelo_inurba_marseille","lat":43.30422,"lon":5.39744,"is_reserved":false,"is_disabled":false,"rental_uris":{"android":"levelo://app?vid=daab7cd0-25ad-4080-9037-ac0d7187c0c7","ios":"levelo://app?vid=daab7cd0-25ad-4080-9037-ac0d7187c0c7"},"vehicle_type_id":"4","last_reported":1731787780,"current_range_meters":22800,"station_id":"ce4bh092rcd13ifvqd20","pricing_plan_id":"cebpf4jnsgd1na2vs0mg"},{"bike_id":"9c16e19f-b952-452f-b4fc-f2aa9d923631","system_id":"levelo_inurba_marseille","lat":43.31536,"lon":5.38034,"is_reserved":false,"is_disabled":false,"rental_uris":{"android":"levelo://app?vid=9c16e19f-b952-452f-b4fc-f2aa9d923631","ios":"levelo://app?vid=9c16e19f-b952-452f-b4fc-f2aa9d923631"},"vehicle_type_id":"4","last_reported":1731787780,"current_range_meters":38800,"station_id":"ce4bhsp2rcd13ifvqi50","pricing_plan_id":"cebpf4jnsgd1na2vs0mg"},{"bike_id":"89c7f0b5-420b-46aa-b8b1-97a7a0871666","system_id":"levelo_inurba_marseille","lat":43.31725,"lon":5.3832,"is_reserved":false,"is_disabled":false,"rental_uris":{"android":"levelo://app?vid=89c7f0b5-420b-46aa-b8b1-97a7a0871666","ios":"levelo://app?vid=89c7f0b5-420b-46aa-b8b1-97a7a0871666"},"vehicle_type_id":"4","last_reported":1731787780,"current_range_meters":13600,"station_id":"","pricing_plan_id":"cebpf4jnsgd1na2vs0mg"},{"bike_id":"ca8542a7-392d-4521-8203-879c6d07ae3f","system_id":"levelo_inurba_marseille","lat":43.3081,"lon":5.37003,"is_reserved":false,"is_disabled":false,"rental_uris":{"android":"levelo://app?vid=ca8542a7-392d-4521-8203-879c6d07ae3f","ios":"levelo://app?vid=ca8542a7-392d-4521-8203-879c6d07ae3f"},"vehicle_type_id":"4","last_reported":1731787780,"current_range_meters":32800,"station_id":"","pricing_plan_id":"cebpf4jnsgd1na2vs0mg"},{"bike_id":"bae81943-f1eb-4f58-8fe3-254cd012d472","system_id":"levelo_inurba_marseille","lat":43.25488,"lon":5.37647,"is_reserved":false,"is_disabled":false,"rental_uris":{"android":"levelo://app?vid=bae81943-f1eb-4f58-8fe3-254cd012d472","ios":"levelo://app?vid=bae81943-f1eb-4f58-8fe3-254cd012d472"},"vehicle_type_id":"4","last_reported":1731787780,"current_range_meters":38800,"station_id":"ce4bhh12rcd13ifvqff0","pricing_plan_id":"cebpf4jnsgd1na2vs0mg"},{"bike_id":"daacee4f-0e7b-4892-aeae-f919a3a7321a","system_id":"levelo_inurba_marseille","lat":43.28375,"lon":5.38624,"is_reserved":false,"is_disabled":false,"rental_uris":{"android":"levelo://app?vid=daacee4f-0e7b-4892-aeae-f919a3a7321a","ios":"levelo://app?vid=daacee4f-0e7b-4892-aeae-f919a3a7321a"},"vehicle_type_id":"4","last_reported":1731787780,"current_range_meters":2800,"station_id":"ce4bh492rcd13ifvqdvg","pricing_plan_id":"cebpf4jnsgd1na2vs0mg"},{"bike_id":"eca8f630-3c82-4adc-91ac-e7f692c4d06a","system_id":"levelo_inurba_marseille","lat":43.29292,"lon":5.37444,"is_reserved":false,"is_disabled":false,"rental_uris":{"android":"levelo://app?vid=eca8f630-3c82-4adc-91ac-e7f692c4d06a","ios":"levelo://app?vid=eca8f630-3c82-4adc-91ac-e7f692c4d06a"},"vehicle_type_id":"4","last_reported":1731787780,"current_range_meters":10800,"station_id":"ce4bgi12rcd13ifvqb70","pricing_plan_id":"cebpf4jnsgd1na2vs0mg"},{"bike_id":"356d3c8c-779b-4df8-94dd-cc6ab9a33e42","system_id":"levelo_inurba_marseille","lat":43.29722,"lon":5.3627,"is_reserved":false,"is_disabled":false,"rental_uris":{"android":"levelo://app?vid=356d3c8c-779b-4df8-94dd-cc6ab9a33e42","ios":"levelo://app?vid=356d3c8c-779b-4df8-94dd-cc6ab9a33e42"},"vehicle_type_id":"4","last_reported":1731787780,"current_range_meters":19600,"station_id":"","pricing_plan_id":"cebpf4jnsgd1na2vs0mg"},{"bike_id":"6bbf2659-8937-498f-bfe3-9c4da1857591","system_id":"levelo_inurba_marseille","lat":43.30259,"lon":5.36894,"is_reserved":false,"is_disabled":false,"rental_uris":{"android":"levelo://app?vid=6bbf2659-8937-498f-bfe3-9c4da1857591","ios":"levelo://app?vid=6bbf2659-8937-498f-bfe3-9c4da1857591"},"vehicle_type_id":"4","last_reported":1731787780,"current_range_meters":8000,"station_id":"","pricing_plan_id":"cebpf4jnsgd1na2vs0mg"},{"bike_id":"268d5d93-3de3-426e-83f2-f33352a57811","system_id":"levelo_inurba_marseille","lat":43.27069,"lon":5.4228,"is_reserved":false,"is_disabled":false,"rental_uris":{"android":"levelo://app?vid=268d5d93-3de3-426e-83f2-f33352a57811","ios":"levelo://app?vid=268d5d93-3de3-426e-83f2-f33352a57811"},"vehicle_type_id":"4","last_reported":1731787780,"current_range_meters":38000,"station_id":"ce4bhk92rcd13ifvqgb0","pricing_plan_id":"cebpf4jnsgd1na2vs0mg"},{"bike_id":"81ca3513-f7c4-4140-925a-2889d6e80dfb","system_id":"levelo_inurba_marseille","lat":43.28082,"lon":5.3966,"is_reserved":false,"is_disabled":false,"rental_uris":{"android":"levelo://app?vid=81ca3513-f7c4-4140-925a-2889d6e80dfb","ios":"levelo://app?vid=81ca3513-f7c4-4140-925a-2889d6e80dfb"},"vehicle_type_id":"4","last_reported":1731787780,"current_range_meters":25600,"station_id":"ce4bho12rcd13ifvqh2g","pricing_plan_id":"cebpf4jnsgd1na2vs0mg"},{"bike_id":"12867844-fa2a-41b2-8d74-706d4ef15909","system_id":"levelo_inurba_marseille","lat":43.33771,"lon":5.37428,"is_reserved":false,"is_disabled":false,"rental_uris":{"android":"levelo://app?vid=12867844-fa2a-41b2-8d74-706d4ef15909","ios":"levelo://app?vid=12867844-fa2a-41b2-8d74-706d4ef15909"},"vehicle_type_id":"4","last_reported":1731787780,"current_range_meters":36800,"station_id":"","pricing_plan_id":"cebpf4jnsgd1na2vs0mg"},{"bike_id":"3455c789-2e35-4152-8de0-fa613ba872df","system_id":"levelo_inurba_marseille","lat":43.32362,"lon":5.38883,"is_reserved":false,"is_disabled":false,"rental_uris":{"android":"levelo://app?vid=3455c789-2e35-4152-8de0-fa613ba872df","ios":"levelo://app?vid=3455c789-2e35-4152-8de0-fa613ba872df"},"vehicle_type_id":"4","last_reported":1731787780,"current_range_meters":36400,"station_id":"ce4bhqp2rcd13ifvqhog","pricing_plan_id":"cebpf4jnsgd1na2vs0mg"},{"bike_id":"9e417e61-9265-4b16-94c9-79e3b6ca1aa2","system_id":"levelo_inurba_marseille","lat":43.26058,"lon":5.39399,"is_reserved":false,"is_disabled":false,"rental_uris":{"android":"levelo://app?vid=9e417e61-9265-4b16-94c9-79e3b6ca1aa2","ios":"levelo://app?vid=9e417e61-9265-4b16-94c9-79e3b6ca1aa2"},"vehicle_type_id":"4","last_reported":1731787780,"current_range_meters":3600,"station_id":"ce4bhh92rcd13ifvqfj0","pricing_plan_id":"cebpf4jnsgd1na2vs0mg"},{"bike_id":"fe734cae-2bee-46e8-b56e-e78538f27304","system_id":"levelo_inurba_marseille","lat":43.311615,"lon":5.387185,"is_reserved":false,"is_disabled":false,"rental_uris":{"android":"levelo://app?vid=fe734cae-2bee-46e8-b56e-e78538f27304","ios":"levelo://app?vid=fe734cae-2bee-46e8-b56e-e78538f27304"},"vehicle_type_id":"4","last_reported":1731787780,"current_range_meters":40000,"station_id":"ce4bgv12rcd13ifvqcp0","pricing_plan_id":"cebpf4jnsgd1na2vs0mg"},{"bike_id":"ea6b1edc-458c-4e1c-94ef-bad8dada22e8","system_id":"levelo_inurba_marseille","lat":43.28667,"lon":5.38659,"is_reserved":false,"is_disabled":false,"rental_uris":{"android":"levelo://app?vid=ea6b1edc-458c-4e1c-94ef-bad8dada22e8","ios":"levelo://app?vid=ea6b1edc-458c-4e1c-94ef-bad8dada22e8"},"vehicle_type_id":"4","last_reported":1731787780,"current_range_meters":5600,"station_id":"ce4bh492rcd13ifvqdug","pricing_plan_id":"cebpf4jnsgd1na2vs0mg"},{"bike_id":"a178925a-03b7-4e0a-bb5e-bad8ca77d7f9","system_id":"levelo_inurba_marseille","lat":43.30916,"lon":5.40124,"is_reserved":false,"is_disabled":false,"rental_uris":{"android":"levelo://app?vid=a178925a-03b7-4e0a-bb5e-bad8ca77d7f9","ios":"levelo://app?vid=a178925a-03b7-4e0a-bb5e-bad8ca77d7f9"},"vehicle_type_id":"4","last_reported":1731787780,"current_range_meters":37600,"station_id":"ce4bgvp2rcd13ifvqct0","pricing_plan_id":"cebpf4jnsgd1na2vs0mg"},{"bike_id":"adeee53f-37e6-4b93-99be-7ed6ae944739","system_id":"levelo_inurba_marseille","lat":43.29516,"lon":5.39026,"is_reserved":false,"is_disabled":false,"rental_uris":{"android":"levelo://app?vid=adeee53f-37e6-4b93-99be-7ed6ae944739","ios":"levelo://app?vid=adeee53f-37e6-4b93-99be-7ed6ae944739"},"vehicle_type_id":"4","last_reported":1731787780,"current_range_meters":15200,"station_id":"ce4bh3p2rcd13ifvqdp0","pricing_plan_id":"cebpf4jnsgd1na2vs0mg"},{"bike_id":"a54608ae-0021-4f71-8f39-d8add700cb33","system_id":"levelo_inurba_marseille","lat":43.31164,"lon":5.38713,"is_reserved":false,"is_disabled":false,"rental_uris":{"android":"levelo://app?vid=a54608ae-0021-4f71-8f39-d8add700cb33","ios":"levelo://app?vid=a54608ae-0021-4f71-8f39-d8add700cb33"},"vehicle_type_id":"4","last_reported":1731787780,"current_range_meters":34800,"station_id":"ce4bgv12rcd13ifvqcp0","pricing_plan_id":"cebpf4jnsgd1na2vs0mg"},{"bike_id":"7f4fc65b-fc3f-49a9-b383-fbcaf2dc622d","system_id":"levelo_inurba_marseille","lat":43.23964,"lon":5.3663,"is_reserved":false,"is_disabled":false,"rental_uris":{"android":"levelo://app?vid=7f4fc65b-fc3f-49a9-b383-fbcaf2dc622d","ios":"levelo://app?vid=7f4fc65b-fc3f-49a9-b383-fbcaf2dc622d"},"vehicle_type_id":"4","last_reported":1731787780,"current_range_meters":25600,"station_id":"ce4bhi12rcd13ifvqfp0","pricing_plan_id":"cebpf4jnsgd1na2vs0mg"},{"bike_id":"89dddfc4-ec44-4327-b3aa-c350546d94f0","system_id":"levelo_inurba_marseille","lat":43.24814,"lon":5.3746,"is_reserved":false,"is_disabled":false,"rental_uris":{"android":"levelo://app?vid=89dddfc4-ec44-4327-b3aa-c350546d94f0","ios":"levelo://app?vid=89dddfc4-ec44-4327-b3aa-c350546d94f0"},"vehicle_type_id":"4","last_reported":1731787780,"current_range_meters":38800,"station_id":"ce4bhgh2rcd13ifvqfb0","pricing_plan_id":"cebpf4jnsgd1na2vs0mg"},{"bike_id":"b4f0c3a0-9b14-4375-8e12-6df631be02a7","system_id":"levelo_inurba_marseille","lat":43.27374,"lon":5.36255,"is_reserved":false,"is_disabled":false,"rental_uris":{"android":"levelo://app?vid=b4f0c3a0-9b14-4375-8e12-6df631be02a7","ios":"levelo://app?vid=b4f0c3a0-9b14-4375-8e12-6df631be02a7"},"vehicle_type_id":"4","last_reported":1731787780,"current_range_meters":38400,"station_id":"ce4bhbh2rcd13ifvqeo0","pricing_plan_id":"cebpf4jnsgd1na2vs0mg"},{"bike_id":"5d5505be-3a03-4d64-8ce2-797d9a3b3a5b","system_id":"levelo_inurba_marseille","lat":43.27813,"lon":5.40715,"is_reserved":false,"is_disabled":false,"rental_uris":{"android":"levelo://app?vid=5d5505be-3a03-4d64-8ce2-797d9a3b3a5b","ios":"levelo://app?vid=5d5505be-3a03-4d64-8ce2-797d9a3b3a5b"},"vehicle_type_id":"4","last_reported":1731787780,"current_range_meters":20400,"station_id":"ce4bhnh2rcd13ifvqgtg","pricing_plan_id":"cebpf4jnsgd1na2vs0mg"},{"bike_id":"6b76da8b-8346-4b5f-a49b-cdde5bffd08b","system_id":"levelo_inurba_marseille","lat":43.27817,"lon":5.40709,"is_reserved":false,"is_disabled":false,"rental_uris":{"android":"levelo://app?vid=6b76da8b-8346-4b5f-a49b-cdde5bffd08b","ios":"levelo://app?vid=6b76da8b-8346-4b5f-a49b-cdde5bffd08b"},"vehicle_type_id":"4","last_reported":1731787780,"current_range_meters":39200,"station_id":"ce4bhnh2rcd13ifvqgtg","pricing_plan_id":"cebpf4jnsgd1na2vs0mg"},{"bike_id":"02a9db9f-5c74-40a5-8347-93309d10e500","system_id":"levelo_inurba_marseille","lat":43.28674,"lon":5.3866,"is_reserved":false,"is_disabled":false,"rental_uris":{"android":"levelo://app?vid=02a9db9f-5c74-40a5-8347-93309d10e500","ios":"levelo://app?vid=02a9db9f-5c74-40a5-8347-93309d10e500"},"vehicle_type_id":"4","last_reported":1731787780,"current_range_meters":20800,"station_id":"ce4bh492rcd13ifvqdug","pricing_plan_id":"cebpf4jnsgd1na2vs0mg"},{"bike_id":"39fb9c7a-6ba4-454b-8dac-0e53df578a4b","system_id":"levelo_inurba_marseille","lat":43.29874,"lon":5.39731,"is_reserved":false,"is_disabled":false,"rental_uris":{"android":"levelo://app?vid=39fb9c7a-6ba4-454b-8dac-0e53df578a4b","ios":"levelo://app?vid=39fb9c7a-6ba4-454b-8dac-0e53df578a4b"},"vehicle_type_id":"4","last_reported":1731787780,"current_range_meters":4000,"station_id":"ce4bh0h2rcd13ifvqd50","pricing_plan_id":"cebpf4jnsgd1na2vs0mg"},{"bike_id":"c78d5c17-03ba-4b47-99bb-1fa7f23444e0","system_id":"levelo_inurba_marseille","lat":43.31269,"lon":5.40167,"is_reserved":false,"is_disabled":false,"rental_uris":{"android":"levelo://app?vid=c78d5c17-03ba-4b47-99bb-1fa7f23444e0","ios":"levelo://app?vid=c78d5c17-03ba-4b47-99bb-1fa7f23444e0"},"vehicle_type_id":"4","last_reported":1731787780,"current_range_meters":18000,"station_id":"ce4bh092rcd13ifvqd30","pricing_plan_id":"cebpf4jnsgd1na2vs0mg"},{"bike_id":"3997aca1-4804-4c65-bee8-764a9c6f2647","system_id":"levelo_inurba_marseille","lat":43.28716,"lon":5.37939,"is_reserved":false,"is_disabled":false,"rental_uris":{"android":"levelo://app?vid=3997aca1-4804-4c65-bee8-764a9c6f2647","ios":"levelo://app?vid=3997aca1-4804-4c65-bee8-764a9c6f2647"},"vehicle_type_id":"4","last_reported":1731787780,"current_range_meters":9200,"station_id":"ce4bh9p2rcd13ifvqec0","pricing_plan_id":"cebpf4jnsgd1na2vs0mg"},{"bike_id":"229a21f3-e57e-48a7-b1f1-ad0d31f9767a","system_id":"levelo_inurba_marseille","lat":43.24664,"lon":5.38162,"is_reserved":false,"is_disabled":false,"rental_uris":{"android":"levelo://app?vid=229a21f3-e57e-48a7-b1f1-ad0d31f9767a","ios":"levelo://app?vid=229a21f3-e57e-48a7-b1f1-ad0d31f9767a"},"vehicle_type_id":"4","last_reported":1731787780,"current_range_meters":9200,"station_id":"ce4bhih2rcd13ifvqfr0","pricing_plan_id":"cebpf4jnsgd1na2vs0mg"},{"bike_id":"70ca91eb-54e3-4a32-9ad8-0c7769e10c55","system_id":"levelo_inurba_marseille","lat":43.2978,"lon":5.39341,"is_reserved":false,"is_disabled":false,"rental_uris":{"android":"levelo://app?vid=70ca91eb-54e3-4a32-9ad8-0c7769e10c55","ios":"levelo://app?vid=70ca91eb-54e3-4a32-9ad8-0c7769e10c55"},"vehicle_type_id":"4","last_reported":1731787780,"current_range_meters":39200,"station_id":"chh1huq6cuj3fo74tm60","pricing_plan_id":"cebpf4jnsgd1na2vs0mg"},{"bike_id":"a207ef06-7d9f-4272-bdfc-8283e33eb9be","system_id":"levelo_inurba_marseille","lat":43.29029,"lon":5.38641,"is_reserved":false,"is_disabled":false,"rental_uris":{"android":"levelo://app?vid=a207ef06-7d9f-4272-bdfc-8283e33eb9be","ios":"levelo://app?vid=a207ef06-7d9f-4272-bdfc-8283e33eb9be"},"vehicle_type_id":"4","last_reported":1731787780,"current_range_meters":39200,"station_id":"ce4bh4p2rcd13ifvqe0g","pricing_plan_id":"cebpf4jnsgd1na2vs0mg"},{"bike_id":"23a03894-7c84-4436-a887-bcf36be693c3","system_id":"levelo_inurba_marseille","lat":43.29311,"lon":5.37168,"is_reserved":false,"is_disabled":false,"rental_uris":{"android":"levelo://app?vid=23a03894-7c84-4436-a887-bcf36be693c3","ios":"levelo://app?vid=23a03894-7c84-4436-a887-bcf36be693c3"},"vehicle_type_id":"4","last_reported":1731787780,"current_range_meters":34000,"station_id":"ce4bgh92rcd13ifvqb40","pricing_plan_id":"cebpf4jnsgd1na2vs0mg"},{"bike_id":"b8cc5eba-23c0-45b8-ac32-6daf21f61756","system_id":"levelo_inurba_marseille","lat":43.29619,"lon":5.37714,"is_reserved":false,"is_disabled":false,"rental_uris":{"android":"levelo://app?vid=b8cc5eba-23c0-45b8-ac32-6daf21f61756","ios":"levelo://app?vid=b8cc5eba-23c0-45b8-ac32-6daf21f61756"},"vehicle_type_id":"4","last_reported":1731787780,"current_range_meters":34000,"station_id":"ce4bgi92rcd13ifvqb90","pricing_plan_id":"cebpf4jnsgd1na2vs0mg"},{"bike_id":"39d7bfab-e584-4213-91f9-4402ba3b5453","system_id":"levelo_inurba_marseille","lat":43.28614,"lon":5.35102,"is_reserved":false,"is_disabled":false,"rental_uris":{"android":"levelo://app?vid=39d7bfab-e584-4213-91f9-4402ba3b5453","ios":"levelo://app?vid=39d7bfab-e584-4213-91f9-4402ba3b5453"},"vehicle_type_id":"4","last_reported":1731787780,"current_range_meters":23200,"station_id":"ce4bhch2rcd13ifvqeug","pricing_plan_id":"cebpf4jnsgd1na2vs0mg"},{"bike_id":"4b3f2981-0158-4751-896b-b995c849d7c0","system_id":"levelo_inurba_marseille","lat":43.292206,"lon":5.360633,"is_reserved":false,"is_disabled":false,"rental_uris":{"android":"levelo://app?vid=4b3f2981-0158-4751-896b-b995c849d7c0","ios":"levelo://app?vid=4b3f2981-0158-4751-896b-b995c849d7c0"},"vehicle_type_id":"4","last_reported":1731787780,"current_range_meters":22400,"station_id":"ce4bhbh2rcd13ifvqeqg","pricing_plan_id":"cebpf4jnsgd1na2vs0mg"},{"bike_id":"c31f9e98-fa8f-4eb1-b096-1c7859065d15","system_id":"levelo_inurba_marseille","lat":43.31885,"lon":5.40726,"is_reserved":false,"is_disabled":false,"rental_uris":{"android":"levelo://app?vid=c31f9e98-fa8f-4eb1-b096-1c7859065d15","ios":"levelo://app?vid=c31f9e98-fa8f-4eb1-b096-1c7859065d15"},"vehicle_type_id":"4","last_reported":1731787780,"current_range_meters":22800,"station_id":"ce4bhq12rcd13ifvqhig","pricing_plan_id":"cebpf4jnsgd1na2vs0mg"},{"bike_id":"d1ecf826-88ce-498b-95b5-a67373ee1bc1","system_id":"levelo_inurba_marseille","lat":43.2959,"lon":5.36737,"is_reserved":false,"is_disabled":false,"rental_uris":{"android":"levelo://app?vid=d1ecf826-88ce-498b-95b5-a67373ee1bc1","ios":"levelo://app?vid=d1ecf826-88ce-498b-95b5-a67373ee1bc1"},"vehicle_type_id":"4","last_reported":1731787780,"current_range_meters":32400,"station_id":"ce4bgph2rcd13ifvqc2g","pricing_plan_id":"cebpf4jnsgd1na2vs0mg"},{"bike_id":"76702ce0-92fb-4f14-9f1c-6bfe77dc62cb","system_id":"levelo_inurba_marseille","lat":43.29525,"lon":5.38534,"is_reserved":false,"is_disabled":false,"rental_uris":{"android":"levelo://app?vid=76702ce0-92fb-4f14-9f1c-6bfe77dc62cb","ios":"levelo://app?vid=76702ce0-92fb-4f14-9f1c-6bfe77dc62cb"},"vehicle_type_id":"4","last_reported":1731787780,"current_range_meters":22400,"station_id":"ce4bgih2rcd13ifvqba0","pricing_plan_id":"cebpf4jnsgd1na2vs0mg"},{"bike_id":"504b699a-b92a-4a25-91e8-f58dacea3b99","system_id":"levelo_inurba_marseille","lat":43.28918,"lon":5.38386,"is_reserved":false,"is_disabled":false,"rental_uris":{"android":"levelo://app?vid=504b699a-b92a-4a25-91e8-f58dacea3b99","ios":"levelo://app?vid=504b699a-b92a-4a25-91e8-f58dacea3b99"},"vehicle_type_id":"4","last_reported":1731787780,"current_range_meters":37600,"station_id":"ce4bh612rcd13ifvqe6g","pricing_plan_id":"cebpf4jnsgd1na2vs0mg"},{"bike_id":"c758dee4-6864-4981-a60f-7be053d35f34","system_id":"levelo_inurba_marseille","lat":43.29305,"lon":5.37163,"is_reserved":false,"is_disabled":false,"rental_uris":{"android":"levelo://app?vid=c758dee4-6864-4981-a60f-7be053d35f34","ios":"levelo://app?vid=c758dee4-6864-4981-a60f-7be053d35f34"},"vehicle_type_id":"4","last_reported":1731787780,"current_range_meters":8000,"station_id":"ce4bgh92rcd13ifvqb40","pricing_plan_id":"cebpf4jnsgd1na2vs0mg"},{"bike_id":"08586d67-74a4-4b66-9b20-38b225f131c4","system_id":"levelo_inurba_marseille","lat":43.24663,"lon":5.38166,"is_reserved":false,"is_disabled":false,"rental_uris":{"android":"levelo://app?vid=08586d67-74a4-4b66-9b20-38b225f131c4","ios":"levelo://app?vid=08586d67-74a4-4b66-9b20-38b225f131c4"},"vehicle_type_id":"4","last_reported":1731787780,"current_range_meters":12000,"station_id":"ce4bhih2rcd13ifvqfr0","pricing_plan_id":"cebpf4jnsgd1na2vs0mg"},{"bike_id":"b1d2b91d-10c0-45d1-a30c-e939ce60c72b","system_id":"levelo_inurba_marseille","lat":43.32664,"lon":5.40988,"is_reserved":false,"is_disabled":false,"rental_uris":{"android":"levelo://app?vid=b1d2b91d-10c0-45d1-a30c-e939ce60c72b","ios":"levelo://app?vid=b1d2b91d-10c0-45d1-a30c-e939ce60c72b"},"vehicle_type_id":"4","last_reported":1731787780,"current_range_meters":12800,"station_id":"ce4bhpp2rcd13ifvqhgg","pricing_plan_id":"cebpf4jnsgd1na2vs0mg"},{"bike_id":"9f92a7ac-738d-40f9-93b9-933c1f0ff525","system_id":"levelo_inurba_marseille","lat":43.32369,"lon":5.38885,"is_reserved":false,"is_disabled":false,"rental_uris":{"android":"levelo://app?vid=9f92a7ac-738d-40f9-93b9-933c1f0ff525","ios":"levelo://app?vid=9f92a7ac-738d-40f9-93b9-933c1f0ff525"},"vehicle_type_id":"4","last_reported":1731787780,"current_range_meters":24000,"station_id":"ce4bhqp2rcd13ifvqhog","pricing_plan_id":"cebpf4jnsgd1na2vs0mg"},{"bike_id":"56341c58-9a2f-430f-b212-a007d32a1b98","system_id":"levelo_inurba_marseille","lat":43.304382,"lon":5.412976,"is_reserved":false,"is_disabled":false,"rental_uris":{"android":"levelo://app?vid=56341c58-9a2f-430f-b212-a007d32a1b98","ios":"levelo://app?vid=56341c58-9a2f-430f-b212-a007d32a1b98"},"vehicle_type_id":"4","last_reported":1731787780,"current_range_meters":31200,"station_id":"ce4bhop2rcd13ifvqh8g","pricing_plan_id":"cebpf4jnsgd1na2vs0mg"},{"bike_id":"987cbaf5-dd7d-441e-83fc-f347db3839b7","system_id":"levelo_inurba_marseille","lat":43.29776,"lon":5.393387,"is_reserved":false,"is_disabled":false,"rental_uris":{"android":"levelo://app?vid=987cbaf5-dd7d-441e-83fc-f347db3839b7","ios":"levelo://app?vid=987cbaf5-dd7d-441e-83fc-f347db3839b7"},"vehicle_type_id":"4","last_reported":1731787780,"current_range_meters":32000,"station_id":"chh1huq6cuj3fo74tm60","pricing_plan_id":"cebpf4jnsgd1na2vs0mg"},{"bike_id":"a06a46ac-98f8-4c59-8eaf-f414043da4f0","system_id":"levelo_inurba_marseille","lat":43.2941,"lon":5.38621,"is_reserved":false,"is_disabled":false,"rental_uris":{"android":"levelo://app?vid=a06a46ac-98f8-4c59-8eaf-f414043da4f0","ios":"levelo://app?vid=a06a46ac-98f8-4c59-8eaf-f414043da4f0"},"vehicle_type_id":"4","last_reported":1731787780,"current_range_meters":22800,"station_id":"ce4bh2h2rcd13ifvqdh0","pricing_plan_id":"cebpf4jnsgd1na2vs0mg"},{"bike_id":"15eaff80-5f21-4d58-8759-c993eda360b6","system_id":"levelo_inurba_marseille","lat":43.24164,"lon":5.36393,"is_reserved":false,"is_disabled":false,"rental_uris":{"android":"levelo://app?vid=15eaff80-5f21-4d58-8759-c993eda360b6","ios":"levelo://app?vid=15eaff80-5f21-4d58-8759-c993eda360b6"},"vehicle_type_id":"4","last_reported":1731787780,"current_range_meters":38800,"station_id":"cpo36qri1sfpv3e86is0","pricing_plan_id":"cebpf4jnsgd1na2vs0mg"},{"bike_id":"242eff9b-b2ea-436a-acb1-98921438cfc6","system_id":"levelo_inurba_marseille","lat":43.295258,"lon":5.385384,"is_reserved":false,"is_disabled":false,"rental_uris":{"android":"levelo://app?vid=242eff9b-b2ea-436a-acb1-98921438cfc6","ios":"levelo://app?vid=242eff9b-b2ea-436a-acb1-98921438cfc6"},"vehicle_type_id":"4","last_reported":1731787780,"current_range_meters":15200,"station_id":"ce4bgih2rcd13ifvqba0","pricing_plan_id":"cebpf4jnsgd1na2vs0mg"},{"bike_id":"3e8906c4-c03b-4239-a746-758e1d0ea07a","system_id":"levelo_inurba_marseille","lat":43.2799,"lon":5.41658,"is_reserved":false,"is_disabled":false,"rental_uris":{"android":"levelo://app?vid=3e8906c4-c03b-4239-a746-758e1d0ea07a","ios":"levelo://app?vid=3e8906c4-c03b-4239-a746-758e1d0ea07a"},"vehicle_type_id":"4","last_reported":1731787780,"current_range_meters":30000,"station_id":"ce4bho12rcd13ifvqh1g","pricing_plan_id":"cebpf4jnsgd1na2vs0mg"},{"bike_id":"d54f2dfa-2ad2-469a-8720-163ef98eb87d","system_id":"levelo_inurba_marseille","lat":43.25093,"lon":5.39514,"is_reserved":false,"is_disabled":false,"rental_uris":{"android":"levelo://app?vid=d54f2dfa-2ad2-469a-8720-163ef98eb87d","ios":"levelo://app?vid=d54f2dfa-2ad2-469a-8720-163ef98eb87d"},"vehicle_type_id":"4","last_reported":1731787780,"current_range_meters":22400,"station_id":"ce4bhm12rcd13ifvqgkg","pricing_plan_id":"cebpf4jnsgd1na2vs0mg"},{"bike_id":"e978da7b-cc25-44fb-b605-9e3e07bfd294","system_id":"levelo_inurba_marseille","lat":43.30934,"lon":5.40139,"is_reserved":false,"is_disabled":false,"rental_uris":{"android":"levelo://app?vid=e978da7b-cc25-44fb-b605-9e3e07bfd294","ios":"levelo://app?vid=e978da7b-cc25-44fb-b605-9e3e07bfd294"},"vehicle_type_id":"4","last_reported":1731787780,"current_range_meters":33600,"station_id":"ce4bgvp2rcd13ifvqct0","pricing_plan_id":"cebpf4jnsgd1na2vs0mg"},{"bike_id":"e4711488-da99-4589-b4df-09632ce086f3","system_id":"levelo_inurba_marseille","lat":43.29523,"lon":5.38538,"is_reserved":false,"is_disabled":false,"rental_uris":{"android":"levelo://app?vid=e4711488-da99-4589-b4df-09632ce086f3","ios":"levelo://app?vid=e4711488-da99-4589-b4df-09632ce086f3"},"vehicle_type_id":"4","last_reported":1731787780,"current_range_meters":24400,"station_id":"ce4bgih2rcd13ifvqba0","pricing_plan_id":"cebpf4jnsgd1na2vs0mg"},{"bike_id":"6d757fef-4f26-43f9-ac2c-ffab39bf7dae","system_id":"levelo_inurba_marseille","lat":43.32249,"lon":5.36901,"is_reserved":false,"is_disabled":false,"rental_uris":{"android":"levelo://app?vid=6d757fef-4f26-43f9-ac2c-ffab39bf7dae","ios":"levelo://app?vid=6d757fef-4f26-43f9-ac2c-ffab39bf7dae"},"vehicle_type_id":"4","last_reported":1731787780,"current_range_meters":18000,"station_id":"","pricing_plan_id":"cebpf4jnsgd1na2vs0mg"},{"bike_id":"10e8770a-7e7c-48f0-8bdc-b5f989237eaa","system_id":"levelo_inurba_marseille","lat":43.29546,"lon":5.42286,"is_reserved":false,"is_disabled":false,"rental_uris":{"android":"levelo://app?vid=10e8770a-7e7c-48f0-8bdc-b5f989237eaa","ios":"levelo://app?vid=10e8770a-7e7c-48f0-8bdc-b5f989237eaa"},"vehicle_type_id":"4","last_reported":1731787780,"current_range_meters":39200,"station_id":"ce4bhph2rcd13ifvqhdg","pricing_plan_id":"cebpf4jnsgd1na2vs0mg"},{"bike_id":"63d70b2c-d5c8-43c8-bc41-ffa1ecde2154","system_id":"levelo_inurba_marseille","lat":43.30141,"lon":5.37431,"is_reserved":false,"is_disabled":false,"rental_uris":{"android":"levelo://app?vid=63d70b2c-d5c8-43c8-bc41-ffa1ecde2154","ios":"levelo://app?vid=63d70b2c-d5c8-43c8-bc41-ffa1ecde2154"},"vehicle_type_id":"4","last_reported":1731787780,"current_range_meters":14800,"station_id":"ce4bgs92rcd13ifvqcc0","pricing_plan_id":"cebpf4jnsgd1na2vs0mg"},{"bike_id":"3d59af29-0816-4a61-ba2e-a70b24cfa8c4","system_id":"levelo_inurba_marseille","lat":43.30539,"lon":5.38432,"is_reserved":false,"is_disabled":false,"rental_uris":{"android":"levelo://app?vid=3d59af29-0816-4a61-ba2e-a70b24cfa8c4","ios":"levelo://app?vid=3d59af29-0816-4a61-ba2e-a70b24cfa8c4"},"vehicle_type_id":"4","last_reported":1731787780,"current_range_meters":38400,"station_id":"ce4bgg92rcd13ifvqb30","pricing_plan_id":"cebpf4jnsgd1na2vs0mg"},{"bike_id":"f9ad07dd-9750-49b0-b9f2-a72d17cceaeb","system_id":"levelo_inurba_marseille","lat":43.296997,"lon":5.366049,"is_reserved":false,"is_disabled":false,"rental_uris":{"android":"levelo://app?vid=f9ad07dd-9750-49b0-b9f2-a72d17cceaeb","ios":"levelo://app?vid=f9ad07dd-9750-49b0-b9f2-a72d17cceaeb"},"vehicle_type_id":"4","last_reported":1731787780,"current_range_meters":5600,"station_id":"ce4bgn12rcd13ifvqbt0","pricing_plan_id":"cebpf4jnsgd1na2vs0mg"},{"bike_id":"3cb028b2-e9b4-4b5d-869e-e3723400af16","system_id":"levelo_inurba_marseille","lat":43.33024,"lon":5.39042,"is_reserved":false,"is_disabled":false,"rental_uris":{"android":"levelo://app?vid=3cb028b2-e9b4-4b5d-869e-e3723400af16","ios":"levelo://app?vid=3cb028b2-e9b4-4b5d-869e-e3723400af16"},"vehicle_type_id":"4","last_reported":1731787780,"current_range_meters":36400,"station_id":"ce4bhr92rcd13ifvqhrg","pricing_plan_id":"cebpf4jnsgd1na2vs0mg"},{"bike_id":"10a6ea39-c67d-4fed-a4ea-82c0674608e2","system_id":"levelo_inurba_marseille","lat":43.28887,"lon":5.39448,"is_reserved":false,"is_disabled":false,"rental_uris":{"android":"levelo://app?vid=10a6ea39-c67d-4fed-a4ea-82c0674608e2","ios":"levelo://app?vid=10a6ea39-c67d-4fed-a4ea-82c0674608e2"},"vehicle_type_id":"4","last_reported":1731787780,"current_range_meters":7200,"station_id":"ce4bh2p2rcd13ifvqdi0","pricing_plan_id":"cebpf4jnsgd1na2vs0mg"},{"bike_id":"4bec7e71-b837-43ea-8202-2f5d7ec3f785","system_id":"levelo_inurba_marseille","lat":43.30281,"lon":5.37692,"is_reserved":false,"is_disabled":false,"rental_uris":{"android":"levelo://app?vid=4bec7e71-b837-43ea-8202-2f5d7ec3f785","ios":"levelo://app?vid=4bec7e71-b837-43ea-8202-2f5d7ec3f785"},"vehicle_type_id":"4","last_reported":1731787780,"current_range_meters":3200,"station_id":"ce4bguh2rcd13ifvqcj0","pricing_plan_id":"cebpf4jnsgd1na2vs0mg"},{"bike_id":"8a485606-2884-4480-b7ef-6988528b4cd6","system_id":"levelo_inurba_marseille","lat":43.30497,"lon":5.38094,"is_reserved":false,"is_disabled":false,"rental_uris":{"android":"levelo://app?vid=8a485606-2884-4480-b7ef-6988528b4cd6","ios":"levelo://app?vid=8a485606-2884-4480-b7ef-6988528b4cd6"},"vehicle_type_id":"4","last_reported":1731787780,"current_range_meters":18800,"station_id":"","pricing_plan_id":"cebpf4jnsgd1na2vs0mg"},{"bike_id":"70ff96ef-fafa-49a6-862c-b638d323f648","system_id":"levelo_inurba_marseille","lat":43.3136,"lon":5.38491,"is_reserved":false,"is_disabled":false,"rental_uris":{"android":"levelo://app?vid=70ff96ef-fafa-49a6-862c-b638d323f648","ios":"levelo://app?vid=70ff96ef-fafa-49a6-862c-b638d323f648"},"vehicle_type_id":"4","last_reported":1731787780,"current_range_meters":27200,"station_id":"ce4bgt92rcd13ifvqcf0","pricing_plan_id":"cebpf4jnsgd1na2vs0mg"},{"bike_id":"a4e8e96c-867e-4521-9861-087b3f6c78bd","system_id":"levelo_inurba_marseille","lat":43.24999,"lon":5.38916,"is_reserved":false,"is_disabled":false,"rental_uris":{"android":"levelo://app?vid=a4e8e96c-867e-4521-9861-087b3f6c78bd","ios":"levelo://app?vid=a4e8e96c-867e-4521-9861-087b3f6c78bd"},"vehicle_type_id":"4","last_reported":1731787780,"current_range_meters":40000,"station_id":"ce4bhgp2rcd13ifvqfd0","pricing_plan_id":"cebpf4jnsgd1na2vs0mg"},{"bike_id":"1ece79d9-7ffd-41b5-a656-cdbcd837990c","system_id":"levelo_inurba_marseille","lat":43.32104,"lon":5.36771,"is_reserved":false,"is_disabled":false,"rental_uris":{"android":"levelo://app?vid=1ece79d9-7ffd-41b5-a656-cdbcd837990c","ios":"levelo://app?vid=1ece79d9-7ffd-41b5-a656-cdbcd837990c"},"vehicle_type_id":"4","last_reported":1731787780,"current_range_meters":14000,"station_id":"ce4bhrh2rcd13ifvqhug","pricing_plan_id":"cebpf4jnsgd1na2vs0mg"},{"bike_id":"34086fed-aa86-4e74-a4e7-9fb1ff2b340d","system_id":"levelo_inurba_marseille","lat":43.27178,"lon":5.40991,"is_reserved":false,"is_disabled":false,"rental_uris":{"android":"levelo://app?vid=34086fed-aa86-4e74-a4e7-9fb1ff2b340d","ios":"levelo://app?vid=34086fed-aa86-4e74-a4e7-9fb1ff2b340d"},"vehicle_type_id":"4","last_reported":1731787780,"current_range_meters":38400,"station_id":"ce4bhl12rcd13ifvqgf0","pricing_plan_id":"cebpf4jnsgd1na2vs0mg"},{"bike_id":"dc58004f-8190-4e9e-95d8-5cee824b156b","system_id":"levelo_inurba_marseille","lat":43.2466,"lon":5.38164,"is_reserved":false,"is_disabled":false,"rental_uris":{"android":"levelo://app?vid=dc58004f-8190-4e9e-95d8-5cee824b156b","ios":"levelo://app?vid=dc58004f-8190-4e9e-95d8-5cee824b156b"},"vehicle_type_id":"4","last_reported":1731787780,"current_range_meters":4800,"station_id":"ce4bhih2rcd13ifvqfr0","pricing_plan_id":"cebpf4jnsgd1na2vs0mg"},{"bike_id":"0d042599-3527-435a-bcf8-9d44f1e05fb9","system_id":"levelo_inurba_marseille","lat":43.29416,"lon":5.38626,"is_reserved":false,"is_disabled":false,"rental_uris":{"android":"levelo://app?vid=0d042599-3527-435a-bcf8-9d44f1e05fb9","ios":"levelo://app?vid=0d042599-3527-435a-bcf8-9d44f1e05fb9"},"vehicle_type_id":"4","last_reported":1731787780,"current_range_meters":17200,"station_id":"ce4bh2h2rcd13ifvqdh0","pricing_plan_id":"cebpf4jnsgd1na2vs0mg"},{"bike_id":"9b99e18b-1cfb-49eb-9130-93a7c80e7907","system_id":"levelo_inurba_marseille","lat":43.24998,"lon":5.38925,"is_reserved":false,"is_disabled":false,"rental_uris":{"android":"levelo://app?vid=9b99e18b-1cfb-49eb-9130-93a7c80e7907","ios":"levelo://app?vid=9b99e18b-1cfb-49eb-9130-93a7c80e7907"},"vehicle_type_id":"4","last_reported":1731787780,"current_range_meters":38400,"station_id":"ce4bhgp2rcd13ifvqfd0","pricing_plan_id":"cebpf4jnsgd1na2vs0mg"},{"bike_id":"ce42cd89-cc14-46b1-847f-4ecb4702405b","system_id":"levelo_inurba_marseille","lat":43.29069,"lon":5.38097,"is_reserved":false,"is_disabled":false,"rental_uris":{"android":"levelo://app?vid=ce42cd89-cc14-46b1-847f-4ecb4702405b","ios":"levelo://app?vid=ce42cd89-cc14-46b1-847f-4ecb4702405b"},"vehicle_type_id":"4","last_reported":1731787780,"current_range_meters":24800,"station_id":"ce4bh4p2rcd13ifvqe1g","pricing_plan_id":"cebpf4jnsgd1na2vs0mg"},{"bike_id":"b20a824e-9ff1-4c0a-a1fa-10c22ce66c32","system_id":"levelo_inurba_marseille","lat":43.29553,"lon":5.37514,"is_reserved":false,"is_disabled":false,"rental_uris":{"android":"levelo://app?vid=b20a824e-9ff1-4c0a-a1fa-10c22ce66c32","ios":"levelo://app?vid=b20a824e-9ff1-4c0a-a1fa-10c22ce66c32"},"vehicle_type_id":"4","last_reported":1731787780,"current_range_meters":34800,"station_id":"ce4bgh92rcd13ifvqb50","pricing_plan_id":"cebpf4jnsgd1na2vs0mg"},{"bike_id":"d4cf1962-c4fc-4987-82ad-e066e34a5012","system_id":"levelo_inurba_marseille","lat":43.34148,"lon":5.4091,"is_reserved":false,"is_disabled":false,"rental_uris":{"android":"levelo://app?vid=d4cf1962-c4fc-4987-82ad-e066e34a5012","ios":"levelo://app?vid=d4cf1962-c4fc-4987-82ad-e066e34a5012"},"vehicle_type_id":"4","last_reported":1731787780,"current_range_meters":32800,"station_id":"ce4bhqh2rcd13ifvqhlg","pricing_plan_id":"cebpf4jnsgd1na2vs0mg"},{"bike_id":"0876f4fa-3b80-4ef8-a397-bcdc65be4124","system_id":"levelo_inurba_marseille","lat":43.29888,"lon":5.43659,"is_reserved":false,"is_disabled":false,"rental_uris":{"android":"levelo://app?vid=0876f4fa-3b80-4ef8-a397-bcdc65be4124","ios":"levelo://app?vid=0876f4fa-3b80-4ef8-a397-bcdc65be4124"},"vehicle_type_id":"4","last_reported":1731787780,"current_range_meters":36800,"station_id":"ce4bhpp2rcd13ifvqhfg","pricing_plan_id":"cebpf4jnsgd1na2vs0mg"},{"bike_id":"55de28cf-e37c-4724-b81f-8a648780c5b9","system_id":"levelo_inurba_marseille","lat":43.23194,"lon":5.35549,"is_reserved":false,"is_disabled":false,"rental_uris":{"android":"levelo://app?vid=55de28cf-e37c-4724-b81f-8a648780c5b9","ios":"levelo://app?vid=55de28cf-e37c-4724-b81f-8a648780c5b9"},"vehicle_type_id":"4","last_reported":1731787780,"current_range_meters":38000,"station_id":"ce4bhu92rcd13ifvqi70","pricing_plan_id":"cebpf4jnsgd1na2vs0mg"},{"bike_id":"a33109f6-7f1a-4287-b412-3887b2b58e2e","system_id":"levelo_inurba_marseille","lat":43.29019,"lon":5.38651,"is_reserved":false,"is_disabled":false,"rental_uris":{"android":"levelo://app?vid=a33109f6-7f1a-4287-b412-3887b2b58e2e","ios":"levelo://app?vid=a33109f6-7f1a-4287-b412-3887b2b58e2e"},"vehicle_type_id":"4","last_reported":1731787780,"current_range_meters":6400,"station_id":"ce4bh4p2rcd13ifvqe0g","pricing_plan_id":"cebpf4jnsgd1na2vs0mg"},{"bike_id":"e718e0ef-24d7-4dd2-a60f-a77f7e893159","system_id":"levelo_inurba_marseille","lat":43.28368,"lon":5.38644,"is_reserved":false,"is_disabled":false,"rental_uris":{"android":"levelo://app?vid=e718e0ef-24d7-4dd2-a60f-a77f7e893159","ios":"levelo://app?vid=e718e0ef-24d7-4dd2-a60f-a77f7e893159"},"vehicle_type_id":"4","last_reported":1731787780,"current_range_meters":3600,"station_id":"ce4bh492rcd13ifvqdvg","pricing_plan_id":"cebpf4jnsgd1na2vs0mg"},{"bike_id":"db2bc763-f0ed-4e06-8355-04d58ba22b63","system_id":"levelo_inurba_marseille","lat":43.31116,"lon":5.37769,"is_reserved":false,"is_disabled":false,"rental_uris":{"android":"levelo://app?vid=db2bc763-f0ed-4e06-8355-04d58ba22b63","ios":"levelo://app?vid=db2bc763-f0ed-4e06-8355-04d58ba22b63"},"vehicle_type_id":"4","last_reported":1731787780,"current_range_meters":16800,"station_id":"ce4bgt92rcd13ifvqcg0","pricing_plan_id":"cebpf4jnsgd1na2vs0mg"},{"bike_id":"133f3a87-36ff-404d-9b85-1bb19bc112b7","system_id":"levelo_inurba_marseille","lat":43.29557,"lon":5.42301,"is_reserved":false,"is_disabled":false,"rental_uris":{"android":"levelo://app?vid=133f3a87-36ff-404d-9b85-1bb19bc112b7","ios":"levelo://app?vid=133f3a87-36ff-404d-9b85-1bb19bc112b7"},"vehicle_type_id":"4","last_reported":1731787780,"current_range_meters":9600,"station_id":"ce4bhph2rcd13ifvqhdg","pricing_plan_id":"cebpf4jnsgd1na2vs0mg"},{"bike_id":"54793368-84e6-4c2f-92d0-56c6e91d976b","system_id":"levelo_inurba_marseille","lat":43.30935,"lon":5.40141,"is_reserved":false,"is_disabled":false,"rental_uris":{"android":"levelo://app?vid=54793368-84e6-4c2f-92d0-56c6e91d976b","ios":"levelo://app?vid=54793368-84e6-4c2f-92d0-56c6e91d976b"},"vehicle_type_id":"4","last_reported":1731787780,"current_range_meters":10000,"station_id":"ce4bgvp2rcd13ifvqct0","pricing_plan_id":"cebpf4jnsgd1na2vs0mg"},{"bike_id":"aaaf8aae-53a7-46f2-bc5a-7b42ea1053b6","system_id":"levelo_inurba_marseille","lat":43.27815,"lon":5.40712,"is_reserved":false,"is_disabled":false,"rental_uris":{"android":"levelo://app?vid=aaaf8aae-53a7-46f2-bc5a-7b42ea1053b6","ios":"levelo://app?vid=aaaf8aae-53a7-46f2-bc5a-7b42ea1053b6"},"vehicle_type_id":"4","last_reported":1731787780,"current_range_meters":30000,"station_id":"ce4bhnh2rcd13ifvqgtg","pricing_plan_id":"cebpf4jnsgd1na2vs0mg"},{"bike_id":"2435da41-d74a-416b-a90b-a1cf3e7dcb5f","system_id":"levelo_inurba_marseille","lat":43.27988,"lon":5.41658,"is_reserved":false,"is_disabled":false,"rental_uris":{"android":"levelo://app?vid=2435da41-d74a-416b-a90b-a1cf3e7dcb5f","ios":"levelo://app?vid=2435da41-d74a-416b-a90b-a1cf3e7dcb5f"},"vehicle_type_id":"4","last_reported":1731787780,"current_range_meters":8400,"station_id":"ce4bho12rcd13ifvqh1g","pricing_plan_id":"cebpf4jnsgd1na2vs0mg"},{"bike_id":"f3fe112d-bf29-4621-a795-f193f2d2276c","system_id":"levelo_inurba_marseille","lat":43.24658,"lon":5.38166,"is_reserved":false,"is_disabled":false,"rental_uris":{"android":"levelo://app?vid=f3fe112d-bf29-4621-a795-f193f2d2276c","ios":"levelo://app?vid=f3fe112d-bf29-4621-a795-f193f2d2276c"},"vehicle_type_id":"4","last_reported":1731787780,"current_range_meters":20000,"station_id":"ce4bhih2rcd13ifvqfr0","pricing_plan_id":"cebpf4jnsgd1na2vs0mg"},{"bike_id":"c2a32e84-7a8f-4d02-8dd1-4ba635a41ffa","system_id":"levelo_inurba_marseille","lat":43.30278,"lon":5.37706,"is_reserved":false,"is_disabled":false,"rental_uris":{"android":"levelo://app?vid=c2a32e84-7a8f-4d02-8dd1-4ba635a41ffa","ios":"levelo://app?vid=c2a32e84-7a8f-4d02-8dd1-4ba635a41ffa"},"vehicle_type_id":"4","last_reported":1731787780,"current_range_meters":20000,"station_id":"ce4bguh2rcd13ifvqcj0","pricing_plan_id":"cebpf4jnsgd1na2vs0mg"},{"bike_id":"eb9a84f5-6092-4dc4-a3c0-a07efb437c77","system_id":"levelo_inurba_marseille","lat":43.337675,"lon":5.374398,"is_reserved":false,"is_disabled":false,"rental_uris":{"android":"levelo://app?vid=eb9a84f5-6092-4dc4-a3c0-a07efb437c77","ios":"levelo://app?vid=eb9a84f5-6092-4dc4-a3c0-a07efb437c77"},"vehicle_type_id":"4","last_reported":1731787780,"current_range_meters":8800,"station_id":"","pricing_plan_id":"cebpf4jnsgd1na2vs0mg"},{"bike_id":"1765268a-82de-4429-88fa-129dcab3cb43","system_id":"levelo_inurba_marseille","lat":43.29417,"lon":5.38617,"is_reserved":false,"is_disabled":false,"rental_uris":{"android":"levelo://app?vid=1765268a-82de-4429-88fa-129dcab3cb43","ios":"levelo://app?vid=1765268a-82de-4429-88fa-129dcab3cb43"},"vehicle_type_id":"4","last_reported":1731787780,"current_range_meters":29600,"station_id":"ce4bh2h2rcd13ifvqdh0","pricing_plan_id":"cebpf4jnsgd1na2vs0mg"},{"bike_id":"22ea48db-755d-43c3-a7d2-0beff01815d8","system_id":"levelo_inurba_marseille","lat":43.33772,"lon":5.37445,"is_reserved":false,"is_disabled":false,"rental_uris":{"android":"levelo://app?vid=22ea48db-755d-43c3-a7d2-0beff01815d8","ios":"levelo://app?vid=22ea48db-755d-43c3-a7d2-0beff01815d8"},"vehicle_type_id":"4","last_reported":1731787780,"current_range_meters":11200,"station_id":"","pricing_plan_id":"cebpf4jnsgd1na2vs0mg"},{"bike_id":"6037fd09-c259-49b4-ae09-4ddd6923e7d0","system_id":"levelo_inurba_marseille","lat":43.33726,"lon":5.39181,"is_reserved":false,"is_disabled":false,"rental_uris":{"android":"levelo://app?vid=6037fd09-c259-49b4-ae09-4ddd6923e7d0","ios":"levelo://app?vid=6037fd09-c259-49b4-ae09-4ddd6923e7d0"},"vehicle_type_id":"4","last_reported":1731787780,"current_range_meters":10800,"station_id":"ce4bhr92rcd13ifvqhsg","pricing_plan_id":"cebpf4jnsgd1na2vs0mg"},{"bike_id":"a1862017-f597-4949-a306-4d7c53cc8b86","system_id":"levelo_inurba_marseille","lat":43.24169,"lon":5.364,"is_reserved":false,"is_disabled":false,"rental_uris":{"android":"levelo://app?vid=a1862017-f597-4949-a306-4d7c53cc8b86","ios":"levelo://app?vid=a1862017-f597-4949-a306-4d7c53cc8b86"},"vehicle_type_id":"4","last_reported":1731787780,"current_range_meters":11600,"station_id":"cpo36qri1sfpv3e86is0","pricing_plan_id":"cebpf4jnsgd1na2vs0mg"},{"bike_id":"93d2376b-d24b-4c4a-bf7c-d9d7da5c25f0","system_id":"levelo_inurba_marseille","lat":43.23055,"lon":5.35493,"is_reserved":false,"is_disabled":false,"rental_uris":{"android":"levelo://app?vid=93d2376b-d24b-4c4a-bf7c-d9d7da5c25f0","ios":"levelo://app?vid=93d2376b-d24b-4c4a-bf7c-d9d7da5c25f0"},"vehicle_type_id":"4","last_reported":1731787780,"current_range_meters":15200,"station_id":"cpo3342slgdg3j2ifvpg","pricing_plan_id":"cebpf4jnsgd1na2vs0mg"},{"bike_id":"a6d9a551-0bd3-48fd-83a5-8659df18378e","system_id":"levelo_inurba_marseille","lat":43.29198,"lon":5.35801,"is_reserved":false,"is_disabled":false,"rental_uris":{"android":"levelo://app?vid=a6d9a551-0bd3-48fd-83a5-8659df18378e","ios":"levelo://app?vid=a6d9a551-0bd3-48fd-83a5-8659df18378e"},"vehicle_type_id":"4","last_reported":1731787780,"current_range_meters":32000,"station_id":"ce4bhb12rcd13ifvqel0","pricing_plan_id":"cebpf4jnsgd1na2vs0mg"},{"bike_id":"eb0b6258-25b5-4174-825d-16bccd206154","system_id":"levelo_inurba_marseille","lat":43.33029,"lon":5.39045,"is_reserved":false,"is_disabled":false,"rental_uris":{"android":"levelo://app?vid=eb0b6258-25b5-4174-825d-16bccd206154","ios":"levelo://app?vid=eb0b6258-25b5-4174-825d-16bccd206154"},"vehicle_type_id":"4","last_reported":1731787780,"current_range_meters":8400,"station_id":"ce4bhr92rcd13ifvqhrg","pricing_plan_id":"cebpf4jnsgd1na2vs0mg"},{"bike_id":"ca655f3b-8380-4045-b3f8-8acaa0e83ede","system_id":"levelo_inurba_marseille","lat":43.33739,"lon":5.37423,"is_reserved":false,"is_disabled":false,"rental_uris":{"android":"levelo://app?vid=ca655f3b-8380-4045-b3f8-8acaa0e83ede","ios":"levelo://app?vid=ca655f3b-8380-4045-b3f8-8acaa0e83ede"},"vehicle_type_id":"4","last_reported":1731787780,"current_range_meters":36000,"station_id":"","pricing_plan_id":"cebpf4jnsgd1na2vs0mg"},{"bike_id":"5adc4e0e-cb00-406b-ba0f-c0d4fe05cd9c","system_id":"levelo_inurba_marseille","lat":43.30421,"lon":5.39745,"is_reserved":false,"is_disabled":false,"rental_uris":{"android":"levelo://app?vid=5adc4e0e-cb00-406b-ba0f-c0d4fe05cd9c","ios":"levelo://app?vid=5adc4e0e-cb00-406b-ba0f-c0d4fe05cd9c"},"vehicle_type_id":"4","last_reported":1731787780,"current_range_meters":15200,"station_id":"ce4bh092rcd13ifvqd20","pricing_plan_id":"cebpf4jnsgd1na2vs0mg"},{"bike_id":"3bec9701-1266-4cd8-9789-f238163e8695","system_id":"levelo_inurba_marseille","lat":43.32483,"lon":5.36566,"is_reserved":false,"is_disabled":false,"rental_uris":{"android":"levelo://app?vid=3bec9701-1266-4cd8-9789-f238163e8695","ios":"levelo://app?vid=3bec9701-1266-4cd8-9789-f238163e8695"},"vehicle_type_id":"4","last_reported":1731787780,"current_range_meters":38800,"station_id":"ce4bhs12rcd13ifvqhvg","pricing_plan_id":"cebpf4jnsgd1na2vs0mg"},{"bike_id":"a6b8c285-acc9-4039-9531-1aae39136a33","system_id":"levelo_inurba_marseille","lat":43.312042,"lon":5.367348,"is_reserved":false,"is_disabled":false,"rental_uris":{"android":"levelo://app?vid=a6b8c285-acc9-4039-9531-1aae39136a33","ios":"levelo://app?vid=a6b8c285-acc9-4039-9531-1aae39136a33"},"vehicle_type_id":"4","last_reported":1731787780,"current_range_meters":13600,"station_id":"","pricing_plan_id":"cebpf4jnsgd1na2vs0mg"},{"bike_id":"04e579be-d930-46e5-bb29-40fdc45896e1","system_id":"levelo_inurba_marseille","lat":43.32651,"lon":5.36204,"is_reserved":false,"is_disabled":false,"rental_uris":{"android":"levelo://app?vid=04e579be-d930-46e5-bb29-40fdc45896e1","ios":"levelo://app?vid=04e579be-d930-46e5-bb29-40fdc45896e1"},"vehicle_type_id":"4","last_reported":1731787780,"current_range_meters":8400,"station_id":"","pricing_plan_id":"cebpf4jnsgd1na2vs0mg"},{"bike_id":"9bcfed07-c3a6-4c68-8e2e-1c76df283863","system_id":"levelo_inurba_marseille","lat":43.24811,"lon":5.37455,"is_reserved":false,"is_disabled":false,"rental_uris":{"android":"levelo://app?vid=9bcfed07-c3a6-4c68-8e2e-1c76df283863","ios":"levelo://app?vid=9bcfed07-c3a6-4c68-8e2e-1c76df283863"},"vehicle_type_id":"4","last_reported":1731787780,"current_range_meters":28400,"station_id":"ce4bhgh2rcd13ifvqfb0","pricing_plan_id":"cebpf4jnsgd1na2vs0mg"},{"bike_id":"5c254126-8805-4ed8-9520-9f63561143b3","system_id":"levelo_inurba_marseille","lat":43.24167,"lon":5.36401,"is_reserved":false,"is_disabled":false,"rental_uris":{"android":"levelo://app?vid=5c254126-8805-4ed8-9520-9f63561143b3","ios":"levelo://app?vid=5c254126-8805-4ed8-9520-9f63561143b3"},"vehicle_type_id":"4","last_reported":1731787780,"current_range_meters":19600,"station_id":"cpo36qri1sfpv3e86is0","pricing_plan_id":"cebpf4jnsgd1na2vs0mg"},{"bike_id":"61394f3e-bc5d-4465-b6dc-ba501ace335b","system_id":"levelo_inurba_marseille","lat":43.24799,"lon":5.37444,"is_reserved":false,"is_disabled":false,"rental_uris":{"android":"levelo://app?vid=61394f3e-bc5d-4465-b6dc-ba501ace335b","ios":"levelo://app?vid=61394f3e-bc5d-4465-b6dc-ba501ace335b"},"vehicle_type_id":"4","last_reported":1731787780,"current_range_meters":38800,"station_id":"ce4bhgh2rcd13ifvqfb0","pricing_plan_id":"cebpf4jnsgd1na2vs0mg"},{"bike_id":"9c96802b-0a6d-4700-ae8a-f9cac85739ba","system_id":"levelo_inurba_marseille","lat":43.26567,"lon":5.39015,"is_reserved":false,"is_disabled":false,"rental_uris":{"android":"levelo://app?vid=9c96802b-0a6d-4700-ae8a-f9cac85739ba","ios":"levelo://app?vid=9c96802b-0a6d-4700-ae8a-f9cac85739ba"},"vehicle_type_id":"4","last_reported":1731787780,"current_range_meters":27600,"station_id":"ce4bhe12rcd13ifvqf30","pricing_plan_id":"cebpf4jnsgd1na2vs0mg"},{"bike_id":"d5d3b510-384c-4f58-aed6-5e1217a5c940","system_id":"levelo_inurba_marseille","lat":43.299438,"lon":5.372747,"is_reserved":false,"is_disabled":false,"rental_uris":{"android":"levelo://app?vid=d5d3b510-384c-4f58-aed6-5e1217a5c940","ios":"levelo://app?vid=d5d3b510-384c-4f58-aed6-5e1217a5c940"},"vehicle_type_id":"4","last_reported":1731787780,"current_range_meters":37600,"station_id":"ce4bgr92rcd13ifvqc7g","pricing_plan_id":"cebpf4jnsgd1na2vs0mg"},{"bike_id":"a4202271-f2ec-4707-b6c1-348d5bba0ebb","system_id":"levelo_inurba_marseille","lat":43.297177,"lon":5.365958,"is_reserved":false,"is_disabled":false,"rental_uris":{"android":"levelo://app?vid=a4202271-f2ec-4707-b6c1-348d5bba0ebb","ios":"levelo://app?vid=a4202271-f2ec-4707-b6c1-348d5bba0ebb"},"vehicle_type_id":"4","last_reported":1731787780,"current_range_meters":24000,"station_id":"ce4bgn12rcd13ifvqbt0","pricing_plan_id":"cebpf4jnsgd1na2vs0mg"},{"bike_id":"1f9d18bf-f8cf-4d46-b600-6e94ef100f59","system_id":"levelo_inurba_marseille","lat":43.293731,"lon":5.38541,"is_reserved":false,"is_disabled":false,"rental_uris":{"android":"levelo://app?vid=1f9d18bf-f8cf-4d46-b600-6e94ef100f59","ios":"levelo://app?vid=1f9d18bf-f8cf-4d46-b600-6e94ef100f59"},"vehicle_type_id":"4","last_reported":1731787780,"current_range_meters":25600,"station_id":"ce4bhf92rcd13ifvqf50","pricing_plan_id":"cebpf4jnsgd1na2vs0mg"},{"bike_id":"776c19bb-9271-4d1b-b450-71b28ade05f5","system_id":"levelo_inurba_marseille","lat":43.23196,"lon":5.3555,"is_reserved":false,"is_disabled":false,"rental_uris":{"android":"levelo://app?vid=776c19bb-9271-4d1b-b450-71b28ade05f5","ios":"levelo://app?vid=776c19bb-9271-4d1b-b450-71b28ade05f5"},"vehicle_type_id":"4","last_reported":1731787780,"current_range_meters":38000,"station_id":"ce4bhu92rcd13ifvqi70","pricing_plan_id":"cebpf4jnsgd1na2vs0mg"},{"bike_id":"3731846e-2218-45f1-ac96-76a41185ff9d","system_id":"levelo_inurba_marseille","lat":43.24171,"lon":5.36405,"is_reserved":false,"is_disabled":false,"rental_uris":{"android":"levelo://app?vid=3731846e-2218-45f1-ac96-76a41185ff9d","ios":"levelo://app?vid=3731846e-2218-45f1-ac96-76a41185ff9d"},"vehicle_type_id":"4","last_reported":1731787780,"current_range_meters":38800,"station_id":"cpo36qri1sfpv3e86is0","pricing_plan_id":"cebpf4jnsgd1na2vs0mg"},{"bike_id":"76f4890c-957d-48ca-a3e0-c7a9a9d95cd2","system_id":"levelo_inurba_marseille","lat":43.31975,"lon":5.38139,"is_reserved":false,"is_disabled":false,"rental_uris":{"android":"levelo://app?vid=76f4890c-957d-48ca-a3e0-c7a9a9d95cd2","ios":"levelo://app?vid=76f4890c-957d-48ca-a3e0-c7a9a9d95cd2"},"vehicle_type_id":"4","last_reported":1731787780,"current_range_meters":32400,"station_id":"ce4bhr12rcd13ifvqhpg","pricing_plan_id":"cebpf4jnsgd1na2vs0mg"},{"bike_id":"b497c4c1-47c5-46df-89b4-3a0f01d4aeca","system_id":"levelo_inurba_marseille","lat":43.321125,"lon":5.367793,"is_reserved":false,"is_disabled":false,"rental_uris":{"android":"levelo://app?vid=b497c4c1-47c5-46df-89b4-3a0f01d4aeca","ios":"levelo://app?vid=b497c4c1-47c5-46df-89b4-3a0f01d4aeca"},"vehicle_type_id":"4","last_reported":1731787780,"current_range_meters":27600,"station_id":"ce4bhrh2rcd13ifvqhug","pricing_plan_id":"cebpf4jnsgd1na2vs0mg"},{"bike_id":"92ac4858-87d6-4ceb-8f6e-004635a816a8","system_id":"levelo_inurba_marseille","lat":43.27783,"lon":5.40726,"is_reserved":false,"is_disabled":false,"rental_uris":{"android":"levelo://app?vid=92ac4858-87d6-4ceb-8f6e-004635a816a8","ios":"levelo://app?vid=92ac4858-87d6-4ceb-8f6e-004635a816a8"},"vehicle_type_id":"4","last_reported":1731787780,"current_range_meters":30000,"station_id":"ce4bhnh2rcd13ifvqgtg","pricing_plan_id":"cebpf4jnsgd1na2vs0mg"},{"bike_id":"c89dbcf3-b4e8-4df4-9f5b-f2594781909e","system_id":"levelo_inurba_marseille","lat":43.28107,"lon":5.37834,"is_reserved":false,"is_disabled":false,"rental_uris":{"android":"levelo://app?vid=c89dbcf3-b4e8-4df4-9f5b-f2594781909e","ios":"levelo://app?vid=c89dbcf3-b4e8-4df4-9f5b-f2594781909e"},"vehicle_type_id":"4","last_reported":1731787780,"current_range_meters":32800,"station_id":"ce4bha12rcd13ifvqee0","pricing_plan_id":"cebpf4jnsgd1na2vs0mg"},{"bike_id":"5837896b-5dca-4d49-b05e-cc1583710155","system_id":"levelo_inurba_marseille","lat":43.24994,"lon":5.38932,"is_reserved":false,"is_disabled":false,"rental_uris":{"android":"levelo://app?vid=5837896b-5dca-4d49-b05e-cc1583710155","ios":"levelo://app?vid=5837896b-5dca-4d49-b05e-cc1583710155"},"vehicle_type_id":"4","last_reported":1731787780,"current_range_meters":35200,"station_id":"ce4bhgp2rcd13ifvqfd0","pricing_plan_id":"cebpf4jnsgd1na2vs0mg"},{"bike_id":"6c6225f4-ea8d-486c-a451-198c5f028bbf","system_id":"levelo_inurba_marseille","lat":43.25722,"lon":5.41115,"is_reserved":false,"is_disabled":false,"rental_uris":{"android":"levelo://app?vid=6c6225f4-ea8d-486c-a451-198c5f028bbf","ios":"levelo://app?vid=6c6225f4-ea8d-486c-a451-198c5f028bbf"},"vehicle_type_id":"4","last_reported":1731787780,"current_range_meters":5600,"station_id":"ce4bhkp2rcd13ifvqgd0","pricing_plan_id":"cebpf4jnsgd1na2vs0mg"},{"bike_id":"4f072872-5e38-4a4b-9811-1d9e60a837c4","system_id":"levelo_inurba_marseille","lat":43.23072,"lon":5.35495,"is_reserved":false,"is_disabled":false,"rental_uris":{"android":"levelo://app?vid=4f072872-5e38-4a4b-9811-1d9e60a837c4","ios":"levelo://app?vid=4f072872-5e38-4a4b-9811-1d9e60a837c4"},"vehicle_type_id":"4","last_reported":1731787780,"current_range_meters":9600,"station_id":"cpo3342slgdg3j2ifvpg","pricing_plan_id":"cebpf4jnsgd1na2vs0mg"},{"bike_id":"63532acd-0e03-47a2-9de7-46e1913982b8","system_id":"levelo_inurba_marseille","lat":43.321075,"lon":5.367697,"is_reserved":false,"is_disabled":false,"rental_uris":{"android":"levelo://app?vid=63532acd-0e03-47a2-9de7-46e1913982b8","ios":"levelo://app?vid=63532acd-0e03-47a2-9de7-46e1913982b8"},"vehicle_type_id":"4","last_reported":1731787780,"current_range_meters":22400,"station_id":"ce4bhrh2rcd13ifvqhug","pricing_plan_id":"cebpf4jnsgd1na2vs0mg"},{"bike_id":"716deff2-644f-4891-837f-fd7c8996db74","system_id":"levelo_inurba_marseille","lat":43.31987,"lon":5.38129,"is_reserved":false,"is_disabled":false,"rental_uris":{"android":"levelo://app?vid=716deff2-644f-4891-837f-fd7c8996db74","ios":"levelo://app?vid=716deff2-644f-4891-837f-fd7c8996db74"},"vehicle_type_id":"4","last_reported":1731787780,"current_range_meters":20800,"station_id":"ce4bhr12rcd13ifvqhpg","pricing_plan_id":"cebpf4jnsgd1na2vs0mg"},{"bike_id":"322f86c8-7339-45f3-b7f7-76a1cb831db0","system_id":"levelo_inurba_marseille","lat":43.31712,"lon":5.37774,"is_reserved":false,"is_disabled":false,"rental_uris":{"android":"levelo://app?vid=322f86c8-7339-45f3-b7f7-76a1cb831db0","ios":"levelo://app?vid=322f86c8-7339-45f3-b7f7-76a1cb831db0"},"vehicle_type_id":"4","last_reported":1731787780,"current_range_meters":17600,"station_id":"ce4bgth2rcd13ifvqch0","pricing_plan_id":"cebpf4jnsgd1na2vs0mg"},{"bike_id":"e79c1d71-1ce6-4d60-8fff-1fc1acef8ee4","system_id":"levelo_inurba_marseille","lat":43.23959,"lon":5.36631,"is_reserved":false,"is_disabled":false,"rental_uris":{"android":"levelo://app?vid=e79c1d71-1ce6-4d60-8fff-1fc1acef8ee4","ios":"levelo://app?vid=e79c1d71-1ce6-4d60-8fff-1fc1acef8ee4"},"vehicle_type_id":"4","last_reported":1731787780,"current_range_meters":22400,"station_id":"ce4bhi12rcd13ifvqfp0","pricing_plan_id":"cebpf4jnsgd1na2vs0mg"},{"bike_id":"a84f5389-258d-4508-9c0f-32ee5d326b43","system_id":"levelo_inurba_marseille","lat":43.33767,"lon":5.37475,"is_reserved":false,"is_disabled":false,"rental_uris":{"android":"levelo://app?vid=a84f5389-258d-4508-9c0f-32ee5d326b43","ios":"levelo://app?vid=a84f5389-258d-4508-9c0f-32ee5d326b43"},"vehicle_type_id":"4","last_reported":1731787780,"current_range_meters":32800,"station_id":"","pricing_plan_id":"cebpf4jnsgd1na2vs0mg"},{"bike_id":"49a7b2b9-6b05-439e-976c-5f4f4cdb7366","system_id":"levelo_inurba_marseille","lat":43.302147,"lon":5.394599,"is_reserved":false,"is_disabled":false,"rental_uris":{"android":"levelo://app?vid=49a7b2b9-6b05-439e-976c-5f4f4cdb7366","ios":"levelo://app?vid=49a7b2b9-6b05-439e-976c-5f4f4cdb7366"},"vehicle_type_id":"4","last_reported":1731787780,"current_range_meters":35600,"station_id":"ce4bh0p2rcd13ifvqd70","pricing_plan_id":"cebpf4jnsgd1na2vs0mg"},{"bike_id":"43fe8bca-bb9f-4944-b0b7-b7681006a154","system_id":"levelo_inurba_marseille","lat":43.27668,"lon":5.38884,"is_reserved":false,"is_disabled":false,"rental_uris":{"android":"levelo://app?vid=43fe8bca-bb9f-4944-b0b7-b7681006a154","ios":"levelo://app?vid=43fe8bca-bb9f-4944-b0b7-b7681006a154"},"vehicle_type_id":"4","last_reported":1731787780,"current_range_meters":28800,"station_id":"ce4bhi12rcd13ifvqfo0","pricing_plan_id":"cebpf4jnsgd1na2vs0mg"},{"bike_id":"02eba368-97cd-433f-8675-dae4ebbbabd2","system_id":"levelo_inurba_marseille","lat":43.31884,"lon":5.40734,"is_reserved":false,"is_disabled":false,"rental_uris":{"android":"levelo://app?vid=02eba368-97cd-433f-8675-dae4ebbbabd2","ios":"levelo://app?vid=02eba368-97cd-433f-8675-dae4ebbbabd2"},"vehicle_type_id":"4","last_reported":1731787780,"current_range_meters":30400,"station_id":"ce4bhq12rcd13ifvqhig","pricing_plan_id":"cebpf4jnsgd1na2vs0mg"},{"bike_id":"98a92d73-1339-4120-a714-05b738f715ae","system_id":"levelo_inurba_marseille","lat":43.28351,"lon":5.38105,"is_reserved":false,"is_disabled":false,"rental_uris":{"android":"levelo://app?vid=98a92d73-1339-4120-a714-05b738f715ae","ios":"levelo://app?vid=98a92d73-1339-4120-a714-05b738f715ae"},"vehicle_type_id":"4","last_reported":1731787780,"current_range_meters":32000,"station_id":"ce4bh412rcd13ifvqdr0","pricing_plan_id":"cebpf4jnsgd1na2vs0mg"},{"bike_id":"d483578f-4402-4742-abe0-4fd6b9478c41","system_id":"levelo_inurba_marseille","lat":43.27942,"lon":5.41044,"is_reserved":false,"is_disabled":false,"rental_uris":{"android":"levelo://app?vid=d483578f-4402-4742-abe0-4fd6b9478c41","ios":"levelo://app?vid=d483578f-4402-4742-abe0-4fd6b9478c41"},"vehicle_type_id":"4","last_reported":1731787780,"current_range_meters":36400,"station_id":"ce4bhnp2rcd13ifvqh0g","pricing_plan_id":"cebpf4jnsgd1na2vs0mg"},{"bike_id":"9e0f703b-6e52-4347-b49d-e8bccd9d5b00","system_id":"levelo_inurba_marseille","lat":43.27175,"lon":5.40997,"is_reserved":false,"is_disabled":false,"rental_uris":{"android":"levelo://app?vid=9e0f703b-6e52-4347-b49d-e8bccd9d5b00","ios":"levelo://app?vid=9e0f703b-6e52-4347-b49d-e8bccd9d5b00"},"vehicle_type_id":"4","last_reported":1731787780,"current_range_meters":8000,"station_id":"ce4bhl12rcd13ifvqgf0","pricing_plan_id":"cebpf4jnsgd1na2vs0mg"},{"bike_id":"b5ce9235-4ffb-4d40-a9ab-7ab7ce5a79f6","system_id":"levelo_inurba_marseille","lat":43.2481,"lon":5.37454,"is_reserved":false,"is_disabled":false,"rental_uris":{"android":"levelo://app?vid=b5ce9235-4ffb-4d40-a9ab-7ab7ce5a79f6","ios":"levelo://app?vid=b5ce9235-4ffb-4d40-a9ab-7ab7ce5a79f6"},"vehicle_type_id":"4","last_reported":1731787780,"current_range_meters":38400,"station_id":"ce4bhgh2rcd13ifvqfb0","pricing_plan_id":"cebpf4jnsgd1na2vs0mg"},{"bike_id":"6959069a-ae31-40a7-8c36-044f926cc227","system_id":"levelo_inurba_marseille","lat":43.28929,"lon":5.39622,"is_reserved":false,"is_disabled":false,"rental_uris":{"android":"levelo://app?vid=6959069a-ae31-40a7-8c36-044f926cc227","ios":"levelo://app?vid=6959069a-ae31-40a7-8c36-044f926cc227"},"vehicle_type_id":"4","last_reported":1731787780,"current_range_meters":2800,"station_id":"ce4bh3h2rcd13ifvqdn0","pricing_plan_id":"cebpf4jnsgd1na2vs0mg"},{"bike_id":"0bdc4ebb-8ae3-48a0-915a-ada36e03fd3e","system_id":"levelo_inurba_marseille","lat":43.27895,"lon":5.37999,"is_reserved":false,"is_disabled":false,"rental_uris":{"android":"levelo://app?vid=0bdc4ebb-8ae3-48a0-915a-ada36e03fd3e","ios":"levelo://app?vid=0bdc4ebb-8ae3-48a0-915a-ada36e03fd3e"},"vehicle_type_id":"4","last_reported":1731787780,"current_range_meters":38800,"station_id":"ce4bhf92rcd13ifvqf50","pricing_plan_id":"cebpf4jnsgd1na2vs0mg"},{"bike_id":"23dc3eca-7aa2-42ee-a821-5901eae129f9","system_id":"levelo_inurba_marseille","lat":43.32367,"lon":5.38884,"is_reserved":false,"is_disabled":false,"rental_uris":{"android":"levelo://app?vid=23dc3eca-7aa2-42ee-a821-5901eae129f9","ios":"levelo://app?vid=23dc3eca-7aa2-42ee-a821-5901eae129f9"},"vehicle_type_id":"4","last_reported":1731787780,"current_range_meters":8000,"station_id":"ce4bhqp2rcd13ifvqhog","pricing_plan_id":"cebpf4jnsgd1na2vs0mg"},{"bike_id":"ae7aa9df-9b30-4ca1-9d8c-301e689f0c14","system_id":"levelo_inurba_marseille","lat":43.33721,"lon":5.39183,"is_reserved":false,"is_disabled":false,"rental_uris":{"android":"levelo://app?vid=ae7aa9df-9b30-4ca1-9d8c-301e689f0c14","ios":"levelo://app?vid=ae7aa9df-9b30-4ca1-9d8c-301e689f0c14"},"vehicle_type_id":"4","last_reported":1731787780,"current_range_meters":26000,"station_id":"ce4bhr92rcd13ifvqhsg","pricing_plan_id":"cebpf4jnsgd1na2vs0mg"},{"bike_id":"6d6992bf-ade3-4a22-a168-306dafdc4544","system_id":"levelo_inurba_marseille","lat":43.24175,"lon":5.36395,"is_reserved":false,"is_disabled":false,"rental_uris":{"android":"levelo://app?vid=6d6992bf-ade3-4a22-a168-306dafdc4544","ios":"levelo://app?vid=6d6992bf-ade3-4a22-a168-306dafdc4544"},"vehicle_type_id":"4","last_reported":1731787780,"current_range_meters":32400,"station_id":"cpo36qri1sfpv3e86is0","pricing_plan_id":"cebpf4jnsgd1na2vs0mg"},{"bike_id":"074c6971-4ae7-4906-8673-1607af29a7e1","system_id":"levelo_inurba_marseille","lat":43.25092,"lon":5.39523,"is_reserved":false,"is_disabled":false,"rental_uris":{"android":"levelo://app?vid=074c6971-4ae7-4906-8673-1607af29a7e1","ios":"levelo://app?vid=074c6971-4ae7-4906-8673-1607af29a7e1"},"vehicle_type_id":"4","last_reported":1731787780,"current_range_meters":31200,"station_id":"ce4bhm12rcd13ifvqgkg","pricing_plan_id":"cebpf4jnsgd1na2vs0mg"},{"bike_id":"17969969-d259-461b-b03e-5c0bba5d26d7","system_id":"levelo_inurba_marseille","lat":43.24805,"lon":5.37446,"is_reserved":false,"is_disabled":false,"rental_uris":{"android":"levelo://app?vid=17969969-d259-461b-b03e-5c0bba5d26d7","ios":"levelo://app?vid=17969969-d259-461b-b03e-5c0bba5d26d7"},"vehicle_type_id":"4","last_reported":1731787780,"current_range_meters":32400,"station_id":"ce4bhgh2rcd13ifvqfb0","pricing_plan_id":"cebpf4jnsgd1na2vs0mg"},{"bike_id":"f7612cb9-64e6-456e-b407-47173cb6e342","system_id":"levelo_inurba_marseille","lat":43.28604,"lon":5.37066,"is_reserved":false,"is_disabled":false,"rental_uris":{"android":"levelo://app?vid=f7612cb9-64e6-456e-b407-47173cb6e342","ios":"levelo://app?vid=f7612cb9-64e6-456e-b407-47173cb6e342"},"vehicle_type_id":"4","last_reported":1731787780,"current_range_meters":8400,"station_id":"ce4bht12rcd13ifvqi60","pricing_plan_id":"cebpf4jnsgd1na2vs0mg"},{"bike_id":"26ac22d7-ee9b-4f59-8723-72278c4a171a","system_id":"levelo_inurba_marseille","lat":43.2318,"lon":5.3999,"is_reserved":false,"is_disabled":false,"rental_uris":{"android":"levelo://app?vid=26ac22d7-ee9b-4f59-8723-72278c4a171a","ios":"levelo://app?vid=26ac22d7-ee9b-4f59-8723-72278c4a171a"},"vehicle_type_id":"4","last_reported":1731787780,"current_range_meters":30800,"station_id":"ce4bhn12rcd13ifvqgqg","pricing_plan_id":"cebpf4jnsgd1na2vs0mg"},{"bike_id":"e6982e95-5924-4993-a2d9-2709f286aaea","system_id":"levelo_inurba_marseille","lat":43.29063,"lon":5.35904,"is_reserved":false,"is_disabled":false,"rental_uris":{"android":"levelo://app?vid=e6982e95-5924-4993-a2d9-2709f286aaea","ios":"levelo://app?vid=e6982e95-5924-4993-a2d9-2709f286aaea"},"vehicle_type_id":"4","last_reported":1731787780,"current_range_meters":11200,"station_id":"ce4bha92rcd13ifvqeg0","pricing_plan_id":"cebpf4jnsgd1na2vs0mg"},{"bike_id":"89d4c031-8cd5-4df2-9211-5637efff4353","system_id":"levelo_inurba_marseille","lat":43.299194,"lon":5.385483,"is_reserved":false,"is_disabled":false,"rental_uris":{"android":"levelo://app?vid=89d4c031-8cd5-4df2-9211-5637efff4353","ios":"levelo://app?vid=89d4c031-8cd5-4df2-9211-5637efff4353"},"vehicle_type_id":"4","last_reported":1731787780,"current_range_meters":37600,"station_id":"ce4bh3h2rcd13ifvqdo0","pricing_plan_id":"cebpf4jnsgd1na2vs0mg"},{"bike_id":"f977d484-43b9-4a08-9f25-946507f2ea63","system_id":"levelo_inurba_marseille","lat":43.31432,"lon":5.37407,"is_reserved":false,"is_disabled":false,"rental_uris":{"android":"levelo://app?vid=f977d484-43b9-4a08-9f25-946507f2ea63","ios":"levelo://app?vid=f977d484-43b9-4a08-9f25-946507f2ea63"},"vehicle_type_id":"4","last_reported":1731787780,"current_range_meters":22800,"station_id":"","pricing_plan_id":"cebpf4jnsgd1na2vs0mg"},{"bike_id":"e01cc651-aff2-4aec-b088-cd6c105accbf","system_id":"levelo_inurba_marseille","lat":43.31716,"lon":5.37755,"is_reserved":false,"is_disabled":false,"rental_uris":{"android":"levelo://app?vid=e01cc651-aff2-4aec-b088-cd6c105accbf","ios":"levelo://app?vid=e01cc651-aff2-4aec-b088-cd6c105accbf"},"vehicle_type_id":"4","last_reported":1731787780,"current_range_meters":28400,"station_id":"ce4bgth2rcd13ifvqch0","pricing_plan_id":"cebpf4jnsgd1na2vs0mg"},{"bike_id":"f4a61eed-bb37-452a-8346-0e727fddab89","system_id":"levelo_inurba_marseille","lat":43.29911,"lon":5.38148,"is_reserved":false,"is_disabled":false,"rental_uris":{"android":"levelo://app?vid=f4a61eed-bb37-452a-8346-0e727fddab89","ios":"levelo://app?vid=f4a61eed-bb37-452a-8346-0e727fddab89"},"vehicle_type_id":"4","last_reported":1731787780,"current_range_meters":6400,"station_id":"","pricing_plan_id":"cebpf4jnsgd1na2vs0mg"},{"bike_id":"4ee4605c-22f2-4532-b44d-f5fb03fd5142","system_id":"levelo_inurba_marseille","lat":43.30797,"lon":5.43519,"is_reserved":false,"is_disabled":false,"rental_uris":{"android":"levelo://app?vid=4ee4605c-22f2-4532-b44d-f5fb03fd5142","ios":"levelo://app?vid=4ee4605c-22f2-4532-b44d-f5fb03fd5142"},"vehicle_type_id":"4","last_reported":1731787780,"current_range_meters":12800,"station_id":"ce4bhph2rcd13ifvqheg","pricing_plan_id":"cebpf4jnsgd1na2vs0mg"},{"bike_id":"d12776dd-7ba2-49d7-a666-159758337c79","system_id":"levelo_inurba_marseille","lat":43.324806,"lon":5.365818,"is_reserved":false,"is_disabled":false,"rental_uris":{"android":"levelo://app?vid=d12776dd-7ba2-49d7-a666-159758337c79","ios":"levelo://app?vid=d12776dd-7ba2-49d7-a666-159758337c79"},"vehicle_type_id":"4","last_reported":1731787780,"current_range_meters":38800,"station_id":"ce4bhs12rcd13ifvqhvg","pricing_plan_id":"cebpf4jnsgd1na2vs0mg"},{"bike_id":"fbafa770-936c-4a63-aa79-05d0d9c3438c","system_id":"levelo_inurba_marseille","lat":43.28676,"lon":5.38671,"is_reserved":false,"is_disabled":false,"rental_uris":{"android":"levelo://app?vid=fbafa770-936c-4a63-aa79-05d0d9c3438c","ios":"levelo://app?vid=fbafa770-936c-4a63-aa79-05d0d9c3438c"},"vehicle_type_id":"4","last_reported":1731787780,"current_range_meters":26800,"station_id":"ce4bh492rcd13ifvqdug","pricing_plan_id":"cebpf4jnsgd1na2vs0mg"},{"bike_id":"2bc498cd-9e0b-4b83-b06c-f025ff146da6","system_id":"levelo_inurba_marseille","lat":43.24999,"lon":5.3892,"is_reserved":false,"is_disabled":false,"rental_uris":{"android":"levelo://app?vid=2bc498cd-9e0b-4b83-b06c-f025ff146da6","ios":"levelo://app?vid=2bc498cd-9e0b-4b83-b06c-f025ff146da6"},"vehicle_type_id":"4","last_reported":1731787780,"current_range_meters":38800,"station_id":"ce4bhgp2rcd13ifvqfd0","pricing_plan_id":"cebpf4jnsgd1na2vs0mg"},{"bike_id":"022f478e-da93-4eda-9d1b-2d0e36905c07","system_id":"levelo_inurba_marseille","lat":43.3375,"lon":5.37443,"is_reserved":false,"is_disabled":false,"rental_uris":{"android":"levelo://app?vid=022f478e-da93-4eda-9d1b-2d0e36905c07","ios":"levelo://app?vid=022f478e-da93-4eda-9d1b-2d0e36905c07"},"vehicle_type_id":"4","last_reported":1731787780,"current_range_meters":16000,"station_id":"","pricing_plan_id":"cebpf4jnsgd1na2vs0mg"},{"bike_id":"3c7108fb-85fe-43b6-95ce-e6a5e6d34b1a","system_id":"levelo_inurba_marseille","lat":43.337268,"lon":5.391849,"is_reserved":false,"is_disabled":false,"rental_uris":{"android":"levelo://app?vid=3c7108fb-85fe-43b6-95ce-e6a5e6d34b1a","ios":"levelo://app?vid=3c7108fb-85fe-43b6-95ce-e6a5e6d34b1a"},"vehicle_type_id":"4","last_reported":1731787780,"current_range_meters":30000,"station_id":"ce4bhr92rcd13ifvqhsg","pricing_plan_id":"cebpf4jnsgd1na2vs0mg"},{"bike_id":"a55b7fe4-9578-4c32-99bf-91569446968f","system_id":"levelo_inurba_marseille","lat":43.26953,"lon":5.3862,"is_reserved":false,"is_disabled":false,"rental_uris":{"android":"levelo://app?vid=a55b7fe4-9578-4c32-99bf-91569446968f","ios":"levelo://app?vid=a55b7fe4-9578-4c32-99bf-91569446968f"},"vehicle_type_id":"4","last_reported":1731787780,"current_range_meters":37600,"station_id":"ce4bhh92rcd13ifvqfh0","pricing_plan_id":"cebpf4jnsgd1na2vs0mg"},{"bike_id":"5e21c11e-d283-481d-bf8d-735b3372e52d","system_id":"levelo_inurba_marseille","lat":43.297046,"lon":5.365937,"is_reserved":false,"is_disabled":false,"rental_uris":{"android":"levelo://app?vid=5e21c11e-d283-481d-bf8d-735b3372e52d","ios":"levelo://app?vid=5e21c11e-d283-481d-bf8d-735b3372e52d"},"vehicle_type_id":"4","last_reported":1731787780,"current_range_meters":30400,"station_id":"ce4bgn12rcd13ifvqbt0","pricing_plan_id":"cebpf4jnsgd1na2vs0mg"},{"bike_id":"cda4f533-8733-4307-807d-9c1677b28a30","system_id":"levelo_inurba_marseille","lat":43.31275,"lon":5.4016,"is_reserved":false,"is_disabled":false,"rental_uris":{"android":"levelo://app?vid=cda4f533-8733-4307-807d-9c1677b28a30","ios":"levelo://app?vid=cda4f533-8733-4307-807d-9c1677b28a30"},"vehicle_type_id":"4","last_reported":1731787780,"current_range_meters":39200,"station_id":"ce4bh092rcd13ifvqd30","pricing_plan_id":"cebpf4jnsgd1na2vs0mg"},{"bike_id":"251d8918-1250-4853-9293-89ee39d3be92","system_id":"levelo_inurba_marseille","lat":43.33022,"lon":5.39038,"is_reserved":false,"is_disabled":false,"rental_uris":{"android":"levelo://app?vid=251d8918-1250-4853-9293-89ee39d3be92","ios":"levelo://app?vid=251d8918-1250-4853-9293-89ee39d3be92"},"vehicle_type_id":"4","last_reported":1731787780,"current_range_meters":35600,"station_id":"ce4bhr92rcd13ifvqhrg","pricing_plan_id":"cebpf4jnsgd1na2vs0mg"},{"bike_id":"d95b4d50-3556-45fe-8cbb-c33d5fd58715","system_id":"levelo_inurba_marseille","lat":43.32291,"lon":5.38268,"is_reserved":false,"is_disabled":false,"rental_uris":{"android":"levelo://app?vid=d95b4d50-3556-45fe-8cbb-c33d5fd58715","ios":"levelo://app?vid=d95b4d50-3556-45fe-8cbb-c33d5fd58715"},"vehicle_type_id":"4","last_reported":1731787780,"current_range_meters":12000,"station_id":"ce4bhr12rcd13ifvqhqg","pricing_plan_id":"cebpf4jnsgd1na2vs0mg"},{"bike_id":"809471e3-ec39-4f2b-b271-49c8263623d6","system_id":"levelo_inurba_marseille","lat":43.25021,"lon":5.38915,"is_reserved":false,"is_disabled":false,"rental_uris":{"android":"levelo://app?vid=809471e3-ec39-4f2b-b271-49c8263623d6","ios":"levelo://app?vid=809471e3-ec39-4f2b-b271-49c8263623d6"},"vehicle_type_id":"4","last_reported":1731787780,"current_range_meters":40000,"station_id":"ce4bhgp2rcd13ifvqfd0","pricing_plan_id":"cebpf4jnsgd1na2vs0mg"},{"bike_id":"8e6b9764-9d73-4321-b055-ddf0e75261c7","system_id":"levelo_inurba_marseille","lat":43.28852,"lon":5.35848,"is_reserved":false,"is_disabled":false,"rental_uris":{"android":"levelo://app?vid=8e6b9764-9d73-4321-b055-ddf0e75261c7","ios":"levelo://app?vid=8e6b9764-9d73-4321-b055-ddf0e75261c7"},"vehicle_type_id":"4","last_reported":1731787780,"current_range_meters":38400,"station_id":"ce4bhb12rcd13ifvqem0","pricing_plan_id":"cebpf4jnsgd1na2vs0mg"},{"bike_id":"e739c142-1582-47b1-8dca-d28c1adf5ac2","system_id":"levelo_inurba_marseille","lat":43.29422,"lon":5.38614,"is_reserved":false,"is_disabled":false,"rental_uris":{"android":"levelo://app?vid=e739c142-1582-47b1-8dca-d28c1adf5ac2","ios":"levelo://app?vid=e739c142-1582-47b1-8dca-d28c1adf5ac2"},"vehicle_type_id":"4","last_reported":1731787780,"current_range_meters":4000,"station_id":"ce4bh2h2rcd13ifvqdh0","pricing_plan_id":"cebpf4jnsgd1na2vs0mg"},{"bike_id":"9e5dc250-b6a5-41ce-8a87-894e843c1424","system_id":"levelo_inurba_marseille","lat":43.28028,"lon":5.36937,"is_reserved":false,"is_disabled":false,"rental_uris":{"android":"levelo://app?vid=9e5dc250-b6a5-41ce-8a87-894e843c1424","ios":"levelo://app?vid=9e5dc250-b6a5-41ce-8a87-894e843c1424"},"vehicle_type_id":"4","last_reported":1731787780,"current_range_meters":38800,"station_id":"ce4bha12rcd13ifvqef0","pricing_plan_id":"cebpf4jnsgd1na2vs0mg"},{"bike_id":"39c73ca0-9868-4267-a026-9af6d76ca39c","system_id":"levelo_inurba_marseille","lat":43.30883,"lon":5.3964,"is_reserved":false,"is_disabled":false,"rental_uris":{"android":"levelo://app?vid=39c73ca0-9868-4267-a026-9af6d76ca39c","ios":"levelo://app?vid=39c73ca0-9868-4267-a026-9af6d76ca39c"},"vehicle_type_id":"4","last_reported":1731787780,"current_range_meters":14400,"station_id":"ce4bh012rcd13ifvqcv0","pricing_plan_id":"cebpf4jnsgd1na2vs0mg"},{"bike_id":"da15e65e-16f4-46d4-a568-d34d06f99fda","system_id":"levelo_inurba_marseille","lat":43.24165,"lon":5.36401,"is_reserved":false,"is_disabled":false,"rental_uris":{"android":"levelo://app?vid=da15e65e-16f4-46d4-a568-d34d06f99fda","ios":"levelo://app?vid=da15e65e-16f4-46d4-a568-d34d06f99fda"},"vehicle_type_id":"4","last_reported":1731787780,"current_range_meters":32000,"station_id":"cpo36qri1sfpv3e86is0","pricing_plan_id":"cebpf4jnsgd1na2vs0mg"},{"bike_id":"cf43993f-b443-422c-a2f3-95ff7864d62a","system_id":"levelo_inurba_marseille","lat":43.289989,"lon":5.35612,"is_reserved":false,"is_disabled":false,"rental_uris":{"android":"levelo://app?vid=cf43993f-b443-422c-a2f3-95ff7864d62a","ios":"levelo://app?vid=cf43993f-b443-422c-a2f3-95ff7864d62a"},"vehicle_type_id":"4","last_reported":1731787780,"current_range_meters":19200,"station_id":"ce4bhb92rcd13ifvqen0","pricing_plan_id":"cebpf4jnsgd1na2vs0mg"},{"bike_id":"e50a59aa-32c4-409e-9373-bbb980d49061","system_id":"levelo_inurba_marseille","lat":43.31172,"lon":5.38718,"is_reserved":false,"is_disabled":false,"rental_uris":{"android":"levelo://app?vid=e50a59aa-32c4-409e-9373-bbb980d49061","ios":"levelo://app?vid=e50a59aa-32c4-409e-9373-bbb980d49061"},"vehicle_type_id":"4","last_reported":1731787780,"current_range_meters":14800,"station_id":"ce4bgv12rcd13ifvqcp0","pricing_plan_id":"cebpf4jnsgd1na2vs0mg"},{"bike_id":"92ae6e09-1f39-49c2-9455-cdbd4d0c4b63","system_id":"levelo_inurba_marseille","lat":43.29212,"lon":5.40007,"is_reserved":false,"is_disabled":false,"rental_uris":{"android":"levelo://app?vid=92ae6e09-1f39-49c2-9455-cdbd4d0c4b63","ios":"levelo://app?vid=92ae6e09-1f39-49c2-9455-cdbd4d0c4b63"},"vehicle_type_id":"4","last_reported":1731787780,"current_range_meters":17600,"station_id":"","pricing_plan_id":"cebpf4jnsgd1na2vs0mg"},{"bike_id":"b10c4179-3c77-44b0-bf1b-310c99cd7395","system_id":"levelo_inurba_marseille","lat":43.3042,"lon":5.39741,"is_reserved":false,"is_disabled":false,"rental_uris":{"android":"levelo://app?vid=b10c4179-3c77-44b0-bf1b-310c99cd7395","ios":"levelo://app?vid=b10c4179-3c77-44b0-bf1b-310c99cd7395"},"vehicle_type_id":"4","last_reported":1731787780,"current_range_meters":24800,"station_id":"ce4bh092rcd13ifvqd20","pricing_plan_id":"cebpf4jnsgd1na2vs0mg"},{"bike_id":"b9a0692f-1f3a-4fe8-bf07-b346390bcd78","system_id":"levelo_inurba_marseille","lat":43.32094,"lon":5.38099,"is_reserved":false,"is_disabled":false,"rental_uris":{"android":"levelo://app?vid=b9a0692f-1f3a-4fe8-bf07-b346390bcd78","ios":"levelo://app?vid=b9a0692f-1f3a-4fe8-bf07-b346390bcd78"},"vehicle_type_id":"4","last_reported":1731787780,"current_range_meters":30400,"station_id":"","pricing_plan_id":"cebpf4jnsgd1na2vs0mg"},{"bike_id":"220255fd-76ab-4c9b-bc31-970bf96431ab","system_id":"levelo_inurba_marseille","lat":43.2657,"lon":5.39,"is_reserved":false,"is_disabled":false,"rental_uris":{"android":"levelo://app?vid=220255fd-76ab-4c9b-bc31-970bf96431ab","ios":"levelo://app?vid=220255fd-76ab-4c9b-bc31-970bf96431ab"},"vehicle_type_id":"4","last_reported":1731787780,"current_range_meters":14800,"station_id":"ce4bhe12rcd13ifvqf30","pricing_plan_id":"cebpf4jnsgd1na2vs0mg"},{"bike_id":"442c0903-f40e-4bdf-be0d-6587cc076f59","system_id":"levelo_inurba_marseille","lat":43.23192,"lon":5.35555,"is_reserved":false,"is_disabled":false,"rental_uris":{"android":"levelo://app?vid=442c0903-f40e-4bdf-be0d-6587cc076f59","ios":"levelo://app?vid=442c0903-f40e-4bdf-be0d-6587cc076f59"},"vehicle_type_id":"4","last_reported":1731787780,"current_range_meters":37600,"station_id":"ce4bhu92rcd13ifvqi70","pricing_plan_id":"cebpf4jnsgd1na2vs0mg"},{"bike_id":"8d0bd407-b632-47e2-ae0a-24746a24d7bf","system_id":"levelo_inurba_marseille","lat":43.2957,"lon":5.3752,"is_reserved":false,"is_disabled":false,"rental_uris":{"android":"levelo://app?vid=8d0bd407-b632-47e2-ae0a-24746a24d7bf","ios":"levelo://app?vid=8d0bd407-b632-47e2-ae0a-24746a24d7bf"},"vehicle_type_id":"4","last_reported":1731787780,"current_range_meters":33600,"station_id":"ce4bgh92rcd13ifvqb50","pricing_plan_id":"cebpf4jnsgd1na2vs0mg"},{"bike_id":"f5d73c09-1996-4086-8bed-df60be97dc8b","system_id":"levelo_inurba_marseille","lat":43.288879,"lon":5.387561,"is_reserved":false,"is_disabled":false,"rental_uris":{"android":"levelo://app?vid=f5d73c09-1996-4086-8bed-df60be97dc8b","ios":"levelo://app?vid=f5d73c09-1996-4086-8bed-df60be97dc8b"},"vehicle_type_id":"4","last_reported":1731787780,"current_range_meters":6400,"station_id":"ce4bh292rcd13ifvqdg0","pricing_plan_id":"cebpf4jnsgd1na2vs0mg"},{"bike_id":"1c4774a7-a2d4-4020-9a1a-c36e307e75d8","system_id":"levelo_inurba_marseille","lat":43.32363,"lon":5.38877,"is_reserved":false,"is_disabled":false,"rental_uris":{"android":"levelo://app?vid=1c4774a7-a2d4-4020-9a1a-c36e307e75d8","ios":"levelo://app?vid=1c4774a7-a2d4-4020-9a1a-c36e307e75d8"},