{"last_updated":1731874199,"ttl":60,"version":"2.2","data":{"bikes":[{"bike_id":"73806b4b-3409-4fe7-9bac-cc9da7355bda","system_id":"levelo_inurba_marseille","lat":43.3103,"lon":5.4,"is_reserved":false,"is_disabled":false,"rental_uris":{"android":"levelo://app?vid=73806b4b-3409-4fe7-9bac-cc9da7355bda","ios":"levelo://app?vid=73806b4b-3409-4fe7-9bac-cc9da7355bda"},"vehicle_type_id":"4","last_reported":1731874199,"current_range_meters":28000,"station_id":"","pricing_plan_id":"cebpf4jnsgd1na2vs0mg"},{"bike_id":"5a5cda28-413a-466c-b416-640a2c5260a6","system_id":"levelo_inurba_marseille","lat":43.29784,"lon":5.39342,"is_reserved":false,"is_disabled":false,"rental_uris":{"android":"levelo://app?vid=5a5cda28-413a-466c-b416-640a2c5260a6","ios":"levelo://app?vid=5a5cda28-413a-466c-b416-640a2c5260a6"},"vehicle_type_id":"4","last_reported":1731874199,"current_range_meters":25600,"station_id":"chh1huq6cuj3fo74tm60","pricing_plan_id":"cebpf4jnsgd1na2vs0mg"},{"bike_id":"db2b91a4-d5c9-49a3-9079-d94c82ff95d7","system_id":"levelo_inurba_marseille","lat":43.30056,"lon":5.40937,"is_reserved":false,"is_disabled":false,"rental_uris":{"android":"levelo://app?vid=db2b91a4-d5c9-49a3-9079-d94c82ff95d7","ios":"levelo://app?vid=db2b91a4-d5c9-49a3-9079-d94c82ff95d7"},"vehicle_type_id":"4","last_reported":1731874199,"current_range_meters":8800,"station_id":"","pricing_plan_id":"cebpf4jnsgd1na2vs0mg"},{"bike_id":"07f44c2d-6d0b-41f2-ba11-0031c4dea411","system_id":"levelo_inurba_marseille","lat":43.2466,"lon":5.38155,"is_reserved":false,"is_disabled":false,"rental_uris":{"android":"levelo://app?vid=07f44c2d-6d0b-41f2-ba11-0031c4dea411","ios":"levelo://app?vid=07f44c2d-6d0b-41f2-ba11-0031c4dea411"},"vehicle_type_id":"4","last_reported":1731874199,"current_range_meters":9600,"station_id":"ce4bhih2rcd13ifvqfr0","pricing_plan_id":"cebpf4jnsgd1na2vs0mg"},{"bike_id":"21b61ede-e062-4fe8-a6bc-6c449d2ab9c7","system_id":"levelo_inurba_marseille","lat":43.30252,"lon":5.40038,"is_reserved":false,"is_disabled":false,"rental_uris":{"android":"levelo://app?vid=21b61ede-e062-4fe8-a6bc-6c449d2ab9c7","ios":"levelo://app?vid=21b61ede-e062-4fe8-a6bc-6c449d2ab9c7"},"vehicle_type_id":"4","last_reported":1731874199,"current_range_meters":14000,"station_id":"ce4bgvh2rcd13ifvqcs0","pricing_plan_id":"cebpf4jnsgd1na2vs0mg"},{"bike_id":"7b2a0450-ef1e-4a2e-8e86-929c14ddc0b9","system_id":"levelo_inurba_marseille","lat":43.29786,"lon":5.37098,"is_reserved":false,"is_disabled":false,"rental_uris":{"android":"levelo://app?vid=7b2a0450-ef1e-4a2e-8e86-929c14ddc0b9","ios":"levelo://app?vid=7b2a0450-ef1e-4a2e-8e86-929c14ddc0b9"},"vehicle_type_id":"4","last_reported":1731874199,"current_range_meters":9200,"station_id":"ce4bgop2rcd13ifvqc1g","pricing_plan_id":"cebpf4jnsgd1na2vs0mg"},{"bike_id":"97ef09cd-5973-46af-870a-f32dcbb84864","system_id":"levelo_inurba_marseille","lat":43.29528,"lon":5.38544,"is_reserved":false,"is_disabled":false,"rental_uris":{"android":"levelo://app?vid=97ef09cd-5973-46af-870a-f32dcbb84864","ios":"levelo://app?vid=97ef09cd-5973-46af-870a-f32dcbb84864"},"vehicle_type_id":"4","last_reported":1731874199,"current_range_meters":3200,"station_id":"ce4bgih2rcd13ifvqba0","pricing_plan_id":"cebpf4jnsgd1na2vs0mg"},{"bike_id":"9196a10b-4329-4cc1-8f2d-fbffd30cb04c","system_id":"levelo_inurba_marseille","lat":43.31325,"lon":5.39693,"is_reserved":false,"is_disabled":false,"rental_uris":{"android":"levelo://app?vid=9196a10b-4329-4cc1-8f2d-fbffd30cb04c","ios":"levelo://app?vid=9196a10b-4329-4cc1-8f2d-fbffd30cb04c"},"vehicle_type_id":"4","last_reported":1731874199,"current_range_meters":27600,"station_id":"ce4bgvp2rcd13ifvqcu0","pricing_plan_id":"cebpf4jnsgd1na2vs0mg"},{"bike_id":"0672d165-d197-4474-bbec-2df95543fd2f","system_id":"levelo_inurba_marseille","lat":43.299,"lon":5.43662,"is_reserved":false,"is_disabled":false,"rental_uris":{"android":"levelo://app?vid=0672d165-d197-4474-bbec-2df95543fd2f","ios":"levelo://app?vid=0672d165-d197-4474-bbec-2df95543fd2f"},"vehicle_type_id":"4","last_reported":1731874199,"current_range_meters":6800,"station_id":"ce4bhpp2rcd13ifvqhfg","pricing_plan_id":"cebpf4jnsgd1na2vs0mg"},{"bike_id":"0abafd50-d6f0-4ae1-8b2e-e1936ed5039b","system_id":"levelo_inurba_marseille","lat":43.30331,"lon":5.39462,"is_reserved":false,"is_disabled":false,"rental_uris":{"android":"levelo://app?vid=0abafd50-d6f0-4ae1-8b2e-e1936ed5039b","ios":"levelo://app?vid=0abafd50-d6f0-4ae1-8b2e-e1936ed5039b"},"vehicle_type_id":"4","last_reported":1731874199,"current_range_meters":15200,"station_id":"","pricing_plan_id":"cebpf4jnsgd1na2vs0mg"},{"bike_id":"9f9eff5e-4633-4f86-8cdc-5509372a6217","system_id":"levelo_inurba_marseille","lat":43.27979,"lon":5.38747,"is_reserved":false,"is_disabled":false,"rental_uris":{"android":"levelo://app?vid=9f9eff5e-4633-4f86-8cdc-5509372a6217","ios":"levelo://app?vid=9f9eff5e-4633-4f86-8cdc-5509372a6217"},"vehicle_type_id":"4","last_reported":1731874199,"current_range_meters":14400,"station_id":"ce4bhg12rcd13ifvqf80","pricing_plan_id":"cebpf4jnsgd1na2vs0mg"},{"bike_id":"97d0c416-9422-4d58-a6a1-20293200dbc5","system_id":"levelo_inurba_marseille","lat":43.2928,"lon":5.40119,"is_reserved":false,"is_disabled":false,"rental_uris":{"android":"levelo://app?vid=97d0c416-9422-4d58-a6a1-20293200dbc5","ios":"levelo://app?vid=97d0c416-9422-4d58-a6a1-20293200dbc5"},"vehicle_type_id":"4","last_reported":1731874199,"current_range_meters":28800,"station_id":"ce4bh312rcd13ifvqdk0","pricing_plan_id":"cebpf4jnsgd1na2vs0mg"},{"bike_id":"9619eef9-57d0-4dc2-8cb9-78720cd49d5a","system_id":"levelo_inurba_marseille","lat":43.30085,"lon":5.39087,"is_reserved":false,"is_disabled":false,"rental_uris":{"android":"levelo://app?vid=9619eef9-57d0-4dc2-8cb9-78720cd49d5a","ios":"levelo://app?vid=9619eef9-57d0-4dc2-8cb9-78720cd49d5a"},"vehicle_type_id":"4","last_reported":1731874199,"current_range_meters":26000,"station_id":"ce4bh192rcd13ifvqdb0","pricing_plan_id":"cebpf4jnsgd1na2vs0mg"},{"bike_id":"c54ace73-7fe9-4545-948e-f93a958c6393","system_id":"levelo_inurba_marseille","lat":43.28456,"lon":5.35886,"is_reserved":false,"is_disabled":false,"rental_uris":{"android":"levelo://app?vid=c54ace73-7fe9-4545-948e-f93a958c6393","ios":"levelo://app?vid=c54ace73-7fe9-4545-948e-f93a958c6393"},"vehicle_type_id":"4","last_reported":1731874199,"current_range_meters":27200,"station_id":"ce4bhah2rcd13ifvqei0","pricing_plan_id":"cebpf4jnsgd1na2vs0mg"},{"bike_id":"4c167bc3-2964-4625-adc0-c92e539ad80f","system_id":"levelo_inurba_marseille","lat":43.28279,"lon":5.40784,"is_reserved":false,"is_disabled":false,"rental_uris":{"android":"levelo://app?vid=4c167bc3-2964-4625-adc0-c92e539ad80f","ios":"levelo://app?vid=4c167bc3-2964-4625-adc0-c92e539ad80f"},"vehicle_type_id":"4","last_reported":1731874199,"current_range_meters":33200,"station_id":"","pricing_plan_id":"cebpf4jnsgd1na2vs0mg"},{"bike_id":"3203c545-8816-47a4-ae40-21487a89e084","system_id":"levelo_inurba_marseille","lat":43.30599,"lon":5.37213,"is_reserved":false,"is_disabled":false,"rental_uris":{"android":"levelo://app?vid=3203c545-8816-47a4-ae40-21487a89e084","ios":"levelo://app?vid=3203c545-8816-47a4-ae40-21487a89e084"},"vehicle_type_id":"4","last_reported":1731874199,"current_range_meters":36400,"station_id":"ce4bgqh2rcd13ifvqc4g","pricing_plan_id":"cebpf4jnsgd1na2vs0mg"},{"bike_id":"853a1166-61cc-42b2-9e7f-3b747ea4f57f","system_id":"levelo_inurba_marseille","lat":43.29552,"lon":5.42289,"is_reserved":false,"is_disabled":false,"rental_uris":{"android":"levelo://app?vid=853a1166-61cc-42b2-9e7f-3b747ea4f57f","ios":"levelo://app?vid=853a1166-61cc-42b2-9e7f-3b747ea4f57f"},"vehicle_type_id":"4","last_reported":1731874199,"current_range_meters":38800,"station_id":"ce4bhph2rcd13ifvqhdg","pricing_plan_id":"cebpf4jnsgd1na2vs0mg"},{"bike_id":"75bfa6f0-bc2f-42ef-9dfd-fdb2f50e5301","system_id":"levelo_inurba_marseille","lat":43.29573,"lon":5.39981,"is_reserved":false,"is_disabled":false,"rental_uris":{"android":"levelo://app?vid=75bfa6f0-bc2f-42ef-9dfd-fdb2f50e5301","ios":"levelo://app?vid=75bfa6f0-bc2f-42ef-9dfd-fdb2f50e5301"},"vehicle_type_id":"4","last_reported":1731874199,"current_range_meters":22000,"station_id":"ce4bh312rcd13ifvqdj0","pricing_plan_id":"cebpf4jnsgd1na2vs0mg"},{"bike_id":"6b0ea79e-cb12-4a50-9845-e4686b3cacc8","system_id":"levelo_inurba_marseille","lat":43.295751,"lon":5.399791,"is_reserved":false,"is_disabled":false,"rental_uris":{"android":"levelo://app?vid=6b0ea79e-cb12-4a50-9845-e4686b3cacc8","ios":"levelo://app?vid=6b0ea79e-cb12-4a50-9845-e4686b3cacc8"},"vehicle_type_id":"4","last_reported":1731874199,"current_range_meters":8400,"station_id":"","pricing_plan_id":"cebpf4jnsgd1na2vs0mg"},{"bike_id":"225566f2-8521-4eac-bc8f-0baee111d8d3","system_id":"levelo_inurba_marseille","lat":43.3065,"lon":5.40079,"is_reserved":false,"is_disabled":false,"rental_uris":{"android":"levelo://app?vid=225566f2-8521-4eac-bc8f-0baee111d8d3","ios":"levelo://app?vid=225566f2-8521-4eac-bc8f-0baee111d8d3"},"vehicle_type_id":"4","last_reported":1731874199,"current_range_meters":12800,"station_id":"ce4bh112rcd13ifvqda0","pricing_plan_id":"cebpf4jnsgd1na2vs0mg"},{"bike_id":"e0b967c0-b35f-4934-9248-f55c41b4f08b","system_id":"levelo_inurba_marseille","lat":43.28147,"lon":5.44215,"is_reserved":false,"is_disabled":false,"rental_uris":{"android":"levelo://app?vid=e0b967c0-b35f-4934-9248-f55c41b4f08b","ios":"levelo://app?vid=e0b967c0-b35f-4934-9248-f55c41b4f08b"},"vehicle_type_id":"4","last_reported":1731874199,"current_range_meters":16400,"station_id":"","pricing_plan_id":"cebpf4jnsgd1na2vs0mg"},{"bike_id":"d61c8a52-528d-46d9-b1fb-db8c6ca71e05","system_id":"levelo_inurba_marseille","lat":43.24167,"lon":5.36392,"is_reserved":false,"is_disabled":false,"rental_uris":{"android":"levelo://app?vid=d61c8a52-528d-46d9-b1fb-db8c6ca71e05","ios":"levelo://app?vid=d61c8a52-528d-46d9-b1fb-db8c6ca71e05"},"vehicle_type_id":"4","last_reported":1731874199,"current_range_meters":20000,"station_id":"cpo36qri1sfpv3e86is0","pricing_plan_id":"cebpf4jnsgd1na2vs0mg"},{"bike_id":"fd5dd092-f218-4ee9-8566-83eb35688117","system_id":"levelo_inurba_marseille","lat":43.30419,"lon":5.41287,"is_reserved":false,"is_disabled":false,"rental_uris":{"android":"levelo://app?vid=fd5dd092-f218-4ee9-8566-83eb35688117","ios":"levelo://app?vid=fd5dd092-f218-4ee9-8566-83eb35688117"},"vehicle_type_id":"4","last_reported":1731874199,"current_range_meters":26800,"station_id":"ce4bhop2rcd13ifvqh8g","pricing_plan_id":"cebpf4jnsgd1na2vs0mg"},{"bike_id":"0e1d2e7a-8318-45fe-af1b-31857eb1aac8","system_id":"levelo_inurba_marseille","lat":43.23967,"lon":5.36621,"is_reserved":false,"is_disabled":false,"rental_uris":{"android":"levelo://app?vid=0e1d2e7a-8318-45fe-af1b-31857eb1aac8","ios":"levelo://app?vid=0e1d2e7a-8318-45fe-af1b-31857eb1aac8"},"vehicle_type_id":"4","last_reported":1731874199,"current_range_meters":22800,"station_id":"ce4bhi12rcd13ifvqfp0","pricing_plan_id":"cebpf4jnsgd1na2vs0mg"},{"bike_id":"54811b3e-ec41-4a58-b4dd-6931ca4ea482","system_id":"levelo_inurba_marseille","lat":43.24177,"lon":5.39735,"is_reserved":false,"is_disabled":false,"rental_uris":{"android":"levelo://app?vid=54811b3e-ec41-4a58-b4dd-6931ca4ea482","ios":"levelo://app?vid=54811b3e-ec41-4a58-b4dd-6931ca4ea482"},"vehicle_type_id":"4","last_reported":1731874199,"current_range_meters":33200,"station_id":"ce4bhn12rcd13ifvqgpg","pricing_plan_id":"cebpf4jnsgd1na2vs0mg"},{"bike_id":"2bd3ae1c-22d2-4b0f-9fd7-42d6b84fc3a3","system_id":"levelo_inurba_marseille","lat":43.33599,"lon":5.41042,"is_reserved":false,"is_disabled":false,"rental_uris":{"android":"levelo://app?vid=2bd3ae1c-22d2-4b0f-9fd7-42d6b84fc3a3","ios":"levelo://app?vid=2bd3ae1c-22d2-4b0f-9fd7-42d6b84fc3a3"},"vehicle_type_id":"4","last_reported":1731874199,"current_range_meters":16400,"station_id":"ce4bhqh2rcd13ifvqhmg","pricing_plan_id":"cebpf4jnsgd1na2vs0mg"},{"bike_id":"79b76398-f4aa-422b-b325-2360d07a8784","system_id":"levelo_inurba_marseille","lat":43.33726,"lon":5.3918,"is_reserved":false,"is_disabled":false,"rental_uris":{"android":"levelo://app?vid=79b76398-f4aa-422b-b325-2360d07a8784","ios":"levelo://app?vid=79b76398-f4aa-422b-b325-2360d07a8784"},"vehicle_type_id":"4","last_reported":1731874199,"current_range_meters":38800,"station_id":"ce4bhr92rcd13ifvqhsg","pricing_plan_id":"cebpf4jnsgd1na2vs0mg"},{"bike_id":"a7081911-a624-4ede-9084-31328e822934","system_id":"levelo_inurba_marseille","lat":43.28455,"lon":5.35896,"is_reserved":false,"is_disabled":false,"rental_uris":{"android":"levelo://app?vid=a7081911-a624-4ede-9084-31328e822934","ios":"levelo://app?vid=a7081911-a624-4ede-9084-31328e822934"},"vehicle_type_id":"4","last_reported":1731874199,"current_range_meters":24400,"station_id":"ce4bhah2rcd13ifvqei0","pricing_plan_id":"cebpf4jnsgd1na2vs0mg"},{"bike_id":"edae6a89-7eeb-45ca-8d9c-aa9e188b3601","system_id":"levelo_inurba_marseille","lat":43.25114,"lon":5.40324,"is_reserved":false,"is_disabled":false,"rental_uris":{"android":"levelo://app?vid=edae6a89-7eeb-45ca-8d9c-aa9e188b3601","ios":"levelo://app?vid=edae6a89-7eeb-45ca-8d9c-aa9e188b3601"},"vehicle_type_id":"4","last_reported":1731874199,"current_range_meters":3600,"station_id":"ce4bhlh2rcd13ifvqgig","pricing_plan_id":"cebpf4jnsgd1na2vs0mg"},{"bike_id":"09bcd093-508b-4a93-b5c9-72ae4369b265","system_id":"levelo_inurba_marseille","lat":43.30459,"lon":5.37902,"is_reserved":false,"is_disabled":false,"rental_uris":{"android":"levelo://app?vid=09bcd093-508b-4a93-b5c9-72ae4369b265","ios":"levelo://app?vid=09bcd093-508b-4a93-b5c9-72ae4369b265"},"vehicle_type_id":"4","last_reported":1731874199,"current_range_meters":2800,"station_id":"ce4bgup2rcd13ifvqcn0","pricing_plan_id":"cebpf4jnsgd1na2vs0mg"},{"bike_id":"f0b15f24-1d6a-46a1-a02a-0bb1b749c9ac","system_id":"levelo_inurba_marseille","lat":43.28706,"lon":5.37391,"is_reserved":false,"is_disabled":false,"rental_uris":{"android":"levelo://app?vid=f0b15f24-1d6a-46a1-a02a-0bb1b749c9ac","ios":"levelo://app?vid=f0b15f24-1d6a-46a1-a02a-0bb1b749c9ac"},"vehicle_type_id":"4","last_reported":1731874199,"current_range_meters":37600,"station_id":"ce4bh3p2rcd13ifvqdq0","pricing_plan_id":"cebpf4jnsgd1na2vs0mg"},{"bike_id":"6e000560-3094-4389-8ca5-fea3f83cab13","system_id":"levelo_inurba_marseille","lat":43.26684,"lon":5.38268,"is_reserved":false,"is_disabled":false,"rental_uris":{"android":"levelo://app?vid=6e000560-3094-4389-8ca5-fea3f83cab13","ios":"levelo://app?vid=6e000560-3094-4389-8ca5-fea3f83cab13"},"vehicle_type_id":"4","last_reported":1731874199,"current_range_meters":38400,"station_id":"ce4bhg92rcd13ifvqf90","pricing_plan_id":"cebpf4jnsgd1na2vs0mg"},{"bike_id":"b2bc0774-6de5-46f1-bfe7-6c0ab5f5c5c1","system_id":"levelo_inurba_marseille","lat":43.28282,"lon":5.35083,"is_reserved":false,"is_disabled":false,"rental_uris":{"android":"levelo://app?vid=b2bc0774-6de5-46f1-bfe7-6c0ab5f5c5c1","ios":"levelo://app?vid=b2bc0774-6de5-46f1-bfe7-6c0ab5f5c5c1"},"vehicle_type_id":"4","last_reported":1731874199,"current_range_meters":39200,"station_id":"ce4bhbp2rcd13ifvqerg","pricing_plan_id":"cebpf4jnsgd1na2vs0mg"},{"bike_id":"1c0a0e1b-5ab5-47e9-b305-f2ae6081753e","system_id":"levelo_inurba_marseille","lat":43.24999,"lon":5.38937,"is_reserved":false,"is_disabled":false,"rental_uris":{"android":"levelo://app?vid=1c0a0e1b-5ab5-47e9-b305-f2ae6081753e","ios":"levelo://app?vid=1c0a0e1b-5ab5-47e9-b305-f2ae6081753e"},"vehicle_type_id":"4","last_reported":1731874199,"current_range_meters":12000,"station_id":"ce4bhgp2rcd13ifvqfd0","pricing_plan_id":"cebpf4jnsgd1na2vs0mg"},{"bike_id":"fba520cc-f329-4810-9165-4d26d33cbe71","system_id":"levelo_inurba_marseille","lat":43.2866,"lon":5.3635,"is_reserved":false,"is_disabled":false,"rental_uris":{"android":"levelo://app?vid=fba520cc-f329-4810-9165-4d26d33cbe71","ios":"levelo://app?vid=fba520cc-f329-4810-9165-4d26d33cbe71"},"vehicle_type_id":"4","last_reported":1731874199,"current_range_meters":30400,"station_id":"ce4bhah2rcd13ifvqej0","pricing_plan_id":"cebpf4jnsgd1na2vs0mg"},{"bike_id":"9b4b50a4-f749-4b0d-a835-74b08786a499","system_id":"levelo_inurba_marseille","lat":43.31167,"lon":5.38728,"is_reserved":false,"is_disabled":false,"rental_uris":{"android":"levelo://app?vid=9b4b50a4-f749-4b0d-a835-74b08786a499","ios":"levelo://app?vid=9b4b50a4-f749-4b0d-a835-74b08786a499"},"vehicle_type_id":"4","last_reported":1731874199,"current_range_meters":26000,"station_id":"ce4bgv12rcd13ifvqcp0","pricing_plan_id":"cebpf4jnsgd1na2vs0mg"},{"bike_id":"2459f503-6e83-43a2-8e1d-8dc2645bc27d","system_id":"levelo_inurba_marseille","lat":43.30888,"lon":5.39659,"is_reserved":false,"is_disabled":false,"rental_uris":{"android":"levelo://app?vid=2459f503-6e83-43a2-8e1d-8dc2645bc27d","ios":"levelo://app?vid=2459f503-6e83-43a2-8e1d-8dc2645bc27d"},"vehicle_type_id":"4","last_reported":1731874199,"current_range_meters":28400,"station_id":"ce4bh012rcd13ifvqcv0","pricing_plan_id":"cebpf4jnsgd1na2vs0mg"},{"bike_id":"d2fe990b-e82c-427d-8072-64d25cdb2c73","system_id":"levelo_inurba_marseille","lat":43.30648,"lon":5.40063,"is_reserved":false,"is_disabled":false,"rental_uris":{"android":"levelo://app?vid=d2fe990b-e82c-427d-8072-64d25cdb2c73","ios":"levelo://app?vid=d2fe990b-e82c-427d-8072-64d25cdb2c73"},"vehicle_type_id":"4","last_reported":1731874199,"current_range_meters":19200,"station_id":"ce4bh112rcd13ifvqda0","pricing_plan_id":"cebpf4jnsgd1na2vs0mg"},{"bike_id":"3cd7002e-921f-4aaa-9f1d-6d69fb29a757","system_id":"levelo_inurba_marseille","lat":43.28938,"lon":5.36391,"is_reserved":false,"is_disabled":false,"rental_uris":{"android":"levelo://app?vid=3cd7002e-921f-4aaa-9f1d-6d69fb29a757","ios":"levelo://app?vid=3cd7002e-921f-4aaa-9f1d-6d69fb29a757"},"vehicle_type_id":"4","last_reported":1731874199,"current_range_meters":17200,"station_id":"ce4bhc92rcd13ifvqetg","pricing_plan_id":"cebpf4jnsgd1na2vs0mg"},{"bike_id":"e931d18a-2896-47ae-a846-0e467d20bb34","system_id":"levelo_inurba_marseille","lat":43.28344,"lon":5.38104,"is_reserved":false,"is_disabled":false,"rental_uris":{"android":"levelo://app?vid=e931d18a-2896-47ae-a846-0e467d20bb34","ios":"levelo://app?vid=e931d18a-2896-47ae-a846-0e467d20bb34"},"vehicle_type_id":"4","last_reported":1731874199,"current_range_meters":27600,"station_id":"ce4bh412rcd13ifvqdr0","pricing_plan_id":"cebpf4jnsgd1na2vs0mg"},{"bike_id":"8a9f823e-baf2-4d03-b304-e7d0af967984","system_id":"levelo_inurba_marseille","lat":43.2791,"lon":5.38003,"is_reserved":false,"is_disabled":false,"rental_uris":{"android":"levelo://app?vid=8a9f823e-baf2-4d03-b304-e7d0af967984","ios":"levelo://app?vid=8a9f823e-baf2-4d03-b304-e7d0af967984"},"vehicle_type_id":"4","last_reported":1731874199,"current_range_meters":3600,"station_id":"ce4bhf92rcd13ifvqf50","pricing_plan_id":"cebpf4jnsgd1na2vs0mg"},{"bike_id":"a8564ab8-45dd-44af-a2ae-f304d3814047","system_id":"levelo_inurba_marseille","lat":43.32663,"lon":5.40988,"is_reserved":false,"is_disabled":false,"rental_uris":{"android":"levelo://app?vid=a8564ab8-45dd-44af-a2ae-f304d3814047","ios":"levelo://app?vid=a8564ab8-45dd-44af-a2ae-f304d3814047"},"vehicle_type_id":"4","last_reported":1731874199,"current_range_meters":36400,"station_id":"ce4bhpp2rcd13ifvqhgg","pricing_plan_id":"cebpf4jnsgd1na2vs0mg"},{"bike_id":"74c37457-d54d-454c-848d-3e859a50fe09","system_id":"levelo_inurba_marseille","lat":43.30425,"lon":5.39757,"is_reserved":false,"is_disabled":false,"rental_uris":{"android":"levelo://app?vid=74c37457-d54d-454c-848d-3e859a50fe09","ios":"levelo://app?vid=74c37457-d54d-454c-848d-3e859a50fe09"},"vehicle_type_id":"4","last_reported":1731874199,"current_range_meters":38800,"station_id":"ce4bh092rcd13ifvqd20","pricing_plan_id":"cebpf4jnsgd1na2vs0mg"},{"bike_id":"0b1b1a56-d86d-40f1-af42-c826bd38a215","system_id":"levelo_inurba_marseille","lat":43.31764,"lon":5.39016,"is_reserved":false,"is_disabled":false,"rental_uris":{"android":"levelo://app?vid=0b1b1a56-d86d-40f1-af42-c826bd38a215","ios":"levelo://app?vid=0b1b1a56-d86d-40f1-af42-c826bd38a215"},"vehicle_type_id":"4","last_reported":1731874199,"current_range_meters":14800,"station_id":"ce4bhqp2rcd13ifvqhng","pricing_plan_id":"cebpf4jnsgd1na2vs0mg"},{"bike_id":"59b8a7be-ce69-4f72-9aa4-2e5d5f4ab8ed","system_id":"levelo_inurba_marseille","lat":43.31908,"lon":5.407201,"is_reserved":false,"is_disabled":false,"rental_uris":{"android":"levelo://app?vid=59b8a7be-ce69-4f72-9aa4-2e5d5f4ab8ed","ios":"levelo://app?vid=59b8a7be-ce69-4f72-9aa4-2e5d5f4ab8ed"},"vehicle_type_id":"4","last_reported":1731874199,"current_range_meters":3600,"station_id":"ce4bhq12rcd13ifvqhig","pricing_plan_id":"cebpf4jnsgd1na2vs0mg"},{"bike_id":"0777fa14-82ef-4160-971f-e65af9fff72b","system_id":"levelo_inurba_marseille","lat":43.28459,"lon":5.35889,"is_reserved":false,"is_disabled":false,"rental_uris":{"android":"levelo://app?vid=0777fa14-82ef-4160-971f-e65af9fff72b","ios":"levelo://app?vid=0777fa14-82ef-4160-971f-e65af9fff72b"},"vehicle_type_id":"4","last_reported":1731874199,"current_range_meters":32000,"station_id":"ce4bhah2rcd13ifvqei0","pricing_plan_id":"cebpf4jnsgd1na2vs0mg"},{"bike_id":"449ad6af-8dda-49da-bd92-112f0e899ac4","system_id":"levelo_inurba_marseille","lat":43.31342,"lon":5.39699,"is_reserved":false,"is_disabled":false,"rental_uris":{"android":"levelo://app?vid=449ad6af-8dda-49da-bd92-112f0e899ac4","ios":"levelo://app?vid=449ad6af-8dda-49da-bd92-112f0e899ac4"},"vehicle_type_id":"4","last_reported":1731874199,"current_range_meters":26800,"station_id":"ce4bgvp2rcd13ifvqcu0","pricing_plan_id":"cebpf4jnsgd1na2vs0mg"},{"bike_id":"f5cde408-813c-4889-ab02-ef9fb696bc3d","system_id":"levelo_inurba_marseille","lat":43.3188,"lon":5.40735,"is_reserved":false,"is_disabled":false,"rental_uris":{"android":"levelo://app?vid=f5cde408-813c-4889-ab02-ef9fb696bc3d","ios":"levelo://app?vid=f5cde408-813c-4889-ab02-ef9fb696bc3d"},"vehicle_type_id":"4","last_reported":1731874199,"current_range_meters":18000,"station_id":"ce4bhq12rcd13ifvqhig","pricing_plan_id":"cebpf4jnsgd1na2vs0mg"},{"bike_id":"eef859fe-6cbe-43db-9bd6-dedd68a5d4ff","system_id":"levelo_inurba_marseille","lat":43.23193,"lon":5.3554,"is_reserved":false,"is_disabled":false,"rental_uris":{"android":"levelo://app?vid=eef859fe-6cbe-43db-9bd6-dedd68a5d4ff","ios":"levelo://app?vid=eef859fe-6cbe-43db-9bd6-dedd68a5d4ff"},"vehicle_type_id":"4","last_reported":1731874199,"current_range_meters":27200,"station_id":"","pricing_plan_id":"cebpf4jnsgd1na2vs0mg"},{"bike_id":"5d357811-b0ef-4cb0-b023-aac23d37a931","system_id":"levelo_inurba_marseille","lat":43.290244,"lon":5.386393,"is_reserved":false,"is_disabled":false,"rental_uris":{"android":"levelo://app?vid=5d357811-b0ef-4cb0-b023-aac23d37a931","ios":"levelo://app?vid=5d357811-b0ef-4cb0-b023-aac23d37a931"},"vehicle_type_id":"4","last_reported":1731874199,"current_range_meters":36400,"station_id":"ce4bh4p2rcd13ifvqe0g","pricing_plan_id":"cebpf4jnsgd1na2vs0mg"},{"bike_id":"f30fc8d2-9513-4cd8-88fc-a8f45027c900","system_id":"levelo_inurba_marseille","lat":43.28705,"lon":5.37395,"is_reserved":false,"is_disabled":false,"rental_uris":{"android":"levelo://app?vid=f30fc8d2-9513-4cd8-88fc-a8f45027c900","ios":"levelo://app?vid=f30fc8d2-9513-4cd8-88fc-a8f45027c900"},"vehicle_type_id":"4","last_reported":1731874199,"current_range_meters":20400,"station_id":"ce4bh3p2rcd13ifvqdq0","pricing_plan_id":"cebpf4jnsgd1na2vs0mg"},{"bike_id":"e1cbbc39-b3d6-45a9-b7e5-8900bdc53898","system_id":"levelo_inurba_marseille","lat":43.27924,"lon":5.39585,"is_reserved":false,"is_disabled":false,"rental_uris":{"android":"levelo://app?vid=e1cbbc39-b3d6-45a9-b7e5-8900bdc53898","ios":"levelo://app?vid=e1cbbc39-b3d6-45a9-b7e5-8900bdc53898"},"vehicle_type_id":"4","last_reported":1731874199,"current_range_meters":31200,"station_id":"ce4bhf92rcd13ifvqf40","pricing_plan_id":"cebpf4jnsgd1na2vs0mg"},{"bike_id":"01272bd5-a2c0-44b6-b76e-87cd305d9451","system_id":"levelo_inurba_marseille","lat":43.33023,"lon":5.39047,"is_reserved":false,"is_disabled":false,"rental_uris":{"android":"levelo://app?vid=01272bd5-a2c0-44b6-b76e-87cd305d9451","ios":"levelo://app?vid=01272bd5-a2c0-44b6-b76e-87cd305d9451"},"vehicle_type_id":"4","last_reported":1731874199,"current_range_meters":13600,"station_id":"ce4bhr92rcd13ifvqhrg","pricing_plan_id":"cebpf4jnsgd1na2vs0mg"},{"bike_id":"e1f6415b-e101-43e7-9b1b-480b213c11b4","system_id":"levelo_inurba_marseille","lat":43.295163,"lon":5.393942,"is_reserved":false,"is_disabled":false,"rental_uris":{"android":"levelo://app?vid=e1f6415b-e101-43e7-9b1b-480b213c11b4","ios":"levelo://app?vid=e1f6415b-e101-43e7-9b1b-480b213c11b4"},"vehicle_type_id":"4","last_reported":1731874199,"current_range_meters":24800,"station_id":"ce4bh292rcd13ifvqdf0","pricing_plan_id":"cebpf4jnsgd1na2vs0mg"},{"bike_id":"b3daf5c5-2c70-4b50-b0c0-26454236441d","system_id":"levelo_inurba_marseille","lat":43.25729,"lon":5.41111,"is_reserved":false,"is_disabled":false,"rental_uris":{"android":"levelo://app?vid=b3daf5c5-2c70-4b50-b0c0-26454236441d","ios":"levelo://app?vid=b3daf5c5-2c70-4b50-b0c0-26454236441d"},"vehicle_type_id":"4","last_reported":1731874199,"current_range_meters":7200,"station_id":"ce4bhkp2rcd13ifvqgd0","pricing_plan_id":"cebpf4jnsgd1na2vs0mg"},{"bike_id":"8300deb3-1fed-4359-9d2f-62192a22298f","system_id":"levelo_inurba_marseille","lat":43.30188,"lon":5.38792,"is_reserved":false,"is_disabled":false,"rental_uris":{"android":"levelo://app?vid=8300deb3-1fed-4359-9d2f-62192a22298f","ios":"levelo://app?vid=8300deb3-1fed-4359-9d2f-62192a22298f"},"vehicle_type_id":"4","last_reported":1731874199,"current_range_meters":30400,"station_id":"ce4bht12rcd13ifvqi60","pricing_plan_id":"cebpf4jnsgd1na2vs0mg"},{"bike_id":"b219a1c1-2cb4-4ae1-8e3f-102f1db645df","system_id":"levelo_inurba_marseille","lat":43.30885,"lon":5.39654,"is_reserved":false,"is_disabled":false,"rental_uris":{"android":"levelo://app?vid=b219a1c1-2cb4-4ae1-8e3f-102f1db645df","ios":"levelo://app?vid=b219a1c1-2cb4-4ae1-8e3f-102f1db645df"},"vehicle_type_id":"4","last_reported":1731874199,"current_range_meters":39200,"station_id":"ce4bh012rcd13ifvqcv0","pricing_plan_id":"cebpf4jnsgd1na2vs0mg"},{"bike_id":"a6382e7e-d19a-4c13-aa99-2275efc1d5ae","system_id":"levelo_inurba_marseille","lat":43.29275,"lon":5.36848,"is_reserved":false,"is_disabled":false,"rental_uris":{"android":"levelo://app?vid=a6382e7e-d19a-4c13-aa99-2275efc1d5ae","ios":"levelo://app?vid=a6382e7e-d19a-4c13-aa99-2275efc1d5ae"},"vehicle_type_id":"4","last_reported":1731874199,"current_range_meters":28800,"station_id":"ce4bhbp2rcd13ifvqesg","pricing_plan_id":"cebpf4jnsgd1na2vs0mg"},{"bike_id":"cb3165b9-4890-480d-ae63-784fba188dfc","system_id":"levelo_inurba_marseille","lat":43.27078,"lon":5.4228,"is_reserved":false,"is_disabled":false,"rental_uris":{"android":"levelo://app?vid=cb3165b9-4890-480d-ae63-784fba188dfc","ios":"levelo://app?vid=cb3165b9-4890-480d-ae63-784fba188dfc"},"vehicle_type_id":"4","last_reported":1731874199,"current_range_meters":38800,"station_id":"ce4bhk92rcd13ifvqgb0","pricing_plan_id":"cebpf4jnsgd1na2vs0mg"},{"bike_id":"efa2e691-5b29-4e46-af1e-872e03867cfa","system_id":"levelo_inurba_marseille","lat":43.30306,"lon":5.39209,"is_reserved":false,"is_disabled":false,"rental_uris":{"android":"levelo://app?vid=efa2e691-5b29-4e46-af1e-872e03867cfa","ios":"levelo://app?vid=efa2e691-5b29-4e46-af1e-872e03867cfa"},"vehicle_type_id":"4","last_reported":1731874199,"current_range_meters":10800,"station_id":"ce4bgkh2rcd13ifvqbk0","pricing_plan_id":"cebpf4jnsgd1na2vs0mg"},{"bike_id":"5938f129-0be9-4612-acac-86791f6673ad","system_id":"levelo_inurba_marseille","lat":43.28208,"lon":5.44375,"is_reserved":false,"is_disabled":false,"rental_uris":{"android":"levelo://app?vid=5938f129-0be9-4612-acac-86791f6673ad","ios":"levelo://app?vid=5938f129-0be9-4612-acac-86791f6673ad"},"vehicle_type_id":"4","last_reported":1731874199,"current_range_meters":11200,"station_id":"","pricing_plan_id":"cebpf4jnsgd1na2vs0mg"},{"bike_id":"fd179809-e6fa-4118-bc5c-b276cfa9228c","system_id":"levelo_inurba_marseille","lat":43.267564,"lon":5.372271,"is_reserved":false,"is_disabled":false,"rental_uris":{"android":"levelo://app?vid=fd179809-e6fa-4118-bc5c-b276cfa9228c","ios":"levelo://app?vid=fd179809-e6fa-4118-bc5c-b276cfa9228c"},"vehicle_type_id":"4","last_reported":1731874199,"current_range_meters":14000,"station_id":"ce4bgj92rcd13ifvqbe0","pricing_plan_id":"cebpf4jnsgd1na2vs0mg"},{"bike_id":"e9c95dd5-afb3-4df6-8ea4-96bbc6bd78de","system_id":"levelo_inurba_marseille","lat":43.33024,"lon":5.39041,"is_reserved":false,"is_disabled":false,"rental_uris":{"android":"levelo://app?vid=e9c95dd5-afb3-4df6-8ea4-96bbc6bd78de","ios":"levelo://app?vid=e9c95dd5-afb3-4df6-8ea4-96bbc6bd78de"},"vehicle_type_id":"4","last_reported":1731874199,"current_range_meters":36800,"station_id":"ce4bhr92rcd13ifvqhrg","pricing_plan_id":"cebpf4jnsgd1na2vs0mg"},{"bike_id":"dacc01ce-d86e-4a8a-a658-ce5d17d88878","system_id":"levelo_inurba_marseille","lat":43.26948,"lon":5.40251,"is_reserved":false,"is_disabled":false,"rental_uris":{"android":"levelo://app?vid=dacc01ce-d86e-4a8a-a658-ce5d17d88878","ios":"levelo://app?vid=dacc01ce-d86e-4a8a-a658-ce5d17d88878"},"vehicle_type_id":"4","last_reported":1731874199,"current_range_meters":39200,"station_id":"cjm6bp8fraef2m0cb0m0","pricing_plan_id":"cebpf4jnsgd1na2vs0mg"},{"bike_id":"3de61345-366f-4f92-b607-4e5e6f7dd6dc","system_id":"levelo_inurba_marseille","lat":43.25106,"lon":5.40324,"is_reserved":false,"is_disabled":false,"rental_uris":{"android":"levelo://app?vid=3de61345-366f-4f92-b607-4e5e6f7dd6dc","ios":"levelo://app?vid=3de61345-366f-4f92-b607-4e5e6f7dd6dc"},"vehicle_type_id":"4","last_reported":1731874199,"current_range_meters":33200,"station_id":"ce4bhlh2rcd13ifvqgig","pricing_plan_id":"cebpf4jnsgd1na2vs0mg"},{"bike_id":"231126c7-6ad4-4270-bba3-c28d8cb4e046","system_id":"levelo_inurba_marseille","lat":43.29022,"lon":5.38141,"is_reserved":false,"is_disabled":false,"rental_uris":{"android":"levelo://app?vid=231126c7-6ad4-4270-bba3-c28d8cb4e046","ios":"levelo://app?vid=231126c7-6ad4-4270-bba3-c28d8cb4e046"},"vehicle_type_id":"4","last_reported":1731874199,"current_range_meters":28800,"station_id":"ce4bh4p2rcd13ifvqe1g","pricing_plan_id":"cebpf4jnsgd1na2vs0mg"},{"bike_id":"9d10d046-d73c-4ee4-b938-cdffc474f965","system_id":"levelo_inurba_marseille","lat":43.2838,"lon":5.34999,"is_reserved":false,"is_disabled":false,"rental_uris":{"android":"levelo://app?vid=9d10d046-d73c-4ee4-b938-cdffc474f965","ios":"levelo://app?vid=9d10d046-d73c-4ee4-b938-cdffc474f965"},"vehicle_type_id":"4","last_reported":1731874199,"current_range_meters":32400,"station_id":"ce4bhbp2rcd13ifvqerg","pricing_plan_id":"cebpf4jnsgd1na2vs0mg"},{"bike_id":"12867844-fa2a-41b2-8d74-706d4ef15909","system_id":"levelo_inurba_marseille","lat":43.33759,"lon":5.37445,"is_reserved":false,"is_disabled":false,"rental_uris":{"android":"levelo://app?vid=12867844-fa2a-41b2-8d74-706d4ef15909","ios":"levelo://app?vid=12867844-fa2a-41b2-8d74-706d4ef15909"},"vehicle_type_id":"4","last_reported":1731874199,"current_range_meters":32000,"station_id":"","pricing_plan_id":"cebpf4jnsgd1na2vs0mg"},{"bike_id":"08bebddc-2f83-4060-9f6d-3a473ed2bb45","system_id":"levelo_inurba_marseille","lat":43.30532,"lon":5.3842,"is_reserved":false,"is_disabled":false,"rental_uris":{"android":"levelo://app?vid=08bebddc-2f83-4060-9f6d-3a473ed2bb45","ios":"levelo://app?vid=08bebddc-2f83-4060-9f6d-3a473ed2bb45"},"vehicle_type_id":"4","last_reported":1731874199,"current_range_meters":33600,"station_id":"ce4bgg92rcd13ifvqb30","pricing_plan_id":"cebpf4jnsgd1na2vs0mg"},{"bike_id":"a336ee14-58f3-4199-a15a-797b15af1e0f","system_id":"levelo_inurba_marseille","lat":43.30418,"lon":5.41292,"is_reserved":false,"is_disabled":false,"rental_uris":{"android":"levelo://app?vid=a336ee14-58f3-4199-a15a-797b15af1e0f","ios":"levelo://app?vid=a336ee14-58f3-4199-a15a-797b15af1e0f"},"vehicle_type_id":"4","last_reported":1731874199,"current_range_meters":24400,"station_id":"ce4bhop2rcd13ifvqh8g","pricing_plan_id":"cebpf4jnsgd1na2vs0mg"},{"bike_id":"23f7e7bd-3c70-44bb-943b-2505231e7297","system_id":"levelo_inurba_marseille","lat":43.28456,"lon":5.35896,"is_reserved":false,"is_disabled":false,"rental_uris":{"android":"levelo://app?vid=23f7e7bd-3c70-44bb-943b-2505231e7297","ios":"levelo://app?vid=23f7e7bd-3c70-44bb-943b-2505231e7297"},"vehicle_type_id":"4","last_reported":1731874199,"current_range_meters":39200,"station_id":"ce4bhah2rcd13ifvqei0","pricing_plan_id":"cebpf4jnsgd1na2vs0mg"},{"bike_id":"957ca821-66ec-4ba5-9b06-a3f93d783faa","system_id":"levelo_inurba_marseille","lat":43.296115,"lon":5.376811,"is_reserved":false,"is_disabled":false,"rental_uris":{"android":"levelo://app?vid=957ca821-66ec-4ba5-9b06-a3f93d783faa","ios":"levelo://app?vid=957ca821-66ec-4ba5-9b06-a3f93d783faa"},"vehicle_type_id":"4","last_reported":1731874199,"current_range_meters":22000,"station_id":"ce4bgi92rcd13ifvqb90","pricing_plan_id":"cebpf4jnsgd1na2vs0mg"},{"bike_id":"29805b00-7c0a-4e6a-9e25-4043a0fff472","system_id":"levelo_inurba_marseille","lat":43.31278,"lon":5.40161,"is_reserved":false,"is_disabled":false,"rental_uris":{"android":"levelo://app?vid=29805b00-7c0a-4e6a-9e25-4043a0fff472","ios":"levelo://app?vid=29805b00-7c0a-4e6a-9e25-4043a0fff472"},"vehicle_type_id":"4","last_reported":1731874199,"current_range_meters":28800,"station_id":"ce4bh092rcd13ifvqd30","pricing_plan_id":"cebpf4jnsgd1na2vs0mg"},{"bike_id":"53399c1f-611c-4667-8c92-d0d91098913e","system_id":"levelo_inurba_marseille","lat":43.26495,"lon":5.39537,"is_reserved":false,"is_disabled":false,"rental_uris":{"android":"levelo://app?vid=53399c1f-611c-4667-8c92-d0d91098913e","ios":"levelo://app?vid=53399c1f-611c-4667-8c92-d0d91098913e"},"vehicle_type_id":"4","last_reported":1731874199,"current_range_meters":10800,"station_id":"ce4bhi12rcd13ifvqfq0","pricing_plan_id":"cebpf4jnsgd1na2vs0mg"},{"bike_id":"7df5f898-8d4f-441d-b3e8-1bdbdaca6d1a","system_id":"levelo_inurba_marseille","lat":43.29525,"lon":5.394,"is_reserved":false,"is_disabled":false,"rental_uris":{"android":"levelo://app?vid=7df5f898-8d4f-441d-b3e8-1bdbdaca6d1a","ios":"levelo://app?vid=7df5f898-8d4f-441d-b3e8-1bdbdaca6d1a"},"vehicle_type_id":"4","last_reported":1731874199,"current_range_meters":38400,"station_id":"ce4bh292rcd13ifvqdf0","pricing_plan_id":"cebpf4jnsgd1na2vs0mg"},{"bike_id":"10808265-c82e-4663-ad34-00454e769817","system_id":"levelo_inurba_marseille","lat":43.23193,"lon":5.39983,"is_reserved":false,"is_disabled":false,"rental_uris":{"android":"levelo://app?vid=10808265-c82e-4663-ad34-00454e769817","ios":"levelo://app?vid=10808265-c82e-4663-ad34-00454e769817"},"vehicle_type_id":"4","last_reported":1731874199,"current_range_meters":29600,"station_id":"ce4bhn12rcd13ifvqgqg","pricing_plan_id":"cebpf4jnsgd1na2vs0mg"},{"bike_id":"8bcea2eb-873a-48a8-83fc-0ac9c052e180","system_id":"levelo_inurba_marseille","lat":43.32337,"lon":5.40624,"is_reserved":false,"is_disabled":false,"rental_uris":{"android":"levelo://app?vid=8bcea2eb-873a-48a8-83fc-0ac9c052e180","ios":"levelo://app?vid=8bcea2eb-873a-48a8-83fc-0ac9c052e180"},"vehicle_type_id":"4","last_reported":1731874199,"current_range_meters":34800,"station_id":"ce4bhq92rcd13ifvqhjg","pricing_plan_id":"cebpf4jnsgd1na2vs0mg"},{"bike_id":"f86d1405-ab23-4ac0-85a6-f6aed059b230","system_id":"levelo_inurba_marseille","lat":43.30668,"lon":5.40076,"is_reserved":false,"is_disabled":false,"rental_uris":{"android":"levelo://app?vid=f86d1405-ab23-4ac0-85a6-f6aed059b230","ios":"levelo://app?vid=f86d1405-ab23-4ac0-85a6-f6aed059b230"},"vehicle_type_id":"4","last_reported":1731874199,"current_range_meters":16400,"station_id":"ce4bh112rcd13ifvqda0","pricing_plan_id":"cebpf4jnsgd1na2vs0mg"},{"bike_id":"23cd3626-d01e-41cc-b7e2-fb38cb115582","system_id":"levelo_inurba_marseille","lat":43.31327,"lon":5.39687,"is_reserved":false,"is_disabled":false,"rental_uris":{"android":"levelo://app?vid=23cd3626-d01e-41cc-b7e2-fb38cb115582","ios":"levelo://app?vid=23cd3626-d01e-41cc-b7e2-fb38cb115582"},"vehicle_type_id":"4","last_reported":1731874199,"current_range_meters":24000,"station_id":"ce4bgvp2rcd13ifvqcu0","pricing_plan_id":"cebpf4jnsgd1na2vs0mg"},{"bike_id":"8f019a78-c493-4f9d-a72d-a75fc0e36210","system_id":"levelo_inurba_marseille","lat":43.2407,"lon":5.37764,"is_reserved":false,"is_disabled":false,"rental_uris":{"android":"levelo://app?vid=8f019a78-c493-4f9d-a72d-a75fc0e36210","ios":"levelo://app?vid=8f019a78-c493-4f9d-a72d-a75fc0e36210"},"vehicle_type_id":"4","last_reported":1731874199,"current_range_meters":29600,"station_id":"ce4bhnp2rcd13ifvqgvg","pricing_plan_id":"cebpf4jnsgd1na2vs0mg"},{"bike_id":"5b66ec3b-37ea-427a-b431-41c29e42fae0","system_id":"levelo_inurba_marseille","lat":43.29581,"lon":5.39961,"is_reserved":false,"is_disabled":false,"rental_uris":{"android":"levelo://app?vid=5b66ec3b-37ea-427a-b431-41c29e42fae0","ios":"levelo://app?vid=5b66ec3b-37ea-427a-b431-41c29e42fae0"},"vehicle_type_id":"4","last_reported":1731874199,"current_range_meters":27600,"station_id":"ce4bh312rcd13ifvqdj0","pricing_plan_id":"cebpf4jnsgd1na2vs0mg"},{"bike_id":"d71f75d9-74a3-482d-b92e-14976a4ffea0","system_id":"levelo_inurba_marseille","lat":43.28727,"lon":5.37935,"is_reserved":false,"is_disabled":false,"rental_uris":{"android":"levelo://app?vid=d71f75d9-74a3-482d-b92e-14976a4ffea0","ios":"levelo://app?vid=d71f75d9-74a3-482d-b92e-14976a4ffea0"},"vehicle_type_id":"4","last_reported":1731874199,"current_range_meters":8800,"station_id":"ce4bh9p2rcd13ifvqec0","pricing_plan_id":"cebpf4jnsgd1na2vs0mg"},{"bike_id":"bec56b94-4d7b-4994-859b-bb682d5c422a","system_id":"levelo_inurba_marseille","lat":43.30593,"lon":5.39361,"is_reserved":false,"is_disabled":false,"rental_uris":{"android":"levelo://app?vid=bec56b94-4d7b-4994-859b-bb682d5c422a","ios":"levelo://app?vid=bec56b94-4d7b-4994-859b-bb682d5c422a"},"vehicle_type_id":"4","last_reported":1731874199,"current_range_meters":28000,"station_id":"ce4bh0p2rcd13ifvqd80","pricing_plan_id":"cebpf4jnsgd1na2vs0mg"},{"bike_id":"a3a50842-12fb-436f-a1a6-082e2b162372","system_id":"levelo_inurba_marseille","lat":43.292,"lon":5.39316,"is_reserved":false,"is_disabled":false,"rental_uris":{"android":"levelo://app?vid=a3a50842-12fb-436f-a1a6-082e2b162372","ios":"levelo://app?vid=a3a50842-12fb-436f-a1a6-082e2b162372"},"vehicle_type_id":"4","last_reported":1731874199,"current_range_meters":16400,"station_id":"ce4bh192rcd13ifvqdd0","pricing_plan_id":"cebpf4jnsgd1na2vs0mg"},{"bike_id":"304847a3-3e07-4fb8-955c-861fbc7ac28f","system_id":"levelo_inurba_marseille","lat":43.25732,"lon":5.41107,"is_reserved":false,"is_disabled":false,"rental_uris":{"android":"levelo://app?vid=304847a3-3e07-4fb8-955c-861fbc7ac28f","ios":"levelo://app?vid=304847a3-3e07-4fb8-955c-861fbc7ac28f"},"vehicle_type_id":"4","last_reported":1731874199,"current_range_meters":39200,"station_id":"ce4bhkp2rcd13ifvqgd0","pricing_plan_id":"cebpf4jnsgd1na2vs0mg"},{"bike_id":"a55ea0f6-05c6-4db6-a1bf-12abf941d5c5","system_id":"levelo_inurba_marseille","lat":43.29062,"lon":5.37154,"is_reserved":false,"is_disabled":false,"rental_uris":{"android":"levelo://app?vid=a55ea0f6-05c6-4db6-a1bf-12abf941d5c5","ios":"levelo://app?vid=a55ea0f6-05c6-4db6-a1bf-12abf941d5c5"},"vehicle_type_id":"4","last_reported":1731874199,"current_range_meters":36800,"station_id":"ce4bh5p2rcd13ifvqe4g","pricing_plan_id":"cebpf4jnsgd1na2vs0mg"},{"bike_id":"dce885c4-4363-43eb-85bf-82f2a671ab2e","system_id":"levelo_inurba_marseille","lat":43.289429,"lon":5.363883,"is_reserved":false,"is_disabled":false,"rental_uris":{"android":"levelo://app?vid=dce885c4-4363-43eb-85bf-82f2a671ab2e","ios":"levelo://app?vid=dce885c4-4363-43eb-85bf-82f2a671ab2e"},"vehicle_type_id":"4","last_reported":1731874199,"current_range_meters":26000,"station_id":"ce4bgi92rcd13ifvqb90","pricing_plan_id":"cebpf4jnsgd1na2vs0mg"},{"bike_id":"2b754c48-bf72-4e88-a569-49c168e62a76","system_id":"levelo_inurba_marseille","lat":43.282495,"lon":5.392379,"is_reserved":false,"is_disabled":false,"rental_uris":{"android":"levelo://app?vid=2b754c48-bf72-4e88-a569-49c168e62a76","ios":"levelo://app?vid=2b754c48-bf72-4e88-a569-49c168e62a76"},"vehicle_type_id":"4","last_reported":1731874199,"current_range_meters":35200,"station_id":"ce4bho12rcd13ifvqh2g","pricing_plan_id":"cebpf4jnsgd1na2vs0mg"},{"bike_id":"a3471b01-d347-453f-9107-802a928d4193","system_id":"levelo_inurba_marseille","lat":43.2846,"lon":5.35898,"is_reserved":false,"is_disabled":false,"rental_uris":{"android":"levelo://app?vid=a3471b01-d347-453f-9107-802a928d4193","ios":"levelo://app?vid=a3471b01-d347-453f-9107-802a928d4193"},"vehicle_type_id":"4","last_reported":1731874199,"current_range_meters":38800,"station_id":"ce4bhah2rcd13ifvqei0","pricing_plan_id":"cebpf4jnsgd1na2vs0mg"},{"bike_id":"e05e1457-2f6d-4bcd-91c4-bf68c794eddb","system_id":"levelo_inurba_marseille","lat":43.29878,"lon":5.39748,"is_reserved":false,"is_disabled":false,"rental_uris":{"android":"levelo://app?vid=e05e1457-2f6d-4bcd-91c4-bf68c794eddb","ios":"levelo://app?vid=e05e1457-2f6d-4bcd-91c4-bf68c794eddb"},"vehicle_type_id":"4","last_reported":1731874199,"current_range_meters":18000,"station_id":"ce4bh0h2rcd13ifvqd50","pricing_plan_id":"cebpf4jnsgd1na2vs0mg"},{"bike_id":"cf945979-904b-41b5-8482-198035004c2e","system_id":"levelo_inurba_marseille","lat":43.33033,"lon":5.39035,"is_reserved":false,"is_disabled":false,"rental_uris":{"android":"levelo://app?vid=cf945979-904b-41b5-8482-198035004c2e","ios":"levelo://app?vid=cf945979-904b-41b5-8482-198035004c2e"},"vehicle_type_id":"4","last_reported":1731874199,"current_range_meters":24800,"station_id":"ce4bhr92rcd13ifvqhrg","pricing_plan_id":"cebpf4jnsgd1na2vs0mg"},{"bike_id":"68d0a435-1699-4fe4-b098-320644a7af57","system_id":"levelo_inurba_marseille","lat":43.28923,"lon":5.38398,"is_reserved":false,"is_disabled":false,"rental_uris":{"android":"levelo://app?vid=68d0a435-1699-4fe4-b098-320644a7af57","ios":"levelo://app?vid=68d0a435-1699-4fe4-b098-320644a7af57"},"vehicle_type_id":"4","last_reported":1731874199,"current_range_meters":39200,"station_id":"ce4bh612rcd13ifvqe6g","pricing_plan_id":"cebpf4jnsgd1na2vs0mg"},{"bike_id":"947e7a21-f914-4c34-a776-170c89b33258","system_id":"levelo_inurba_marseille","lat":43.29527,"lon":5.38532,"is_reserved":false,"is_disabled":false,"rental_uris":{"android":"levelo://app?vid=947e7a21-f914-4c34-a776-170c89b33258","ios":"levelo://app?vid=947e7a21-f914-4c34-a776-170c89b33258"},"vehicle_type_id":"4","last_reported":1731874199,"current_range_meters":30000,"station_id":"ce4bgih2rcd13ifvqba0","pricing_plan_id":"cebpf4jnsgd1na2vs0mg"},{"bike_id":"d977d09c-f51f-4b79-b553-6d9f2ab0f846","system_id":"levelo_inurba_marseille","lat":43.29252,"lon":5.40899,"is_reserved":false,"is_disabled":false,"rental_uris":{"android":"levelo://app?vid=d977d09c-f51f-4b79-b553-6d9f2ab0f846","ios":"levelo://app?vid=d977d09c-f51f-4b79-b553-6d9f2ab0f846"},"vehicle_type_id":"4","last_reported":1731874199,"current_range_meters":23200,"station_id":"ce4bh192rcd13ifvqdc0","pricing_plan_id":"cebpf4jnsgd1na2vs0mg"},{"bike_id":"8cdbbb9d-e54c-4963-8b6c-ba5d001805cc","system_id":"levelo_inurba_marseille","lat":43.28155,"lon":5.42642,"is_reserved":false,"is_disabled":false,"rental_uris":{"android":"levelo://app?vid=8cdbbb9d-e54c-4963-8b6c-ba5d001805cc","ios":"levelo://app?vid=8cdbbb9d-e54c-4963-8b6c-ba5d001805cc"},"vehicle_type_id":"4","last_reported":1731874199,"current_range_meters":32000,"station_id":"ce4bhnh2rcd13ifvqgug","pricing_plan_id":"cebpf4jnsgd1na2vs0mg"},{"bike_id":"88fbcddc-fc1e-4412-b0ae-ec12ac073173","system_id":"levelo_inurba_marseille","lat":43.28076,"lon":5.39659,"is_reserved":false,"is_disabled":false,"rental_uris":{"android":"levelo://app?vid=88fbcddc-fc1e-4412-b0ae-ec12ac073173","ios":"levelo://app?vid=88fbcddc-fc1e-4412-b0ae-ec12ac073173"},"vehicle_type_id":"4","last_reported":1731874199,"current_range_meters":39200,"station_id":"ce4bho12rcd13ifvqh2g","pricing_plan_id":"cebpf4jnsgd1na2vs0mg"},{"bike_id":"74a3a804-a3ea-476b-85cf-2f8424715fca","system_id":"levelo_inurba_marseille","lat":43.29982,"lon":5.37175,"is_reserved":false,"is_disabled":false,"rental_uris":{"android":"levelo://app?vid=74a3a804-a3ea-476b-85cf-2f8424715fca","ios":"levelo://app?vid=74a3a804-a3ea-476b-85cf-2f8424715fca"},"vehicle_type_id":"4","last_reported":1731874199,"current_range_meters":29600,"station_id":"ce4bgup2rcd13ifvqco0","pricing_plan_id":"cebpf4jnsgd1na2vs0mg"},{"bike_id":"b52ea5da-9081-4012-b4d9-7ccb140aa604","system_id":"levelo_inurba_marseille","lat":43.2678,"lon":5.39415,"is_reserved":false,"is_disabled":false,"rental_uris":{"android":"levelo://app?vid=b52ea5da-9081-4012-b4d9-7ccb140aa604","ios":"levelo://app?vid=b52ea5da-9081-4012-b4d9-7ccb140aa604"},"vehicle_type_id":"4","last_reported":1731874199,"current_range_meters":3200,"station_id":"ce4bhh12rcd13ifvqfg0","pricing_plan_id":"cebpf4jnsgd1na2vs0mg"},{"bike_id":"472c30a9-eb19-4b94-adf8-62d2a68598c0","system_id":"levelo_inurba_marseille","lat":43.24074,"lon":5.37761,"is_reserved":false,"is_disabled":false,"rental_uris":{"android":"levelo://app?vid=472c30a9-eb19-4b94-adf8-62d2a68598c0","ios":"levelo://app?vid=472c30a9-eb19-4b94-adf8-62d2a68598c0"},"vehicle_type_id":"4","last_reported":1731874199,"current_range_meters":28800,"station_id":"ce4bhnp2rcd13ifvqgvg","pricing_plan_id":"cebpf4jnsgd1na2vs0mg"},{"bike_id":"7001912d-a8ae-438b-a540-0bebebae2cfd","system_id":"levelo_inurba_marseille","lat":43.29301,"lon":5.37457,"is_reserved":false,"is_disabled":false,"rental_uris":{"android":"levelo://app?vid=7001912d-a8ae-438b-a540-0bebebae2cfd","ios":"levelo://app?vid=7001912d-a8ae-438b-a540-0bebebae2cfd"},"vehicle_type_id":"4","last_reported":1731874199,"current_range_meters":36000,"station_id":"ce4bgi12rcd13ifvqb70","pricing_plan_id":"cebpf4jnsgd1na2vs0mg"},{"bike_id":"7d0bf556-b439-4329-b8e1-42fa55daaee9","system_id":"levelo_inurba_marseille","lat":43.30884,"lon":5.39655,"is_reserved":false,"is_disabled":false,"rental_uris":{"android":"levelo://app?vid=7d0bf556-b439-4329-b8e1-42fa55daaee9","ios":"levelo://app?vid=7d0bf556-b439-4329-b8e1-42fa55daaee9"},"vehicle_type_id":"4","last_reported":1731874199,"current_range_meters":3600,"station_id":"ce4bh012rcd13ifvqcv0","pricing_plan_id":"cebpf4jnsgd1na2vs0mg"},{"bike_id":"c789f843-6a8e-473f-8e7e-4886ff8f1b02","system_id":"levelo_inurba_marseille","lat":43.23184,"lon":5.3998,"is_reserved":false,"is_disabled":false,"rental_uris":{"android":"levelo://app?vid=c789f843-6a8e-473f-8e7e-4886ff8f1b02","ios":"levelo://app?vid=c789f843-6a8e-473f-8e7e-4886ff8f1b02"},"vehicle_type_id":"4","last_reported":1731874199,"current_range_meters":38800,"station_id":"ce4bhn12rcd13ifvqgqg","pricing_plan_id":"cebpf4jnsgd1na2vs0mg"},{"bike_id":"25e8af85-9a67-438e-bf92-99314951acd2","system_id":"levelo_inurba_marseille","lat":43.30097,"lon":5.39098,"is_reserved":false,"is_disabled":false,"rental_uris":{"android":"levelo://app?vid=25e8af85-9a67-438e-bf92-99314951acd2","ios":"levelo://app?vid=25e8af85-9a67-438e-bf92-99314951acd2"},"vehicle_type_id":"4","last_reported":1731874199,"current_range_meters":31200,"station_id":"ce4bh192rcd13ifvqdb0","pricing_plan_id":"cebpf4jnsgd1na2vs0mg"},{"bike_id":"661bc774-2413-45c7-84e3-756e058f625f","system_id":"levelo_inurba_marseille","lat":43.32653,"lon":5.40994,"is_reserved":false,"is_disabled":false,"rental_uris":{"android":"levelo://app?vid=661bc774-2413-45c7-84e3-756e058f625f","ios":"levelo://app?vid=661bc774-2413-45c7-84e3-756e058f625f"},"vehicle_type_id":"4","last_reported":1731874199,"current_range_meters":23200,"station_id":"ce4bhpp2rcd13ifvqhgg","pricing_plan_id":"cebpf4jnsgd1na2vs0mg"},{"bike_id":"6544d345-32fa-47a7-a827-79b43947b8d4","system_id":"levelo_inurba_marseille","lat":43.26502,"lon":5.39549,"is_reserved":false,"is_disabled":false,"rental_uris":{"android":"levelo://app?vid=6544d345-32fa-47a7-a827-79b43947b8d4","ios":"levelo://app?vid=6544d345-32fa-47a7-a827-79b43947b8d4"},"vehicle_type_id":"4","last_reported":1731874199,"current_range_meters":10000,"station_id":"ce4bhi12rcd13ifvqfq0","pricing_plan_id":"cebpf4jnsgd1na2vs0mg"},{"bike_id":"4f01fa73-c9c0-4fc0-986b-b2a94d270e4a","system_id":"levelo_inurba_marseille","lat":43.302519,"lon":5.400883,"is_reserved":false,"is_disabled":false,"rental_uris":{"android":"levelo://app?vid=4f01fa73-c9c0-4fc0-986b-b2a94d270e4a","ios":"levelo://app?vid=4f01fa73-c9c0-4fc0-986b-b2a94d270e4a"},"vehicle_type_id":"4","last_reported":1731874199,"current_range_meters":8800,"station_id":"ce4bgvh2rcd13ifvqcs0","pricing_plan_id":"cebpf4jnsgd1na2vs0mg"},{"bike_id":"6d757fef-4f26-43f9-ac2c-ffab39bf7dae","system_id":"levelo_inurba_marseille","lat":43.32249,"lon":5.36901,"is_reserved":false,"is_disabled":false,"rental_uris":{"android":"levelo://app?vid=6d757fef-4f26-43f9-ac2c-ffab39bf7dae","ios":"levelo://app?vid=6d757fef-4f26-43f9-ac2c-ffab39bf7dae"},"vehicle_type_id":"4","last_reported":1731874199,"current_range_meters":14000,"station_id":"","pricing_plan_id":"cebpf4jnsgd1na2vs0mg"},{"bike_id":"d14c1b93-5193-4c76-88bb-4329772f8656","system_id":"levelo_inurba_marseille","lat":43.2846,"lon":5.35901,"is_reserved":false,"is_disabled":false,"rental_uris":{"android":"levelo://app?vid=d14c1b93-5193-4c76-88bb-4329772f8656","ios":"levelo://app?vid=d14c1b93-5193-4c76-88bb-4329772f8656"},"vehicle_type_id":"4","last_reported":1731874199,"current_range_meters":31200,"station_id":"ce4bhah2rcd13ifvqei0","pricing_plan_id":"cebpf4jnsgd1na2vs0mg"},{"bike_id":"4a851098-0d4c-481f-8ec2-d29f76466c9e","system_id":"levelo_inurba_marseille","lat":43.3172,"lon":5.37742,"is_reserved":false,"is_disabled":false,"rental_uris":{"android":"levelo://app?vid=4a851098-0d4c-481f-8ec2-d29f76466c9e","ios":"levelo://app?vid=4a851098-0d4c-481f-8ec2-d29f76466c9e"},"vehicle_type_id":"4","last_reported":1731874199,"current_range_meters":38800,"station_id":"ce4bgth2rcd13ifvqch0","pricing_plan_id":"cebpf4jnsgd1na2vs0mg"},{"bike_id":"250baacc-16ca-4248-a285-691ee29a779c","system_id":"levelo_inurba_marseille","lat":43.28152,"lon":5.42648,"is_reserved":false,"is_disabled":false,"rental_uris":{"android":"levelo://app?vid=250baacc-16ca-4248-a285-691ee29a779c","ios":"levelo://app?vid=250baacc-16ca-4248-a285-691ee29a779c"},"vehicle_type_id":"4","last_reported":1731874199,"current_range_meters":26000,"station_id":"ce4bhnh2rcd13ifvqgug","pricing_plan_id":"cebpf4jnsgd1na2vs0mg"},{"bike_id":"d2f42cf5-8801-43db-acf5-b3c9c3015ac2","system_id":"levelo_inurba_marseille","lat":43.27915,"lon":5.39578,"is_reserved":false,"is_disabled":false,"rental_uris":{"android":"levelo://app?vid=d2f42cf5-8801-43db-acf5-b3c9c3015ac2","ios":"levelo://app?vid=d2f42cf5-8801-43db-acf5-b3c9c3015ac2"},"vehicle_type_id":"4","last_reported":1731874199,"current_range_meters":35200,"station_id":"ce4bhf92rcd13ifvqf40","pricing_plan_id":"cebpf4jnsgd1na2vs0mg"},{"bike_id":"b9fc396b-fc8a-4bf2-950a-0f536c8cb697","system_id":"levelo_inurba_marseille","lat":43.29522,"lon":5.39401,"is_reserved":false,"is_disabled":false,"rental_uris":{"android":"levelo://app?vid=b9fc396b-fc8a-4bf2-950a-0f536c8cb697","ios":"levelo://app?vid=b9fc396b-fc8a-4bf2-950a-0f536c8cb697"},"vehicle_type_id":"4","last_reported":1731874199,"current_range_meters":33600,"station_id":"ce4bh292rcd13ifvqdf0","pricing_plan_id":"cebpf4jnsgd1na2vs0mg"},{"bike_id":"0915b3ed-9c74-407d-8c35-25f6d5470718","system_id":"levelo_inurba_marseille","lat":43.258637,"lon":5.398973,"is_reserved":false,"is_disabled":false,"rental_uris":{"android":"levelo://app?vid=0915b3ed-9c74-407d-8c35-25f6d5470718","ios":"levelo://app?vid=0915b3ed-9c74-407d-8c35-25f6d5470718"},"vehicle_type_id":"4","last_reported":1731874199,"current_range_meters":29600,"station_id":"ce4bhkp2rcd13ifvqgd0","pricing_plan_id":"cebpf4jnsgd1na2vs0mg"},{"bike_id":"4b20c0e9-4502-457d-b7a6-d9f8079c517b","system_id":"levelo_inurba_marseille","lat":43.30278,"lon":5.37701,"is_reserved":false,"is_disabled":false,"rental_uris":{"android":"levelo://app?vid=4b20c0e9-4502-457d-b7a6-d9f8079c517b","ios":"levelo://app?vid=4b20c0e9-4502-457d-b7a6-d9f8079c517b"},"vehicle_type_id":"4","last_reported":1731874199,"current_range_meters":38000,"station_id":"ce4bguh2rcd13ifvqcj0","pricing_plan_id":"cebpf4jnsgd1na2vs0mg"},{"bike_id":"f9e50a29-65aa-464d-89e3-9f7ac82c689d","system_id":"levelo_inurba_marseille","lat":43.292572,"lon":5.409166,"is_reserved":false,"is_disabled":false,"rental_uris":{"android":"levelo://app?vid=f9e50a29-65aa-464d-89e3-9f7ac82c689d","ios":"levelo://app?vid=f9e50a29-65aa-464d-89e3-9f7ac82c689d"},"vehicle_type_id":"4","last_reported":1731874199,"current_range_meters":36800,"station_id":"ce4bh192rcd13ifvqdc0","pricing_plan_id":"cebpf4jnsgd1na2vs0mg"},{"bike_id":"65117ac2-3858-4ac9-82ee-bf7c29a75fc3","system_id":"levelo_inurba_marseille","lat":43.29196,"lon":5.39328,"is_reserved":false,"is_disabled":false,"rental_uris":{"android":"levelo://app?vid=65117ac2-3858-4ac9-82ee-bf7c29a75fc3","ios":"levelo://app?vid=65117ac2-3858-4ac9-82ee-bf7c29a75fc3"},"vehicle_type_id":"4","last_reported":1731874199,"current_range_meters":13600,"station_id":"ce4bh192rcd13ifvqdd0","pricing_plan_id":"cebpf4jnsgd1na2vs0mg"},{"bike_id":"76b5d3f9-4460-41dd-a229-7e3bfd975144","system_id":"levelo_inurba_marseille","lat":43.27229,"lon":5.39194,"is_reserved":false,"is_disabled":false,"rental_uris":{"android":"levelo://app?vid=76b5d3f9-4460-41dd-a229-7e3bfd975144","ios":"levelo://app?vid=76b5d3f9-4460-41dd-a229-7e3bfd975144"},"vehicle_type_id":"4","last_reported":1731874199,"current_range_meters":38800,"station_id":"ce4bhhp2rcd13ifvqfm0","pricing_plan_id":"cebpf4jnsgd1na2vs0mg"},{"bike_id":"fe7cbc9e-b9cc-4eeb-92b6-2bc16d89be49","system_id":"levelo_inurba_marseille","lat":43.30462,"lon":5.37899,"is_reserved":false,"is_disabled":false,"rental_uris":{"android":"levelo://app?vid=fe7cbc9e-b9cc-4eeb-92b6-2bc16d89be49","ios":"levelo://app?vid=fe7cbc9e-b9cc-4eeb-92b6-2bc16d89be49"},"vehicle_type_id":"4","last_reported":1731874199,"current_range_meters":26000,"station_id":"ce4bgup2rcd13ifvqcn0","pricing_plan_id":"cebpf4jnsgd1na2vs0mg"},{"bike_id":"65ad3404-ca16-4ff6-a3da-345d3f802f80","system_id":"levelo_inurba_marseille","lat":43.24179,"lon":5.39727,"is_reserved":false,"is_disabled":false,"rental_uris":{"android":"levelo://app?vid=65ad3404-ca16-4ff6-a3da-345d3f802f80","ios":"levelo://app?vid=65ad3404-ca16-4ff6-a3da-345d3f802f80"},"vehicle_type_id":"4","last_reported":1731874199,"current_range_meters":30400,"station_id":"ce4bhn12rcd13ifvqgpg","pricing_plan_id":"cebpf4jnsgd1na2vs0mg"},{"bike_id":"560057b5-38ed-41d2-8363-c423745ab422","system_id":"levelo_inurba_marseille","lat":43.28148,"lon":5.42637,"is_reserved":false,"is_disabled":false,"rental_uris":{"android":"levelo://app?vid=560057b5-38ed-41d2-8363-c423745ab422","ios":"levelo://app?vid=560057b5-38ed-41d2-8363-c423745ab422"},"vehicle_type_id":"4","last_reported":1731874199,"current_range_meters":38800,"station_id":"ce4bhnh2rcd13ifvqgug","pricing_plan_id":"cebpf4jnsgd1na2vs0mg"},{"bike_id":"9196dbbd-fe45-42c9-ac5b-0df1de5f520b","system_id":"levelo_inurba_marseille","lat":43.27988,"lon":5.40009,"is_reserved":false,"is_disabled":false,"rental_uris":{"android":"levelo://app?vid=9196dbbd-fe45-42c9-ac5b-0df1de5f520b","ios":"levelo://app?vid=9196dbbd-fe45-42c9-ac5b-0df1de5f520b"},"vehicle_type_id":"4","last_reported":1731874199,"current_range_meters":38800,"station_id":"ce4bho92rcd13ifvqh4g","pricing_plan_id":"cebpf4jnsgd1na2vs0mg"},{"bike_id":"93b28b0d-4448-49b0-a659-1076ec8f95aa","system_id":"levelo_inurba_marseille","lat":43.31077,"lon":5.38348,"is_reserved":false,"is_disabled":false,"rental_uris":{"android":"levelo://app?vid=93b28b0d-4448-49b0-a659-1076ec8f95aa","ios":"levelo://app?vid=93b28b0d-4448-49b0-a659-1076ec8f95aa"},"vehicle_type_id":"4","last_reported":1731874199,"current_range_meters":10000,"station_id":"ce4bgv92rcd13ifvqcr0","pricing_plan_id":"cebpf4jnsgd1na2vs0mg"},{"bike_id":"b7f90434-65a8-4e0a-be43-8548326f0f86","system_id":"levelo_inurba_marseille","lat":43.29782,"lon":5.37099,"is_reserved":false,"is_disabled":false,"rental_uris":{"android":"levelo://app?vid=b7f90434-65a8-4e0a-be43-8548326f0f86","ios":"levelo://app?vid=b7f90434-65a8-4e0a-be43-8548326f0f86"},"vehicle_type_id":"4","last_reported":1731874199,"current_range_meters":14000,"station_id":"ce4bgop2rcd13ifvqc1g","pricing_plan_id":"cebpf4jnsgd1na2vs0mg"},{"bike_id":"6f4185ba-0d14-49f4-aa40-36e0cbac687e","system_id":"levelo_inurba_marseille","lat":43.29905,"lon":5.43664,"is_reserved":false,"is_disabled":false,"rental_uris":{"android":"levelo://app?vid=6f4185ba-0d14-49f4-aa40-36e0cbac687e","ios":"levelo://app?vid=6f4185ba-0d14-49f4-aa40-36e0cbac687e"},"vehicle_type_id":"4","last_reported":1731874199,"current_range_meters":40000,"station_id":"ce4bhpp2rcd13ifvqhfg","pricing_plan_id":"cebpf4jnsgd1na2vs0mg"},{"bike_id":"2ed17fb3-d4dc-4d23-86b8-87846dc96e6f","system_id":"levelo_inurba_marseille","lat":43.305674,"lon":5.393397,"is_reserved":false,"is_disabled":false,"rental_uris":{"android":"levelo://app?vid=2ed17fb3-d4dc-4d23-86b8-87846dc96e6f","ios":"levelo://app?vid=2ed17fb3-d4dc-4d23-86b8-87846dc96e6f"},"vehicle_type_id":"4","last_reported":1731874199,"current_range_meters":22000,"station_id":"ce4bh0p2rcd13ifvqd80","pricing_plan_id":"cebpf4jnsgd1na2vs0mg"},{"bike_id":"ad982bfa-78ad-414d-a23f-0f0b04b06fc8","system_id":"levelo_inurba_marseille","lat":43.31764,"lon":5.39015,"is_reserved":false,"is_disabled":false,"rental_uris":{"android":"levelo://app?vid=ad982bfa-78ad-414d-a23f-0f0b04b06fc8","ios":"levelo://app?vid=ad982bfa-78ad-414d-a23f-0f0b04b06fc8"},"vehicle_type_id":"4","last_reported":1731874199,"current_range_meters":39200,"station_id":"ce4bhqp2rcd13ifvqhng","pricing_plan_id":"cebpf4jnsgd1na2vs0mg"},{"bike_id":"3188bb0a-f569-4b99-911a-c4f8931a5d08","system_id":"levelo_inurba_marseille","lat":43.284528,"lon":5.358982,"is_reserved":false,"is_disabled":false,"rental_uris":{"android":"levelo://app?vid=3188bb0a-f569-4b99-911a-c4f8931a5d08","ios":"levelo://app?vid=3188bb0a-f569-4b99-911a-c4f8931a5d08"},"vehicle_type_id":"4","last_reported":1731874199,"current_range_meters":23200,"station_id":"ce4bhah2rcd13ifvqei0","pricing_plan_id":"cebpf4jnsgd1na2vs0mg"},{"bike_id":"54c867f3-3aed-4f1e-a020-243af9cb521a","system_id":"levelo_inurba_marseille","lat":43.287201,"lon":5.379278,"is_reserved":false,"is_disabled":false,"rental_uris":{"android":"levelo://app?vid=54c867f3-3aed-4f1e-a020-243af9cb521a","ios":"levelo://app?vid=54c867f3-3aed-4f1e-a020-243af9cb521a"},"vehicle_type_id":"4","last_reported":1731874199,"current_range_meters":31200,"station_id":"ce4bh9p2rcd13ifvqec0","pricing_plan_id":"cebpf4jnsgd1na2vs0mg"},{"bike_id":"61062b1c-299a-4abd-b1bf-0a3416145e76","system_id":"levelo_inurba_marseille","lat":43.29568,"lon":5.39977,"is_reserved":false,"is_disabled":false,"rental_uris":{"android":"levelo://app?vid=61062b1c-299a-4abd-b1bf-0a3416145e76","ios":"levelo://app?vid=61062b1c-299a-4abd-b1bf-0a3416145e76"},"vehicle_type_id":"4","last_reported":1731874199,"current_range_meters":22400,"station_id":"ce4bh312rcd13ifvqdj0","pricing_plan_id":"cebpf4jnsgd1na2vs0mg"},{"bike_id":"aedf0c89-1e5d-42d2-9af3-32999bc8bda5","system_id":"levelo_inurba_marseille","lat":43.29871,"lon":5.39728,"is_reserved":false,"is_disabled":false,"rental_uris":{"android":"levelo://app?vid=aedf0c89-1e5d-42d2-9af3-32999bc8bda5","ios":"levelo://app?vid=aedf0c89-1e5d-42d2-9af3-32999bc8bda5"},"vehicle_type_id":"4","last_reported":1731874199,"current_range_meters":39200,"station_id":"ce4bh0h2rcd13ifvqd50","pricing_plan_id":"cebpf4jnsgd1na2vs0mg"},{"bike_id":"7c98e0a9-8a05-4c51-84e1-8e2ad06176a0","system_id":"levelo_inurba_marseille","lat":43.32552,"lon":5.41431,"is_reserved":false,"is_disabled":false,"rental_uris":{"android":"levelo://app?vid=7c98e0a9-8a05-4c51-84e1-8e2ad06176a0","ios":"levelo://app?vid=7c98e0a9-8a05-4c51-84e1-8e2ad06176a0"},"vehicle_type_id":"4","last_reported":1731874199,"current_range_meters":4400,"station_id":"ce4bhq12rcd13ifvqhhg","pricing_plan_id":"cebpf4jnsgd1na2vs0mg"},{"bike_id":"cdfc78e3-0d7a-42a8-a81c-3a6e816d2c3c","system_id":"levelo_inurba_marseille","lat":43.3089,"lon":5.39639,"is_reserved":false,"is_disabled":false,"rental_uris":{"android":"levelo://app?vid=cdfc78e3-0d7a-42a8-a81c-3a6e816d2c3c","ios":"levelo://app?vid=cdfc78e3-0d7a-42a8-a81c-3a6e816d2c3c"},"vehicle_type_id":"4","last_reported":1731874199,"current_range_meters":36400,"station_id":"ce4bh012rcd13ifvqcv0","pricing_plan_id":"cebpf4jnsgd1na2vs0mg"},{"bike_id":"dbf4a046-ec4b-42a2-89d2-1a2f6e4b54e9","system_id":"levelo_inurba_marseille","lat":43.31273,"lon":5.40153,"is_reserved":false,"is_disabled":false,"rental_uris":{"android":"levelo://app?vid=dbf4a046-ec4b-42a2-89d2-1a2f6e4b54e9","ios":"levelo://app?vid=dbf4a046-ec4b-42a2-89d2-1a2f6e4b54e9"},"vehicle_type_id":"4","last_reported":1731874199,"current_range_meters":39200,"station_id":"ce4bh092rcd13ifvqd30","pricing_plan_id":"cebpf4jnsgd1na2vs0mg"},{"bike_id":"adba1b3c-6bab-4b09-9e8e-9992e2e12fa1","system_id":"levelo_inurba_marseille","lat":43.30429,"lon":5.38878,"is_reserved":false,"is_disabled":false,"rental_uris":{"android":"levelo://app?vid=adba1b3c-6bab-4b09-9e8e-9992e2e12fa1","ios":"levelo://app?vid=adba1b3c-6bab-4b09-9e8e-9992e2e12fa1"},"vehicle_type_id":"4","last_reported":1731874199,"current_range_meters":38800,"station_id":"ce4bgk12rcd13ifvqbi0","pricing_plan_id":"cebpf4jnsgd1na2vs0mg"},{"bike_id":"eb9a84f5-6092-4dc4-a3c0-a07efb437c77","system_id":"levelo_inurba_marseille","lat":43.33761,"lon":5.37438,"is_reserved":false,"is_disabled":false,"rental_uris":{"android":"levelo://app?vid=eb9a84f5-6092-4dc4-a3c0-a07efb437c77","ios":"levelo://app?vid=eb9a84f5-6092-4dc4-a3c0-a07efb437c77"},"vehicle_type_id":"4","last_reported":1731874199,"current_range_meters":4400,"station_id":"","pricing_plan_id":"cebpf4jnsgd1na2vs0mg"},{"bike_id":"f602493f-fef0-409f-98c8-a46fcedbfcf3","system_id":"levelo_inurba_marseille","lat":43.32338,"lon":5.40621,"is_reserved":false,"is_disabled":false,"rental_uris":{"android":"levelo://app?vid=f602493f-fef0-409f-98c8-a46fcedbfcf3","ios":"levelo://app?vid=f602493f-fef0-409f-98c8-a46fcedbfcf3"},"vehicle_type_id":"4","last_reported":1731874199,"current_range_meters":35200,"station_id":"ce4bhq92rcd13ifvqhjg","pricing_plan_id":"cebpf4jnsgd1na2vs0mg"},{"bike_id":"994c35dc-f204-4d83-994b-70d480689a86","system_id":"levelo_inurba_marseille","lat":43.29275,"lon":5.40113,"is_reserved":false,"is_disabled":false,"rental_uris":{"android":"levelo://app?vid=994c35dc-f204-4d83-994b-70d480689a86","ios":"levelo://app?vid=994c35dc-f204-4d83-994b-70d480689a86"},"vehicle_type_id":"4","last_reported":1731874199,"current_range_meters":34000,"station_id":"ce4bh312rcd13ifvqdk0","pricing_plan_id":"cebpf4jnsgd1na2vs0mg"},{"bike_id":"22ea48db-755d-43c3-a7d2-0beff01815d8","system_id":"levelo_inurba_marseille","lat":43.33799,"lon":5.37445,"is_reserved":false,"is_disabled":false,"rental_uris":{"android":"levelo://app?vid=22ea48db-755d-43c3-a7d2-0beff01815d8","ios":"levelo://app?vid=22ea48db-755d-43c3-a7d2-0beff01815d8"},"vehicle_type_id":"4","last_reported":1731874199,"current_range_meters":8000,"station_id":"","pricing_plan_id":"cebpf4jnsgd1na2vs0mg"},{"bike_id":"1de281b2-5512-4e16-b4a1-693c366f169d","system_id":"levelo_inurba_marseille","lat":43.28152,"lon":5.42649,"is_reserved":false,"is_disabled":false,"rental_uris":{"android":"levelo://app?vid=1de281b2-5512-4e16-b4a1-693c366f169d","ios":"levelo://app?vid=1de281b2-5512-4e16-b4a1-693c366f169d"},"vehicle_type_id":"4","last_reported":1731874199,"current_range_meters":16400,"station_id":"ce4bhnh2rcd13ifvqgug","pricing_plan_id":"cebpf4jnsgd1na2vs0mg"},{"bike_id":"15fcc8f8-48f4-4ee0-b8d1-4b8952c9848d","system_id":"levelo_inurba_marseille","lat":43.28846,"lon":5.35847,"is_reserved":false,"is_disabled":false,"rental_uris":{"android":"levelo://app?vid=15fcc8f8-48f4-4ee0-b8d1-4b8952c9848d","ios":"levelo://app?vid=15fcc8f8-48f4-4ee0-b8d1-4b8952c9848d"},"vehicle_type_id":"4","last_reported":1731874199,"current_range_meters":16800,"station_id":"ce4bhb12rcd13ifvqem0","pricing_plan_id":"cebpf4jnsgd1na2vs0mg"},{"bike_id":"aa41e6f0-e4c0-4928-aedc-e1593bc0036e","system_id":"levelo_inurba_marseille","lat":43.2992,"lon":5.37472,"is_reserved":false,"is_disabled":false,"rental_uris":{"android":"levelo://app?vid=aa41e6f0-e4c0-4928-aedc-e1593bc0036e","ios":"levelo://app?vid=aa41e6f0-e4c0-4928-aedc-e1593bc0036e"},"vehicle_type_id":"4","last_reported":1731874199,"current_range_meters":12400,"station_id":"ce4bgjh2rcd13ifvqbg0","pricing_plan_id":"cebpf4jnsgd1na2vs0mg"},{"bike_id":"f1bde73f-d4a0-4638-b576-2d712be40fe5","system_id":"levelo_inurba_marseille","lat":43.30426,"lon":5.38896,"is_reserved":false,"is_disabled":false,"rental_uris":{"android":"levelo://app?vid=f1bde73f-d4a0-4638-b576-2d712be40fe5","ios":"levelo://app?vid=f1bde73f-d4a0-4638-b576-2d712be40fe5"},"vehicle_type_id":"4","last_reported":1731874199,"current_range_meters":39200,"station_id":"ce4bgk12rcd13ifvqbi0","pricing_plan_id":"cebpf4jnsgd1na2vs0mg"},{"bike_id":"afb02f26-d4fb-42e6-ba22-385a408e0fb1","system_id":"levelo_inurba_marseille","lat":43.30642,"lon":5.40076,"is_reserved":false,"is_disabled":false,"rental_uris":{"android":"levelo://app?vid=afb02f26-d4fb-42e6-ba22-385a408e0fb1","ios":"levelo://app?vid=afb02f26-d4fb-42e6-ba22-385a408e0fb1"},"vehicle_type_id":"4","last_reported":1731874199,"current_range_meters":16800,"station_id":"ce4bh112rcd13ifvqda0","pricing_plan_id":"cebpf4jnsgd1na2vs0mg"},{"bike_id":"ca655f3b-8380-4045-b3f8-8acaa0e83ede","system_id":"levelo_inurba_marseille","lat":43.33739,"lon":5.37423,"is_reserved":false,"is_disabled":false,"rental_uris":{"android":"levelo://app?vid=ca655f3b-8380-4045-b3f8-8acaa0e83ede","ios":"levelo://app?vid=ca655f3b-8380-4045-b3f8-8acaa0e83ede"},"vehicle_type_id":"4","last_reported":1731874199,"current_range_meters":32000,"station_id":"","pricing_plan_id":"cebpf4jnsgd1na2vs0mg"},{"bike_id":"5f4a3ad8-dd77-4a7e-89b6-bb792badcc22","system_id":"levelo_inurba_marseille","lat":43.31334,"lon":5.39697,"is_reserved":false,"is_disabled":false,"rental_uris":{"android":"levelo://app?vid=5f4a3ad8-dd77-4a7e-89b6-bb792badcc22","ios":"levelo://app?vid=5f4a3ad8-dd77-4a7e-89b6-bb792badcc22"},"vehicle_type_id":"4","last_reported":1731874199,"current_range_meters":17600,"station_id":"ce4bgvp2rcd13ifvqcu0","pricing_plan_id":"cebpf4jnsgd1na2vs0mg"},{"bike_id":"bfcd3afd-435f-4d8f-9734-2a0e9ce62ac0","system_id":"levelo_inurba_marseille","lat":43.30435,"lon":5.38886,"is_reserved":false,"is_disabled":false,"rental_uris":{"android":"levelo://app?vid=bfcd3afd-435f-4d8f-9734-2a0e9ce62ac0","ios":"levelo://app?vid=bfcd3afd-435f-4d8f-9734-2a0e9ce62ac0"},"vehicle_type_id":"4","last_reported":1731874199,"current_range_meters":36400,"station_id":"ce4bgk12rcd13ifvqbi0","pricing_plan_id":"cebpf4jnsgd1na2vs0mg"},{"bike_id":"a6b8c285-acc9-4039-9531-1aae39136a33","system_id":"levelo_inurba_marseille","lat":43.312042,"lon":5.367348,"is_reserved":false,"is_disabled":false,"rental_uris":{"android":"levelo://app?vid=a6b8c285-acc9-4039-9531-1aae39136a33","ios":"levelo://app?vid=a6b8c285-acc9-4039-9531-1aae39136a33"},"vehicle_type_id":"4","last_reported":1731874199,"current_range_meters":9200,"station_id":"","pricing_plan_id":"cebpf4jnsgd1na2vs0mg"},{"bike_id":"524343d7-5845-4c57-8a33-e684d2911380","system_id":"levelo_inurba_marseille","lat":43.239608,"lon":5.366238,"is_reserved":false,"is_disabled":false,"rental_uris":{"android":"levelo://app?vid=524343d7-5845-4c57-8a33-e684d2911380","ios":"levelo://app?vid=524343d7-5845-4c57-8a33-e684d2911380"},"vehicle_type_id":"4","last_reported":1731874199,"current_range_meters":18000,"station_id":"ce4bhi12rcd13ifvqfp0","pricing_plan_id":"cebpf4jnsgd1na2vs0mg"},{"bike_id":"4bd27c08-a147-407e-adf1-13a0b0271287","system_id":"levelo_inurba_marseille","lat":43.28442,"lon":5.39197,"is_reserved":false,"is_disabled":false,"rental_uris":{"android":"levelo://app?vid=4bd27c08-a147-407e-adf1-13a0b0271287","ios":"levelo://app?vid=4bd27c08-a147-407e-adf1-13a0b0271287"},"vehicle_type_id":"4","last_reported":1731874199,"current_range_meters":36400,"station_id":"ce4bhoh2rcd13ifvqh5g","pricing_plan_id":"cebpf4jnsgd1na2vs0mg"},{"bike_id":"3e8f8de7-3ee6-4a31-b72b-08490f801121","system_id":"levelo_inurba_marseille","lat":43.27826,"lon":5.40716,"is_reserved":false,"is_disabled":false,"rental_uris":{"android":"levelo://app?vid=3e8f8de7-3ee6-4a31-b72b-08490f801121","ios":"levelo://app?vid=3e8f8de7-3ee6-4a31-b72b-08490f801121"},"vehicle_type_id":"4","last_reported":1731874199,"current_range_meters":38400,"station_id":"ce4bhnh2rcd13ifvqgtg","pricing_plan_id":"cebpf4jnsgd1na2vs0mg"},{"bike_id":"8c19b2d4-a3cd-45ab-a3d3-1f5f9c12afc6","system_id":"levelo_inurba_marseille","lat":43.30341,"lon":5.38595,"is_reserved":false,"is_disabled":false,"rental_uris":{"android":"levelo://app?vid=8c19b2d4-a3cd-45ab-a3d3-1f5f9c12afc6","ios":"levelo://app?vid=8c19b2d4-a3cd-45ab-a3d3-1f5f9c12afc6"},"vehicle_type_id":"4","last_reported":1731874199,"current_range_meters":37600,"station_id":"","pricing_plan_id":"cebpf4jnsgd1na2vs0mg"},{"bike_id":"de7343c2-973c-4525-a649-403a680a16c5","system_id":"levelo_inurba_marseille","lat":43.30097,"lon":5.39079,"is_reserved":false,"is_disabled":false,"rental_uris":{"android":"levelo://app?vid=de7343c2-973c-4525-a649-403a680a16c5","ios":"levelo://app?vid=de7343c2-973c-4525-a649-403a680a16c5"},"vehicle_type_id":"4","last_reported":1731874199,"current_range_meters":7200,"station_id":"ce4bh192rcd13ifvqdb0","pricing_plan_id":"cebpf4jnsgd1na2vs0mg"},{"bike_id":"05ccbef7-43cf-4daa-af4c-483d919c0c14","system_id":"levelo_inurba_marseille","lat":43.24172,"lon":5.36399,"is_reserved":false,"is_disabled":false,"rental_uris":{"android":"levelo://app?vid=05ccbef7-43cf-4daa-af4c-483d919c0c14","ios":"levelo://app?vid=05ccbef7-43cf-4daa-af4c-483d919c0c14"},"vehicle_type_id":"4","last_reported":1731874199,"current_range_meters":35200,"station_id":"cpo36qri1sfpv3e86is0","pricing_plan_id":"cebpf4jnsgd1na2vs0mg"},{"bike_id":"feeb7cbb-094a-4ac9-8049-95b001e53183","system_id":"levelo_inurba_marseille","lat":43.30153,"lon":5.38095,"is_reserved":false,"is_disabled":false,"rental_uris":{"android":"levelo://app?vid=feeb7cbb-094a-4ac9-8049-95b001e53183","ios":"levelo://app?vid=feeb7cbb-094a-4ac9-8049-95b001e53183"},"vehicle_type_id":"4","last_reported":1731874199,"current_range_meters":6000,"station_id":"ce4bgjp2rcd13ifvqbh0","pricing_plan_id":"cebpf4jnsgd1na2vs0mg"},{"bike_id":"493b2083-a7a4-46d2-bc93-1724c5bd01cb","system_id":"levelo_inurba_marseille","lat":43.30646,"lon":5.40064,"is_reserved":false,"is_disabled":false,"rental_uris":{"android":"levelo://app?vid=493b2083-a7a4-46d2-bc93-1724c5bd01cb","ios":"levelo://app?vid=493b2083-a7a4-46d2-bc93-1724c5bd01cb"},"vehicle_type_id":"4","last_reported":1731874199,"current_range_meters":22000,"station_id":"ce4bh112rcd13ifvqda0","pricing_plan_id":"cebpf4jnsgd1na2vs0mg"},{"bike_id":"92ac4858-87d6-4ceb-8f6e-004635a816a8","system_id":"levelo_inurba_marseille","lat":43.27786,"lon":5.40732,"is_reserved":false,"is_disabled":false,"rental_uris":{"android":"levelo://app?vid=92ac4858-87d6-4ceb-8f6e-004635a816a8","ios":"levelo://app?vid=92ac4858-87d6-4ceb-8f6e-004635a816a8"},"vehicle_type_id":"4","last_reported":1731874199,"current_range_meters":25600,"station_id":"ce4bhnh2rcd13ifvqgtg","pricing_plan_id":"cebpf4jnsgd1na2vs0mg"},{"bike_id":"2b0ff95a-3fbc-4264-9c8f-0a3734e035cc","system_id":"levelo_inurba_marseille","lat":43.3176,"lon":5.39017,"is_reserved":false,"is_disabled":false,"rental_uris":{"android":"levelo://app?vid=2b0ff95a-3fbc-4264-9c8f-0a3734e035cc","ios":"levelo://app?vid=2b0ff95a-3fbc-4264-9c8f-0a3734e035cc"},"vehicle_type_id":"4","last_reported":1731874199,"current_range_meters":39200,"station_id":"ce4bhqp2rcd13ifvqhng","pricing_plan_id":"cebpf4jnsgd1na2vs0mg"},{"bike_id":"25a9be2d-adf9-4893-a334-7b3ca0d1fec3","system_id":"levelo_inurba_marseille","lat":43.30665,"lon":5.40077,"is_reserved":false,"is_disabled":false,"rental_uris":{"android":"levelo://app?vid=25a9be2d-adf9-4893-a334-7b3ca0d1fec3","ios":"levelo://app?vid=25a9be2d-adf9-4893-a334-7b3ca0d1fec3"},"vehicle_type_id":"4","last_reported":1731874199,"current_range_meters":38800,"station_id":"ce4bh112rcd13ifvqda0","pricing_plan_id":"cebpf4jnsgd1na2vs0mg"},{"bike_id":"7ac11a49-0497-4950-a991-f74bfab781a4","system_id":"levelo_inurba_marseille","lat":43.24648,"lon":5.38893,"is_reserved":false,"is_disabled":false,"rental_uris":{"android":"levelo://app?vid=7ac11a49-0497-4950-a991-f74bfab781a4","ios":"levelo://app?vid=7ac11a49-0497-4950-a991-f74bfab781a4"},"vehicle_type_id":"4","last_reported":1731874199,"current_range_meters":24000,"station_id":"ce4bhg12rcd13ifvqf60","pricing_plan_id":"cebpf4jnsgd1na2vs0mg"},{"bike_id":"143df917-e46c-4ede-ace7-3394b01236b7","system_id":"levelo_inurba_marseille","lat":43.3128,"lon":5.4016,"is_reserved":false,"is_disabled":false,"rental_uris":{"android":"levelo://app?vid=143df917-e46c-4ede-ace7-3394b01236b7","ios":"levelo://app?vid=143df917-e46c-4ede-ace7-3394b01236b7"},"vehicle_type_id":"4","last_reported":1731874199,"current_range_meters":14000,"station_id":"ce4bh092rcd13ifvqd30","pricing_plan_id":"cebpf4jnsgd1na2vs0mg"},{"bike_id":"72fb8b04-2705-4995-b766-c3c29540855c","system_id":"levelo_inurba_marseille","lat":43.29568,"lon":5.39972,"is_reserved":false,"is_disabled":false,"rental_uris":{"android":"levelo://app?vid=72fb8b04-2705-4995-b766-c3c29540855c","ios":"levelo://app?vid=72fb8b04-2705-4995-b766-c3c29540855c"},"vehicle_type_id":"4","last_reported":1731874199,"current_range_meters":32000,"station_id":"ce4bh312rcd13ifvqdj0","pricing_plan_id":"cebpf4jnsgd1na2vs0mg"},{"bike_id":"2b8bca75-fa10-40c6-90fe-e43ed3866541","system_id":"levelo_inurba_marseille","lat":43.30528,"lon":5.36707,"is_reserved":false,"is_disabled":false,"rental_uris":{"android":"levelo://app?vid=2b8bca75-fa10-40c6-90fe-e43ed3866541","ios":"levelo://app?vid=2b8bca75-fa10-40c6-90fe-e43ed3866541"},"vehicle_type_id":"4","last_reported":1731874199,"current_range_meters":28000,"station_id":"ce4bgrp2rcd13ifvqc9g","pricing_plan_id":"cebpf4jnsgd1na2vs0mg"},{"bike_id":"31dddf60-0702-4f9f-8219-0ef701219338","system_id":"levelo_inurba_marseille","lat":43.31274,"lon":5.40161,"is_reserved":false,"is_disabled":false,"rental_uris":{"android":"levelo://app?vid=31dddf60-0702-4f9f-8219-0ef701219338","ios":"levelo://app?vid=31dddf60-0702-4f9f-8219-0ef701219338"},"vehicle_type_id":"4","last_reported":1731874199,"current_range_meters":10800,"station_id":"ce4bh092rcd13ifvqd30","pricing_plan_id":"cebpf4jnsgd1na2vs0mg"},{"bike_id":"63bcd5c6-ca80-413b-8d96-d81312ecb23e","system_id":"levelo_inurba_marseille","lat":43.28709,"lon":5.36963,"is_reserved":false,"is_disabled":false,"rental_uris":{"android":"levelo://app?vid=63bcd5c6-ca80-413b-8d96-d81312ecb23e","ios":"levelo://app?vid=63bcd5c6-ca80-413b-8d96-d81312ecb23e"},"vehicle_type_id":"4","last_reported":1731874199,"current_range_meters":21600,"station_id":"ce4bht12rcd13ifvqi60","pricing_plan_id":"cebpf4jnsgd1na2vs0mg"},{"bike_id":"7465bc4b-7341-47ef-959d-45c0a1d37e4c","system_id":"levelo_inurba_marseille","lat":43.24082,"lon":5.3774,"is_reserved":false,"is_disabled":false,"rental_uris":{"android":"levelo://app?vid=7465bc4b-7341-47ef-959d-45c0a1d37e4c","ios":"levelo://app?vid=7465bc4b-7341-47ef-959d-45c0a1d37e4c"},"vehicle_type_id":"4","last_reported":1731874199,"current_range_meters":27600,"station_id":"ce4bhnp2rcd13ifvqgvg","pricing_plan_id":"cebpf4jnsgd1na2vs0mg"},{"bike_id":"ed47ee70-605c-4ebe-b492-11cf3d5ceed1","system_id":"levelo_inurba_marseille","lat":43.31714,"lon":5.43703,"is_reserved":false,"is_disabled":false,"rental_uris":{"android":"levelo://app?vid=ed47ee70-605c-4ebe-b492-11cf3d5ceed1","ios":"levelo://app?vid=ed47ee70-605c-4ebe-b492-11cf3d5ceed1"},"vehicle_type_id":"4","last_reported":1731874199,"current_range_meters":17200,"station_id":"ce4bhp92rcd13ifvqhcg","pricing_plan_id":"cebpf4jnsgd1na2vs0mg"},{"bike_id":"a84f5389-258d-4508-9c0f-32ee5d326b43","system_id":"levelo_inurba_marseille","lat":43.33767,"lon":5.37475,"is_reserved":false,"is_disabled":false,"rental_uris":{"android":"levelo://app?vid=a84f5389-258d-4508-9c0f-32ee5d326b43","ios":"levelo://app?vid=a84f5389-258d-4508-9c0f-32ee5d326b43"},"vehicle_type_id":"4","last_reported":1731874199,"current_range_meters":28400,"station_id":"","pricing_plan_id":"cebpf4jnsgd1na2vs0mg"},{"bike_id":"d7581bdc-1067-4621-8fe2-daf34c28df75","system_id":"levelo_inurba_marseille","lat":43.24553,"lon":5.39524,"is_reserved":false,"is_disabled":false,"rental_uris":{"android":"levelo://app?vid=d7581bdc-1067-4621-8fe2-daf34c28df75","ios":"levelo://app?vid=d7581bdc-1067-4621-8fe2-daf34c28df75"},"vehicle_type_id":"4","last_reported":1731874199,"current_range_meters":28400,"station_id":"ce4bhlp2rcd13ifvqgjg","pricing_plan_id":"cebpf4jnsgd1na2vs0mg"},{"bike_id":"04158c1a-fd46-49c3-a56e-df452be93304","system_id":"levelo_inurba_marseille","lat":43.29522,"lon":5.39402,"is_reserved":false,"is_disabled":false,"rental_uris":{"android":"levelo://app?vid=04158c1a-fd46-49c3-a56e-df452be93304","ios":"levelo://app?vid=04158c1a-fd46-49c3-a56e-df452be93304"},"vehicle_type_id":"4","last_reported":1731874199,"current_range_meters":35200,"station_id":"ce4bh292rcd13ifvqdf0","pricing_plan_id":"cebpf4jnsgd1na2vs0mg"},{"bike_id":"5d5fe645-f730-42f3-8c75-c458522db474","system_id":"levelo_inurba_marseille","lat":43.30255,"lon":5.40076,"is_reserved":false,"is_disabled":false,"rental_uris":{"android":"levelo://app?vid=5d5fe645-f730-42f3-8c75-c458522db474","ios":"levelo://app?vid=5d5fe645-f730-42f3-8c75-c458522db474"},"vehicle_type_id":"4","last_reported":1731874199,"current_range_meters":26000,"station_id":"ce4bgvh2rcd13ifvqcs0","pricing_plan_id":"cebpf4jnsgd1na2vs0mg"},{"bike_id":"719862df-eb31-4da6-8f57-20e84f6c29b5","system_id":"levelo_inurba_marseille","lat":43.32359,"lon":5.38881,"is_reserved":false,"is_disabled":false,"rental_uris":{"android":"levelo://app?vid=719862df-eb31-4da6-8f57-20e84f6c29b5","ios":"levelo://app?vid=719862df-eb31-4da6-8f57-20e84f6c29b5"},"vehicle_type_id":"4","last_reported":1731874199,"current_range_meters":8800,"station_id":"ce4bhqp2rcd13ifvqhog","pricing_plan_id":"cebpf4jnsgd1na2vs0mg"},{"bike_id":"ba4cfa6b-d262-4c5f-ad80-f1c569b77562","system_id":"levelo_inurba_marseille","lat":43.25727,"lon":5.41113,"is_reserved":false,"is_disabled":false,"rental_uris":{"android":"levelo://app?vid=ba4cfa6b-d262-4c5f-ad80-f1c569b77562","ios":"levelo://app?vid=ba4cfa6b-d262-4c5f-ad80-f1c569b77562"},"vehicle_type_id":"4","last_reported":1731874199,"current_range_meters":35600,"station_id":"ce4bhkp2rcd13ifvqgd0","pricing_plan_id":"cebpf4jnsgd1na2vs0mg"},{"bike_id":"95b7222f-eb18-4b6a-8fe7-103e91bfc300","system_id":"levelo_inurba_marseille","lat":43.32657,"lon":5.40997,"is_reserved":false,"is_disabled":false,"rental_uris":{"android":"levelo://app?vid=95b7222f-eb18-4b6a-8fe7-103e91bfc300","ios":"levelo://app?vid=95b7222f-eb18-4b6a-8fe7-103e91bfc300"},"vehicle_type_id":"4","last_reported":1731874199,"current_range_meters":25200,"station_id":"ce4bhpp2rcd13ifvqhgg","pricing_plan_id":"cebpf4jnsgd1na2vs0mg"},{"bike_id":"70bce780-771f-4c17-812f-060c6d1434d0","system_id":"levelo_inurba_marseille","lat":43.32653,"lon":5.40986,"is_reserved":false,"is_disabled":false,"rental_uris":{"android":"levelo://app?vid=70bce780-771f-4c17-812f-060c6d1434d0","ios":"levelo://app?vid=70bce780-771f-4c17-812f-060c6d1434d0"},"vehicle_type_id":"4","last_reported":1731874199,"current_range_meters":38800,"station_id":"ce4bhpp2rcd13ifvqhgg","pricing_plan_id":"cebpf4jnsgd1na2vs0mg"},{"bike_id":"7c0a99b0-2291-4a5e-b431-d5d68272736a","system_id":"levelo_inurba_marseille","lat":43.2407,"lon":5.3777,"is_reserved":false,"is_disabled":false,"rental_uris":{"android":"levelo://app?vid=7c0a99b0-2291-4a5e-b431-d5d68272736a","ios":"levelo://app?vid=7c0a99b0-2291-4a5e-b431-d5d68272736a"},"vehicle_type_id":"4","last_reported":1731874199,"current_range_meters":18800,"station_id":"ce4bhnp2rcd13ifvqgvg","pricing_plan_id":"cebpf4jnsgd1na2vs0mg"},{"bike_id":"2d0c69ee-5bbd-4523-995a-0e315f06df51","system_id":"levelo_inurba_marseille","lat":43.30875,"lon":5.3966,"is_reserved":false,"is_disabled":false,"rental_uris":{"android":"levelo://app?vid=2d0c69ee-5bbd-4523-995a-0e315f06df51","ios":"levelo://app?vid=2d0c69ee-5bbd-4523-995a-0e315f06df51"},"vehicle_type_id":"4","last_reported":1731874199,"current_range_meters":38800,"station_id":"ce4bh012rcd13ifvqcv0","pricing_plan_id":"cebpf4jnsgd1na2vs0mg"},{"bike_id":"498a83d1-df7d-4476-a188-5723275135d1","system_id":"levelo_inurba_marseille","lat":43.23194,"lon":5.39986,"is_reserved":false,"is_disabled":false,"rental_uris":{"android":"levelo://app?vid=498a83d1-df7d-4476-a188-5723275135d1","ios":"levelo://app?vid=498a83d1-df7d-4476-a188-5723275135d1"},"vehicle_type_id":"4","last_reported":1731874199,"current_range_meters":38000,"station_id":"ce4bhn12rcd13ifvqgqg","pricing_plan_id":"cebpf4jnsgd1na2vs0mg"},{"bike_id":"fdf215e7-1bcb-42ff-a0ad-7cf067638477","system_id":"levelo_inurba_marseille","lat":43.31276,"lon":5.40164,"is_reserved":false,"is_disabled":false,"rental_uris":{"android":"levelo://app?vid=fdf215e7-1bcb-42ff-a0ad-7cf067638477","ios":"levelo://app?vid=fdf215e7-1bcb-42ff-a0ad-7cf067638477"},"vehicle_type_id":"4","last_reported":1731874199,"current_range_meters":6000,"station_id":"ce4bh092rcd13ifvqd30","pricing_plan_id":"cebpf4jnsgd1na2vs0mg"},{"bike_id":"522e9503-b872-48f2-8fb5-d8348a9df819","system_id":"levelo_inurba_marseille","lat":43.3169,"lon":5.40462,"is_reserved":false,"is_disabled":false,"rental_uris":{"android":"levelo://app?vid=522e9503-b872-48f2-8fb5-d8348a9df819","ios":"levelo://app?vid=522e9503-b872-48f2-8fb5-d8348a9df819"},"vehicle_type_id":"4","last_reported":1731874199,"current_range_meters":28000,"station_id":"ce4bh012rcd13ifvqd00","pricing_plan_id":"cebpf4jnsgd1na2vs0mg"},{"bike_id":"48f73d26-5825-4f48-8023-1220c3f3e032","system_id":"levelo_inurba_marseille","lat":43.296478,"lon":5.395281,"is_reserved":false,"is_disabled":false,"rental_uris":{"android":"levelo://app?vid=48f73d26-5825-4f48-8023-1220c3f3e032","ios":"levelo://app?vid=48f73d26-5825-4f48-8023-1220c3f3e032"},"vehicle_type_id":"4","last_reported":1731874199,"current_range_meters":23200,"station_id":"","pricing_plan_id":"cebpf4jnsgd1na2vs0mg"},{"bike_id":"ba50291b-d645-48f9-8257-e05ca76851b0","system_id":"levelo_inurba_marseille","lat":43.27177,"lon":5.40994,"is_reserved":false,"is_disabled":false,"rental_uris":{"android":"levelo://app?vid=ba50291b-d645-48f9-8257-e05ca76851b0","ios":"levelo://app?vid=ba50291b-d645-48f9-8257-e05ca76851b0"},"vehicle_type_id":"4","last_reported":1731874199,"current_range_meters":17600,"station_id":"ce4bhl12rcd13ifvqgf0","pricing_plan_id":"cebpf4jnsgd1na2vs0mg"},{"bike_id":"57eff8be-4cd3-4378-9c07-d24b3136b3a2","system_id":"levelo_inurba_marseille","lat":43.30432,"lon":5.38891,"is_reserved":false,"is_disabled":false,"rental_uris":{"android":"levelo://app?vid=57eff8be-4cd3-4378-9c07-d24b3136b3a2","ios":"levelo://app?vid=57eff8be-4cd3-4378-9c07-d24b3136b3a2"},"vehicle_type_id":"4","last_reported":1731874199,"current_range_meters":34800,"station_id":"ce4bgk12rcd13ifvqbi0","pricing_plan_id":"cebpf4jnsgd1na2vs0mg"},{"bike_id":"75c940bb-8f3b-4138-8bf1-e4d9d9772f24","system_id":"levelo_inurba_marseille","lat":43.31366,"lon":5.38496,"is_reserved":false,"is_disabled":false,"rental_uris":{"android":"levelo://app?vid=75c940bb-8f3b-4138-8bf1-e4d9d9772f24","ios":"levelo://app?vid=75c940bb-8f3b-4138-8bf1-e4d9d9772f24"},"vehicle_type_id":"4","last_reported":1731874199,"current_range_meters":20000,"station_id":"ce4bgt92rcd13ifvqcf0","pricing_plan_id":"cebpf4jnsgd1na2vs0mg"},{"bike_id":"eefbbc11-0cd0-4b14-84cb-111fddd0715f","system_id":"levelo_inurba_marseille","lat":43.3043,"lon":5.38884,"is_reserved":false,"is_disabled":false,"rental_uris":{"android":"levelo://app?vid=eefbbc11-0cd0-4b14-84cb-111fddd0715f","ios":"levelo://app?vid=eefbbc11-0cd0-4b14-84cb-111fddd0715f"},"vehicle_type_id":"4","last_reported":1731874199,"current_range_meters":38800,"station_id":"ce4bgk12rcd13ifvqbi0","pricing_plan_id":"cebpf4jnsgd1na2vs0mg"},{"bike_id":"22f8f8ce-1066-4250-83fa-f028400c9f0b","system_id":"levelo_inurba_marseille","lat":43.2903,"lon":5.38129,"is_reserved":false,"is_disabled":false,"rental_uris":{"android":"levelo://app?vid=22f8f8ce-1066-4250-83fa-f028400c9f0b","ios":"levelo://app?vid=22f8f8ce-1066-4250-83fa-f028400c9f0b"},"vehicle_type_id":"4","last_reported":1731874199,"current_range_meters":6000,"station_id":"ce4bh4p2rcd13ifvqe1g","pricing_plan_id":"cebpf4jnsgd1na2vs0mg"},{"bike_id":"c5462199-7932-4eef-a617-53d36b699976","system_id":"levelo_inurba_marseille","lat":43.29521,"lon":5.39401,"is_reserved":false,"is_disabled":false,"rental_uris":{"android":"levelo://app?vid=c5462199-7932-4eef-a617-53d36b699976","ios":"levelo://app?vid=c5462199-7932-4eef-a617-53d36b699976"},"vehicle_type_id":"4","last_reported":1731874199,"current_range_meters":27200,"station_id":"ce4bh292rcd13ifvqdf0","pricing_plan_id":"cebpf4jnsgd1na2vs0mg"},{"bike_id":"f772544f-7ef4-4aa3-a920-7c3eddfd2b9c","system_id":"levelo_inurba_marseille","lat":43.26564,"lon":5.39009,"is_reserved":false,"is_disabled":false,"rental_uris":{"android":"levelo://app?vid=f772544f-7ef4-4aa3-a920-7c3eddfd2b9c","ios":"levelo://app?vid=f772544f-7ef4-4aa3-a920-7c3eddfd2b9c"},"vehicle_type_id":"4","last_reported":1731874199,"current_range_meters":13600,"station_id":"ce4bhe12rcd13ifvqf30","pricing_plan_id":"cebpf4jnsgd1na2vs0mg"},{"bike_id":"cb748eee-36fc-425b-bffb-e7ab2e92cba5","system_id":"levelo_inurba_marseille","lat":43.23184,"lon":5.39983,"is_reserved":false,"is_disabled":false,"rental_uris":{"android":"levelo://app?vid=cb748eee-36fc-425b-bffb-e7ab2e92cba5","ios":"levelo://app?vid=cb748eee-36fc-425b-bffb-e7ab2e92cba5"},"vehicle_type_id":"4","last_reported":1731874199,"current_range_meters":29600,"station_id":"ce4bhn12rcd13ifvqgqg","pricing_plan_id":"cebpf4jnsgd1na2vs0mg"},{"bike_id":"a8821014-7ce3-4edb-afa9-9647e1f21870","system_id":"levelo_inurba_marseille","lat":43.29286,"lon":5.40119,"is_reserved":false,"is_disabled":false,"rental_uris":{"android":"levelo://app?vid=a8821014-7ce3-4edb-afa9-9647e1f21870","ios":"levelo://app?vid=a8821014-7ce3-4edb-afa9-9647e1f21870"},"vehicle_type_id":"4","last_reported":1731874199,"current_range_meters":25600,"station_id":"ce4bh312rcd13ifvqdk0","pricing_plan_id":"cebpf4jnsgd1na2vs0mg"},{"bike_id":"6fe8590f-e391-4325-bdde-177e28f31a3e","system_id":"levelo_inurba_marseille","lat":43.33722,"lon":5.39182,"is_reserved":false,"is_disabled":false,"rental_uris":{"android":"levelo://app?vid=6fe8590f-e391-4325-bdde-177e28f31a3e","ios":"levelo://app?vid=6fe8590f-e391-4325-bdde-177e28f31a3e"},"vehicle_type_id":"4","last_reported":1731874199,"current_range_meters":38800,"station_id":"ce4bhr92rcd13ifvqhsg","pricing_plan_id":"cebpf4jnsgd1na2vs0mg"},{"bike_id":"74c18e51-b185-4796-9436-3747a275adf8","system_id":"levelo_inurba_marseille","lat":43.29788,"lon":5.39338,"is_reserved":false,"is_disabled":false,"rental_uris":{"android":"levelo://app?vid=74c18e51-b185-4796-9436-3747a275adf8","ios":"levelo://app?vid=74c18e51-b185-4796-9436-3747a275adf8"},"vehicle_type_id":"4","last_reported":1731874199,"current_range_meters":19200,"station_id":"chh1huq6cuj3fo74tm60","pricing_plan_id":"cebpf4jnsgd1na2vs0mg"},{"bike_id":"08725ea2-8951-4caa-a965-ed8375933a1c","system_id":"levelo_inurba_marseille","lat":43.27911,"lon":5.39577,"is_reserved":false,"is_disabled":false,"rental_uris":{"android":"levelo://app?vid=08725ea2-8951-4caa-a965-ed8375933a1c","ios":"levelo://app?vid=08725ea2-8951-4caa-a965-ed8375933a1c"},"vehicle_type_id":"4","last_reported":1731874199,"current_range_meters":8800,"station_id":"ce4bhf92rcd13ifvqf40","pricing_plan_id":"cebpf4jnsgd1na2vs0mg"},{"bike_id":"6685a7e0-c811-42b1-b24a-f5642ac48162","system_id":"levelo_inurba_marseille","lat":43.32294,"lon":5.38283,"is_reserved":false,"is_disabled":false,"rental_uris":{"android":"levelo://app?vid=6685a7e0-c811-42b1-b24a-f5642ac48162","ios":"levelo://app?vid=6685a7e0-c811-42b1-b24a-f5642ac48162"},"vehicle_type_id":"4","last_reported":1731874199,"current_range_meters":28800,"station_id":"ce4bhr12rcd13ifvqhqg","pricing_plan_id":"cebpf4jnsgd1na2vs0mg"},{"bike_id":"022f478e-da93-4eda-9d1b-2d0e36905c07","system_id":"levelo_inurba_marseille","lat":43.33763,"lon":5.37443,"is_reserved":false,"is_disabled":false,"rental_uris":{"android":"levelo://app?vid=022f478e-da93-4eda-9d1b-2d0e36905c07","ios":"levelo://app?vid=022f478e-da93-4eda-9d1b-2d0e36905c07"},"vehicle_type_id":"4","last_reported":1731874199,"current_range_meters":9600,"station_id":"","pricing_plan_id":"cebpf4jnsgd1na2vs0mg"},{"bike_id":"a8fcf094-5fe5-49b4-9267-632c49b4795f","system_id":"levelo_inurba_marseille","lat":43.24073,"lon":5.37759,"is_reserved":false,"is_disabled":false,"rental_uris":{"android":"levelo://app?vid=a8fcf094-5fe5-49b4-9267-632c49b4795f","ios":"levelo://app?vid=a8fcf094-5fe5-49b4-9267-632c49b4795f"},"vehicle_type_id":"4","last_reported":1731874199,"current_range_meters":22000,"station_id":"ce4bhnp2rcd13ifvqgvg","pricing_plan_id":"cebpf4jnsgd1na2vs0mg"},{"bike_id":"3c7108fb-85fe-43b6-95ce-e6a5e6d34b1a","system_id":"levelo_inurba_marseille","lat":43.33734,"lon":5.39162,"is_reserved":false,"is_disabled":false,"rental_uris":{"android":"levelo://app?vid=3c7108fb-85fe-43b6-95ce-e6a5e6d34b1a","ios":"levelo://app?vid=3c7108fb-85fe-43b6-95ce-e6a5e6d34b1a"},"vehicle_type_id":"4","last_reported":1731874199,"current_range_meters":27200,"station_id":"ce4bhr92rcd13ifvqhsg","pricing_plan_id":"cebpf4jnsgd1na2vs0mg"},{"bike_id":"2844f4cc-888b-4129-b99f-5a2caface50e","system_id":"levelo_inurba_marseille","lat":43.29773,"lon":5.37105,"is_reserved":false,"is_disabled":false,"rental_uris":{"android":"levelo://app?vid=2844f4cc-888b-4129-b99f-5a2caface50e","ios":"levelo://app?vid=2844f4cc-888b-4129-b99f-5a2caface50e"},"vehicle_type_id":"4","last_reported":1731874199,"current_range_meters":17600,"station_id":"ce4bgop2rcd13ifvqc1g","pricing_plan_id":"cebpf4jnsgd1na2vs0mg"},{"bike_id":"14db478c-5868-414a-88d3-e9d2a39c051b","system_id":"levelo_inurba_marseille","lat":43.30248,"lon":5.40039,"is_reserved":false,"is_disabled":false,"rental_uris":{"android":"levelo://app?vid=14db478c-5868-414a-88d3-e9d2a39c051b","ios":"levelo://app?vid=14db478c-5868-414a-88d3-e9d2a39c051b"},"vehicle_type_id":"4","last_reported":1731874199,"current_range_meters":19600,"station_id":"ce4bgvh2rcd13ifvqcs0","pricing_plan_id":"cebpf4jnsgd1na2vs0mg"},{"bike_id":"4dc5054b-2700-49b0-8f46-0bfccd9b33e5","system_id":"levelo_inurba_marseille","lat":43.30511,"lon":5.38117,"is_reserved":false,"is_disabled":false,"rental_uris":{"android":"levelo://app?vid=4dc5054b-2700-49b0-8f46-0bfccd9b33e5","ios":"levelo://app?vid=4dc5054b-2700-49b0-8f46-0bfccd9b33e5"},"vehicle_type_id":"4","last_reported":1731874199,"current_range_meters":30800,"station_id":"","pricing_plan_id":"cebpf4jnsgd1na2vs0mg"},{"bike_id":"a6a9c2e2-aa61-41aa-8338-d750ed7fab85","system_id":"levelo_inurba_marseille","lat":43.23159,"lon":5.43708,"is_reserved":false,"is_disabled":false,"rental_uris":{"android":"levelo://app?vid=a6a9c2e2-aa61-41aa-8338-d750ed7fab85","ios":"levelo://app?vid=a6a9c2e2-aa61-41aa-8338-d750ed7fab85"},"vehicle_type_id":"4","last_reported":1731874199,"current_range_meters":37600,"station_id":"ce4bhmp2rcd13ifvqgog","pricing_plan_id":"cebpf4jnsgd1na2vs0mg"},{"bike_id":"43155b5a-94b8-41f8-b3fe-ed8339ffbcce","system_id":"levelo_inurba_marseille","lat":43.275954,"lon":5.423473,"is_reserved":false,"is_disabled":false,"rental_uris":{"android":"levelo://app?vid=43155b5a-94b8-41f8-b3fe-ed8339ffbcce","ios":"levelo://app?vid=43155b5a-94b8-41f8-b3fe-ed8339ffbcce"},"vehicle_type_id":"4","last_reported":1731874199,"current_range_meters":38800,"station_id":"ce4bhn92rcd13ifvqgrg","pricing_plan_id":"cebpf4jnsgd1na2vs0mg"},{"bike_id":"d4b5c8f0-f9a4-441a-9379-05efdc54de22","system_id":"levelo_inurba_marseille","lat":43.31331,"lon":5.39686,"is_reserved":false,"is_disabled":false,"rental_uris":{"android":"levelo://app?vid=d4b5c8f0-f9a4-441a-9379-05efdc54de22","ios":"levelo://app?vid=d4b5c8f0-f9a4-441a-9379-05efdc54de22"},"vehicle_type_id":"4","last_reported":1731874199,"current_range_meters":24000,"station_id":"ce4bgvp2rcd13ifvqcu0","pricing_plan_id":"cebpf4jnsgd1na2vs0mg"},{"bike_id":"929053e8-dc63-436c-8adf-41008625a734","system_id":"levelo_inurba_marseille","lat":43.30801,"lon":5.43528,"is_reserved":false,"is_disabled":false,"rental_uris":{"android":"levelo://app?vid=929053e8-dc63-436c-8adf-41008625a734","ios":"levelo://app?vid=929053e8-dc63-436c-8adf-41008625a734"},"vehicle_type_id":"4","last_reported":1731874199,"current_range_meters":24400,"station_id":"ce4bhph2rcd13ifvqheg","pricing_plan_id":"cebpf4jnsgd1na2vs0mg"},{"bike_id":"b44f7862-465d-4fc1-a233-80f90ec40d2b","system_id":"levelo_inurba_marseille","lat":43.30101,"lon":5.39091,"is_reserved":false,"is_disabled":false,"rental_uris":{"android":"levelo://app?vid=b44f7862-465d-4fc1-a233-80f90ec40d2b","ios":"levelo://app?vid=b44f7862-465d-4fc1-a233-80f90ec40d2b"},"vehicle_type_id":"4","last_reported":1731874199,"current_range_meters":38800,"station_id":"ce4bh192rcd13ifvqdb0","pricing_plan_id":"cebpf4jnsgd1na2vs0mg"},{"bike_id":"ba6901ff-3b52-4dc3-90e5-faa4ccba75b1","system_id":"levelo_inurba_marseille","lat":43.24654,"lon":5.38896,"is_reserved":false,"is_disabled":false,"rental_uris":{"android":"levelo://app?vid=ba6901ff-3b52-4dc3-90e5-faa4ccba75b1","ios":"levelo://app?vid=ba6901ff-3b52-4dc3-90e5-faa4ccba75b1"},"vehicle_type_id":"4","last_reported":1731874199,"current_range_meters":5600,"station_id":"ce4bhg12rcd13ifvqf60","pricing_plan_id":"cebpf4jnsgd1na2vs0mg"},{"bike_id":"66ae4fa0-a182-4bc1-8cb0-3cdeb1f7b9c9","system_id":"levelo_inurba_marseille","lat":43.30591,"lon":5.39355,"is_reserved":false,"is_disabled":false,"rental_uris":{"android":"levelo://app?vid=66ae4fa0-a182-4bc1-8cb0-3cdeb1f7b9c9","ios":"levelo://app?vid=66ae4fa0-a182-4bc1-8cb0-3cdeb1f7b9c9"},"vehicle_type_id":"4","last_reported":1731874199,"current_range_meters":23200,"station_id":"ce4bh0p2rcd13ifvqd80","pricing_plan_id":"cebpf4jnsgd1na2vs0mg"},{"bike_id":"c4471a8c-308d-45ca-9f9d-b35dd55300c1","system_id":"levelo_inurba_marseille","lat":43.29968,"lon":5.37147,"is_reserved":false,"is_disabled":false,"rental_uris":{"android":"levelo://app?vid=c4471a8c-308d-45ca-9f9d-b35dd55300c1","ios":"levelo://app?vid=c4471a8c-308d-45ca-9f9d-b35dd55300c1"},"vehicle_type_id":"4","last_reported":1731874199,"current_range_meters":38400,"station_id":"ce4bgr92rcd13ifvqc7g","pricing_plan_id":"cebpf4jnsgd1na2vs0mg"},{"bike_id":"96dc3658-ed22-4eca-9569-93913ce6e3ff","system_id":"levelo_inurba_marseille","lat":43.30206,"lon":5.39473,"is_reserved":false,"is_disabled":false,"rental_uris":{"android":"levelo://app?vid=96dc3658-ed22-4eca-9569-93913ce6e3ff","ios":"levelo://app?vid=96dc3658-ed22-4eca-9569-93913ce6e3ff"},"vehicle_type_id":"4","last_reported":1731874199,"current_range_meters":37600,"station_id":"ce4bh0p2rcd13ifvqd70","pricing_plan_id":"cebpf4jnsgd1na2vs0mg"},{"bike_id":"0716bab9-bb6d-43eb-8259-3defd4bc47ab","system_id":"levelo_inurba_marseille","lat":43.31284,"lon":5.40171,"is_reserved":false,"is_disabled":false,"rental_uris":{"android":"levelo://app?vid=0716bab9-bb6d-43eb-8259-3defd4bc47ab","ios":"levelo://app?vid=0716bab9-bb6d-43eb-8259-3defd4bc47ab"},"vehicle_type_id":"4","last_reported":1731874199,"current_range_meters":3600,"station_id":"ce4bh092rcd13ifvqd30","pricing_plan_id":"cebpf4jnsgd1na2vs0mg"},{"bike_id":"b01c8a7f-b1c7-4f54-b2b1-6fdbb312ffe8","system_id":"levelo_inurba_marseille","lat":43.32069,"lon":5.41537,"is_reserved":false,"is_disabled":false,"rental_uris":{"android":"levelo://app?vid=b01c8a7f-b1c7-4f54-b2b1-6fdbb312ffe8","ios":"levelo://app?vid=b01c8a7f-b1c7-4f54-b2b1-6fdbb312ffe8"},"vehicle_type_id":"4","last_reported":1731874199,"current_range_meters":20000,"station_id":"ce4bhq92rcd13ifvqhkg","pricing_plan_id":"cebpf4jnsgd1na2vs0mg"},{"bike_id":"5a7d069e-648f-4bce-95ac-c7d7431ed45f","system_id":"levelo_inurba_marseille","lat":43.29637,"lon":5.40611,"is_reserved":false,"is_disabled":false,"rental_uris":{"android":"levelo://app?vid=5a7d069e-648f-4bce-95ac-c7d7431ed45f","ios":"levelo://app?vid=5a7d069e-648f-4bce-95ac-c7d7431ed45f"},"vehicle_type_id":"4","last_reported":1731874199,"current_range_meters":24400,"station_id":"ce4bh0h2rcd13ifvqd60","pricing_plan_id":"cebpf4jnsgd1na2vs0mg"},{"bike_id":"bd1585a9-8745-4734-ab80-7f95ee0946dc","system_id":"levelo_inurba_marseille","lat":43.29033,"lon":5.38632,"is_reserved":false,"is_disabled":false,"rental_uris":{"android":"levelo://app?vid=bd1585a9-8745-4734-ab80-7f95ee0946dc","ios":"levelo://app?vid=bd1585a9-8745-4734-ab80-7f95ee0946dc"},"vehicle_type_id":"4","last_reported":1731874199,"current_range_meters":38800,"station_id":"ce4bh4p2rcd13ifvqe0g","pricing_plan_id":"cebpf4jnsgd1na2vs0mg"},{"bike_id":"bd604d6b-3abb-4bc0-b049-7407d39fbc37","system_id":"levelo_inurba_marseille","lat":43.270778,"lon":5.423186,"is_reserved":false,"is_disabled":false,"rental_uris":{"android":"levelo://app?vid=bd604d6b-3abb-4bc0-b049-7407d39fbc37","ios":"levelo://app?vid=bd604d6b-3abb-4bc0-b049-7407d39fbc37"},"vehicle_type_id":"4","last_reported":1731874199,"current_range_meters":38800,"station_id":"ce4bhk92rcd13ifvqgb0","pricing_plan_id":"cebpf4jnsgd1na2vs0mg"},{"bike_id":"853a89be-7311-4b5e-b72f-1e4dcaa7fd7a","system_id":"levelo_inurba_marseille","lat":43.29437,"lon":5.39754,"is_reserved":false,"is_disabled":false,"rental_uris":{"android":"levelo://app?vid=853a89be-7311-4b5e-b72f-1e4dcaa7fd7a","ios":"levelo://app?vid=853a89be-7311-4b5e-b72f-1e4dcaa7fd7a"},"vehicle_type_id":"4","last_reported":1731874199,"current_range_meters":30800,"station_id":"ce4bh3h2rcd13ifvqdo0","pricing_plan_id":"cebpf4jnsgd1na2vs0mg"},{"bike_id":"cfc9ad13-b51b-41dc-ab10-cd3145e08391","system_id":"levelo_inurba_marseille","lat":43.30886,"lon":5.39643,"is_reserved":false,"is_disabled":false,"rental_uris":{"android":"levelo://app?vid=cfc9ad13-b51b-41dc-ab10-cd3145e08391","ios":"levelo://app?vid=cfc9ad13-b51b-41dc-ab10-cd3145e08391"},"vehicle_type_id":"4","last_reported":1731874199,"current_range_meters":26000,"station_id":"ce4bh012rcd13ifvqcv0","pricing_plan_id":"cebpf4jnsgd1na2vs0mg"},{"bike_id":"25dd3423-1b88-40c1-8fd2-9e5e241fe9bf","system_id":"levelo_inurba_marseille","lat":43.299155,"lon":5.374737,"is_reserved":false,"is_disabled":false,"rental_uris":{"android":"levelo://app?vid=25dd3423-1b88-40c1-8fd2-9e5e241fe9bf","ios":"levelo://app?vid=25dd3423-1b88-40c1-8fd2-9e5e241fe9bf"},"vehicle_type_id":"4","last_reported":1731874199,"current_range_meters":32000,"station_id":"ce4bgjh2rcd13ifvqbg0","pricing_plan_id":"cebpf4jnsgd1na2vs0mg"},{"bike_id":"90bb2cae-4339-46de-973d-1d239b082c40","system_id":"levelo_inurba_marseille","lat":43.23191,"lon":5.39986,"is_reserved":false,"is_disabled":false,"rental_uris":{"android":"levelo://app?vid=90bb2cae-4339-46de-973d-1d239b082c40","ios":"levelo://app?vid=90bb2cae-4339-46de-973d-1d239b082c40"},"vehicle_type_id":"4","last_reported":1731874199,"current_range_meters":16800,"station_id":"ce4bhn12rcd13ifvqgqg","pricing_plan_id":"cebpf4jnsgd1na2vs0mg"},{"bike_id":"61177c22-a946-41fd-abd6-c97d184358c4","system_id":"levelo_inurba_marseille","lat":43.30128,"lon":5.39867,"is_reserved":false,"is_disabled":false,"rental_uris":{"android":"levelo://app?vid=61177c22-a946-41fd-abd6-c97d184358c4","ios":"levelo://app?vid=61177c22-a946-41fd-abd6-c97d184358c4"},"vehicle_type_id":"4","last_reported":1731874199,"current_range_meters":29600,"station_id":"ce4bh0h2rcd13ifvqd40","pricing_plan_id":"cebpf4jnsgd1na2vs0mg"},{"bike_id":"ed3288cf-c850-40af-b1f9-4e3b5622ee4b","system_id":"levelo_inurba_marseille","lat":43.25118,"lon":5.40312,"is_reserved":false,"is_disabled":false,"rental_uris":{"android":"levelo://app?vid=ed3288cf-c850-40af-b1f9-4e3b5622ee4b","ios":"levelo://app?vid=ed3288cf-c850-40af-b1f9-4e3b5622ee4b"},"vehicle_type_id":"4","last_reported":1731874199,"current_range_meters":2800,"station_id":"ce4bhlh2rcd13ifvqgig","pricing_plan_id":"cebpf4jnsgd1na2vs0mg"},