{"last_updated":1751545311,"ttl":60,"version":"2.2","data":{"bikes":[{"bike_id":"3da29fb8-fc97-44c6-b9ac-31dd456b2fd4","system_id":"levelo_inurba_marseille","lat":43.33771,"lon":5.37424,"is_reserved":false,"is_disabled":true,"rental_uris":{"android":"levelo://app?vid=3da29fb8-fc97-44c6-b9ac-31dd456b2fd4","ios":"levelo://app?vid=3da29fb8-fc97-44c6-b9ac-31dd456b2fd4"},"vehicle_type_id":"4","last_reported":1751545311,"current_range_meters":0,"station_id":"","pricing_plan_id":"cebpf4jnsgd1na2vs0mg"},{"bike_id":"01861ad8-a8d7-4be6-816e-651927c87584","system_id":"levelo_inurba_marseille","lat":43.33751,"lon":5.37456,"is_reserved":false,"is_disabled":true,"rental_uris":{"android":"levelo://app?vid=01861ad8-a8d7-4be6-816e-651927c87584","ios":"levelo://app?vid=01861ad8-a8d7-4be6-816e-651927c87584"},"vehicle_type_id":"4","last_reported":1751545311,"current_range_meters":0,"station_id":"","pricing_plan_id":"cebpf4jnsgd1na2vs0mg"},{"bike_id":"6e5b5a4d-1ee5-4068-9613-fb44ab4d8a9a","system_id":"levelo_inurba_marseille","lat":43.348553,"lon":5.346831,"is_reserved":false,"is_disabled":true,"rental_uris":{"android":"levelo://app?vid=6e5b5a4d-1ee5-4068-9613-fb44ab4d8a9a","ios":"levelo://app?vid=6e5b5a4d-1ee5-4068-9613-fb44ab4d8a9a"},"vehicle_type_id":"4","last_reported":1751545311,"current_range_meters":0,"station_id":"","pricing_plan_id":"cebpf4jnsgd1na2vs0mg"},{"bike_id":"8e365e3c-559a-4ba6-a6c5-4c159e2434fc","system_id":"levelo_inurba_marseille","lat":43.21748,"lon":5.34611,"is_reserved":false,"is_disabled":true,"rental_uris":{"android":"levelo://app?vid=8e365e3c-559a-4ba6-a6c5-4c159e2434fc","ios":"levelo://app?vid=8e365e3c-559a-4ba6-a6c5-4c159e2434fc"},"vehicle_type_id":"4","last_reported":1751545311,"current_range_meters":0,"station_id":"","pricing_plan_id":"cebpf4jnsgd1na2vs0mg"},{"bike_id":"5fe1f33a-ebc4-4182-b521-7ef3eadc1773","system_id":"levelo_inurba_marseille","lat":43.26884,"lon":5.36891,"is_reserved":false,"is_disabled":true,"rental_uris":{"android":"levelo://app?vid=5fe1f33a-ebc4-4182-b521-7ef3eadc1773","ios":"levelo://app?vid=5fe1f33a-ebc4-4182-b521-7ef3eadc1773"},"vehicle_type_id":"4","last_reported":1751545311,"current_range_meters":0,"station_id":"","pricing_plan_id":"cebpf4jnsgd1na2vs0mg"},{"bike_id":"4f8c7826-ef00-4467-b0a9-56921dcbf3b3","system_id":"levelo_inurba_marseille","lat":43.31167,"lon":5.38721,"is_reserved":false,"is_disabled":true,"rental_uris":{"android":"levelo://app?vid=4f8c7826-ef00-4467-b0a9-56921dcbf3b3","ios":"levelo://app?vid=4f8c7826-ef00-4467-b0a9-56921dcbf3b3"},"vehicle_type_id":"4","last_reported":1751545311,"current_range_meters":0,"station_id":"ce4bgv12rcd13ifvqcp0","pricing_plan_id":"cebpf4jnsgd1na2vs0mg"},{"bike_id":"e198fdcc-cd13-4de1-8bde-5dc6dca16ab0","system_id":"levelo_inurba_marseille","lat":43.31053,"lon":5.38383,"is_reserved":false,"is_disabled":true,"rental_uris":{"android":"levelo://app?vid=e198fdcc-cd13-4de1-8bde-5dc6dca16ab0","ios":"levelo://app?vid=e198fdcc-cd13-4de1-8bde-5dc6dca16ab0"},"vehicle_type_id":"4","last_reported":1751545311,"current_range_meters":0,"station_id":"ce4bgv92rcd13ifvqcr0","pricing_plan_id":"cebpf4jnsgd1na2vs0mg"},{"bike_id":"89710b76-0540-4f65-9f15-830c491b7b39","system_id":"levelo_inurba_marseille","lat":43.29029,"lon":5.3864,"is_reserved":false,"is_disabled":true,"rental_uris":{"android":"levelo://app?vid=89710b76-0540-4f65-9f15-830c491b7b39","ios":"levelo://app?vid=89710b76-0540-4f65-9f15-830c491b7b39"},"vehicle_type_id":"4","last_reported":1751545311,"current_range_meters":0,"station_id":"ce4bh4p2rcd13ifvqe0g","pricing_plan_id":"cebpf4jnsgd1na2vs0mg"},{"bike_id":"08f28075-9f2a-42ce-8a4c-761fbdceff7b","system_id":"levelo_inurba_marseille","lat":43.287847,"lon":5.388591,"is_reserved":false,"is_disabled":true,"rental_uris":{"android":"levelo://app?vid=08f28075-9f2a-42ce-8a4c-761fbdceff7b","ios":"levelo://app?vid=08f28075-9f2a-42ce-8a4c-761fbdceff7b"},"vehicle_type_id":"4","last_reported":1751545311,"current_range_meters":0,"station_id":"ce4bh692rcd13ifvqea0","pricing_plan_id":"cebpf4jnsgd1na2vs0mg"},{"bike_id":"bca56482-01a8-49ec-9402-9775d2aa21b5","system_id":"levelo_inurba_marseille","lat":43.28483,"lon":5.38535,"is_reserved":false,"is_disabled":true,"rental_uris":{"android":"levelo://app?vid=bca56482-01a8-49ec-9402-9775d2aa21b5","ios":"levelo://app?vid=bca56482-01a8-49ec-9402-9775d2aa21b5"},"vehicle_type_id":"4","last_reported":1751545311,"current_range_meters":0,"station_id":"ce4bh8p2rcd13ifvqeb0","pricing_plan_id":"cebpf4jnsgd1na2vs0mg"},{"bike_id":"6ff225f0-0304-4135-ad05-a2a348a54655","system_id":"levelo_inurba_marseille","lat":43.29003,"lon":5.35607,"is_reserved":false,"is_disabled":true,"rental_uris":{"android":"levelo://app?vid=6ff225f0-0304-4135-ad05-a2a348a54655","ios":"levelo://app?vid=6ff225f0-0304-4135-ad05-a2a348a54655"},"vehicle_type_id":"4","last_reported":1751545311,"current_range_meters":0,"station_id":"ce4bhb92rcd13ifvqen0","pricing_plan_id":"cebpf4jnsgd1na2vs0mg"},{"bike_id":"b6c85ad0-4338-4dc4-be9e-8b3d2e019b7f","system_id":"levelo_inurba_marseille","lat":43.262168,"lon":5.374417,"is_reserved":false,"is_disabled":true,"rental_uris":{"android":"levelo://app?vid=b6c85ad0-4338-4dc4-be9e-8b3d2e019b7f","ios":"levelo://app?vid=b6c85ad0-4338-4dc4-be9e-8b3d2e019b7f"},"vehicle_type_id":"4","last_reported":1751545311,"current_range_meters":0,"station_id":"ce4bhgp2rcd13ifvqfc0","pricing_plan_id":"cebpf4jnsgd1na2vs0mg"},{"bike_id":"9ed4dabb-3138-4531-af44-ad24d30eba26","system_id":"levelo_inurba_marseille","lat":43.27076,"lon":5.4228,"is_reserved":false,"is_disabled":true,"rental_uris":{"android":"levelo://app?vid=9ed4dabb-3138-4531-af44-ad24d30eba26","ios":"levelo://app?vid=9ed4dabb-3138-4531-af44-ad24d30eba26"},"vehicle_type_id":"4","last_reported":1751545311,"current_range_meters":0,"station_id":"ce4bhk92rcd13ifvqgb0","pricing_plan_id":"cebpf4jnsgd1na2vs0mg"},{"bike_id":"45a36d42-3f75-4451-929c-2980bab85fb7","system_id":"levelo_inurba_marseille","lat":43.23144,"lon":5.43727,"is_reserved":false,"is_disabled":true,"rental_uris":{"android":"levelo://app?vid=45a36d42-3f75-4451-929c-2980bab85fb7","ios":"levelo://app?vid=45a36d42-3f75-4451-929c-2980bab85fb7"},"vehicle_type_id":"4","last_reported":1751545311,"current_range_meters":0,"station_id":"ce4bhmp2rcd13ifvqgog","pricing_plan_id":"cebpf4jnsgd1na2vs0mg"},{"bike_id":"7e39ea07-3ec1-4f66-8d21-89c3fc316912","system_id":"levelo_inurba_marseille","lat":43.31722,"lon":5.42392,"is_reserved":false,"is_disabled":true,"rental_uris":{"android":"levelo://app?vid=7e39ea07-3ec1-4f66-8d21-89c3fc316912","ios":"levelo://app?vid=7e39ea07-3ec1-4f66-8d21-89c3fc316912"},"vehicle_type_id":"4","last_reported":1751545311,"current_range_meters":0,"station_id":"ce4bhp92rcd13ifvqhbg","pricing_plan_id":"cebpf4jnsgd1na2vs0mg"},{"bike_id":"389499ce-f848-4688-98f1-8668f3e5224c","system_id":"levelo_inurba_marseille","lat":43.29897,"lon":5.43668,"is_reserved":false,"is_disabled":true,"rental_uris":{"android":"levelo://app?vid=389499ce-f848-4688-98f1-8668f3e5224c","ios":"levelo://app?vid=389499ce-f848-4688-98f1-8668f3e5224c"},"vehicle_type_id":"4","last_reported":1751545311,"current_range_meters":0,"station_id":"ce4bhpp2rcd13ifvqhfg","pricing_plan_id":"cebpf4jnsgd1na2vs0mg"},{"bike_id":"0ceedb97-b379-4d71-a0a5-a7aacfec8efe","system_id":"levelo_inurba_marseille","lat":43.23192,"lon":5.35568,"is_reserved":false,"is_disabled":true,"rental_uris":{"android":"levelo://app?vid=0ceedb97-b379-4d71-a0a5-a7aacfec8efe","ios":"levelo://app?vid=0ceedb97-b379-4d71-a0a5-a7aacfec8efe"},"vehicle_type_id":"4","last_reported":1751545311,"current_range_meters":0,"station_id":"ce4bhu92rcd13ifvqi70","pricing_plan_id":"cebpf4jnsgd1na2vs0mg"},{"bike_id":"1429b5fe-3776-444e-b9e5-115d63a3a140","system_id":"levelo_inurba_marseille","lat":43.22933,"lon":5.35377,"is_reserved":false,"is_disabled":true,"rental_uris":{"android":"levelo://app?vid=1429b5fe-3776-444e-b9e5-115d63a3a140","ios":"levelo://app?vid=1429b5fe-3776-444e-b9e5-115d63a3a140"},"vehicle_type_id":"4","last_reported":1751545311,"current_range_meters":0,"station_id":"cpo3532slgdg3j2ikp40","pricing_plan_id":"cebpf4jnsgd1na2vs0mg"},{"bike_id":"34525e0e-88eb-4fe8-be83-e19f0f1185d3","system_id":"levelo_inurba_marseille","lat":43.22535,"lon":5.34781,"is_reserved":false,"is_disabled":true,"rental_uris":{"android":"levelo://app?vid=34525e0e-88eb-4fe8-be83-e19f0f1185d3","ios":"levelo://app?vid=34525e0e-88eb-4fe8-be83-e19f0f1185d3"},"vehicle_type_id":"4","last_reported":1751545311,"current_range_meters":0,"station_id":"st_cvj5dfep6f1abm77gieg","pricing_plan_id":"cebpf4jnsgd1na2vs0mg"},{"bike_id":"9795e511-4f68-494d-9846-41f87f5dd923","system_id":"levelo_inurba_marseille","lat":43.22524,"lon":5.34785,"is_reserved":false,"is_disabled":true,"rental_uris":{"android":"levelo://app?vid=9795e511-4f68-494d-9846-41f87f5dd923","ios":"levelo://app?vid=9795e511-4f68-494d-9846-41f87f5dd923"},"vehicle_type_id":"4","last_reported":1751545311,"current_range_meters":0,"station_id":"st_cvj5dfep6f1abm77gieg","pricing_plan_id":"cebpf4jnsgd1na2vs0mg"},{"bike_id":"7750661e-3127-4501-aa76-1d7cb6be5070","system_id":"levelo_inurba_marseille","lat":43.21744,"lon":5.34609,"is_reserved":false,"is_disabled":true,"rental_uris":{"android":"levelo://app?vid=7750661e-3127-4501-aa76-1d7cb6be5070","ios":"levelo://app?vid=7750661e-3127-4501-aa76-1d7cb6be5070"},"vehicle_type_id":"4","last_reported":1751545311,"current_range_meters":0,"station_id":"st_cvj6r9ubvosntc0bgbag","pricing_plan_id":"cebpf4jnsgd1na2vs0mg"},{"bike_id":"8e520791-f3c2-458c-9680-3acd4b41f812","system_id":"levelo_inurba_marseille","lat":43.31171,"lon":5.38715,"is_reserved":false,"is_disabled":true,"rental_uris":{"android":"levelo://app?vid=8e520791-f3c2-458c-9680-3acd4b41f812","ios":"levelo://app?vid=8e520791-f3c2-458c-9680-3acd4b41f812"},"vehicle_type_id":"4","last_reported":1751545311,"current_range_meters":400,"station_id":"ce4bgv12rcd13ifvqcp0","pricing_plan_id":"cebpf4jnsgd1na2vs0mg"},{"bike_id":"62089f1c-c774-4e5d-9113-36aef26321a3","system_id":"levelo_inurba_marseille","lat":43.29178,"lon":5.39326,"is_reserved":false,"is_disabled":true,"rental_uris":{"android":"levelo://app?vid=62089f1c-c774-4e5d-9113-36aef26321a3","ios":"levelo://app?vid=62089f1c-c774-4e5d-9113-36aef26321a3"},"vehicle_type_id":"4","last_reported":1751545311,"current_range_meters":400,"station_id":"ce4bh192rcd13ifvqdd0","pricing_plan_id":"cebpf4jnsgd1na2vs0mg"},{"bike_id":"a2fcba7d-0637-4b8e-a64c-507472402ef8","system_id":"levelo_inurba_marseille","lat":43.30543,"lon":5.36529,"is_reserved":false,"is_disabled":true,"rental_uris":{"android":"levelo://app?vid=a2fcba7d-0637-4b8e-a64c-507472402ef8","ios":"levelo://app?vid=a2fcba7d-0637-4b8e-a64c-507472402ef8"},"vehicle_type_id":"4","last_reported":1751545311,"current_range_meters":800,"station_id":"ce4bgs12rcd13ifvqcag","pricing_plan_id":"cebpf4jnsgd1na2vs0mg"},{"bike_id":"75d0a17c-d0c5-45e5-9632-3722a87e82d5","system_id":"levelo_inurba_marseille","lat":43.3212,"lon":5.36806,"is_reserved":false,"is_disabled":true,"rental_uris":{"android":"levelo://app?vid=75d0a17c-d0c5-45e5-9632-3722a87e82d5","ios":"levelo://app?vid=75d0a17c-d0c5-45e5-9632-3722a87e82d5"},"vehicle_type_id":"4","last_reported":1751545311,"current_range_meters":800,"station_id":"ce4bhrh2rcd13ifvqhug","pricing_plan_id":"cebpf4jnsgd1na2vs0mg"},{"bike_id":"b92f819d-38c6-460b-bd64-54a7292238b4","system_id":"levelo_inurba_marseille","lat":43.31216,"lon":5.36863,"is_reserved":false,"is_disabled":true,"rental_uris":{"android":"levelo://app?vid=b92f819d-38c6-460b-bd64-54a7292238b4","ios":"levelo://app?vid=b92f819d-38c6-460b-bd64-54a7292238b4"},"vehicle_type_id":"4","last_reported":1751545311,"current_range_meters":1200,"station_id":"ce4bgl92rcd13ifvqbq0","pricing_plan_id":"cebpf4jnsgd1na2vs0mg"},{"bike_id":"563ffdfd-6654-4ebe-8b35-0cfb1f3835c7","system_id":"levelo_inurba_marseille","lat":43.311624,"lon":5.387258,"is_reserved":false,"is_disabled":true,"rental_uris":{"android":"levelo://app?vid=563ffdfd-6654-4ebe-8b35-0cfb1f3835c7","ios":"levelo://app?vid=563ffdfd-6654-4ebe-8b35-0cfb1f3835c7"},"vehicle_type_id":"4","last_reported":1751545311,"current_range_meters":1200,"station_id":"ce4bgv12rcd13ifvqcp0","pricing_plan_id":"cebpf4jnsgd1na2vs0mg"},{"bike_id":"6ea9c422-f8cd-4166-a758-54fe37d7c23a","system_id":"levelo_inurba_marseille","lat":43.29637,"lon":5.37744,"is_reserved":false,"is_disabled":true,"rental_uris":{"android":"levelo://app?vid=6ea9c422-f8cd-4166-a758-54fe37d7c23a","ios":"levelo://app?vid=6ea9c422-f8cd-4166-a758-54fe37d7c23a"},"vehicle_type_id":"4","last_reported":1751545311,"current_range_meters":1600,"station_id":"ce4bgi92rcd13ifvqb90","pricing_plan_id":"cebpf4jnsgd1na2vs0mg"},{"bike_id":"62ce773e-8f99-4de7-91d9-3b4d50ea35e0","system_id":"levelo_inurba_marseille","lat":43.26556,"lon":5.37298,"is_reserved":false,"is_disabled":true,"rental_uris":{"android":"levelo://app?vid=62ce773e-8f99-4de7-91d9-3b4d50ea35e0","ios":"levelo://app?vid=62ce773e-8f99-4de7-91d9-3b4d50ea35e0"},"vehicle_type_id":"4","last_reported":1751545311,"current_range_meters":1600,"station_id":"ce4bhg12rcd13ifvqf70","pricing_plan_id":"cebpf4jnsgd1na2vs0mg"},{"bike_id":"4e6046b9-85f6-40bf-bc2a-3e3a09b8cccc","system_id":"levelo_inurba_marseille","lat":43.29524,"lon":5.38544,"is_reserved":false,"is_disabled":true,"rental_uris":{"android":"levelo://app?vid=4e6046b9-85f6-40bf-bc2a-3e3a09b8cccc","ios":"levelo://app?vid=4e6046b9-85f6-40bf-bc2a-3e3a09b8cccc"},"vehicle_type_id":"4","last_reported":1751545311,"current_range_meters":2000,"station_id":"ce4bgih2rcd13ifvqba0","pricing_plan_id":"cebpf4jnsgd1na2vs0mg"},{"bike_id":"fb1b3e8e-938b-4bdb-ab5d-dfd407deb987","system_id":"levelo_inurba_marseille","lat":43.2847,"lon":5.38413,"is_reserved":false,"is_disabled":true,"rental_uris":{"android":"levelo://app?vid=fb1b3e8e-938b-4bdb-ab5d-dfd407deb987","ios":"levelo://app?vid=fb1b3e8e-938b-4bdb-ab5d-dfd407deb987"},"vehicle_type_id":"4","last_reported":1751545311,"current_range_meters":2000,"station_id":"ce4bh512rcd13ifvqe3g","pricing_plan_id":"cebpf4jnsgd1na2vs0mg"},{"bike_id":"0d3436b0-9efe-48c8-a540-df6b3276ff43","system_id":"levelo_inurba_marseille","lat":43.280986,"lon":5.378418,"is_reserved":false,"is_disabled":true,"rental_uris":{"android":"levelo://app?vid=0d3436b0-9efe-48c8-a540-df6b3276ff43","ios":"levelo://app?vid=0d3436b0-9efe-48c8-a540-df6b3276ff43"},"vehicle_type_id":"4","last_reported":1751545311,"current_range_meters":2000,"station_id":"ce4bha12rcd13ifvqee0","pricing_plan_id":"cebpf4jnsgd1na2vs0mg"},{"bike_id":"4ef27fec-1716-44d4-aabb-3c6267b763ac","system_id":"levelo_inurba_marseille","lat":43.27374,"lon":5.36259,"is_reserved":false,"is_disabled":true,"rental_uris":{"android":"levelo://app?vid=4ef27fec-1716-44d4-aabb-3c6267b763ac","ios":"levelo://app?vid=4ef27fec-1716-44d4-aabb-3c6267b763ac"},"vehicle_type_id":"4","last_reported":1751545311,"current_range_meters":2000,"station_id":"ce4bhbh2rcd13ifvqeo0","pricing_plan_id":"cebpf4jnsgd1na2vs0mg"},{"bike_id":"5895e53c-7747-4720-951b-b9c528e3894c","system_id":"levelo_inurba_marseille","lat":43.295227,"lon":5.390535,"is_reserved":false,"is_disabled":false,"rental_uris":{"android":"levelo://app?vid=5895e53c-7747-4720-951b-b9c528e3894c","ios":"levelo://app?vid=5895e53c-7747-4720-951b-b9c528e3894c"},"vehicle_type_id":"4","last_reported":1751545311,"current_range_meters":2800,"station_id":"ce4bh3p2rcd13ifvqdp0","pricing_plan_id":"cebpf4jnsgd1na2vs0mg"},{"bike_id":"e418c519-f08b-4421-84c1-8ea16b5c982d","system_id":"levelo_inurba_marseille","lat":43.31354,"lon":5.36739,"is_reserved":false,"is_disabled":false,"rental_uris":{"android":"levelo://app?vid=e418c519-f08b-4421-84c1-8ea16b5c982d","ios":"levelo://app?vid=e418c519-f08b-4421-84c1-8ea16b5c982d"},"vehicle_type_id":"4","last_reported":1751545311,"current_range_meters":3200,"station_id":"ce4bgr92rcd13ifvqc6g","pricing_plan_id":"cebpf4jnsgd1na2vs0mg"},{"bike_id":"92934aac-6d24-4ee6-8e4a-95b6ed0cd3f6","system_id":"levelo_inurba_marseille","lat":43.30945,"lon":5.39028,"is_reserved":false,"is_disabled":false,"rental_uris":{"android":"levelo://app?vid=92934aac-6d24-4ee6-8e4a-95b6ed0cd3f6","ios":"levelo://app?vid=92934aac-6d24-4ee6-8e4a-95b6ed0cd3f6"},"vehicle_type_id":"4","last_reported":1751545311,"current_range_meters":3200,"station_id":"ce4bgup2rcd13ifvqco0","pricing_plan_id":"cebpf4jnsgd1na2vs0mg"},{"bike_id":"1e4d394f-8ce4-4eb2-b5a6-4a1d243f02f2","system_id":"levelo_inurba_marseille","lat":43.28492,"lon":5.38576,"is_reserved":false,"is_disabled":false,"rental_uris":{"android":"levelo://app?vid=1e4d394f-8ce4-4eb2-b5a6-4a1d243f02f2","ios":"levelo://app?vid=1e4d394f-8ce4-4eb2-b5a6-4a1d243f02f2"},"vehicle_type_id":"4","last_reported":1751545311,"current_range_meters":3600,"station_id":"ce4bh8p2rcd13ifvqeb0","pricing_plan_id":"cebpf4jnsgd1na2vs0mg"},{"bike_id":"28e381ac-e7e5-41e2-a33f-826079194204","system_id":"levelo_inurba_marseille","lat":43.323375,"lon":5.40604,"is_reserved":false,"is_disabled":false,"rental_uris":{"android":"levelo://app?vid=28e381ac-e7e5-41e2-a33f-826079194204","ios":"levelo://app?vid=28e381ac-e7e5-41e2-a33f-826079194204"},"vehicle_type_id":"4","last_reported":1751545311,"current_range_meters":3600,"station_id":"ce4bhq92rcd13ifvqhjg","pricing_plan_id":"cebpf4jnsgd1na2vs0mg"},{"bike_id":"623f48f5-5820-443f-aa29-e1e28d358511","system_id":"levelo_inurba_marseille","lat":43.29582,"lon":5.36706,"is_reserved":false,"is_disabled":false,"rental_uris":{"android":"levelo://app?vid=623f48f5-5820-443f-aa29-e1e28d358511","ios":"levelo://app?vid=623f48f5-5820-443f-aa29-e1e28d358511"},"vehicle_type_id":"4","last_reported":1751545311,"current_range_meters":4000,"station_id":"ce4bgph2rcd13ifvqc2g","pricing_plan_id":"cebpf4jnsgd1na2vs0mg"},{"bike_id":"f01bc8f1-adbd-4ce7-b1a0-7a0fa10b7efb","system_id":"levelo_inurba_marseille","lat":43.330264,"lon":5.390675,"is_reserved":false,"is_disabled":false,"rental_uris":{"android":"levelo://app?vid=f01bc8f1-adbd-4ce7-b1a0-7a0fa10b7efb","ios":"levelo://app?vid=f01bc8f1-adbd-4ce7-b1a0-7a0fa10b7efb"},"vehicle_type_id":"4","last_reported":1751545311,"current_range_meters":4000,"station_id":"ce4bhr92rcd13ifvqhrg","pricing_plan_id":"cebpf4jnsgd1na2vs0mg"},{"bike_id":"3768a316-f943-4f22-9583-4a01267bea92","system_id":"levelo_inurba_marseille","lat":43.28465,"lon":5.3842,"is_reserved":false,"is_disabled":false,"rental_uris":{"android":"levelo://app?vid=3768a316-f943-4f22-9583-4a01267bea92","ios":"levelo://app?vid=3768a316-f943-4f22-9583-4a01267bea92"},"vehicle_type_id":"4","last_reported":1751545311,"current_range_meters":4400,"station_id":"ce4bh512rcd13ifvqe3g","pricing_plan_id":"cebpf4jnsgd1na2vs0mg"},{"bike_id":"4792b17c-c917-4b11-a8f3-6466f0a03dc8","system_id":"levelo_inurba_marseille","lat":43.23163,"lon":5.43736,"is_reserved":false,"is_disabled":false,"rental_uris":{"android":"levelo://app?vid=4792b17c-c917-4b11-a8f3-6466f0a03dc8","ios":"levelo://app?vid=4792b17c-c917-4b11-a8f3-6466f0a03dc8"},"vehicle_type_id":"4","last_reported":1751545311,"current_range_meters":4400,"station_id":"ce4bhmp2rcd13ifvqgog","pricing_plan_id":"cebpf4jnsgd1na2vs0mg"},{"bike_id":"d4d5fa1c-c309-47d8-922a-a61c6b598ca9","system_id":"levelo_inurba_marseille","lat":43.21752,"lon":5.34598,"is_reserved":false,"is_disabled":false,"rental_uris":{"android":"levelo://app?vid=d4d5fa1c-c309-47d8-922a-a61c6b598ca9","ios":"levelo://app?vid=d4d5fa1c-c309-47d8-922a-a61c6b598ca9"},"vehicle_type_id":"4","last_reported":1751545311,"current_range_meters":4400,"station_id":"st_cvj6r9ubvosntc0bgbag","pricing_plan_id":"cebpf4jnsgd1na2vs0mg"},{"bike_id":"8becf1b9-b72c-4763-a062-bbd587ae45bf","system_id":"levelo_inurba_marseille","lat":43.32609,"lon":5.42557,"is_reserved":false,"is_disabled":false,"rental_uris":{"android":"levelo://app?vid=8becf1b9-b72c-4763-a062-bbd587ae45bf","ios":"levelo://app?vid=8becf1b9-b72c-4763-a062-bbd587ae45bf"},"vehicle_type_id":"4","last_reported":1751545311,"current_range_meters":4800,"station_id":"","pricing_plan_id":"cebpf4jnsgd1na2vs0mg"},{"bike_id":"2c4a9fc2-e921-43c0-adad-899e7dc5253d","system_id":"levelo_inurba_marseille","lat":43.262135,"lon":5.374482,"is_reserved":false,"is_disabled":false,"rental_uris":{"android":"levelo://app?vid=2c4a9fc2-e921-43c0-adad-899e7dc5253d","ios":"levelo://app?vid=2c4a9fc2-e921-43c0-adad-899e7dc5253d"},"vehicle_type_id":"4","last_reported":1751545311,"current_range_meters":4800,"station_id":"ce4bhgp2rcd13ifvqfc0","pricing_plan_id":"cebpf4jnsgd1na2vs0mg"},{"bike_id":"b5afba14-8b3c-4d05-884f-e556e0b6f0aa","system_id":"levelo_inurba_marseille","lat":43.32349,"lon":5.40543,"is_reserved":false,"is_disabled":false,"rental_uris":{"android":"levelo://app?vid=b5afba14-8b3c-4d05-884f-e556e0b6f0aa","ios":"levelo://app?vid=b5afba14-8b3c-4d05-884f-e556e0b6f0aa"},"vehicle_type_id":"4","last_reported":1751545311,"current_range_meters":4800,"station_id":"ce4bhq92rcd13ifvqhjg","pricing_plan_id":"cebpf4jnsgd1na2vs0mg"},{"bike_id":"f4d46a7f-68ba-4e40-b67d-96c0d1de60d0","system_id":"levelo_inurba_marseille","lat":43.30462,"lon":5.37907,"is_reserved":false,"is_disabled":false,"rental_uris":{"android":"levelo://app?vid=f4d46a7f-68ba-4e40-b67d-96c0d1de60d0","ios":"levelo://app?vid=f4d46a7f-68ba-4e40-b67d-96c0d1de60d0"},"vehicle_type_id":"4","last_reported":1751545311,"current_range_meters":5600,"station_id":"ce4bgup2rcd13ifvqcn0","pricing_plan_id":"cebpf4jnsgd1na2vs0mg"},{"bike_id":"cd6122e4-1418-47c0-a567-d79667eb0582","system_id":"levelo_inurba_marseille","lat":43.29866,"lon":5.39732,"is_reserved":false,"is_disabled":false,"rental_uris":{"android":"levelo://app?vid=cd6122e4-1418-47c0-a567-d79667eb0582","ios":"levelo://app?vid=cd6122e4-1418-47c0-a567-d79667eb0582"},"vehicle_type_id":"4","last_reported":1751545311,"current_range_meters":5600,"station_id":"ce4bh0h2rcd13ifvqd50","pricing_plan_id":"cebpf4jnsgd1na2vs0mg"},{"bike_id":"36820465-7e3b-4195-b68d-6ede78f0e4f7","system_id":"levelo_inurba_marseille","lat":43.29005,"lon":5.35608,"is_reserved":false,"is_disabled":false,"rental_uris":{"android":"levelo://app?vid=36820465-7e3b-4195-b68d-6ede78f0e4f7","ios":"levelo://app?vid=36820465-7e3b-4195-b68d-6ede78f0e4f7"},"vehicle_type_id":"4","last_reported":1751545311,"current_range_meters":5600,"station_id":"ce4bhb92rcd13ifvqen0","pricing_plan_id":"cebpf4jnsgd1na2vs0mg"},{"bike_id":"eaf9d7b4-d62e-45de-818c-c4a475684b71","system_id":"levelo_inurba_marseille","lat":43.26681,"lon":5.38265,"is_reserved":false,"is_disabled":false,"rental_uris":{"android":"levelo://app?vid=eaf9d7b4-d62e-45de-818c-c4a475684b71","ios":"levelo://app?vid=eaf9d7b4-d62e-45de-818c-c4a475684b71"},"vehicle_type_id":"4","last_reported":1751545311,"current_range_meters":5600,"station_id":"ce4bhg92rcd13ifvqf90","pricing_plan_id":"cebpf4jnsgd1na2vs0mg"},{"bike_id":"88f0d88a-1dec-4977-a19a-71293da7fba4","system_id":"levelo_inurba_marseille","lat":43.32375,"lon":5.36783,"is_reserved":false,"is_disabled":false,"rental_uris":{"android":"levelo://app?vid=88f0d88a-1dec-4977-a19a-71293da7fba4","ios":"levelo://app?vid=88f0d88a-1dec-4977-a19a-71293da7fba4"},"vehicle_type_id":"4","last_reported":1751545311,"current_range_meters":5600,"station_id":"ce4bhsh2rcd13ifvqi2g","pricing_plan_id":"cebpf4jnsgd1na2vs0mg"},{"bike_id":"cba5b54b-79c5-4b17-abe0-2f4e94c57b41","system_id":"levelo_inurba_marseille","lat":43.28085,"lon":5.34796,"is_reserved":false,"is_disabled":false,"rental_uris":{"android":"levelo://app?vid=cba5b54b-79c5-4b17-abe0-2f4e94c57b41","ios":"levelo://app?vid=cba5b54b-79c5-4b17-abe0-2f4e94c57b41"},"vehicle_type_id":"4","last_reported":1751545311,"current_range_meters":6000,"station_id":"","pricing_plan_id":"cebpf4jnsgd1na2vs0mg"},{"bike_id":"7089ffc7-750d-445d-8f45-447d38e26119","system_id":"levelo_inurba_marseille","lat":43.3037,"lon":5.42492,"is_reserved":false,"is_disabled":false,"rental_uris":{"android":"levelo://app?vid=7089ffc7-750d-445d-8f45-447d38e26119","ios":"levelo://app?vid=7089ffc7-750d-445d-8f45-447d38e26119"},"vehicle_type_id":"4","last_reported":1751545311,"current_range_meters":6000,"station_id":"ce4bhoh2rcd13ifvqh6g","pricing_plan_id":"cebpf4jnsgd1na2vs0mg"},{"bike_id":"3fbceb20-d877-411e-a90d-f13a05e02fc6","system_id":"levelo_inurba_marseille","lat":43.30496,"lon":5.37871,"is_reserved":false,"is_disabled":false,"rental_uris":{"android":"levelo://app?vid=3fbceb20-d877-411e-a90d-f13a05e02fc6","ios":"levelo://app?vid=3fbceb20-d877-411e-a90d-f13a05e02fc6"},"vehicle_type_id":"4","last_reported":1751545311,"current_range_meters":6400,"station_id":"ce4bgup2rcd13ifvqcn0","pricing_plan_id":"cebpf4jnsgd1na2vs0mg"},{"bike_id":"604d82f2-ce34-47e7-b692-1102d7240bc3","system_id":"levelo_inurba_marseille","lat":43.30538,"lon":5.36505,"is_reserved":false,"is_disabled":false,"rental_uris":{"android":"levelo://app?vid=604d82f2-ce34-47e7-b692-1102d7240bc3","ios":"levelo://app?vid=604d82f2-ce34-47e7-b692-1102d7240bc3"},"vehicle_type_id":"4","last_reported":1751545311,"current_range_meters":6800,"station_id":"","pricing_plan_id":"cebpf4jnsgd1na2vs0mg"},{"bike_id":"2e021469-73fe-4caf-afa5-8b01d6704249","system_id":"levelo_inurba_marseille","lat":43.29622,"lon":5.37739,"is_reserved":false,"is_disabled":false,"rental_uris":{"android":"levelo://app?vid=2e021469-73fe-4caf-afa5-8b01d6704249","ios":"levelo://app?vid=2e021469-73fe-4caf-afa5-8b01d6704249"},"vehicle_type_id":"4","last_reported":1751545311,"current_range_meters":6800,"station_id":"ce4bgi92rcd13ifvqb90","pricing_plan_id":"cebpf4jnsgd1na2vs0mg"},{"bike_id":"489ead13-6346-4eb9-b6d9-c1409f2ca81e","system_id":"levelo_inurba_marseille","lat":43.29876,"lon":5.39743,"is_reserved":false,"is_disabled":false,"rental_uris":{"android":"levelo://app?vid=489ead13-6346-4eb9-b6d9-c1409f2ca81e","ios":"levelo://app?vid=489ead13-6346-4eb9-b6d9-c1409f2ca81e"},"vehicle_type_id":"4","last_reported":1751545311,"current_range_meters":6800,"station_id":"ce4bh0h2rcd13ifvqd50","pricing_plan_id":"cebpf4jnsgd1na2vs0mg"},{"bike_id":"781bfef5-1e8f-4c3b-8b16-5383b58c3e51","system_id":"levelo_inurba_marseille","lat":43.2951,"lon":5.394,"is_reserved":false,"is_disabled":false,"rental_uris":{"android":"levelo://app?vid=781bfef5-1e8f-4c3b-8b16-5383b58c3e51","ios":"levelo://app?vid=781bfef5-1e8f-4c3b-8b16-5383b58c3e51"},"vehicle_type_id":"4","last_reported":1751545311,"current_range_meters":6800,"station_id":"ce4bh292rcd13ifvqdf0","pricing_plan_id":"cebpf4jnsgd1na2vs0mg"},{"bike_id":"39d65606-5ca8-4d96-9cdd-de24bdc99e11","system_id":"levelo_inurba_marseille","lat":43.25937,"lon":5.40904,"is_reserved":false,"is_disabled":false,"rental_uris":{"android":"levelo://app?vid=39d65606-5ca8-4d96-9cdd-de24bdc99e11","ios":"levelo://app?vid=39d65606-5ca8-4d96-9cdd-de24bdc99e11"},"vehicle_type_id":"4","last_reported":1751545311,"current_range_meters":6800,"station_id":"ce4bhm92rcd13ifvqglg","pricing_plan_id":"cebpf4jnsgd1na2vs0mg"},{"bike_id":"05c37e9d-5410-49eb-9f4a-c830423a82e4","system_id":"levelo_inurba_marseille","lat":43.29559,"lon":5.42295,"is_reserved":false,"is_disabled":false,"rental_uris":{"android":"levelo://app?vid=05c37e9d-5410-49eb-9f4a-c830423a82e4","ios":"levelo://app?vid=05c37e9d-5410-49eb-9f4a-c830423a82e4"},"vehicle_type_id":"4","last_reported":1751545311,"current_range_meters":6800,"station_id":"ce4bhph2rcd13ifvqhdg","pricing_plan_id":"cebpf4jnsgd1na2vs0mg"},{"bike_id":"de3d3d25-7354-49cb-8fa4-5acf1471cb8d","system_id":"levelo_inurba_marseille","lat":43.211883,"lon":5.350696,"is_reserved":false,"is_disabled":false,"rental_uris":{"android":"levelo://app?vid=de3d3d25-7354-49cb-8fa4-5acf1471cb8d","ios":"levelo://app?vid=de3d3d25-7354-49cb-8fa4-5acf1471cb8d"},"vehicle_type_id":"4","last_reported":1751545311,"current_range_meters":6800,"station_id":"st_cvj6sg6p6f1abm77japg","pricing_plan_id":"cebpf4jnsgd1na2vs0mg"},{"bike_id":"c875aefe-c626-43fe-8b8b-40ca1510a87b","system_id":"levelo_inurba_marseille","lat":43.2849,"lon":5.3843,"is_reserved":false,"is_disabled":false,"rental_uris":{"android":"levelo://app?vid=c875aefe-c626-43fe-8b8b-40ca1510a87b","ios":"levelo://app?vid=c875aefe-c626-43fe-8b8b-40ca1510a87b"},"vehicle_type_id":"4","last_reported":1751545311,"current_range_meters":7200,"station_id":"ce4bh512rcd13ifvqe3g","pricing_plan_id":"cebpf4jnsgd1na2vs0mg"},{"bike_id":"da921d92-526f-401b-95dc-b12109d1091d","system_id":"levelo_inurba_marseille","lat":43.36362,"lon":5.35031,"is_reserved":false,"is_disabled":false,"rental_uris":{"android":"levelo://app?vid=da921d92-526f-401b-95dc-b12109d1091d","ios":"levelo://app?vid=da921d92-526f-401b-95dc-b12109d1091d"},"vehicle_type_id":"4","last_reported":1751545311,"current_range_meters":8000,"station_id":"","pricing_plan_id":"cebpf4jnsgd1na2vs0mg"},{"bike_id":"c1c7443a-7712-4194-bfc8-116cb12d5e71","system_id":"levelo_inurba_marseille","lat":43.30778,"lon":5.37652,"is_reserved":false,"is_disabled":false,"rental_uris":{"android":"levelo://app?vid=c1c7443a-7712-4194-bfc8-116cb12d5e71","ios":"levelo://app?vid=c1c7443a-7712-4194-bfc8-116cb12d5e71"},"vehicle_type_id":"4","last_reported":1751545311,"current_range_meters":8000,"station_id":"ce4bgv92rcd13ifvqcq0","pricing_plan_id":"cebpf4jnsgd1na2vs0mg"},{"bike_id":"f2ff61dd-78e3-4d5c-8e0f-2b4d2f390f97","system_id":"levelo_inurba_marseille","lat":43.22928,"lon":5.35375,"is_reserved":false,"is_disabled":false,"rental_uris":{"android":"levelo://app?vid=f2ff61dd-78e3-4d5c-8e0f-2b4d2f390f97","ios":"levelo://app?vid=f2ff61dd-78e3-4d5c-8e0f-2b4d2f390f97"},"vehicle_type_id":"4","last_reported":1751545311,"current_range_meters":8000,"station_id":"cpo3532slgdg3j2ikp40","pricing_plan_id":"cebpf4jnsgd1na2vs0mg"},{"bike_id":"bbdbecaf-54e0-4493-8ff0-dd8c64c2b59c","system_id":"levelo_inurba_marseille","lat":43.306184,"lon":5.365968,"is_reserved":false,"is_disabled":false,"rental_uris":{"android":"levelo://app?vid=bbdbecaf-54e0-4493-8ff0-dd8c64c2b59c","ios":"levelo://app?vid=bbdbecaf-54e0-4493-8ff0-dd8c64c2b59c"},"vehicle_type_id":"4","last_reported":1751545311,"current_range_meters":8400,"station_id":"","pricing_plan_id":"cebpf4jnsgd1na2vs0mg"},{"bike_id":"eff56b31-6c6a-4690-a8e2-71355552a096","system_id":"levelo_inurba_marseille","lat":43.28266,"lon":5.3506,"is_reserved":false,"is_disabled":false,"rental_uris":{"android":"levelo://app?vid=eff56b31-6c6a-4690-a8e2-71355552a096","ios":"levelo://app?vid=eff56b31-6c6a-4690-a8e2-71355552a096"},"vehicle_type_id":"4","last_reported":1751545311,"current_range_meters":8400,"station_id":"ce4bhbp2rcd13ifvqerg","pricing_plan_id":"cebpf4jnsgd1na2vs0mg"},{"bike_id":"a62a0ef6-babe-44d3-9278-a9bccd58a7db","system_id":"levelo_inurba_marseille","lat":43.29574,"lon":5.42287,"is_reserved":false,"is_disabled":false,"rental_uris":{"android":"levelo://app?vid=a62a0ef6-babe-44d3-9278-a9bccd58a7db","ios":"levelo://app?vid=a62a0ef6-babe-44d3-9278-a9bccd58a7db"},"vehicle_type_id":"4","last_reported":1751545311,"current_range_meters":8400,"station_id":"ce4bhph2rcd13ifvqhdg","pricing_plan_id":"cebpf4jnsgd1na2vs0mg"},{"bike_id":"6b5f2251-5553-4d29-b6c6-2d7bc1acfca1","system_id":"levelo_inurba_marseille","lat":43.3096,"lon":5.39049,"is_reserved":false,"is_disabled":false,"rental_uris":{"android":"levelo://app?vid=6b5f2251-5553-4d29-b6c6-2d7bc1acfca1","ios":"levelo://app?vid=6b5f2251-5553-4d29-b6c6-2d7bc1acfca1"},"vehicle_type_id":"4","last_reported":1751545311,"current_range_meters":8800,"station_id":"ce4bgup2rcd13ifvqco0","pricing_plan_id":"cebpf4jnsgd1na2vs0mg"},{"bike_id":"9734061e-b382-4363-8163-5ea1d3070ab0","system_id":"levelo_inurba_marseille","lat":43.337444,"lon":5.374475,"is_reserved":false,"is_disabled":false,"rental_uris":{"android":"levelo://app?vid=9734061e-b382-4363-8163-5ea1d3070ab0","ios":"levelo://app?vid=9734061e-b382-4363-8163-5ea1d3070ab0"},"vehicle_type_id":"4","last_reported":1751545311,"current_range_meters":8800,"station_id":"ce4bgvp2rcd13ifvqcu0","pricing_plan_id":"cebpf4jnsgd1na2vs0mg"},{"bike_id":"fa833411-ceb6-4e54-aa64-b34bd6b9914e","system_id":"levelo_inurba_marseille","lat":43.26949,"lon":5.38644,"is_reserved":false,"is_disabled":false,"rental_uris":{"android":"levelo://app?vid=fa833411-ceb6-4e54-aa64-b34bd6b9914e","ios":"levelo://app?vid=fa833411-ceb6-4e54-aa64-b34bd6b9914e"},"vehicle_type_id":"4","last_reported":1751545311,"current_range_meters":8800,"station_id":"ce4bhh92rcd13ifvqfh0","pricing_plan_id":"cebpf4jnsgd1na2vs0mg"},{"bike_id":"6dd92e94-e7bd-4e69-9e28-d35b329b4d19","system_id":"levelo_inurba_marseille","lat":43.27182,"lon":5.40992,"is_reserved":false,"is_disabled":false,"rental_uris":{"android":"levelo://app?vid=6dd92e94-e7bd-4e69-9e28-d35b329b4d19","ios":"levelo://app?vid=6dd92e94-e7bd-4e69-9e28-d35b329b4d19"},"vehicle_type_id":"4","last_reported":1751545311,"current_range_meters":8800,"station_id":"ce4bhl12rcd13ifvqgf0","pricing_plan_id":"cebpf4jnsgd1na2vs0mg"},{"bike_id":"7fdd941c-9e83-45f5-92d2-03aeb8cbf03a","system_id":"levelo_inurba_marseille","lat":43.29958,"lon":5.41324,"is_reserved":false,"is_disabled":false,"rental_uris":{"android":"levelo://app?vid=7fdd941c-9e83-45f5-92d2-03aeb8cbf03a","ios":"levelo://app?vid=7fdd941c-9e83-45f5-92d2-03aeb8cbf03a"},"vehicle_type_id":"4","last_reported":1751545311,"current_range_meters":8800,"station_id":"ce4bhp12rcd13ifvqh9g","pricing_plan_id":"cebpf4jnsgd1na2vs0mg"},{"bike_id":"cbab8e8e-76d8-4b25-9f75-190c476c076a","system_id":"levelo_inurba_marseille","lat":43.33603,"lon":5.41007,"is_reserved":false,"is_disabled":false,"rental_uris":{"android":"levelo://app?vid=cbab8e8e-76d8-4b25-9f75-190c476c076a","ios":"levelo://app?vid=cbab8e8e-76d8-4b25-9f75-190c476c076a"},"vehicle_type_id":"4","last_reported":1751545311,"current_range_meters":8800,"station_id":"ce4bhqh2rcd13ifvqhmg","pricing_plan_id":"cebpf4jnsgd1na2vs0mg"},{"bike_id":"e2abd326-5bba-4882-9433-52ae8a595b42","system_id":"levelo_inurba_marseille","lat":43.31529,"lon":5.38032,"is_reserved":false,"is_disabled":false,"rental_uris":{"android":"levelo://app?vid=e2abd326-5bba-4882-9433-52ae8a595b42","ios":"levelo://app?vid=e2abd326-5bba-4882-9433-52ae8a595b42"},"vehicle_type_id":"4","last_reported":1751545311,"current_range_meters":8800,"station_id":"ce4bhsp2rcd13ifvqi50","pricing_plan_id":"cebpf4jnsgd1na2vs0mg"},{"bike_id":"208f3ca8-5ae1-4afa-bf93-2fb945fa389b","system_id":"levelo_inurba_marseille","lat":43.2306,"lon":5.35491,"is_reserved":false,"is_disabled":false,"rental_uris":{"android":"levelo://app?vid=208f3ca8-5ae1-4afa-bf93-2fb945fa389b","ios":"levelo://app?vid=208f3ca8-5ae1-4afa-bf93-2fb945fa389b"},"vehicle_type_id":"4","last_reported":1751545311,"current_range_meters":8800,"station_id":"cpo3342slgdg3j2ifvpg","pricing_plan_id":"cebpf4jnsgd1na2vs0mg"},{"bike_id":"b369f055-cd22-4fb6-a728-69430ded506c","system_id":"levelo_inurba_marseille","lat":43.21746,"lon":5.3461,"is_reserved":false,"is_disabled":false,"rental_uris":{"android":"levelo://app?vid=b369f055-cd22-4fb6-a728-69430ded506c","ios":"levelo://app?vid=b369f055-cd22-4fb6-a728-69430ded506c"},"vehicle_type_id":"4","last_reported":1751545311,"current_range_meters":9200,"station_id":"","pricing_plan_id":"cebpf4jnsgd1na2vs0mg"},{"bike_id":"7de81827-c1e0-47f9-9539-be86c837b3cf","system_id":"levelo_inurba_marseille","lat":43.296632,"lon":5.376723,"is_reserved":false,"is_disabled":false,"rental_uris":{"android":"levelo://app?vid=7de81827-c1e0-47f9-9539-be86c837b3cf","ios":"levelo://app?vid=7de81827-c1e0-47f9-9539-be86c837b3cf"},"vehicle_type_id":"4","last_reported":1751545311,"current_range_meters":9200,"station_id":"ce4bgkh2rcd13ifvqbl0","pricing_plan_id":"cebpf4jnsgd1na2vs0mg"},{"bike_id":"f0a2acb3-b485-4f69-97f9-9b0c0a14b959","system_id":"levelo_inurba_marseille","lat":43.30954,"lon":5.39039,"is_reserved":false,"is_disabled":false,"rental_uris":{"android":"levelo://app?vid=f0a2acb3-b485-4f69-97f9-9b0c0a14b959","ios":"levelo://app?vid=f0a2acb3-b485-4f69-97f9-9b0c0a14b959"},"vehicle_type_id":"4","last_reported":1751545311,"current_range_meters":9200,"station_id":"ce4bgup2rcd13ifvqco0","pricing_plan_id":"cebpf4jnsgd1na2vs0mg"},{"bike_id":"fe2e49a3-17f3-4adb-a117-707e6141523f","system_id":"levelo_inurba_marseille","lat":43.32032,"lon":5.41547,"is_reserved":false,"is_disabled":false,"rental_uris":{"android":"levelo://app?vid=fe2e49a3-17f3-4adb-a117-707e6141523f","ios":"levelo://app?vid=fe2e49a3-17f3-4adb-a117-707e6141523f"},"vehicle_type_id":"4","last_reported":1751545311,"current_range_meters":9200,"station_id":"ce4bhq92rcd13ifvqhkg","pricing_plan_id":"cebpf4jnsgd1na2vs0mg"},{"bike_id":"7e62b058-a7ed-4634-80f1-04d3de596de7","system_id":"levelo_inurba_marseille","lat":43.2984,"lon":5.36811,"is_reserved":false,"is_disabled":false,"rental_uris":{"android":"levelo://app?vid=7e62b058-a7ed-4634-80f1-04d3de596de7","ios":"levelo://app?vid=7e62b058-a7ed-4634-80f1-04d3de596de7"},"vehicle_type_id":"4","last_reported":1751545311,"current_range_meters":9600,"station_id":"","pricing_plan_id":"cebpf4jnsgd1na2vs0mg"},{"bike_id":"673524a2-2dea-4bf6-a3a6-cde551ff20b8","system_id":"levelo_inurba_marseille","lat":43.321743,"lon":5.367702,"is_reserved":false,"is_disabled":false,"rental_uris":{"android":"levelo://app?vid=673524a2-2dea-4bf6-a3a6-cde551ff20b8","ios":"levelo://app?vid=673524a2-2dea-4bf6-a3a6-cde551ff20b8"},"vehicle_type_id":"4","last_reported":1751545311,"current_range_meters":9600,"station_id":"ce4bgt12rcd13ifvqcd0","pricing_plan_id":"cebpf4jnsgd1na2vs0mg"},{"bike_id":"f1bfb814-a0e1-4f33-a70f-c593fcd3595a","system_id":"levelo_inurba_marseille","lat":43.217519,"lon":5.346022,"is_reserved":false,"is_disabled":false,"rental_uris":{"android":"levelo://app?vid=f1bfb814-a0e1-4f33-a70f-c593fcd3595a","ios":"levelo://app?vid=f1bfb814-a0e1-4f33-a70f-c593fcd3595a"},"vehicle_type_id":"4","last_reported":1751545311,"current_range_meters":9600,"station_id":"st_cvj6r9ubvosntc0bgbag","pricing_plan_id":"cebpf4jnsgd1na2vs0mg"},{"bike_id":"22c65f34-5b9a-4ce8-b3b0-5a1a52b259a2","system_id":"levelo_inurba_marseille","lat":43.29703,"lon":5.40213,"is_reserved":false,"is_disabled":false,"rental_uris":{"android":"levelo://app?vid=22c65f34-5b9a-4ce8-b3b0-5a1a52b259a2","ios":"levelo://app?vid=22c65f34-5b9a-4ce8-b3b0-5a1a52b259a2"},"vehicle_type_id":"4","last_reported":1751545311,"current_range_meters":10000,"station_id":"","pricing_plan_id":"cebpf4jnsgd1na2vs0mg"},{"bike_id":"9a7d342a-ff8e-46c4-af1e-6e0519bd67dc","system_id":"levelo_inurba_marseille","lat":43.291433,"lon":5.355899,"is_reserved":false,"is_disabled":false,"rental_uris":{"android":"levelo://app?vid=9a7d342a-ff8e-46c4-af1e-6e0519bd67dc","ios":"levelo://app?vid=9a7d342a-ff8e-46c4-af1e-6e0519bd67dc"},"vehicle_type_id":"4","last_reported":1751545311,"current_range_meters":10000,"station_id":"","pricing_plan_id":"cebpf4jnsgd1na2vs0mg"},{"bike_id":"bf00a211-3496-4df0-8e4e-99767047ca09","system_id":"levelo_inurba_marseille","lat":43.29956,"lon":5.37599,"is_reserved":false,"is_disabled":false,"rental_uris":{"android":"levelo://app?vid=bf00a211-3496-4df0-8e4e-99767047ca09","ios":"levelo://app?vid=bf00a211-3496-4df0-8e4e-99767047ca09"},"vehicle_type_id":"4","last_reported":1751545311,"current_range_meters":10000,"station_id":"","pricing_plan_id":"cebpf4jnsgd1na2vs0mg"},{"bike_id":"e26ba497-efc7-4420-b8c5-9fa5e27f2ce4","system_id":"levelo_inurba_marseille","lat":43.313593,"lon":5.37064,"is_reserved":false,"is_disabled":false,"rental_uris":{"android":"levelo://app?vid=e26ba497-efc7-4420-b8c5-9fa5e27f2ce4","ios":"levelo://app?vid=e26ba497-efc7-4420-b8c5-9fa5e27f2ce4"},"vehicle_type_id":"4","last_reported":1751545311,"current_range_meters":10000,"station_id":"","pricing_plan_id":"cebpf4jnsgd1na2vs0mg"},{"bike_id":"a0f8b653-a382-4f9a-80f4-1c56afa0b294","system_id":"levelo_inurba_marseille","lat":43.29297,"lon":5.37444,"is_reserved":false,"is_disabled":false,"rental_uris":{"android":"levelo://app?vid=a0f8b653-a382-4f9a-80f4-1c56afa0b294","ios":"levelo://app?vid=a0f8b653-a382-4f9a-80f4-1c56afa0b294"},"vehicle_type_id":"4","last_reported":1751545311,"current_range_meters":10000,"station_id":"ce4bgi12rcd13ifvqb70","pricing_plan_id":"cebpf4jnsgd1na2vs0mg"},{"bike_id":"b54bef8d-87a2-406a-80c9-95d05b68e2ee","system_id":"levelo_inurba_marseille","lat":43.30551,"lon":5.36538,"is_reserved":false,"is_disabled":false,"rental_uris":{"android":"levelo://app?vid=b54bef8d-87a2-406a-80c9-95d05b68e2ee","ios":"levelo://app?vid=b54bef8d-87a2-406a-80c9-95d05b68e2ee"},"vehicle_type_id":"4","last_reported":1751545311,"current_range_meters":10000,"station_id":"ce4bgs12rcd13ifvqcag","pricing_plan_id":"cebpf4jnsgd1na2vs0mg"},{"bike_id":"2dad020b-4a26-4fc0-8015-857e8c0a3c59","system_id":"levelo_inurba_marseille","lat":43.29025,"lon":5.38642,"is_reserved":false,"is_disabled":false,"rental_uris":{"android":"levelo://app?vid=2dad020b-4a26-4fc0-8015-857e8c0a3c59","ios":"levelo://app?vid=2dad020b-4a26-4fc0-8015-857e8c0a3c59"},"vehicle_type_id":"4","last_reported":1751545311,"current_range_meters":10000,"station_id":"ce4bh4p2rcd13ifvqe0g","pricing_plan_id":"cebpf4jnsgd1na2vs0mg"},{"bike_id":"b44c5f08-ff86-44db-a0f4-3b801f7529e3","system_id":"levelo_inurba_marseille","lat":43.3207,"lon":5.41542,"is_reserved":false,"is_disabled":false,"rental_uris":{"android":"levelo://app?vid=b44c5f08-ff86-44db-a0f4-3b801f7529e3","ios":"levelo://app?vid=b44c5f08-ff86-44db-a0f4-3b801f7529e3"},"vehicle_type_id":"4","last_reported":1751545311,"current_range_meters":10000,"station_id":"ce4bhq92rcd13ifvqhkg","pricing_plan_id":"cebpf4jnsgd1na2vs0mg"},{"bike_id":"f4ec7cdf-07e1-45ef-b9a0-9719d9d3492c","system_id":"levelo_inurba_marseille","lat":43.23064,"lon":5.35493,"is_reserved":false,"is_disabled":false,"rental_uris":{"android":"levelo://app?vid=f4ec7cdf-07e1-45ef-b9a0-9719d9d3492c","ios":"levelo://app?vid=f4ec7cdf-07e1-45ef-b9a0-9719d9d3492c"},"vehicle_type_id":"4","last_reported":1751545311,"current_range_meters":10000,"station_id":"cpo3342slgdg3j2ifvpg","pricing_plan_id":"cebpf4jnsgd1na2vs0mg"},{"bike_id":"afc263f7-1fa4-4f95-83ef-54521145c0e0","system_id":"levelo_inurba_marseille","lat":43.30568,"lon":5.36529,"is_reserved":false,"is_disabled":false,"rental_uris":{"android":"levelo://app?vid=afc263f7-1fa4-4f95-83ef-54521145c0e0","ios":"levelo://app?vid=afc263f7-1fa4-4f95-83ef-54521145c0e0"},"vehicle_type_id":"4","last_reported":1751545311,"current_range_meters":10800,"station_id":"ce4bgs12rcd13ifvqcag","pricing_plan_id":"cebpf4jnsgd1na2vs0mg"},{"bike_id":"3deebadb-9899-421e-af27-b6e159520c2b","system_id":"levelo_inurba_marseille","lat":43.27372,"lon":5.36256,"is_reserved":false,"is_disabled":false,"rental_uris":{"android":"levelo://app?vid=3deebadb-9899-421e-af27-b6e159520c2b","ios":"levelo://app?vid=3deebadb-9899-421e-af27-b6e159520c2b"},"vehicle_type_id":"4","last_reported":1751545311,"current_range_meters":10800,"station_id":"ce4bhbh2rcd13ifvqeo0","pricing_plan_id":"cebpf4jnsgd1na2vs0mg"},{"bike_id":"8d369015-8f7a-4c4e-9314-9afb37d03ed3","system_id":"levelo_inurba_marseille","lat":43.29216,"lon":5.36063,"is_reserved":false,"is_disabled":false,"rental_uris":{"android":"levelo://app?vid=8d369015-8f7a-4c4e-9314-9afb37d03ed3","ios":"levelo://app?vid=8d369015-8f7a-4c4e-9314-9afb37d03ed3"},"vehicle_type_id":"4","last_reported":1751545311,"current_range_meters":10800,"station_id":"ce4bhbh2rcd13ifvqeqg","pricing_plan_id":"cebpf4jnsgd1na2vs0mg"},{"bike_id":"0162d3e1-d2ec-4496-a584-fa3fb33b0d3b","system_id":"levelo_inurba_marseille","lat":43.22929,"lon":5.35384,"is_reserved":false,"is_disabled":false,"rental_uris":{"android":"levelo://app?vid=0162d3e1-d2ec-4496-a584-fa3fb33b0d3b","ios":"levelo://app?vid=0162d3e1-d2ec-4496-a584-fa3fb33b0d3b"},"vehicle_type_id":"4","last_reported":1751545311,"current_range_meters":10800,"station_id":"cpo3532slgdg3j2ikp40","pricing_plan_id":"cebpf4jnsgd1na2vs0mg"},{"bike_id":"ef50a132-c502-4afc-a8c2-7de6a0df1152","system_id":"levelo_inurba_marseille","lat":43.225081,"lon":5.34786,"is_reserved":false,"is_disabled":false,"rental_uris":{"android":"levelo://app?vid=ef50a132-c502-4afc-a8c2-7de6a0df1152","ios":"levelo://app?vid=ef50a132-c502-4afc-a8c2-7de6a0df1152"},"vehicle_type_id":"4","last_reported":1751545311,"current_range_meters":10800,"station_id":"st_cvj5dfep6f1abm77gieg","pricing_plan_id":"cebpf4jnsgd1na2vs0mg"},{"bike_id":"bcfd0eda-b9ab-4bec-9ca3-3f2b86617415","system_id":"levelo_inurba_marseille","lat":43.21199,"lon":5.35089,"is_reserved":false,"is_disabled":false,"rental_uris":{"android":"levelo://app?vid=bcfd0eda-b9ab-4bec-9ca3-3f2b86617415","ios":"levelo://app?vid=bcfd0eda-b9ab-4bec-9ca3-3f2b86617415"},"vehicle_type_id":"4","last_reported":1751545311,"current_range_meters":10800,"station_id":"st_cvj6sg6p6f1abm77japg","pricing_plan_id":"cebpf4jnsgd1na2vs0mg"},{"bike_id":"8beac2df-fd37-42ca-a1d4-730396b87e46","system_id":"levelo_inurba_marseille","lat":43.30595,"lon":5.37236,"is_reserved":false,"is_disabled":false,"rental_uris":{"android":"levelo://app?vid=8beac2df-fd37-42ca-a1d4-730396b87e46","ios":"levelo://app?vid=8beac2df-fd37-42ca-a1d4-730396b87e46"},"vehicle_type_id":"4","last_reported":1751545311,"current_range_meters":11200,"station_id":"ce4bgqh2rcd13ifvqc4g","pricing_plan_id":"cebpf4jnsgd1na2vs0mg"},{"bike_id":"2d659fe1-36b2-4981-bcd7-0c6fca4b3667","system_id":"levelo_inurba_marseille","lat":43.30535,"lon":5.36555,"is_reserved":false,"is_disabled":false,"rental_uris":{"android":"levelo://app?vid=2d659fe1-36b2-4981-bcd7-0c6fca4b3667","ios":"levelo://app?vid=2d659fe1-36b2-4981-bcd7-0c6fca4b3667"},"vehicle_type_id":"4","last_reported":1751545311,"current_range_meters":11200,"station_id":"ce4bgs12rcd13ifvqcag","pricing_plan_id":"cebpf4jnsgd1na2vs0mg"},{"bike_id":"169fc04e-dd06-4980-8955-3de776f776c4","system_id":"levelo_inurba_marseille","lat":43.29568,"lon":5.39975,"is_reserved":false,"is_disabled":false,"rental_uris":{"android":"levelo://app?vid=169fc04e-dd06-4980-8955-3de776f776c4","ios":"levelo://app?vid=169fc04e-dd06-4980-8955-3de776f776c4"},"vehicle_type_id":"4","last_reported":1751545311,"current_range_meters":11200,"station_id":"ce4bh312rcd13ifvqdj0","pricing_plan_id":"cebpf4jnsgd1na2vs0mg"},{"bike_id":"e34a2909-9f17-4551-801f-4c06a2ebb90f","system_id":"levelo_inurba_marseille","lat":43.29625,"lon":5.37717,"is_reserved":false,"is_disabled":false,"rental_uris":{"android":"levelo://app?vid=e34a2909-9f17-4551-801f-4c06a2ebb90f","ios":"levelo://app?vid=e34a2909-9f17-4551-801f-4c06a2ebb90f"},"vehicle_type_id":"4","last_reported":1751545311,"current_range_meters":11600,"station_id":"ce4bgi92rcd13ifvqb90","pricing_plan_id":"cebpf4jnsgd1na2vs0mg"},{"bike_id":"a309f7b6-cc6c-462b-bf81-88494e0f3050","system_id":"levelo_inurba_marseille","lat":43.3053,"lon":5.36529,"is_reserved":false,"is_disabled":false,"rental_uris":{"android":"levelo://app?vid=a309f7b6-cc6c-462b-bf81-88494e0f3050","ios":"levelo://app?vid=a309f7b6-cc6c-462b-bf81-88494e0f3050"},"vehicle_type_id":"4","last_reported":1751545311,"current_range_meters":11600,"station_id":"ce4bgs12rcd13ifvqcag","pricing_plan_id":"cebpf4jnsgd1na2vs0mg"},{"bike_id":"3eecacb2-876b-4daa-9053-7848210d5228","system_id":"levelo_inurba_marseille","lat":43.29089,"lon":5.38136,"is_reserved":false,"is_disabled":false,"rental_uris":{"android":"levelo://app?vid=3eecacb2-876b-4daa-9053-7848210d5228","ios":"levelo://app?vid=3eecacb2-876b-4daa-9053-7848210d5228"},"vehicle_type_id":"4","last_reported":1751545311,"current_range_meters":11600,"station_id":"ce4bh512rcd13ifvqe2g","pricing_plan_id":"cebpf4jnsgd1na2vs0mg"},{"bike_id":"163f19c4-3e82-44a5-b3a6-28f99bd40702","system_id":"levelo_inurba_marseille","lat":43.23963,"lon":5.36635,"is_reserved":false,"is_disabled":false,"rental_uris":{"android":"levelo://app?vid=163f19c4-3e82-44a5-b3a6-28f99bd40702","ios":"levelo://app?vid=163f19c4-3e82-44a5-b3a6-28f99bd40702"},"vehicle_type_id":"4","last_reported":1751545311,"current_range_meters":11600,"station_id":"ce4bhi12rcd13ifvqfp0","pricing_plan_id":"cebpf4jnsgd1na2vs0mg"},{"bike_id":"e36eeb04-35cc-4a52-97d7-6ba58bfe555b","system_id":"levelo_inurba_marseille","lat":43.29556,"lon":5.42274,"is_reserved":false,"is_disabled":false,"rental_uris":{"android":"levelo://app?vid=e36eeb04-35cc-4a52-97d7-6ba58bfe555b","ios":"levelo://app?vid=e36eeb04-35cc-4a52-97d7-6ba58bfe555b"},"vehicle_type_id":"4","last_reported":1751545311,"current_range_meters":11600,"station_id":"ce4bhph2rcd13ifvqhdg","pricing_plan_id":"cebpf4jnsgd1na2vs0mg"},{"bike_id":"36b6eec1-5603-4659-9dfa-05697c9ee354","system_id":"levelo_inurba_marseille","lat":43.23057,"lon":5.35493,"is_reserved":false,"is_disabled":false,"rental_uris":{"android":"levelo://app?vid=36b6eec1-5603-4659-9dfa-05697c9ee354","ios":"levelo://app?vid=36b6eec1-5603-4659-9dfa-05697c9ee354"},"vehicle_type_id":"4","last_reported":1751545311,"current_range_meters":11600,"station_id":"cpo3342slgdg3j2ifvpg","pricing_plan_id":"cebpf4jnsgd1na2vs0mg"},{"bike_id":"959e6f20-8ed0-4d36-bc1d-3efb82d6190b","system_id":"levelo_inurba_marseille","lat":43.2119,"lon":5.35093,"is_reserved":false,"is_disabled":false,"rental_uris":{"android":"levelo://app?vid=959e6f20-8ed0-4d36-bc1d-3efb82d6190b","ios":"levelo://app?vid=959e6f20-8ed0-4d36-bc1d-3efb82d6190b"},"vehicle_type_id":"4","last_reported":1751545311,"current_range_meters":11600,"station_id":"st_cvj6sg6p6f1abm77japg","pricing_plan_id":"cebpf4jnsgd1na2vs0mg"},{"bike_id":"16a8afe6-e43e-4d1b-a7bd-ed83d113735a","system_id":"levelo_inurba_marseille","lat":43.32436,"lon":5.41185,"is_reserved":false,"is_disabled":false,"rental_uris":{"android":"levelo://app?vid=16a8afe6-e43e-4d1b-a7bd-ed83d113735a","ios":"levelo://app?vid=16a8afe6-e43e-4d1b-a7bd-ed83d113735a"},"vehicle_type_id":"4","last_reported":1751545311,"current_range_meters":12000,"station_id":"","pricing_plan_id":"cebpf4jnsgd1na2vs0mg"},{"bike_id":"64bb485e-0856-48ce-befe-bde5a394f93d","system_id":"levelo_inurba_marseille","lat":43.27623,"lon":5.38894,"is_reserved":false,"is_disabled":false,"rental_uris":{"android":"levelo://app?vid=64bb485e-0856-48ce-befe-bde5a394f93d","ios":"levelo://app?vid=64bb485e-0856-48ce-befe-bde5a394f93d"},"vehicle_type_id":"4","last_reported":1751545311,"current_range_meters":12000,"station_id":"","pricing_plan_id":"cebpf4jnsgd1na2vs0mg"},{"bike_id":"49eee8e2-d98a-4c3c-86e2-2e81f13ca382","system_id":"levelo_inurba_marseille","lat":43.305412,"lon":5.384184,"is_reserved":false,"is_disabled":false,"rental_uris":{"android":"levelo://app?vid=49eee8e2-d98a-4c3c-86e2-2e81f13ca382","ios":"levelo://app?vid=49eee8e2-d98a-4c3c-86e2-2e81f13ca382"},"vehicle_type_id":"4","last_reported":1751545311,"current_range_meters":12000,"station_id":"ce4bgg92rcd13ifvqb30","pricing_plan_id":"cebpf4jnsgd1na2vs0mg"},{"bike_id":"e6d7ad1a-c0eb-4278-ad9a-318cae34a452","system_id":"levelo_inurba_marseille","lat":43.30332,"lon":5.36919,"is_reserved":false,"is_disabled":false,"rental_uris":{"android":"levelo://app?vid=e6d7ad1a-c0eb-4278-ad9a-318cae34a452","ios":"levelo://app?vid=e6d7ad1a-c0eb-4278-ad9a-318cae34a452"},"vehicle_type_id":"4","last_reported":1751545311,"current_range_meters":12000,"station_id":"ce4bgqh2rcd13ifvqc5g","pricing_plan_id":"cebpf4jnsgd1na2vs0mg"},{"bike_id":"4633dddb-5e37-408f-98f0-056572dc2cd0","system_id":"levelo_inurba_marseille","lat":43.30146,"lon":5.37416,"is_reserved":false,"is_disabled":false,"rental_uris":{"android":"levelo://app?vid=4633dddb-5e37-408f-98f0-056572dc2cd0","ios":"levelo://app?vid=4633dddb-5e37-408f-98f0-056572dc2cd0"},"vehicle_type_id":"4","last_reported":1751545311,"current_range_meters":12000,"station_id":"ce4bgs92rcd13ifvqcc0","pricing_plan_id":"cebpf4jnsgd1na2vs0mg"},{"bike_id":"dd67424e-b6b5-448d-be23-23114be709a9","system_id":"levelo_inurba_marseille","lat":43.30957,"lon":5.39059,"is_reserved":false,"is_disabled":false,"rental_uris":{"android":"levelo://app?vid=dd67424e-b6b5-448d-be23-23114be709a9","ios":"levelo://app?vid=dd67424e-b6b5-448d-be23-23114be709a9"},"vehicle_type_id":"4","last_reported":1751545311,"current_range_meters":12000,"station_id":"ce4bgup2rcd13ifvqco0","pricing_plan_id":"cebpf4jnsgd1na2vs0mg"},{"bike_id":"51d37cd9-7da5-4e3d-a2ad-7c2c9a88b723","system_id":"levelo_inurba_marseille","lat":43.28039,"lon":5.36944,"is_reserved":false,"is_disabled":false,"rental_uris":{"android":"levelo://app?vid=51d37cd9-7da5-4e3d-a2ad-7c2c9a88b723","ios":"levelo://app?vid=51d37cd9-7da5-4e3d-a2ad-7c2c9a88b723"},"vehicle_type_id":"4","last_reported":1751545311,"current_range_meters":12000,"station_id":"ce4bha12rcd13ifvqef0","pricing_plan_id":"cebpf4jnsgd1na2vs0mg"},{"bike_id":"4bd6cf59-1e25-4844-b0a0-a0037b565c93","system_id":"levelo_inurba_marseille","lat":43.2894,"lon":5.3664,"is_reserved":false,"is_disabled":false,"rental_uris":{"android":"levelo://app?vid=4bd6cf59-1e25-4844-b0a0-a0037b565c93","ios":"levelo://app?vid=4bd6cf59-1e25-4844-b0a0-a0037b565c93"},"vehicle_type_id":"4","last_reported":1751545311,"current_range_meters":12000,"station_id":"ce4bhap2rcd13ifvqek0","pricing_plan_id":"cebpf4jnsgd1na2vs0mg"},{"bike_id":"02ef8374-2cca-46e9-a86c-fa0437827fa3","system_id":"levelo_inurba_marseille","lat":43.23143,"lon":5.43717,"is_reserved":false,"is_disabled":false,"rental_uris":{"android":"levelo://app?vid=02ef8374-2cca-46e9-a86c-fa0437827fa3","ios":"levelo://app?vid=02ef8374-2cca-46e9-a86c-fa0437827fa3"},"vehicle_type_id":"4","last_reported":1751545311,"current_range_meters":12000,"station_id":"ce4bhmp2rcd13ifvqgog","pricing_plan_id":"cebpf4jnsgd1na2vs0mg"},{"bike_id":"486b94b2-04c0-4a4f-a56a-cb6a399a99d3","system_id":"levelo_inurba_marseille","lat":43.31218,"lon":5.36857,"is_reserved":false,"is_disabled":false,"rental_uris":{"android":"levelo://app?vid=486b94b2-04c0-4a4f-a56a-cb6a399a99d3","ios":"levelo://app?vid=486b94b2-04c0-4a4f-a56a-cb6a399a99d3"},"vehicle_type_id":"4","last_reported":1751545311,"current_range_meters":12400,"station_id":"ce4bgl92rcd13ifvqbq0","pricing_plan_id":"cebpf4jnsgd1na2vs0mg"},{"bike_id":"1eec61ac-e978-4438-895d-4a6598057e48","system_id":"levelo_inurba_marseille","lat":43.2928,"lon":5.40143,"is_reserved":false,"is_disabled":false,"rental_uris":{"android":"levelo://app?vid=1eec61ac-e978-4438-895d-4a6598057e48","ios":"levelo://app?vid=1eec61ac-e978-4438-895d-4a6598057e48"},"vehicle_type_id":"4","last_reported":1751545311,"current_range_meters":12400,"station_id":"ce4bh312rcd13ifvqdk0","pricing_plan_id":"cebpf4jnsgd1na2vs0mg"},{"bike_id":"cc6e5460-762e-40c1-8024-6159f14f26f0","system_id":"levelo_inurba_marseille","lat":43.23966,"lon":5.36629,"is_reserved":false,"is_disabled":false,"rental_uris":{"android":"levelo://app?vid=cc6e5460-762e-40c1-8024-6159f14f26f0","ios":"levelo://app?vid=cc6e5460-762e-40c1-8024-6159f14f26f0"},"vehicle_type_id":"4","last_reported":1751545311,"current_range_meters":12400,"station_id":"ce4bhi12rcd13ifvqfp0","pricing_plan_id":"cebpf4jnsgd1na2vs0mg"},{"bike_id":"b1242795-0576-4e4d-a89f-9d7f8310ff08","system_id":"levelo_inurba_marseille","lat":43.24173,"lon":5.364,"is_reserved":false,"is_disabled":false,"rental_uris":{"android":"levelo://app?vid=b1242795-0576-4e4d-a89f-9d7f8310ff08","ios":"levelo://app?vid=b1242795-0576-4e4d-a89f-9d7f8310ff08"},"vehicle_type_id":"4","last_reported":1751545311,"current_range_meters":12400,"station_id":"cpo36qri1sfpv3e86is0","pricing_plan_id":"cebpf4jnsgd1na2vs0mg"},{"bike_id":"0e030323-4386-4e72-9a0d-0f6a2ff539de","system_id":"levelo_inurba_marseille","lat":43.29619,"lon":5.4058,"is_reserved":false,"is_disabled":false,"rental_uris":{"android":"levelo://app?vid=0e030323-4386-4e72-9a0d-0f6a2ff539de","ios":"levelo://app?vid=0e030323-4386-4e72-9a0d-0f6a2ff539de"},"vehicle_type_id":"4","last_reported":1751545311,"current_range_meters":12800,"station_id":"ce4bh0h2rcd13ifvqd60","pricing_plan_id":"cebpf4jnsgd1na2vs0mg"},{"bike_id":"2189a4e3-e886-4e3d-a32b-30188c32b36b","system_id":"levelo_inurba_marseille","lat":43.28468,"lon":5.35906,"is_reserved":false,"is_disabled":false,"rental_uris":{"android":"levelo://app?vid=2189a4e3-e886-4e3d-a32b-30188c32b36b","ios":"levelo://app?vid=2189a4e3-e886-4e3d-a32b-30188c32b36b"},"vehicle_type_id":"4","last_reported":1751545311,"current_range_meters":12800,"station_id":"ce4bhah2rcd13ifvqei0","pricing_plan_id":"cebpf4jnsgd1na2vs0mg"},{"bike_id":"93a66676-4f74-42f6-855e-c4a5c4cd006c","system_id":"levelo_inurba_marseille","lat":43.27063,"lon":5.40262,"is_reserved":false,"is_disabled":false,"rental_uris":{"android":"levelo://app?vid=93a66676-4f74-42f6-855e-c4a5c4cd006c","ios":"levelo://app?vid=93a66676-4f74-42f6-855e-c4a5c4cd006c"},"vehicle_type_id":"4","last_reported":1751545311,"current_range_meters":12800,"station_id":"ce4bhk92rcd13ifvqgc0","pricing_plan_id":"cebpf4jnsgd1na2vs0mg"},{"bike_id":"b30e31d7-58a6-4ca8-84c8-7339151a0883","system_id":"levelo_inurba_marseille","lat":43.24172,"lon":5.36394,"is_reserved":false,"is_disabled":false,"rental_uris":{"android":"levelo://app?vid=b30e31d7-58a6-4ca8-84c8-7339151a0883","ios":"levelo://app?vid=b30e31d7-58a6-4ca8-84c8-7339151a0883"},"vehicle_type_id":"4","last_reported":1751545311,"current_range_meters":12800,"station_id":"cpo36qri1sfpv3e86is0","pricing_plan_id":"cebpf4jnsgd1na2vs0mg"},{"bike_id":"7a6dfb1a-5ca9-47b1-b8c2-aa86f36f1b24","system_id":"levelo_inurba_marseille","lat":43.298925,"lon":5.389067,"is_reserved":false,"is_disabled":false,"rental_uris":{"android":"levelo://app?vid=7a6dfb1a-5ca9-47b1-b8c2-aa86f36f1b24","ios":"levelo://app?vid=7a6dfb1a-5ca9-47b1-b8c2-aa86f36f1b24"},"vehicle_type_id":"4","last_reported":1751545311,"current_range_meters":13600,"station_id":"","pricing_plan_id":"cebpf4jnsgd1na2vs0mg"},{"bike_id":"e55f686d-d197-419f-9a94-83159cc936b5","system_id":"levelo_inurba_marseille","lat":43.29511,"lon":5.394,"is_reserved":false,"is_disabled":false,"rental_uris":{"android":"levelo://app?vid=e55f686d-d197-419f-9a94-83159cc936b5","ios":"levelo://app?vid=e55f686d-d197-419f-9a94-83159cc936b5"},"vehicle_type_id":"4","last_reported":1751545311,"current_range_meters":13600,"station_id":"ce4bh292rcd13ifvqdf0","pricing_plan_id":"cebpf4jnsgd1na2vs0mg"},{"bike_id":"f6a2d584-d24e-488d-ae57-bbf1374e72d3","system_id":"levelo_inurba_marseille","lat":43.21736,"lon":5.3462,"is_reserved":false,"is_disabled":false,"rental_uris":{"android":"levelo://app?vid=f6a2d584-d24e-488d-ae57-bbf1374e72d3","ios":"levelo://app?vid=f6a2d584-d24e-488d-ae57-bbf1374e72d3"},"vehicle_type_id":"4","last_reported":1751545311,"current_range_meters":13600,"station_id":"st_cvj6r9ubvosntc0bgbag","pricing_plan_id":"cebpf4jnsgd1na2vs0mg"},{"bike_id":"a588469b-12ca-41c6-8c6f-3f3bda5b7f15","system_id":"levelo_inurba_marseille","lat":43.3159,"lon":5.38377,"is_reserved":false,"is_disabled":false,"rental_uris":{"android":"levelo://app?vid=a588469b-12ca-41c6-8c6f-3f3bda5b7f15","ios":"levelo://app?vid=a588469b-12ca-41c6-8c6f-3f3bda5b7f15"},"vehicle_type_id":"4","last_reported":1751545311,"current_range_meters":14000,"station_id":"","pricing_plan_id":"cebpf4jnsgd1na2vs0mg"},{"bike_id":"f1550de6-5c07-437b-aa19-b324f6a267b1","system_id":"levelo_inurba_marseille","lat":43.28958,"lon":5.36665,"is_reserved":false,"is_disabled":false,"rental_uris":{"android":"levelo://app?vid=f1550de6-5c07-437b-aa19-b324f6a267b1","ios":"levelo://app?vid=f1550de6-5c07-437b-aa19-b324f6a267b1"},"vehicle_type_id":"4","last_reported":1751545311,"current_range_meters":14000,"station_id":"ce4bhap2rcd13ifvqek0","pricing_plan_id":"cebpf4jnsgd1na2vs0mg"},{"bike_id":"e6ace702-1449-41e3-97f3-2e3a48f345d9","system_id":"levelo_inurba_marseille","lat":43.24648,"lon":5.38888,"is_reserved":false,"is_disabled":false,"rental_uris":{"android":"levelo://app?vid=e6ace702-1449-41e3-97f3-2e3a48f345d9","ios":"levelo://app?vid=e6ace702-1449-41e3-97f3-2e3a48f345d9"},"vehicle_type_id":"4","last_reported":1751545311,"current_range_meters":14000,"station_id":"ce4bhg12rcd13ifvqf60","pricing_plan_id":"cebpf4jnsgd1na2vs0mg"},{"bike_id":"e416c998-4d9a-4848-acdf-fc99f6494b08","system_id":"levelo_inurba_marseille","lat":43.25496,"lon":5.37656,"is_reserved":false,"is_disabled":false,"rental_uris":{"android":"levelo://app?vid=e416c998-4d9a-4848-acdf-fc99f6494b08","ios":"levelo://app?vid=e416c998-4d9a-4848-acdf-fc99f6494b08"},"vehicle_type_id":"4","last_reported":1751545311,"current_range_meters":14000,"station_id":"ce4bhh12rcd13ifvqff0","pricing_plan_id":"cebpf4jnsgd1na2vs0mg"},{"bike_id":"06478bcf-f5f1-4cba-b82a-41641402ed2b","system_id":"levelo_inurba_marseille","lat":43.32359,"lon":5.36758,"is_reserved":false,"is_disabled":false,"rental_uris":{"android":"levelo://app?vid=06478bcf-f5f1-4cba-b82a-41641402ed2b","ios":"levelo://app?vid=06478bcf-f5f1-4cba-b82a-41641402ed2b"},"vehicle_type_id":"4","last_reported":1751545311,"current_range_meters":14000,"station_id":"ce4bhsh2rcd13ifvqi2g","pricing_plan_id":"cebpf4jnsgd1na2vs0mg"},{"bike_id":"912d67f3-78e7-48fd-8929-37f0572cfee4","system_id":"levelo_inurba_marseille","lat":43.26385,"lon":5.37437,"is_reserved":false,"is_disabled":false,"rental_uris":{"android":"levelo://app?vid=912d67f3-78e7-48fd-8929-37f0572cfee4","ios":"levelo://app?vid=912d67f3-78e7-48fd-8929-37f0572cfee4"},"vehicle_type_id":"4","last_reported":1751545311,"current_range_meters":14400,"station_id":"","pricing_plan_id":"cebpf4jnsgd1na2vs0mg"},{"bike_id":"b4c85012-c9e1-4ae5-9878-8fc4b59378a7","system_id":"levelo_inurba_marseille","lat":43.29529,"lon":5.38554,"is_reserved":false,"is_disabled":false,"rental_uris":{"android":"levelo://app?vid=b4c85012-c9e1-4ae5-9878-8fc4b59378a7","ios":"levelo://app?vid=b4c85012-c9e1-4ae5-9878-8fc4b59378a7"},"vehicle_type_id":"4","last_reported":1751545311,"current_range_meters":14400,"station_id":"ce4bgih2rcd13ifvqba0","pricing_plan_id":"cebpf4jnsgd1na2vs0mg"},{"bike_id":"aa0f1230-e1e9-41f1-9211-043e633764ce","system_id":"levelo_inurba_marseille","lat":43.30544,"lon":5.36539,"is_reserved":false,"is_disabled":false,"rental_uris":{"android":"levelo://app?vid=aa0f1230-e1e9-41f1-9211-043e633764ce","ios":"levelo://app?vid=aa0f1230-e1e9-41f1-9211-043e633764ce"},"vehicle_type_id":"4","last_reported":1751545311,"current_range_meters":14400,"station_id":"ce4bgs12rcd13ifvqcag","pricing_plan_id":"cebpf4jnsgd1na2vs0mg"},{"bike_id":"b4ae30c6-17c4-432b-9ae7-7ab3cdf1a4db","system_id":"levelo_inurba_marseille","lat":43.30952,"lon":5.39046,"is_reserved":false,"is_disabled":false,"rental_uris":{"android":"levelo://app?vid=b4ae30c6-17c4-432b-9ae7-7ab3cdf1a4db","ios":"levelo://app?vid=b4ae30c6-17c4-432b-9ae7-7ab3cdf1a4db"},"vehicle_type_id":"4","last_reported":1751545311,"current_range_meters":14400,"station_id":"ce4bgup2rcd13ifvqco0","pricing_plan_id":"cebpf4jnsgd1na2vs0mg"},{"bike_id":"ee532d27-ac50-4201-93ca-077ac1778182","system_id":"levelo_inurba_marseille","lat":43.26198,"lon":5.37448,"is_reserved":false,"is_disabled":false,"rental_uris":{"android":"levelo://app?vid=ee532d27-ac50-4201-93ca-077ac1778182","ios":"levelo://app?vid=ee532d27-ac50-4201-93ca-077ac1778182"},"vehicle_type_id":"4","last_reported":1751545311,"current_range_meters":14400,"station_id":"ce4bhgp2rcd13ifvqfc0","pricing_plan_id":"cebpf4jnsgd1na2vs0mg"},{"bike_id":"04b7e186-e7e7-4acb-a60c-f33208ff81a6","system_id":"levelo_inurba_marseille","lat":43.31084,"lon":5.42431,"is_reserved":false,"is_disabled":false,"rental_uris":{"android":"levelo://app?vid=04b7e186-e7e7-4acb-a60c-f33208ff81a6","ios":"levelo://app?vid=04b7e186-e7e7-4acb-a60c-f33208ff81a6"},"vehicle_type_id":"4","last_reported":1751545311,"current_range_meters":14400,"station_id":"ce4bhp92rcd13ifvqhag","pricing_plan_id":"cebpf4jnsgd1na2vs0mg"},{"bike_id":"ffc4ee84-d1be-4ebc-8ebf-1a1ca37b8401","system_id":"levelo_inurba_marseille","lat":43.30862,"lon":5.37412,"is_reserved":false,"is_disabled":false,"rental_uris":{"android":"levelo://app?vid=ffc4ee84-d1be-4ebc-8ebf-1a1ca37b8401","ios":"levelo://app?vid=ffc4ee84-d1be-4ebc-8ebf-1a1ca37b8401"},"vehicle_type_id":"4","last_reported":1751545311,"current_range_meters":14800,"station_id":"","pricing_plan_id":"cebpf4jnsgd1na2vs0mg"},{"bike_id":"f8242a7c-bb4d-4022-9900-902f1dea8386","system_id":"levelo_inurba_marseille","lat":43.290526,"lon":5.375718,"is_reserved":false,"is_disabled":false,"rental_uris":{"android":"levelo://app?vid=f8242a7c-bb4d-4022-9900-902f1dea8386","ios":"levelo://app?vid=f8242a7c-bb4d-4022-9900-902f1dea8386"},"vehicle_type_id":"4","last_reported":1751545311,"current_range_meters":14800,"station_id":"ce4bh692rcd13ifvqe90","pricing_plan_id":"cebpf4jnsgd1na2vs0mg"},{"bike_id":"9b3fcd61-8c13-43da-b1b0-72a3c00388e6","system_id":"levelo_inurba_marseille","lat":43.274506,"lon":5.394381,"is_reserved":false,"is_disabled":false,"rental_uris":{"android":"levelo://app?vid=9b3fcd61-8c13-43da-b1b0-72a3c00388e6","ios":"levelo://app?vid=9b3fcd61-8c13-43da-b1b0-72a3c00388e6"},"vehicle_type_id":"4","last_reported":1751545311,"current_range_meters":14800,"station_id":"ce4bhdp2rcd13ifvqf20","pricing_plan_id":"cebpf4jnsgd1na2vs0mg"},{"bike_id":"4ae876b1-28e7-4a14-b239-f760ba6b813e","system_id":"levelo_inurba_marseille","lat":43.29031,"lon":5.38643,"is_reserved":false,"is_disabled":false,"rental_uris":{"android":"levelo://app?vid=4ae876b1-28e7-4a14-b239-f760ba6b813e","ios":"levelo://app?vid=4ae876b1-28e7-4a14-b239-f760ba6b813e"},"vehicle_type_id":"4","last_reported":1751545311,"current_range_meters":15200,"station_id":"ce4bh4p2rcd13ifvqe0g","pricing_plan_id":"cebpf4jnsgd1na2vs0mg"},{"bike_id":"6dc2f474-fcbb-4555-97bd-a22eac7e4c96","system_id":"levelo_inurba_marseille","lat":43.2893,"lon":5.36636,"is_reserved":false,"is_disabled":false,"rental_uris":{"android":"levelo://app?vid=6dc2f474-fcbb-4555-97bd-a22eac7e4c96","ios":"levelo://app?vid=6dc2f474-fcbb-4555-97bd-a22eac7e4c96"},"vehicle_type_id":"4","last_reported":1751545311,"current_range_meters":15200,"station_id":"ce4bhap2rcd13ifvqek0","pricing_plan_id":"cebpf4jnsgd1na2vs0mg"},{"bike_id":"f8b42013-1bb5-4854-b480-f4d6c9e5d5e9","system_id":"levelo_inurba_marseille","lat":43.30531,"lon":5.3648,"is_reserved":false,"is_disabled":false,"rental_uris":{"android":"levelo://app?vid=f8b42013-1bb5-4854-b480-f4d6c9e5d5e9","ios":"levelo://app?vid=f8b42013-1bb5-4854-b480-f4d6c9e5d5e9"},"vehicle_type_id":"4","last_reported":1751545311,"current_range_meters":16000,"station_id":"","pricing_plan_id":"cebpf4jnsgd1na2vs0mg"},{"bike_id":"ba154a12-11bd-42a5-958a-5992f5d043d1","system_id":"levelo_inurba_marseille","lat":43.30503,"lon":5.37077,"is_reserved":false,"is_disabled":false,"rental_uris":{"android":"levelo://app?vid=ba154a12-11bd-42a5-958a-5992f5d043d1","ios":"levelo://app?vid=ba154a12-11bd-42a5-958a-5992f5d043d1"},"vehicle_type_id":"4","last_reported":1751545311,"current_range_meters":16000,"station_id":"","pricing_plan_id":"cebpf4jnsgd1na2vs0mg"},{"bike_id":"846f4972-e35b-4e1f-8c65-9e0309747d5f","system_id":"levelo_inurba_marseille","lat":43.27613,"lon":5.36116,"is_reserved":false,"is_disabled":false,"rental_uris":{"android":"levelo://app?vid=846f4972-e35b-4e1f-8c65-9e0309747d5f","ios":"levelo://app?vid=846f4972-e35b-4e1f-8c65-9e0309747d5f"},"vehicle_type_id":"4","last_reported":1751545311,"current_range_meters":16000,"station_id":"ce4bgj92rcd13ifvqbe0","pricing_plan_id":"cebpf4jnsgd1na2vs0mg"},{"bike_id":"387f00d6-d512-4796-8b23-9ea9e18b3665","system_id":"levelo_inurba_marseille","lat":43.30303,"lon":5.369,"is_reserved":false,"is_disabled":false,"rental_uris":{"android":"levelo://app?vid=387f00d6-d512-4796-8b23-9ea9e18b3665","ios":"levelo://app?vid=387f00d6-d512-4796-8b23-9ea9e18b3665"},"vehicle_type_id":"4","last_reported":1751545311,"current_range_meters":16000,"station_id":"ce4bgqh2rcd13ifvqc5g","pricing_plan_id":"cebpf4jnsgd1na2vs0mg"},{"bike_id":"2fc2dd63-76fb-412d-879d-1738be6fb445","system_id":"levelo_inurba_marseille","lat":43.29165,"lon":5.37163,"is_reserved":false,"is_disabled":false,"rental_uris":{"android":"levelo://app?vid=2fc2dd63-76fb-412d-879d-1738be6fb445","ios":"levelo://app?vid=2fc2dd63-76fb-412d-879d-1738be6fb445"},"vehicle_type_id":"4","last_reported":1751545311,"current_range_meters":16000,"station_id":"ce4bha92rcd13ifvqeh0","pricing_plan_id":"cebpf4jnsgd1na2vs0mg"},{"bike_id":"8822efc9-2ac4-4183-a458-caa8a8b165fe","system_id":"levelo_inurba_marseille","lat":43.28274,"lon":5.35082,"is_reserved":false,"is_disabled":false,"rental_uris":{"android":"levelo://app?vid=8822efc9-2ac4-4183-a458-caa8a8b165fe","ios":"levelo://app?vid=8822efc9-2ac4-4183-a458-caa8a8b165fe"},"vehicle_type_id":"4","last_reported":1751545311,"current_range_meters":16000,"station_id":"ce4bhbp2rcd13ifvqerg","pricing_plan_id":"cebpf4jnsgd1na2vs0mg"},{"bike_id":"29230b79-ef37-4cfc-976c-cf1c27e6d0c3","system_id":"levelo_inurba_marseille","lat":43.29536,"lon":5.38547,"is_reserved":false,"is_disabled":false,"rental_uris":{"android":"levelo://app?vid=29230b79-ef37-4cfc-976c-cf1c27e6d0c3","ios":"levelo://app?vid=29230b79-ef37-4cfc-976c-cf1c27e6d0c3"},"vehicle_type_id":"4","last_reported":1751545311,"current_range_meters":16400,"station_id":"ce4bgih2rcd13ifvqba0","pricing_plan_id":"cebpf4jnsgd1na2vs0mg"},{"bike_id":"2992004f-ac1e-4e80-9a3b-b6f6eb76f0db","system_id":"levelo_inurba_marseille","lat":43.297277,"lon":5.37695,"is_reserved":false,"is_disabled":false,"rental_uris":{"android":"levelo://app?vid=2992004f-ac1e-4e80-9a3b-b6f6eb76f0db","ios":"levelo://app?vid=2992004f-ac1e-4e80-9a3b-b6f6eb76f0db"},"vehicle_type_id":"4","last_reported":1751545311,"current_range_meters":16400,"station_id":"ce4bgkh2rcd13ifvqbl0","pricing_plan_id":"cebpf4jnsgd1na2vs0mg"},{"bike_id":"ab2af45d-f433-4a3c-af53-255a9ffd99ee","system_id":"levelo_inurba_marseille","lat":43.30546,"lon":5.367,"is_reserved":false,"is_disabled":false,"rental_uris":{"android":"levelo://app?vid=ab2af45d-f433-4a3c-af53-255a9ffd99ee","ios":"levelo://app?vid=ab2af45d-f433-4a3c-af53-255a9ffd99ee"},"vehicle_type_id":"4","last_reported":1751545311,"current_range_meters":16400,"station_id":"ce4bgrp2rcd13ifvqc9g","pricing_plan_id":"cebpf4jnsgd1na2vs0mg"},{"bike_id":"a985f2f4-6a3b-46ba-a738-e84bc568026c","system_id":"levelo_inurba_marseille","lat":43.30532,"lon":5.36549,"is_reserved":false,"is_disabled":false,"rental_uris":{"android":"levelo://app?vid=a985f2f4-6a3b-46ba-a738-e84bc568026c","ios":"levelo://app?vid=a985f2f4-6a3b-46ba-a738-e84bc568026c"},"vehicle_type_id":"4","last_reported":1751545311,"current_range_meters":16400,"station_id":"ce4bgs12rcd13ifvqcag","pricing_plan_id":"cebpf4jnsgd1na2vs0mg"},{"bike_id":"9b55f015-7aa0-4221-9bb4-30b69180a42a","system_id":"levelo_inurba_marseille","lat":43.30538,"lon":5.36535,"is_reserved":false,"is_disabled":false,"rental_uris":{"android":"levelo://app?vid=9b55f015-7aa0-4221-9bb4-30b69180a42a","ios":"levelo://app?vid=9b55f015-7aa0-4221-9bb4-30b69180a42a"},"vehicle_type_id":"4","last_reported":1751545311,"current_range_meters":16400,"station_id":"ce4bgs12rcd13ifvqcag","pricing_plan_id":"cebpf4jnsgd1na2vs0mg"},{"bike_id":"d7c2be04-dc97-47a9-8024-d2b58c719e91","system_id":"levelo_inurba_marseille","lat":43.29074,"lon":5.37179,"is_reserved":false,"is_disabled":false,"rental_uris":{"android":"levelo://app?vid=d7c2be04-dc97-47a9-8024-d2b58c719e91","ios":"levelo://app?vid=d7c2be04-dc97-47a9-8024-d2b58c719e91"},"vehicle_type_id":"4","last_reported":1751545311,"current_range_meters":16400,"station_id":"ce4bh5p2rcd13ifvqe4g","pricing_plan_id":"cebpf4jnsgd1na2vs0mg"},{"bike_id":"44a9443d-3135-4a25-856d-9bda0e293f4a","system_id":"levelo_inurba_marseille","lat":43.28412,"lon":5.34993,"is_reserved":false,"is_disabled":false,"rental_uris":{"android":"levelo://app?vid=44a9443d-3135-4a25-856d-9bda0e293f4a","ios":"levelo://app?vid=44a9443d-3135-4a25-856d-9bda0e293f4a"},"vehicle_type_id":"4","last_reported":1751545311,"current_range_meters":16400,"station_id":"ce4bhbh2rcd13ifvqepg","pricing_plan_id":"cebpf4jnsgd1na2vs0mg"},{"bike_id":"429fa18c-0d06-4a5d-a9f7-cd69cbe19891","system_id":"levelo_inurba_marseille","lat":43.25482,"lon":5.37635,"is_reserved":false,"is_disabled":false,"rental_uris":{"android":"levelo://app?vid=429fa18c-0d06-4a5d-a9f7-cd69cbe19891","ios":"levelo://app?vid=429fa18c-0d06-4a5d-a9f7-cd69cbe19891"},"vehicle_type_id":"4","last_reported":1751545311,"current_range_meters":16400,"station_id":"ce4bhh12rcd13ifvqff0","pricing_plan_id":"cebpf4jnsgd1na2vs0mg"},{"bike_id":"dff8b775-09e6-4cc2-9d07-6da518cdab66","system_id":"levelo_inurba_marseille","lat":43.28087,"lon":5.39667,"is_reserved":false,"is_disabled":false,"rental_uris":{"android":"levelo://app?vid=dff8b775-09e6-4cc2-9d07-6da518cdab66","ios":"levelo://app?vid=dff8b775-09e6-4cc2-9d07-6da518cdab66"},"vehicle_type_id":"4","last_reported":1751545311,"current_range_meters":16400,"station_id":"ce4bho12rcd13ifvqh2g","pricing_plan_id":"cebpf4jnsgd1na2vs0mg"},{"bike_id":"9d06beda-1bc5-4b5e-a97e-4c40320ce321","system_id":"levelo_inurba_marseille","lat":43.33585,"lon":5.40986,"is_reserved":false,"is_disabled":false,"rental_uris":{"android":"levelo://app?vid=9d06beda-1bc5-4b5e-a97e-4c40320ce321","ios":"levelo://app?vid=9d06beda-1bc5-4b5e-a97e-4c40320ce321"},"vehicle_type_id":"4","last_reported":1751545311,"current_range_meters":16400,"station_id":"ce4bhqh2rcd13ifvqhmg","pricing_plan_id":"cebpf4jnsgd1na2vs0mg"},{"bike_id":"37b84a38-055a-4a6e-a56a-8ff3d0c1b2ec","system_id":"levelo_inurba_marseille","lat":43.212,"lon":5.35092,"is_reserved":false,"is_disabled":false,"rental_uris":{"android":"levelo://app?vid=37b84a38-055a-4a6e-a56a-8ff3d0c1b2ec","ios":"levelo://app?vid=37b84a38-055a-4a6e-a56a-8ff3d0c1b2ec"},"vehicle_type_id":"4","last_reported":1751545311,"current_range_meters":16400,"station_id":"st_cvj6sg6p6f1abm77japg","pricing_plan_id":"cebpf4jnsgd1na2vs0mg"},{"bike_id":"4d4995e7-0bba-4ac2-a238-afd84a5e99b5","system_id":"levelo_inurba_marseille","lat":43.304848,"lon":5.398345,"is_reserved":false,"is_disabled":false,"rental_uris":{"android":"levelo://app?vid=4d4995e7-0bba-4ac2-a238-afd84a5e99b5","ios":"levelo://app?vid=4d4995e7-0bba-4ac2-a238-afd84a5e99b5"},"vehicle_type_id":"4","last_reported":1751545311,"current_range_meters":16800,"station_id":"","pricing_plan_id":"cebpf4jnsgd1na2vs0mg"},{"bike_id":"175513bb-dce2-48e2-83c8-1e9f1cb23cd0","system_id":"levelo_inurba_marseille","lat":43.286255,"lon":5.412651,"is_reserved":false,"is_disabled":false,"rental_uris":{"android":"levelo://app?vid=175513bb-dce2-48e2-83c8-1e9f1cb23cd0","ios":"levelo://app?vid=175513bb-dce2-48e2-83c8-1e9f1cb23cd0"},"vehicle_type_id":"4","last_reported":1751545311,"current_range_meters":16800,"station_id":"","pricing_plan_id":"cebpf4jnsgd1na2vs0mg"},{"bike_id":"288c01c0-a99b-4073-85f6-7c5bccb78629","system_id":"levelo_inurba_marseille","lat":43.28693,"lon":5.36446,"is_reserved":false,"is_disabled":false,"rental_uris":{"android":"levelo://app?vid=288c01c0-a99b-4073-85f6-7c5bccb78629","ios":"levelo://app?vid=288c01c0-a99b-4073-85f6-7c5bccb78629"},"vehicle_type_id":"4","last_reported":1751545311,"current_range_meters":16800,"station_id":"","pricing_plan_id":"cebpf4jnsgd1na2vs0mg"},{"bike_id":"d6a97fc8-7c5d-4b77-9d38-d22003db8fe5","system_id":"levelo_inurba_marseille","lat":43.34721,"lon":5.36602,"is_reserved":false,"is_disabled":false,"rental_uris":{"android":"levelo://app?vid=d6a97fc8-7c5d-4b77-9d38-d22003db8fe5","ios":"levelo://app?vid=d6a97fc8-7c5d-4b77-9d38-d22003db8fe5"},"vehicle_type_id":"4","last_reported":1751545311,"current_range_meters":16800,"station_id":"","pricing_plan_id":"cebpf4jnsgd1na2vs0mg"},{"bike_id":"169f891d-03f9-41b5-b49a-1801a112bdc5","system_id":"levelo_inurba_marseille","lat":43.30953,"lon":5.39042,"is_reserved":false,"is_disabled":false,"rental_uris":{"android":"levelo://app?vid=169f891d-03f9-41b5-b49a-1801a112bdc5","ios":"levelo://app?vid=169f891d-03f9-41b5-b49a-1801a112bdc5"},"vehicle_type_id":"4","last_reported":1751545311,"current_range_meters":16800,"station_id":"ce4bgup2rcd13ifvqco0","pricing_plan_id":"cebpf4jnsgd1na2vs0mg"},{"bike_id":"2596bf02-4b4e-4a73-96c0-306657fb5dc9","system_id":"levelo_inurba_marseille","lat":43.26204,"lon":5.37445,"is_reserved":false,"is_disabled":false,"rental_uris":{"android":"levelo://app?vid=2596bf02-4b4e-4a73-96c0-306657fb5dc9","ios":"levelo://app?vid=2596bf02-4b4e-4a73-96c0-306657fb5dc9"},"vehicle_type_id":"4","last_reported":1751545311,"current_range_meters":16800,"station_id":"ce4bhgp2rcd13ifvqfc0","pricing_plan_id":"cebpf4jnsgd1na2vs0mg"},{"bike_id":"3af69262-12ee-40a7-8d41-06d585216090","system_id":"levelo_inurba_marseille","lat":43.24388,"lon":5.37059,"is_reserved":false,"is_disabled":false,"rental_uris":{"android":"levelo://app?vid=3af69262-12ee-40a7-8d41-06d585216090","ios":"levelo://app?vid=3af69262-12ee-40a7-8d41-06d585216090"},"vehicle_type_id":"4","last_reported":1751545311,"current_range_meters":16800,"station_id":"ce4bhhh2rcd13ifvqfk0","pricing_plan_id":"cebpf4jnsgd1na2vs0mg"},{"bike_id":"6bf57b0a-809a-4cf7-b405-ef74a78507a3","system_id":"levelo_inurba_marseille","lat":43.25733,"lon":5.41104,"is_reserved":false,"is_disabled":false,"rental_uris":{"android":"levelo://app?vid=6bf57b0a-809a-4cf7-b405-ef74a78507a3","ios":"levelo://app?vid=6bf57b0a-809a-4cf7-b405-ef74a78507a3"},"vehicle_type_id":"4","last_reported":1751545311,"current_range_meters":16800,"station_id":"ce4bhkp2rcd13ifvqgd0","pricing_plan_id":"cebpf4jnsgd1na2vs0mg"},{"bike_id":"7c67e7dd-7a7f-426b-9249-641f91643932","system_id":"levelo_inurba_marseille","lat":43.241681,"lon":5.364051,"is_reserved":false,"is_disabled":false,"rental_uris":{"android":"levelo://app?vid=7c67e7dd-7a7f-426b-9249-641f91643932","ios":"levelo://app?vid=7c67e7dd-7a7f-426b-9249-641f91643932"},"vehicle_type_id":"4","last_reported":1751545311,"current_range_meters":16800,"station_id":"cpo36qri1sfpv3e86is0","pricing_plan_id":"cebpf4jnsgd1na2vs0mg"},{"bike_id":"a6715104-7492-4ec6-a996-23050baf8551","system_id":"levelo_inurba_marseille","lat":43.22512,"lon":5.34777,"is_reserved":false,"is_disabled":false,"rental_uris":{"android":"levelo://app?vid=a6715104-7492-4ec6-a996-23050baf8551","ios":"levelo://app?vid=a6715104-7492-4ec6-a996-23050baf8551"},"vehicle_type_id":"4","last_reported":1751545311,"current_range_meters":16800,"station_id":"st_cvj5dfep6f1abm77gieg","pricing_plan_id":"cebpf4jnsgd1na2vs0mg"},{"bike_id":"0c4b7fdb-b39e-49b3-a2b0-ae3d0f43e89d","system_id":"levelo_inurba_marseille","lat":43.329,"lon":5.40576,"is_reserved":false,"is_disabled":false,"rental_uris":{"android":"levelo://app?vid=0c4b7fdb-b39e-49b3-a2b0-ae3d0f43e89d","ios":"levelo://app?vid=0c4b7fdb-b39e-49b3-a2b0-ae3d0f43e89d"},"vehicle_type_id":"4","last_reported":1751545311,"current_range_meters":17200,"station_id":"","pricing_plan_id":"cebpf4jnsgd1na2vs0mg"},{"bike_id":"04c15867-baa6-4bc7-8953-f672cd6d5946","system_id":"levelo_inurba_marseille","lat":43.31361,"lon":5.38497,"is_reserved":false,"is_disabled":false,"rental_uris":{"android":"levelo://app?vid=04c15867-baa6-4bc7-8953-f672cd6d5946","ios":"levelo://app?vid=04c15867-baa6-4bc7-8953-f672cd6d5946"},"vehicle_type_id":"4","last_reported":1751545311,"current_range_meters":17200,"station_id":"ce4bgt92rcd13ifvqcf0","pricing_plan_id":"cebpf4jnsgd1na2vs0mg"},{"bike_id":"339cb048-57c6-4db7-8078-dd131901acd6","system_id":"levelo_inurba_marseille","lat":43.29501,"lon":5.394,"is_reserved":false,"is_disabled":false,"rental_uris":{"android":"levelo://app?vid=339cb048-57c6-4db7-8078-dd131901acd6","ios":"levelo://app?vid=339cb048-57c6-4db7-8078-dd131901acd6"},"vehicle_type_id":"4","last_reported":1751545311,"current_range_meters":17200,"station_id":"ce4bh292rcd13ifvqdf0","pricing_plan_id":"cebpf4jnsgd1na2vs0mg"},{"bike_id":"603f229c-09b9-4145-9510-d250a8eff49b","system_id":"levelo_inurba_marseille","lat":43.2862,"lon":5.35111,"is_reserved":false,"is_disabled":false,"rental_uris":{"android":"levelo://app?vid=603f229c-09b9-4145-9510-d250a8eff49b","ios":"levelo://app?vid=603f229c-09b9-4145-9510-d250a8eff49b"},"vehicle_type_id":"4","last_reported":1751545311,"current_range_meters":17200,"station_id":"ce4bhch2rcd13ifvqeug","pricing_plan_id":"cebpf4jnsgd1na2vs0mg"},{"bike_id":"57e84e33-8ef2-49b0-9c52-2dd89adcc82a","system_id":"levelo_inurba_marseille","lat":43.23143,"lon":5.43739,"is_reserved":false,"is_disabled":false,"rental_uris":{"android":"levelo://app?vid=57e84e33-8ef2-49b0-9c52-2dd89adcc82a","ios":"levelo://app?vid=57e84e33-8ef2-49b0-9c52-2dd89adcc82a"},"vehicle_type_id":"4","last_reported":1751545311,"current_range_meters":17200,"station_id":"ce4bhmp2rcd13ifvqgog","pricing_plan_id":"cebpf4jnsgd1na2vs0mg"},{"bike_id":"5e7c28ce-c1e0-45f8-9aa8-e38a3d89ec30","system_id":"levelo_inurba_marseille","lat":43.32536,"lon":5.41449,"is_reserved":false,"is_disabled":false,"rental_uris":{"android":"levelo://app?vid=5e7c28ce-c1e0-45f8-9aa8-e38a3d89ec30","ios":"levelo://app?vid=5e7c28ce-c1e0-45f8-9aa8-e38a3d89ec30"},"vehicle_type_id":"4","last_reported":1751545311,"current_range_meters":17200,"station_id":"ce4bhq12rcd13ifvqhhg","pricing_plan_id":"cebpf4jnsgd1na2vs0mg"},{"bike_id":"b2ce53ca-166b-417e-9d70-9bee393f75bb","system_id":"levelo_inurba_marseille","lat":43.21222,"lon":5.35094,"is_reserved":false,"is_disabled":false,"rental_uris":{"android":"levelo://app?vid=b2ce53ca-166b-417e-9d70-9bee393f75bb","ios":"levelo://app?vid=b2ce53ca-166b-417e-9d70-9bee393f75bb"},"vehicle_type_id":"4","last_reported":1751545311,"current_range_meters":17200,"station_id":"st_cvj6sg6p6f1abm77japg","pricing_plan_id":"cebpf4jnsgd1na2vs0mg"},{"bike_id":"b19cea31-4713-475e-adff-68764a256fc0","system_id":"levelo_inurba_marseille","lat":43.30546,"lon":5.367438,"is_reserved":false,"is_disabled":false,"rental_uris":{"android":"levelo://app?vid=b19cea31-4713-475e-adff-68764a256fc0","ios":"levelo://app?vid=b19cea31-4713-475e-adff-68764a256fc0"},"vehicle_type_id":"4","last_reported":1751545311,"current_range_meters":17600,"station_id":"ce4bgrp2rcd13ifvqc9g","pricing_plan_id":"cebpf4jnsgd1na2vs0mg"},{"bike_id":"71de5bfa-d0ca-47fa-b432-2299f6075ee1","system_id":"levelo_inurba_marseille","lat":43.29196,"lon":5.3581,"is_reserved":false,"is_disabled":false,"rental_uris":{"android":"levelo://app?vid=71de5bfa-d0ca-47fa-b432-2299f6075ee1","ios":"levelo://app?vid=71de5bfa-d0ca-47fa-b432-2299f6075ee1"},"vehicle_type_id":"4","last_reported":1751545311,"current_range_meters":17600,"station_id":"ce4bhb12rcd13ifvqel0","pricing_plan_id":"cebpf4jnsgd1na2vs0mg"},{"bike_id":"9e407ba8-2841-4932-8f97-01cd9325a67e","system_id":"levelo_inurba_marseille","lat":43.25742,"lon":5.41072,"is_reserved":false,"is_disabled":false,"rental_uris":{"android":"levelo://app?vid=9e407ba8-2841-4932-8f97-01cd9325a67e","ios":"levelo://app?vid=9e407ba8-2841-4932-8f97-01cd9325a67e"},"vehicle_type_id":"4","last_reported":1751545311,"current_range_meters":17600,"station_id":"ce4bhkp2rcd13ifvqgd0","pricing_plan_id":"cebpf4jnsgd1na2vs0mg"},{"bike_id":"04e6c422-f573-4b46-85ae-d31c2fc5977b","system_id":"levelo_inurba_marseille","lat":43.2417,"lon":5.36401,"is_reserved":false,"is_disabled":false,"rental_uris":{"android":"levelo://app?vid=04e6c422-f573-4b46-85ae-d31c2fc5977b","ios":"levelo://app?vid=04e6c422-f573-4b46-85ae-d31c2fc5977b"},"vehicle_type_id":"4","last_reported":1751545311,"current_range_meters":17600,"station_id":"cpo36qri1sfpv3e86is0","pricing_plan_id":"cebpf4jnsgd1na2vs0mg"},{"bike_id":"7e21e8f2-09c8-4cc5-8113-278ebd23888d","system_id":"levelo_inurba_marseille","lat":43.211979,"lon":5.350773,"is_reserved":false,"is_disabled":false,"rental_uris":{"android":"levelo://app?vid=7e21e8f2-09c8-4cc5-8113-278ebd23888d","ios":"levelo://app?vid=7e21e8f2-09c8-4cc5-8113-278ebd23888d"},"vehicle_type_id":"4","last_reported":1751545311,"current_range_meters":17600,"station_id":"st_cvj6sg6p6f1abm77japg","pricing_plan_id":"cebpf4jnsgd1na2vs0mg"},{"bike_id":"cc04118e-9312-4bf8-9106-d64e829afbaa","system_id":"levelo_inurba_marseille","lat":43.21192,"lon":5.35074,"is_reserved":false,"is_disabled":false,"rental_uris":{"android":"levelo://app?vid=cc04118e-9312-4bf8-9106-d64e829afbaa","ios":"levelo://app?vid=cc04118e-9312-4bf8-9106-d64e829afbaa"},"vehicle_type_id":"4","last_reported":1751545311,"current_range_meters":17600,"station_id":"st_cvj6sg6p6f1abm77japg","pricing_plan_id":"cebpf4jnsgd1na2vs0mg"},{"bike_id":"0c5e46df-9adb-4aa5-842c-17a1961c0106","system_id":"levelo_inurba_marseille","lat":43.27973,"lon":5.40712,"is_reserved":false,"is_disabled":false,"rental_uris":{"android":"levelo://app?vid=0c5e46df-9adb-4aa5-842c-17a1961c0106","ios":"levelo://app?vid=0c5e46df-9adb-4aa5-842c-17a1961c0106"},"vehicle_type_id":"4","last_reported":1751545311,"current_range_meters":18000,"station_id":"","pricing_plan_id":"cebpf4jnsgd1na2vs0mg"},{"bike_id":"d35e7a31-a782-42b3-a694-d93b212baaac","system_id":"levelo_inurba_marseille","lat":43.2972,"lon":5.37773,"is_reserved":false,"is_disabled":false,"rental_uris":{"android":"levelo://app?vid=d35e7a31-a782-42b3-a694-d93b212baaac","ios":"levelo://app?vid=d35e7a31-a782-42b3-a694-d93b212baaac"},"vehicle_type_id":"4","last_reported":1751545311,"current_range_meters":18000,"station_id":"","pricing_plan_id":"cebpf4jnsgd1na2vs0mg"},{"bike_id":"9b272ab8-1960-498c-b11f-a07f3c257d56","system_id":"levelo_inurba_marseille","lat":43.337444,"lon":5.374475,"is_reserved":false,"is_disabled":false,"rental_uris":{"android":"levelo://app?vid=9b272ab8-1960-498c-b11f-a07f3c257d56","ios":"levelo://app?vid=9b272ab8-1960-498c-b11f-a07f3c257d56"},"vehicle_type_id":"4","last_reported":1751545311,"current_range_meters":18000,"station_id":"ce4bgvp2rcd13ifvqcu0","pricing_plan_id":"cebpf4jnsgd1na2vs0mg"},{"bike_id":"f1d02ed8-a147-4688-a279-6e7c5aa31bc9","system_id":"levelo_inurba_marseille","lat":43.29631,"lon":5.40594,"is_reserved":false,"is_disabled":false,"rental_uris":{"android":"levelo://app?vid=f1d02ed8-a147-4688-a279-6e7c5aa31bc9","ios":"levelo://app?vid=f1d02ed8-a147-4688-a279-6e7c5aa31bc9"},"vehicle_type_id":"4","last_reported":1751545311,"current_range_meters":18000,"station_id":"ce4bh0h2rcd13ifvqd60","pricing_plan_id":"cebpf4jnsgd1na2vs0mg"},{"bike_id":"73207151-4dbf-4f79-98a5-4f7db39bafa7","system_id":"levelo_inurba_marseille","lat":43.26027,"lon":5.37569,"is_reserved":false,"is_disabled":false,"rental_uris":{"android":"levelo://app?vid=73207151-4dbf-4f79-98a5-4f7db39bafa7","ios":"levelo://app?vid=73207151-4dbf-4f79-98a5-4f7db39bafa7"},"vehicle_type_id":"4","last_reported":1751545311,"current_range_meters":18000,"station_id":"ce4bhgh2rcd13ifvqfa0","pricing_plan_id":"cebpf4jnsgd1na2vs0mg"},{"bike_id":"017018d2-6c70-416d-bc79-45860de52bfd","system_id":"levelo_inurba_marseille","lat":43.24806,"lon":5.37453,"is_reserved":false,"is_disabled":false,"rental_uris":{"android":"levelo://app?vid=017018d2-6c70-416d-bc79-45860de52bfd","ios":"levelo://app?vid=017018d2-6c70-416d-bc79-45860de52bfd"},"vehicle_type_id":"4","last_reported":1751545311,"current_range_meters":18000,"station_id":"ce4bhgh2rcd13ifvqfb0","pricing_plan_id":"cebpf4jnsgd1na2vs0mg"},{"bike_id":"14ef623b-089f-4b9f-8e3c-a52e55c65a90","system_id":"levelo_inurba_marseille","lat":43.25866,"lon":5.399,"is_reserved":false,"is_disabled":false,"rental_uris":{"android":"levelo://app?vid=14ef623b-089f-4b9f-8e3c-a52e55c65a90","ios":"levelo://app?vid=14ef623b-089f-4b9f-8e3c-a52e55c65a90"},"vehicle_type_id":"4","last_reported":1751545311,"current_range_meters":18000,"station_id":"ce4bhl92rcd13ifvqghg","pricing_plan_id":"cebpf4jnsgd1na2vs0mg"},{"bike_id":"072c1623-0cde-4bde-882e-9ebd9afe837d","system_id":"levelo_inurba_marseille","lat":43.231493,"lon":5.437125,"is_reserved":false,"is_disabled":false,"rental_uris":{"android":"levelo://app?vid=072c1623-0cde-4bde-882e-9ebd9afe837d","ios":"levelo://app?vid=072c1623-0cde-4bde-882e-9ebd9afe837d"},"vehicle_type_id":"4","last_reported":1751545311,"current_range_meters":18000,"station_id":"ce4bhmp2rcd13ifvqgog","pricing_plan_id":"cebpf4jnsgd1na2vs0mg"},{"bike_id":"5e197122-e8ec-4f01-b370-6bbfc10c6950","system_id":"levelo_inurba_marseille","lat":43.21188,"lon":5.35072,"is_reserved":false,"is_disabled":false,"rental_uris":{"android":"levelo://app?vid=5e197122-e8ec-4f01-b370-6bbfc10c6950","ios":"levelo://app?vid=5e197122-e8ec-4f01-b370-6bbfc10c6950"},"vehicle_type_id":"4","last_reported":1751545311,"current_range_meters":18000,"station_id":"st_cvj6sg6p6f1abm77japg","pricing_plan_id":"cebpf4jnsgd1na2vs0mg"},{"bike_id":"1c8ab180-05fd-405f-9922-b2b2c2d5142f","system_id":"levelo_inurba_marseille","lat":43.337889,"lon":5.381236,"is_reserved":false,"is_disabled":false,"rental_uris":{"android":"levelo://app?vid=1c8ab180-05fd-405f-9922-b2b2c2d5142f","ios":"levelo://app?vid=1c8ab180-05fd-405f-9922-b2b2c2d5142f"},"vehicle_type_id":"4","last_reported":1751545311,"current_range_meters":18800,"station_id":"","pricing_plan_id":"cebpf4jnsgd1na2vs0mg"},{"bike_id":"1cdd505e-19ad-4665-9fcb-0e94623002f8","system_id":"levelo_inurba_marseille","lat":43.28449,"lon":5.35888,"is_reserved":false,"is_disabled":false,"rental_uris":{"android":"levelo://app?vid=1cdd505e-19ad-4665-9fcb-0e94623002f8","ios":"levelo://app?vid=1cdd505e-19ad-4665-9fcb-0e94623002f8"},"vehicle_type_id":"4","last_reported":1751545311,"current_range_meters":18800,"station_id":"ce4bhah2rcd13ifvqei0","pricing_plan_id":"cebpf4jnsgd1na2vs0mg"},{"bike_id":"55aa929b-2db6-4ab6-8121-df233a47781a","system_id":"levelo_inurba_marseille","lat":43.26215,"lon":5.37448,"is_reserved":false,"is_disabled":false,"rental_uris":{"android":"levelo://app?vid=55aa929b-2db6-4ab6-8121-df233a47781a","ios":"levelo://app?vid=55aa929b-2db6-4ab6-8121-df233a47781a"},"vehicle_type_id":"4","last_reported":1751545311,"current_range_meters":18800,"station_id":"ce4bhgp2rcd13ifvqfc0","pricing_plan_id":"cebpf4jnsgd1na2vs0mg"},{"bike_id":"df2ad5da-c9c7-4100-b825-8bb9694e84cb","system_id":"levelo_inurba_marseille","lat":43.26212,"lon":5.37446,"is_reserved":false,"is_disabled":false,"rental_uris":{"android":"levelo://app?vid=df2ad5da-c9c7-4100-b825-8bb9694e84cb","ios":"levelo://app?vid=df2ad5da-c9c7-4100-b825-8bb9694e84cb"},"vehicle_type_id":"4","last_reported":1751545311,"current_range_meters":18800,"station_id":"ce4bhgp2rcd13ifvqfc0","pricing_plan_id":"cebpf4jnsgd1na2vs0mg"},{"bike_id":"046a7880-e7ac-4e6a-a802-d0f574715c6b","system_id":"levelo_inurba_marseille","lat":43.33013,"lon":5.39026,"is_reserved":false,"is_disabled":false,"rental_uris":{"android":"levelo://app?vid=046a7880-e7ac-4e6a-a802-d0f574715c6b","ios":"levelo://app?vid=046a7880-e7ac-4e6a-a802-d0f574715c6b"},"vehicle_type_id":"4","last_reported":1751545311,"current_range_meters":18800,"station_id":"ce4bhr92rcd13ifvqhrg","pricing_plan_id":"cebpf4jnsgd1na2vs0mg"},{"bike_id":"5ecbe7d9-b835-47e3-87d6-0fd67017673c","system_id":"levelo_inurba_marseille","lat":43.32102,"lon":5.3678,"is_reserved":false,"is_disabled":false,"rental_uris":{"android":"levelo://app?vid=5ecbe7d9-b835-47e3-87d6-0fd67017673c","ios":"levelo://app?vid=5ecbe7d9-b835-47e3-87d6-0fd67017673c"},"vehicle_type_id":"4","last_reported":1751545311,"current_range_meters":18800,"station_id":"ce4bhrh2rcd13ifvqhug","pricing_plan_id":"cebpf4jnsgd1na2vs0mg"},{"bike_id":"5f1e5526-9ff8-4075-8194-48a897f058b4","system_id":"levelo_inurba_marseille","lat":43.211993,"lon":5.350827,"is_reserved":false,"is_disabled":false,"rental_uris":{"android":"levelo://app?vid=5f1e5526-9ff8-4075-8194-48a897f058b4","ios":"levelo://app?vid=5f1e5526-9ff8-4075-8194-48a897f058b4"},"vehicle_type_id":"4","last_reported":1751545311,"current_range_meters":18800,"station_id":"st_cvj6sg6p6f1abm77japg","pricing_plan_id":"cebpf4jnsgd1na2vs0mg"},{"bike_id":"25df2163-6abd-4a78-b0fe-fe4cca498eda","system_id":"levelo_inurba_marseille","lat":43.30952,"lon":5.39035,"is_reserved":false,"is_disabled":false,"rental_uris":{"android":"levelo://app?vid=25df2163-6abd-4a78-b0fe-fe4cca498eda","ios":"levelo://app?vid=25df2163-6abd-4a78-b0fe-fe4cca498eda"},"vehicle_type_id":"4","last_reported":1751545311,"current_range_meters":19200,"station_id":"ce4bgup2rcd13ifvqco0","pricing_plan_id":"cebpf4jnsgd1na2vs0mg"},{"bike_id":"ec19b26d-8eae-4bd6-97bb-8c8b96809804","system_id":"levelo_inurba_marseille","lat":43.30956,"lon":5.39069,"is_reserved":false,"is_disabled":false,"rental_uris":{"android":"levelo://app?vid=ec19b26d-8eae-4bd6-97bb-8c8b96809804","ios":"levelo://app?vid=ec19b26d-8eae-4bd6-97bb-8c8b96809804"},"vehicle_type_id":"4","last_reported":1751545311,"current_range_meters":19200,"station_id":"ce4bgup2rcd13ifvqco0","pricing_plan_id":"cebpf4jnsgd1na2vs0mg"},{"bike_id":"e9d26c79-d78f-4002-bc79-c4aa63e66364","system_id":"levelo_inurba_marseille","lat":43.31207,"lon":5.38729,"is_reserved":false,"is_disabled":false,"rental_uris":{"android":"levelo://app?vid=e9d26c79-d78f-4002-bc79-c4aa63e66364","ios":"levelo://app?vid=e9d26c79-d78f-4002-bc79-c4aa63e66364"},"vehicle_type_id":"4","last_reported":1751545311,"current_range_meters":19200,"station_id":"ce4bgv12rcd13ifvqcp0","pricing_plan_id":"cebpf4jnsgd1na2vs0mg"},{"bike_id":"8b275258-2617-4b52-9a95-0d45670b5894","system_id":"levelo_inurba_marseille","lat":43.33024,"lon":5.39042,"is_reserved":false,"is_disabled":false,"rental_uris":{"android":"levelo://app?vid=8b275258-2617-4b52-9a95-0d45670b5894","ios":"levelo://app?vid=8b275258-2617-4b52-9a95-0d45670b5894"},"vehicle_type_id":"4","last_reported":1751545311,"current_range_meters":19200,"station_id":"ce4bhr92rcd13ifvqhrg","pricing_plan_id":"cebpf4jnsgd1na2vs0mg"},{"bike_id":"32c0fc37-6823-41d0-9497-8d1eea24742c","system_id":"levelo_inurba_marseille","lat":43.24171,"lon":5.36406,"is_reserved":false,"is_disabled":false,"rental_uris":{"android":"levelo://app?vid=32c0fc37-6823-41d0-9497-8d1eea24742c","ios":"levelo://app?vid=32c0fc37-6823-41d0-9497-8d1eea24742c"},"vehicle_type_id":"4","last_reported":1751545311,"current_range_meters":19200,"station_id":"cpo36qri1sfpv3e86is0","pricing_plan_id":"cebpf4jnsgd1na2vs0mg"},{"bike_id":"d3bdb41c-8b0a-446d-98af-e6de2988fc13","system_id":"levelo_inurba_marseille","lat":43.22504,"lon":5.34787,"is_reserved":false,"is_disabled":false,"rental_uris":{"android":"levelo://app?vid=d3bdb41c-8b0a-446d-98af-e6de2988fc13","ios":"levelo://app?vid=d3bdb41c-8b0a-446d-98af-e6de2988fc13"},"vehicle_type_id":"4","last_reported":1751545311,"current_range_meters":19200,"station_id":"st_cvj5dfep6f1abm77gieg","pricing_plan_id":"cebpf4jnsgd1na2vs0mg"},{"bike_id":"ba926bfc-9632-4680-b0ed-32a040d6fb83","system_id":"levelo_inurba_marseille","lat":43.21189,"lon":5.35097,"is_reserved":false,"is_disabled":false,"rental_uris":{"android":"levelo://app?vid=ba926bfc-9632-4680-b0ed-32a040d6fb83","ios":"levelo://app?vid=ba926bfc-9632-4680-b0ed-32a040d6fb83"},"vehicle_type_id":"4","last_reported":1751545311,"current_range_meters":19200,"station_id":"st_cvj6sg6p6f1abm77japg","pricing_plan_id":"cebpf4jnsgd1na2vs0mg"},{"bike_id":"b13877a6-4825-4d82-b46b-67fa8ad66c5d","system_id":"levelo_inurba_marseille","lat":43.21191,"lon":5.35082,"is_reserved":false,"is_disabled":false,"rental_uris":{"android":"levelo://app?vid=b13877a6-4825-4d82-b46b-67fa8ad66c5d","ios":"levelo://app?vid=b13877a6-4825-4d82-b46b-67fa8ad66c5d"},"vehicle_type_id":"4","last_reported":1751545311,"current_range_meters":19200,"station_id":"st_cvj6sg6p6f1abm77japg","pricing_plan_id":"cebpf4jnsgd1na2vs0mg"},{"bike_id":"8b3755fc-2284-401e-bc3a-14d8474e8e49","system_id":"levelo_inurba_marseille","lat":43.289559,"lon":5.383888,"is_reserved":false,"is_disabled":false,"rental_uris":{"android":"levelo://app?vid=8b3755fc-2284-401e-bc3a-14d8474e8e49","ios":"levelo://app?vid=8b3755fc-2284-401e-bc3a-14d8474e8e49"},"vehicle_type_id":"4","last_reported":1751545311,"current_range_meters":19600,"station_id":"","pricing_plan_id":"cebpf4jnsgd1na2vs0mg"},{"bike_id":"b544d2c1-91cd-42a5-bc12-f35b5a49cc36","system_id":"levelo_inurba_marseille","lat":43.27621,"lon":5.36108,"is_reserved":false,"is_disabled":false,"rental_uris":{"android":"levelo://app?vid=b544d2c1-91cd-42a5-bc12-f35b5a49cc36","ios":"levelo://app?vid=b544d2c1-91cd-42a5-bc12-f35b5a49cc36"},"vehicle_type_id":"4","last_reported":1751545311,"current_range_meters":19600,"station_id":"ce4bgj92rcd13ifvqbe0","pricing_plan_id":"cebpf4jnsgd1na2vs0mg"},{"bike_id":"b9d6b97e-d417-4ba4-a773-d587a1fed28c","system_id":"levelo_inurba_marseille","lat":43.317118,"lon":5.377429,"is_reserved":false,"is_disabled":false,"rental_uris":{"android":"levelo://app?vid=b9d6b97e-d417-4ba4-a773-d587a1fed28c","ios":"levelo://app?vid=b9d6b97e-d417-4ba4-a773-d587a1fed28c"},"vehicle_type_id":"4","last_reported":1751545311,"current_range_meters":19600,"station_id":"ce4bgth2rcd13ifvqch0","pricing_plan_id":"cebpf4jnsgd1na2vs0mg"},{"bike_id":"5ca573f7-adce-4e65-a0a5-8aecba433aef","system_id":"levelo_inurba_marseille","lat":43.30966,"lon":5.39073,"is_reserved":false,"is_disabled":false,"rental_uris":{"android":"levelo://app?vid=5ca573f7-adce-4e65-a0a5-8aecba433aef","ios":"levelo://app?vid=5ca573f7-adce-4e65-a0a5-8aecba433aef"},"vehicle_type_id":"4","last_reported":1751545311,"current_range_meters":19600,"station_id":"ce4bgup2rcd13ifvqco0","pricing_plan_id":"cebpf4jnsgd1na2vs0mg"},{"bike_id":"b66b2585-b1d5-41a5-9a8d-89a99d07cad5","system_id":"levelo_inurba_marseille","lat":43.2481,"lon":5.37457,"is_reserved":false,"is_disabled":false,"rental_uris":{"android":"levelo://app?vid=b66b2585-b1d5-41a5-9a8d-89a99d07cad5","ios":"levelo://app?vid=b66b2585-b1d5-41a5-9a8d-89a99d07cad5"},"vehicle_type_id":"4","last_reported":1751545311,"current_range_meters":19600,"station_id":"ce4bhgh2rcd13ifvqfb0","pricing_plan_id":"cebpf4jnsgd1na2vs0mg"},{"bike_id":"08e81811-c9ab-430d-a98b-a4424b37dd49","system_id":"levelo_inurba_marseille","lat":43.29548,"lon":5.42315,"is_reserved":false,"is_disabled":false,"rental_uris":{"android":"levelo://app?vid=08e81811-c9ab-430d-a98b-a4424b37dd49","ios":"levelo://app?vid=08e81811-c9ab-430d-a98b-a4424b37dd49"},"vehicle_type_id":"4","last_reported":1751545311,"current_range_meters":19600,"station_id":"ce4bhph2rcd13ifvqhdg","pricing_plan_id":"cebpf4jnsgd1na2vs0mg"},{"bike_id":"90ccc6e8-7cf3-4f38-b381-08ebc63637bc","system_id":"levelo_inurba_marseille","lat":43.22521,"lon":5.34783,"is_reserved":false,"is_disabled":false,"rental_uris":{"android":"levelo://app?vid=90ccc6e8-7cf3-4f38-b381-08ebc63637bc","ios":"levelo://app?vid=90ccc6e8-7cf3-4f38-b381-08ebc63637bc"},"vehicle_type_id":"4","last_reported":1751545311,"current_range_meters":19600,"station_id":"st_cvj5dfep6f1abm77gieg","pricing_plan_id":"cebpf4jnsgd1na2vs0mg"},{"bike_id":"3eabe1e2-f9f5-41cb-a4ed-73ca7f909c5c","system_id":"levelo_inurba_marseille","lat":43.21188,"lon":5.35072,"is_reserved":false,"is_disabled":false,"rental_uris":{"android":"levelo://app?vid=3eabe1e2-f9f5-41cb-a4ed-73ca7f909c5c","ios":"levelo://app?vid=3eabe1e2-f9f5-41cb-a4ed-73ca7f909c5c"},"vehicle_type_id":"4","last_reported":1751545311,"current_range_meters":19600,"station_id":"st_cvj6sg6p6f1abm77japg","pricing_plan_id":"cebpf4jnsgd1na2vs0mg"},{"bike_id":"7712491c-e18b-4b09-bb79-30880b357c07","system_id":"levelo_inurba_marseille","lat":43.21195,"lon":5.3507,"is_reserved":false,"is_disabled":false,"rental_uris":{"android":"levelo://app?vid=7712491c-e18b-4b09-bb79-30880b357c07","ios":"levelo://app?vid=7712491c-e18b-4b09-bb79-30880b357c07"},"vehicle_type_id":"4","last_reported":1751545311,"current_range_meters":19600,"station_id":"st_cvj6sg6p6f1abm77japg","pricing_plan_id":"cebpf4jnsgd1na2vs0mg"},{"bike_id":"39fa5f31-4afa-4271-a36e-400e3970d6f0","system_id":"levelo_inurba_marseille","lat":43.303748,"lon":5.375922,"is_reserved":false,"is_disabled":false,"rental_uris":{"android":"levelo://app?vid=39fa5f31-4afa-4271-a36e-400e3970d6f0","ios":"levelo://app?vid=39fa5f31-4afa-4271-a36e-400e3970d6f0"},"vehicle_type_id":"4","last_reported":1751545311,"current_range_meters":20000,"station_id":"","pricing_plan_id":"cebpf4jnsgd1na2vs0mg"},{"bike_id":"63acad33-6ce0-4879-bb8b-7b4910bd10f3","system_id":"levelo_inurba_marseille","lat":43.24724,"lon":5.41176,"is_reserved":false,"is_disabled":false,"rental_uris":{"android":"levelo://app?vid=63acad33-6ce0-4879-bb8b-7b4910bd10f3","ios":"levelo://app?vid=63acad33-6ce0-4879-bb8b-7b4910bd10f3"},"vehicle_type_id":"4","last_reported":1751545311,"current_range_meters":20000,"station_id":"","pricing_plan_id":"cebpf4jnsgd1na2vs0mg"},{"bike_id":"373481de-d5f8-40eb-99da-7eed8497010c","system_id":"levelo_inurba_marseille","lat":43.31519,"lon":5.37285,"is_reserved":false,"is_disabled":false,"rental_uris":{"android":"levelo://app?vid=373481de-d5f8-40eb-99da-7eed8497010c","ios":"levelo://app?vid=373481de-d5f8-40eb-99da-7eed8497010c"},"vehicle_type_id":"4","last_reported":1751545311,"current_range_meters":20000,"station_id":"ce4bgt12rcd13ifvqcd0","pricing_plan_id":"cebpf4jnsgd1na2vs0mg"},