{"last_updated":1767370448,"ttl":60,"version":"2.2","data":{"bikes":[{"bike_id":"2b10c106-0ba3-44ab-ae92-439bc093d13c","system_id":"levelo_inurba_marseille","lat":43.28617,"lon":5.35106,"is_reserved":false,"is_disabled":false,"rental_uris":{"android":"levelo://app?vid=2b10c106-0ba3-44ab-ae92-439bc093d13c","ios":"levelo://app?vid=2b10c106-0ba3-44ab-ae92-439bc093d13c"},"vehicle_type_id":"4","last_reported":1767370449,"current_range_meters":2800,"station_id":"ce4bhch2rcd13ifvqeug","pricing_plan_id":"cebpf4jnsgd1na2vs0mg"},{"bike_id":"c4e0cf5e-2998-4b98-ace6-4071a76bb0c4","system_id":"levelo_inurba_marseille","lat":43.25518,"lon":5.37655,"is_reserved":false,"is_disabled":false,"rental_uris":{"android":"levelo://app?vid=c4e0cf5e-2998-4b98-ace6-4071a76bb0c4","ios":"levelo://app?vid=c4e0cf5e-2998-4b98-ace6-4071a76bb0c4"},"vehicle_type_id":"4","last_reported":1767370449,"current_range_meters":2800,"station_id":"ce4bhh12rcd13ifvqff0","pricing_plan_id":"cebpf4jnsgd1na2vs0mg"},{"bike_id":"2fb0a101-9719-40a8-8232-686bfb0d02c0","system_id":"levelo_inurba_marseille","lat":43.25001,"lon":5.38924,"is_reserved":false,"is_disabled":false,"rental_uris":{"android":"levelo://app?vid=2fb0a101-9719-40a8-8232-686bfb0d02c0","ios":"levelo://app?vid=2fb0a101-9719-40a8-8232-686bfb0d02c0"},"vehicle_type_id":"4","last_reported":1767370449,"current_range_meters":2800,"station_id":"ce4bhgp2rcd13ifvqfd0","pricing_plan_id":"cebpf4jnsgd1na2vs0mg"},{"bike_id":"07a5e735-db09-4a81-8d0b-e162b54a3cdb","system_id":"levelo_inurba_marseille","lat":43.22933,"lon":5.35379,"is_reserved":false,"is_disabled":false,"rental_uris":{"android":"levelo://app?vid=07a5e735-db09-4a81-8d0b-e162b54a3cdb","ios":"levelo://app?vid=07a5e735-db09-4a81-8d0b-e162b54a3cdb"},"vehicle_type_id":"4","last_reported":1767370449,"current_range_meters":2800,"station_id":"cpo3532slgdg3j2ikp40","pricing_plan_id":"cebpf4jnsgd1na2vs0mg"},{"bike_id":"e81f6402-b575-44f8-9405-25f53ea6d92c","system_id":"levelo_inurba_marseille","lat":43.2959,"lon":5.37505,"is_reserved":false,"is_disabled":false,"rental_uris":{"android":"levelo://app?vid=e81f6402-b575-44f8-9405-25f53ea6d92c","ios":"levelo://app?vid=e81f6402-b575-44f8-9405-25f53ea6d92c"},"vehicle_type_id":"4","last_reported":1767370449,"current_range_meters":2800,"station_id":"ce4bgh92rcd13ifvqb50","pricing_plan_id":"cebpf4jnsgd1na2vs0mg"},{"bike_id":"219cbb77-f82a-4ece-9e29-722acfa24d47","system_id":"levelo_inurba_marseille","lat":43.296044,"lon":5.380866,"is_reserved":false,"is_disabled":false,"rental_uris":{"android":"levelo://app?vid=219cbb77-f82a-4ece-9e29-722acfa24d47","ios":"levelo://app?vid=219cbb77-f82a-4ece-9e29-722acfa24d47"},"vehicle_type_id":"4","last_reported":1767370449,"current_range_meters":2800,"station_id":"ce4bgl12rcd13ifvqbo0","pricing_plan_id":"cebpf4jnsgd1na2vs0mg"},{"bike_id":"f9e9fd89-b7c6-4e84-90bb-2a2dc045365a","system_id":"levelo_inurba_marseille","lat":43.25917,"lon":5.40913,"is_reserved":false,"is_disabled":false,"rental_uris":{"android":"levelo://app?vid=f9e9fd89-b7c6-4e84-90bb-2a2dc045365a","ios":"levelo://app?vid=f9e9fd89-b7c6-4e84-90bb-2a2dc045365a"},"vehicle_type_id":"4","last_reported":1767370449,"current_range_meters":2800,"station_id":"ce4bhm92rcd13ifvqglg","pricing_plan_id":"cebpf4jnsgd1na2vs0mg"},{"bike_id":"a89fcd65-3d18-45df-add8-bd4009ee6f38","system_id":"levelo_inurba_marseille","lat":43.2737,"lon":5.36263,"is_reserved":false,"is_disabled":false,"rental_uris":{"android":"levelo://app?vid=a89fcd65-3d18-45df-add8-bd4009ee6f38","ios":"levelo://app?vid=a89fcd65-3d18-45df-add8-bd4009ee6f38"},"vehicle_type_id":"4","last_reported":1767370449,"current_range_meters":3200,"station_id":"ce4bhbh2rcd13ifvqeo0","pricing_plan_id":"cebpf4jnsgd1na2vs0mg"},{"bike_id":"9e8ce63b-7fdb-459c-9880-aedf818d47ff","system_id":"levelo_inurba_marseille","lat":43.273731,"lon":5.36263,"is_reserved":false,"is_disabled":false,"rental_uris":{"android":"levelo://app?vid=9e8ce63b-7fdb-459c-9880-aedf818d47ff","ios":"levelo://app?vid=9e8ce63b-7fdb-459c-9880-aedf818d47ff"},"vehicle_type_id":"4","last_reported":1767370449,"current_range_meters":3200,"station_id":"ce4bhbh2rcd13ifvqeo0","pricing_plan_id":"cebpf4jnsgd1na2vs0mg"},{"bike_id":"b5f80a1c-7345-44ae-9c2d-843287ace1f8","system_id":"levelo_inurba_marseille","lat":43.27425,"lon":5.42412,"is_reserved":false,"is_disabled":false,"rental_uris":{"android":"levelo://app?vid=b5f80a1c-7345-44ae-9c2d-843287ace1f8","ios":"levelo://app?vid=b5f80a1c-7345-44ae-9c2d-843287ace1f8"},"vehicle_type_id":"4","last_reported":1767370449,"current_range_meters":3200,"station_id":"","pricing_plan_id":"cebpf4jnsgd1na2vs0mg"},{"bike_id":"9e5dafc7-f2da-4d0b-b668-e32cc043ceb4","system_id":"levelo_inurba_marseille","lat":43.28047,"lon":5.40073,"is_reserved":false,"is_disabled":false,"rental_uris":{"android":"levelo://app?vid=9e5dafc7-f2da-4d0b-b668-e32cc043ceb4","ios":"levelo://app?vid=9e5dafc7-f2da-4d0b-b668-e32cc043ceb4"},"vehicle_type_id":"4","last_reported":1767370449,"current_range_meters":3200,"station_id":"","pricing_plan_id":"cebpf4jnsgd1na2vs0mg"},{"bike_id":"dffa7cf9-e9fd-4981-8663-7037965a966a","system_id":"levelo_inurba_marseille","lat":43.30142,"lon":5.37421,"is_reserved":false,"is_disabled":false,"rental_uris":{"android":"levelo://app?vid=dffa7cf9-e9fd-4981-8663-7037965a966a","ios":"levelo://app?vid=dffa7cf9-e9fd-4981-8663-7037965a966a"},"vehicle_type_id":"4","last_reported":1767370449,"current_range_meters":3200,"station_id":"ce4bgs92rcd13ifvqcc0","pricing_plan_id":"cebpf4jnsgd1na2vs0mg"},{"bike_id":"c390236c-acef-418f-92eb-5b0c8f6edccb","system_id":"levelo_inurba_marseille","lat":43.303009,"lon":5.392091,"is_reserved":false,"is_disabled":false,"rental_uris":{"android":"levelo://app?vid=c390236c-acef-418f-92eb-5b0c8f6edccb","ios":"levelo://app?vid=c390236c-acef-418f-92eb-5b0c8f6edccb"},"vehicle_type_id":"4","last_reported":1767370449,"current_range_meters":3200,"station_id":"ce4bgkh2rcd13ifvqbk0","pricing_plan_id":"cebpf4jnsgd1na2vs0mg"},{"bike_id":"e7b5d588-14e0-4943-899b-363014e5834e","system_id":"levelo_inurba_marseille","lat":43.28464,"lon":5.35886,"is_reserved":false,"is_disabled":false,"rental_uris":{"android":"levelo://app?vid=e7b5d588-14e0-4943-899b-363014e5834e","ios":"levelo://app?vid=e7b5d588-14e0-4943-899b-363014e5834e"},"vehicle_type_id":"4","last_reported":1767370449,"current_range_meters":3200,"station_id":"ce4bhah2rcd13ifvqei0","pricing_plan_id":"cebpf4jnsgd1na2vs0mg"},{"bike_id":"3282aea1-9bed-44e6-a833-eea50b551ac8","system_id":"levelo_inurba_marseille","lat":43.26933,"lon":5.38914,"is_reserved":false,"is_disabled":false,"rental_uris":{"android":"levelo://app?vid=3282aea1-9bed-44e6-a833-eea50b551ac8","ios":"levelo://app?vid=3282aea1-9bed-44e6-a833-eea50b551ac8"},"vehicle_type_id":"4","last_reported":1767370449,"current_range_meters":3600,"station_id":"ce4bhhh2rcd13ifvqfl0","pricing_plan_id":"cebpf4jnsgd1na2vs0mg"},{"bike_id":"7f8bc2f4-3256-4176-a803-fa7e148de4c6","system_id":"levelo_inurba_marseille","lat":43.24369,"lon":5.40859,"is_reserved":false,"is_disabled":false,"rental_uris":{"android":"levelo://app?vid=7f8bc2f4-3256-4176-a803-fa7e148de4c6","ios":"levelo://app?vid=7f8bc2f4-3256-4176-a803-fa7e148de4c6"},"vehicle_type_id":"4","last_reported":1767370449,"current_range_meters":3600,"station_id":"","pricing_plan_id":"cebpf4jnsgd1na2vs0mg"},{"bike_id":"73fdd553-67fe-475b-bee1-8169e3a01b12","system_id":"levelo_inurba_marseille","lat":43.29524,"lon":5.39047,"is_reserved":false,"is_disabled":false,"rental_uris":{"android":"levelo://app?vid=73fdd553-67fe-475b-bee1-8169e3a01b12","ios":"levelo://app?vid=73fdd553-67fe-475b-bee1-8169e3a01b12"},"vehicle_type_id":"4","last_reported":1767370449,"current_range_meters":3600,"station_id":"ce4bh3p2rcd13ifvqdp0","pricing_plan_id":"cebpf4jnsgd1na2vs0mg"},{"bike_id":"b7b45069-db90-481b-990e-3ae29014917e","system_id":"levelo_inurba_marseille","lat":43.29608,"lon":5.38068,"is_reserved":false,"is_disabled":false,"rental_uris":{"android":"levelo://app?vid=b7b45069-db90-481b-990e-3ae29014917e","ios":"levelo://app?vid=b7b45069-db90-481b-990e-3ae29014917e"},"vehicle_type_id":"4","last_reported":1767370449,"current_range_meters":3600,"station_id":"ce4bgl12rcd13ifvqbo0","pricing_plan_id":"cebpf4jnsgd1na2vs0mg"},{"bike_id":"ca2a4141-2d11-4724-ae9a-5df9c6e34715","system_id":"levelo_inurba_marseille","lat":43.24661,"lon":5.38871,"is_reserved":false,"is_disabled":false,"rental_uris":{"android":"levelo://app?vid=ca2a4141-2d11-4724-ae9a-5df9c6e34715","ios":"levelo://app?vid=ca2a4141-2d11-4724-ae9a-5df9c6e34715"},"vehicle_type_id":"4","last_reported":1767370449,"current_range_meters":3600,"station_id":"ce4bhg12rcd13ifvqf60","pricing_plan_id":"cebpf4jnsgd1na2vs0mg"},{"bike_id":"84e86dfc-b61a-42c1-93b8-a112038f791b","system_id":"levelo_inurba_marseille","lat":43.28614,"lon":5.35108,"is_reserved":false,"is_disabled":false,"rental_uris":{"android":"levelo://app?vid=84e86dfc-b61a-42c1-93b8-a112038f791b","ios":"levelo://app?vid=84e86dfc-b61a-42c1-93b8-a112038f791b"},"vehicle_type_id":"4","last_reported":1767370449,"current_range_meters":3600,"station_id":"ce4bhch2rcd13ifvqeug","pricing_plan_id":"cebpf4jnsgd1na2vs0mg"},{"bike_id":"82b90609-e464-47ee-adc0-7b1896efb056","system_id":"levelo_inurba_marseille","lat":43.27328,"lon":5.39082,"is_reserved":false,"is_disabled":false,"rental_uris":{"android":"levelo://app?vid=82b90609-e464-47ee-adc0-7b1896efb056","ios":"levelo://app?vid=82b90609-e464-47ee-adc0-7b1896efb056"},"vehicle_type_id":"4","last_reported":1767370449,"current_range_meters":4000,"station_id":"ce4bhgp2rcd13ifvqfe0","pricing_plan_id":"cebpf4jnsgd1na2vs0mg"},{"bike_id":"8c7a3d60-d133-4cd3-afe2-f2b48fc5aca8","system_id":"levelo_inurba_marseille","lat":43.3055,"lon":5.36558,"is_reserved":false,"is_disabled":false,"rental_uris":{"android":"levelo://app?vid=8c7a3d60-d133-4cd3-afe2-f2b48fc5aca8","ios":"levelo://app?vid=8c7a3d60-d133-4cd3-afe2-f2b48fc5aca8"},"vehicle_type_id":"4","last_reported":1767370449,"current_range_meters":4000,"station_id":"ce4bgs12rcd13ifvqcag","pricing_plan_id":"cebpf4jnsgd1na2vs0mg"},{"bike_id":"f8e67aac-476a-4040-b0b9-5c855833bda0","system_id":"levelo_inurba_marseille","lat":43.28475,"lon":5.38423,"is_reserved":false,"is_disabled":false,"rental_uris":{"android":"levelo://app?vid=f8e67aac-476a-4040-b0b9-5c855833bda0","ios":"levelo://app?vid=f8e67aac-476a-4040-b0b9-5c855833bda0"},"vehicle_type_id":"4","last_reported":1767370449,"current_range_meters":4000,"station_id":"ce4bh512rcd13ifvqe3g","pricing_plan_id":"cebpf4jnsgd1na2vs0mg"},{"bike_id":"3d2cd585-44d4-4d76-83f1-10d13c353d46","system_id":"levelo_inurba_marseille","lat":43.287192,"lon":5.373857,"is_reserved":false,"is_disabled":false,"rental_uris":{"android":"levelo://app?vid=3d2cd585-44d4-4d76-83f1-10d13c353d46","ios":"levelo://app?vid=3d2cd585-44d4-4d76-83f1-10d13c353d46"},"vehicle_type_id":"4","last_reported":1767370449,"current_range_meters":4000,"station_id":"ce4bh3p2rcd13ifvqdq0","pricing_plan_id":"cebpf4jnsgd1na2vs0mg"},{"bike_id":"e67560e1-1c89-430a-b807-5f5f527abb8b","system_id":"levelo_inurba_marseille","lat":43.28347,"lon":5.38108,"is_reserved":false,"is_disabled":false,"rental_uris":{"android":"levelo://app?vid=e67560e1-1c89-430a-b807-5f5f527abb8b","ios":"levelo://app?vid=e67560e1-1c89-430a-b807-5f5f527abb8b"},"vehicle_type_id":"4","last_reported":1767370449,"current_range_meters":4000,"station_id":"ce4bh412rcd13ifvqdr0","pricing_plan_id":"cebpf4jnsgd1na2vs0mg"},{"bike_id":"ea5031e4-b749-4d48-ba29-71e8d8d5383b","system_id":"levelo_inurba_marseille","lat":43.26402,"lon":5.37394,"is_reserved":false,"is_disabled":false,"rental_uris":{"android":"levelo://app?vid=ea5031e4-b749-4d48-ba29-71e8d8d5383b","ios":"levelo://app?vid=ea5031e4-b749-4d48-ba29-71e8d8d5383b"},"vehicle_type_id":"4","last_reported":1767370449,"current_range_meters":4000,"station_id":"","pricing_plan_id":"cebpf4jnsgd1na2vs0mg"},{"bike_id":"5c7b4edf-b831-4a38-8100-8520e77e0367","system_id":"levelo_inurba_marseille","lat":43.29214,"lon":5.36046,"is_reserved":false,"is_disabled":false,"rental_uris":{"android":"levelo://app?vid=5c7b4edf-b831-4a38-8100-8520e77e0367","ios":"levelo://app?vid=5c7b4edf-b831-4a38-8100-8520e77e0367"},"vehicle_type_id":"4","last_reported":1767370449,"current_range_meters":4000,"station_id":"ce4bhbh2rcd13ifvqeqg","pricing_plan_id":"cebpf4jnsgd1na2vs0mg"},{"bike_id":"71feabac-18bb-4c38-9f1c-553d18ed10d6","system_id":"levelo_inurba_marseille","lat":43.29603,"lon":5.37178,"is_reserved":false,"is_disabled":false,"rental_uris":{"android":"levelo://app?vid=71feabac-18bb-4c38-9f1c-553d18ed10d6","ios":"levelo://app?vid=71feabac-18bb-4c38-9f1c-553d18ed10d6"},"vehicle_type_id":"4","last_reported":1767370449,"current_range_meters":4000,"station_id":"ce4bgnh2rcd13ifvqc0g","pricing_plan_id":"cebpf4jnsgd1na2vs0mg"},{"bike_id":"2418b0ea-c658-45ec-b4c3-7a8e0d344da9","system_id":"levelo_inurba_marseille","lat":43.246227,"lon":5.388511,"is_reserved":false,"is_disabled":false,"rental_uris":{"android":"levelo://app?vid=2418b0ea-c658-45ec-b4c3-7a8e0d344da9","ios":"levelo://app?vid=2418b0ea-c658-45ec-b4c3-7a8e0d344da9"},"vehicle_type_id":"4","last_reported":1767370449,"current_range_meters":4000,"station_id":"ce4bhg12rcd13ifvqf60","pricing_plan_id":"cebpf4jnsgd1na2vs0mg"},{"bike_id":"86ca6bec-0539-40d2-b670-a55984caadf3","system_id":"levelo_inurba_marseille","lat":43.24942,"lon":5.40498,"is_reserved":false,"is_disabled":false,"rental_uris":{"android":"levelo://app?vid=86ca6bec-0539-40d2-b670-a55984caadf3","ios":"levelo://app?vid=86ca6bec-0539-40d2-b670-a55984caadf3"},"vehicle_type_id":"4","last_reported":1767370449,"current_range_meters":4000,"station_id":"st_d2ngiaodas8pm72gd1h0","pricing_plan_id":"cebpf4jnsgd1na2vs0mg"},{"bike_id":"7d9ec85b-a544-47e2-89ab-e6c018e69974","system_id":"levelo_inurba_marseille","lat":43.25492,"lon":5.3765,"is_reserved":false,"is_disabled":false,"rental_uris":{"android":"levelo://app?vid=7d9ec85b-a544-47e2-89ab-e6c018e69974","ios":"levelo://app?vid=7d9ec85b-a544-47e2-89ab-e6c018e69974"},"vehicle_type_id":"4","last_reported":1767370449,"current_range_meters":4000,"station_id":"ce4bhh12rcd13ifvqff0","pricing_plan_id":"cebpf4jnsgd1na2vs0mg"},{"bike_id":"9142e38e-6b2a-44f3-8a5f-88ca34b0ce83","system_id":"levelo_inurba_marseille","lat":43.27206,"lon":5.39174,"is_reserved":false,"is_disabled":false,"rental_uris":{"android":"levelo://app?vid=9142e38e-6b2a-44f3-8a5f-88ca34b0ce83","ios":"levelo://app?vid=9142e38e-6b2a-44f3-8a5f-88ca34b0ce83"},"vehicle_type_id":"4","last_reported":1767370449,"current_range_meters":4400,"station_id":"ce4bhhp2rcd13ifvqfm0","pricing_plan_id":"cebpf4jnsgd1na2vs0mg"},{"bike_id":"5fb6044e-9e86-4cd7-8369-9dae8661f801","system_id":"levelo_inurba_marseille","lat":43.26546,"lon":5.40354,"is_reserved":false,"is_disabled":false,"rental_uris":{"android":"levelo://app?vid=5fb6044e-9e86-4cd7-8369-9dae8661f801","ios":"levelo://app?vid=5fb6044e-9e86-4cd7-8369-9dae8661f801"},"vehicle_type_id":"4","last_reported":1767370449,"current_range_meters":4400,"station_id":"ce4bhmp2rcd13ifvqgng","pricing_plan_id":"cebpf4jnsgd1na2vs0mg"},{"bike_id":"407a371a-0ecc-4758-8bf6-77ff6af9ca19","system_id":"levelo_inurba_marseille","lat":43.30374,"lon":5.42486,"is_reserved":false,"is_disabled":false,"rental_uris":{"android":"levelo://app?vid=407a371a-0ecc-4758-8bf6-77ff6af9ca19","ios":"levelo://app?vid=407a371a-0ecc-4758-8bf6-77ff6af9ca19"},"vehicle_type_id":"4","last_reported":1767370449,"current_range_meters":4400,"station_id":"ce4bhoh2rcd13ifvqh6g","pricing_plan_id":"cebpf4jnsgd1na2vs0mg"},{"bike_id":"92840846-0c51-4b75-b1e9-a8352316ac69","system_id":"levelo_inurba_marseille","lat":43.2861,"lon":5.3706,"is_reserved":false,"is_disabled":false,"rental_uris":{"android":"levelo://app?vid=92840846-0c51-4b75-b1e9-a8352316ac69","ios":"levelo://app?vid=92840846-0c51-4b75-b1e9-a8352316ac69"},"vehicle_type_id":"4","last_reported":1767370449,"current_range_meters":4400,"station_id":"ce4bht12rcd13ifvqi60","pricing_plan_id":"cebpf4jnsgd1na2vs0mg"},{"bike_id":"ceb58d96-c532-471b-95a1-f601c9a06c14","system_id":"levelo_inurba_marseille","lat":43.299404,"lon":5.374216,"is_reserved":false,"is_disabled":false,"rental_uris":{"android":"levelo://app?vid=ceb58d96-c532-471b-95a1-f601c9a06c14","ios":"levelo://app?vid=ceb58d96-c532-471b-95a1-f601c9a06c14"},"vehicle_type_id":"4","last_reported":1767370449,"current_range_meters":4400,"station_id":"ce4bgqh2rcd13ifvqc4g","pricing_plan_id":"cebpf4jnsgd1na2vs0mg"},{"bike_id":"766050c6-34dd-4d38-ae16-f692e07ebb6a","system_id":"levelo_inurba_marseille","lat":43.292478,"lon":5.376154,"is_reserved":false,"is_disabled":false,"rental_uris":{"android":"levelo://app?vid=766050c6-34dd-4d38-ae16-f692e07ebb6a","ios":"levelo://app?vid=766050c6-34dd-4d38-ae16-f692e07ebb6a"},"vehicle_type_id":"4","last_reported":1767370449,"current_range_meters":4400,"station_id":"ce4bgi12rcd13ifvqb80","pricing_plan_id":"cebpf4jnsgd1na2vs0mg"},{"bike_id":"73b5a0c2-e22d-400d-8834-edc70d2db682","system_id":"levelo_inurba_marseille","lat":43.29599,"lon":5.38098,"is_reserved":false,"is_disabled":false,"rental_uris":{"android":"levelo://app?vid=73b5a0c2-e22d-400d-8834-edc70d2db682","ios":"levelo://app?vid=73b5a0c2-e22d-400d-8834-edc70d2db682"},"vehicle_type_id":"4","last_reported":1767370449,"current_range_meters":4400,"station_id":"ce4bgl12rcd13ifvqbo0","pricing_plan_id":"cebpf4jnsgd1na2vs0mg"},{"bike_id":"650cf425-f87e-4c30-9156-354d5fef94cd","system_id":"levelo_inurba_marseille","lat":43.30105,"lon":5.36748,"is_reserved":false,"is_disabled":false,"rental_uris":{"android":"levelo://app?vid=650cf425-f87e-4c30-9156-354d5fef94cd","ios":"levelo://app?vid=650cf425-f87e-4c30-9156-354d5fef94cd"},"vehicle_type_id":"4","last_reported":1767370449,"current_range_meters":4400,"station_id":"","pricing_plan_id":"cebpf4jnsgd1na2vs0mg"},{"bike_id":"02382ba1-c53a-4d54-ae09-ac85bbe6d34b","system_id":"levelo_inurba_marseille","lat":43.29306,"lon":5.375,"is_reserved":false,"is_disabled":false,"rental_uris":{"android":"levelo://app?vid=02382ba1-c53a-4d54-ae09-ac85bbe6d34b","ios":"levelo://app?vid=02382ba1-c53a-4d54-ae09-ac85bbe6d34b"},"vehicle_type_id":"4","last_reported":1767370449,"current_range_meters":4800,"station_id":"ce4bgi12rcd13ifvqb70","pricing_plan_id":"cebpf4jnsgd1na2vs0mg"},{"bike_id":"bab8f5ce-6ea3-45fd-aa21-29b68816a77a","system_id":"levelo_inurba_marseille","lat":43.265037,"lon":5.395467,"is_reserved":false,"is_disabled":false,"rental_uris":{"android":"levelo://app?vid=bab8f5ce-6ea3-45fd-aa21-29b68816a77a","ios":"levelo://app?vid=bab8f5ce-6ea3-45fd-aa21-29b68816a77a"},"vehicle_type_id":"4","last_reported":1767370449,"current_range_meters":4800,"station_id":"ce4bhi12rcd13ifvqfq0","pricing_plan_id":"cebpf4jnsgd1na2vs0mg"},{"bike_id":"85c0d9fd-9ae4-4d14-bbf5-3d50829a1b4d","system_id":"levelo_inurba_marseille","lat":43.29938,"lon":5.36511,"is_reserved":false,"is_disabled":false,"rental_uris":{"android":"levelo://app?vid=85c0d9fd-9ae4-4d14-bbf5-3d50829a1b4d","ios":"levelo://app?vid=85c0d9fd-9ae4-4d14-bbf5-3d50829a1b4d"},"vehicle_type_id":"4","last_reported":1767370449,"current_range_meters":4800,"station_id":"ce4bgm92rcd13ifvqbr0","pricing_plan_id":"cebpf4jnsgd1na2vs0mg"},{"bike_id":"15b96dda-056b-4d89-9867-a98c8574b4ae","system_id":"levelo_inurba_marseille","lat":43.272045,"lon":5.391825,"is_reserved":false,"is_disabled":false,"rental_uris":{"android":"levelo://app?vid=15b96dda-056b-4d89-9867-a98c8574b4ae","ios":"levelo://app?vid=15b96dda-056b-4d89-9867-a98c8574b4ae"},"vehicle_type_id":"4","last_reported":1767370449,"current_range_meters":4800,"station_id":"ce4bhhp2rcd13ifvqfm0","pricing_plan_id":"cebpf4jnsgd1na2vs0mg"},{"bike_id":"3ee08b2f-90b4-41d3-952a-950e65bcad22","system_id":"levelo_inurba_marseille","lat":43.29936,"lon":5.36525,"is_reserved":false,"is_disabled":false,"rental_uris":{"android":"levelo://app?vid=3ee08b2f-90b4-41d3-952a-950e65bcad22","ios":"levelo://app?vid=3ee08b2f-90b4-41d3-952a-950e65bcad22"},"vehicle_type_id":"4","last_reported":1767370449,"current_range_meters":4800,"station_id":"ce4bgm92rcd13ifvqbr0","pricing_plan_id":"cebpf4jnsgd1na2vs0mg"},{"bike_id":"c6c79b9f-6b16-4685-95fe-3b1708c3fc1e","system_id":"levelo_inurba_marseille","lat":43.28785,"lon":5.38858,"is_reserved":false,"is_disabled":false,"rental_uris":{"android":"levelo://app?vid=c6c79b9f-6b16-4685-95fe-3b1708c3fc1e","ios":"levelo://app?vid=c6c79b9f-6b16-4685-95fe-3b1708c3fc1e"},"vehicle_type_id":"4","last_reported":1767370449,"current_range_meters":4800,"station_id":"","pricing_plan_id":"cebpf4jnsgd1na2vs0mg"},{"bike_id":"8a486459-d965-4cd6-95e6-6e55e6cd0439","system_id":"levelo_inurba_marseille","lat":43.29382,"lon":5.37831,"is_reserved":false,"is_disabled":false,"rental_uris":{"android":"levelo://app?vid=8a486459-d965-4cd6-95e6-6e55e6cd0439","ios":"levelo://app?vid=8a486459-d965-4cd6-95e6-6e55e6cd0439"},"vehicle_type_id":"4","last_reported":1767370449,"current_range_meters":4800,"station_id":"ce4bgjh2rcd13ifvqbf0","pricing_plan_id":"cebpf4jnsgd1na2vs0mg"},{"bike_id":"5ece2ba8-71c3-4ca5-913f-e9207975660a","system_id":"levelo_inurba_marseille","lat":43.22936,"lon":5.35374,"is_reserved":false,"is_disabled":false,"rental_uris":{"android":"levelo://app?vid=5ece2ba8-71c3-4ca5-913f-e9207975660a","ios":"levelo://app?vid=5ece2ba8-71c3-4ca5-913f-e9207975660a"},"vehicle_type_id":"4","last_reported":1767370449,"current_range_meters":4800,"station_id":"cpo3532slgdg3j2ikp40","pricing_plan_id":"cebpf4jnsgd1na2vs0mg"},{"bike_id":"d49fd2c9-dca5-4864-87e0-359520dd27b8","system_id":"levelo_inurba_marseille","lat":43.26117,"lon":5.39767,"is_reserved":false,"is_disabled":false,"rental_uris":{"android":"levelo://app?vid=d49fd2c9-dca5-4864-87e0-359520dd27b8","ios":"levelo://app?vid=d49fd2c9-dca5-4864-87e0-359520dd27b8"},"vehicle_type_id":"4","last_reported":1767370449,"current_range_meters":4800,"station_id":"","pricing_plan_id":"cebpf4jnsgd1na2vs0mg"},{"bike_id":"2c1cdf0e-48d8-4e2b-a4b1-5e1348b33c4a","system_id":"levelo_inurba_marseille","lat":43.27068,"lon":5.42274,"is_reserved":false,"is_disabled":false,"rental_uris":{"android":"levelo://app?vid=2c1cdf0e-48d8-4e2b-a4b1-5e1348b33c4a","ios":"levelo://app?vid=2c1cdf0e-48d8-4e2b-a4b1-5e1348b33c4a"},"vehicle_type_id":"4","last_reported":1767370449,"current_range_meters":4800,"station_id":"ce4bhk92rcd13ifvqgb0","pricing_plan_id":"cebpf4jnsgd1na2vs0mg"},{"bike_id":"40ddd74c-1e22-4da5-8163-a8af2ddf3f65","system_id":"levelo_inurba_marseille","lat":43.26501,"lon":5.39535,"is_reserved":false,"is_disabled":false,"rental_uris":{"android":"levelo://app?vid=40ddd74c-1e22-4da5-8163-a8af2ddf3f65","ios":"levelo://app?vid=40ddd74c-1e22-4da5-8163-a8af2ddf3f65"},"vehicle_type_id":"4","last_reported":1767370449,"current_range_meters":4800,"station_id":"ce4bhi12rcd13ifvqfq0","pricing_plan_id":"cebpf4jnsgd1na2vs0mg"},{"bike_id":"f798afa8-8202-443e-b821-047c2f550a54","system_id":"levelo_inurba_marseille","lat":43.26032,"lon":5.37549,"is_reserved":false,"is_disabled":false,"rental_uris":{"android":"levelo://app?vid=f798afa8-8202-443e-b821-047c2f550a54","ios":"levelo://app?vid=f798afa8-8202-443e-b821-047c2f550a54"},"vehicle_type_id":"4","last_reported":1767370449,"current_range_meters":5600,"station_id":"ce4bhgh2rcd13ifvqfa0","pricing_plan_id":"cebpf4jnsgd1na2vs0mg"},{"bike_id":"62bbb4f8-cd37-4703-914d-4c2cbb4345e1","system_id":"levelo_inurba_marseille","lat":43.28066,"lon":5.39653,"is_reserved":false,"is_disabled":false,"rental_uris":{"android":"levelo://app?vid=62bbb4f8-cd37-4703-914d-4c2cbb4345e1","ios":"levelo://app?vid=62bbb4f8-cd37-4703-914d-4c2cbb4345e1"},"vehicle_type_id":"4","last_reported":1767370449,"current_range_meters":5600,"station_id":"ce4bho12rcd13ifvqh2g","pricing_plan_id":"cebpf4jnsgd1na2vs0mg"},{"bike_id":"e1bd9a54-ef5b-41c0-977d-301633065d5f","system_id":"levelo_inurba_marseille","lat":43.302085,"lon":5.394733,"is_reserved":false,"is_disabled":false,"rental_uris":{"android":"levelo://app?vid=e1bd9a54-ef5b-41c0-977d-301633065d5f","ios":"levelo://app?vid=e1bd9a54-ef5b-41c0-977d-301633065d5f"},"vehicle_type_id":"4","last_reported":1767370449,"current_range_meters":5600,"station_id":"ce4bh0p2rcd13ifvqd70","pricing_plan_id":"cebpf4jnsgd1na2vs0mg"},{"bike_id":"a37546a5-5ed0-437a-8b08-467eedf47722","system_id":"levelo_inurba_marseille","lat":43.24546,"lon":5.39527,"is_reserved":false,"is_disabled":false,"rental_uris":{"android":"levelo://app?vid=a37546a5-5ed0-437a-8b08-467eedf47722","ios":"levelo://app?vid=a37546a5-5ed0-437a-8b08-467eedf47722"},"vehicle_type_id":"4","last_reported":1767370449,"current_range_meters":5600,"station_id":"ce4bhlp2rcd13ifvqgjg","pricing_plan_id":"cebpf4jnsgd1na2vs0mg"},{"bike_id":"b6c2de47-37fa-44c1-ae2a-ab2b9c904820","system_id":"levelo_inurba_marseille","lat":43.28482,"lon":5.38435,"is_reserved":false,"is_disabled":false,"rental_uris":{"android":"levelo://app?vid=b6c2de47-37fa-44c1-ae2a-ab2b9c904820","ios":"levelo://app?vid=b6c2de47-37fa-44c1-ae2a-ab2b9c904820"},"vehicle_type_id":"4","last_reported":1767370449,"current_range_meters":5600,"station_id":"ce4bh512rcd13ifvqe3g","pricing_plan_id":"cebpf4jnsgd1na2vs0mg"},{"bike_id":"27eab711-3794-4c67-b72c-787e5b4b546b","system_id":"levelo_inurba_marseille","lat":43.25585,"lon":5.38223,"is_reserved":false,"is_disabled":false,"rental_uris":{"android":"levelo://app?vid=27eab711-3794-4c67-b72c-787e5b4b546b","ios":"levelo://app?vid=27eab711-3794-4c67-b72c-787e5b4b546b"},"vehicle_type_id":"4","last_reported":1767370449,"current_range_meters":5600,"station_id":"ce4bhih2rcd13ifvqfs0","pricing_plan_id":"cebpf4jnsgd1na2vs0mg"},{"bike_id":"2573c545-f2d4-4ad8-9d30-55ccbf225a22","system_id":"levelo_inurba_marseille","lat":43.269157,"lon":5.368153,"is_reserved":false,"is_disabled":false,"rental_uris":{"android":"levelo://app?vid=2573c545-f2d4-4ad8-9d30-55ccbf225a22","ios":"levelo://app?vid=2573c545-f2d4-4ad8-9d30-55ccbf225a22"},"vehicle_type_id":"4","last_reported":1767370449,"current_range_meters":5600,"station_id":"","pricing_plan_id":"cebpf4jnsgd1na2vs0mg"},{"bike_id":"65351ae6-366c-4ce8-b812-d431b0bfe234","system_id":"levelo_inurba_marseille","lat":43.29776,"lon":5.3935,"is_reserved":false,"is_disabled":false,"rental_uris":{"android":"levelo://app?vid=65351ae6-366c-4ce8-b812-d431b0bfe234","ios":"levelo://app?vid=65351ae6-366c-4ce8-b812-d431b0bfe234"},"vehicle_type_id":"4","last_reported":1767370449,"current_range_meters":5600,"station_id":"chh1huq6cuj3fo74tm60","pricing_plan_id":"cebpf4jnsgd1na2vs0mg"},{"bike_id":"dc6b79d5-2f64-4e1d-a805-f82768f8f2a3","system_id":"levelo_inurba_marseille","lat":43.29016,"lon":5.35609,"is_reserved":false,"is_disabled":false,"rental_uris":{"android":"levelo://app?vid=dc6b79d5-2f64-4e1d-a805-f82768f8f2a3","ios":"levelo://app?vid=dc6b79d5-2f64-4e1d-a805-f82768f8f2a3"},"vehicle_type_id":"4","last_reported":1767370449,"current_range_meters":5600,"station_id":"ce4bhb92rcd13ifvqen0","pricing_plan_id":"cebpf4jnsgd1na2vs0mg"},{"bike_id":"3fd00cb0-0645-4a8c-874a-2e0df62cb4f5","system_id":"levelo_inurba_marseille","lat":43.29725,"lon":5.38001,"is_reserved":false,"is_disabled":false,"rental_uris":{"android":"levelo://app?vid=3fd00cb0-0645-4a8c-874a-2e0df62cb4f5","ios":"levelo://app?vid=3fd00cb0-0645-4a8c-874a-2e0df62cb4f5"},"vehicle_type_id":"4","last_reported":1767370449,"current_range_meters":5600,"station_id":"","pricing_plan_id":"cebpf4jnsgd1na2vs0mg"},{"bike_id":"da51a696-5705-48cd-a174-f63e3c15d9de","system_id":"levelo_inurba_marseille","lat":43.28866,"lon":5.42522,"is_reserved":false,"is_disabled":false,"rental_uris":{"android":"levelo://app?vid=da51a696-5705-48cd-a174-f63e3c15d9de","ios":"levelo://app?vid=da51a696-5705-48cd-a174-f63e3c15d9de"},"vehicle_type_id":"4","last_reported":1767370449,"current_range_meters":5600,"station_id":"st_d3b462108ojc7389ooeg","pricing_plan_id":"cebpf4jnsgd1na2vs0mg"},{"bike_id":"bebec6bc-9df3-406e-90bc-396ce2b3b0b3","system_id":"levelo_inurba_marseille","lat":43.263773,"lon":5.374181,"is_reserved":false,"is_disabled":false,"rental_uris":{"android":"levelo://app?vid=bebec6bc-9df3-406e-90bc-396ce2b3b0b3","ios":"levelo://app?vid=bebec6bc-9df3-406e-90bc-396ce2b3b0b3"},"vehicle_type_id":"4","last_reported":1767370449,"current_range_meters":5600,"station_id":"","pricing_plan_id":"cebpf4jnsgd1na2vs0mg"},{"bike_id":"511ef639-6465-4a99-b234-834e209f6dd9","system_id":"levelo_inurba_marseille","lat":43.29012,"lon":5.35601,"is_reserved":false,"is_disabled":false,"rental_uris":{"android":"levelo://app?vid=511ef639-6465-4a99-b234-834e209f6dd9","ios":"levelo://app?vid=511ef639-6465-4a99-b234-834e209f6dd9"},"vehicle_type_id":"4","last_reported":1767370449,"current_range_meters":6000,"station_id":"ce4bhb92rcd13ifvqen0","pricing_plan_id":"cebpf4jnsgd1na2vs0mg"},{"bike_id":"8b1044c7-9903-454d-8bf7-ca846b48a9e1","system_id":"levelo_inurba_marseille","lat":43.29053,"lon":5.37151,"is_reserved":false,"is_disabled":false,"rental_uris":{"android":"levelo://app?vid=8b1044c7-9903-454d-8bf7-ca846b48a9e1","ios":"levelo://app?vid=8b1044c7-9903-454d-8bf7-ca846b48a9e1"},"vehicle_type_id":"4","last_reported":1767370449,"current_range_meters":6000,"station_id":"ce4bh5p2rcd13ifvqe4g","pricing_plan_id":"cebpf4jnsgd1na2vs0mg"},{"bike_id":"d4c6dc95-f402-4619-8161-a90cb01a834e","system_id":"levelo_inurba_marseille","lat":43.28866,"lon":5.425,"is_reserved":false,"is_disabled":false,"rental_uris":{"android":"levelo://app?vid=d4c6dc95-f402-4619-8161-a90cb01a834e","ios":"levelo://app?vid=d4c6dc95-f402-4619-8161-a90cb01a834e"},"vehicle_type_id":"4","last_reported":1767370449,"current_range_meters":6000,"station_id":"st_d3b462108ojc7389ooeg","pricing_plan_id":"cebpf4jnsgd1na2vs0mg"},{"bike_id":"23f75edf-7943-4b81-ac77-77fda7de91b4","system_id":"levelo_inurba_marseille","lat":43.253339,"lon":5.421865,"is_reserved":false,"is_disabled":false,"rental_uris":{"android":"levelo://app?vid=23f75edf-7943-4b81-ac77-77fda7de91b4","ios":"levelo://app?vid=23f75edf-7943-4b81-ac77-77fda7de91b4"},"vehicle_type_id":"4","last_reported":1767370449,"current_range_meters":6000,"station_id":"st_d2m65c5bi1j21697t3ng","pricing_plan_id":"cebpf4jnsgd1na2vs0mg"},{"bike_id":"50c49c36-164f-43ef-bcb0-c52d433fdcc7","system_id":"levelo_inurba_marseille","lat":43.31488,"lon":5.37273,"is_reserved":false,"is_disabled":false,"rental_uris":{"android":"levelo://app?vid=50c49c36-164f-43ef-bcb0-c52d433fdcc7","ios":"levelo://app?vid=50c49c36-164f-43ef-bcb0-c52d433fdcc7"},"vehicle_type_id":"4","last_reported":1767370449,"current_range_meters":6000,"station_id":"ce4bgt12rcd13ifvqcd0","pricing_plan_id":"cebpf4jnsgd1na2vs0mg"},{"bike_id":"08793bdf-bae6-4989-a3e8-8fa2dc512947","system_id":"levelo_inurba_marseille","lat":43.21184,"lon":5.35083,"is_reserved":false,"is_disabled":false,"rental_uris":{"android":"levelo://app?vid=08793bdf-bae6-4989-a3e8-8fa2dc512947","ios":"levelo://app?vid=08793bdf-bae6-4989-a3e8-8fa2dc512947"},"vehicle_type_id":"4","last_reported":1767370449,"current_range_meters":6000,"station_id":"st_cvj6sg6p6f1abm77japg","pricing_plan_id":"cebpf4jnsgd1na2vs0mg"},{"bike_id":"1bce67c1-88d1-4711-ba93-384413776ce3","system_id":"levelo_inurba_marseille","lat":43.29097,"lon":5.38144,"is_reserved":false,"is_disabled":false,"rental_uris":{"android":"levelo://app?vid=1bce67c1-88d1-4711-ba93-384413776ce3","ios":"levelo://app?vid=1bce67c1-88d1-4711-ba93-384413776ce3"},"vehicle_type_id":"4","last_reported":1767370449,"current_range_meters":6000,"station_id":"ce4bh512rcd13ifvqe2g","pricing_plan_id":"cebpf4jnsgd1na2vs0mg"},{"bike_id":"97f98150-306a-43dc-9630-af6f39beca05","system_id":"levelo_inurba_marseille","lat":43.30428,"lon":5.38891,"is_reserved":false,"is_disabled":false,"rental_uris":{"android":"levelo://app?vid=97f98150-306a-43dc-9630-af6f39beca05","ios":"levelo://app?vid=97f98150-306a-43dc-9630-af6f39beca05"},"vehicle_type_id":"4","last_reported":1767370449,"current_range_meters":6000,"station_id":"ce4bgk12rcd13ifvqbi0","pricing_plan_id":"cebpf4jnsgd1na2vs0mg"},{"bike_id":"ead7dd8d-77ea-4b67-b1fb-95ddc6c818a5","system_id":"levelo_inurba_marseille","lat":43.31407,"lon":5.38089,"is_reserved":false,"is_disabled":false,"rental_uris":{"android":"levelo://app?vid=ead7dd8d-77ea-4b67-b1fb-95ddc6c818a5","ios":"levelo://app?vid=ead7dd8d-77ea-4b67-b1fb-95ddc6c818a5"},"vehicle_type_id":"4","last_reported":1767370449,"current_range_meters":6000,"station_id":"","pricing_plan_id":"cebpf4jnsgd1na2vs0mg"},{"bike_id":"b3a5a229-667f-4d4f-93b0-a342ee918540","system_id":"levelo_inurba_marseille","lat":43.229361,"lon":5.353783,"is_reserved":false,"is_disabled":false,"rental_uris":{"android":"levelo://app?vid=b3a5a229-667f-4d4f-93b0-a342ee918540","ios":"levelo://app?vid=b3a5a229-667f-4d4f-93b0-a342ee918540"},"vehicle_type_id":"4","last_reported":1767370449,"current_range_meters":6000,"station_id":"st_cvj6r9ubvosntc0bgbag","pricing_plan_id":"cebpf4jnsgd1na2vs0mg"},{"bike_id":"b31512d9-98b1-48d8-b891-a7377d76c41d","system_id":"levelo_inurba_marseille","lat":43.29988,"lon":5.37179,"is_reserved":false,"is_disabled":false,"rental_uris":{"android":"levelo://app?vid=b31512d9-98b1-48d8-b891-a7377d76c41d","ios":"levelo://app?vid=b31512d9-98b1-48d8-b891-a7377d76c41d"},"vehicle_type_id":"4","last_reported":1767370449,"current_range_meters":6000,"station_id":"ce4bgr92rcd13ifvqc7g","pricing_plan_id":"cebpf4jnsgd1na2vs0mg"},{"bike_id":"406f64a0-da6e-49db-a7ac-d7a777f3175c","system_id":"levelo_inurba_marseille","lat":43.27331,"lon":5.39085,"is_reserved":false,"is_disabled":false,"rental_uris":{"android":"levelo://app?vid=406f64a0-da6e-49db-a7ac-d7a777f3175c","ios":"levelo://app?vid=406f64a0-da6e-49db-a7ac-d7a777f3175c"},"vehicle_type_id":"4","last_reported":1767370449,"current_range_meters":6000,"station_id":"ce4bhgp2rcd13ifvqfe0","pricing_plan_id":"cebpf4jnsgd1na2vs0mg"},{"bike_id":"eb29c3aa-f32a-40d5-9aee-e0083bcc217d","system_id":"levelo_inurba_marseille","lat":43.29007,"lon":5.35586,"is_reserved":false,"is_disabled":false,"rental_uris":{"android":"levelo://app?vid=eb29c3aa-f32a-40d5-9aee-e0083bcc217d","ios":"levelo://app?vid=eb29c3aa-f32a-40d5-9aee-e0083bcc217d"},"vehicle_type_id":"4","last_reported":1767370449,"current_range_meters":6000,"station_id":"ce4bhb92rcd13ifvqen0","pricing_plan_id":"cebpf4jnsgd1na2vs0mg"},{"bike_id":"19f1f730-3d97-4b0a-890a-678db9ec860e","system_id":"levelo_inurba_marseille","lat":43.30209,"lon":5.39475,"is_reserved":false,"is_disabled":false,"rental_uris":{"android":"levelo://app?vid=19f1f730-3d97-4b0a-890a-678db9ec860e","ios":"levelo://app?vid=19f1f730-3d97-4b0a-890a-678db9ec860e"},"vehicle_type_id":"4","last_reported":1767370449,"current_range_meters":6000,"station_id":"ce4bh0p2rcd13ifvqd70","pricing_plan_id":"cebpf4jnsgd1na2vs0mg"},{"bike_id":"ed71f64e-d9d9-4df7-b0ce-3894cdbc4111","system_id":"levelo_inurba_marseille","lat":43.29529,"lon":5.39039,"is_reserved":false,"is_disabled":false,"rental_uris":{"android":"levelo://app?vid=ed71f64e-d9d9-4df7-b0ce-3894cdbc4111","ios":"levelo://app?vid=ed71f64e-d9d9-4df7-b0ce-3894cdbc4111"},"vehicle_type_id":"4","last_reported":1767370449,"current_range_meters":6000,"station_id":"ce4bh3p2rcd13ifvqdp0","pricing_plan_id":"cebpf4jnsgd1na2vs0mg"},{"bike_id":"46c62c3d-ae93-4b6c-bc29-f99b9d71ce84","system_id":"levelo_inurba_marseille","lat":43.284623,"lon":5.358813,"is_reserved":false,"is_disabled":false,"rental_uris":{"android":"levelo://app?vid=46c62c3d-ae93-4b6c-bc29-f99b9d71ce84","ios":"levelo://app?vid=46c62c3d-ae93-4b6c-bc29-f99b9d71ce84"},"vehicle_type_id":"4","last_reported":1767370449,"current_range_meters":6000,"station_id":"ce4bhah2rcd13ifvqei0","pricing_plan_id":"cebpf4jnsgd1na2vs0mg"},{"bike_id":"16ee8b9c-b14b-4f54-b95e-4f4d21d0a1fa","system_id":"levelo_inurba_marseille","lat":43.290052,"lon":5.356163,"is_reserved":false,"is_disabled":false,"rental_uris":{"android":"levelo://app?vid=16ee8b9c-b14b-4f54-b95e-4f4d21d0a1fa","ios":"levelo://app?vid=16ee8b9c-b14b-4f54-b95e-4f4d21d0a1fa"},"vehicle_type_id":"4","last_reported":1767370449,"current_range_meters":6000,"station_id":"","pricing_plan_id":"cebpf4jnsgd1na2vs0mg"},{"bike_id":"432896d7-8846-4b2c-853b-3d0404cd1bb5","system_id":"levelo_inurba_marseille","lat":43.2678,"lon":5.3941,"is_reserved":false,"is_disabled":false,"rental_uris":{"android":"levelo://app?vid=432896d7-8846-4b2c-853b-3d0404cd1bb5","ios":"levelo://app?vid=432896d7-8846-4b2c-853b-3d0404cd1bb5"},"vehicle_type_id":"4","last_reported":1767370449,"current_range_meters":6000,"station_id":"ce4bhh12rcd13ifvqfg0","pricing_plan_id":"cebpf4jnsgd1na2vs0mg"},{"bike_id":"efd33062-2cef-445f-af98-648f578e9c2a","system_id":"levelo_inurba_marseille","lat":43.32646,"lon":5.41954,"is_reserved":false,"is_disabled":false,"rental_uris":{"android":"levelo://app?vid=efd33062-2cef-445f-af98-648f578e9c2a","ios":"levelo://app?vid=efd33062-2cef-445f-af98-648f578e9c2a"},"vehicle_type_id":"4","last_reported":1767370449,"current_range_meters":6400,"station_id":"","pricing_plan_id":"cebpf4jnsgd1na2vs0mg"},{"bike_id":"31074345-6b13-45ef-b79c-26566c89aa06","system_id":"levelo_inurba_marseille","lat":43.310578,"lon":5.371667,"is_reserved":false,"is_disabled":false,"rental_uris":{"android":"levelo://app?vid=31074345-6b13-45ef-b79c-26566c89aa06","ios":"levelo://app?vid=31074345-6b13-45ef-b79c-26566c89aa06"},"vehicle_type_id":"4","last_reported":1767370449,"current_range_meters":6400,"station_id":"st_d4kl2rp97mjs73e7tdfg","pricing_plan_id":"cebpf4jnsgd1na2vs0mg"},{"bike_id":"ae9b9bf1-6148-4597-b7ba-fc09cf9817ae","system_id":"levelo_inurba_marseille","lat":43.28863,"lon":5.35826,"is_reserved":false,"is_disabled":false,"rental_uris":{"android":"levelo://app?vid=ae9b9bf1-6148-4597-b7ba-fc09cf9817ae","ios":"levelo://app?vid=ae9b9bf1-6148-4597-b7ba-fc09cf9817ae"},"vehicle_type_id":"4","last_reported":1767370449,"current_range_meters":6400,"station_id":"ce4bhb12rcd13ifvqem0","pricing_plan_id":"cebpf4jnsgd1na2vs0mg"},{"bike_id":"54045760-2072-46e5-a5c4-00c3b9646aa6","system_id":"levelo_inurba_marseille","lat":43.29994,"lon":5.37162,"is_reserved":false,"is_disabled":false,"rental_uris":{"android":"levelo://app?vid=54045760-2072-46e5-a5c4-00c3b9646aa6","ios":"levelo://app?vid=54045760-2072-46e5-a5c4-00c3b9646aa6"},"vehicle_type_id":"4","last_reported":1767370449,"current_range_meters":6400,"station_id":"ce4bgr92rcd13ifvqc7g","pricing_plan_id":"cebpf4jnsgd1na2vs0mg"},{"bike_id":"2d0e5927-d8b7-48b0-aad5-b6fc4a24c9e8","system_id":"levelo_inurba_marseille","lat":43.24071,"lon":5.37757,"is_reserved":false,"is_disabled":false,"rental_uris":{"android":"levelo://app?vid=2d0e5927-d8b7-48b0-aad5-b6fc4a24c9e8","ios":"levelo://app?vid=2d0e5927-d8b7-48b0-aad5-b6fc4a24c9e8"},"vehicle_type_id":"4","last_reported":1767370449,"current_range_meters":6400,"station_id":"ce4bhnp2rcd13ifvqgvg","pricing_plan_id":"cebpf4jnsgd1na2vs0mg"},{"bike_id":"5d64b1d9-59fb-4d57-9b2b-5de60919d0d5","system_id":"levelo_inurba_marseille","lat":43.29217,"lon":5.37031,"is_reserved":false,"is_disabled":false,"rental_uris":{"android":"levelo://app?vid=5d64b1d9-59fb-4d57-9b2b-5de60919d0d5","ios":"levelo://app?vid=5d64b1d9-59fb-4d57-9b2b-5de60919d0d5"},"vehicle_type_id":"4","last_reported":1767370449,"current_range_meters":6400,"station_id":"","pricing_plan_id":"cebpf4jnsgd1na2vs0mg"},{"bike_id":"c3330169-5edc-4446-bb7b-e494d676626b","system_id":"levelo_inurba_marseille","lat":43.30212,"lon":5.39471,"is_reserved":false,"is_disabled":false,"rental_uris":{"android":"levelo://app?vid=c3330169-5edc-4446-bb7b-e494d676626b","ios":"levelo://app?vid=c3330169-5edc-4446-bb7b-e494d676626b"},"vehicle_type_id":"4","last_reported":1767370449,"current_range_meters":6400,"station_id":"ce4bh0p2rcd13ifvqd70","pricing_plan_id":"cebpf4jnsgd1na2vs0mg"},{"bike_id":"7ac98c64-2424-49b0-be1b-1d86a6975c42","system_id":"levelo_inurba_marseille","lat":43.29003,"lon":5.35591,"is_reserved":false,"is_disabled":false,"rental_uris":{"android":"levelo://app?vid=7ac98c64-2424-49b0-be1b-1d86a6975c42","ios":"levelo://app?vid=7ac98c64-2424-49b0-be1b-1d86a6975c42"},"vehicle_type_id":"4","last_reported":1767370449,"current_range_meters":6400,"station_id":"ce4bhb92rcd13ifvqen0","pricing_plan_id":"cebpf4jnsgd1na2vs0mg"},{"bike_id":"ab98afa8-4907-4b9f-b6c6-75e71a064cde","system_id":"levelo_inurba_marseille","lat":43.25733,"lon":5.41104,"is_reserved":false,"is_disabled":false,"rental_uris":{"android":"levelo://app?vid=ab98afa8-4907-4b9f-b6c6-75e71a064cde","ios":"levelo://app?vid=ab98afa8-4907-4b9f-b6c6-75e71a064cde"},"vehicle_type_id":"4","last_reported":1767370449,"current_range_meters":6400,"station_id":"ce4bhkp2rcd13ifvqgd0","pricing_plan_id":"cebpf4jnsgd1na2vs0mg"},{"bike_id":"6b34a822-c9f9-4f83-9b8b-49bde0d95675","system_id":"levelo_inurba_marseille","lat":43.2848,"lon":5.38414,"is_reserved":false,"is_disabled":false,"rental_uris":{"android":"levelo://app?vid=6b34a822-c9f9-4f83-9b8b-49bde0d95675","ios":"levelo://app?vid=6b34a822-c9f9-4f83-9b8b-49bde0d95675"},"vehicle_type_id":"4","last_reported":1767370449,"current_range_meters":6400,"station_id":"ce4bh512rcd13ifvqe3g","pricing_plan_id":"cebpf4jnsgd1na2vs0mg"},{"bike_id":"54472856-4e93-4a72-9035-a5ada99da0c0","system_id":"levelo_inurba_marseille","lat":43.31086,"lon":5.38343,"is_reserved":false,"is_disabled":false,"rental_uris":{"android":"levelo://app?vid=54472856-4e93-4a72-9035-a5ada99da0c0","ios":"levelo://app?vid=54472856-4e93-4a72-9035-a5ada99da0c0"},"vehicle_type_id":"4","last_reported":1767370449,"current_range_meters":6400,"station_id":"ce4bgv92rcd13ifvqcr0","pricing_plan_id":"cebpf4jnsgd1na2vs0mg"},{"bike_id":"7111ffcd-e35c-4931-9037-38e9fb585758","system_id":"levelo_inurba_marseille","lat":43.313579,"lon":5.36726,"is_reserved":false,"is_disabled":false,"rental_uris":{"android":"levelo://app?vid=7111ffcd-e35c-4931-9037-38e9fb585758","ios":"levelo://app?vid=7111ffcd-e35c-4931-9037-38e9fb585758"},"vehicle_type_id":"4","last_reported":1767370449,"current_range_meters":6400,"station_id":"ce4bgr92rcd13ifvqc6g","pricing_plan_id":"cebpf4jnsgd1na2vs0mg"},{"bike_id":"adee5904-d2f9-48c4-ad58-68d27b5bb40a","system_id":"levelo_inurba_marseille","lat":43.2927,"lon":5.37677,"is_reserved":false,"is_disabled":false,"rental_uris":{"android":"levelo://app?vid=adee5904-d2f9-48c4-ad58-68d27b5bb40a","ios":"levelo://app?vid=adee5904-d2f9-48c4-ad58-68d27b5bb40a"},"vehicle_type_id":"4","last_reported":1767370449,"current_range_meters":6400,"station_id":"ce4bgi12rcd13ifvqb80","pricing_plan_id":"cebpf4jnsgd1na2vs0mg"},{"bike_id":"7bfd1b38-ea1a-415f-88d4-c2dfec63fe1b","system_id":"levelo_inurba_marseille","lat":43.217504,"lon":5.346011,"is_reserved":false,"is_disabled":false,"rental_uris":{"android":"levelo://app?vid=7bfd1b38-ea1a-415f-88d4-c2dfec63fe1b","ios":"levelo://app?vid=7bfd1b38-ea1a-415f-88d4-c2dfec63fe1b"},"vehicle_type_id":"4","last_reported":1767370449,"current_range_meters":6400,"station_id":"","pricing_plan_id":"cebpf4jnsgd1na2vs0mg"},{"bike_id":"1498f079-e300-4265-837b-8da7d97aca06","system_id":"levelo_inurba_marseille","lat":43.24157,"lon":5.36404,"is_reserved":false,"is_disabled":false,"rental_uris":{"android":"levelo://app?vid=1498f079-e300-4265-837b-8da7d97aca06","ios":"levelo://app?vid=1498f079-e300-4265-837b-8da7d97aca06"},"vehicle_type_id":"4","last_reported":1767370449,"current_range_meters":6400,"station_id":"cpo36qri1sfpv3e86is0","pricing_plan_id":"cebpf4jnsgd1na2vs0mg"},{"bike_id":"d19172e9-4830-4cd2-ad8c-633f8c9fb7d7","system_id":"levelo_inurba_marseille","lat":43.27061,"lon":5.38306,"is_reserved":false,"is_disabled":false,"rental_uris":{"android":"levelo://app?vid=d19172e9-4830-4cd2-ad8c-633f8c9fb7d7","ios":"levelo://app?vid=d19172e9-4830-4cd2-ad8c-633f8c9fb7d7"},"vehicle_type_id":"4","last_reported":1767370449,"current_range_meters":6400,"station_id":"st_d3n2fo6cfp8s73cte1j0","pricing_plan_id":"cebpf4jnsgd1na2vs0mg"},{"bike_id":"e4e8e267-4d9a-4fdc-89b5-cfa26e68d494","system_id":"levelo_inurba_marseille","lat":43.24166,"lon":5.36393,"is_reserved":false,"is_disabled":false,"rental_uris":{"android":"levelo://app?vid=e4e8e267-4d9a-4fdc-89b5-cfa26e68d494","ios":"levelo://app?vid=e4e8e267-4d9a-4fdc-89b5-cfa26e68d494"},"vehicle_type_id":"4","last_reported":1767370449,"current_range_meters":6400,"station_id":"cpo36qri1sfpv3e86is0","pricing_plan_id":"cebpf4jnsgd1na2vs0mg"},{"bike_id":"71673f29-1dbb-4dc6-9280-1a5b5bc3d3a8","system_id":"levelo_inurba_marseille","lat":43.26933,"lon":5.38916,"is_reserved":false,"is_disabled":false,"rental_uris":{"android":"levelo://app?vid=71673f29-1dbb-4dc6-9280-1a5b5bc3d3a8","ios":"levelo://app?vid=71673f29-1dbb-4dc6-9280-1a5b5bc3d3a8"},"vehicle_type_id":"4","last_reported":1767370449,"current_range_meters":6400,"station_id":"ce4bhhh2rcd13ifvqfl0","pricing_plan_id":"cebpf4jnsgd1na2vs0mg"},{"bike_id":"961a4b80-6a80-41fc-af4e-cb7c655480a6","system_id":"levelo_inurba_marseille","lat":43.283019,"lon":5.397687,"is_reserved":false,"is_disabled":true,"rental_uris":{"android":"levelo://app?vid=961a4b80-6a80-41fc-af4e-cb7c655480a6","ios":"levelo://app?vid=961a4b80-6a80-41fc-af4e-cb7c655480a6"},"vehicle_type_id":"4","last_reported":1767370449,"current_range_meters":6400,"station_id":"","pricing_plan_id":"cebpf4jnsgd1na2vs0mg"},{"bike_id":"f3a4c2fd-c27a-4ca6-bbe5-3949d2a88808","system_id":"levelo_inurba_marseille","lat":43.28573,"lon":5.42993,"is_reserved":false,"is_disabled":false,"rental_uris":{"android":"levelo://app?vid=f3a4c2fd-c27a-4ca6-bbe5-3949d2a88808","ios":"levelo://app?vid=f3a4c2fd-c27a-4ca6-bbe5-3949d2a88808"},"vehicle_type_id":"4","last_reported":1767370449,"current_range_meters":6400,"station_id":"","pricing_plan_id":"cebpf4jnsgd1na2vs0mg"},{"bike_id":"c06c1a23-e527-45f2-b506-7898ce209f75","system_id":"levelo_inurba_marseille","lat":43.29567,"lon":5.37507,"is_reserved":false,"is_disabled":false,"rental_uris":{"android":"levelo://app?vid=c06c1a23-e527-45f2-b506-7898ce209f75","ios":"levelo://app?vid=c06c1a23-e527-45f2-b506-7898ce209f75"},"vehicle_type_id":"4","last_reported":1767370449,"current_range_meters":6400,"station_id":"ce4bgh92rcd13ifvqb50","pricing_plan_id":"cebpf4jnsgd1na2vs0mg"},{"bike_id":"255367c1-5e58-460f-9669-361663c23500","system_id":"levelo_inurba_marseille","lat":43.28035,"lon":5.36946,"is_reserved":false,"is_disabled":false,"rental_uris":{"android":"levelo://app?vid=255367c1-5e58-460f-9669-361663c23500","ios":"levelo://app?vid=255367c1-5e58-460f-9669-361663c23500"},"vehicle_type_id":"4","last_reported":1767370449,"current_range_meters":6400,"station_id":"ce4bha12rcd13ifvqef0","pricing_plan_id":"cebpf4jnsgd1na2vs0mg"},{"bike_id":"82531106-0439-4e0f-aada-cc7719a5d5e0","system_id":"levelo_inurba_marseille","lat":43.27946,"lon":5.41043,"is_reserved":false,"is_disabled":false,"rental_uris":{"android":"levelo://app?vid=82531106-0439-4e0f-aada-cc7719a5d5e0","ios":"levelo://app?vid=82531106-0439-4e0f-aada-cc7719a5d5e0"},"vehicle_type_id":"4","last_reported":1767370449,"current_range_meters":6400,"station_id":"ce4bhnp2rcd13ifvqh0g","pricing_plan_id":"cebpf4jnsgd1na2vs0mg"},{"bike_id":"0a19b1cd-aa15-4f60-b88c-b94b33edb22c","system_id":"levelo_inurba_marseille","lat":43.30135,"lon":5.3742,"is_reserved":false,"is_disabled":false,"rental_uris":{"android":"levelo://app?vid=0a19b1cd-aa15-4f60-b88c-b94b33edb22c","ios":"levelo://app?vid=0a19b1cd-aa15-4f60-b88c-b94b33edb22c"},"vehicle_type_id":"4","last_reported":1767370449,"current_range_meters":6400,"station_id":"ce4bgs92rcd13ifvqcc0","pricing_plan_id":"cebpf4jnsgd1na2vs0mg"},{"bike_id":"1e76a634-1236-4429-a6ca-562668962923","system_id":"levelo_inurba_marseille","lat":43.25219,"lon":5.39448,"is_reserved":false,"is_disabled":false,"rental_uris":{"android":"levelo://app?vid=1e76a634-1236-4429-a6ca-562668962923","ios":"levelo://app?vid=1e76a634-1236-4429-a6ca-562668962923"},"vehicle_type_id":"4","last_reported":1767370449,"current_range_meters":6800,"station_id":"","pricing_plan_id":"cebpf4jnsgd1na2vs0mg"},{"bike_id":"b7c65842-363d-43c4-92b2-529d07ea43d3","system_id":"levelo_inurba_marseille","lat":43.25847,"lon":5.39851,"is_reserved":false,"is_disabled":false,"rental_uris":{"android":"levelo://app?vid=b7c65842-363d-43c4-92b2-529d07ea43d3","ios":"levelo://app?vid=b7c65842-363d-43c4-92b2-529d07ea43d3"},"vehicle_type_id":"4","last_reported":1767370449,"current_range_meters":6800,"station_id":"","pricing_plan_id":"cebpf4jnsgd1na2vs0mg"},{"bike_id":"3b652abb-4144-4a5b-8035-ab28a7ba1f33","system_id":"levelo_inurba_marseille","lat":43.28132,"lon":5.42646,"is_reserved":false,"is_disabled":false,"rental_uris":{"android":"levelo://app?vid=3b652abb-4144-4a5b-8035-ab28a7ba1f33","ios":"levelo://app?vid=3b652abb-4144-4a5b-8035-ab28a7ba1f33"},"vehicle_type_id":"4","last_reported":1767370449,"current_range_meters":6800,"station_id":"ce4bhnh2rcd13ifvqgug","pricing_plan_id":"cebpf4jnsgd1na2vs0mg"},{"bike_id":"8717f7ae-8adf-4367-a4e7-f187aaa615e2","system_id":"levelo_inurba_marseille","lat":43.22534,"lon":5.3483,"is_reserved":false,"is_disabled":false,"rental_uris":{"android":"levelo://app?vid=8717f7ae-8adf-4367-a4e7-f187aaa615e2","ios":"levelo://app?vid=8717f7ae-8adf-4367-a4e7-f187aaa615e2"},"vehicle_type_id":"4","last_reported":1767370449,"current_range_meters":6800,"station_id":"","pricing_plan_id":"cebpf4jnsgd1na2vs0mg"},{"bike_id":"c96328dd-0bf3-4689-abd3-7be2c7f0275a","system_id":"levelo_inurba_marseille","lat":43.24963,"lon":5.40502,"is_reserved":false,"is_disabled":false,"rental_uris":{"android":"levelo://app?vid=c96328dd-0bf3-4689-abd3-7be2c7f0275a","ios":"levelo://app?vid=c96328dd-0bf3-4689-abd3-7be2c7f0275a"},"vehicle_type_id":"4","last_reported":1767370449,"current_range_meters":6800,"station_id":"st_d2ngiaodas8pm72gd1h0","pricing_plan_id":"cebpf4jnsgd1na2vs0mg"},{"bike_id":"6049a014-8dc3-46e9-ba2a-e2d3fbe7afc4","system_id":"levelo_inurba_marseille","lat":43.225338,"lon":5.348366,"is_reserved":false,"is_disabled":false,"rental_uris":{"android":"levelo://app?vid=6049a014-8dc3-46e9-ba2a-e2d3fbe7afc4","ios":"levelo://app?vid=6049a014-8dc3-46e9-ba2a-e2d3fbe7afc4"},"vehicle_type_id":"4","last_reported":1767370449,"current_range_meters":6800,"station_id":"","pricing_plan_id":"cebpf4jnsgd1na2vs0mg"},{"bike_id":"e0da2405-6606-4b04-a6ad-fabcf56b9c21","system_id":"levelo_inurba_marseille","lat":43.25325,"lon":5.42164,"is_reserved":false,"is_disabled":false,"rental_uris":{"android":"levelo://app?vid=e0da2405-6606-4b04-a6ad-fabcf56b9c21","ios":"levelo://app?vid=e0da2405-6606-4b04-a6ad-fabcf56b9c21"},"vehicle_type_id":"4","last_reported":1767370449,"current_range_meters":6800,"station_id":"st_d2m65c5bi1j21697t3ng","pricing_plan_id":"cebpf4jnsgd1na2vs0mg"},{"bike_id":"d8431e58-d3e8-4456-9570-729e3ebbcc73","system_id":"levelo_inurba_marseille","lat":43.30176,"lon":5.37262,"is_reserved":false,"is_disabled":false,"rental_uris":{"android":"levelo://app?vid=d8431e58-d3e8-4456-9570-729e3ebbcc73","ios":"levelo://app?vid=d8431e58-d3e8-4456-9570-729e3ebbcc73"},"vehicle_type_id":"4","last_reported":1767370449,"current_range_meters":6800,"station_id":"","pricing_plan_id":"cebpf4jnsgd1na2vs0mg"},{"bike_id":"650654d1-6b19-458f-97df-c0f29c65087f","system_id":"levelo_inurba_marseille","lat":43.26487,"lon":5.39526,"is_reserved":false,"is_disabled":false,"rental_uris":{"android":"levelo://app?vid=650654d1-6b19-458f-97df-c0f29c65087f","ios":"levelo://app?vid=650654d1-6b19-458f-97df-c0f29c65087f"},"vehicle_type_id":"4","last_reported":1767370449,"current_range_meters":6800,"station_id":"ce4bhi12rcd13ifvqfq0","pricing_plan_id":"cebpf4jnsgd1na2vs0mg"},{"bike_id":"b52b444c-f60e-49fe-9928-a25308196a7e","system_id":"levelo_inurba_marseille","lat":43.225325,"lon":5.348313,"is_reserved":false,"is_disabled":false,"rental_uris":{"android":"levelo://app?vid=b52b444c-f60e-49fe-9928-a25308196a7e","ios":"levelo://app?vid=b52b444c-f60e-49fe-9928-a25308196a7e"},"vehicle_type_id":"4","last_reported":1767370449,"current_range_meters":6800,"station_id":"","pricing_plan_id":"cebpf4jnsgd1na2vs0mg"},{"bike_id":"99070325-c1a2-425d-aa2c-f2976de310a9","system_id":"levelo_inurba_marseille","lat":43.32498,"lon":5.382786,"is_reserved":false,"is_disabled":false,"rental_uris":{"android":"levelo://app?vid=99070325-c1a2-425d-aa2c-f2976de310a9","ios":"levelo://app?vid=99070325-c1a2-425d-aa2c-f2976de310a9"},"vehicle_type_id":"4","last_reported":1767370449,"current_range_meters":6800,"station_id":"st_d4asgbiv49dc73anf9m0","pricing_plan_id":"cebpf4jnsgd1na2vs0mg"},{"bike_id":"770adec0-43e5-4e4d-997f-51d8dafd046a","system_id":"levelo_inurba_marseille","lat":43.27836,"lon":5.39196,"is_reserved":false,"is_disabled":false,"rental_uris":{"android":"levelo://app?vid=770adec0-43e5-4e4d-997f-51d8dafd046a","ios":"levelo://app?vid=770adec0-43e5-4e4d-997f-51d8dafd046a"},"vehicle_type_id":"4","last_reported":1767370449,"current_range_meters":6800,"station_id":"ce4bhjp2rcd13ifvqga0","pricing_plan_id":"cebpf4jnsgd1na2vs0mg"},{"bike_id":"ead1444d-eac1-417f-b268-ce9ed5abb843","system_id":"levelo_inurba_marseille","lat":43.29693,"lon":5.37301,"is_reserved":false,"is_disabled":false,"rental_uris":{"android":"levelo://app?vid=ead1444d-eac1-417f-b268-ce9ed5abb843","ios":"levelo://app?vid=ead1444d-eac1-417f-b268-ce9ed5abb843"},"vehicle_type_id":"4","last_reported":1767370449,"current_range_meters":6800,"station_id":"ce4bgk12rcd13ifvqbj0","pricing_plan_id":"cebpf4jnsgd1na2vs0mg"},{"bike_id":"31f75133-fd47-4dd6-9103-61481c11a6e3","system_id":"levelo_inurba_marseille","lat":43.286207,"lon":5.35105,"is_reserved":false,"is_disabled":false,"rental_uris":{"android":"levelo://app?vid=31f75133-fd47-4dd6-9103-61481c11a6e3","ios":"levelo://app?vid=31f75133-fd47-4dd6-9103-61481c11a6e3"},"vehicle_type_id":"4","last_reported":1767370449,"current_range_meters":6800,"station_id":"ce4bhch2rcd13ifvqeug","pricing_plan_id":"cebpf4jnsgd1na2vs0mg"},{"bike_id":"1f4701d5-d340-4df9-98f7-8c976bc059e9","system_id":"levelo_inurba_marseille","lat":43.28301,"lon":5.35041,"is_reserved":false,"is_disabled":false,"rental_uris":{"android":"levelo://app?vid=1f4701d5-d340-4df9-98f7-8c976bc059e9","ios":"levelo://app?vid=1f4701d5-d340-4df9-98f7-8c976bc059e9"},"vehicle_type_id":"4","last_reported":1767370449,"current_range_meters":6800,"station_id":"ce4bhbp2rcd13ifvqerg","pricing_plan_id":"cebpf4jnsgd1na2vs0mg"},{"bike_id":"8224caa3-15d0-456f-92e2-31899714d653","system_id":"levelo_inurba_marseille","lat":43.29932,"lon":5.36544,"is_reserved":false,"is_disabled":false,"rental_uris":{"android":"levelo://app?vid=8224caa3-15d0-456f-92e2-31899714d653","ios":"levelo://app?vid=8224caa3-15d0-456f-92e2-31899714d653"},"vehicle_type_id":"4","last_reported":1767370449,"current_range_meters":6800,"station_id":"ce4bgm92rcd13ifvqbr0","pricing_plan_id":"cebpf4jnsgd1na2vs0mg"},{"bike_id":"e0decbbd-66f2-41ff-95bf-ae2a7b2f4e23","system_id":"levelo_inurba_marseille","lat":43.28625,"lon":5.42624,"is_reserved":false,"is_disabled":false,"rental_uris":{"android":"levelo://app?vid=e0decbbd-66f2-41ff-95bf-ae2a7b2f4e23","ios":"levelo://app?vid=e0decbbd-66f2-41ff-95bf-ae2a7b2f4e23"},"vehicle_type_id":"4","last_reported":1767370449,"current_range_meters":6800,"station_id":"","pricing_plan_id":"cebpf4jnsgd1na2vs0mg"},{"bike_id":"fb6cd6e2-3592-4efa-9d02-0efa9e915419","system_id":"levelo_inurba_marseille","lat":43.28701,"lon":5.39982,"is_reserved":false,"is_disabled":false,"rental_uris":{"android":"levelo://app?vid=fb6cd6e2-3592-4efa-9d02-0efa9e915419","ios":"levelo://app?vid=fb6cd6e2-3592-4efa-9d02-0efa9e915419"},"vehicle_type_id":"4","last_reported":1767370449,"current_range_meters":6800,"station_id":"ce4bho92rcd13ifvqh3g","pricing_plan_id":"cebpf4jnsgd1na2vs0mg"},{"bike_id":"3ea63038-6c6b-45f0-b75e-c21acaf1cee5","system_id":"levelo_inurba_marseille","lat":43.27393,"lon":5.39352,"is_reserved":false,"is_disabled":false,"rental_uris":{"android":"levelo://app?vid=3ea63038-6c6b-45f0-b75e-c21acaf1cee5","ios":"levelo://app?vid=3ea63038-6c6b-45f0-b75e-c21acaf1cee5"},"vehicle_type_id":"4","last_reported":1767370449,"current_range_meters":6800,"station_id":"ce4bhdp2rcd13ifvqf20","pricing_plan_id":"cebpf4jnsgd1na2vs0mg"},{"bike_id":"9a253175-fef0-4c75-a8d8-bb357322efb0","system_id":"levelo_inurba_marseille","lat":43.2119,"lon":5.35068,"is_reserved":false,"is_disabled":false,"rental_uris":{"android":"levelo://app?vid=9a253175-fef0-4c75-a8d8-bb357322efb0","ios":"levelo://app?vid=9a253175-fef0-4c75-a8d8-bb357322efb0"},"vehicle_type_id":"4","last_reported":1767370449,"current_range_meters":6800,"station_id":"st_cvj6sg6p6f1abm77japg","pricing_plan_id":"cebpf4jnsgd1na2vs0mg"},{"bike_id":"52ec6e8c-6f96-45ed-b2b5-4de009c8e7b3","system_id":"levelo_inurba_marseille","lat":43.30245,"lon":5.40073,"is_reserved":false,"is_disabled":false,"rental_uris":{"android":"levelo://app?vid=52ec6e8c-6f96-45ed-b2b5-4de009c8e7b3","ios":"levelo://app?vid=52ec6e8c-6f96-45ed-b2b5-4de009c8e7b3"},"vehicle_type_id":"4","last_reported":1767370449,"current_range_meters":6800,"station_id":"ce4bgvh2rcd13ifvqcs0","pricing_plan_id":"cebpf4jnsgd1na2vs0mg"},{"bike_id":"8736bcfc-cda4-432f-9740-26b5e924cb37","system_id":"levelo_inurba_marseille","lat":43.279775,"lon":5.387423,"is_reserved":false,"is_disabled":false,"rental_uris":{"android":"levelo://app?vid=8736bcfc-cda4-432f-9740-26b5e924cb37","ios":"levelo://app?vid=8736bcfc-cda4-432f-9740-26b5e924cb37"},"vehicle_type_id":"4","last_reported":1767370449,"current_range_meters":6800,"station_id":"ce4bhg12rcd13ifvqf80","pricing_plan_id":"cebpf4jnsgd1na2vs0mg"},{"bike_id":"4e9b7826-9833-4a84-8916-93badf36f6d2","system_id":"levelo_inurba_marseille","lat":43.225351,"lon":5.348319,"is_reserved":false,"is_disabled":false,"rental_uris":{"android":"levelo://app?vid=4e9b7826-9833-4a84-8916-93badf36f6d2","ios":"levelo://app?vid=4e9b7826-9833-4a84-8916-93badf36f6d2"},"vehicle_type_id":"4","last_reported":1767370449,"current_range_meters":7200,"station_id":"","pricing_plan_id":"cebpf4jnsgd1na2vs0mg"},{"bike_id":"9cd60386-b05b-46f8-9f2d-306997d41220","system_id":"levelo_inurba_marseille","lat":43.25824,"lon":5.39444,"is_reserved":false,"is_disabled":true,"rental_uris":{"android":"levelo://app?vid=9cd60386-b05b-46f8-9f2d-306997d41220","ios":"levelo://app?vid=9cd60386-b05b-46f8-9f2d-306997d41220"},"vehicle_type_id":"4","last_reported":1767370449,"current_range_meters":7200,"station_id":"ce4bhip2rcd13ifvqft0","pricing_plan_id":"cebpf4jnsgd1na2vs0mg"},{"bike_id":"de9d8f55-29e3-42b0-946b-498c3787e02c","system_id":"levelo_inurba_marseille","lat":43.231488,"lon":5.437141,"is_reserved":false,"is_disabled":false,"rental_uris":{"android":"levelo://app?vid=de9d8f55-29e3-42b0-946b-498c3787e02c","ios":"levelo://app?vid=de9d8f55-29e3-42b0-946b-498c3787e02c"},"vehicle_type_id":"4","last_reported":1767370449,"current_range_meters":7200,"station_id":"ce4bhmp2rcd13ifvqgog","pricing_plan_id":"cebpf4jnsgd1na2vs0mg"},{"bike_id":"021e3b37-eded-4570-9563-b3c02625b5ec","system_id":"levelo_inurba_marseille","lat":43.27948,"lon":5.41044,"is_reserved":false,"is_disabled":true,"rental_uris":{"android":"levelo://app?vid=021e3b37-eded-4570-9563-b3c02625b5ec","ios":"levelo://app?vid=021e3b37-eded-4570-9563-b3c02625b5ec"},"vehicle_type_id":"4","last_reported":1767370449,"current_range_meters":7200,"station_id":"ce4bhnp2rcd13ifvqh0g","pricing_plan_id":"cebpf4jnsgd1na2vs0mg"},{"bike_id":"64fbb7a9-a10c-4a0c-bfab-54887a31c2f9","system_id":"levelo_inurba_marseille","lat":43.28627,"lon":5.35096,"is_reserved":false,"is_disabled":false,"rental_uris":{"android":"levelo://app?vid=64fbb7a9-a10c-4a0c-bfab-54887a31c2f9","ios":"levelo://app?vid=64fbb7a9-a10c-4a0c-bfab-54887a31c2f9"},"vehicle_type_id":"4","last_reported":1767370449,"current_range_meters":7200,"station_id":"ce4bhch2rcd13ifvqeug","pricing_plan_id":"cebpf4jnsgd1na2vs0mg"},{"bike_id":"f82d391f-fa54-4944-99a1-f43326016a14","system_id":"levelo_inurba_marseille","lat":43.31756,"lon":5.38983,"is_reserved":false,"is_disabled":false,"rental_uris":{"android":"levelo://app?vid=f82d391f-fa54-4944-99a1-f43326016a14","ios":"levelo://app?vid=f82d391f-fa54-4944-99a1-f43326016a14"},"vehicle_type_id":"4","last_reported":1767370449,"current_range_meters":7200,"station_id":"ce4bhqp2rcd13ifvqhng","pricing_plan_id":"cebpf4jnsgd1na2vs0mg"},{"bike_id":"dc9feb7e-742c-4c15-83bb-7db4fa4848d4","system_id":"levelo_inurba_marseille","lat":43.32047,"lon":5.37184,"is_reserved":false,"is_disabled":false,"rental_uris":{"android":"levelo://app?vid=dc9feb7e-742c-4c15-83bb-7db4fa4848d4","ios":"levelo://app?vid=dc9feb7e-742c-4c15-83bb-7db4fa4848d4"},"vehicle_type_id":"4","last_reported":1767370449,"current_range_meters":7200,"station_id":"","pricing_plan_id":"cebpf4jnsgd1na2vs0mg"},{"bike_id":"50a1ce80-e2ae-4637-b1b3-c5d653d75cd1","system_id":"levelo_inurba_marseille","lat":43.31878,"lon":5.39039,"is_reserved":false,"is_disabled":false,"rental_uris":{"android":"levelo://app?vid=50a1ce80-e2ae-4637-b1b3-c5d653d75cd1","ios":"levelo://app?vid=50a1ce80-e2ae-4637-b1b3-c5d653d75cd1"},"vehicle_type_id":"4","last_reported":1767370449,"current_range_meters":7200,"station_id":"","pricing_plan_id":"cebpf4jnsgd1na2vs0mg"},{"bike_id":"e3b77d85-1618-4819-bab0-004b7943fca6","system_id":"levelo_inurba_marseille","lat":43.24814,"lon":5.37456,"is_reserved":false,"is_disabled":false,"rental_uris":{"android":"levelo://app?vid=e3b77d85-1618-4819-bab0-004b7943fca6","ios":"levelo://app?vid=e3b77d85-1618-4819-bab0-004b7943fca6"},"vehicle_type_id":"4","last_reported":1767370449,"current_range_meters":7200,"station_id":"ce4bhgh2rcd13ifvqfb0","pricing_plan_id":"cebpf4jnsgd1na2vs0mg"},{"bike_id":"25f1743a-a2b2-454e-84ce-5c43f5ea30d3","system_id":"levelo_inurba_marseille","lat":43.29896,"lon":5.43667,"is_reserved":false,"is_disabled":false,"rental_uris":{"android":"levelo://app?vid=25f1743a-a2b2-454e-84ce-5c43f5ea30d3","ios":"levelo://app?vid=25f1743a-a2b2-454e-84ce-5c43f5ea30d3"},"vehicle_type_id":"4","last_reported":1767370449,"current_range_meters":7200,"station_id":"ce4bhpp2rcd13ifvqhfg","pricing_plan_id":"cebpf4jnsgd1na2vs0mg"},{"bike_id":"185e0c2e-84e6-4755-93a3-88817b0eaaae","system_id":"levelo_inurba_marseille","lat":43.23792,"lon":5.36615,"is_reserved":false,"is_disabled":false,"rental_uris":{"android":"levelo://app?vid=185e0c2e-84e6-4755-93a3-88817b0eaaae","ios":"levelo://app?vid=185e0c2e-84e6-4755-93a3-88817b0eaaae"},"vehicle_type_id":"4","last_reported":1767370449,"current_range_meters":7200,"station_id":"st_d3nk18o9ro0c73en2l3g","pricing_plan_id":"cebpf4jnsgd1na2vs0mg"},{"bike_id":"a5b3f4f3-9d27-48e4-b724-f3e303b3643b","system_id":"levelo_inurba_marseille","lat":43.28924,"lon":5.38391,"is_reserved":false,"is_disabled":false,"rental_uris":{"android":"levelo://app?vid=a5b3f4f3-9d27-48e4-b724-f3e303b3643b","ios":"levelo://app?vid=a5b3f4f3-9d27-48e4-b724-f3e303b3643b"},"vehicle_type_id":"4","last_reported":1767370449,"current_range_meters":7200,"station_id":"ce4bh612rcd13ifvqe6g","pricing_plan_id":"cebpf4jnsgd1na2vs0mg"},{"bike_id":"f89a7ab5-4f10-40db-80a7-7c57c53bb059","system_id":"levelo_inurba_marseille","lat":43.2672,"lon":5.40671,"is_reserved":false,"is_disabled":false,"rental_uris":{"android":"levelo://app?vid=f89a7ab5-4f10-40db-80a7-7c57c53bb059","ios":"levelo://app?vid=f89a7ab5-4f10-40db-80a7-7c57c53bb059"},"vehicle_type_id":"4","last_reported":1767370449,"current_range_meters":7200,"station_id":"","pricing_plan_id":"cebpf4jnsgd1na2vs0mg"},{"bike_id":"7503bc16-84c2-48b2-8f52-7b00750bf703","system_id":"levelo_inurba_marseille","lat":43.29514,"lon":5.39046,"is_reserved":false,"is_disabled":false,"rental_uris":{"android":"levelo://app?vid=7503bc16-84c2-48b2-8f52-7b00750bf703","ios":"levelo://app?vid=7503bc16-84c2-48b2-8f52-7b00750bf703"},"vehicle_type_id":"4","last_reported":1767370449,"current_range_meters":7200,"station_id":"ce4bh3p2rcd13ifvqdp0","pricing_plan_id":"cebpf4jnsgd1na2vs0mg"},{"bike_id":"4982929f-e9ea-44a7-92da-b076dc2891f7","system_id":"levelo_inurba_marseille","lat":43.25003,"lon":5.38934,"is_reserved":false,"is_disabled":false,"rental_uris":{"android":"levelo://app?vid=4982929f-e9ea-44a7-92da-b076dc2891f7","ios":"levelo://app?vid=4982929f-e9ea-44a7-92da-b076dc2891f7"},"vehicle_type_id":"4","last_reported":1767370449,"current_range_meters":7200,"station_id":"ce4bhgp2rcd13ifvqfd0","pricing_plan_id":"cebpf4jnsgd1na2vs0mg"},{"bike_id":"bb94a100-f837-44f2-8bba-d6723e5bebe1","system_id":"levelo_inurba_marseille","lat":43.27327,"lon":5.39073,"is_reserved":false,"is_disabled":false,"rental_uris":{"android":"levelo://app?vid=bb94a100-f837-44f2-8bba-d6723e5bebe1","ios":"levelo://app?vid=bb94a100-f837-44f2-8bba-d6723e5bebe1"},"vehicle_type_id":"4","last_reported":1767370449,"current_range_meters":7200,"station_id":"ce4bhgp2rcd13ifvqfe0","pricing_plan_id":"cebpf4jnsgd1na2vs0mg"},{"bike_id":"772124ba-5420-4e94-ba55-32ef5db59e17","system_id":"levelo_inurba_marseille","lat":43.28046,"lon":5.35341,"is_reserved":false,"is_disabled":false,"rental_uris":{"android":"levelo://app?vid=772124ba-5420-4e94-ba55-32ef5db59e17","ios":"levelo://app?vid=772124ba-5420-4e94-ba55-32ef5db59e17"},"vehicle_type_id":"4","last_reported":1767370449,"current_range_meters":7200,"station_id":"","pricing_plan_id":"cebpf4jnsgd1na2vs0mg"},{"bike_id":"64b03170-4b67-41c0-9ef2-78befa286265","system_id":"levelo_inurba_marseille","lat":43.27207,"lon":5.39179,"is_reserved":false,"is_disabled":false,"rental_uris":{"android":"levelo://app?vid=64b03170-4b67-41c0-9ef2-78befa286265","ios":"levelo://app?vid=64b03170-4b67-41c0-9ef2-78befa286265"},"vehicle_type_id":"4","last_reported":1767370449,"current_range_meters":7200,"station_id":"ce4bhhp2rcd13ifvqfm0","pricing_plan_id":"cebpf4jnsgd1na2vs0mg"},{"bike_id":"6f7586e7-4e12-4c38-ae28-1863a363c846","system_id":"levelo_inurba_marseille","lat":43.27965,"lon":5.38741,"is_reserved":false,"is_disabled":false,"rental_uris":{"android":"levelo://app?vid=6f7586e7-4e12-4c38-ae28-1863a363c846","ios":"levelo://app?vid=6f7586e7-4e12-4c38-ae28-1863a363c846"},"vehicle_type_id":"4","last_reported":1767370449,"current_range_meters":7200,"station_id":"ce4bhg12rcd13ifvqf80","pricing_plan_id":"cebpf4jnsgd1na2vs0mg"},{"bike_id":"3f2d9d1c-a9b3-4e56-9509-79491b51120a","system_id":"levelo_inurba_marseille","lat":43.23195,"lon":5.35549,"is_reserved":false,"is_disabled":false,"rental_uris":{"android":"levelo://app?vid=3f2d9d1c-a9b3-4e56-9509-79491b51120a","ios":"levelo://app?vid=3f2d9d1c-a9b3-4e56-9509-79491b51120a"},"vehicle_type_id":"4","last_reported":1767370449,"current_range_meters":7200,"station_id":"ce4bhu92rcd13ifvqi70","pricing_plan_id":"cebpf4jnsgd1na2vs0mg"},{"bike_id":"0136f340-2ac9-4a5b-8037-bacf705d6056","system_id":"levelo_inurba_marseille","lat":43.26054,"lon":5.39391,"is_reserved":false,"is_disabled":false,"rental_uris":{"android":"levelo://app?vid=0136f340-2ac9-4a5b-8037-bacf705d6056","ios":"levelo://app?vid=0136f340-2ac9-4a5b-8037-bacf705d6056"},"vehicle_type_id":"4","last_reported":1767370449,"current_range_meters":7200,"station_id":"ce4bhh92rcd13ifvqfj0","pricing_plan_id":"cebpf4jnsgd1na2vs0mg"},{"bike_id":"aa4c0c3c-20a8-4dcd-8254-3a59efbed1dc","system_id":"levelo_inurba_marseille","lat":43.28419,"lon":5.38469,"is_reserved":false,"is_disabled":false,"rental_uris":{"android":"levelo://app?vid=aa4c0c3c-20a8-4dcd-8254-3a59efbed1dc","ios":"levelo://app?vid=aa4c0c3c-20a8-4dcd-8254-3a59efbed1dc"},"vehicle_type_id":"4","last_reported":1767370449,"current_range_meters":8000,"station_id":"","pricing_plan_id":"cebpf4jnsgd1na2vs0mg"},{"bike_id":"b62193e6-744b-4181-8bcc-23d13e78d12b","system_id":"levelo_inurba_marseille","lat":43.26558,"lon":5.40318,"is_reserved":false,"is_disabled":false,"rental_uris":{"android":"levelo://app?vid=b62193e6-744b-4181-8bcc-23d13e78d12b","ios":"levelo://app?vid=b62193e6-744b-4181-8bcc-23d13e78d12b"},"vehicle_type_id":"4","last_reported":1767370449,"current_range_meters":8000,"station_id":"ce4bhmp2rcd13ifvqgng","pricing_plan_id":"cebpf4jnsgd1na2vs0mg"},{"bike_id":"2d42aa17-c3b7-4399-a80f-3190c91cb12e","system_id":"levelo_inurba_marseille","lat":43.29817,"lon":5.4406,"is_reserved":false,"is_disabled":false,"rental_uris":{"android":"levelo://app?vid=2d42aa17-c3b7-4399-a80f-3190c91cb12e","ios":"levelo://app?vid=2d42aa17-c3b7-4399-a80f-3190c91cb12e"},"vehicle_type_id":"4","last_reported":1767370449,"current_range_meters":8000,"station_id":"st_d3jp68qikq2c7381ktn0","pricing_plan_id":"cebpf4jnsgd1na2vs0mg"},{"bike_id":"2989d543-09b9-4cc7-9209-a8569842b8c1","system_id":"levelo_inurba_marseille","lat":43.217414,"lon":5.346086,"is_reserved":false,"is_disabled":false,"rental_uris":{"android":"levelo://app?vid=2989d543-09b9-4cc7-9209-a8569842b8c1","ios":"levelo://app?vid=2989d543-09b9-4cc7-9209-a8569842b8c1"},"vehicle_type_id":"4","last_reported":1767370449,"current_range_meters":8000,"station_id":"st_cvj6r9ubvosntc0bgbag","pricing_plan_id":"cebpf4jnsgd1na2vs0mg"},{"bike_id":"60a24bfa-71d1-4394-8423-89ffbc06474e","system_id":"levelo_inurba_marseille","lat":43.30294,"lon":5.37646,"is_reserved":false,"is_disabled":false,"rental_uris":{"android":"levelo://app?vid=60a24bfa-71d1-4394-8423-89ffbc06474e","ios":"levelo://app?vid=60a24bfa-71d1-4394-8423-89ffbc06474e"},"vehicle_type_id":"4","last_reported":1767370449,"current_range_meters":8000,"station_id":"","pricing_plan_id":"cebpf4jnsgd1na2vs0mg"},{"bike_id":"b6b7a146-8a76-4eb7-abd8-58e5d94b3994","system_id":"levelo_inurba_marseille","lat":43.2465,"lon":5.43149,"is_reserved":false,"is_disabled":false,"rental_uris":{"android":"levelo://app?vid=b6b7a146-8a76-4eb7-abd8-58e5d94b3994","ios":"levelo://app?vid=b6b7a146-8a76-4eb7-abd8-58e5d94b3994"},"vehicle_type_id":"4","last_reported":1767370449,"current_range_meters":8000,"station_id":"st_d2m6c4gdas8pm72e190g","pricing_plan_id":"cebpf4jnsgd1na2vs0mg"},{"bike_id":"22f63695-08a2-40ef-b111-47d67428bd54","system_id":"levelo_inurba_marseille","lat":43.27961,"lon":5.3871,"is_reserved":false,"is_disabled":false,"rental_uris":{"android":"levelo://app?vid=22f63695-08a2-40ef-b111-47d67428bd54","ios":"levelo://app?vid=22f63695-08a2-40ef-b111-47d67428bd54"},"vehicle_type_id":"4","last_reported":1767370449,"current_range_meters":8000,"station_id":"ce4bhg12rcd13ifvqf80","pricing_plan_id":"cebpf4jnsgd1na2vs0mg"},{"bike_id":"b6633023-7126-4061-b725-029707af05dd","system_id":"levelo_inurba_marseille","lat":43.28083,"lon":5.39657,"is_reserved":false,"is_disabled":false,"rental_uris":{"android":"levelo://app?vid=b6633023-7126-4061-b725-029707af05dd","ios":"levelo://app?vid=b6633023-7126-4061-b725-029707af05dd"},"vehicle_type_id":"4","last_reported":1767370449,"current_range_meters":8000,"station_id":"ce4bho12rcd13ifvqh2g","pricing_plan_id":"cebpf4jnsgd1na2vs0mg"},{"bike_id":"275fe993-82e9-414f-ad4d-1f5394ebb649","system_id":"levelo_inurba_marseille","lat":43.29516,"lon":5.37514,"is_reserved":false,"is_disabled":false,"rental_uris":{"android":"levelo://app?vid=275fe993-82e9-414f-ad4d-1f5394ebb649","ios":"levelo://app?vid=275fe993-82e9-414f-ad4d-1f5394ebb649"},"vehicle_type_id":"4","last_reported":1767370449,"current_range_meters":8000,"station_id":"ce4bgkp2rcd13ifvqbmg","pricing_plan_id":"cebpf4jnsgd1na2vs0mg"},{"bike_id":"8242c39d-e217-46ca-95aa-b68fdf12538a","system_id":"levelo_inurba_marseille","lat":43.29619,"lon":5.37729,"is_reserved":false,"is_disabled":false,"rental_uris":{"android":"levelo://app?vid=8242c39d-e217-46ca-95aa-b68fdf12538a","ios":"levelo://app?vid=8242c39d-e217-46ca-95aa-b68fdf12538a"},"vehicle_type_id":"4","last_reported":1767370449,"current_range_meters":8000,"station_id":"ce4bgi92rcd13ifvqb90","pricing_plan_id":"cebpf4jnsgd1na2vs0mg"},{"bike_id":"73452c6c-90c1-4672-b903-7b95325e7653","system_id":"levelo_inurba_marseille","lat":43.30421,"lon":5.41289,"is_reserved":false,"is_disabled":false,"rental_uris":{"android":"levelo://app?vid=73452c6c-90c1-4672-b903-7b95325e7653","ios":"levelo://app?vid=73452c6c-90c1-4672-b903-7b95325e7653"},"vehicle_type_id":"4","last_reported":1767370449,"current_range_meters":8000,"station_id":"ce4bhop2rcd13ifvqh8g","pricing_plan_id":"cebpf4jnsgd1na2vs0mg"},{"bike_id":"cce6f2ae-35e0-4e88-8846-018d5fd69a9b","system_id":"levelo_inurba_marseille","lat":43.29008,"lon":5.35613,"is_reserved":false,"is_disabled":false,"rental_uris":{"android":"levelo://app?vid=cce6f2ae-35e0-4e88-8846-018d5fd69a9b","ios":"levelo://app?vid=cce6f2ae-35e0-4e88-8846-018d5fd69a9b"},"vehicle_type_id":"4","last_reported":1767370449,"current_range_meters":8000,"station_id":"ce4bhb92rcd13ifvqen0","pricing_plan_id":"cebpf4jnsgd1na2vs0mg"},{"bike_id":"ba5733a6-8ff3-4669-a527-c03ed130461a","system_id":"levelo_inurba_marseille","lat":43.28413,"lon":5.34983,"is_reserved":false,"is_disabled":false,"rental_uris":{"android":"levelo://app?vid=ba5733a6-8ff3-4669-a527-c03ed130461a","ios":"levelo://app?vid=ba5733a6-8ff3-4669-a527-c03ed130461a"},"vehicle_type_id":"4","last_reported":1767370449,"current_range_meters":8000,"station_id":"ce4bhbh2rcd13ifvqepg","pricing_plan_id":"cebpf4jnsgd1na2vs0mg"},{"bike_id":"3ec44dab-28b8-4b5e-957d-d76f4fbaf546","system_id":"levelo_inurba_marseille","lat":43.29005,"lon":5.3561,"is_reserved":false,"is_disabled":false,"rental_uris":{"android":"levelo://app?vid=3ec44dab-28b8-4b5e-957d-d76f4fbaf546","ios":"levelo://app?vid=3ec44dab-28b8-4b5e-957d-d76f4fbaf546"},"vehicle_type_id":"4","last_reported":1767370449,"current_range_meters":8000,"station_id":"ce4bhb92rcd13ifvqen0","pricing_plan_id":"cebpf4jnsgd1na2vs0mg"},{"bike_id":"a025210a-5c73-4718-a422-960259065f2a","system_id":"levelo_inurba_marseille","lat":43.25487,"lon":5.37647,"is_reserved":false,"is_disabled":false,"rental_uris":{"android":"levelo://app?vid=a025210a-5c73-4718-a422-960259065f2a","ios":"levelo://app?vid=a025210a-5c73-4718-a422-960259065f2a"},"vehicle_type_id":"4","last_reported":1767370449,"current_range_meters":8000,"station_id":"ce4bhh12rcd13ifvqff0","pricing_plan_id":"cebpf4jnsgd1na2vs0mg"},{"bike_id":"55f9780f-9aa0-427c-a474-447abae3b483","system_id":"levelo_inurba_marseille","lat":43.24175,"lon":5.36384,"is_reserved":false,"is_disabled":false,"rental_uris":{"android":"levelo://app?vid=55f9780f-9aa0-427c-a474-447abae3b483","ios":"levelo://app?vid=55f9780f-9aa0-427c-a474-447abae3b483"},"vehicle_type_id":"4","last_reported":1767370449,"current_range_meters":8000,"station_id":"cpo36qri1sfpv3e86is0","pricing_plan_id":"cebpf4jnsgd1na2vs0mg"},{"bike_id":"28402ba4-545e-40bf-99ce-3a6d2cb26dc4","system_id":"levelo_inurba_marseille","lat":43.30583,"lon":5.37195,"is_reserved":false,"is_disabled":false,"rental_uris":{"android":"levelo://app?vid=28402ba4-545e-40bf-99ce-3a6d2cb26dc4","ios":"levelo://app?vid=28402ba4-545e-40bf-99ce-3a6d2cb26dc4"},"vehicle_type_id":"4","last_reported":1767370449,"current_range_meters":8000,"station_id":"ce4bgqh2rcd13ifvqc4g","pricing_plan_id":"cebpf4jnsgd1na2vs0mg"},{"bike_id":"1f3dd7a1-5535-4fc0-834e-8c50cf78bb81","system_id":"levelo_inurba_marseille","lat":43.29771,"lon":5.37604,"is_reserved":false,"is_disabled":false,"rental_uris":{"android":"levelo://app?vid=1f3dd7a1-5535-4fc0-834e-8c50cf78bb81","ios":"levelo://app?vid=1f3dd7a1-5535-4fc0-834e-8c50cf78bb81"},"vehicle_type_id":"4","last_reported":1767370449,"current_range_meters":8000,"station_id":"","pricing_plan_id":"cebpf4jnsgd1na2vs0mg"},{"bike_id":"91cb2a4e-20f3-491f-aaf3-92b41a5985d9","system_id":"levelo_inurba_marseille","lat":43.28479,"lon":5.38424,"is_reserved":false,"is_disabled":true,"rental_uris":{"android":"levelo://app?vid=91cb2a4e-20f3-491f-aaf3-92b41a5985d9","ios":"levelo://app?vid=91cb2a4e-20f3-491f-aaf3-92b41a5985d9"},"vehicle_type_id":"4","last_reported":1767370449,"current_range_meters":8000,"station_id":"ce4bh512rcd13ifvqe3g","pricing_plan_id":"cebpf4jnsgd1na2vs0mg"},{"bike_id":"a6b30b96-6422-4f6a-a539-620dc43a669f","system_id":"levelo_inurba_marseille","lat":43.28538,"lon":5.44109,"is_reserved":false,"is_disabled":false,"rental_uris":{"android":"levelo://app?vid=a6b30b96-6422-4f6a-a539-620dc43a669f","ios":"levelo://app?vid=a6b30b96-6422-4f6a-a539-620dc43a669f"},"vehicle_type_id":"4","last_reported":1767370449,"current_range_meters":8000,"station_id":"st_d3j3df2ikq2c7380ej80","pricing_plan_id":"cebpf4jnsgd1na2vs0mg"},{"bike_id":"4909bb4f-9fd5-4fad-8afd-1af16aa41955","system_id":"levelo_inurba_marseille","lat":43.27994,"lon":5.40009,"is_reserved":false,"is_disabled":false,"rental_uris":{"android":"levelo://app?vid=4909bb4f-9fd5-4fad-8afd-1af16aa41955","ios":"levelo://app?vid=4909bb4f-9fd5-4fad-8afd-1af16aa41955"},"vehicle_type_id":"4","last_reported":1767370449,"current_range_meters":8000,"station_id":"ce4bho92rcd13ifvqh4g","pricing_plan_id":"cebpf4jnsgd1na2vs0mg"},{"bike_id":"465c2aa7-1647-4624-b6ed-1f27d58d95fd","system_id":"levelo_inurba_marseille","lat":43.28545,"lon":5.44113,"is_reserved":false,"is_disabled":false,"rental_uris":{"android":"levelo://app?vid=465c2aa7-1647-4624-b6ed-1f27d58d95fd","ios":"levelo://app?vid=465c2aa7-1647-4624-b6ed-1f27d58d95fd"},"vehicle_type_id":"4","last_reported":1767370449,"current_range_meters":8000,"station_id":"st_d3j3df2ikq2c7380ej80","pricing_plan_id":"cebpf4jnsgd1na2vs0mg"},{"bike_id":"de1f1a2d-4043-44fb-8299-01c43f8f34a1","system_id":"levelo_inurba_marseille","lat":43.29297,"lon":5.37425,"is_reserved":false,"is_disabled":false,"rental_uris":{"android":"levelo://app?vid=de1f1a2d-4043-44fb-8299-01c43f8f34a1","ios":"levelo://app?vid=de1f1a2d-4043-44fb-8299-01c43f8f34a1"},"vehicle_type_id":"4","last_reported":1767370449,"current_range_meters":8000,"station_id":"ce4bgi12rcd13ifvqb70","pricing_plan_id":"cebpf4jnsgd1na2vs0mg"},{"bike_id":"cadc82e3-3c1e-4b3f-8452-04462e4f5cfd","system_id":"levelo_inurba_marseille","lat":43.23153,"lon":5.43692,"is_reserved":false,"is_disabled":false,"rental_uris":{"android":"levelo://app?vid=cadc82e3-3c1e-4b3f-8452-04462e4f5cfd","ios":"levelo://app?vid=cadc82e3-3c1e-4b3f-8452-04462e4f5cfd"},"vehicle_type_id":"4","last_reported":1767370449,"current_range_meters":8000,"station_id":"ce4bhmp2rcd13ifvqgog","pricing_plan_id":"cebpf4jnsgd1na2vs0mg"},{"bike_id":"42d77009-fa58-4df2-b896-ba647ada43e5","system_id":"levelo_inurba_marseille","lat":43.27907,"lon":5.40471,"is_reserved":false,"is_disabled":false,"rental_uris":{"android":"levelo://app?vid=42d77009-fa58-4df2-b896-ba647ada43e5","ios":"levelo://app?vid=42d77009-fa58-4df2-b896-ba647ada43e5"},"vehicle_type_id":"4","last_reported":1767370449,"current_range_meters":8000,"station_id":"","pricing_plan_id":"cebpf4jnsgd1na2vs0mg"},{"bike_id":"83e50346-c21e-466e-8922-aea3198152db","system_id":"levelo_inurba_marseille","lat":43.237838,"lon":5.366314,"is_reserved":false,"is_disabled":false,"rental_uris":{"android":"levelo://app?vid=83e50346-c21e-466e-8922-aea3198152db","ios":"levelo://app?vid=83e50346-c21e-466e-8922-aea3198152db"},"vehicle_type_id":"4","last_reported":1767370449,"current_range_meters":8000,"station_id":"st_d3nk18o9ro0c73en2l3g","pricing_plan_id":"cebpf4jnsgd1na2vs0mg"},{"bike_id":"81640354-1fdb-4e0c-8b2a-c31f90862a44","system_id":"levelo_inurba_marseille","lat":43.30504,"lon":5.39421,"is_reserved":false,"is_disabled":false,"rental_uris":{"android":"levelo://app?vid=81640354-1fdb-4e0c-8b2a-c31f90862a44","ios":"levelo://app?vid=81640354-1fdb-4e0c-8b2a-c31f90862a44"},"vehicle_type_id":"4","last_reported":1767370449,"current_range_meters":8000,"station_id":"","pricing_plan_id":"cebpf4jnsgd1na2vs0mg"},{"bike_id":"6dd8e8b5-7ce2-4a7a-9f76-de8624376801","system_id":"levelo_inurba_marseille","lat":43.248037,"lon":5.374553,"is_reserved":false,"is_disabled":false,"rental_uris":{"android":"levelo://app?vid=6dd8e8b5-7ce2-4a7a-9f76-de8624376801","ios":"levelo://app?vid=6dd8e8b5-7ce2-4a7a-9f76-de8624376801"},"vehicle_type_id":"4","last_reported":1767370449,"current_range_meters":8400,"station_id":"ce4bhgh2rcd13ifvqfb0","pricing_plan_id":"cebpf4jnsgd1na2vs0mg"},{"bike_id":"2b8bea13-f963-4af9-873f-0adbe68583d4","system_id":"levelo_inurba_marseille","lat":43.28859,"lon":5.42511,"is_reserved":false,"is_disabled":false,"rental_uris":{"android":"levelo://app?vid=2b8bea13-f963-4af9-873f-0adbe68583d4","ios":"levelo://app?vid=2b8bea13-f963-4af9-873f-0adbe68583d4"},"vehicle_type_id":"4","last_reported":1767370449,"current_range_meters":8400,"station_id":"st_d3b462108ojc7389ooeg","pricing_plan_id":"cebpf4jnsgd1na2vs0mg"},{"bike_id":"9feea015-e373-4e65-a8f2-66772efb3348","system_id":"levelo_inurba_marseille","lat":43.2475,"lon":5.37595,"is_reserved":false,"is_disabled":false,"rental_uris":{"android":"levelo://app?vid=9feea015-e373-4e65-a8f2-66772efb3348","ios":"levelo://app?vid=9feea015-e373-4e65-a8f2-66772efb3348"},"vehicle_type_id":"4","last_reported":1767370449,"current_range_meters":8400,"station_id":"","pricing_plan_id":"cebpf4jnsgd1na2vs0mg"},{"bike_id":"a69f5702-a727-4e11-b236-d1f7b2ff1174","system_id":"levelo_inurba_marseille","lat":43.308,"lon":5.43525,"is_reserved":false,"is_disabled":false,"rental_uris":{"android":"levelo://app?vid=a69f5702-a727-4e11-b236-d1f7b2ff1174","ios":"levelo://app?vid=a69f5702-a727-4e11-b236-d1f7b2ff1174"},"vehicle_type_id":"4","last_reported":1767370449,"current_range_meters":8400,"station_id":"","pricing_plan_id":"cebpf4jnsgd1na2vs0mg"},{"bike_id":"ac106ca6-d0a3-4dd3-9a3c-e70186cb307d","system_id":"levelo_inurba_marseille","lat":43.29263,"lon":5.38452,"is_reserved":false,"is_disabled":false,"rental_uris":{"android":"levelo://app?vid=ac106ca6-d0a3-4dd3-9a3c-e70186cb307d","ios":"levelo://app?vid=ac106ca6-d0a3-4dd3-9a3c-e70186cb307d"},"vehicle_type_id":"4","last_reported":1767370449,"current_range_meters":8400,"station_id":"ce4bh692rcd13ifvqea0","pricing_plan_id":"cebpf4jnsgd1na2vs0mg"},{"bike_id":"68760415-b79d-45e2-af26-b3bf92005dff","system_id":"levelo_inurba_marseille","lat":43.29298,"lon":5.374606,"is_reserved":false,"is_disabled":false,"rental_uris":{"android":"levelo://app?vid=68760415-b79d-45e2-af26-b3bf92005dff","ios":"levelo://app?vid=68760415-b79d-45e2-af26-b3bf92005dff"},"vehicle_type_id":"4","last_reported":1767370449,"current_range_meters":8400,"station_id":"ce4bgi12rcd13ifvqb70","pricing_plan_id":"cebpf4jnsgd1na2vs0mg"},{"bike_id":"85553c92-9046-40a5-910f-db06f5724d49","system_id":"levelo_inurba_marseille","lat":43.21187,"lon":5.35081,"is_reserved":false,"is_disabled":false,"rental_uris":{"android":"levelo://app?vid=85553c92-9046-40a5-910f-db06f5724d49","ios":"levelo://app?vid=85553c92-9046-40a5-910f-db06f5724d49"},"vehicle_type_id":"4","last_reported":1767370449,"current_range_meters":8400,"station_id":"st_cvj6sg6p6f1abm77japg","pricing_plan_id":"cebpf4jnsgd1na2vs0mg"},{"bike_id":"d17e6fe2-7a1e-4970-bf2f-cb8626ca5cf3","system_id":"levelo_inurba_marseille","lat":43.28618,"lon":5.35108,"is_reserved":false,"is_disabled":false,"rental_uris":{"android":"levelo://app?vid=d17e6fe2-7a1e-4970-bf2f-cb8626ca5cf3","ios":"levelo://app?vid=d17e6fe2-7a1e-4970-bf2f-cb8626ca5cf3"},"vehicle_type_id":"4","last_reported":1767370449,"current_range_meters":8400,"station_id":"ce4bhch2rcd13ifvqeug","pricing_plan_id":"cebpf4jnsgd1na2vs0mg"},{"bike_id":"a029077d-028b-496a-966a-48cf4c5b0bf6","system_id":"levelo_inurba_marseille","lat":43.28005,"lon":5.400138,"is_reserved":false,"is_disabled":false,"rental_uris":{"android":"levelo://app?vid=a029077d-028b-496a-966a-48cf4c5b0bf6","ios":"levelo://app?vid=a029077d-028b-496a-966a-48cf4c5b0bf6"},"vehicle_type_id":"4","last_reported":1767370449,"current_range_meters":8400,"station_id":"ce4bho92rcd13ifvqh4g","pricing_plan_id":"cebpf4jnsgd1na2vs0mg"},{"bike_id":"c7520a13-b022-4cba-860a-1d0a7964595c","system_id":"levelo_inurba_marseille","lat":43.23071,"lon":5.35491,"is_reserved":false,"is_disabled":false,"rental_uris":{"android":"levelo://app?vid=c7520a13-b022-4cba-860a-1d0a7964595c","ios":"levelo://app?vid=c7520a13-b022-4cba-860a-1d0a7964595c"},"vehicle_type_id":"4","last_reported":1767370449,"current_range_meters":8400,"station_id":"cpo3342slgdg3j2ifvpg","pricing_plan_id":"cebpf4jnsgd1na2vs0mg"},{"bike_id":"046f6f6d-1f73-42b5-99cc-1960f79b5648","system_id":"levelo_inurba_marseille","lat":43.296756,"lon":5.372986,"is_reserved":false,"is_disabled":false,"rental_uris":{"android":"levelo://app?vid=046f6f6d-1f73-42b5-99cc-1960f79b5648","ios":"levelo://app?vid=046f6f6d-1f73-42b5-99cc-1960f79b5648"},"vehicle_type_id":"4","last_reported":1767370449,"current_range_meters":8400,"station_id":"ce4bgk12rcd13ifvqbj0","pricing_plan_id":"cebpf4jnsgd1na2vs0mg"},{"bike_id":"4930b15a-3055-46ef-b4ff-4f39799a0b26","system_id":"levelo_inurba_marseille","lat":43.299397,"lon":5.365391,"is_reserved":false,"is_disabled":false,"rental_uris":{"android":"levelo://app?vid=4930b15a-3055-46ef-b4ff-4f39799a0b26","ios":"levelo://app?vid=4930b15a-3055-46ef-b4ff-4f39799a0b26"},"vehicle_type_id":"4","last_reported":1767370449,"current_range_meters":8400,"station_id":"ce4bgm92rcd13ifvqbr0","pricing_plan_id":"cebpf4jnsgd1na2vs0mg"},{"bike_id":"43c1a78b-d396-4314-be34-9c431dabef43","system_id":"levelo_inurba_marseille","lat":43.27072,"lon":5.42283,"is_reserved":false,"is_disabled":false,"rental_uris":{"android":"levelo://app?vid=43c1a78b-d396-4314-be34-9c431dabef43","ios":"levelo://app?vid=43c1a78b-d396-4314-be34-9c431dabef43"},"vehicle_type_id":"4","last_reported":1767370449,"current_range_meters":8400,"station_id":"ce4bhk92rcd13ifvqgb0","pricing_plan_id":"cebpf4jnsgd1na2vs0mg"},{"bike_id":"bc37c0d9-122a-4d74-b3e1-5b0dc8a43908","system_id":"levelo_inurba_marseille","lat":43.284902,"lon":5.428735,"is_reserved":false,"is_disabled":false,"rental_uris":{"android":"levelo://app?vid=bc37c0d9-122a-4d74-b3e1-5b0dc8a43908","ios":"levelo://app?vid=bc37c0d9-122a-4d74-b3e1-5b0dc8a43908"},"vehicle_type_id":"4","last_reported":1767370449,"current_range_meters":8400,"station_id":"","pricing_plan_id":"cebpf4jnsgd1na2vs0mg"},{"bike_id":"0d6bb5ad-dcd1-405b-b68d-99b30db1c271","system_id":"levelo_inurba_marseille","lat":43.27854,"lon":5.3859,"is_reserved":false,"is_disabled":false,"rental_uris":{"android":"levelo://app?vid=0d6bb5ad-dcd1-405b-b68d-99b30db1c271","ios":"levelo://app?vid=0d6bb5ad-dcd1-405b-b68d-99b30db1c271"},"vehicle_type_id":"4","last_reported":1767370449,"current_range_meters":8400,"station_id":"","pricing_plan_id":"cebpf4jnsgd1na2vs0mg"},{"bike_id":"5b8e0877-74d0-4505-84b4-8c7975a373e7","system_id":"levelo_inurba_marseille","lat":43.296701,"lon":5.380021,"is_reserved":false,"is_disabled":false,"rental_uris":{"android":"levelo://app?vid=5b8e0877-74d0-4505-84b4-8c7975a373e7","ios":"levelo://app?vid=5b8e0877-74d0-4505-84b4-8c7975a373e7"},"vehicle_type_id":"4","last_reported":1767370449,"current_range_meters":8400,"station_id":"","pricing_plan_id":"cebpf4jnsgd1na2vs0mg"},{"bike_id":"aaad646b-1f64-4c1d-84b2-64bc4850cdf0","system_id":"levelo_inurba_marseille","lat":43.30543,"lon":5.36552,"is_reserved":false,"is_disabled":false,"rental_uris":{"android":"levelo://app?vid=aaad646b-1f64-4c1d-84b2-64bc4850cdf0","ios":"levelo://app?vid=aaad646b-1f64-4c1d-84b2-64bc4850cdf0"},"vehicle_type_id":"4","last_reported":1767370449,"current_range_meters":8400,"station_id":"ce4bgs12rcd13ifvqcag","pricing_plan_id":"cebpf4jnsgd1na2vs0mg"},{"bike_id":"081e0fab-3d03-4c48-bb94-cc3c47c837cb","system_id":"levelo_inurba_marseille","lat":43.23072,"lon":5.35496,"is_reserved":false,"is_disabled":true,"rental_uris":{"android":"levelo://app?vid=081e0fab-3d03-4c48-bb94-cc3c47c837cb","ios":"levelo://app?vid=081e0fab-3d03-4c48-bb94-cc3c47c837cb"},"vehicle_type_id":"4","last_reported":1767370449,"current_range_meters":8800,"station_id":"cpo3342slgdg3j2ifvpg","pricing_plan_id":"cebpf4jnsgd1na2vs0mg"},{"bike_id":"5a0d00b9-2c08-48ee-9b63-cbd28e0a9ed0","system_id":"levelo_inurba_marseille","lat":43.28073,"lon":5.39661,"is_reserved":false,"is_disabled":false,"rental_uris":{"android":"levelo://app?vid=5a0d00b9-2c08-48ee-9b63-cbd28e0a9ed0","ios":"levelo://app?vid=5a0d00b9-2c08-48ee-9b63-cbd28e0a9ed0"},"vehicle_type_id":"4","last_reported":1767370449,"current_range_meters":8800,"station_id":"ce4bho12rcd13ifvqh2g","pricing_plan_id":"cebpf4jnsgd1na2vs0mg"},{"bike_id":"649b874c-2158-4c53-8651-f5e61cfdd6d4","system_id":"levelo_inurba_marseille","lat":43.22538,"lon":5.34837,"is_reserved":false,"is_disabled":false,"rental_uris":{"android":"levelo://app?vid=649b874c-2158-4c53-8651-f5e61cfdd6d4","ios":"levelo://app?vid=649b874c-2158-4c53-8651-f5e61cfdd6d4"},"vehicle_type_id":"4","last_reported":1767370449,"current_range_meters":8800,"station_id":"","pricing_plan_id":"cebpf4jnsgd1na2vs0mg"},{"bike_id":"306081a2-d539-46c0-aa97-98b5e78347e1","system_id":"levelo_inurba_marseille","lat":43.302701,"lon":5.377254,"is_reserved":false,"is_disabled":false,"rental_uris":{"android":"levelo://app?vid=306081a2-d539-46c0-aa97-98b5e78347e1","ios":"levelo://app?vid=306081a2-d539-46c0-aa97-98b5e78347e1"},"vehicle_type_id":"4","last_reported":1767370449,"current_range_meters":8800,"station_id":"ce4bguh2rcd13ifvqcj0","pricing_plan_id":"cebpf4jnsgd1na2vs0mg"},{"bike_id":"f4d931c1-2c16-4c38-b61d-ce86ae56fffa","system_id":"levelo_inurba_marseille","lat":43.30579,"lon":5.37196,"is_reserved":false,"is_disabled":false,"rental_uris":{"android":"levelo://app?vid=f4d931c1-2c16-4c38-b61d-ce86ae56fffa","ios":"levelo://app?vid=f4d931c1-2c16-4c38-b61d-ce86ae56fffa"},"vehicle_type_id":"4","last_reported":1767370449,"current_range_meters":8800,"station_id":"ce4bgqh2rcd13ifvqc4g","pricing_plan_id":"cebpf4jnsgd1na2vs0mg"},{"bike_id":"cacd189b-364d-4b1a-8882-a16ba27a8c11","system_id":"levelo_inurba_marseille","lat":43.23791,"lon":5.36642,"is_reserved":false,"is_disabled":false,"rental_uris":{"android":"levelo://app?vid=cacd189b-364d-4b1a-8882-a16ba27a8c11","ios":"levelo://app?vid=cacd189b-364d-4b1a-8882-a16ba27a8c11"},"vehicle_type_id":"4","last_reported":1767370449,"current_range_meters":8800,"station_id":"st_d3nk18o9ro0c73en2l3g","pricing_plan_id":"cebpf4jnsgd1na2vs0mg"},{"bike_id":"07c022e4-2904-498b-a209-52464d0f1648","system_id":"levelo_inurba_marseille","lat":43.29598,"lon":5.38096,"is_reserved":false,"is_disabled":false,"rental_uris":{"android":"levelo://app?vid=07c022e4-2904-498b-a209-52464d0f1648","ios":"levelo://app?vid=07c022e4-2904-498b-a209-52464d0f1648"},"vehicle_type_id":"4","last_reported":1767370449,"current_range_meters":8800,"station_id":"ce4bgl12rcd13ifvqbo0","pricing_plan_id":"cebpf4jnsgd1na2vs0mg"},{"bike_id":"3e9b8a52-1c26-4230-9ad9-77fb07c3ca7e","system_id":"levelo_inurba_marseille","lat":43.314971,"lon":5.373154,"is_reserved":false,"is_disabled":false,"rental_uris":{"android":"levelo://app?vid=3e9b8a52-1c26-4230-9ad9-77fb07c3ca7e","ios":"levelo://app?vid=3e9b8a52-1c26-4230-9ad9-77fb07c3ca7e"},"vehicle_type_id":"4","last_reported":1767370449,"current_range_meters":8800,"station_id":"","pricing_plan_id":"cebpf4jnsgd1na2vs0mg"},{"bike_id":"d7047870-e930-4dca-9d1e-e2f73db022e3","system_id":"levelo_inurba_marseille","lat":43.296187,"lon":5.371566,"is_reserved":false,"is_disabled":false,"rental_uris":{"android":"levelo://app?vid=d7047870-e930-4dca-9d1e-e2f73db022e3","ios":"levelo://app?vid=d7047870-e930-4dca-9d1e-e2f73db022e3"},"vehicle_type_id":"4","last_reported":1767370449,"current_range_meters":8800,"station_id":"ce4bgnh2rcd13ifvqc0g","pricing_plan_id":"cebpf4jnsgd1na2vs0mg"},{"bike_id":"222fb9ec-2875-4ac5-9c40-850f5a12dca5","system_id":"levelo_inurba_marseille","lat":43.26944,"lon":5.38639,"is_reserved":false,"is_disabled":false,"rental_uris":{"android":"levelo://app?vid=222fb9ec-2875-4ac5-9c40-850f5a12dca5","ios":"levelo://app?vid=222fb9ec-2875-4ac5-9c40-850f5a12dca5"},"vehicle_type_id":"4","last_reported":1767370449,"current_range_meters":8800,"station_id":"ce4bhh92rcd13ifvqfh0","pricing_plan_id":"cebpf4jnsgd1na2vs0mg"},{"bike_id":"1324860b-83ca-4a5c-ac5d-5e8f6006dada","system_id":"levelo_inurba_marseille","lat":43.28475,"lon":5.38425,"is_reserved":false,"is_disabled":false,"rental_uris":{"android":"levelo://app?vid=1324860b-83ca-4a5c-ac5d-5e8f6006dada","ios":"levelo://app?vid=1324860b-83ca-4a5c-ac5d-5e8f6006dada"},"vehicle_type_id":"4","last_reported":1767370449,"current_range_meters":8800,"station_id":"ce4bh512rcd13ifvqe3g","pricing_plan_id":"cebpf4jnsgd1na2vs0mg"},{"bike_id":"f3962737-94b9-4206-bf68-00425886742a","system_id":"levelo_inurba_marseille","lat":43.24407,"lon":5.37071,"is_reserved":false,"is_disabled":false,"rental_uris":{"android":"levelo://app?vid=f3962737-94b9-4206-bf68-00425886742a","ios":"levelo://app?vid=f3962737-94b9-4206-bf68-00425886742a"},"vehicle_type_id":"4","last_reported":1767370449,"current_range_meters":8800,"station_id":"ce4bhhh2rcd13ifvqfk0","pricing_plan_id":"cebpf4jnsgd1na2vs0mg"},{"bike_id":"6f089a7e-e81b-483c-a174-dfec5ca5abcf","system_id":"levelo_inurba_marseille","lat":43.24074,"lon":5.37758,"is_reserved":false,"is_disabled":false,"rental_uris":{"android":"levelo://app?vid=6f089a7e-e81b-483c-a174-dfec5ca5abcf","ios":"levelo://app?vid=6f089a7e-e81b-483c-a174-dfec5ca5abcf"},"vehicle_type_id":"4","last_reported":1767370449,"current_range_meters":8800,"station_id":"ce4bhnp2rcd13ifvqgvg","pricing_plan_id":"cebpf4jnsgd1na2vs0mg"},{"bike_id":"a8d7b9c9-9770-4e82-9b2c-b9849dc5f248","system_id":"levelo_inurba_marseille","lat":43.270689,"lon":5.422871,"is_reserved":false,"is_disabled":false,"rental_uris":{"android":"levelo://app?vid=a8d7b9c9-9770-4e82-9b2c-b9849dc5f248","ios":"levelo://app?vid=a8d7b9c9-9770-4e82-9b2c-b9849dc5f248"},"vehicle_type_id":"4","last_reported":1767370449,"current_range_meters":8800,"station_id":"ce4bhk92rcd13ifvqgb0","pricing_plan_id":"cebpf4jnsgd1na2vs0mg"},{"bike_id":"70863109-1d9f-4cf0-8c43-29a5e3efd5a3","system_id":"levelo_inurba_marseille","lat":43.28,"lon":5.40411,"is_reserved":false,"is_disabled":false,"rental_uris":{"android":"levelo://app?vid=70863109-1d9f-4cf0-8c43-29a5e3efd5a3","ios":"levelo://app?vid=70863109-1d9f-4cf0-8c43-29a5e3efd5a3"},"vehicle_type_id":"4","last_reported":1767370449,"current_range_meters":8800,"station_id":"","pricing_plan_id":"cebpf4jnsgd1na2vs0mg"},{"bike_id":"dc55e18c-67b4-4279-9e79-6b49129449a5","system_id":"levelo_inurba_marseille","lat":43.28855,"lon":5.45487,"is_reserved":false,"is_disabled":false,"rental_uris":{"android":"levelo://app?vid=dc55e18c-67b4-4279-9e79-6b49129449a5","ios":"levelo://app?vid=dc55e18c-67b4-4279-9e79-6b49129449a5"},"vehicle_type_id":"4","last_reported":1767370449,"current_range_meters":8800,"station_id":"","pricing_plan_id":"cebpf4jnsgd1na2vs0mg"},{"bike_id":"2887ffb0-2172-4fe6-a123-eeeebd3beaf2","system_id":"levelo_inurba_marseille","lat":43.26369,"lon":5.41081,"is_reserved":false,"is_disabled":false,"rental_uris":{"android":"levelo://app?vid=2887ffb0-2172-4fe6-a123-eeeebd3beaf2","ios":"levelo://app?vid=2887ffb0-2172-4fe6-a123-eeeebd3beaf2"},"vehicle_type_id":"4","last_reported":1767370449,"current_range_meters":8800,"station_id":"st_d4e5ca6na9uc73bfl5fg","pricing_plan_id":"cebpf4jnsgd1na2vs0mg"},{"bike_id":"3d518ae0-3dc3-4319-88cc-939a53c15291","system_id":"levelo_inurba_marseille","lat":43.29708,"lon":5.36606,"is_reserved":false,"is_disabled":false,"rental_uris":{"android":"levelo://app?vid=3d518ae0-3dc3-4319-88cc-939a53c15291","ios":"levelo://app?vid=3d518ae0-3dc3-4319-88cc-939a53c15291"},"vehicle_type_id":"4","last_reported":1767370449,"current_range_meters":8800,"station_id":"ce4bgn12rcd13ifvqbt0","pricing_plan_id":"cebpf4jnsgd1na2vs0mg"},{"bike_id":"cab6e3a1-14dc-43bc-a02c-39b377b92191","system_id":"levelo_inurba_marseille","lat":43.29974,"lon":5.38488,"is_reserved":false,"is_disabled":false,"rental_uris":{"android":"levelo://app?vid=cab6e3a1-14dc-43bc-a02c-39b377b92191","ios":"levelo://app?vid=cab6e3a1-14dc-43bc-a02c-39b377b92191"},"vehicle_type_id":"4","last_reported":1767370449,"current_range_meters":8800,"station_id":"ce4bgj92rcd13ifvqbd0","pricing_plan_id":"cebpf4jnsgd1na2vs0mg"},{"bike_id":"607f6356-92f4-49b1-8436-7911c576c661","system_id":"levelo_inurba_marseille","lat":43.29292,"lon":5.37362,"is_reserved":false,"is_disabled":false,"rental_uris":{"android":"levelo://app?vid=607f6356-92f4-49b1-8436-7911c576c661","ios":"levelo://app?vid=607f6356-92f4-49b1-8436-7911c576c661"},"vehicle_type_id":"4","last_reported":1767370449,"current_range_meters":9200,"station_id":"","pricing_plan_id":"cebpf4jnsgd1na2vs0mg"},{"bike_id":"61fae4ff-2397-4842-852a-e1069beef8c4","system_id":"levelo_inurba_marseille","lat":43.28527,"lon":5.44099,"is_reserved":false,"is_disabled":false,"rental_uris":{"android":"levelo://app?vid=61fae4ff-2397-4842-852a-e1069beef8c4","ios":"levelo://app?vid=61fae4ff-2397-4842-852a-e1069beef8c4"},"vehicle_type_id":"4","last_reported":1767370449,"current_range_meters":9200,"station_id":"st_d3j3df2ikq2c7380ej80","pricing_plan_id":"cebpf4jnsgd1na2vs0mg"},{"bike_id":"c71f86c2-6363-41d0-b8db-8f9291ee18b9","system_id":"levelo_inurba_marseille","lat":43.225353,"lon":5.348347,"is_reserved":false,"is_disabled":false,"rental_uris":{"android":"levelo://app?vid=c71f86c2-6363-41d0-b8db-8f9291ee18b9","ios":"levelo://app?vid=c71f86c2-6363-41d0-b8db-8f9291ee18b9"},"vehicle_type_id":"4","last_reported":1767370449,"current_range_meters":9200,"station_id":"","pricing_plan_id":"cebpf4jnsgd1na2vs0mg"},{"bike_id":"91bffa50-e7ce-461c-8ed9-f111878f86a6","system_id":"levelo_inurba_marseille","lat":43.29969,"lon":5.38495,"is_reserved":false,"is_disabled":false,"rental_uris":{"android":"levelo://app?vid=91bffa50-e7ce-461c-8ed9-f111878f86a6","ios":"levelo://app?vid=91bffa50-e7ce-461c-8ed9-f111878f86a6"},"vehicle_type_id":"4","last_reported":1767370449,"current_range_meters":9200,"station_id":"ce4bgj92rcd13ifvqbd0","pricing_plan_id":"cebpf4jnsgd1na2vs0mg"},{"bike_id":"1c049e5b-b3eb-4985-9f60-a621f5ea8094","system_id":"levelo_inurba_marseille","lat":43.29998,"lon":5.40322,"is_reserved":false,"is_disabled":false,"rental_uris":{"android":"levelo://app?vid=1c049e5b-b3eb-4985-9f60-a621f5ea8094","ios":"levelo://app?vid=1c049e5b-b3eb-4985-9f60-a621f5ea8094"},"vehicle_type_id":"4","last_reported":1767370449,"current_range_meters":9200,"station_id":"","pricing_plan_id":"cebpf4jnsgd1na2vs0mg"},{"bike_id":"4eb49ed5-3edb-450d-a189-d84f0a121255","system_id":"levelo_inurba_marseille","lat":43.29009,"lon":5.35626,"is_reserved":false,"is_disabled":false,"rental_uris":{"android":"levelo://app?vid=4eb49ed5-3edb-450d-a189-d84f0a121255","ios":"levelo://app?vid=4eb49ed5-3edb-450d-a189-d84f0a121255"},"vehicle_type_id":"4","last_reported":1767370449,"current_range_meters":9200,"station_id":"ce4bhb92rcd13ifvqen0","pricing_plan_id":"cebpf4jnsgd1na2vs0mg"},{"bike_id":"b57c6de1-75ed-4b1e-805d-0d85c3a79980","system_id":"levelo_inurba_marseille","lat":43.29187,"lon":5.35789,"is_reserved":false,"is_disabled":false,"rental_uris":{"android":"levelo://app?vid=b57c6de1-75ed-4b1e-805d-0d85c3a79980","ios":"levelo://app?vid=b57c6de1-75ed-4b1e-805d-0d85c3a79980"},"vehicle_type_id":"4","last_reported":1767370449,"current_range_meters":9200,"station_id":"ce4bhb12rcd13ifvqel0","pricing_plan_id":"cebpf4jnsgd1na2vs0mg"},{"bike_id":"4328a396-77a3-4c83-8b30-594f169c80ea","system_id":"levelo_inurba_marseille","lat":43.2837,"lon":5.3864,"is_reserved":false,"is_disabled":false,"rental_uris":{"android":"levelo://app?vid=4328a396-77a3-4c83-8b30-594f169c80ea","ios":"levelo://app?vid=4328a396-77a3-4c83-8b30-594f169c80ea"},"vehicle_type_id":"4","last_reported":1767370449,"current_range_meters":9200,"station_id":"ce4bh492rcd13ifvqdvg","pricing_plan_id":"cebpf4jnsgd1na2vs0mg"},{"bike_id":"b069e66b-3d24-44ee-a3b6-26964d74bee5","system_id":"levelo_inurba_marseille","lat":43.2801,"lon":5.40572,"is_reserved":false,"is_disabled":false,"rental_uris":{"android":"levelo://app?vid=b069e66b-3d24-44ee-a3b6-26964d74bee5","ios":"levelo://app?vid=b069e66b-3d24-44ee-a3b6-26964d74bee5"},"vehicle_type_id":"4","last_reported":1767370449,"current_range_meters":9200,"station_id":"","pricing_plan_id":"cebpf4jnsgd1na2vs0mg"},{"bike_id":"5d9168d6-f5e0-4ee1-84d2-cb5f1e22c876","system_id":"levelo_inurba_marseille","lat":43.24394,"lon":5.370476,"is_reserved":false,"is_disabled":false,"rental_uris":{"android":"levelo://app?vid=5d9168d6-f5e0-4ee1-84d2-cb5f1e22c876","ios":"levelo://app?vid=5d9168d6-f5e0-4ee1-84d2-cb5f1e22c876"},"vehicle_type_id":"4","last_reported":1767370449,"current_range_meters":9200,"station_id":"ce4bhhh2rcd13ifvqfk0","pricing_plan_id":"cebpf4jnsgd1na2vs0mg"},{"bike_id":"c89bcb22-214e-46d8-a097-d3dd2d24eda4","system_id":"levelo_inurba_marseille","lat":43.30244,"lon":5.40064,"is_reserved":false,"is_disabled":false,"rental_uris":{"android":"levelo://app?vid=c89bcb22-214e-46d8-a097-d3dd2d24eda4","ios":"levelo://app?vid=c89bcb22-214e-46d8-a097-d3dd2d24eda4"},